{"last_updated":1751382713,"ttl":60,"version":"2.2","data":{"bikes":[{"bike_id":"3da29fb8-fc97-44c6-b9ac-31dd456b2fd4","system_id":"levelo_inurba_marseille","lat":43.33771,"lon":5.37424,"is_reserved":false,"is_disabled":true,"rental_uris":{"android":"levelo://app?vid=3da29fb8-fc97-44c6-b9ac-31dd456b2fd4","ios":"levelo://app?vid=3da29fb8-fc97-44c6-b9ac-31dd456b2fd4"},"vehicle_type_id":"4","last_reported":1751382713,"current_range_meters":0,"station_id":"","pricing_plan_id":"cebpf4jnsgd1na2vs0mg"},{"bike_id":"01861ad8-a8d7-4be6-816e-651927c87584","system_id":"levelo_inurba_marseille","lat":43.33751,"lon":5.37456,"is_reserved":false,"is_disabled":true,"rental_uris":{"android":"levelo://app?vid=01861ad8-a8d7-4be6-816e-651927c87584","ios":"levelo://app?vid=01861ad8-a8d7-4be6-816e-651927c87584"},"vehicle_type_id":"4","last_reported":1751382713,"current_range_meters":0,"station_id":"","pricing_plan_id":"cebpf4jnsgd1na2vs0mg"},{"bike_id":"3168b9fb-97d2-4a0e-b7ee-673bb8cf7525","system_id":"levelo_inurba_marseille","lat":43.27781,"lon":5.35574,"is_reserved":false,"is_disabled":true,"rental_uris":{"android":"levelo://app?vid=3168b9fb-97d2-4a0e-b7ee-673bb8cf7525","ios":"levelo://app?vid=3168b9fb-97d2-4a0e-b7ee-673bb8cf7525"},"vehicle_type_id":"4","last_reported":1751382713,"current_range_meters":0,"station_id":"","pricing_plan_id":"cebpf4jnsgd1na2vs0mg"},{"bike_id":"1d934d30-6a85-4b30-9a35-9bb4ad4cb2ca","system_id":"levelo_inurba_marseille","lat":43.32719,"lon":5.42364,"is_reserved":false,"is_disabled":true,"rental_uris":{"android":"levelo://app?vid=1d934d30-6a85-4b30-9a35-9bb4ad4cb2ca","ios":"levelo://app?vid=1d934d30-6a85-4b30-9a35-9bb4ad4cb2ca"},"vehicle_type_id":"4","last_reported":1751382713,"current_range_meters":0,"station_id":"","pricing_plan_id":"cebpf4jnsgd1na2vs0mg"},{"bike_id":"2850ea7e-df18-492b-825f-2053f060420f","system_id":"levelo_inurba_marseille","lat":43.297252,"lon":5.382028,"is_reserved":false,"is_disabled":true,"rental_uris":{"android":"levelo://app?vid=2850ea7e-df18-492b-825f-2053f060420f","ios":"levelo://app?vid=2850ea7e-df18-492b-825f-2053f060420f"},"vehicle_type_id":"4","last_reported":1751382713,"current_range_meters":0,"station_id":"","pricing_plan_id":"cebpf4jnsgd1na2vs0mg"},{"bike_id":"3378c13c-e4e0-45be-9bfe-f3a4bc2c600e","system_id":"levelo_inurba_marseille","lat":43.29744,"lon":5.46023,"is_reserved":false,"is_disabled":true,"rental_uris":{"android":"levelo://app?vid=3378c13c-e4e0-45be-9bfe-f3a4bc2c600e","ios":"levelo://app?vid=3378c13c-e4e0-45be-9bfe-f3a4bc2c600e"},"vehicle_type_id":"4","last_reported":1751382713,"current_range_meters":0,"station_id":"","pricing_plan_id":"cebpf4jnsgd1na2vs0mg"},{"bike_id":"2ccccc82-c8a9-4c3b-909d-52c0bf697aa3","system_id":"levelo_inurba_marseille","lat":43.27615,"lon":5.35866,"is_reserved":false,"is_disabled":true,"rental_uris":{"android":"levelo://app?vid=2ccccc82-c8a9-4c3b-909d-52c0bf697aa3","ios":"levelo://app?vid=2ccccc82-c8a9-4c3b-909d-52c0bf697aa3"},"vehicle_type_id":"4","last_reported":1751382713,"current_range_meters":0,"station_id":"","pricing_plan_id":"cebpf4jnsgd1na2vs0mg"},{"bike_id":"4e23a522-1745-493d-ba79-2666579155b6","system_id":"levelo_inurba_marseille","lat":43.307948,"lon":5.376486,"is_reserved":false,"is_disabled":true,"rental_uris":{"android":"levelo://app?vid=4e23a522-1745-493d-ba79-2666579155b6","ios":"levelo://app?vid=4e23a522-1745-493d-ba79-2666579155b6"},"vehicle_type_id":"4","last_reported":1751382713,"current_range_meters":0,"station_id":"","pricing_plan_id":"cebpf4jnsgd1na2vs0mg"},{"bike_id":"c9700359-7f1e-4ea5-8eb5-d9c4ea1b8ef7","system_id":"levelo_inurba_marseille","lat":43.263105,"lon":5.373982,"is_reserved":false,"is_disabled":true,"rental_uris":{"android":"levelo://app?vid=c9700359-7f1e-4ea5-8eb5-d9c4ea1b8ef7","ios":"levelo://app?vid=c9700359-7f1e-4ea5-8eb5-d9c4ea1b8ef7"},"vehicle_type_id":"4","last_reported":1751382713,"current_range_meters":0,"station_id":"","pricing_plan_id":"cebpf4jnsgd1na2vs0mg"},{"bike_id":"3035be0e-7c3d-4f7d-a1cb-7a1af59e497b","system_id":"levelo_inurba_marseille","lat":43.29679,"lon":5.35999,"is_reserved":false,"is_disabled":true,"rental_uris":{"android":"levelo://app?vid=3035be0e-7c3d-4f7d-a1cb-7a1af59e497b","ios":"levelo://app?vid=3035be0e-7c3d-4f7d-a1cb-7a1af59e497b"},"vehicle_type_id":"4","last_reported":1751382713,"current_range_meters":0,"station_id":"","pricing_plan_id":"cebpf4jnsgd1na2vs0mg"},{"bike_id":"152b12e7-b4b6-4a58-8cc4-f965e955ea57","system_id":"levelo_inurba_marseille","lat":43.2997,"lon":5.38493,"is_reserved":false,"is_disabled":true,"rental_uris":{"android":"levelo://app?vid=152b12e7-b4b6-4a58-8cc4-f965e955ea57","ios":"levelo://app?vid=152b12e7-b4b6-4a58-8cc4-f965e955ea57"},"vehicle_type_id":"4","last_reported":1751382713,"current_range_meters":0,"station_id":"ce4bgj92rcd13ifvqbd0","pricing_plan_id":"cebpf4jnsgd1na2vs0mg"},{"bike_id":"fc922827-a560-40b3-a464-7d96a560fe74","system_id":"levelo_inurba_marseille","lat":43.31349,"lon":5.38505,"is_reserved":false,"is_disabled":true,"rental_uris":{"android":"levelo://app?vid=fc922827-a560-40b3-a464-7d96a560fe74","ios":"levelo://app?vid=fc922827-a560-40b3-a464-7d96a560fe74"},"vehicle_type_id":"4","last_reported":1751382713,"current_range_meters":0,"station_id":"ce4bgt92rcd13ifvqcf0","pricing_plan_id":"cebpf4jnsgd1na2vs0mg"},{"bike_id":"20aa956e-8d8a-4f3a-bb36-f5ae0f8a56d6","system_id":"levelo_inurba_marseille","lat":43.29882,"lon":5.38899,"is_reserved":false,"is_disabled":true,"rental_uris":{"android":"levelo://app?vid=20aa956e-8d8a-4f3a-bb36-f5ae0f8a56d6","ios":"levelo://app?vid=20aa956e-8d8a-4f3a-bb36-f5ae0f8a56d6"},"vehicle_type_id":"4","last_reported":1751382713,"current_range_meters":0,"station_id":"ce4bh392rcd13ifvqdl0","pricing_plan_id":"cebpf4jnsgd1na2vs0mg"},{"bike_id":"7f026254-b59e-417b-803b-7dae62729fc4","system_id":"levelo_inurba_marseille","lat":43.27371,"lon":5.36255,"is_reserved":false,"is_disabled":true,"rental_uris":{"android":"levelo://app?vid=7f026254-b59e-417b-803b-7dae62729fc4","ios":"levelo://app?vid=7f026254-b59e-417b-803b-7dae62729fc4"},"vehicle_type_id":"4","last_reported":1751382713,"current_range_meters":0,"station_id":"ce4bhbh2rcd13ifvqeo0","pricing_plan_id":"cebpf4jnsgd1na2vs0mg"},{"bike_id":"4eedb921-11a5-4c2c-b142-ac8d69f7db62","system_id":"levelo_inurba_marseille","lat":43.29228,"lon":5.36053,"is_reserved":false,"is_disabled":true,"rental_uris":{"android":"levelo://app?vid=4eedb921-11a5-4c2c-b142-ac8d69f7db62","ios":"levelo://app?vid=4eedb921-11a5-4c2c-b142-ac8d69f7db62"},"vehicle_type_id":"4","last_reported":1751382713,"current_range_meters":0,"station_id":"ce4bhbh2rcd13ifvqeqg","pricing_plan_id":"cebpf4jnsgd1na2vs0mg"},{"bike_id":"e2154123-c602-4970-a273-2b87afb8b16e","system_id":"levelo_inurba_marseille","lat":43.286163,"lon":5.351044,"is_reserved":false,"is_disabled":true,"rental_uris":{"android":"levelo://app?vid=e2154123-c602-4970-a273-2b87afb8b16e","ios":"levelo://app?vid=e2154123-c602-4970-a273-2b87afb8b16e"},"vehicle_type_id":"4","last_reported":1751382713,"current_range_meters":0,"station_id":"ce4bhch2rcd13ifvqeug","pricing_plan_id":"cebpf4jnsgd1na2vs0mg"},{"bike_id":"3621fcce-4d28-4135-90af-4efd5f9bf797","system_id":"levelo_inurba_marseille","lat":43.27911,"lon":5.38004,"is_reserved":false,"is_disabled":true,"rental_uris":{"android":"levelo://app?vid=3621fcce-4d28-4135-90af-4efd5f9bf797","ios":"levelo://app?vid=3621fcce-4d28-4135-90af-4efd5f9bf797"},"vehicle_type_id":"4","last_reported":1751382713,"current_range_meters":0,"station_id":"ce4bhf92rcd13ifvqf50","pricing_plan_id":"cebpf4jnsgd1na2vs0mg"},{"bike_id":"e58a8029-8add-4b4c-b83e-0518efe134bf","system_id":"levelo_inurba_marseille","lat":43.246487,"lon":5.388886,"is_reserved":false,"is_disabled":false,"rental_uris":{"android":"levelo://app?vid=e58a8029-8add-4b4c-b83e-0518efe134bf","ios":"levelo://app?vid=e58a8029-8add-4b4c-b83e-0518efe134bf"},"vehicle_type_id":"4","last_reported":1751382713,"current_range_meters":0,"station_id":"ce4bhg12rcd13ifvqf60","pricing_plan_id":"cebpf4jnsgd1na2vs0mg"},{"bike_id":"77e0ea84-e438-4b9c-8a87-75bb89a61b15","system_id":"levelo_inurba_marseille","lat":43.25503,"lon":5.37652,"is_reserved":false,"is_disabled":true,"rental_uris":{"android":"levelo://app?vid=77e0ea84-e438-4b9c-8a87-75bb89a61b15","ios":"levelo://app?vid=77e0ea84-e438-4b9c-8a87-75bb89a61b15"},"vehicle_type_id":"4","last_reported":1751382713,"current_range_meters":0,"station_id":"ce4bhh12rcd13ifvqff0","pricing_plan_id":"cebpf4jnsgd1na2vs0mg"},{"bike_id":"f4c5b8cd-6b6f-442f-8d2f-cbbb729e45c4","system_id":"levelo_inurba_marseille","lat":43.276687,"lon":5.388813,"is_reserved":false,"is_disabled":true,"rental_uris":{"android":"levelo://app?vid=f4c5b8cd-6b6f-442f-8d2f-cbbb729e45c4","ios":"levelo://app?vid=f4c5b8cd-6b6f-442f-8d2f-cbbb729e45c4"},"vehicle_type_id":"4","last_reported":1751382713,"current_range_meters":0,"station_id":"ce4bhi12rcd13ifvqfo0","pricing_plan_id":"cebpf4jnsgd1na2vs0mg"},{"bike_id":"9ea9b2f2-da6c-427c-b4f4-742ad87b4a40","system_id":"levelo_inurba_marseille","lat":43.32354,"lon":5.36755,"is_reserved":false,"is_disabled":true,"rental_uris":{"android":"levelo://app?vid=9ea9b2f2-da6c-427c-b4f4-742ad87b4a40","ios":"levelo://app?vid=9ea9b2f2-da6c-427c-b4f4-742ad87b4a40"},"vehicle_type_id":"4","last_reported":1751382713,"current_range_meters":0,"station_id":"ce4bhsh2rcd13ifvqi2g","pricing_plan_id":"cebpf4jnsgd1na2vs0mg"},{"bike_id":"4fed6883-c2fd-4c0e-a42b-ce8850b185cb","system_id":"levelo_inurba_marseille","lat":43.299108,"lon":5.374999,"is_reserved":false,"is_disabled":true,"rental_uris":{"android":"levelo://app?vid=4fed6883-c2fd-4c0e-a42b-ce8850b185cb","ios":"levelo://app?vid=4fed6883-c2fd-4c0e-a42b-ce8850b185cb"},"vehicle_type_id":"4","last_reported":1751382713,"current_range_meters":400,"station_id":"","pricing_plan_id":"cebpf4jnsgd1na2vs0mg"},{"bike_id":"421e2cb1-a2ac-419c-9ee3-c96968018600","system_id":"levelo_inurba_marseille","lat":43.27311,"lon":5.39088,"is_reserved":false,"is_disabled":true,"rental_uris":{"android":"levelo://app?vid=421e2cb1-a2ac-419c-9ee3-c96968018600","ios":"levelo://app?vid=421e2cb1-a2ac-419c-9ee3-c96968018600"},"vehicle_type_id":"4","last_reported":1751382713,"current_range_meters":400,"station_id":"ce4bhgp2rcd13ifvqfe0","pricing_plan_id":"cebpf4jnsgd1na2vs0mg"},{"bike_id":"fb4ab28d-b04f-4473-bad2-bc80bf953888","system_id":"levelo_inurba_marseille","lat":43.24164,"lon":5.39726,"is_reserved":false,"is_disabled":true,"rental_uris":{"android":"levelo://app?vid=fb4ab28d-b04f-4473-bad2-bc80bf953888","ios":"levelo://app?vid=fb4ab28d-b04f-4473-bad2-bc80bf953888"},"vehicle_type_id":"4","last_reported":1751382713,"current_range_meters":400,"station_id":"ce4bhn12rcd13ifvqgpg","pricing_plan_id":"cebpf4jnsgd1na2vs0mg"},{"bike_id":"f3bb54e5-5710-469b-95d1-519f2df26e28","system_id":"levelo_inurba_marseille","lat":43.30257,"lon":5.38196,"is_reserved":false,"is_disabled":true,"rental_uris":{"android":"levelo://app?vid=f3bb54e5-5710-469b-95d1-519f2df26e28","ios":"levelo://app?vid=f3bb54e5-5710-469b-95d1-519f2df26e28"},"vehicle_type_id":"4","last_reported":1751382713,"current_range_meters":800,"station_id":"","pricing_plan_id":"cebpf4jnsgd1na2vs0mg"},{"bike_id":"9e67eb4a-2020-4c9a-a358-98897cab6d55","system_id":"levelo_inurba_marseille","lat":43.31415,"lon":5.38536,"is_reserved":false,"is_disabled":true,"rental_uris":{"android":"levelo://app?vid=9e67eb4a-2020-4c9a-a358-98897cab6d55","ios":"levelo://app?vid=9e67eb4a-2020-4c9a-a358-98897cab6d55"},"vehicle_type_id":"4","last_reported":1751382713,"current_range_meters":800,"station_id":"","pricing_plan_id":"cebpf4jnsgd1na2vs0mg"},{"bike_id":"46ed2b9f-1912-466e-b039-bc4b03b9c281","system_id":"levelo_inurba_marseille","lat":43.237697,"lon":5.361693,"is_reserved":false,"is_disabled":true,"rental_uris":{"android":"levelo://app?vid=46ed2b9f-1912-466e-b039-bc4b03b9c281","ios":"levelo://app?vid=46ed2b9f-1912-466e-b039-bc4b03b9c281"},"vehicle_type_id":"4","last_reported":1751382713,"current_range_meters":800,"station_id":"","pricing_plan_id":"cebpf4jnsgd1na2vs0mg"},{"bike_id":"aacf0286-b8b3-4dcc-99df-3c0d92efa356","system_id":"levelo_inurba_marseille","lat":43.28706,"lon":5.42503,"is_reserved":false,"is_disabled":true,"rental_uris":{"android":"levelo://app?vid=aacf0286-b8b3-4dcc-99df-3c0d92efa356","ios":"levelo://app?vid=aacf0286-b8b3-4dcc-99df-3c0d92efa356"},"vehicle_type_id":"4","last_reported":1751382713,"current_range_meters":1200,"station_id":"","pricing_plan_id":"cebpf4jnsgd1na2vs0mg"},{"bike_id":"045cd265-02d2-40d4-89d2-7797abcf2a43","system_id":"levelo_inurba_marseille","lat":43.30129,"lon":5.374,"is_reserved":false,"is_disabled":true,"rental_uris":{"android":"levelo://app?vid=045cd265-02d2-40d4-89d2-7797abcf2a43","ios":"levelo://app?vid=045cd265-02d2-40d4-89d2-7797abcf2a43"},"vehicle_type_id":"4","last_reported":1751382713,"current_range_meters":1200,"station_id":"ce4bgs92rcd13ifvqcc0","pricing_plan_id":"cebpf4jnsgd1na2vs0mg"},{"bike_id":"e2cafb69-0d88-4a26-82e1-6f6ef0b79975","system_id":"levelo_inurba_marseille","lat":43.273195,"lon":5.39101,"is_reserved":false,"is_disabled":true,"rental_uris":{"android":"levelo://app?vid=e2cafb69-0d88-4a26-82e1-6f6ef0b79975","ios":"levelo://app?vid=e2cafb69-0d88-4a26-82e1-6f6ef0b79975"},"vehicle_type_id":"4","last_reported":1751382713,"current_range_meters":1200,"station_id":"ce4bhgp2rcd13ifvqfe0","pricing_plan_id":"cebpf4jnsgd1na2vs0mg"},{"bike_id":"4ea59317-2fde-4a33-8e80-3ea148735187","system_id":"levelo_inurba_marseille","lat":43.29534,"lon":5.38552,"is_reserved":false,"is_disabled":true,"rental_uris":{"android":"levelo://app?vid=4ea59317-2fde-4a33-8e80-3ea148735187","ios":"levelo://app?vid=4ea59317-2fde-4a33-8e80-3ea148735187"},"vehicle_type_id":"4","last_reported":1751382713,"current_range_meters":1600,"station_id":"ce4bgih2rcd13ifvqba0","pricing_plan_id":"cebpf4jnsgd1na2vs0mg"},{"bike_id":"f180fdf0-7dfb-4e7c-becd-0db365d97d47","system_id":"levelo_inurba_marseille","lat":43.29973,"lon":5.38491,"is_reserved":false,"is_disabled":true,"rental_uris":{"android":"levelo://app?vid=f180fdf0-7dfb-4e7c-becd-0db365d97d47","ios":"levelo://app?vid=f180fdf0-7dfb-4e7c-becd-0db365d97d47"},"vehicle_type_id":"4","last_reported":1751382713,"current_range_meters":1600,"station_id":"ce4bgj92rcd13ifvqbd0","pricing_plan_id":"cebpf4jnsgd1na2vs0mg"},{"bike_id":"2b0dc95c-932e-4a3f-95b5-92ac1c4f014d","system_id":"levelo_inurba_marseille","lat":43.27611,"lon":5.361,"is_reserved":false,"is_disabled":true,"rental_uris":{"android":"levelo://app?vid=2b0dc95c-932e-4a3f-95b5-92ac1c4f014d","ios":"levelo://app?vid=2b0dc95c-932e-4a3f-95b5-92ac1c4f014d"},"vehicle_type_id":"4","last_reported":1751382713,"current_range_meters":1600,"station_id":"ce4bgj92rcd13ifvqbe0","pricing_plan_id":"cebpf4jnsgd1na2vs0mg"},{"bike_id":"fa73f5a0-0b67-4f78-bb31-5def4f2ff7c9","system_id":"levelo_inurba_marseille","lat":43.2842,"lon":5.37514,"is_reserved":false,"is_disabled":true,"rental_uris":{"android":"levelo://app?vid=fa73f5a0-0b67-4f78-bb31-5def4f2ff7c9","ios":"levelo://app?vid=fa73f5a0-0b67-4f78-bb31-5def4f2ff7c9"},"vehicle_type_id":"4","last_reported":1751382713,"current_range_meters":1600,"station_id":"ce4bh412rcd13ifvqds0","pricing_plan_id":"cebpf4jnsgd1na2vs0mg"},{"bike_id":"896c3d65-1617-4142-947c-d9932ed2b813","system_id":"levelo_inurba_marseille","lat":43.28145,"lon":5.42655,"is_reserved":false,"is_disabled":false,"rental_uris":{"android":"levelo://app?vid=896c3d65-1617-4142-947c-d9932ed2b813","ios":"levelo://app?vid=896c3d65-1617-4142-947c-d9932ed2b813"},"vehicle_type_id":"4","last_reported":1751382713,"current_range_meters":1600,"station_id":"ce4bhnh2rcd13ifvqgug","pricing_plan_id":"cebpf4jnsgd1na2vs0mg"},{"bike_id":"6346854d-967c-470e-9bcf-0ee9cbb31745","system_id":"levelo_inurba_marseille","lat":43.26937,"lon":5.42045,"is_reserved":false,"is_disabled":true,"rental_uris":{"android":"levelo://app?vid=6346854d-967c-470e-9bcf-0ee9cbb31745","ios":"levelo://app?vid=6346854d-967c-470e-9bcf-0ee9cbb31745"},"vehicle_type_id":"4","last_reported":1751382713,"current_range_meters":2000,"station_id":"","pricing_plan_id":"cebpf4jnsgd1na2vs0mg"},{"bike_id":"c1efad21-00f4-46eb-bf3c-c8e76a74fdff","system_id":"levelo_inurba_marseille","lat":43.29039,"lon":5.37173,"is_reserved":false,"is_disabled":true,"rental_uris":{"android":"levelo://app?vid=c1efad21-00f4-46eb-bf3c-c8e76a74fdff","ios":"levelo://app?vid=c1efad21-00f4-46eb-bf3c-c8e76a74fdff"},"vehicle_type_id":"4","last_reported":1751382713,"current_range_meters":2000,"station_id":"ce4bh5p2rcd13ifvqe4g","pricing_plan_id":"cebpf4jnsgd1na2vs0mg"},{"bike_id":"7bcc0931-9325-462e-be13-69f2e8019d52","system_id":"levelo_inurba_marseille","lat":43.27494,"lon":5.42449,"is_reserved":false,"is_disabled":true,"rental_uris":{"android":"levelo://app?vid=7bcc0931-9325-462e-be13-69f2e8019d52","ios":"levelo://app?vid=7bcc0931-9325-462e-be13-69f2e8019d52"},"vehicle_type_id":"4","last_reported":1751382713,"current_range_meters":2000,"station_id":"ce4bhn92rcd13ifvqgrg","pricing_plan_id":"cebpf4jnsgd1na2vs0mg"},{"bike_id":"fdc7e350-267d-4518-aa4e-c11879393a9f","system_id":"levelo_inurba_marseille","lat":43.30417,"lon":5.41279,"is_reserved":false,"is_disabled":true,"rental_uris":{"android":"levelo://app?vid=fdc7e350-267d-4518-aa4e-c11879393a9f","ios":"levelo://app?vid=fdc7e350-267d-4518-aa4e-c11879393a9f"},"vehicle_type_id":"4","last_reported":1751382713,"current_range_meters":2000,"station_id":"ce4bhop2rcd13ifvqh8g","pricing_plan_id":"cebpf4jnsgd1na2vs0mg"},{"bike_id":"7547e1e4-2d85-4907-971d-6c8e5c4cb529","system_id":"levelo_inurba_marseille","lat":43.253642,"lon":5.375098,"is_reserved":false,"is_disabled":false,"rental_uris":{"android":"levelo://app?vid=7547e1e4-2d85-4907-971d-6c8e5c4cb529","ios":"levelo://app?vid=7547e1e4-2d85-4907-971d-6c8e5c4cb529"},"vehicle_type_id":"4","last_reported":1751382713,"current_range_meters":2800,"station_id":"","pricing_plan_id":"cebpf4jnsgd1na2vs0mg"},{"bike_id":"152824cb-edd1-48cd-b07b-b43431ffe7ee","system_id":"levelo_inurba_marseille","lat":43.298216,"lon":5.36316,"is_reserved":false,"is_disabled":false,"rental_uris":{"android":"levelo://app?vid=152824cb-edd1-48cd-b07b-b43431ffe7ee","ios":"levelo://app?vid=152824cb-edd1-48cd-b07b-b43431ffe7ee"},"vehicle_type_id":"4","last_reported":1751382713,"current_range_meters":2800,"station_id":"ce4bgpp2rcd13ifvqc3g","pricing_plan_id":"cebpf4jnsgd1na2vs0mg"},{"bike_id":"ddf48054-716a-4ba7-b255-5acfb54d2e04","system_id":"levelo_inurba_marseille","lat":43.273786,"lon":5.362595,"is_reserved":false,"is_disabled":false,"rental_uris":{"android":"levelo://app?vid=ddf48054-716a-4ba7-b255-5acfb54d2e04","ios":"levelo://app?vid=ddf48054-716a-4ba7-b255-5acfb54d2e04"},"vehicle_type_id":"4","last_reported":1751382713,"current_range_meters":2800,"station_id":"ce4bhbh2rcd13ifvqeo0","pricing_plan_id":"cebpf4jnsgd1na2vs0mg"},{"bike_id":"13800a3e-c423-46e0-a514-375a10e70bc0","system_id":"levelo_inurba_marseille","lat":43.260623,"lon":5.39395,"is_reserved":false,"is_disabled":false,"rental_uris":{"android":"levelo://app?vid=13800a3e-c423-46e0-a514-375a10e70bc0","ios":"levelo://app?vid=13800a3e-c423-46e0-a514-375a10e70bc0"},"vehicle_type_id":"4","last_reported":1751382713,"current_range_meters":2800,"station_id":"ce4bhh92rcd13ifvqfj0","pricing_plan_id":"cebpf4jnsgd1na2vs0mg"},{"bike_id":"e5a91c12-a9d1-463a-8abe-d0dd37cf3197","system_id":"levelo_inurba_marseille","lat":43.29786,"lon":5.37769,"is_reserved":false,"is_disabled":false,"rental_uris":{"android":"levelo://app?vid=e5a91c12-a9d1-463a-8abe-d0dd37cf3197","ios":"levelo://app?vid=e5a91c12-a9d1-463a-8abe-d0dd37cf3197"},"vehicle_type_id":"4","last_reported":1751382713,"current_range_meters":3200,"station_id":"","pricing_plan_id":"cebpf4jnsgd1na2vs0mg"},{"bike_id":"50875875-6e16-462f-9409-2f7ee347c81c","system_id":"levelo_inurba_marseille","lat":43.26206,"lon":5.37445,"is_reserved":false,"is_disabled":false,"rental_uris":{"android":"levelo://app?vid=50875875-6e16-462f-9409-2f7ee347c81c","ios":"levelo://app?vid=50875875-6e16-462f-9409-2f7ee347c81c"},"vehicle_type_id":"4","last_reported":1751382713,"current_range_meters":3200,"station_id":"ce4bhgp2rcd13ifvqfc0","pricing_plan_id":"cebpf4jnsgd1na2vs0mg"},{"bike_id":"c44231b8-6b9e-41cf-bdba-259c477170c3","system_id":"levelo_inurba_marseille","lat":43.26211,"lon":5.3744,"is_reserved":false,"is_disabled":false,"rental_uris":{"android":"levelo://app?vid=c44231b8-6b9e-41cf-bdba-259c477170c3","ios":"levelo://app?vid=c44231b8-6b9e-41cf-bdba-259c477170c3"},"vehicle_type_id":"4","last_reported":1751382713,"current_range_meters":3200,"station_id":"ce4bhgp2rcd13ifvqfc0","pricing_plan_id":"cebpf4jnsgd1na2vs0mg"},{"bike_id":"01cd1435-0c1f-44b7-bf65-6bca800d5dec","system_id":"levelo_inurba_marseille","lat":43.30784,"lon":5.37653,"is_reserved":false,"is_disabled":false,"rental_uris":{"android":"levelo://app?vid=01cd1435-0c1f-44b7-bf65-6bca800d5dec","ios":"levelo://app?vid=01cd1435-0c1f-44b7-bf65-6bca800d5dec"},"vehicle_type_id":"4","last_reported":1751382713,"current_range_meters":3600,"station_id":"ce4bgv92rcd13ifvqcq0","pricing_plan_id":"cebpf4jnsgd1na2vs0mg"},{"bike_id":"ac3d9dc4-85a0-4518-b260-1e63b623fd85","system_id":"levelo_inurba_marseille","lat":43.24805,"lon":5.37453,"is_reserved":false,"is_disabled":false,"rental_uris":{"android":"levelo://app?vid=ac3d9dc4-85a0-4518-b260-1e63b623fd85","ios":"levelo://app?vid=ac3d9dc4-85a0-4518-b260-1e63b623fd85"},"vehicle_type_id":"4","last_reported":1751382713,"current_range_meters":3600,"station_id":"ce4bhgh2rcd13ifvqfb0","pricing_plan_id":"cebpf4jnsgd1na2vs0mg"},{"bike_id":"1dd34ad1-43db-43eb-9f98-489c702b92fe","system_id":"levelo_inurba_marseille","lat":43.28164,"lon":5.42655,"is_reserved":false,"is_disabled":false,"rental_uris":{"android":"levelo://app?vid=1dd34ad1-43db-43eb-9f98-489c702b92fe","ios":"levelo://app?vid=1dd34ad1-43db-43eb-9f98-489c702b92fe"},"vehicle_type_id":"4","last_reported":1751382713,"current_range_meters":3600,"station_id":"ce4bhnh2rcd13ifvqgug","pricing_plan_id":"cebpf4jnsgd1na2vs0mg"},{"bike_id":"d43ba3d0-84dd-4947-a150-36f4586adaf6","system_id":"levelo_inurba_marseille","lat":43.25493,"lon":5.37661,"is_reserved":false,"is_disabled":false,"rental_uris":{"android":"levelo://app?vid=d43ba3d0-84dd-4947-a150-36f4586adaf6","ios":"levelo://app?vid=d43ba3d0-84dd-4947-a150-36f4586adaf6"},"vehicle_type_id":"4","last_reported":1751382713,"current_range_meters":4000,"station_id":"ce4bhh12rcd13ifvqff0","pricing_plan_id":"cebpf4jnsgd1na2vs0mg"},{"bike_id":"fd9448a3-e30e-4a21-ac57-227a0323b71d","system_id":"levelo_inurba_marseille","lat":43.292276,"lon":5.360407,"is_reserved":false,"is_disabled":false,"rental_uris":{"android":"levelo://app?vid=fd9448a3-e30e-4a21-ac57-227a0323b71d","ios":"levelo://app?vid=fd9448a3-e30e-4a21-ac57-227a0323b71d"},"vehicle_type_id":"4","last_reported":1751382713,"current_range_meters":4400,"station_id":"ce4bhbh2rcd13ifvqeqg","pricing_plan_id":"cebpf4jnsgd1na2vs0mg"},{"bike_id":"fd852a15-c75b-42eb-b289-cd5db9869ef0","system_id":"levelo_inurba_marseille","lat":43.2816,"lon":5.42664,"is_reserved":false,"is_disabled":false,"rental_uris":{"android":"levelo://app?vid=fd852a15-c75b-42eb-b289-cd5db9869ef0","ios":"levelo://app?vid=fd852a15-c75b-42eb-b289-cd5db9869ef0"},"vehicle_type_id":"4","last_reported":1751382713,"current_range_meters":4400,"station_id":"ce4bhnh2rcd13ifvqgug","pricing_plan_id":"cebpf4jnsgd1na2vs0mg"},{"bike_id":"0ae07b5c-871a-4381-8568-03408c256a1a","system_id":"levelo_inurba_marseille","lat":43.29983,"lon":5.38486,"is_reserved":false,"is_disabled":false,"rental_uris":{"android":"levelo://app?vid=0ae07b5c-871a-4381-8568-03408c256a1a","ios":"levelo://app?vid=0ae07b5c-871a-4381-8568-03408c256a1a"},"vehicle_type_id":"4","last_reported":1751382713,"current_range_meters":4800,"station_id":"ce4bgj92rcd13ifvqbd0","pricing_plan_id":"cebpf4jnsgd1na2vs0mg"},{"bike_id":"d1d83aab-a4f5-43e8-9eeb-dbb9dc298eea","system_id":"levelo_inurba_marseille","lat":43.30316,"lon":5.40437,"is_reserved":false,"is_disabled":false,"rental_uris":{"android":"levelo://app?vid=d1d83aab-a4f5-43e8-9eeb-dbb9dc298eea","ios":"levelo://app?vid=d1d83aab-a4f5-43e8-9eeb-dbb9dc298eea"},"vehicle_type_id":"4","last_reported":1751382713,"current_range_meters":4800,"station_id":"ce4bh012rcd13ifvqd10","pricing_plan_id":"cebpf4jnsgd1na2vs0mg"},{"bike_id":"f6578a3a-a8db-4be9-8ceb-d87aab5bcf73","system_id":"levelo_inurba_marseille","lat":43.29029,"lon":5.39972,"is_reserved":false,"is_disabled":false,"rental_uris":{"android":"levelo://app?vid=f6578a3a-a8db-4be9-8ceb-d87aab5bcf73","ios":"levelo://app?vid=f6578a3a-a8db-4be9-8ceb-d87aab5bcf73"},"vehicle_type_id":"4","last_reported":1751382713,"current_range_meters":4800,"station_id":"ce4bh392rcd13ifvqdm0","pricing_plan_id":"cebpf4jnsgd1na2vs0mg"},{"bike_id":"fa65f38c-3d67-4086-96c2-6292747533fc","system_id":"levelo_inurba_marseille","lat":43.28856,"lon":5.35842,"is_reserved":false,"is_disabled":false,"rental_uris":{"android":"levelo://app?vid=fa65f38c-3d67-4086-96c2-6292747533fc","ios":"levelo://app?vid=fa65f38c-3d67-4086-96c2-6292747533fc"},"vehicle_type_id":"4","last_reported":1751382713,"current_range_meters":4800,"station_id":"ce4bhb12rcd13ifvqem0","pricing_plan_id":"cebpf4jnsgd1na2vs0mg"},{"bike_id":"8038a567-2ee5-46ff-98e3-75e3290559f8","system_id":"levelo_inurba_marseille","lat":43.29006,"lon":5.35612,"is_reserved":false,"is_disabled":false,"rental_uris":{"android":"levelo://app?vid=8038a567-2ee5-46ff-98e3-75e3290559f8","ios":"levelo://app?vid=8038a567-2ee5-46ff-98e3-75e3290559f8"},"vehicle_type_id":"4","last_reported":1751382713,"current_range_meters":4800,"station_id":"ce4bhb92rcd13ifvqen0","pricing_plan_id":"cebpf4jnsgd1na2vs0mg"},{"bike_id":"0ca10594-0ccc-480f-b01f-ab65cde237a7","system_id":"levelo_inurba_marseille","lat":43.27322,"lon":5.39064,"is_reserved":false,"is_disabled":false,"rental_uris":{"android":"levelo://app?vid=0ca10594-0ccc-480f-b01f-ab65cde237a7","ios":"levelo://app?vid=0ca10594-0ccc-480f-b01f-ab65cde237a7"},"vehicle_type_id":"4","last_reported":1751382713,"current_range_meters":4800,"station_id":"ce4bhgp2rcd13ifvqfe0","pricing_plan_id":"cebpf4jnsgd1na2vs0mg"},{"bike_id":"be6e912c-cb5c-421a-8bff-c8fea69fbfbc","system_id":"levelo_inurba_marseille","lat":43.23067,"lon":5.3549,"is_reserved":false,"is_disabled":false,"rental_uris":{"android":"levelo://app?vid=be6e912c-cb5c-421a-8bff-c8fea69fbfbc","ios":"levelo://app?vid=be6e912c-cb5c-421a-8bff-c8fea69fbfbc"},"vehicle_type_id":"4","last_reported":1751382713,"current_range_meters":4800,"station_id":"cpo3342slgdg3j2ifvpg","pricing_plan_id":"cebpf4jnsgd1na2vs0mg"},{"bike_id":"8aaf7a1e-e323-4460-b84c-b7a6ae5610ae","system_id":"levelo_inurba_marseille","lat":43.28451,"lon":5.35893,"is_reserved":false,"is_disabled":false,"rental_uris":{"android":"levelo://app?vid=8aaf7a1e-e323-4460-b84c-b7a6ae5610ae","ios":"levelo://app?vid=8aaf7a1e-e323-4460-b84c-b7a6ae5610ae"},"vehicle_type_id":"4","last_reported":1751382713,"current_range_meters":5600,"station_id":"ce4bhah2rcd13ifvqei0","pricing_plan_id":"cebpf4jnsgd1na2vs0mg"},{"bike_id":"162af4e6-d224-4240-aeac-6cb0ae06de53","system_id":"levelo_inurba_marseille","lat":43.29948,"lon":5.37839,"is_reserved":false,"is_disabled":false,"rental_uris":{"android":"levelo://app?vid=162af4e6-d224-4240-aeac-6cb0ae06de53","ios":"levelo://app?vid=162af4e6-d224-4240-aeac-6cb0ae06de53"},"vehicle_type_id":"4","last_reported":1751382713,"current_range_meters":6000,"station_id":"","pricing_plan_id":"cebpf4jnsgd1na2vs0mg"},{"bike_id":"8002bee9-a340-49de-8e28-1dc166f1eacd","system_id":"levelo_inurba_marseille","lat":43.283481,"lon":5.381046,"is_reserved":false,"is_disabled":false,"rental_uris":{"android":"levelo://app?vid=8002bee9-a340-49de-8e28-1dc166f1eacd","ios":"levelo://app?vid=8002bee9-a340-49de-8e28-1dc166f1eacd"},"vehicle_type_id":"4","last_reported":1751382713,"current_range_meters":6000,"station_id":"ce4bh412rcd13ifvqdr0","pricing_plan_id":"cebpf4jnsgd1na2vs0mg"},{"bike_id":"0e11057a-ec0f-4325-b666-c98f4d7bc22f","system_id":"levelo_inurba_marseille","lat":43.2621,"lon":5.37441,"is_reserved":false,"is_disabled":false,"rental_uris":{"android":"levelo://app?vid=0e11057a-ec0f-4325-b666-c98f4d7bc22f","ios":"levelo://app?vid=0e11057a-ec0f-4325-b666-c98f4d7bc22f"},"vehicle_type_id":"4","last_reported":1751382713,"current_range_meters":6000,"station_id":"ce4bhgp2rcd13ifvqfc0","pricing_plan_id":"cebpf4jnsgd1na2vs0mg"},{"bike_id":"74f852ae-4460-44c2-9656-132bdd7d1093","system_id":"levelo_inurba_marseille","lat":43.25579,"lon":5.38229,"is_reserved":false,"is_disabled":false,"rental_uris":{"android":"levelo://app?vid=74f852ae-4460-44c2-9656-132bdd7d1093","ios":"levelo://app?vid=74f852ae-4460-44c2-9656-132bdd7d1093"},"vehicle_type_id":"4","last_reported":1751382713,"current_range_meters":6000,"station_id":"ce4bhih2rcd13ifvqfs0","pricing_plan_id":"cebpf4jnsgd1na2vs0mg"},{"bike_id":"24a42d97-725b-4291-829a-ecfd33dc15c8","system_id":"levelo_inurba_marseille","lat":43.308841,"lon":5.396577,"is_reserved":false,"is_disabled":false,"rental_uris":{"android":"levelo://app?vid=24a42d97-725b-4291-829a-ecfd33dc15c8","ios":"levelo://app?vid=24a42d97-725b-4291-829a-ecfd33dc15c8"},"vehicle_type_id":"4","last_reported":1751382713,"current_range_meters":6400,"station_id":"ce4bh012rcd13ifvqcv0","pricing_plan_id":"cebpf4jnsgd1na2vs0mg"},{"bike_id":"f890ff17-8106-4a57-b72e-5bc3704ae85d","system_id":"levelo_inurba_marseille","lat":43.284874,"lon":5.385591,"is_reserved":false,"is_disabled":false,"rental_uris":{"android":"levelo://app?vid=f890ff17-8106-4a57-b72e-5bc3704ae85d","ios":"levelo://app?vid=f890ff17-8106-4a57-b72e-5bc3704ae85d"},"vehicle_type_id":"4","last_reported":1751382713,"current_range_meters":6400,"station_id":"ce4bh8p2rcd13ifvqeb0","pricing_plan_id":"cebpf4jnsgd1na2vs0mg"},{"bike_id":"c3394a1f-bfd6-4872-930e-a208167394ed","system_id":"levelo_inurba_marseille","lat":43.29273,"lon":5.36839,"is_reserved":false,"is_disabled":false,"rental_uris":{"android":"levelo://app?vid=c3394a1f-bfd6-4872-930e-a208167394ed","ios":"levelo://app?vid=c3394a1f-bfd6-4872-930e-a208167394ed"},"vehicle_type_id":"4","last_reported":1751382713,"current_range_meters":6400,"station_id":"ce4bhbp2rcd13ifvqesg","pricing_plan_id":"cebpf4jnsgd1na2vs0mg"},{"bike_id":"0d8df82f-5038-4f34-9ec9-e01bc5551915","system_id":"levelo_inurba_marseille","lat":43.26203,"lon":5.3744,"is_reserved":false,"is_disabled":false,"rental_uris":{"android":"levelo://app?vid=0d8df82f-5038-4f34-9ec9-e01bc5551915","ios":"levelo://app?vid=0d8df82f-5038-4f34-9ec9-e01bc5551915"},"vehicle_type_id":"4","last_reported":1751382713,"current_range_meters":6400,"station_id":"ce4bhgp2rcd13ifvqfc0","pricing_plan_id":"cebpf4jnsgd1na2vs0mg"},{"bike_id":"dfd578c6-3028-47d8-bab5-a52655cbc8c2","system_id":"levelo_inurba_marseille","lat":43.21753,"lon":5.34592,"is_reserved":false,"is_disabled":false,"rental_uris":{"android":"levelo://app?vid=dfd578c6-3028-47d8-bab5-a52655cbc8c2","ios":"levelo://app?vid=dfd578c6-3028-47d8-bab5-a52655cbc8c2"},"vehicle_type_id":"4","last_reported":1751382713,"current_range_meters":6400,"station_id":"st_cvj6r9ubvosntc0bgbag","pricing_plan_id":"cebpf4jnsgd1na2vs0mg"},{"bike_id":"d62955d6-7fc8-4b4f-ac65-7d16341b317a","system_id":"levelo_inurba_marseille","lat":43.29165,"lon":5.37158,"is_reserved":false,"is_disabled":false,"rental_uris":{"android":"levelo://app?vid=d62955d6-7fc8-4b4f-ac65-7d16341b317a","ios":"levelo://app?vid=d62955d6-7fc8-4b4f-ac65-7d16341b317a"},"vehicle_type_id":"4","last_reported":1751382713,"current_range_meters":6800,"station_id":"ce4bha92rcd13ifvqeh0","pricing_plan_id":"cebpf4jnsgd1na2vs0mg"},{"bike_id":"eeca0981-6e6b-4cc4-992c-65a8b8bbec4c","system_id":"levelo_inurba_marseille","lat":43.2294,"lon":5.35381,"is_reserved":false,"is_disabled":false,"rental_uris":{"android":"levelo://app?vid=eeca0981-6e6b-4cc4-992c-65a8b8bbec4c","ios":"levelo://app?vid=eeca0981-6e6b-4cc4-992c-65a8b8bbec4c"},"vehicle_type_id":"4","last_reported":1751382713,"current_range_meters":6800,"station_id":"cpo3532slgdg3j2ikp40","pricing_plan_id":"cebpf4jnsgd1na2vs0mg"},{"bike_id":"b05ac08d-847b-4f20-ac36-038a0d69d167","system_id":"levelo_inurba_marseille","lat":43.281311,"lon":5.358526,"is_reserved":false,"is_disabled":false,"rental_uris":{"android":"levelo://app?vid=b05ac08d-847b-4f20-ac36-038a0d69d167","ios":"levelo://app?vid=b05ac08d-847b-4f20-ac36-038a0d69d167"},"vehicle_type_id":"4","last_reported":1751382713,"current_range_meters":7200,"station_id":"","pricing_plan_id":"cebpf4jnsgd1na2vs0mg"},{"bike_id":"f5c16f07-bc6f-4121-91a7-5ad90eec4f34","system_id":"levelo_inurba_marseille","lat":43.31205,"lon":5.37353,"is_reserved":false,"is_disabled":false,"rental_uris":{"android":"levelo://app?vid=f5c16f07-bc6f-4121-91a7-5ad90eec4f34","ios":"levelo://app?vid=f5c16f07-bc6f-4121-91a7-5ad90eec4f34"},"vehicle_type_id":"4","last_reported":1751382713,"current_range_meters":7200,"station_id":"","pricing_plan_id":"cebpf4jnsgd1na2vs0mg"},{"bike_id":"46a05744-56f9-416e-9545-5939bd40f6f5","system_id":"levelo_inurba_marseille","lat":43.28157,"lon":5.4264,"is_reserved":false,"is_disabled":false,"rental_uris":{"android":"levelo://app?vid=46a05744-56f9-416e-9545-5939bd40f6f5","ios":"levelo://app?vid=46a05744-56f9-416e-9545-5939bd40f6f5"},"vehicle_type_id":"4","last_reported":1751382713,"current_range_meters":7200,"station_id":"ce4bhnh2rcd13ifvqgug","pricing_plan_id":"cebpf4jnsgd1na2vs0mg"},{"bike_id":"4f246c86-da38-40d0-ae0e-9a78491cc016","system_id":"levelo_inurba_marseille","lat":43.28072,"lon":5.396408,"is_reserved":false,"is_disabled":false,"rental_uris":{"android":"levelo://app?vid=4f246c86-da38-40d0-ae0e-9a78491cc016","ios":"levelo://app?vid=4f246c86-da38-40d0-ae0e-9a78491cc016"},"vehicle_type_id":"4","last_reported":1751382713,"current_range_meters":7200,"station_id":"ce4bho12rcd13ifvqh2g","pricing_plan_id":"cebpf4jnsgd1na2vs0mg"},{"bike_id":"1442e42b-20f4-403c-bb9e-a68c31b4df0b","system_id":"levelo_inurba_marseille","lat":43.30423,"lon":5.41274,"is_reserved":false,"is_disabled":false,"rental_uris":{"android":"levelo://app?vid=1442e42b-20f4-403c-bb9e-a68c31b4df0b","ios":"levelo://app?vid=1442e42b-20f4-403c-bb9e-a68c31b4df0b"},"vehicle_type_id":"4","last_reported":1751382713,"current_range_meters":7200,"station_id":"ce4bhop2rcd13ifvqh8g","pricing_plan_id":"cebpf4jnsgd1na2vs0mg"},{"bike_id":"11590693-8f59-403f-8233-36266dcb0ddf","system_id":"levelo_inurba_marseille","lat":43.2175,"lon":5.34595,"is_reserved":false,"is_disabled":false,"rental_uris":{"android":"levelo://app?vid=11590693-8f59-403f-8233-36266dcb0ddf","ios":"levelo://app?vid=11590693-8f59-403f-8233-36266dcb0ddf"},"vehicle_type_id":"4","last_reported":1751382713,"current_range_meters":7200,"station_id":"st_cvj6r9ubvosntc0bgbag","pricing_plan_id":"cebpf4jnsgd1na2vs0mg"},{"bike_id":"43fcb430-53f7-4349-b49c-62f8e6ea8db4","system_id":"levelo_inurba_marseille","lat":43.284553,"lon":5.43693,"is_reserved":false,"is_disabled":false,"rental_uris":{"android":"levelo://app?vid=43fcb430-53f7-4349-b49c-62f8e6ea8db4","ios":"levelo://app?vid=43fcb430-53f7-4349-b49c-62f8e6ea8db4"},"vehicle_type_id":"4","last_reported":1751382713,"current_range_meters":8000,"station_id":"","pricing_plan_id":"cebpf4jnsgd1na2vs0mg"},{"bike_id":"1d8b2545-1c88-4c3a-b92f-333dfa368a55","system_id":"levelo_inurba_marseille","lat":43.29802,"lon":5.38078,"is_reserved":false,"is_disabled":false,"rental_uris":{"android":"levelo://app?vid=1d8b2545-1c88-4c3a-b92f-333dfa368a55","ios":"levelo://app?vid=1d8b2545-1c88-4c3a-b92f-333dfa368a55"},"vehicle_type_id":"4","last_reported":1751382713,"current_range_meters":8000,"station_id":"ce4bgip2rcd13ifvqbb0","pricing_plan_id":"cebpf4jnsgd1na2vs0mg"},{"bike_id":"c6242e39-0100-4e8e-a485-cf7794af6a9d","system_id":"levelo_inurba_marseille","lat":43.29907,"lon":5.38138,"is_reserved":false,"is_disabled":false,"rental_uris":{"android":"levelo://app?vid=c6242e39-0100-4e8e-a485-cf7794af6a9d","ios":"levelo://app?vid=c6242e39-0100-4e8e-a485-cf7794af6a9d"},"vehicle_type_id":"4","last_reported":1751382713,"current_range_meters":8000,"station_id":"ce4bgj12rcd13ifvqbc0","pricing_plan_id":"cebpf4jnsgd1na2vs0mg"},{"bike_id":"c97e34f4-9bbf-4362-8120-e5dec97f0170","system_id":"levelo_inurba_marseille","lat":43.29913,"lon":5.38871,"is_reserved":false,"is_disabled":false,"rental_uris":{"android":"levelo://app?vid=c97e34f4-9bbf-4362-8120-e5dec97f0170","ios":"levelo://app?vid=c97e34f4-9bbf-4362-8120-e5dec97f0170"},"vehicle_type_id":"4","last_reported":1751382713,"current_range_meters":8000,"station_id":"ce4bh392rcd13ifvqdl0","pricing_plan_id":"cebpf4jnsgd1na2vs0mg"},{"bike_id":"35dc438e-8cee-4c30-acd9-5c97e8c17f31","system_id":"levelo_inurba_marseille","lat":43.28866,"lon":5.35848,"is_reserved":false,"is_disabled":false,"rental_uris":{"android":"levelo://app?vid=35dc438e-8cee-4c30-acd9-5c97e8c17f31","ios":"levelo://app?vid=35dc438e-8cee-4c30-acd9-5c97e8c17f31"},"vehicle_type_id":"4","last_reported":1751382713,"current_range_meters":8000,"station_id":"ce4bhb12rcd13ifvqem0","pricing_plan_id":"cebpf4jnsgd1na2vs0mg"},{"bike_id":"4e4bdaf9-320d-4298-8ad8-b10f119f5d92","system_id":"levelo_inurba_marseille","lat":43.25,"lon":5.38907,"is_reserved":false,"is_disabled":false,"rental_uris":{"android":"levelo://app?vid=4e4bdaf9-320d-4298-8ad8-b10f119f5d92","ios":"levelo://app?vid=4e4bdaf9-320d-4298-8ad8-b10f119f5d92"},"vehicle_type_id":"4","last_reported":1751382713,"current_range_meters":8000,"station_id":"ce4bhgp2rcd13ifvqfd0","pricing_plan_id":"cebpf4jnsgd1na2vs0mg"},{"bike_id":"6029ee88-8986-4171-8842-d9a6cbd1abf8","system_id":"levelo_inurba_marseille","lat":43.232,"lon":5.39965,"is_reserved":false,"is_disabled":false,"rental_uris":{"android":"levelo://app?vid=6029ee88-8986-4171-8842-d9a6cbd1abf8","ios":"levelo://app?vid=6029ee88-8986-4171-8842-d9a6cbd1abf8"},"vehicle_type_id":"4","last_reported":1751382713,"current_range_meters":8000,"station_id":"ce4bhn12rcd13ifvqgqg","pricing_plan_id":"cebpf4jnsgd1na2vs0mg"},{"bike_id":"9953d29a-2620-4d01-853b-054714b89a87","system_id":"levelo_inurba_marseille","lat":43.22932,"lon":5.3538,"is_reserved":false,"is_disabled":false,"rental_uris":{"android":"levelo://app?vid=9953d29a-2620-4d01-853b-054714b89a87","ios":"levelo://app?vid=9953d29a-2620-4d01-853b-054714b89a87"},"vehicle_type_id":"4","last_reported":1751382713,"current_range_meters":8000,"station_id":"cpo3532slgdg3j2ikp40","pricing_plan_id":"cebpf4jnsgd1na2vs0mg"},{"bike_id":"b3a19c48-42ee-4cf9-bbbd-e6a6abdabd88","system_id":"levelo_inurba_marseille","lat":43.30429,"lon":5.38884,"is_reserved":false,"is_disabled":false,"rental_uris":{"android":"levelo://app?vid=b3a19c48-42ee-4cf9-bbbd-e6a6abdabd88","ios":"levelo://app?vid=b3a19c48-42ee-4cf9-bbbd-e6a6abdabd88"},"vehicle_type_id":"4","last_reported":1751382713,"current_range_meters":8400,"station_id":"ce4bgk12rcd13ifvqbi0","pricing_plan_id":"cebpf4jnsgd1na2vs0mg"},{"bike_id":"ec24542b-f40a-4c1c-b097-22d6dad283f2","system_id":"levelo_inurba_marseille","lat":43.25112,"lon":5.40322,"is_reserved":false,"is_disabled":false,"rental_uris":{"android":"levelo://app?vid=ec24542b-f40a-4c1c-b097-22d6dad283f2","ios":"levelo://app?vid=ec24542b-f40a-4c1c-b097-22d6dad283f2"},"vehicle_type_id":"4","last_reported":1751382713,"current_range_meters":8400,"station_id":"ce4bhlh2rcd13ifvqgig","pricing_plan_id":"cebpf4jnsgd1na2vs0mg"},{"bike_id":"860ecc02-a6d5-4fbe-ada6-b9197deada15","system_id":"levelo_inurba_marseille","lat":43.32552,"lon":5.389277,"is_reserved":false,"is_disabled":false,"rental_uris":{"android":"levelo://app?vid=860ecc02-a6d5-4fbe-ada6-b9197deada15","ios":"levelo://app?vid=860ecc02-a6d5-4fbe-ada6-b9197deada15"},"vehicle_type_id":"4","last_reported":1751382713,"current_range_meters":8800,"station_id":"","pricing_plan_id":"cebpf4jnsgd1na2vs0mg"},{"bike_id":"9e43b46d-7bd7-4426-8cfb-5c15a248c589","system_id":"levelo_inurba_marseille","lat":43.29304,"lon":5.37164,"is_reserved":false,"is_disabled":false,"rental_uris":{"android":"levelo://app?vid=9e43b46d-7bd7-4426-8cfb-5c15a248c589","ios":"levelo://app?vid=9e43b46d-7bd7-4426-8cfb-5c15a248c589"},"vehicle_type_id":"4","last_reported":1751382713,"current_range_meters":8800,"station_id":"ce4bgh92rcd13ifvqb40","pricing_plan_id":"cebpf4jnsgd1na2vs0mg"},{"bike_id":"6f524907-01ab-4edc-95c7-9353754f6f5b","system_id":"levelo_inurba_marseille","lat":43.28466,"lon":5.35887,"is_reserved":false,"is_disabled":false,"rental_uris":{"android":"levelo://app?vid=6f524907-01ab-4edc-95c7-9353754f6f5b","ios":"levelo://app?vid=6f524907-01ab-4edc-95c7-9353754f6f5b"},"vehicle_type_id":"4","last_reported":1751382713,"current_range_meters":8800,"station_id":"ce4bhah2rcd13ifvqei0","pricing_plan_id":"cebpf4jnsgd1na2vs0mg"},{"bike_id":"2005caed-8f39-487a-9ac6-9b027cb9ba81","system_id":"levelo_inurba_marseille","lat":43.28268,"lon":5.35056,"is_reserved":false,"is_disabled":false,"rental_uris":{"android":"levelo://app?vid=2005caed-8f39-487a-9ac6-9b027cb9ba81","ios":"levelo://app?vid=2005caed-8f39-487a-9ac6-9b027cb9ba81"},"vehicle_type_id":"4","last_reported":1751382713,"current_range_meters":8800,"station_id":"ce4bhbp2rcd13ifvqerg","pricing_plan_id":"cebpf4jnsgd1na2vs0mg"},{"bike_id":"78d75c29-8d87-4437-8bf0-52940335d596","system_id":"levelo_inurba_marseille","lat":43.27183,"lon":5.40999,"is_reserved":false,"is_disabled":false,"rental_uris":{"android":"levelo://app?vid=78d75c29-8d87-4437-8bf0-52940335d596","ios":"levelo://app?vid=78d75c29-8d87-4437-8bf0-52940335d596"},"vehicle_type_id":"4","last_reported":1751382713,"current_range_meters":8800,"station_id":"ce4bhl12rcd13ifvqgf0","pricing_plan_id":"cebpf4jnsgd1na2vs0mg"},{"bike_id":"de539fd6-6e85-4567-85a4-ddad0b4c3682","system_id":"levelo_inurba_marseille","lat":43.25863,"lon":5.39898,"is_reserved":false,"is_disabled":false,"rental_uris":{"android":"levelo://app?vid=de539fd6-6e85-4567-85a4-ddad0b4c3682","ios":"levelo://app?vid=de539fd6-6e85-4567-85a4-ddad0b4c3682"},"vehicle_type_id":"4","last_reported":1751382713,"current_range_meters":8800,"station_id":"ce4bhl92rcd13ifvqghg","pricing_plan_id":"cebpf4jnsgd1na2vs0mg"},{"bike_id":"5fba6177-aa78-4856-9366-e4781b44d7ab","system_id":"levelo_inurba_marseille","lat":43.23191,"lon":5.355533,"is_reserved":false,"is_disabled":false,"rental_uris":{"android":"levelo://app?vid=5fba6177-aa78-4856-9366-e4781b44d7ab","ios":"levelo://app?vid=5fba6177-aa78-4856-9366-e4781b44d7ab"},"vehicle_type_id":"4","last_reported":1751382713,"current_range_meters":8800,"station_id":"ce4bhu92rcd13ifvqi70","pricing_plan_id":"cebpf4jnsgd1na2vs0mg"},{"bike_id":"8252b44a-d048-4379-9209-2efa2e627825","system_id":"levelo_inurba_marseille","lat":43.29214,"lon":5.40574,"is_reserved":false,"is_disabled":false,"rental_uris":{"android":"levelo://app?vid=8252b44a-d048-4379-9209-2efa2e627825","ios":"levelo://app?vid=8252b44a-d048-4379-9209-2efa2e627825"},"vehicle_type_id":"4","last_reported":1751382713,"current_range_meters":9200,"station_id":"","pricing_plan_id":"cebpf4jnsgd1na2vs0mg"},{"bike_id":"e11ffde0-d953-481d-a3c0-5c7782a8d5be","system_id":"levelo_inurba_marseille","lat":43.28048,"lon":5.36941,"is_reserved":false,"is_disabled":false,"rental_uris":{"android":"levelo://app?vid=e11ffde0-d953-481d-a3c0-5c7782a8d5be","ios":"levelo://app?vid=e11ffde0-d953-481d-a3c0-5c7782a8d5be"},"vehicle_type_id":"4","last_reported":1751382713,"current_range_meters":9200,"station_id":"ce4bha12rcd13ifvqef0","pricing_plan_id":"cebpf4jnsgd1na2vs0mg"},{"bike_id":"6fc7d9da-f033-4c3e-be74-042e325f72cd","system_id":"levelo_inurba_marseille","lat":43.26699,"lon":5.38254,"is_reserved":false,"is_disabled":false,"rental_uris":{"android":"levelo://app?vid=6fc7d9da-f033-4c3e-be74-042e325f72cd","ios":"levelo://app?vid=6fc7d9da-f033-4c3e-be74-042e325f72cd"},"vehicle_type_id":"4","last_reported":1751382713,"current_range_meters":9200,"station_id":"ce4bhg92rcd13ifvqf90","pricing_plan_id":"cebpf4jnsgd1na2vs0mg"},{"bike_id":"03b00d1a-7de6-4de5-9adf-cca39643b5ad","system_id":"levelo_inurba_marseille","lat":43.26935,"lon":5.4024,"is_reserved":false,"is_disabled":false,"rental_uris":{"android":"levelo://app?vid=03b00d1a-7de6-4de5-9adf-cca39643b5ad","ios":"levelo://app?vid=03b00d1a-7de6-4de5-9adf-cca39643b5ad"},"vehicle_type_id":"4","last_reported":1751382713,"current_range_meters":9200,"station_id":"cjm6bp8fraef2m0cb0m0","pricing_plan_id":"cebpf4jnsgd1na2vs0mg"},{"bike_id":"0e5647af-aeaf-47d4-800a-3eb981d7e62d","system_id":"levelo_inurba_marseille","lat":43.3088,"lon":5.39658,"is_reserved":false,"is_disabled":false,"rental_uris":{"android":"levelo://app?vid=0e5647af-aeaf-47d4-800a-3eb981d7e62d","ios":"levelo://app?vid=0e5647af-aeaf-47d4-800a-3eb981d7e62d"},"vehicle_type_id":"4","last_reported":1751382713,"current_range_meters":9600,"station_id":"ce4bh012rcd13ifvqcv0","pricing_plan_id":"cebpf4jnsgd1na2vs0mg"},{"bike_id":"1f1d65d6-68a3-42fa-93f2-d56169dd7d8f","system_id":"levelo_inurba_marseille","lat":43.26194,"lon":5.37446,"is_reserved":false,"is_disabled":false,"rental_uris":{"android":"levelo://app?vid=1f1d65d6-68a3-42fa-93f2-d56169dd7d8f","ios":"levelo://app?vid=1f1d65d6-68a3-42fa-93f2-d56169dd7d8f"},"vehicle_type_id":"4","last_reported":1751382713,"current_range_meters":9600,"station_id":"ce4bhgp2rcd13ifvqfc0","pricing_plan_id":"cebpf4jnsgd1na2vs0mg"},{"bike_id":"6b04a8db-f012-4ea9-88f5-d59ff3f24fd9","system_id":"levelo_inurba_marseille","lat":43.29906,"lon":5.43643,"is_reserved":false,"is_disabled":false,"rental_uris":{"android":"levelo://app?vid=6b04a8db-f012-4ea9-88f5-d59ff3f24fd9","ios":"levelo://app?vid=6b04a8db-f012-4ea9-88f5-d59ff3f24fd9"},"vehicle_type_id":"4","last_reported":1751382713,"current_range_meters":9600,"station_id":"ce4bhpp2rcd13ifvqhfg","pricing_plan_id":"cebpf4jnsgd1na2vs0mg"},{"bike_id":"b2ec7371-4e1a-4f7b-ae6c-60c5a54c237b","system_id":"levelo_inurba_marseille","lat":43.21224,"lon":5.35044,"is_reserved":false,"is_disabled":false,"rental_uris":{"android":"levelo://app?vid=b2ec7371-4e1a-4f7b-ae6c-60c5a54c237b","ios":"levelo://app?vid=b2ec7371-4e1a-4f7b-ae6c-60c5a54c237b"},"vehicle_type_id":"4","last_reported":1751382713,"current_range_meters":10000,"station_id":"","pricing_plan_id":"cebpf4jnsgd1na2vs0mg"},{"bike_id":"bd9d37a6-b6fa-46b3-a1cf-a362321ef116","system_id":"levelo_inurba_marseille","lat":43.29898,"lon":5.37572,"is_reserved":false,"is_disabled":false,"rental_uris":{"android":"levelo://app?vid=bd9d37a6-b6fa-46b3-a1cf-a362321ef116","ios":"levelo://app?vid=bd9d37a6-b6fa-46b3-a1cf-a362321ef116"},"vehicle_type_id":"4","last_reported":1751382713,"current_range_meters":10000,"station_id":"","pricing_plan_id":"cebpf4jnsgd1na2vs0mg"},{"bike_id":"910d22b5-6012-43ee-afcb-32b67394fdd9","system_id":"levelo_inurba_marseille","lat":43.298767,"lon":5.382653,"is_reserved":false,"is_disabled":false,"rental_uris":{"android":"levelo://app?vid=910d22b5-6012-43ee-afcb-32b67394fdd9","ios":"levelo://app?vid=910d22b5-6012-43ee-afcb-32b67394fdd9"},"vehicle_type_id":"4","last_reported":1751382713,"current_range_meters":10000,"station_id":"ce4bgj92rcd13ifvqbd0","pricing_plan_id":"cebpf4jnsgd1na2vs0mg"},{"bike_id":"a28c59f5-fce1-481a-bcff-87b69ba3d8a2","system_id":"levelo_inurba_marseille","lat":43.30329,"lon":5.36896,"is_reserved":false,"is_disabled":false,"rental_uris":{"android":"levelo://app?vid=a28c59f5-fce1-481a-bcff-87b69ba3d8a2","ios":"levelo://app?vid=a28c59f5-fce1-481a-bcff-87b69ba3d8a2"},"vehicle_type_id":"4","last_reported":1751382713,"current_range_meters":10000,"station_id":"ce4bgqh2rcd13ifvqc5g","pricing_plan_id":"cebpf4jnsgd1na2vs0mg"},{"bike_id":"37c76dda-01f1-4828-bb0f-b0541b3631f4","system_id":"levelo_inurba_marseille","lat":43.292755,"lon":5.368406,"is_reserved":false,"is_disabled":false,"rental_uris":{"android":"levelo://app?vid=37c76dda-01f1-4828-bb0f-b0541b3631f4","ios":"levelo://app?vid=37c76dda-01f1-4828-bb0f-b0541b3631f4"},"vehicle_type_id":"4","last_reported":1751382713,"current_range_meters":10000,"station_id":"ce4bhbp2rcd13ifvqesg","pricing_plan_id":"cebpf4jnsgd1na2vs0mg"},{"bike_id":"03b22496-0c47-4bfb-a2c9-4e153605d4fd","system_id":"levelo_inurba_marseille","lat":43.2751,"lon":5.4247,"is_reserved":false,"is_disabled":false,"rental_uris":{"android":"levelo://app?vid=03b22496-0c47-4bfb-a2c9-4e153605d4fd","ios":"levelo://app?vid=03b22496-0c47-4bfb-a2c9-4e153605d4fd"},"vehicle_type_id":"4","last_reported":1751382713,"current_range_meters":10000,"station_id":"ce4bhn92rcd13ifvqgrg","pricing_plan_id":"cebpf4jnsgd1na2vs0mg"},{"bike_id":"6d64ae41-d57b-42e4-985a-239147369965","system_id":"levelo_inurba_marseille","lat":43.28679,"lon":5.38652,"is_reserved":false,"is_disabled":false,"rental_uris":{"android":"levelo://app?vid=6d64ae41-d57b-42e4-985a-239147369965","ios":"levelo://app?vid=6d64ae41-d57b-42e4-985a-239147369965"},"vehicle_type_id":"4","last_reported":1751382713,"current_range_meters":10800,"station_id":"ce4bh492rcd13ifvqdug","pricing_plan_id":"cebpf4jnsgd1na2vs0mg"},{"bike_id":"35ca2822-e8af-42d4-847a-72852aa0708b","system_id":"levelo_inurba_marseille","lat":43.284899,"lon":5.385642,"is_reserved":false,"is_disabled":false,"rental_uris":{"android":"levelo://app?vid=35ca2822-e8af-42d4-847a-72852aa0708b","ios":"levelo://app?vid=35ca2822-e8af-42d4-847a-72852aa0708b"},"vehicle_type_id":"4","last_reported":1751382713,"current_range_meters":10800,"station_id":"ce4bh8p2rcd13ifvqeb0","pricing_plan_id":"cebpf4jnsgd1na2vs0mg"},{"bike_id":"6e82cda6-ea66-4f37-a1c3-c3ffe25de8d0","system_id":"levelo_inurba_marseille","lat":43.28426,"lon":5.34975,"is_reserved":false,"is_disabled":false,"rental_uris":{"android":"levelo://app?vid=6e82cda6-ea66-4f37-a1c3-c3ffe25de8d0","ios":"levelo://app?vid=6e82cda6-ea66-4f37-a1c3-c3ffe25de8d0"},"vehicle_type_id":"4","last_reported":1751382713,"current_range_meters":10800,"station_id":"ce4bhbh2rcd13ifvqepg","pricing_plan_id":"cebpf4jnsgd1na2vs0mg"},{"bike_id":"bb9e5091-9c9e-4f94-b6e8-d3e98b688806","system_id":"levelo_inurba_marseille","lat":43.269634,"lon":5.386555,"is_reserved":false,"is_disabled":false,"rental_uris":{"android":"levelo://app?vid=bb9e5091-9c9e-4f94-b6e8-d3e98b688806","ios":"levelo://app?vid=bb9e5091-9c9e-4f94-b6e8-d3e98b688806"},"vehicle_type_id":"4","last_reported":1751382713,"current_range_meters":10800,"station_id":"ce4bhh92rcd13ifvqfh0","pricing_plan_id":"cebpf4jnsgd1na2vs0mg"},{"bike_id":"6dd0ca80-b64e-4ca2-bd16-7d1f6648edee","system_id":"levelo_inurba_marseille","lat":43.28,"lon":5.40007,"is_reserved":false,"is_disabled":false,"rental_uris":{"android":"levelo://app?vid=6dd0ca80-b64e-4ca2-bd16-7d1f6648edee","ios":"levelo://app?vid=6dd0ca80-b64e-4ca2-bd16-7d1f6648edee"},"vehicle_type_id":"4","last_reported":1751382713,"current_range_meters":10800,"station_id":"ce4bho92rcd13ifvqh4g","pricing_plan_id":"cebpf4jnsgd1na2vs0mg"},{"bike_id":"fc4f7a6e-d30e-49c2-a3fc-521129bf8cad","system_id":"levelo_inurba_marseille","lat":43.33611,"lon":5.41022,"is_reserved":false,"is_disabled":false,"rental_uris":{"android":"levelo://app?vid=fc4f7a6e-d30e-49c2-a3fc-521129bf8cad","ios":"levelo://app?vid=fc4f7a6e-d30e-49c2-a3fc-521129bf8cad"},"vehicle_type_id":"4","last_reported":1751382713,"current_range_meters":10800,"station_id":"ce4bhqh2rcd13ifvqhmg","pricing_plan_id":"cebpf4jnsgd1na2vs0mg"},{"bike_id":"e55c420f-8285-42af-bf98-fd6a609f3f08","system_id":"levelo_inurba_marseille","lat":43.30139,"lon":5.37417,"is_reserved":false,"is_disabled":false,"rental_uris":{"android":"levelo://app?vid=e55c420f-8285-42af-bf98-fd6a609f3f08","ios":"levelo://app?vid=e55c420f-8285-42af-bf98-fd6a609f3f08"},"vehicle_type_id":"4","last_reported":1751382713,"current_range_meters":11200,"station_id":"ce4bgs92rcd13ifvqcc0","pricing_plan_id":"cebpf4jnsgd1na2vs0mg"},{"bike_id":"d13a1246-3e86-4046-9853-3e63e49abe18","system_id":"levelo_inurba_marseille","lat":43.26209,"lon":5.37438,"is_reserved":false,"is_disabled":false,"rental_uris":{"android":"levelo://app?vid=d13a1246-3e86-4046-9853-3e63e49abe18","ios":"levelo://app?vid=d13a1246-3e86-4046-9853-3e63e49abe18"},"vehicle_type_id":"4","last_reported":1751382713,"current_range_meters":11200,"station_id":"ce4bhgp2rcd13ifvqfc0","pricing_plan_id":"cebpf4jnsgd1na2vs0mg"},{"bike_id":"74998a15-c9d8-4d04-b6bf-21f571603b6a","system_id":"levelo_inurba_marseille","lat":43.27025,"lon":5.40266,"is_reserved":false,"is_disabled":false,"rental_uris":{"android":"levelo://app?vid=74998a15-c9d8-4d04-b6bf-21f571603b6a","ios":"levelo://app?vid=74998a15-c9d8-4d04-b6bf-21f571603b6a"},"vehicle_type_id":"4","last_reported":1751382713,"current_range_meters":11200,"station_id":"ce4bhk92rcd13ifvqgc0","pricing_plan_id":"cebpf4jnsgd1na2vs0mg"},{"bike_id":"46e56c52-772b-44e9-8e44-77b75d97952b","system_id":"levelo_inurba_marseille","lat":43.29539,"lon":5.38547,"is_reserved":false,"is_disabled":false,"rental_uris":{"android":"levelo://app?vid=46e56c52-772b-44e9-8e44-77b75d97952b","ios":"levelo://app?vid=46e56c52-772b-44e9-8e44-77b75d97952b"},"vehicle_type_id":"4","last_reported":1751382713,"current_range_meters":11600,"station_id":"ce4bgih2rcd13ifvqba0","pricing_plan_id":"cebpf4jnsgd1na2vs0mg"},{"bike_id":"eacdff40-ffca-4f3c-a901-6126fddc1b4d","system_id":"levelo_inurba_marseille","lat":43.2736,"lon":5.362518,"is_reserved":false,"is_disabled":false,"rental_uris":{"android":"levelo://app?vid=eacdff40-ffca-4f3c-a901-6126fddc1b4d","ios":"levelo://app?vid=eacdff40-ffca-4f3c-a901-6126fddc1b4d"},"vehicle_type_id":"4","last_reported":1751382713,"current_range_meters":11600,"station_id":"ce4bhbh2rcd13ifvqeo0","pricing_plan_id":"cebpf4jnsgd1na2vs0mg"},{"bike_id":"95ef2f46-c1bf-4f8d-93ac-5fbc0cfe3fdc","system_id":"levelo_inurba_marseille","lat":43.25011,"lon":5.389336,"is_reserved":false,"is_disabled":false,"rental_uris":{"android":"levelo://app?vid=95ef2f46-c1bf-4f8d-93ac-5fbc0cfe3fdc","ios":"levelo://app?vid=95ef2f46-c1bf-4f8d-93ac-5fbc0cfe3fdc"},"vehicle_type_id":"4","last_reported":1751382713,"current_range_meters":11600,"station_id":"ce4bhgp2rcd13ifvqfd0","pricing_plan_id":"cebpf4jnsgd1na2vs0mg"},{"bike_id":"32b5cd9f-36e0-4adc-bc80-17f3930adb96","system_id":"levelo_inurba_marseille","lat":43.2957,"lon":5.3752,"is_reserved":false,"is_disabled":false,"rental_uris":{"android":"levelo://app?vid=32b5cd9f-36e0-4adc-bc80-17f3930adb96","ios":"levelo://app?vid=32b5cd9f-36e0-4adc-bc80-17f3930adb96"},"vehicle_type_id":"4","last_reported":1751382713,"current_range_meters":12000,"station_id":"ce4bgh92rcd13ifvqb50","pricing_plan_id":"cebpf4jnsgd1na2vs0mg"},{"bike_id":"eab77f98-b3d1-4c81-9017-81b3a5d739b3","system_id":"levelo_inurba_marseille","lat":43.25123,"lon":5.40328,"is_reserved":false,"is_disabled":false,"rental_uris":{"android":"levelo://app?vid=eab77f98-b3d1-4c81-9017-81b3a5d739b3","ios":"levelo://app?vid=eab77f98-b3d1-4c81-9017-81b3a5d739b3"},"vehicle_type_id":"4","last_reported":1751382713,"current_range_meters":12000,"station_id":"ce4bhlh2rcd13ifvqgig","pricing_plan_id":"cebpf4jnsgd1na2vs0mg"},{"bike_id":"f984b304-b876-47dc-886b-0cafbdde4577","system_id":"levelo_inurba_marseille","lat":43.24168,"lon":5.36389,"is_reserved":false,"is_disabled":false,"rental_uris":{"android":"levelo://app?vid=f984b304-b876-47dc-886b-0cafbdde4577","ios":"levelo://app?vid=f984b304-b876-47dc-886b-0cafbdde4577"},"vehicle_type_id":"4","last_reported":1751382713,"current_range_meters":12000,"station_id":"cpo36qri1sfpv3e86is0","pricing_plan_id":"cebpf4jnsgd1na2vs0mg"},{"bike_id":"b28aa0a0-791c-4a08-9a16-c7bf6ea0ed5a","system_id":"levelo_inurba_marseille","lat":43.22526,"lon":5.34796,"is_reserved":false,"is_disabled":false,"rental_uris":{"android":"levelo://app?vid=b28aa0a0-791c-4a08-9a16-c7bf6ea0ed5a","ios":"levelo://app?vid=b28aa0a0-791c-4a08-9a16-c7bf6ea0ed5a"},"vehicle_type_id":"4","last_reported":1751382713,"current_range_meters":12000,"station_id":"st_cvj5dfep6f1abm77gieg","pricing_plan_id":"cebpf4jnsgd1na2vs0mg"},{"bike_id":"c2b72fe0-bae6-4c7b-ad48-9e771b203dc8","system_id":"levelo_inurba_marseille","lat":43.313552,"lon":5.384639,"is_reserved":false,"is_disabled":false,"rental_uris":{"android":"levelo://app?vid=c2b72fe0-bae6-4c7b-ad48-9e771b203dc8","ios":"levelo://app?vid=c2b72fe0-bae6-4c7b-ad48-9e771b203dc8"},"vehicle_type_id":"4","last_reported":1751382713,"current_range_meters":12400,"station_id":"ce4bgt92rcd13ifvqcf0","pricing_plan_id":"cebpf4jnsgd1na2vs0mg"},{"bike_id":"06138e4b-7898-487b-bfe9-9822d30f71dc","system_id":"levelo_inurba_marseille","lat":43.28855,"lon":5.35858,"is_reserved":false,"is_disabled":false,"rental_uris":{"android":"levelo://app?vid=06138e4b-7898-487b-bfe9-9822d30f71dc","ios":"levelo://app?vid=06138e4b-7898-487b-bfe9-9822d30f71dc"},"vehicle_type_id":"4","last_reported":1751382713,"current_range_meters":12400,"station_id":"ce4bhb12rcd13ifvqem0","pricing_plan_id":"cebpf4jnsgd1na2vs0mg"},{"bike_id":"2b051b97-cd2b-4c4b-99f1-42c2f572b63e","system_id":"levelo_inurba_marseille","lat":43.27376,"lon":5.3624,"is_reserved":false,"is_disabled":false,"rental_uris":{"android":"levelo://app?vid=2b051b97-cd2b-4c4b-99f1-42c2f572b63e","ios":"levelo://app?vid=2b051b97-cd2b-4c4b-99f1-42c2f572b63e"},"vehicle_type_id":"4","last_reported":1751382713,"current_range_meters":12400,"station_id":"ce4bhbh2rcd13ifvqeo0","pricing_plan_id":"cebpf4jnsgd1na2vs0mg"},{"bike_id":"05323021-fac7-4fe8-bf8c-c07dba9fe872","system_id":"levelo_inurba_marseille","lat":43.29897,"lon":5.436643,"is_reserved":false,"is_disabled":false,"rental_uris":{"android":"levelo://app?vid=05323021-fac7-4fe8-bf8c-c07dba9fe872","ios":"levelo://app?vid=05323021-fac7-4fe8-bf8c-c07dba9fe872"},"vehicle_type_id":"4","last_reported":1751382713,"current_range_meters":12400,"station_id":"ce4bhpp2rcd13ifvqhfg","pricing_plan_id":"cebpf4jnsgd1na2vs0mg"},{"bike_id":"2d23d3a7-6cbc-4df4-9886-018b3c43e0d9","system_id":"levelo_inurba_marseille","lat":43.22928,"lon":5.35379,"is_reserved":false,"is_disabled":false,"rental_uris":{"android":"levelo://app?vid=2d23d3a7-6cbc-4df4-9886-018b3c43e0d9","ios":"levelo://app?vid=2d23d3a7-6cbc-4df4-9886-018b3c43e0d9"},"vehicle_type_id":"4","last_reported":1751382713,"current_range_meters":12400,"station_id":"cpo3532slgdg3j2ikp40","pricing_plan_id":"cebpf4jnsgd1na2vs0mg"},{"bike_id":"5631c7ea-fb56-4ee9-8df0-6e0aa2f0ff30","system_id":"levelo_inurba_marseille","lat":43.24185,"lon":5.36391,"is_reserved":false,"is_disabled":false,"rental_uris":{"android":"levelo://app?vid=5631c7ea-fb56-4ee9-8df0-6e0aa2f0ff30","ios":"levelo://app?vid=5631c7ea-fb56-4ee9-8df0-6e0aa2f0ff30"},"vehicle_type_id":"4","last_reported":1751382713,"current_range_meters":12400,"station_id":"cpo36qri1sfpv3e86is0","pricing_plan_id":"cebpf4jnsgd1na2vs0mg"},{"bike_id":"b58fcd9c-f51e-487c-9cf1-49362eb3ef58","system_id":"levelo_inurba_marseille","lat":43.262125,"lon":5.374411,"is_reserved":false,"is_disabled":false,"rental_uris":{"android":"levelo://app?vid=b58fcd9c-f51e-487c-9cf1-49362eb3ef58","ios":"levelo://app?vid=b58fcd9c-f51e-487c-9cf1-49362eb3ef58"},"vehicle_type_id":"4","last_reported":1751382713,"current_range_meters":12800,"station_id":"","pricing_plan_id":"cebpf4jnsgd1na2vs0mg"},{"bike_id":"3841e650-d61f-49f6-ae35-068c66966a27","system_id":"levelo_inurba_marseille","lat":43.30425,"lon":5.38899,"is_reserved":false,"is_disabled":false,"rental_uris":{"android":"levelo://app?vid=3841e650-d61f-49f6-ae35-068c66966a27","ios":"levelo://app?vid=3841e650-d61f-49f6-ae35-068c66966a27"},"vehicle_type_id":"4","last_reported":1751382713,"current_range_meters":12800,"station_id":"ce4bgk12rcd13ifvqbi0","pricing_plan_id":"cebpf4jnsgd1na2vs0mg"},{"bike_id":"33c458be-dc9f-43b3-a715-a3b7d23e7f3e","system_id":"levelo_inurba_marseille","lat":43.23184,"lon":5.35554,"is_reserved":false,"is_disabled":false,"rental_uris":{"android":"levelo://app?vid=33c458be-dc9f-43b3-a715-a3b7d23e7f3e","ios":"levelo://app?vid=33c458be-dc9f-43b3-a715-a3b7d23e7f3e"},"vehicle_type_id":"4","last_reported":1751382713,"current_range_meters":12800,"station_id":"ce4bhu92rcd13ifvqi70","pricing_plan_id":"cebpf4jnsgd1na2vs0mg"},{"bike_id":"de2c4ce0-87da-42f5-9575-f7f172522716","system_id":"levelo_inurba_marseille","lat":43.29785,"lon":5.39331,"is_reserved":false,"is_disabled":false,"rental_uris":{"android":"levelo://app?vid=de2c4ce0-87da-42f5-9575-f7f172522716","ios":"levelo://app?vid=de2c4ce0-87da-42f5-9575-f7f172522716"},"vehicle_type_id":"4","last_reported":1751382713,"current_range_meters":12800,"station_id":"chh1huq6cuj3fo74tm60","pricing_plan_id":"cebpf4jnsgd1na2vs0mg"},{"bike_id":"d2b2c9f7-7d24-4524-a821-27526206abd8","system_id":"levelo_inurba_marseille","lat":43.29263,"lon":5.36858,"is_reserved":false,"is_disabled":false,"rental_uris":{"android":"levelo://app?vid=d2b2c9f7-7d24-4524-a821-27526206abd8","ios":"levelo://app?vid=d2b2c9f7-7d24-4524-a821-27526206abd8"},"vehicle_type_id":"4","last_reported":1751382713,"current_range_meters":13600,"station_id":"ce4bhbp2rcd13ifvqesg","pricing_plan_id":"cebpf4jnsgd1na2vs0mg"},{"bike_id":"c31d63ae-7447-437b-984e-4c913407272a","system_id":"levelo_inurba_marseille","lat":43.26561,"lon":5.38996,"is_reserved":false,"is_disabled":false,"rental_uris":{"android":"levelo://app?vid=c31d63ae-7447-437b-984e-4c913407272a","ios":"levelo://app?vid=c31d63ae-7447-437b-984e-4c913407272a"},"vehicle_type_id":"4","last_reported":1751382713,"current_range_meters":13600,"station_id":"ce4bhe12rcd13ifvqf30","pricing_plan_id":"cebpf4jnsgd1na2vs0mg"},{"bike_id":"0a051eb5-966c-4fab-8a90-facd36b5d7f1","system_id":"levelo_inurba_marseille","lat":43.2814,"lon":5.42615,"is_reserved":false,"is_disabled":false,"rental_uris":{"android":"levelo://app?vid=0a051eb5-966c-4fab-8a90-facd36b5d7f1","ios":"levelo://app?vid=0a051eb5-966c-4fab-8a90-facd36b5d7f1"},"vehicle_type_id":"4","last_reported":1751382713,"current_range_meters":13600,"station_id":"ce4bhnh2rcd13ifvqgug","pricing_plan_id":"cebpf4jnsgd1na2vs0mg"},{"bike_id":"46c4935b-64cd-4fe3-aa75-cde2002530f7","system_id":"levelo_inurba_marseille","lat":43.29901,"lon":5.38147,"is_reserved":false,"is_disabled":false,"rental_uris":{"android":"levelo://app?vid=46c4935b-64cd-4fe3-aa75-cde2002530f7","ios":"levelo://app?vid=46c4935b-64cd-4fe3-aa75-cde2002530f7"},"vehicle_type_id":"4","last_reported":1751382713,"current_range_meters":14000,"station_id":"ce4bgj12rcd13ifvqbc0","pricing_plan_id":"cebpf4jnsgd1na2vs0mg"},{"bike_id":"26578b7e-f474-4eaf-9d8e-1f40b92a0f35","system_id":"levelo_inurba_marseille","lat":43.26207,"lon":5.37441,"is_reserved":false,"is_disabled":false,"rental_uris":{"android":"levelo://app?vid=26578b7e-f474-4eaf-9d8e-1f40b92a0f35","ios":"levelo://app?vid=26578b7e-f474-4eaf-9d8e-1f40b92a0f35"},"vehicle_type_id":"4","last_reported":1751382713,"current_range_meters":14000,"station_id":"ce4bhgp2rcd13ifvqfc0","pricing_plan_id":"cebpf4jnsgd1na2vs0mg"},{"bike_id":"859b6cf6-411c-4a6e-b2f1-d5866da46ff7","system_id":"levelo_inurba_marseille","lat":43.241747,"lon":5.364023,"is_reserved":false,"is_disabled":false,"rental_uris":{"android":"levelo://app?vid=859b6cf6-411c-4a6e-b2f1-d5866da46ff7","ios":"levelo://app?vid=859b6cf6-411c-4a6e-b2f1-d5866da46ff7"},"vehicle_type_id":"4","last_reported":1751382713,"current_range_meters":14000,"station_id":"cpo36qri1sfpv3e86is0","pricing_plan_id":"cebpf4jnsgd1na2vs0mg"},{"bike_id":"7668ad4d-e875-45c5-8cfe-d22f11274d59","system_id":"levelo_inurba_marseille","lat":43.24179,"lon":5.36399,"is_reserved":false,"is_disabled":false,"rental_uris":{"android":"levelo://app?vid=7668ad4d-e875-45c5-8cfe-d22f11274d59","ios":"levelo://app?vid=7668ad4d-e875-45c5-8cfe-d22f11274d59"},"vehicle_type_id":"4","last_reported":1751382713,"current_range_meters":14000,"station_id":"cpo36qri1sfpv3e86is0","pricing_plan_id":"cebpf4jnsgd1na2vs0mg"},{"bike_id":"c0228700-5312-4a39-89af-ec53a5d729c5","system_id":"levelo_inurba_marseille","lat":43.28296,"lon":5.432407,"is_reserved":false,"is_disabled":false,"rental_uris":{"android":"levelo://app?vid=c0228700-5312-4a39-89af-ec53a5d729c5","ios":"levelo://app?vid=c0228700-5312-4a39-89af-ec53a5d729c5"},"vehicle_type_id":"4","last_reported":1751382713,"current_range_meters":14400,"station_id":"","pricing_plan_id":"cebpf4jnsgd1na2vs0mg"},{"bike_id":"17808e8e-1fe3-43c0-922e-68e6b4c42657","system_id":"levelo_inurba_marseille","lat":43.2319,"lon":5.39979,"is_reserved":false,"is_disabled":false,"rental_uris":{"android":"levelo://app?vid=17808e8e-1fe3-43c0-922e-68e6b4c42657","ios":"levelo://app?vid=17808e8e-1fe3-43c0-922e-68e6b4c42657"},"vehicle_type_id":"4","last_reported":1751382713,"current_range_meters":14400,"station_id":"ce4bhn12rcd13ifvqgqg","pricing_plan_id":"cebpf4jnsgd1na2vs0mg"},{"bike_id":"3c7409b9-5471-4541-adae-ed75f2da3b11","system_id":"levelo_inurba_marseille","lat":43.27997,"lon":5.41663,"is_reserved":false,"is_disabled":false,"rental_uris":{"android":"levelo://app?vid=3c7409b9-5471-4541-adae-ed75f2da3b11","ios":"levelo://app?vid=3c7409b9-5471-4541-adae-ed75f2da3b11"},"vehicle_type_id":"4","last_reported":1751382713,"current_range_meters":14400,"station_id":"ce4bho12rcd13ifvqh1g","pricing_plan_id":"cebpf4jnsgd1na2vs0mg"},{"bike_id":"c61036a9-1a66-4480-8bd4-cd2fb585b287","system_id":"levelo_inurba_marseille","lat":43.26979,"lon":5.40542,"is_reserved":false,"is_disabled":false,"rental_uris":{"android":"levelo://app?vid=c61036a9-1a66-4480-8bd4-cd2fb585b287","ios":"levelo://app?vid=c61036a9-1a66-4480-8bd4-cd2fb585b287"},"vehicle_type_id":"4","last_reported":1751382713,"current_range_meters":14800,"station_id":"","pricing_plan_id":"cebpf4jnsgd1na2vs0mg"},{"bike_id":"82522992-39cd-4cc1-bf11-bf1394360248","system_id":"levelo_inurba_marseille","lat":43.31969,"lon":5.37446,"is_reserved":false,"is_disabled":false,"rental_uris":{"android":"levelo://app?vid=82522992-39cd-4cc1-bf11-bf1394360248","ios":"levelo://app?vid=82522992-39cd-4cc1-bf11-bf1394360248"},"vehicle_type_id":"4","last_reported":1751382713,"current_range_meters":14800,"station_id":"","pricing_plan_id":"cebpf4jnsgd1na2vs0mg"},{"bike_id":"dc8356f0-02e4-44af-baca-f0665ea88859","system_id":"levelo_inurba_marseille","lat":43.27375,"lon":5.36255,"is_reserved":false,"is_disabled":false,"rental_uris":{"android":"levelo://app?vid=dc8356f0-02e4-44af-baca-f0665ea88859","ios":"levelo://app?vid=dc8356f0-02e4-44af-baca-f0665ea88859"},"vehicle_type_id":"4","last_reported":1751382713,"current_range_meters":14800,"station_id":"ce4bhbh2rcd13ifvqeo0","pricing_plan_id":"cebpf4jnsgd1na2vs0mg"},{"bike_id":"20c8d87f-4578-4b22-9a37-1a75b0b0def8","system_id":"levelo_inurba_marseille","lat":43.26192,"lon":5.374499,"is_reserved":false,"is_disabled":false,"rental_uris":{"android":"levelo://app?vid=20c8d87f-4578-4b22-9a37-1a75b0b0def8","ios":"levelo://app?vid=20c8d87f-4578-4b22-9a37-1a75b0b0def8"},"vehicle_type_id":"4","last_reported":1751382713,"current_range_meters":14800,"station_id":"ce4bhgp2rcd13ifvqfc0","pricing_plan_id":"cebpf4jnsgd1na2vs0mg"},{"bike_id":"f6b6d6fb-a1dc-45e9-b6d3-6382d0efce67","system_id":"levelo_inurba_marseille","lat":43.25108,"lon":5.40323,"is_reserved":false,"is_disabled":false,"rental_uris":{"android":"levelo://app?vid=f6b6d6fb-a1dc-45e9-b6d3-6382d0efce67","ios":"levelo://app?vid=f6b6d6fb-a1dc-45e9-b6d3-6382d0efce67"},"vehicle_type_id":"4","last_reported":1751382713,"current_range_meters":14800,"station_id":"ce4bhlh2rcd13ifvqgig","pricing_plan_id":"cebpf4jnsgd1na2vs0mg"},{"bike_id":"5535b375-88a8-48f2-9bbe-c408367e409a","system_id":"levelo_inurba_marseille","lat":43.31373,"lon":5.38361,"is_reserved":false,"is_disabled":false,"rental_uris":{"android":"levelo://app?vid=5535b375-88a8-48f2-9bbe-c408367e409a","ios":"levelo://app?vid=5535b375-88a8-48f2-9bbe-c408367e409a"},"vehicle_type_id":"4","last_reported":1751382713,"current_range_meters":15200,"station_id":"","pricing_plan_id":"cebpf4jnsgd1na2vs0mg"},{"bike_id":"3f0d1be3-df8c-406a-874a-8ed33449ff76","system_id":"levelo_inurba_marseille","lat":43.283386,"lon":5.350231,"is_reserved":false,"is_disabled":false,"rental_uris":{"android":"levelo://app?vid=3f0d1be3-df8c-406a-874a-8ed33449ff76","ios":"levelo://app?vid=3f0d1be3-df8c-406a-874a-8ed33449ff76"},"vehicle_type_id":"4","last_reported":1751382713,"current_range_meters":15200,"station_id":"","pricing_plan_id":"cebpf4jnsgd1na2vs0mg"},{"bike_id":"2f1f0010-79f6-46ef-80e0-ac898e581cb2","system_id":"levelo_inurba_marseille","lat":43.28423,"lon":5.3497,"is_reserved":false,"is_disabled":false,"rental_uris":{"android":"levelo://app?vid=2f1f0010-79f6-46ef-80e0-ac898e581cb2","ios":"levelo://app?vid=2f1f0010-79f6-46ef-80e0-ac898e581cb2"},"vehicle_type_id":"4","last_reported":1751382713,"current_range_meters":15200,"station_id":"ce4bhbh2rcd13ifvqepg","pricing_plan_id":"cebpf4jnsgd1na2vs0mg"},{"bike_id":"3d03fb95-8e3b-4596-876f-491b9dec2687","system_id":"levelo_inurba_marseille","lat":43.26217,"lon":5.37438,"is_reserved":false,"is_disabled":false,"rental_uris":{"android":"levelo://app?vid=3d03fb95-8e3b-4596-876f-491b9dec2687","ios":"levelo://app?vid=3d03fb95-8e3b-4596-876f-491b9dec2687"},"vehicle_type_id":"4","last_reported":1751382713,"current_range_meters":15200,"station_id":"ce4bhgp2rcd13ifvqfc0","pricing_plan_id":"cebpf4jnsgd1na2vs0mg"},{"bike_id":"1caca1fc-4911-4e37-9aeb-383803780faf","system_id":"levelo_inurba_marseille","lat":43.32087,"lon":5.36794,"is_reserved":false,"is_disabled":false,"rental_uris":{"android":"levelo://app?vid=1caca1fc-4911-4e37-9aeb-383803780faf","ios":"levelo://app?vid=1caca1fc-4911-4e37-9aeb-383803780faf"},"vehicle_type_id":"4","last_reported":1751382713,"current_range_meters":15200,"station_id":"ce4bhrh2rcd13ifvqhug","pricing_plan_id":"cebpf4jnsgd1na2vs0mg"},{"bike_id":"947c0abc-8a28-4463-9d63-6c7d61393962","system_id":"levelo_inurba_marseille","lat":43.24168,"lon":5.36399,"is_reserved":false,"is_disabled":false,"rental_uris":{"android":"levelo://app?vid=947c0abc-8a28-4463-9d63-6c7d61393962","ios":"levelo://app?vid=947c0abc-8a28-4463-9d63-6c7d61393962"},"vehicle_type_id":"4","last_reported":1751382713,"current_range_meters":15200,"station_id":"cpo36qri1sfpv3e86is0","pricing_plan_id":"cebpf4jnsgd1na2vs0mg"},{"bike_id":"537004b8-796b-418d-9d3a-229bfc37a3fb","system_id":"levelo_inurba_marseille","lat":43.24158,"lon":5.36393,"is_reserved":false,"is_disabled":false,"rental_uris":{"android":"levelo://app?vid=537004b8-796b-418d-9d3a-229bfc37a3fb","ios":"levelo://app?vid=537004b8-796b-418d-9d3a-229bfc37a3fb"},"vehicle_type_id":"4","last_reported":1751382713,"current_range_meters":15200,"station_id":"cpo36qri1sfpv3e86is0","pricing_plan_id":"cebpf4jnsgd1na2vs0mg"},{"bike_id":"86fa6ce7-8cbe-47ff-b5d3-c2b4938fd05c","system_id":"levelo_inurba_marseille","lat":43.21211,"lon":5.35081,"is_reserved":false,"is_disabled":false,"rental_uris":{"android":"levelo://app?vid=86fa6ce7-8cbe-47ff-b5d3-c2b4938fd05c","ios":"levelo://app?vid=86fa6ce7-8cbe-47ff-b5d3-c2b4938fd05c"},"vehicle_type_id":"4","last_reported":1751382713,"current_range_meters":16000,"station_id":"","pricing_plan_id":"cebpf4jnsgd1na2vs0mg"},{"bike_id":"330577f7-c428-4701-9e13-a0815653244b","system_id":"levelo_inurba_marseille","lat":43.27381,"lon":5.36253,"is_reserved":false,"is_disabled":false,"rental_uris":{"android":"levelo://app?vid=330577f7-c428-4701-9e13-a0815653244b","ios":"levelo://app?vid=330577f7-c428-4701-9e13-a0815653244b"},"vehicle_type_id":"4","last_reported":1751382713,"current_range_meters":16000,"station_id":"ce4bhbh2rcd13ifvqeo0","pricing_plan_id":"cebpf4jnsgd1na2vs0mg"},{"bike_id":"f2a56e80-5869-44cd-a8e5-f2838f53e14c","system_id":"levelo_inurba_marseille","lat":43.28268,"lon":5.35065,"is_reserved":false,"is_disabled":false,"rental_uris":{"android":"levelo://app?vid=f2a56e80-5869-44cd-a8e5-f2838f53e14c","ios":"levelo://app?vid=f2a56e80-5869-44cd-a8e5-f2838f53e14c"},"vehicle_type_id":"4","last_reported":1751382713,"current_range_meters":16000,"station_id":"ce4bhbp2rcd13ifvqerg","pricing_plan_id":"cebpf4jnsgd1na2vs0mg"},{"bike_id":"3f282527-8cce-49b1-bfe7-e0ebb40967b1","system_id":"levelo_inurba_marseille","lat":43.26938,"lon":5.40256,"is_reserved":false,"is_disabled":false,"rental_uris":{"android":"levelo://app?vid=3f282527-8cce-49b1-bfe7-e0ebb40967b1","ios":"levelo://app?vid=3f282527-8cce-49b1-bfe7-e0ebb40967b1"},"vehicle_type_id":"4","last_reported":1751382713,"current_range_meters":16000,"station_id":"cjm6bp8fraef2m0cb0m0","pricing_plan_id":"cebpf4jnsgd1na2vs0mg"},{"bike_id":"6b2ddcec-816f-42cf-b55b-a185c165d31c","system_id":"levelo_inurba_marseille","lat":43.24178,"lon":5.36405,"is_reserved":false,"is_disabled":false,"rental_uris":{"android":"levelo://app?vid=6b2ddcec-816f-42cf-b55b-a185c165d31c","ios":"levelo://app?vid=6b2ddcec-816f-42cf-b55b-a185c165d31c"},"vehicle_type_id":"4","last_reported":1751382713,"current_range_meters":16000,"station_id":"cpo36qri1sfpv3e86is0","pricing_plan_id":"cebpf4jnsgd1na2vs0mg"},{"bike_id":"2bc25ca4-c28c-4335-a0aa-b132b20800b4","system_id":"levelo_inurba_marseille","lat":43.29423,"lon":5.37423,"is_reserved":false,"is_disabled":false,"rental_uris":{"android":"levelo://app?vid=2bc25ca4-c28c-4335-a0aa-b132b20800b4","ios":"levelo://app?vid=2bc25ca4-c28c-4335-a0aa-b132b20800b4"},"vehicle_type_id":"4","last_reported":1751382713,"current_range_meters":16400,"station_id":"","pricing_plan_id":"cebpf4jnsgd1na2vs0mg"},{"bike_id":"60aed5b4-04a7-4930-a9c4-5540cdbcfb8b","system_id":"levelo_inurba_marseille","lat":43.33776,"lon":5.37455,"is_reserved":false,"is_disabled":false,"rental_uris":{"android":"levelo://app?vid=60aed5b4-04a7-4930-a9c4-5540cdbcfb8b","ios":"levelo://app?vid=60aed5b4-04a7-4930-a9c4-5540cdbcfb8b"},"vehicle_type_id":"4","last_reported":1751382713,"current_range_meters":16400,"station_id":"","pricing_plan_id":"cebpf4jnsgd1na2vs0mg"},{"bike_id":"b4c7bea2-a4b6-483a-bbf7-d1c248dd2e49","system_id":"levelo_inurba_marseille","lat":43.27622,"lon":5.3611,"is_reserved":false,"is_disabled":false,"rental_uris":{"android":"levelo://app?vid=b4c7bea2-a4b6-483a-bbf7-d1c248dd2e49","ios":"levelo://app?vid=b4c7bea2-a4b6-483a-bbf7-d1c248dd2e49"},"vehicle_type_id":"4","last_reported":1751382713,"current_range_meters":16400,"station_id":"ce4bgj92rcd13ifvqbe0","pricing_plan_id":"cebpf4jnsgd1na2vs0mg"},{"bike_id":"010eea03-5380-4c03-9373-e44983ff4149","system_id":"levelo_inurba_marseille","lat":43.30251,"lon":5.40076,"is_reserved":false,"is_disabled":false,"rental_uris":{"android":"levelo://app?vid=010eea03-5380-4c03-9373-e44983ff4149","ios":"levelo://app?vid=010eea03-5380-4c03-9373-e44983ff4149"},"vehicle_type_id":"4","last_reported":1751382713,"current_range_meters":16400,"station_id":"ce4bgvh2rcd13ifvqcs0","pricing_plan_id":"cebpf4jnsgd1na2vs0mg"},{"bike_id":"bc567aa8-800f-4fc5-9b9f-edaa9719c362","system_id":"levelo_inurba_marseille","lat":43.28664,"lon":5.36358,"is_reserved":false,"is_disabled":false,"rental_uris":{"android":"levelo://app?vid=bc567aa8-800f-4fc5-9b9f-edaa9719c362","ios":"levelo://app?vid=bc567aa8-800f-4fc5-9b9f-edaa9719c362"},"vehicle_type_id":"4","last_reported":1751382713,"current_range_meters":16400,"station_id":"ce4bhah2rcd13ifvqej0","pricing_plan_id":"cebpf4jnsgd1na2vs0mg"},{"bike_id":"cf6758cb-cb57-4aa1-83ee-90d3724e1b38","system_id":"levelo_inurba_marseille","lat":43.2927,"lon":5.36844,"is_reserved":false,"is_disabled":false,"rental_uris":{"android":"levelo://app?vid=cf6758cb-cb57-4aa1-83ee-90d3724e1b38","ios":"levelo://app?vid=cf6758cb-cb57-4aa1-83ee-90d3724e1b38"},"vehicle_type_id":"4","last_reported":1751382713,"current_range_meters":16400,"station_id":"ce4bhbp2rcd13ifvqesg","pricing_plan_id":"cebpf4jnsgd1na2vs0mg"},{"bike_id":"e5311d7a-143d-495c-99e8-81e276fedf33","system_id":"levelo_inurba_marseille","lat":43.26785,"lon":5.39415,"is_reserved":false,"is_disabled":false,"rental_uris":{"android":"levelo://app?vid=e5311d7a-143d-495c-99e8-81e276fedf33","ios":"levelo://app?vid=e5311d7a-143d-495c-99e8-81e276fedf33"},"vehicle_type_id":"4","last_reported":1751382713,"current_range_meters":16400,"station_id":"ce4bhh12rcd13ifvqfg0","pricing_plan_id":"cebpf4jnsgd1na2vs0mg"},{"bike_id":"7262375c-8a88-42d7-9871-b3a4fc076d25","system_id":"levelo_inurba_marseille","lat":43.27496,"lon":5.4245,"is_reserved":false,"is_disabled":false,"rental_uris":{"android":"levelo://app?vid=7262375c-8a88-42d7-9871-b3a4fc076d25","ios":"levelo://app?vid=7262375c-8a88-42d7-9871-b3a4fc076d25"},"vehicle_type_id":"4","last_reported":1751382713,"current_range_meters":16400,"station_id":"ce4bhn92rcd13ifvqgrg","pricing_plan_id":"cebpf4jnsgd1na2vs0mg"},{"bike_id":"2726f14f-8d32-4e17-9b3e-62cc809675e1","system_id":"levelo_inurba_marseille","lat":43.32111,"lon":5.36764,"is_reserved":false,"is_disabled":false,"rental_uris":{"android":"levelo://app?vid=2726f14f-8d32-4e17-9b3e-62cc809675e1","ios":"levelo://app?vid=2726f14f-8d32-4e17-9b3e-62cc809675e1"},"vehicle_type_id":"4","last_reported":1751382713,"current_range_meters":16400,"station_id":"ce4bhrh2rcd13ifvqhug","pricing_plan_id":"cebpf4jnsgd1na2vs0mg"},{"bike_id":"539ed013-9e80-448a-999f-a7819f54786a","system_id":"levelo_inurba_marseille","lat":43.290309,"lon":5.375668,"is_reserved":false,"is_disabled":false,"rental_uris":{"android":"levelo://app?vid=539ed013-9e80-448a-999f-a7819f54786a","ios":"levelo://app?vid=539ed013-9e80-448a-999f-a7819f54786a"},"vehicle_type_id":"4","last_reported":1751382713,"current_range_meters":16800,"station_id":"","pricing_plan_id":"cebpf4jnsgd1na2vs0mg"},{"bike_id":"a0cef316-ad95-4855-8f78-a31341a2b90e","system_id":"levelo_inurba_marseille","lat":43.31284,"lon":5.37863,"is_reserved":false,"is_disabled":false,"rental_uris":{"android":"levelo://app?vid=a0cef316-ad95-4855-8f78-a31341a2b90e","ios":"levelo://app?vid=a0cef316-ad95-4855-8f78-a31341a2b90e"},"vehicle_type_id":"4","last_reported":1751382713,"current_range_meters":16800,"station_id":"","pricing_plan_id":"cebpf4jnsgd1na2vs0mg"},{"bike_id":"583e5ab5-e915-4b31-990e-c6c98afd3376","system_id":"levelo_inurba_marseille","lat":43.27617,"lon":5.36109,"is_reserved":false,"is_disabled":false,"rental_uris":{"android":"levelo://app?vid=583e5ab5-e915-4b31-990e-c6c98afd3376","ios":"levelo://app?vid=583e5ab5-e915-4b31-990e-c6c98afd3376"},"vehicle_type_id":"4","last_reported":1751382713,"current_range_meters":16800,"station_id":"ce4bgj92rcd13ifvqbe0","pricing_plan_id":"cebpf4jnsgd1na2vs0mg"},{"bike_id":"d8f4e68a-05c3-4caa-aa92-c12d8cb440f9","system_id":"levelo_inurba_marseille","lat":43.23968,"lon":5.36628,"is_reserved":false,"is_disabled":false,"rental_uris":{"android":"levelo://app?vid=d8f4e68a-05c3-4caa-aa92-c12d8cb440f9","ios":"levelo://app?vid=d8f4e68a-05c3-4caa-aa92-c12d8cb440f9"},"vehicle_type_id":"4","last_reported":1751382713,"current_range_meters":16800,"station_id":"ce4bhi12rcd13ifvqfp0","pricing_plan_id":"cebpf4jnsgd1na2vs0mg"},{"bike_id":"36d83600-3670-4035-a5e5-3c9d57af76a0","system_id":"levelo_inurba_marseille","lat":43.24167,"lon":5.36389,"is_reserved":false,"is_disabled":false,"rental_uris":{"android":"levelo://app?vid=36d83600-3670-4035-a5e5-3c9d57af76a0","ios":"levelo://app?vid=36d83600-3670-4035-a5e5-3c9d57af76a0"},"vehicle_type_id":"4","last_reported":1751382713,"current_range_meters":16800,"station_id":"cpo36qri1sfpv3e86is0","pricing_plan_id":"cebpf4jnsgd1na2vs0mg"},{"bike_id":"8233db61-1d36-41a5-a985-c98b6a5f0fb4","system_id":"levelo_inurba_marseille","lat":43.21759,"lon":5.34596,"is_reserved":false,"is_disabled":false,"rental_uris":{"android":"levelo://app?vid=8233db61-1d36-41a5-a985-c98b6a5f0fb4","ios":"levelo://app?vid=8233db61-1d36-41a5-a985-c98b6a5f0fb4"},"vehicle_type_id":"4","last_reported":1751382713,"current_range_meters":16800,"station_id":"st_cvj6r9ubvosntc0bgbag","pricing_plan_id":"cebpf4jnsgd1na2vs0mg"},{"bike_id":"0c1b4f74-5294-4b59-932d-b742ce647d9e","system_id":"levelo_inurba_marseille","lat":43.211876,"lon":5.350731,"is_reserved":false,"is_disabled":false,"rental_uris":{"android":"levelo://app?vid=0c1b4f74-5294-4b59-932d-b742ce647d9e","ios":"levelo://app?vid=0c1b4f74-5294-4b59-932d-b742ce647d9e"},"vehicle_type_id":"4","last_reported":1751382713,"current_range_meters":16800,"station_id":"st_cvj6sg6p6f1abm77japg","pricing_plan_id":"cebpf4jnsgd1na2vs0mg"},{"bike_id":"a34e6786-b006-48ad-94d8-bad1c2cc64ee","system_id":"levelo_inurba_marseille","lat":43.28261,"lon":5.35082,"is_reserved":false,"is_disabled":false,"rental_uris":{"android":"levelo://app?vid=a34e6786-b006-48ad-94d8-bad1c2cc64ee","ios":"levelo://app?vid=a34e6786-b006-48ad-94d8-bad1c2cc64ee"},"vehicle_type_id":"4","last_reported":1751382713,"current_range_meters":17200,"station_id":"ce4bhbp2rcd13ifvqerg","pricing_plan_id":"cebpf4jnsgd1na2vs0mg"},{"bike_id":"1b1d2a55-7937-4e4f-8e1d-0772a66cddb7","system_id":"levelo_inurba_marseille","lat":43.286177,"lon":5.351007,"is_reserved":false,"is_disabled":false,"rental_uris":{"android":"levelo://app?vid=1b1d2a55-7937-4e4f-8e1d-0772a66cddb7","ios":"levelo://app?vid=1b1d2a55-7937-4e4f-8e1d-0772a66cddb7"},"vehicle_type_id":"4","last_reported":1751382713,"current_range_meters":17200,"station_id":"ce4bhch2rcd13ifvqeug","pricing_plan_id":"cebpf4jnsgd1na2vs0mg"},{"bike_id":"6f0c338a-7faa-49b0-8d32-52aa41a83982","system_id":"levelo_inurba_marseille","lat":43.27924,"lon":5.39572,"is_reserved":false,"is_disabled":false,"rental_uris":{"android":"levelo://app?vid=6f0c338a-7faa-49b0-8d32-52aa41a83982","ios":"levelo://app?vid=6f0c338a-7faa-49b0-8d32-52aa41a83982"},"vehicle_type_id":"4","last_reported":1751382713,"current_range_meters":17200,"station_id":"ce4bhf92rcd13ifvqf40","pricing_plan_id":"cebpf4jnsgd1na2vs0mg"},{"bike_id":"c2cc3873-3136-4ba7-984d-6514f2a6bcc2","system_id":"levelo_inurba_marseille","lat":43.26692,"lon":5.3827,"is_reserved":false,"is_disabled":false,"rental_uris":{"android":"levelo://app?vid=c2cc3873-3136-4ba7-984d-6514f2a6bcc2","ios":"levelo://app?vid=c2cc3873-3136-4ba7-984d-6514f2a6bcc2"},"vehicle_type_id":"4","last_reported":1751382713,"current_range_meters":17200,"station_id":"ce4bhg92rcd13ifvqf90","pricing_plan_id":"cebpf4jnsgd1na2vs0mg"},{"bike_id":"eef15b2e-4a7d-413f-ad1b-04cf8de6c51d","system_id":"levelo_inurba_marseille","lat":43.26206,"lon":5.37449,"is_reserved":false,"is_disabled":false,"rental_uris":{"android":"levelo://app?vid=eef15b2e-4a7d-413f-ad1b-04cf8de6c51d","ios":"levelo://app?vid=eef15b2e-4a7d-413f-ad1b-04cf8de6c51d"},"vehicle_type_id":"4","last_reported":1751382713,"current_range_meters":17200,"station_id":"ce4bhgp2rcd13ifvqfc0","pricing_plan_id":"cebpf4jnsgd1na2vs0mg"},{"bike_id":"8a74f5cd-9efa-4362-bea7-a32db4dcc85c","system_id":"levelo_inurba_marseille","lat":43.21187,"lon":5.35065,"is_reserved":false,"is_disabled":false,"rental_uris":{"android":"levelo://app?vid=8a74f5cd-9efa-4362-bea7-a32db4dcc85c","ios":"levelo://app?vid=8a74f5cd-9efa-4362-bea7-a32db4dcc85c"},"vehicle_type_id":"4","last_reported":1751382713,"current_range_meters":17200,"station_id":"st_cvj6sg6p6f1abm77japg","pricing_plan_id":"cebpf4jnsgd1na2vs0mg"},{"bike_id":"fc7e8355-f532-43ec-9e4c-45a0bcaf9efb","system_id":"levelo_inurba_marseille","lat":43.23158,"lon":5.4372,"is_reserved":false,"is_disabled":false,"rental_uris":{"android":"levelo://app?vid=fc7e8355-f532-43ec-9e4c-45a0bcaf9efb","ios":"levelo://app?vid=fc7e8355-f532-43ec-9e4c-45a0bcaf9efb"},"vehicle_type_id":"4","last_reported":1751382713,"current_range_meters":17600,"station_id":"ce4bhmp2rcd13ifvqgog","pricing_plan_id":"cebpf4jnsgd1na2vs0mg"},{"bike_id":"6168064d-6604-4c2e-826a-ecf036e1a8d7","system_id":"levelo_inurba_marseille","lat":43.24181,"lon":5.3635,"is_reserved":false,"is_disabled":false,"rental_uris":{"android":"levelo://app?vid=6168064d-6604-4c2e-826a-ecf036e1a8d7","ios":"levelo://app?vid=6168064d-6604-4c2e-826a-ecf036e1a8d7"},"vehicle_type_id":"4","last_reported":1751382713,"current_range_meters":17600,"station_id":"cpo36qri1sfpv3e86is0","pricing_plan_id":"cebpf4jnsgd1na2vs0mg"},{"bike_id":"3e39818d-3df9-4257-b65f-e435e2d653f4","system_id":"levelo_inurba_marseille","lat":43.26384,"lon":5.38402,"is_reserved":false,"is_disabled":false,"rental_uris":{"android":"levelo://app?vid=3e39818d-3df9-4257-b65f-e435e2d653f4","ios":"levelo://app?vid=3e39818d-3df9-4257-b65f-e435e2d653f4"},"vehicle_type_id":"4","last_reported":1751382713,"current_range_meters":18000,"station_id":"","pricing_plan_id":"cebpf4jnsgd1na2vs0mg"},{"bike_id":"fdcc33b3-b27b-4fd9-90cb-c9421efe9db6","system_id":"levelo_inurba_marseille","lat":43.27799,"lon":5.41379,"is_reserved":false,"is_disabled":false,"rental_uris":{"android":"levelo://app?vid=fdcc33b3-b27b-4fd9-90cb-c9421efe9db6","ios":"levelo://app?vid=fdcc33b3-b27b-4fd9-90cb-c9421efe9db6"},"vehicle_type_id":"4","last_reported":1751382713,"current_range_meters":18000,"station_id":"","pricing_plan_id":"cebpf4jnsgd1na2vs0mg"},{"bike_id":"1e6b9f52-da41-4d6b-90e7-4aee7cbf4f90","system_id":"levelo_inurba_marseille","lat":43.28569,"lon":5.35048,"is_reserved":false,"is_disabled":false,"rental_uris":{"android":"levelo://app?vid=1e6b9f52-da41-4d6b-90e7-4aee7cbf4f90","ios":"levelo://app?vid=1e6b9f52-da41-4d6b-90e7-4aee7cbf4f90"},"vehicle_type_id":"4","last_reported":1751382713,"current_range_meters":18000,"station_id":"","pricing_plan_id":"cebpf4jnsgd1na2vs0mg"},{"bike_id":"f00e3044-9bd1-48b5-b342-151af21b34fa","system_id":"levelo_inurba_marseille","lat":43.29983,"lon":5.37424,"is_reserved":false,"is_disabled":false,"rental_uris":{"android":"levelo://app?vid=f00e3044-9bd1-48b5-b342-151af21b34fa","ios":"levelo://app?vid=f00e3044-9bd1-48b5-b342-151af21b34fa"},"vehicle_type_id":"4","last_reported":1751382713,"current_range_meters":18000,"station_id":"","pricing_plan_id":"cebpf4jnsgd1na2vs0mg"},{"bike_id":"bb64f86d-67b3-434b-848d-4dfe75db6f91","system_id":"levelo_inurba_marseille","lat":43.30147,"lon":5.39834,"is_reserved":false,"is_disabled":false,"rental_uris":{"android":"levelo://app?vid=bb64f86d-67b3-434b-848d-4dfe75db6f91","ios":"levelo://app?vid=bb64f86d-67b3-434b-848d-4dfe75db6f91"},"vehicle_type_id":"4","last_reported":1751382713,"current_range_meters":18000,"station_id":"ce4bh0h2rcd13ifvqd40","pricing_plan_id":"cebpf4jnsgd1na2vs0mg"},{"bike_id":"b5827c8b-6048-4d5f-99a3-a4108f9a3e95","system_id":"levelo_inurba_marseille","lat":43.28483,"lon":5.38413,"is_reserved":false,"is_disabled":false,"rental_uris":{"android":"levelo://app?vid=b5827c8b-6048-4d5f-99a3-a4108f9a3e95","ios":"levelo://app?vid=b5827c8b-6048-4d5f-99a3-a4108f9a3e95"},"vehicle_type_id":"4","last_reported":1751382713,"current_range_meters":18000,"station_id":"ce4bh512rcd13ifvqe3g","pricing_plan_id":"cebpf4jnsgd1na2vs0mg"},{"bike_id":"afb78327-cc2c-423c-9e7b-9e6a58647879","system_id":"levelo_inurba_marseille","lat":43.336894,"lon":5.39212,"is_reserved":false,"is_disabled":false,"rental_uris":{"android":"levelo://app?vid=afb78327-cc2c-423c-9e7b-9e6a58647879","ios":"levelo://app?vid=afb78327-cc2c-423c-9e7b-9e6a58647879"},"vehicle_type_id":"4","last_reported":1751382713,"current_range_meters":18000,"station_id":"ce4bhr92rcd13ifvqhsg","pricing_plan_id":"cebpf4jnsgd1na2vs0mg"},{"bike_id":"d0f90c24-dd03-411b-9731-55305f76b7c8","system_id":"levelo_inurba_marseille","lat":43.21199,"lon":5.3507,"is_reserved":false,"is_disabled":false,"rental_uris":{"android":"levelo://app?vid=d0f90c24-dd03-411b-9731-55305f76b7c8","ios":"levelo://app?vid=d0f90c24-dd03-411b-9731-55305f76b7c8"},"vehicle_type_id":"4","last_reported":1751382713,"current_range_meters":18000,"station_id":"st_cvj6sg6p6f1abm77japg","pricing_plan_id":"cebpf4jnsgd1na2vs0mg"},{"bike_id":"17f5a05e-74d7-4128-9509-0d12a0782abe","system_id":"levelo_inurba_marseille","lat":43.28156,"lon":5.42641,"is_reserved":false,"is_disabled":false,"rental_uris":{"android":"levelo://app?vid=17f5a05e-74d7-4128-9509-0d12a0782abe","ios":"levelo://app?vid=17f5a05e-74d7-4128-9509-0d12a0782abe"},"vehicle_type_id":"4","last_reported":1751382713,"current_range_meters":18800,"station_id":"ce4bhnh2rcd13ifvqgug","pricing_plan_id":"cebpf4jnsgd1na2vs0mg"},{"bike_id":"6a117f79-3945-42c1-aaa9-f01191528115","system_id":"levelo_inurba_marseille","lat":43.32498,"lon":5.3656,"is_reserved":false,"is_disabled":false,"rental_uris":{"android":"levelo://app?vid=6a117f79-3945-42c1-aaa9-f01191528115","ios":"levelo://app?vid=6a117f79-3945-42c1-aaa9-f01191528115"},"vehicle_type_id":"4","last_reported":1751382713,"current_range_meters":18800,"station_id":"ce4bhs12rcd13ifvqhvg","pricing_plan_id":"cebpf4jnsgd1na2vs0mg"},{"bike_id":"dbe6a7d8-6edc-4015-8658-f68eeb46a661","system_id":"levelo_inurba_marseille","lat":43.33573,"lon":5.398669,"is_reserved":false,"is_disabled":false,"rental_uris":{"android":"levelo://app?vid=dbe6a7d8-6edc-4015-8658-f68eeb46a661","ios":"levelo://app?vid=dbe6a7d8-6edc-4015-8658-f68eeb46a661"},"vehicle_type_id":"4","last_reported":1751382713,"current_range_meters":19200,"station_id":"","pricing_plan_id":"cebpf4jnsgd1na2vs0mg"},{"bike_id":"79e31ddd-3c69-4797-90ea-525405f34e2a","system_id":"levelo_inurba_marseille","lat":43.31504,"lon":5.37295,"is_reserved":false,"is_disabled":false,"rental_uris":{"android":"levelo://app?vid=79e31ddd-3c69-4797-90ea-525405f34e2a","ios":"levelo://app?vid=79e31ddd-3c69-4797-90ea-525405f34e2a"},"vehicle_type_id":"4","last_reported":1751382713,"current_range_meters":19200,"station_id":"ce4bgt12rcd13ifvqcd0","pricing_plan_id":"cebpf4jnsgd1na2vs0mg"},{"bike_id":"e06c70a8-7cbd-4f78-b5e0-56e357afee09","system_id":"levelo_inurba_marseille","lat":43.28719,"lon":5.37918,"is_reserved":false,"is_disabled":false,"rental_uris":{"android":"levelo://app?vid=e06c70a8-7cbd-4f78-b5e0-56e357afee09","ios":"levelo://app?vid=e06c70a8-7cbd-4f78-b5e0-56e357afee09"},"vehicle_type_id":"4","last_reported":1751382713,"current_range_meters":19200,"station_id":"ce4bh9p2rcd13ifvqec0","pricing_plan_id":"cebpf4jnsgd1na2vs0mg"},{"bike_id":"81b9753f-aa28-4513-89a4-3ee72628d38d","system_id":"levelo_inurba_marseille","lat":43.32112,"lon":5.36763,"is_reserved":false,"is_disabled":false,"rental_uris":{"android":"levelo://app?vid=81b9753f-aa28-4513-89a4-3ee72628d38d","ios":"levelo://app?vid=81b9753f-aa28-4513-89a4-3ee72628d38d"},"vehicle_type_id":"4","last_reported":1751382713,"current_range_meters":19200,"station_id":"ce4bhrh2rcd13ifvqhug","pricing_plan_id":"cebpf4jnsgd1na2vs0mg"},{"bike_id":"cfc0aa67-590a-4038-b894-cb7b8f074cc7","system_id":"levelo_inurba_marseille","lat":43.2175,"lon":5.34598,"is_reserved":false,"is_disabled":false,"rental_uris":{"android":"levelo://app?vid=cfc0aa67-590a-4038-b894-cb7b8f074cc7","ios":"levelo://app?vid=cfc0aa67-590a-4038-b894-cb7b8f074cc7"},"vehicle_type_id":"4","last_reported":1751382713,"current_range_meters":19200,"station_id":"st_cvj6r9ubvosntc0bgbag","pricing_plan_id":"cebpf4jnsgd1na2vs0mg"},{"bike_id":"7e62b058-a7ed-4634-80f1-04d3de596de7","system_id":"levelo_inurba_marseille","lat":43.29837,"lon":5.36833,"is_reserved":false,"is_disabled":false,"rental_uris":{"android":"levelo://app?vid=7e62b058-a7ed-4634-80f1-04d3de596de7","ios":"levelo://app?vid=7e62b058-a7ed-4634-80f1-04d3de596de7"},"vehicle_type_id":"4","last_reported":1751382713,"current_range_meters":19600,"station_id":"","pricing_plan_id":"cebpf4jnsgd1na2vs0mg"},{"bike_id":"41f115b8-18ae-4484-9fe0-65bfda636580","system_id":"levelo_inurba_marseille","lat":43.29531,"lon":5.38552,"is_reserved":false,"is_disabled":false,"rental_uris":{"android":"levelo://app?vid=41f115b8-18ae-4484-9fe0-65bfda636580","ios":"levelo://app?vid=41f115b8-18ae-4484-9fe0-65bfda636580"},"vehicle_type_id":"4","last_reported":1751382713,"current_range_meters":19600,"station_id":"ce4bgih2rcd13ifvqba0","pricing_plan_id":"cebpf4jnsgd1na2vs0mg"},{"bike_id":"9d553740-f0e1-4e9e-9e91-7ec80c115480","system_id":"levelo_inurba_marseille","lat":43.27632,"lon":5.36101,"is_reserved":false,"is_disabled":false,"rental_uris":{"android":"levelo://app?vid=9d553740-f0e1-4e9e-9e91-7ec80c115480","ios":"levelo://app?vid=9d553740-f0e1-4e9e-9e91-7ec80c115480"},"vehicle_type_id":"4","last_reported":1751382713,"current_range_meters":19600,"station_id":"ce4bgj92rcd13ifvqbe0","pricing_plan_id":"cebpf4jnsgd1na2vs0mg"},{"bike_id":"52c5fadc-a9b3-460e-a595-6aae52c945b4","system_id":"levelo_inurba_marseille","lat":43.314904,"lon":5.373138,"is_reserved":false,"is_disabled":false,"rental_uris":{"android":"levelo://app?vid=52c5fadc-a9b3-460e-a595-6aae52c945b4","ios":"levelo://app?vid=52c5fadc-a9b3-460e-a595-6aae52c945b4"},"vehicle_type_id":"4","last_reported":1751382713,"current_range_meters":19600,"station_id":"ce4bgt12rcd13ifvqcd0","pricing_plan_id":"cebpf4jnsgd1na2vs0mg"},{"bike_id":"1d9818e9-22bb-4b18-9126-e91f6bceb978","system_id":"levelo_inurba_marseille","lat":43.292633,"lon":5.384429,"is_reserved":false,"is_disabled":false,"rental_uris":{"android":"levelo://app?vid=1d9818e9-22bb-4b18-9126-e91f6bceb978","ios":"levelo://app?vid=1d9818e9-22bb-4b18-9126-e91f6bceb978"},"vehicle_type_id":"4","last_reported":1751382713,"current_range_meters":19600,"station_id":"ce4bh692rcd13ifvqea0","pricing_plan_id":"cebpf4jnsgd1na2vs0mg"},{"bike_id":"32e95b8a-2368-4221-8e36-d2eb0c4c23b7","system_id":"levelo_inurba_marseille","lat":43.27354,"lon":5.36254,"is_reserved":false,"is_disabled":false,"rental_uris":{"android":"levelo://app?vid=32e95b8a-2368-4221-8e36-d2eb0c4c23b7","ios":"levelo://app?vid=32e95b8a-2368-4221-8e36-d2eb0c4c23b7"},"vehicle_type_id":"4","last_reported":1751382713,"current_range_meters":19600,"station_id":"ce4bhbh2rcd13ifvqeo0","pricing_plan_id":"cebpf4jnsgd1na2vs0mg"},{"bike_id":"ffdd3826-30ba-44b5-a09b-f7930b1fe0eb","system_id":"levelo_inurba_marseille","lat":43.28264,"lon":5.35053,"is_reserved":false,"is_disabled":false,"rental_uris":{"android":"levelo://app?vid=ffdd3826-30ba-44b5-a09b-f7930b1fe0eb","ios":"levelo://app?vid=ffdd3826-30ba-44b5-a09b-f7930b1fe0eb"},"vehicle_type_id":"4","last_reported":1751382713,"current_range_meters":19600,"station_id":"ce4bhbp2rcd13ifvqerg","pricing_plan_id":"cebpf4jnsgd1na2vs0mg"},{"bike_id":"77916da3-f857-4d7e-bb47-9c5495e75eca","system_id":"levelo_inurba_marseille","lat":43.3266,"lon":5.40992,"is_reserved":false,"is_disabled":false,"rental_uris":{"android":"levelo://app?vid=77916da3-f857-4d7e-bb47-9c5495e75eca","ios":"levelo://app?vid=77916da3-f857-4d7e-bb47-9c5495e75eca"},"vehicle_type_id":"4","last_reported":1751382713,"current_range_meters":19600,"station_id":"ce4bhpp2rcd13ifvqhgg","pricing_plan_id":"cebpf4jnsgd1na2vs0mg"},{"bike_id":"796d9a91-87b6-43a3-94a3-886438f93f14","system_id":"levelo_inurba_marseille","lat":43.2293,"lon":5.35381,"is_reserved":false,"is_disabled":false,"rental_uris":{"android":"levelo://app?vid=796d9a91-87b6-43a3-94a3-886438f93f14","ios":"levelo://app?vid=796d9a91-87b6-43a3-94a3-886438f93f14"},"vehicle_type_id":"4","last_reported":1751382713,"current_range_meters":19600,"station_id":"cpo3532slgdg3j2ikp40","pricing_plan_id":"cebpf4jnsgd1na2vs0mg"},{"bike_id":"dc4251f3-81b6-4e41-b5a5-62a769c36411","system_id":"levelo_inurba_marseille","lat":43.24178,"lon":5.36391,"is_reserved":false,"is_disabled":false,"rental_uris":{"android":"levelo://app?vid=dc4251f3-81b6-4e41-b5a5-62a769c36411","ios":"levelo://app?vid=dc4251f3-81b6-4e41-b5a5-62a769c36411"},"vehicle_type_id":"4","last_reported":1751382713,"current_range_meters":19600,"station_id":"cpo36qri1sfpv3e86is0","pricing_plan_id":"cebpf4jnsgd1na2vs0mg"},{"bike_id":"d0acbfb5-0eb3-41f0-b6bf-952ddb3ae02f","system_id":"levelo_inurba_marseille","lat":43.28163,"lon":5.3512,"is_reserved":false,"is_disabled":false,"rental_uris":{"android":"levelo://app?vid=d0acbfb5-0eb3-41f0-b6bf-952ddb3ae02f","ios":"levelo://app?vid=d0acbfb5-0eb3-41f0-b6bf-952ddb3ae02f"},"vehicle_type_id":"4","last_reported":1751382713,"current_range_meters":20000,"station_id":"","pricing_plan_id":"cebpf4jnsgd1na2vs0mg"},{"bike_id":"b69516a8-45a4-46a5-a77d-ec8bf6529d36","system_id":"levelo_inurba_marseille","lat":43.28859,"lon":5.3585,"is_reserved":false,"is_disabled":false,"rental_uris":{"android":"levelo://app?vid=b69516a8-45a4-46a5-a77d-ec8bf6529d36","ios":"levelo://app?vid=b69516a8-45a4-46a5-a77d-ec8bf6529d36"},"vehicle_type_id":"4","last_reported":1751382713,"current_range_meters":20000,"station_id":"ce4bhb12rcd13ifvqem0","pricing_plan_id":"cebpf4jnsgd1na2vs0mg"},{"bike_id":"e3e84ccf-767d-4de4-be2a-65724f98bbc6","system_id":"levelo_inurba_marseille","lat":43.28849,"lon":5.35837,"is_reserved":false,"is_disabled":false,"rental_uris":{"android":"levelo://app?vid=e3e84ccf-767d-4de4-be2a-65724f98bbc6","ios":"levelo://app?vid=e3e84ccf-767d-4de4-be2a-65724f98bbc6"},"vehicle_type_id":"4","last_reported":1751382713,"current_range_meters":20000,"station_id":"ce4bhb12rcd13ifvqem0","pricing_plan_id":"cebpf4jnsgd1na2vs0mg"},{"bike_id":"28be709b-7fcc-4ae5-aa27-fee87c50c36f","system_id":"levelo_inurba_marseille","lat":43.260309,"lon":5.375452,"is_reserved":false,"is_disabled":false,"rental_uris":{"android":"levelo://app?vid=28be709b-7fcc-4ae5-aa27-fee87c50c36f","ios":"levelo://app?vid=28be709b-7fcc-4ae5-aa27-fee87c50c36f"},"vehicle_type_id":"4","last_reported":1751382713,"current_range_meters":20000,"station_id":"ce4bhgh2rcd13ifvqfa0","pricing_plan_id":"cebpf4jnsgd1na2vs0mg"},{"bike_id":"353fd6ed-5d03-41ab-8624-2754669d01a9","system_id":"levelo_inurba_marseille","lat":43.28066,"lon":5.39667,"is_reserved":false,"is_disabled":false,"rental_uris":{"android":"levelo://app?vid=353fd6ed-5d03-41ab-8624-2754669d01a9","ios":"levelo://app?vid=353fd6ed-5d03-41ab-8624-2754669d01a9"},"vehicle_type_id":"4","last_reported":1751382713,"current_range_meters":20000,"station_id":"ce4bho12rcd13ifvqh2g","pricing_plan_id":"cebpf4jnsgd1na2vs0mg"},{"bike_id":"70e86ccf-9ce4-469c-bb23-0fa7747821d0","system_id":"levelo_inurba_marseille","lat":43.32622,"lon":5.41008,"is_reserved":false,"is_disabled":false,"rental_uris":{"android":"levelo://app?vid=70e86ccf-9ce4-469c-bb23-0fa7747821d0","ios":"levelo://app?vid=70e86ccf-9ce4-469c-bb23-0fa7747821d0"},"vehicle_type_id":"4","last_reported":1751382713,"current_range_meters":20000,"station_id":"ce4bhpp2rcd13ifvqhgg","pricing_plan_id":"cebpf4jnsgd1na2vs0mg"},{"bike_id":"16a8afe6-e43e-4d1b-a7bd-ed83d113735a","system_id":"levelo_inurba_marseille","lat":43.32436,"lon":5.41185,"is_reserved":false,"is_disabled":false,"rental_uris":{"android":"levelo://app?vid=16a8afe6-e43e-4d1b-a7bd-ed83d113735a","ios":"levelo://app?vid=16a8afe6-e43e-4d1b-a7bd-ed83d113735a"},"vehicle_type_id":"4","last_reported":1751382713,"current_range_meters":20400,"station_id":"","pricing_plan_id":"cebpf4jnsgd1na2vs0mg"},{"bike_id":"a766e645-0121-4c71-b143-d3033f7cc0c9","system_id":"levelo_inurba_marseille","lat":43.29301,"lon":5.37458,"is_reserved":false,"is_disabled":false,"rental_uris":{"android":"levelo://app?vid=a766e645-0121-4c71-b143-d3033f7cc0c9","ios":"levelo://app?vid=a766e645-0121-4c71-b143-d3033f7cc0c9"},"vehicle_type_id":"4","last_reported":1751382713,"current_range_meters":20400,"station_id":"ce4bgi12rcd13ifvqb70","pricing_plan_id":"cebpf4jnsgd1na2vs0mg"},{"bike_id":"b2fc65a2-97d0-4402-9987-9f1f409fe2a6","system_id":"levelo_inurba_marseille","lat":43.29442,"lon":5.39763,"is_reserved":false,"is_disabled":false,"rental_uris":{"android":"levelo://app?vid=b2fc65a2-97d0-4402-9987-9f1f409fe2a6","ios":"levelo://app?vid=b2fc65a2-97d0-4402-9987-9f1f409fe2a6"},"vehicle_type_id":"4","last_reported":1751382713,"current_range_meters":20400,"station_id":"ce4bh3h2rcd13ifvqdo0","pricing_plan_id":"cebpf4jnsgd1na2vs0mg"},{"bike_id":"218fa6d1-1e97-4166-a65e-f7f93691c393","system_id":"levelo_inurba_marseille","lat":43.273728,"lon":5.362568,"is_reserved":false,"is_disabled":false,"rental_uris":{"android":"levelo://app?vid=218fa6d1-1e97-4166-a65e-f7f93691c393","ios":"levelo://app?vid=218fa6d1-1e97-4166-a65e-f7f93691c393"},"vehicle_type_id":"4","last_reported":1751382713,"current_range_meters":20400,"station_id":"ce4bhbh2rcd13ifvqeo0","pricing_plan_id":"cebpf4jnsgd1na2vs0mg"},{"bike_id":"6d91a0bb-960c-4a0b-910e-848100eb4c7c","system_id":"levelo_inurba_marseille","lat":43.27921,"lon":5.3958,"is_reserved":false,"is_disabled":false,"rental_uris":{"android":"levelo://app?vid=6d91a0bb-960c-4a0b-910e-848100eb4c7c","ios":"levelo://app?vid=6d91a0bb-960c-4a0b-910e-848100eb4c7c"},"vehicle_type_id":"4","last_reported":1751382713,"current_range_meters":20400,"station_id":"ce4bhf92rcd13ifvqf40","pricing_plan_id":"cebpf4jnsgd1na2vs0mg"},{"bike_id":"bedd413f-de36-441f-a790-9680ac4d9512","system_id":"levelo_inurba_marseille","lat":43.24079,"lon":5.37755,"is_reserved":false,"is_disabled":false,"rental_uris":{"android":"levelo://app?vid=bedd413f-de36-441f-a790-9680ac4d9512","ios":"levelo://app?vid=bedd413f-de36-441f-a790-9680ac4d9512"},