{"last_updated":1756361783,"ttl":60,"version":"2.2","data":{"bikes":[{"bike_id":"1bb66697-5773-484b-a1c5-d7074fc69126","system_id":"levelo_inurba_marseille","lat":43.28014,"lon":5.38222,"is_reserved":false,"is_disabled":false,"rental_uris":{"android":"levelo://app?vid=1bb66697-5773-484b-a1c5-d7074fc69126","ios":"levelo://app?vid=1bb66697-5773-484b-a1c5-d7074fc69126"},"vehicle_type_id":"4","last_reported":1756361783,"current_range_meters":2800,"station_id":"","pricing_plan_id":"cebpf4jnsgd1na2vs0mg"},{"bike_id":"932266f1-6d81-484b-bfc3-906276f16aea","system_id":"levelo_inurba_marseille","lat":43.33759,"lon":5.3748,"is_reserved":false,"is_disabled":false,"rental_uris":{"android":"levelo://app?vid=932266f1-6d81-484b-bfc3-906276f16aea","ios":"levelo://app?vid=932266f1-6d81-484b-bfc3-906276f16aea"},"vehicle_type_id":"4","last_reported":1756361783,"current_range_meters":2800,"station_id":"","pricing_plan_id":"cebpf4jnsgd1na2vs0mg"},{"bike_id":"2582e31b-61df-455f-b413-1117e795f975","system_id":"levelo_inurba_marseille","lat":43.320425,"lon":5.415711,"is_reserved":false,"is_disabled":false,"rental_uris":{"android":"levelo://app?vid=2582e31b-61df-455f-b413-1117e795f975","ios":"levelo://app?vid=2582e31b-61df-455f-b413-1117e795f975"},"vehicle_type_id":"4","last_reported":1756361783,"current_range_meters":3200,"station_id":"ce4bhq92rcd13ifvqhkg","pricing_plan_id":"cebpf4jnsgd1na2vs0mg"},{"bike_id":"70698924-f07a-4421-af4c-f1094e75e7d4","system_id":"levelo_inurba_marseille","lat":43.211917,"lon":5.350729,"is_reserved":false,"is_disabled":false,"rental_uris":{"android":"levelo://app?vid=70698924-f07a-4421-af4c-f1094e75e7d4","ios":"levelo://app?vid=70698924-f07a-4421-af4c-f1094e75e7d4"},"vehicle_type_id":"4","last_reported":1756361783,"current_range_meters":3200,"station_id":"st_cvj6sg6p6f1abm77japg","pricing_plan_id":"cebpf4jnsgd1na2vs0mg"},{"bike_id":"eeb42e78-373a-42a8-ad92-d1dc5831d4c3","system_id":"levelo_inurba_marseille","lat":43.24805,"lon":5.37449,"is_reserved":false,"is_disabled":true,"rental_uris":{"android":"levelo://app?vid=eeb42e78-373a-42a8-ad92-d1dc5831d4c3","ios":"levelo://app?vid=eeb42e78-373a-42a8-ad92-d1dc5831d4c3"},"vehicle_type_id":"4","last_reported":1756361783,"current_range_meters":3600,"station_id":"ce4bhgh2rcd13ifvqfb0","pricing_plan_id":"cebpf4jnsgd1na2vs0mg"},{"bike_id":"a1b65173-adbc-4b26-9c32-e4dc8d5732e5","system_id":"levelo_inurba_marseille","lat":43.26024,"lon":5.37537,"is_reserved":false,"is_disabled":false,"rental_uris":{"android":"levelo://app?vid=a1b65173-adbc-4b26-9c32-e4dc8d5732e5","ios":"levelo://app?vid=a1b65173-adbc-4b26-9c32-e4dc8d5732e5"},"vehicle_type_id":"4","last_reported":1756361783,"current_range_meters":3600,"station_id":"ce4bhgh2rcd13ifvqfa0","pricing_plan_id":"cebpf4jnsgd1na2vs0mg"},{"bike_id":"2732b203-8d34-41ae-80bd-b4f151d77aad","system_id":"levelo_inurba_marseille","lat":43.30252,"lon":5.40546,"is_reserved":false,"is_disabled":false,"rental_uris":{"android":"levelo://app?vid=2732b203-8d34-41ae-80bd-b4f151d77aad","ios":"levelo://app?vid=2732b203-8d34-41ae-80bd-b4f151d77aad"},"vehicle_type_id":"4","last_reported":1756361783,"current_range_meters":4000,"station_id":"","pricing_plan_id":"cebpf4jnsgd1na2vs0mg"},{"bike_id":"0d502687-08ef-4491-8893-8a03d8688be8","system_id":"levelo_inurba_marseille","lat":43.296359,"lon":5.361186,"is_reserved":false,"is_disabled":false,"rental_uris":{"android":"levelo://app?vid=0d502687-08ef-4491-8893-8a03d8688be8","ios":"levelo://app?vid=0d502687-08ef-4491-8893-8a03d8688be8"},"vehicle_type_id":"4","last_reported":1756361783,"current_range_meters":4000,"station_id":"","pricing_plan_id":"cebpf4jnsgd1na2vs0mg"},{"bike_id":"b7f5d4fc-8af5-442f-b471-e28f343fd67e","system_id":"levelo_inurba_marseille","lat":43.3376,"lon":5.3748,"is_reserved":false,"is_disabled":false,"rental_uris":{"android":"levelo://app?vid=b7f5d4fc-8af5-442f-b471-e28f343fd67e","ios":"levelo://app?vid=b7f5d4fc-8af5-442f-b471-e28f343fd67e"},"vehicle_type_id":"4","last_reported":1756361783,"current_range_meters":4400,"station_id":"","pricing_plan_id":"cebpf4jnsgd1na2vs0mg"},{"bike_id":"69b4ff08-bcc7-439d-919d-ecacd6d9051a","system_id":"levelo_inurba_marseille","lat":43.28386,"lon":5.45603,"is_reserved":false,"is_disabled":false,"rental_uris":{"android":"levelo://app?vid=69b4ff08-bcc7-439d-919d-ecacd6d9051a","ios":"levelo://app?vid=69b4ff08-bcc7-439d-919d-ecacd6d9051a"},"vehicle_type_id":"4","last_reported":1756361783,"current_range_meters":4400,"station_id":"","pricing_plan_id":"cebpf4jnsgd1na2vs0mg"},{"bike_id":"deeeb086-26ce-4c07-99a7-d05185ab0e1c","system_id":"levelo_inurba_marseille","lat":43.25583,"lon":5.38234,"is_reserved":false,"is_disabled":false,"rental_uris":{"android":"levelo://app?vid=deeeb086-26ce-4c07-99a7-d05185ab0e1c","ios":"levelo://app?vid=deeeb086-26ce-4c07-99a7-d05185ab0e1c"},"vehicle_type_id":"4","last_reported":1756361783,"current_range_meters":4400,"station_id":"ce4bhih2rcd13ifvqfs0","pricing_plan_id":"cebpf4jnsgd1na2vs0mg"},{"bike_id":"e1cc485f-c6f0-41fe-b8d8-b5e94a231de5","system_id":"levelo_inurba_marseille","lat":43.307495,"lon":5.377141,"is_reserved":false,"is_disabled":false,"rental_uris":{"android":"levelo://app?vid=e1cc485f-c6f0-41fe-b8d8-b5e94a231de5","ios":"levelo://app?vid=e1cc485f-c6f0-41fe-b8d8-b5e94a231de5"},"vehicle_type_id":"4","last_reported":1756361783,"current_range_meters":5600,"station_id":"","pricing_plan_id":"cebpf4jnsgd1na2vs0mg"},{"bike_id":"9b1226dc-082e-4d11-926b-5ea351a24c6b","system_id":"levelo_inurba_marseille","lat":43.30145,"lon":5.38063,"is_reserved":false,"is_disabled":false,"rental_uris":{"android":"levelo://app?vid=9b1226dc-082e-4d11-926b-5ea351a24c6b","ios":"levelo://app?vid=9b1226dc-082e-4d11-926b-5ea351a24c6b"},"vehicle_type_id":"4","last_reported":1756361783,"current_range_meters":5600,"station_id":"ce4bgjp2rcd13ifvqbh0","pricing_plan_id":"cebpf4jnsgd1na2vs0mg"},{"bike_id":"17cb2fe0-534a-4cc2-9379-c36300902e12","system_id":"levelo_inurba_marseille","lat":43.29045,"lon":5.39943,"is_reserved":false,"is_disabled":false,"rental_uris":{"android":"levelo://app?vid=17cb2fe0-534a-4cc2-9379-c36300902e12","ios":"levelo://app?vid=17cb2fe0-534a-4cc2-9379-c36300902e12"},"vehicle_type_id":"4","last_reported":1756361783,"current_range_meters":5600,"station_id":"ce4bh392rcd13ifvqdm0","pricing_plan_id":"cebpf4jnsgd1na2vs0mg"},{"bike_id":"d0929797-eccc-45d1-a5f1-aea03c095a59","system_id":"levelo_inurba_marseille","lat":43.27988,"lon":5.41658,"is_reserved":false,"is_disabled":false,"rental_uris":{"android":"levelo://app?vid=d0929797-eccc-45d1-a5f1-aea03c095a59","ios":"levelo://app?vid=d0929797-eccc-45d1-a5f1-aea03c095a59"},"vehicle_type_id":"4","last_reported":1756361783,"current_range_meters":5600,"station_id":"ce4bho12rcd13ifvqh1g","pricing_plan_id":"cebpf4jnsgd1na2vs0mg"},{"bike_id":"19453317-7841-4e65-89da-f7108166fcfe","system_id":"levelo_inurba_marseille","lat":43.29275,"lon":5.40108,"is_reserved":false,"is_disabled":false,"rental_uris":{"android":"levelo://app?vid=19453317-7841-4e65-89da-f7108166fcfe","ios":"levelo://app?vid=19453317-7841-4e65-89da-f7108166fcfe"},"vehicle_type_id":"4","last_reported":1756361783,"current_range_meters":6000,"station_id":"ce4bh312rcd13ifvqdk0","pricing_plan_id":"cebpf4jnsgd1na2vs0mg"},{"bike_id":"f7c836e5-c606-4419-81dd-e38af256d3aa","system_id":"levelo_inurba_marseille","lat":43.259248,"lon":5.409096,"is_reserved":false,"is_disabled":false,"rental_uris":{"android":"levelo://app?vid=f7c836e5-c606-4419-81dd-e38af256d3aa","ios":"levelo://app?vid=f7c836e5-c606-4419-81dd-e38af256d3aa"},"vehicle_type_id":"4","last_reported":1756361783,"current_range_meters":6000,"station_id":"ce4bhm92rcd13ifvqglg","pricing_plan_id":"cebpf4jnsgd1na2vs0mg"},{"bike_id":"51842e17-ef10-4624-a23e-c8a182427991","system_id":"levelo_inurba_marseille","lat":43.31629,"lon":5.38178,"is_reserved":false,"is_disabled":false,"rental_uris":{"android":"levelo://app?vid=51842e17-ef10-4624-a23e-c8a182427991","ios":"levelo://app?vid=51842e17-ef10-4624-a23e-c8a182427991"},"vehicle_type_id":"4","last_reported":1756361783,"current_range_meters":6000,"station_id":"","pricing_plan_id":"cebpf4jnsgd1na2vs0mg"},{"bike_id":"15c07718-61a4-4f5c-9dc8-ff591147c03f","system_id":"levelo_inurba_marseille","lat":43.28955,"lon":5.39618,"is_reserved":false,"is_disabled":false,"rental_uris":{"android":"levelo://app?vid=15c07718-61a4-4f5c-9dc8-ff591147c03f","ios":"levelo://app?vid=15c07718-61a4-4f5c-9dc8-ff591147c03f"},"vehicle_type_id":"4","last_reported":1756361783,"current_range_meters":6400,"station_id":"ce4bh3h2rcd13ifvqdn0","pricing_plan_id":"cebpf4jnsgd1na2vs0mg"},{"bike_id":"2a1c6667-b565-4f1b-a560-741a03b8da0f","system_id":"levelo_inurba_marseille","lat":43.30313,"lon":5.36898,"is_reserved":false,"is_disabled":false,"rental_uris":{"android":"levelo://app?vid=2a1c6667-b565-4f1b-a560-741a03b8da0f","ios":"levelo://app?vid=2a1c6667-b565-4f1b-a560-741a03b8da0f"},"vehicle_type_id":"4","last_reported":1756361783,"current_range_meters":6000,"station_id":"ce4bgqh2rcd13ifvqc5g","pricing_plan_id":"cebpf4jnsgd1na2vs0mg"},{"bike_id":"23038a23-8213-4d5b-a784-616373105311","system_id":"levelo_inurba_marseille","lat":43.29891,"lon":5.43659,"is_reserved":false,"is_disabled":false,"rental_uris":{"android":"levelo://app?vid=23038a23-8213-4d5b-a784-616373105311","ios":"levelo://app?vid=23038a23-8213-4d5b-a784-616373105311"},"vehicle_type_id":"4","last_reported":1756361783,"current_range_meters":6400,"station_id":"ce4bhpp2rcd13ifvqhfg","pricing_plan_id":"cebpf4jnsgd1na2vs0mg"},{"bike_id":"69a01144-4cb0-4f43-b8a7-d8bba1210d75","system_id":"levelo_inurba_marseille","lat":43.315854,"lon":5.374325,"is_reserved":false,"is_disabled":false,"rental_uris":{"android":"levelo://app?vid=69a01144-4cb0-4f43-b8a7-d8bba1210d75","ios":"levelo://app?vid=69a01144-4cb0-4f43-b8a7-d8bba1210d75"},"vehicle_type_id":"4","last_reported":1756361783,"current_range_meters":6400,"station_id":"","pricing_plan_id":"cebpf4jnsgd1na2vs0mg"},{"bike_id":"24df2c59-c2ae-4cf6-8d73-b821e9ca9612","system_id":"levelo_inurba_marseille","lat":43.27986,"lon":5.39974,"is_reserved":false,"is_disabled":true,"rental_uris":{"android":"levelo://app?vid=24df2c59-c2ae-4cf6-8d73-b821e9ca9612","ios":"levelo://app?vid=24df2c59-c2ae-4cf6-8d73-b821e9ca9612"},"vehicle_type_id":"4","last_reported":1756361783,"current_range_meters":6400,"station_id":"ce4bho92rcd13ifvqh4g","pricing_plan_id":"cebpf4jnsgd1na2vs0mg"},{"bike_id":"8ff3ebc3-b8cc-483f-9232-7e0c6220b0be","system_id":"levelo_inurba_marseille","lat":43.29953,"lon":5.41323,"is_reserved":false,"is_disabled":true,"rental_uris":{"android":"levelo://app?vid=8ff3ebc3-b8cc-483f-9232-7e0c6220b0be","ios":"levelo://app?vid=8ff3ebc3-b8cc-483f-9232-7e0c6220b0be"},"vehicle_type_id":"4","last_reported":1756361783,"current_range_meters":6800,"station_id":"ce4bhp12rcd13ifvqh9g","pricing_plan_id":"cebpf4jnsgd1na2vs0mg"},{"bike_id":"ff202b66-e4c7-412a-a886-fea6a2f01062","system_id":"levelo_inurba_marseille","lat":43.286192,"lon":5.3509,"is_reserved":false,"is_disabled":false,"rental_uris":{"android":"levelo://app?vid=ff202b66-e4c7-412a-a886-fea6a2f01062","ios":"levelo://app?vid=ff202b66-e4c7-412a-a886-fea6a2f01062"},"vehicle_type_id":"4","last_reported":1756361783,"current_range_meters":6800,"station_id":"ce4bhch2rcd13ifvqeug","pricing_plan_id":"cebpf4jnsgd1na2vs0mg"},{"bike_id":"5643dce2-340d-4193-9744-a040d8319048","system_id":"levelo_inurba_marseille","lat":43.29596,"lon":5.38087,"is_reserved":false,"is_disabled":false,"rental_uris":{"android":"levelo://app?vid=5643dce2-340d-4193-9744-a040d8319048","ios":"levelo://app?vid=5643dce2-340d-4193-9744-a040d8319048"},"vehicle_type_id":"4","last_reported":1756361783,"current_range_meters":6400,"station_id":"ce4bgl12rcd13ifvqbo0","pricing_plan_id":"cebpf4jnsgd1na2vs0mg"},{"bike_id":"7e8cb43d-b846-46bd-bc33-055dd7a36655","system_id":"levelo_inurba_marseille","lat":43.30786,"lon":5.37652,"is_reserved":false,"is_disabled":false,"rental_uris":{"android":"levelo://app?vid=7e8cb43d-b846-46bd-bc33-055dd7a36655","ios":"levelo://app?vid=7e8cb43d-b846-46bd-bc33-055dd7a36655"},"vehicle_type_id":"4","last_reported":1756361783,"current_range_meters":6800,"station_id":"","pricing_plan_id":"cebpf4jnsgd1na2vs0mg"},{"bike_id":"1d7023ef-959e-48df-b075-0a4bd90cc9ae","system_id":"levelo_inurba_marseille","lat":43.27365,"lon":5.36253,"is_reserved":false,"is_disabled":true,"rental_uris":{"android":"levelo://app?vid=1d7023ef-959e-48df-b075-0a4bd90cc9ae","ios":"levelo://app?vid=1d7023ef-959e-48df-b075-0a4bd90cc9ae"},"vehicle_type_id":"4","last_reported":1756361783,"current_range_meters":7200,"station_id":"ce4bhbh2rcd13ifvqeo0","pricing_plan_id":"cebpf4jnsgd1na2vs0mg"},{"bike_id":"1102f2d1-a417-41df-8d8d-3b7eefa9a8a8","system_id":"levelo_inurba_marseille","lat":43.28112,"lon":5.37827,"is_reserved":false,"is_disabled":false,"rental_uris":{"android":"levelo://app?vid=1102f2d1-a417-41df-8d8d-3b7eefa9a8a8","ios":"levelo://app?vid=1102f2d1-a417-41df-8d8d-3b7eefa9a8a8"},"vehicle_type_id":"4","last_reported":1756361783,"current_range_meters":8000,"station_id":"ce4bha12rcd13ifvqee0","pricing_plan_id":"cebpf4jnsgd1na2vs0mg"},{"bike_id":"2d0e77b8-c9d8-4e57-b6d3-0a222f73256a","system_id":"levelo_inurba_marseille","lat":43.26211,"lon":5.37445,"is_reserved":false,"is_disabled":true,"rental_uris":{"android":"levelo://app?vid=2d0e77b8-c9d8-4e57-b6d3-0a222f73256a","ios":"levelo://app?vid=2d0e77b8-c9d8-4e57-b6d3-0a222f73256a"},"vehicle_type_id":"4","last_reported":1756361783,"current_range_meters":8000,"station_id":"ce4bhgp2rcd13ifvqfc0","pricing_plan_id":"cebpf4jnsgd1na2vs0mg"},{"bike_id":"07c1565d-0350-4cee-94f5-549108ea0b54","system_id":"levelo_inurba_marseille","lat":43.30154,"lon":5.38076,"is_reserved":false,"is_disabled":false,"rental_uris":{"android":"levelo://app?vid=07c1565d-0350-4cee-94f5-549108ea0b54","ios":"levelo://app?vid=07c1565d-0350-4cee-94f5-549108ea0b54"},"vehicle_type_id":"4","last_reported":1756361783,"current_range_meters":8000,"station_id":"ce4bgjp2rcd13ifvqbh0","pricing_plan_id":"cebpf4jnsgd1na2vs0mg"},{"bike_id":"29fc8535-fcb9-42f5-8620-052867ccd337","system_id":"levelo_inurba_marseille","lat":43.260216,"lon":5.375422,"is_reserved":false,"is_disabled":true,"rental_uris":{"android":"levelo://app?vid=29fc8535-fcb9-42f5-8620-052867ccd337","ios":"levelo://app?vid=29fc8535-fcb9-42f5-8620-052867ccd337"},"vehicle_type_id":"4","last_reported":1756361783,"current_range_meters":8000,"station_id":"ce4bhgh2rcd13ifvqfa0","pricing_plan_id":"cebpf4jnsgd1na2vs0mg"},{"bike_id":"5bce688b-fc81-4596-8277-b66f54be87c1","system_id":"levelo_inurba_marseille","lat":43.33768,"lon":5.37438,"is_reserved":false,"is_disabled":false,"rental_uris":{"android":"levelo://app?vid=5bce688b-fc81-4596-8277-b66f54be87c1","ios":"levelo://app?vid=5bce688b-fc81-4596-8277-b66f54be87c1"},"vehicle_type_id":"4","last_reported":1756361783,"current_range_meters":8400,"station_id":"","pricing_plan_id":"cebpf4jnsgd1na2vs0mg"},{"bike_id":"e9099ed8-f39c-4735-a545-38ff6ccc85d8","system_id":"levelo_inurba_marseille","lat":43.32248,"lon":5.38535,"is_reserved":false,"is_disabled":false,"rental_uris":{"android":"levelo://app?vid=e9099ed8-f39c-4735-a545-38ff6ccc85d8","ios":"levelo://app?vid=e9099ed8-f39c-4735-a545-38ff6ccc85d8"},"vehicle_type_id":"4","last_reported":1756361783,"current_range_meters":8400,"station_id":"","pricing_plan_id":"cebpf4jnsgd1na2vs0mg"},{"bike_id":"1546df9e-d1cb-482b-8d1f-d121540fd829","system_id":"levelo_inurba_marseille","lat":43.211939,"lon":5.350725,"is_reserved":false,"is_disabled":false,"rental_uris":{"android":"levelo://app?vid=1546df9e-d1cb-482b-8d1f-d121540fd829","ios":"levelo://app?vid=1546df9e-d1cb-482b-8d1f-d121540fd829"},"vehicle_type_id":"4","last_reported":1756361783,"current_range_meters":8400,"station_id":"st_cvj6sg6p6f1abm77japg","pricing_plan_id":"cebpf4jnsgd1na2vs0mg"},{"bike_id":"e337d582-364a-4312-af91-67d0c81052aa","system_id":"levelo_inurba_marseille","lat":43.32554,"lon":5.36458,"is_reserved":false,"is_disabled":false,"rental_uris":{"android":"levelo://app?vid=e337d582-364a-4312-af91-67d0c81052aa","ios":"levelo://app?vid=e337d582-364a-4312-af91-67d0c81052aa"},"vehicle_type_id":"4","last_reported":1756361783,"current_range_meters":8400,"station_id":"","pricing_plan_id":"cebpf4jnsgd1na2vs0mg"},{"bike_id":"cceb5e99-5104-49c8-8506-8e6a58d67871","system_id":"levelo_inurba_marseille","lat":43.241792,"lon":5.397081,"is_reserved":false,"is_disabled":false,"rental_uris":{"android":"levelo://app?vid=cceb5e99-5104-49c8-8506-8e6a58d67871","ios":"levelo://app?vid=cceb5e99-5104-49c8-8506-8e6a58d67871"},"vehicle_type_id":"4","last_reported":1756361783,"current_range_meters":8400,"station_id":"ce4bhn12rcd13ifvqgpg","pricing_plan_id":"cebpf4jnsgd1na2vs0mg"},{"bike_id":"a7c879e6-fbdc-41cc-b936-a235aa17adb5","system_id":"levelo_inurba_marseille","lat":43.331282,"lon":5.381626,"is_reserved":false,"is_disabled":false,"rental_uris":{"android":"levelo://app?vid=a7c879e6-fbdc-41cc-b936-a235aa17adb5","ios":"levelo://app?vid=a7c879e6-fbdc-41cc-b936-a235aa17adb5"},"vehicle_type_id":"4","last_reported":1756361783,"current_range_meters":8800,"station_id":"","pricing_plan_id":"cebpf4jnsgd1na2vs0mg"},{"bike_id":"d2d39256-6788-442b-b27b-5120dd8b53ef","system_id":"levelo_inurba_marseille","lat":43.289363,"lon":5.366261,"is_reserved":false,"is_disabled":false,"rental_uris":{"android":"levelo://app?vid=d2d39256-6788-442b-b27b-5120dd8b53ef","ios":"levelo://app?vid=d2d39256-6788-442b-b27b-5120dd8b53ef"},"vehicle_type_id":"4","last_reported":1756361783,"current_range_meters":8800,"station_id":"ce4bhap2rcd13ifvqek0","pricing_plan_id":"cebpf4jnsgd1na2vs0mg"},{"bike_id":"8f56a38a-ea80-41cf-8440-66d6f92e4e9b","system_id":"levelo_inurba_marseille","lat":43.30157,"lon":5.38085,"is_reserved":false,"is_disabled":false,"rental_uris":{"android":"levelo://app?vid=8f56a38a-ea80-41cf-8440-66d6f92e4e9b","ios":"levelo://app?vid=8f56a38a-ea80-41cf-8440-66d6f92e4e9b"},"vehicle_type_id":"4","last_reported":1756361783,"current_range_meters":8800,"station_id":"ce4bgjp2rcd13ifvqbh0","pricing_plan_id":"cebpf4jnsgd1na2vs0mg"},{"bike_id":"19805e4d-ca8e-4773-9bf4-69c3f9cac1d0","system_id":"levelo_inurba_marseille","lat":43.257181,"lon":5.411129,"is_reserved":false,"is_disabled":false,"rental_uris":{"android":"levelo://app?vid=19805e4d-ca8e-4773-9bf4-69c3f9cac1d0","ios":"levelo://app?vid=19805e4d-ca8e-4773-9bf4-69c3f9cac1d0"},"vehicle_type_id":"4","last_reported":1756361783,"current_range_meters":8800,"station_id":"ce4bhkp2rcd13ifvqgd0","pricing_plan_id":"cebpf4jnsgd1na2vs0mg"},{"bike_id":"a514a555-395b-41ab-ad3a-fd86a43d07ab","system_id":"levelo_inurba_marseille","lat":43.26566,"lon":5.372875,"is_reserved":false,"is_disabled":false,"rental_uris":{"android":"levelo://app?vid=a514a555-395b-41ab-ad3a-fd86a43d07ab","ios":"levelo://app?vid=a514a555-395b-41ab-ad3a-fd86a43d07ab"},"vehicle_type_id":"4","last_reported":1756361783,"current_range_meters":8800,"station_id":"ce4bhg12rcd13ifvqf70","pricing_plan_id":"cebpf4jnsgd1na2vs0mg"},{"bike_id":"061019b9-7d30-4d31-b14b-889671f88a10","system_id":"levelo_inurba_marseille","lat":43.26791,"lon":5.39411,"is_reserved":false,"is_disabled":false,"rental_uris":{"android":"levelo://app?vid=061019b9-7d30-4d31-b14b-889671f88a10","ios":"levelo://app?vid=061019b9-7d30-4d31-b14b-889671f88a10"},"vehicle_type_id":"4","last_reported":1756361783,"current_range_meters":8400,"station_id":"ce4bhh12rcd13ifvqfg0","pricing_plan_id":"cebpf4jnsgd1na2vs0mg"},{"bike_id":"a87f97d0-b06d-49ed-8a1e-b35acdcbe0c3","system_id":"levelo_inurba_marseille","lat":43.308076,"lon":5.435151,"is_reserved":false,"is_disabled":false,"rental_uris":{"android":"levelo://app?vid=a87f97d0-b06d-49ed-8a1e-b35acdcbe0c3","ios":"levelo://app?vid=a87f97d0-b06d-49ed-8a1e-b35acdcbe0c3"},"vehicle_type_id":"4","last_reported":1756361783,"current_range_meters":8800,"station_id":"ce4bhph2rcd13ifvqheg","pricing_plan_id":"cebpf4jnsgd1na2vs0mg"},{"bike_id":"028823a5-785a-4ebf-83ef-66281925803f","system_id":"levelo_inurba_marseille","lat":43.29251,"lon":5.40156,"is_reserved":false,"is_disabled":false,"rental_uris":{"android":"levelo://app?vid=028823a5-785a-4ebf-83ef-66281925803f","ios":"levelo://app?vid=028823a5-785a-4ebf-83ef-66281925803f"},"vehicle_type_id":"4","last_reported":1756361783,"current_range_meters":9200,"station_id":"ce4bh312rcd13ifvqdk0","pricing_plan_id":"cebpf4jnsgd1na2vs0mg"},{"bike_id":"e5eabf25-4e1c-476e-b130-9f83cdcfc80c","system_id":"levelo_inurba_marseille","lat":43.29812,"lon":5.41721,"is_reserved":false,"is_disabled":false,"rental_uris":{"android":"levelo://app?vid=e5eabf25-4e1c-476e-b130-9f83cdcfc80c","ios":"levelo://app?vid=e5eabf25-4e1c-476e-b130-9f83cdcfc80c"},"vehicle_type_id":"4","last_reported":1756361783,"current_range_meters":9200,"station_id":"","pricing_plan_id":"cebpf4jnsgd1na2vs0mg"},{"bike_id":"b721aaaa-ccd9-4098-92a6-87de476dd197","system_id":"levelo_inurba_marseille","lat":43.276676,"lon":5.388816,"is_reserved":false,"is_disabled":false,"rental_uris":{"android":"levelo://app?vid=b721aaaa-ccd9-4098-92a6-87de476dd197","ios":"levelo://app?vid=b721aaaa-ccd9-4098-92a6-87de476dd197"},"vehicle_type_id":"4","last_reported":1756361783,"current_range_meters":9200,"station_id":"ce4bhi12rcd13ifvqfo0","pricing_plan_id":"cebpf4jnsgd1na2vs0mg"},{"bike_id":"a6ef8657-5b8a-423b-993f-c3df43dec0a0","system_id":"levelo_inurba_marseille","lat":43.337595,"lon":5.374806,"is_reserved":false,"is_disabled":false,"rental_uris":{"android":"levelo://app?vid=a6ef8657-5b8a-423b-993f-c3df43dec0a0","ios":"levelo://app?vid=a6ef8657-5b8a-423b-993f-c3df43dec0a0"},"vehicle_type_id":"4","last_reported":1756361783,"current_range_meters":9200,"station_id":"","pricing_plan_id":"cebpf4jnsgd1na2vs0mg"},{"bike_id":"2b2ebf1d-a923-4959-8b1a-e5f303b7fe84","system_id":"levelo_inurba_marseille","lat":43.292829,"lon":5.401287,"is_reserved":false,"is_disabled":false,"rental_uris":{"android":"levelo://app?vid=2b2ebf1d-a923-4959-8b1a-e5f303b7fe84","ios":"levelo://app?vid=2b2ebf1d-a923-4959-8b1a-e5f303b7fe84"},"vehicle_type_id":"4","last_reported":1756361783,"current_range_meters":9200,"station_id":"ce4bh312rcd13ifvqdk0","pricing_plan_id":"cebpf4jnsgd1na2vs0mg"},{"bike_id":"40359052-9f3d-44f8-a43b-f486217c4075","system_id":"levelo_inurba_marseille","lat":43.28107,"lon":5.37846,"is_reserved":false,"is_disabled":false,"rental_uris":{"android":"levelo://app?vid=40359052-9f3d-44f8-a43b-f486217c4075","ios":"levelo://app?vid=40359052-9f3d-44f8-a43b-f486217c4075"},"vehicle_type_id":"4","last_reported":1756361783,"current_range_meters":9600,"station_id":"ce4bha12rcd13ifvqee0","pricing_plan_id":"cebpf4jnsgd1na2vs0mg"},{"bike_id":"0e1de809-ccea-4792-b4bc-d7fccc6ac054","system_id":"levelo_inurba_marseille","lat":43.29934,"lon":5.36533,"is_reserved":false,"is_disabled":false,"rental_uris":{"android":"levelo://app?vid=0e1de809-ccea-4792-b4bc-d7fccc6ac054","ios":"levelo://app?vid=0e1de809-ccea-4792-b4bc-d7fccc6ac054"},"vehicle_type_id":"4","last_reported":1756361783,"current_range_meters":9600,"station_id":"ce4bgm92rcd13ifvqbr0","pricing_plan_id":"cebpf4jnsgd1na2vs0mg"},{"bike_id":"9308f021-ec84-4fe8-8c25-145b6405b7e0","system_id":"levelo_inurba_marseille","lat":43.30516,"lon":5.36739,"is_reserved":false,"is_disabled":true,"rental_uris":{"android":"levelo://app?vid=9308f021-ec84-4fe8-8c25-145b6405b7e0","ios":"levelo://app?vid=9308f021-ec84-4fe8-8c25-145b6405b7e0"},"vehicle_type_id":"4","last_reported":1756361783,"current_range_meters":9600,"station_id":"ce4bgrp2rcd13ifvqc9g","pricing_plan_id":"cebpf4jnsgd1na2vs0mg"},{"bike_id":"452c64c1-c18e-429f-ac02-5f3cc7af3941","system_id":"levelo_inurba_marseille","lat":43.21757,"lon":5.34593,"is_reserved":false,"is_disabled":false,"rental_uris":{"android":"levelo://app?vid=452c64c1-c18e-429f-ac02-5f3cc7af3941","ios":"levelo://app?vid=452c64c1-c18e-429f-ac02-5f3cc7af3941"},"vehicle_type_id":"4","last_reported":1756361783,"current_range_meters":9600,"station_id":"st_cvj6r9ubvosntc0bgbag","pricing_plan_id":"cebpf4jnsgd1na2vs0mg"},{"bike_id":"57d77259-e64a-40b9-b711-05759afb0982","system_id":"levelo_inurba_marseille","lat":43.31708,"lon":5.40455,"is_reserved":false,"is_disabled":false,"rental_uris":{"android":"levelo://app?vid=57d77259-e64a-40b9-b711-05759afb0982","ios":"levelo://app?vid=57d77259-e64a-40b9-b711-05759afb0982"},"vehicle_type_id":"4","last_reported":1756361783,"current_range_meters":10000,"station_id":"ce4bh012rcd13ifvqd00","pricing_plan_id":"cebpf4jnsgd1na2vs0mg"},{"bike_id":"7e3ffa88-6346-44b3-b141-4da26e78c620","system_id":"levelo_inurba_marseille","lat":43.24181,"lon":5.39723,"is_reserved":false,"is_disabled":false,"rental_uris":{"android":"levelo://app?vid=7e3ffa88-6346-44b3-b141-4da26e78c620","ios":"levelo://app?vid=7e3ffa88-6346-44b3-b141-4da26e78c620"},"vehicle_type_id":"4","last_reported":1756361783,"current_range_meters":10000,"station_id":"ce4bhn12rcd13ifvqgpg","pricing_plan_id":"cebpf4jnsgd1na2vs0mg"},{"bike_id":"c585dd86-e6af-4090-bba4-a9ee7f425450","system_id":"levelo_inurba_marseille","lat":43.283668,"lon":5.386413,"is_reserved":false,"is_disabled":false,"rental_uris":{"android":"levelo://app?vid=c585dd86-e6af-4090-bba4-a9ee7f425450","ios":"levelo://app?vid=c585dd86-e6af-4090-bba4-a9ee7f425450"},"vehicle_type_id":"4","last_reported":1756361783,"current_range_meters":10000,"station_id":"ce4bh492rcd13ifvqdvg","pricing_plan_id":"cebpf4jnsgd1na2vs0mg"},{"bike_id":"aa375831-c987-4042-97d7-4bc96d6caa6a","system_id":"levelo_inurba_marseille","lat":43.26298,"lon":5.37394,"is_reserved":false,"is_disabled":true,"rental_uris":{"android":"levelo://app?vid=aa375831-c987-4042-97d7-4bc96d6caa6a","ios":"levelo://app?vid=aa375831-c987-4042-97d7-4bc96d6caa6a"},"vehicle_type_id":"4","last_reported":1756361783,"current_range_meters":10000,"station_id":"","pricing_plan_id":"cebpf4jnsgd1na2vs0mg"},{"bike_id":"8637e1aa-9c9a-41e1-a5d5-f0342a65118e","system_id":"levelo_inurba_marseille","lat":43.31704,"lon":5.43702,"is_reserved":false,"is_disabled":false,"rental_uris":{"android":"levelo://app?vid=8637e1aa-9c9a-41e1-a5d5-f0342a65118e","ios":"levelo://app?vid=8637e1aa-9c9a-41e1-a5d5-f0342a65118e"},"vehicle_type_id":"4","last_reported":1756361783,"current_range_meters":10000,"station_id":"ce4bhp92rcd13ifvqhcg","pricing_plan_id":"cebpf4jnsgd1na2vs0mg"},{"bike_id":"b3c01809-30e6-4bfa-a470-a2f2ae2bb69e","system_id":"levelo_inurba_marseille","lat":43.29581,"lon":5.37528,"is_reserved":false,"is_disabled":false,"rental_uris":{"android":"levelo://app?vid=b3c01809-30e6-4bfa-a470-a2f2ae2bb69e","ios":"levelo://app?vid=b3c01809-30e6-4bfa-a470-a2f2ae2bb69e"},"vehicle_type_id":"4","last_reported":1756361783,"current_range_meters":10000,"station_id":"ce4bgh92rcd13ifvqb50","pricing_plan_id":"cebpf4jnsgd1na2vs0mg"},{"bike_id":"ac631280-124e-4e54-bf31-e8c590daca4d","system_id":"levelo_inurba_marseille","lat":43.298089,"lon":5.381118,"is_reserved":false,"is_disabled":false,"rental_uris":{"android":"levelo://app?vid=ac631280-124e-4e54-bf31-e8c590daca4d","ios":"levelo://app?vid=ac631280-124e-4e54-bf31-e8c590daca4d"},"vehicle_type_id":"4","last_reported":1756361783,"current_range_meters":10000,"station_id":"ce4bgip2rcd13ifvqbb0","pricing_plan_id":"cebpf4jnsgd1na2vs0mg"},{"bike_id":"04b7a9f3-b443-44fd-b605-c1e0083e2b14","system_id":"levelo_inurba_marseille","lat":43.280824,"lon":5.396503,"is_reserved":false,"is_disabled":false,"rental_uris":{"android":"levelo://app?vid=04b7a9f3-b443-44fd-b605-c1e0083e2b14","ios":"levelo://app?vid=04b7a9f3-b443-44fd-b605-c1e0083e2b14"},"vehicle_type_id":"4","last_reported":1756361783,"current_range_meters":10800,"station_id":"ce4bho12rcd13ifvqh2g","pricing_plan_id":"cebpf4jnsgd1na2vs0mg"},{"bike_id":"aba8da32-a038-4842-815b-5444734fbcd0","system_id":"levelo_inurba_marseille","lat":43.246577,"lon":5.388994,"is_reserved":false,"is_disabled":false,"rental_uris":{"android":"levelo://app?vid=aba8da32-a038-4842-815b-5444734fbcd0","ios":"levelo://app?vid=aba8da32-a038-4842-815b-5444734fbcd0"},"vehicle_type_id":"4","last_reported":1756361783,"current_range_meters":10800,"station_id":"ce4bhg12rcd13ifvqf60","pricing_plan_id":"cebpf4jnsgd1na2vs0mg"},{"bike_id":"466b9e53-c467-49ad-8e72-7fb606ba8292","system_id":"levelo_inurba_marseille","lat":43.29875,"lon":5.39724,"is_reserved":false,"is_disabled":false,"rental_uris":{"android":"levelo://app?vid=466b9e53-c467-49ad-8e72-7fb606ba8292","ios":"levelo://app?vid=466b9e53-c467-49ad-8e72-7fb606ba8292"},"vehicle_type_id":"4","last_reported":1756361783,"current_range_meters":10800,"station_id":"ce4bh0h2rcd13ifvqd50","pricing_plan_id":"cebpf4jnsgd1na2vs0mg"},{"bike_id":"10b9bb1d-4b1c-4f5c-bf78-a659488e4700","system_id":"levelo_inurba_marseille","lat":43.262875,"lon":5.398837,"is_reserved":false,"is_disabled":false,"rental_uris":{"android":"levelo://app?vid=10b9bb1d-4b1c-4f5c-bf78-a659488e4700","ios":"levelo://app?vid=10b9bb1d-4b1c-4f5c-bf78-a659488e4700"},"vehicle_type_id":"4","last_reported":1756361783,"current_range_meters":10800,"station_id":"","pricing_plan_id":"cebpf4jnsgd1na2vs0mg"},{"bike_id":"6bfbf7b1-a4a1-4287-abfb-a1fa867bee3a","system_id":"levelo_inurba_marseille","lat":43.230649,"lon":5.354935,"is_reserved":false,"is_disabled":false,"rental_uris":{"android":"levelo://app?vid=6bfbf7b1-a4a1-4287-abfb-a1fa867bee3a","ios":"levelo://app?vid=6bfbf7b1-a4a1-4287-abfb-a1fa867bee3a"},"vehicle_type_id":"4","last_reported":1756361783,"current_range_meters":10800,"station_id":"cpo3342slgdg3j2ifvpg","pricing_plan_id":"cebpf4jnsgd1na2vs0mg"},{"bike_id":"758925e6-bd9a-4169-81c0-f7af7a29a755","system_id":"levelo_inurba_marseille","lat":43.26031,"lon":5.37535,"is_reserved":false,"is_disabled":true,"rental_uris":{"android":"levelo://app?vid=758925e6-bd9a-4169-81c0-f7af7a29a755","ios":"levelo://app?vid=758925e6-bd9a-4169-81c0-f7af7a29a755"},"vehicle_type_id":"4","last_reported":1756361783,"current_range_meters":10800,"station_id":"ce4bhgh2rcd13ifvqfa0","pricing_plan_id":"cebpf4jnsgd1na2vs0mg"},{"bike_id":"07f3c348-251f-475b-bdcc-b91dd94163be","system_id":"levelo_inurba_marseille","lat":43.21746,"lon":5.34603,"is_reserved":false,"is_disabled":true,"rental_uris":{"android":"levelo://app?vid=07f3c348-251f-475b-bdcc-b91dd94163be","ios":"levelo://app?vid=07f3c348-251f-475b-bdcc-b91dd94163be"},"vehicle_type_id":"4","last_reported":1756361783,"current_range_meters":10800,"station_id":"st_cvj6r9ubvosntc0bgbag","pricing_plan_id":"cebpf4jnsgd1na2vs0mg"},{"bike_id":"38014ce3-3239-4ccf-a0a6-44e5034bc736","system_id":"levelo_inurba_marseille","lat":43.258719,"lon":5.398934,"is_reserved":false,"is_disabled":false,"rental_uris":{"android":"levelo://app?vid=38014ce3-3239-4ccf-a0a6-44e5034bc736","ios":"levelo://app?vid=38014ce3-3239-4ccf-a0a6-44e5034bc736"},"vehicle_type_id":"4","last_reported":1756361783,"current_range_meters":11200,"station_id":"ce4bhl92rcd13ifvqghg","pricing_plan_id":"cebpf4jnsgd1na2vs0mg"},{"bike_id":"637b686c-7e37-4d99-91b2-e0b0b537e0f9","system_id":"levelo_inurba_marseille","lat":43.28714,"lon":5.37924,"is_reserved":false,"is_disabled":false,"rental_uris":{"android":"levelo://app?vid=637b686c-7e37-4d99-91b2-e0b0b537e0f9","ios":"levelo://app?vid=637b686c-7e37-4d99-91b2-e0b0b537e0f9"},"vehicle_type_id":"4","last_reported":1756361783,"current_range_meters":11200,"station_id":"ce4bh9p2rcd13ifvqec0","pricing_plan_id":"cebpf4jnsgd1na2vs0mg"},{"bike_id":"013e62a3-1f4c-4b29-a2db-c25e59913baa","system_id":"levelo_inurba_marseille","lat":43.28878,"lon":5.43376,"is_reserved":false,"is_disabled":false,"rental_uris":{"android":"levelo://app?vid=013e62a3-1f4c-4b29-a2db-c25e59913baa","ios":"levelo://app?vid=013e62a3-1f4c-4b29-a2db-c25e59913baa"},"vehicle_type_id":"4","last_reported":1756361783,"current_range_meters":11600,"station_id":"","pricing_plan_id":"cebpf4jnsgd1na2vs0mg"},{"bike_id":"ff026c57-bc57-4fc4-9e8b-5d578db6903d","system_id":"levelo_inurba_marseille","lat":43.24076,"lon":5.37765,"is_reserved":false,"is_disabled":false,"rental_uris":{"android":"levelo://app?vid=ff026c57-bc57-4fc4-9e8b-5d578db6903d","ios":"levelo://app?vid=ff026c57-bc57-4fc4-9e8b-5d578db6903d"},"vehicle_type_id":"4","last_reported":1756361783,"current_range_meters":11600,"station_id":"ce4bhnp2rcd13ifvqgvg","pricing_plan_id":"cebpf4jnsgd1na2vs0mg"},{"bike_id":"98c96329-3edb-4eec-a3f6-606d0522135f","system_id":"levelo_inurba_marseille","lat":43.211995,"lon":5.350625,"is_reserved":false,"is_disabled":false,"rental_uris":{"android":"levelo://app?vid=98c96329-3edb-4eec-a3f6-606d0522135f","ios":"levelo://app?vid=98c96329-3edb-4eec-a3f6-606d0522135f"},"vehicle_type_id":"4","last_reported":1756361783,"current_range_meters":11600,"station_id":"st_cvj6sg6p6f1abm77japg","pricing_plan_id":"cebpf4jnsgd1na2vs0mg"},{"bike_id":"99a1f6e8-f9f4-47c7-aa48-e7c25f733bb1","system_id":"levelo_inurba_marseille","lat":43.246309,"lon":5.431429,"is_reserved":false,"is_disabled":false,"rental_uris":{"android":"levelo://app?vid=99a1f6e8-f9f4-47c7-aa48-e7c25f733bb1","ios":"levelo://app?vid=99a1f6e8-f9f4-47c7-aa48-e7c25f733bb1"},"vehicle_type_id":"4","last_reported":1756361783,"current_range_meters":11600,"station_id":"st_d2m6c4gdas8pm72e190g","pricing_plan_id":"cebpf4jnsgd1na2vs0mg"},{"bike_id":"f5ee2120-b8b8-472b-9bcc-efc824cd719b","system_id":"levelo_inurba_marseille","lat":43.29551,"lon":5.42281,"is_reserved":false,"is_disabled":false,"rental_uris":{"android":"levelo://app?vid=f5ee2120-b8b8-472b-9bcc-efc824cd719b","ios":"levelo://app?vid=f5ee2120-b8b8-472b-9bcc-efc824cd719b"},"vehicle_type_id":"4","last_reported":1756361783,"current_range_meters":11600,"station_id":"ce4bhph2rcd13ifvqhdg","pricing_plan_id":"cebpf4jnsgd1na2vs0mg"},{"bike_id":"11a38367-deb6-4141-b3c1-0cba6ea43c8d","system_id":"levelo_inurba_marseille","lat":43.290011,"lon":5.356201,"is_reserved":false,"is_disabled":true,"rental_uris":{"android":"levelo://app?vid=11a38367-deb6-4141-b3c1-0cba6ea43c8d","ios":"levelo://app?vid=11a38367-deb6-4141-b3c1-0cba6ea43c8d"},"vehicle_type_id":"4","last_reported":1756361783,"current_range_meters":12000,"station_id":"ce4bhb92rcd13ifvqen0","pricing_plan_id":"cebpf4jnsgd1na2vs0mg"},{"bike_id":"5c26a54e-1e97-4ad3-a16d-614ad930b130","system_id":"levelo_inurba_marseille","lat":43.321076,"lon":5.367641,"is_reserved":false,"is_disabled":false,"rental_uris":{"android":"levelo://app?vid=5c26a54e-1e97-4ad3-a16d-614ad930b130","ios":"levelo://app?vid=5c26a54e-1e97-4ad3-a16d-614ad930b130"},"vehicle_type_id":"4","last_reported":1756361783,"current_range_meters":12000,"station_id":"ce4bhrh2rcd13ifvqhug","pricing_plan_id":"cebpf4jnsgd1na2vs0mg"},{"bike_id":"56f2bf6e-e578-4605-81b1-49d3762e596e","system_id":"levelo_inurba_marseille","lat":43.27978,"lon":5.38735,"is_reserved":false,"is_disabled":false,"rental_uris":{"android":"levelo://app?vid=56f2bf6e-e578-4605-81b1-49d3762e596e","ios":"levelo://app?vid=56f2bf6e-e578-4605-81b1-49d3762e596e"},"vehicle_type_id":"4","last_reported":1756361783,"current_range_meters":12000,"station_id":"ce4bhg12rcd13ifvqf80","pricing_plan_id":"cebpf4jnsgd1na2vs0mg"},{"bike_id":"19eabc24-80d3-4327-b947-9ec7f85cd494","system_id":"levelo_inurba_marseille","lat":43.2732,"lon":5.39092,"is_reserved":false,"is_disabled":true,"rental_uris":{"android":"levelo://app?vid=19eabc24-80d3-4327-b947-9ec7f85cd494","ios":"levelo://app?vid=19eabc24-80d3-4327-b947-9ec7f85cd494"},"vehicle_type_id":"4","last_reported":1756361783,"current_range_meters":12000,"station_id":"ce4bhgp2rcd13ifvqfe0","pricing_plan_id":"cebpf4jnsgd1na2vs0mg"},{"bike_id":"06d7a368-7156-454c-a01c-b0a0ebbf9e53","system_id":"levelo_inurba_marseille","lat":43.27956,"lon":5.38688,"is_reserved":false,"is_disabled":false,"rental_uris":{"android":"levelo://app?vid=06d7a368-7156-454c-a01c-b0a0ebbf9e53","ios":"levelo://app?vid=06d7a368-7156-454c-a01c-b0a0ebbf9e53"},"vehicle_type_id":"4","last_reported":1756361783,"current_range_meters":12000,"station_id":"ce4bhg12rcd13ifvqf80","pricing_plan_id":"cebpf4jnsgd1na2vs0mg"},{"bike_id":"3d399bfe-7fbc-42b7-a070-a73b13325d3f","system_id":"levelo_inurba_marseille","lat":43.231045,"lon":5.354857,"is_reserved":false,"is_disabled":false,"rental_uris":{"android":"levelo://app?vid=3d399bfe-7fbc-42b7-a070-a73b13325d3f","ios":"levelo://app?vid=3d399bfe-7fbc-42b7-a070-a73b13325d3f"},"vehicle_type_id":"4","last_reported":1756361783,"current_range_meters":12000,"station_id":"","pricing_plan_id":"cebpf4jnsgd1na2vs0mg"},{"bike_id":"07a20f3a-56e5-4ad8-9408-6e989d6fc4b4","system_id":"levelo_inurba_marseille","lat":43.28427,"lon":5.39179,"is_reserved":false,"is_disabled":false,"rental_uris":{"android":"levelo://app?vid=07a20f3a-56e5-4ad8-9408-6e989d6fc4b4","ios":"levelo://app?vid=07a20f3a-56e5-4ad8-9408-6e989d6fc4b4"},"vehicle_type_id":"4","last_reported":1756361783,"current_range_meters":12000,"station_id":"ce4bhoh2rcd13ifvqh5g","pricing_plan_id":"cebpf4jnsgd1na2vs0mg"},{"bike_id":"e62adc39-0802-4ba8-addd-7e20a90f00f1","system_id":"levelo_inurba_marseille","lat":43.257312,"lon":5.410872,"is_reserved":false,"is_disabled":false,"rental_uris":{"android":"levelo://app?vid=e62adc39-0802-4ba8-addd-7e20a90f00f1","ios":"levelo://app?vid=e62adc39-0802-4ba8-addd-7e20a90f00f1"},"vehicle_type_id":"4","last_reported":1756361783,"current_range_meters":12000,"station_id":"ce4bhkp2rcd13ifvqgd0","pricing_plan_id":"cebpf4jnsgd1na2vs0mg"},{"bike_id":"729739b4-f167-4b2d-a0cd-f111e90e83bc","system_id":"levelo_inurba_marseille","lat":43.27295,"lon":5.36287,"is_reserved":false,"is_disabled":false,"rental_uris":{"android":"levelo://app?vid=729739b4-f167-4b2d-a0cd-f111e90e83bc","ios":"levelo://app?vid=729739b4-f167-4b2d-a0cd-f111e90e83bc"},"vehicle_type_id":"4","last_reported":1756361783,"current_range_meters":12000,"station_id":"","pricing_plan_id":"cebpf4jnsgd1na2vs0mg"},{"bike_id":"fc72c92c-9202-4bf8-82de-78098abfa86c","system_id":"levelo_inurba_marseille","lat":43.27809,"lon":5.40717,"is_reserved":false,"is_disabled":false,"rental_uris":{"android":"levelo://app?vid=fc72c92c-9202-4bf8-82de-78098abfa86c","ios":"levelo://app?vid=fc72c92c-9202-4bf8-82de-78098abfa86c"},"vehicle_type_id":"4","last_reported":1756361783,"current_range_meters":12000,"station_id":"ce4bhnh2rcd13ifvqgtg","pricing_plan_id":"cebpf4jnsgd1na2vs0mg"},{"bike_id":"6e960ddb-9219-467a-922d-e72c40cbd813","system_id":"levelo_inurba_marseille","lat":43.28474,"lon":5.38549,"is_reserved":false,"is_disabled":false,"rental_uris":{"android":"levelo://app?vid=6e960ddb-9219-467a-922d-e72c40cbd813","ios":"levelo://app?vid=6e960ddb-9219-467a-922d-e72c40cbd813"},"vehicle_type_id":"4","last_reported":1756361783,"current_range_meters":12400,"station_id":"ce4bh8p2rcd13ifvqeb0","pricing_plan_id":"cebpf4jnsgd1na2vs0mg"},{"bike_id":"5c2a547a-042f-4d69-adea-bd78d220979c","system_id":"levelo_inurba_marseille","lat":43.24079,"lon":5.37757,"is_reserved":false,"is_disabled":false,"rental_uris":{"android":"levelo://app?vid=5c2a547a-042f-4d69-adea-bd78d220979c","ios":"levelo://app?vid=5c2a547a-042f-4d69-adea-bd78d220979c"},"vehicle_type_id":"4","last_reported":1756361783,"current_range_meters":12400,"station_id":"ce4bhnp2rcd13ifvqgvg","pricing_plan_id":"cebpf4jnsgd1na2vs0mg"},{"bike_id":"8498fa8e-4f91-459d-a0f4-2fbed7e50f59","system_id":"levelo_inurba_marseille","lat":43.28696,"lon":5.39975,"is_reserved":false,"is_disabled":false,"rental_uris":{"android":"levelo://app?vid=8498fa8e-4f91-459d-a0f4-2fbed7e50f59","ios":"levelo://app?vid=8498fa8e-4f91-459d-a0f4-2fbed7e50f59"},"vehicle_type_id":"4","last_reported":1756361783,"current_range_meters":12400,"station_id":"ce4bho92rcd13ifvqh3g","pricing_plan_id":"cebpf4jnsgd1na2vs0mg"},{"bike_id":"48bce130-f4d9-4be0-b479-1ef9eb4281d3","system_id":"levelo_inurba_marseille","lat":43.33868,"lon":5.35511,"is_reserved":false,"is_disabled":false,"rental_uris":{"android":"levelo://app?vid=48bce130-f4d9-4be0-b479-1ef9eb4281d3","ios":"levelo://app?vid=48bce130-f4d9-4be0-b479-1ef9eb4281d3"},"vehicle_type_id":"4","last_reported":1756361783,"current_range_meters":12400,"station_id":"","pricing_plan_id":"cebpf4jnsgd1na2vs0mg"},{"bike_id":"d1e0c5c0-2021-47c7-80fe-e78f82330db3","system_id":"levelo_inurba_marseille","lat":43.212123,"lon":5.350689,"is_reserved":false,"is_disabled":false,"rental_uris":{"android":"levelo://app?vid=d1e0c5c0-2021-47c7-80fe-e78f82330db3","ios":"levelo://app?vid=d1e0c5c0-2021-47c7-80fe-e78f82330db3"},"vehicle_type_id":"4","last_reported":1756361783,"current_range_meters":12800,"station_id":"st_cvj6sg6p6f1abm77japg","pricing_plan_id":"cebpf4jnsgd1na2vs0mg"},{"bike_id":"dcdbf15b-4c5d-4602-8271-81484b2c2e30","system_id":"levelo_inurba_marseille","lat":43.284698,"lon":5.384143,"is_reserved":false,"is_disabled":false,"rental_uris":{"android":"levelo://app?vid=dcdbf15b-4c5d-4602-8271-81484b2c2e30","ios":"levelo://app?vid=dcdbf15b-4c5d-4602-8271-81484b2c2e30"},"vehicle_type_id":"4","last_reported":1756361783,"current_range_meters":12800,"station_id":"ce4bh512rcd13ifvqe3g","pricing_plan_id":"cebpf4jnsgd1na2vs0mg"},{"bike_id":"3dff11d5-3872-4ffe-8cce-b5631d6c6058","system_id":"levelo_inurba_marseille","lat":43.3189,"lon":5.38623,"is_reserved":false,"is_disabled":false,"rental_uris":{"android":"levelo://app?vid=3dff11d5-3872-4ffe-8cce-b5631d6c6058","ios":"levelo://app?vid=3dff11d5-3872-4ffe-8cce-b5631d6c6058"},"vehicle_type_id":"4","last_reported":1756361783,"current_range_meters":12800,"station_id":"","pricing_plan_id":"cebpf4jnsgd1na2vs0mg"},{"bike_id":"c67682e4-ad86-4b65-b4ef-e774963b7e60","system_id":"levelo_inurba_marseille","lat":43.23198,"lon":5.355521,"is_reserved":false,"is_disabled":false,"rental_uris":{"android":"levelo://app?vid=c67682e4-ad86-4b65-b4ef-e774963b7e60","ios":"levelo://app?vid=c67682e4-ad86-4b65-b4ef-e774963b7e60"},"vehicle_type_id":"4","last_reported":1756361783,"current_range_meters":13600,"station_id":"ce4bhu92rcd13ifvqi70","pricing_plan_id":"cebpf4jnsgd1na2vs0mg"},{"bike_id":"4cb373c2-c866-4ffe-be1f-de93e275c529","system_id":"levelo_inurba_marseille","lat":43.290184,"lon":5.367596,"is_reserved":false,"is_disabled":false,"rental_uris":{"android":"levelo://app?vid=4cb373c2-c866-4ffe-be1f-de93e275c529","ios":"levelo://app?vid=4cb373c2-c866-4ffe-be1f-de93e275c529"},"vehicle_type_id":"4","last_reported":1756361783,"current_range_meters":13600,"station_id":"","pricing_plan_id":"cebpf4jnsgd1na2vs0mg"},{"bike_id":"6772850d-2dee-4ad5-893e-2335ed13d3ef","system_id":"levelo_inurba_marseille","lat":43.31421,"lon":5.36647,"is_reserved":false,"is_disabled":false,"rental_uris":{"android":"levelo://app?vid=6772850d-2dee-4ad5-893e-2335ed13d3ef","ios":"levelo://app?vid=6772850d-2dee-4ad5-893e-2335ed13d3ef"},"vehicle_type_id":"4","last_reported":1756361783,"current_range_meters":13600,"station_id":"ce4bgr92rcd13ifvqc6g","pricing_plan_id":"cebpf4jnsgd1na2vs0mg"},{"bike_id":"d810acf0-5bd2-4bf1-848d-31cd30d105e6","system_id":"levelo_inurba_marseille","lat":43.269831,"lon":5.392782,"is_reserved":false,"is_disabled":false,"rental_uris":{"android":"levelo://app?vid=d810acf0-5bd2-4bf1-848d-31cd30d105e6","ios":"levelo://app?vid=d810acf0-5bd2-4bf1-848d-31cd30d105e6"},"vehicle_type_id":"4","last_reported":1756361783,"current_range_meters":13600,"station_id":"","pricing_plan_id":"cebpf4jnsgd1na2vs0mg"},{"bike_id":"e7adfa58-9cff-4ae4-9f5c-c741f262e33a","system_id":"levelo_inurba_marseille","lat":43.28765,"lon":5.37934,"is_reserved":false,"is_disabled":false,"rental_uris":{"android":"levelo://app?vid=e7adfa58-9cff-4ae4-9f5c-c741f262e33a","ios":"levelo://app?vid=e7adfa58-9cff-4ae4-9f5c-c741f262e33a"},"vehicle_type_id":"4","last_reported":1756361783,"current_range_meters":13600,"station_id":"","pricing_plan_id":"cebpf4jnsgd1na2vs0mg"},{"bike_id":"2b52fbb6-600b-49c6-8c4e-ccc8520f7c00","system_id":"levelo_inurba_marseille","lat":43.26025,"lon":5.37543,"is_reserved":false,"is_disabled":false,"rental_uris":{"android":"levelo://app?vid=2b52fbb6-600b-49c6-8c4e-ccc8520f7c00","ios":"levelo://app?vid=2b52fbb6-600b-49c6-8c4e-ccc8520f7c00"},"vehicle_type_id":"4","last_reported":1756361783,"current_range_meters":13600,"station_id":"ce4bhgh2rcd13ifvqfa0","pricing_plan_id":"cebpf4jnsgd1na2vs0mg"},{"bike_id":"37bca092-cbac-40c5-a76a-f619027906d5","system_id":"levelo_inurba_marseille","lat":43.30155,"lon":5.38078,"is_reserved":false,"is_disabled":false,"rental_uris":{"android":"levelo://app?vid=37bca092-cbac-40c5-a76a-f619027906d5","ios":"levelo://app?vid=37bca092-cbac-40c5-a76a-f619027906d5"},"vehicle_type_id":"4","last_reported":1756361783,"current_range_meters":13600,"station_id":"ce4bgjp2rcd13ifvqbh0","pricing_plan_id":"cebpf4jnsgd1na2vs0mg"},{"bike_id":"0cc2ba36-2773-44c0-ae42-a8723d5b9aa2","system_id":"levelo_inurba_marseille","lat":43.32341,"lon":5.40607,"is_reserved":false,"is_disabled":false,"rental_uris":{"android":"levelo://app?vid=0cc2ba36-2773-44c0-ae42-a8723d5b9aa2","ios":"levelo://app?vid=0cc2ba36-2773-44c0-ae42-a8723d5b9aa2"},"vehicle_type_id":"4","last_reported":1756361783,"current_range_meters":13600,"station_id":"ce4bhq92rcd13ifvqhjg","pricing_plan_id":"cebpf4jnsgd1na2vs0mg"},{"bike_id":"9c401436-7aa7-494a-9cc1-967079e60b6f","system_id":"levelo_inurba_marseille","lat":43.259399,"lon":5.408981,"is_reserved":false,"is_disabled":false,"rental_uris":{"android":"levelo://app?vid=9c401436-7aa7-494a-9cc1-967079e60b6f","ios":"levelo://app?vid=9c401436-7aa7-494a-9cc1-967079e60b6f"},"vehicle_type_id":"4","last_reported":1756361783,"current_range_meters":14000,"station_id":"ce4bhm92rcd13ifvqglg","pricing_plan_id":"cebpf4jnsgd1na2vs0mg"},{"bike_id":"8ec3cc2f-40be-488c-bf4a-d316bcab75bc","system_id":"levelo_inurba_marseille","lat":43.30466,"lon":5.37907,"is_reserved":false,"is_disabled":false,"rental_uris":{"android":"levelo://app?vid=8ec3cc2f-40be-488c-bf4a-d316bcab75bc","ios":"levelo://app?vid=8ec3cc2f-40be-488c-bf4a-d316bcab75bc"},"vehicle_type_id":"4","last_reported":1756361783,"current_range_meters":14400,"station_id":"ce4bgup2rcd13ifvqcn0","pricing_plan_id":"cebpf4jnsgd1na2vs0mg"},{"bike_id":"59d325a0-cba0-4864-9cfc-8a9351c156aa","system_id":"levelo_inurba_marseille","lat":43.30141,"lon":5.38069,"is_reserved":false,"is_disabled":false,"rental_uris":{"android":"levelo://app?vid=59d325a0-cba0-4864-9cfc-8a9351c156aa","ios":"levelo://app?vid=59d325a0-cba0-4864-9cfc-8a9351c156aa"},"vehicle_type_id":"4","last_reported":1756361783,"current_range_meters":14400,"station_id":"ce4bgjp2rcd13ifvqbh0","pricing_plan_id":"cebpf4jnsgd1na2vs0mg"},{"bike_id":"ffe6df59-3fc1-4d81-9326-f6f6418e7718","system_id":"levelo_inurba_marseille","lat":43.297693,"lon":5.373412,"is_reserved":false,"is_disabled":false,"rental_uris":{"android":"levelo://app?vid=ffe6df59-3fc1-4d81-9326-f6f6418e7718","ios":"levelo://app?vid=ffe6df59-3fc1-4d81-9326-f6f6418e7718"},"vehicle_type_id":"4","last_reported":1756361783,"current_range_meters":14400,"station_id":"","pricing_plan_id":"cebpf4jnsgd1na2vs0mg"},{"bike_id":"23ae6fed-deff-411b-8b6e-f95e32ccd4d0","system_id":"levelo_inurba_marseille","lat":43.32133,"lon":5.36753,"is_reserved":false,"is_disabled":false,"rental_uris":{"android":"levelo://app?vid=23ae6fed-deff-411b-8b6e-f95e32ccd4d0","ios":"levelo://app?vid=23ae6fed-deff-411b-8b6e-f95e32ccd4d0"},"vehicle_type_id":"4","last_reported":1756361783,"current_range_meters":14400,"station_id":"ce4bhrh2rcd13ifvqhug","pricing_plan_id":"cebpf4jnsgd1na2vs0mg"},{"bike_id":"f67c8e5e-7af8-4847-a4ce-1e12088b4291","system_id":"levelo_inurba_marseille","lat":43.33746,"lon":5.37432,"is_reserved":false,"is_disabled":false,"rental_uris":{"android":"levelo://app?vid=f67c8e5e-7af8-4847-a4ce-1e12088b4291","ios":"levelo://app?vid=f67c8e5e-7af8-4847-a4ce-1e12088b4291"},"vehicle_type_id":"4","last_reported":1756361783,"current_range_meters":14400,"station_id":"","pricing_plan_id":"cebpf4jnsgd1na2vs0mg"},{"bike_id":"9f03e1e2-4e9a-43c4-963b-4baf28706312","system_id":"levelo_inurba_marseille","lat":43.30479,"lon":5.36762,"is_reserved":false,"is_disabled":false,"rental_uris":{"android":"levelo://app?vid=9f03e1e2-4e9a-43c4-963b-4baf28706312","ios":"levelo://app?vid=9f03e1e2-4e9a-43c4-963b-4baf28706312"},"vehicle_type_id":"4","last_reported":1756361783,"current_range_meters":14400,"station_id":"","pricing_plan_id":"cebpf4jnsgd1na2vs0mg"},{"bike_id":"50ffaa2c-7bf6-45b3-8b8e-135dbae3a90b","system_id":"levelo_inurba_marseille","lat":43.27969,"lon":5.38714,"is_reserved":false,"is_disabled":false,"rental_uris":{"android":"levelo://app?vid=50ffaa2c-7bf6-45b3-8b8e-135dbae3a90b","ios":"levelo://app?vid=50ffaa2c-7bf6-45b3-8b8e-135dbae3a90b"},"vehicle_type_id":"4","last_reported":1756361783,"current_range_meters":14400,"station_id":"ce4bhg12rcd13ifvqf80","pricing_plan_id":"cebpf4jnsgd1na2vs0mg"},{"bike_id":"0793473c-7c91-4d1f-8ffb-c00486129b1d","system_id":"levelo_inurba_marseille","lat":43.30098,"lon":5.39078,"is_reserved":false,"is_disabled":true,"rental_uris":{"android":"levelo://app?vid=0793473c-7c91-4d1f-8ffb-c00486129b1d","ios":"levelo://app?vid=0793473c-7c91-4d1f-8ffb-c00486129b1d"},"vehicle_type_id":"4","last_reported":1756361783,"current_range_meters":14400,"station_id":"ce4bh192rcd13ifvqdb0","pricing_plan_id":"cebpf4jnsgd1na2vs0mg"},{"bike_id":"52fd4a11-61c8-4ea7-9c56-746f71213e30","system_id":"levelo_inurba_marseille","lat":43.25935,"lon":5.40909,"is_reserved":false,"is_disabled":false,"rental_uris":{"android":"levelo://app?vid=52fd4a11-61c8-4ea7-9c56-746f71213e30","ios":"levelo://app?vid=52fd4a11-61c8-4ea7-9c56-746f71213e30"},"vehicle_type_id":"4","last_reported":1756361783,"current_range_meters":14400,"station_id":"ce4bhm92rcd13ifvqglg","pricing_plan_id":"cebpf4jnsgd1na2vs0mg"},{"bike_id":"43485147-2ceb-4191-89c1-80fb0a5527a5","system_id":"levelo_inurba_marseille","lat":43.292763,"lon":5.368495,"is_reserved":false,"is_disabled":false,"rental_uris":{"android":"levelo://app?vid=43485147-2ceb-4191-89c1-80fb0a5527a5","ios":"levelo://app?vid=43485147-2ceb-4191-89c1-80fb0a5527a5"},"vehicle_type_id":"4","last_reported":1756361783,"current_range_meters":14800,"station_id":"ce4bhbp2rcd13ifvqesg","pricing_plan_id":"cebpf4jnsgd1na2vs0mg"},{"bike_id":"01acadab-cadc-479f-8160-13b317197971","system_id":"levelo_inurba_marseille","lat":43.28111,"lon":5.37874,"is_reserved":false,"is_disabled":false,"rental_uris":{"android":"levelo://app?vid=01acadab-cadc-479f-8160-13b317197971","ios":"levelo://app?vid=01acadab-cadc-479f-8160-13b317197971"},"vehicle_type_id":"4","last_reported":1756361783,"current_range_meters":14800,"station_id":"ce4bha12rcd13ifvqee0","pricing_plan_id":"cebpf4jnsgd1na2vs0mg"},{"bike_id":"7aa62654-cac6-483e-9d4f-f026b078f0a0","system_id":"levelo_inurba_marseille","lat":43.30163,"lon":5.38074,"is_reserved":false,"is_disabled":false,"rental_uris":{"android":"levelo://app?vid=7aa62654-cac6-483e-9d4f-f026b078f0a0","ios":"levelo://app?vid=7aa62654-cac6-483e-9d4f-f026b078f0a0"},"vehicle_type_id":"4","last_reported":1756361783,"current_range_meters":14800,"station_id":"ce4bgjp2rcd13ifvqbh0","pricing_plan_id":"cebpf4jnsgd1na2vs0mg"},{"bike_id":"6605fc1c-ad9a-4105-930a-c87dc2602b87","system_id":"levelo_inurba_marseille","lat":43.30467,"lon":5.37909,"is_reserved":false,"is_disabled":false,"rental_uris":{"android":"levelo://app?vid=6605fc1c-ad9a-4105-930a-c87dc2602b87","ios":"levelo://app?vid=6605fc1c-ad9a-4105-930a-c87dc2602b87"},"vehicle_type_id":"4","last_reported":1756361783,"current_range_meters":15200,"station_id":"ce4bgup2rcd13ifvqcn0","pricing_plan_id":"cebpf4jnsgd1na2vs0mg"},{"bike_id":"1091f287-02ee-4a66-888b-59c35fd65791","system_id":"levelo_inurba_marseille","lat":43.23193,"lon":5.35549,"is_reserved":false,"is_disabled":false,"rental_uris":{"android":"levelo://app?vid=1091f287-02ee-4a66-888b-59c35fd65791","ios":"levelo://app?vid=1091f287-02ee-4a66-888b-59c35fd65791"},"vehicle_type_id":"4","last_reported":1756361783,"current_range_meters":15200,"station_id":"ce4bhu92rcd13ifvqi70","pricing_plan_id":"cebpf4jnsgd1na2vs0mg"},{"bike_id":"b8a902ee-665f-4364-8e6c-11516b53590a","system_id":"levelo_inurba_marseille","lat":43.29586,"lon":5.375227,"is_reserved":false,"is_disabled":false,"rental_uris":{"android":"levelo://app?vid=b8a902ee-665f-4364-8e6c-11516b53590a","ios":"levelo://app?vid=b8a902ee-665f-4364-8e6c-11516b53590a"},"vehicle_type_id":"4","last_reported":1756361783,"current_range_meters":16000,"station_id":"","pricing_plan_id":"cebpf4jnsgd1na2vs0mg"},{"bike_id":"8df4d72a-2534-4225-b0d0-5b48bd4c7385","system_id":"levelo_inurba_marseille","lat":43.294443,"lon":5.39754,"is_reserved":false,"is_disabled":false,"rental_uris":{"android":"levelo://app?vid=8df4d72a-2534-4225-b0d0-5b48bd4c7385","ios":"levelo://app?vid=8df4d72a-2534-4225-b0d0-5b48bd4c7385"},"vehicle_type_id":"4","last_reported":1756361783,"current_range_meters":16000,"station_id":"ce4bh3h2rcd13ifvqdo0","pricing_plan_id":"cebpf4jnsgd1na2vs0mg"},{"bike_id":"aa47fffb-937a-4c70-ba50-698971800993","system_id":"levelo_inurba_marseille","lat":43.29296,"lon":5.36856,"is_reserved":false,"is_disabled":false,"rental_uris":{"android":"levelo://app?vid=aa47fffb-937a-4c70-ba50-698971800993","ios":"levelo://app?vid=aa47fffb-937a-4c70-ba50-698971800993"},"vehicle_type_id":"4","last_reported":1756361783,"current_range_meters":16000,"station_id":"ce4bhbp2rcd13ifvqesg","pricing_plan_id":"cebpf4jnsgd1na2vs0mg"},{"bike_id":"f81d9078-265a-4cc3-81fe-a4e37d459336","system_id":"levelo_inurba_marseille","lat":43.26705,"lon":5.38277,"is_reserved":false,"is_disabled":true,"rental_uris":{"android":"levelo://app?vid=f81d9078-265a-4cc3-81fe-a4e37d459336","ios":"levelo://app?vid=f81d9078-265a-4cc3-81fe-a4e37d459336"},"vehicle_type_id":"4","last_reported":1756361783,"current_range_meters":16000,"station_id":"ce4bhg92rcd13ifvqf90","pricing_plan_id":"cebpf4jnsgd1na2vs0mg"},{"bike_id":"ec0f9f0d-0796-42ac-9cf5-bb8596cdf342","system_id":"levelo_inurba_marseille","lat":43.21191,"lon":5.35081,"is_reserved":false,"is_disabled":false,"rental_uris":{"android":"levelo://app?vid=ec0f9f0d-0796-42ac-9cf5-bb8596cdf342","ios":"levelo://app?vid=ec0f9f0d-0796-42ac-9cf5-bb8596cdf342"},"vehicle_type_id":"4","last_reported":1756361783,"current_range_meters":16000,"station_id":"","pricing_plan_id":"cebpf4jnsgd1na2vs0mg"},{"bike_id":"831a2354-0919-4530-8e5a-84c32dcc2c03","system_id":"levelo_inurba_marseille","lat":43.272052,"lon":5.391826,"is_reserved":false,"is_disabled":false,"rental_uris":{"android":"levelo://app?vid=831a2354-0919-4530-8e5a-84c32dcc2c03","ios":"levelo://app?vid=831a2354-0919-4530-8e5a-84c32dcc2c03"},"vehicle_type_id":"4","last_reported":1756361783,"current_range_meters":16000,"station_id":"","pricing_plan_id":"cebpf4jnsgd1na2vs0mg"},{"bike_id":"e26e264a-ce3c-445c-ad42-2ecb68c24979","system_id":"levelo_inurba_marseille","lat":43.231643,"lon":5.43717,"is_reserved":false,"is_disabled":false,"rental_uris":{"android":"levelo://app?vid=e26e264a-ce3c-445c-ad42-2ecb68c24979","ios":"levelo://app?vid=e26e264a-ce3c-445c-ad42-2ecb68c24979"},"vehicle_type_id":"4","last_reported":1756361783,"current_range_meters":16000,"station_id":"ce4bhmp2rcd13ifvqgog","pricing_plan_id":"cebpf4jnsgd1na2vs0mg"},{"bike_id":"7f96cfc7-6b62-4cd3-a164-5a1ee471a17d","system_id":"levelo_inurba_marseille","lat":43.305419,"lon":5.365332,"is_reserved":false,"is_disabled":false,"rental_uris":{"android":"levelo://app?vid=7f96cfc7-6b62-4cd3-a164-5a1ee471a17d","ios":"levelo://app?vid=7f96cfc7-6b62-4cd3-a164-5a1ee471a17d"},"vehicle_type_id":"4","last_reported":1756361783,"current_range_meters":16000,"station_id":"ce4bgs12rcd13ifvqcag","pricing_plan_id":"cebpf4jnsgd1na2vs0mg"},{"bike_id":"615f9cb4-bc08-43f1-87ef-884359fe2e39","system_id":"levelo_inurba_marseille","lat":43.32354,"lon":5.36748,"is_reserved":false,"is_disabled":false,"rental_uris":{"android":"levelo://app?vid=615f9cb4-bc08-43f1-87ef-884359fe2e39","ios":"levelo://app?vid=615f9cb4-bc08-43f1-87ef-884359fe2e39"},"vehicle_type_id":"4","last_reported":1756361783,"current_range_meters":16400,"station_id":"ce4bhsh2rcd13ifvqi2g","pricing_plan_id":"cebpf4jnsgd1na2vs0mg"},{"bike_id":"82d9cb72-f6f8-4fda-b856-2f617fc890ac","system_id":"levelo_inurba_marseille","lat":43.24182,"lon":5.39729,"is_reserved":false,"is_disabled":false,"rental_uris":{"android":"levelo://app?vid=82d9cb72-f6f8-4fda-b856-2f617fc890ac","ios":"levelo://app?vid=82d9cb72-f6f8-4fda-b856-2f617fc890ac"},"vehicle_type_id":"4","last_reported":1756361783,"current_range_meters":16400,"station_id":"ce4bhn12rcd13ifvqgpg","pricing_plan_id":"cebpf4jnsgd1na2vs0mg"},{"bike_id":"9a7edf6e-5f68-421e-a102-2ef5b337d341","system_id":"levelo_inurba_marseille","lat":43.279561,"lon":5.410442,"is_reserved":false,"is_disabled":true,"rental_uris":{"android":"levelo://app?vid=9a7edf6e-5f68-421e-a102-2ef5b337d341","ios":"levelo://app?vid=9a7edf6e-5f68-421e-a102-2ef5b337d341"},"vehicle_type_id":"4","last_reported":1756361783,"current_range_meters":16400,"station_id":"ce4bhnp2rcd13ifvqh0g","pricing_plan_id":"cebpf4jnsgd1na2vs0mg"},{"bike_id":"c374af20-61f7-48e9-9ca3-9d45d119be74","system_id":"levelo_inurba_marseille","lat":43.3152,"lon":5.37276,"is_reserved":false,"is_disabled":false,"rental_uris":{"android":"levelo://app?vid=c374af20-61f7-48e9-9ca3-9d45d119be74","ios":"levelo://app?vid=c374af20-61f7-48e9-9ca3-9d45d119be74"},"vehicle_type_id":"4","last_reported":1756361783,"current_range_meters":16400,"station_id":"ce4bgt12rcd13ifvqcd0","pricing_plan_id":"cebpf4jnsgd1na2vs0mg"},{"bike_id":"4065efaf-7189-487d-b340-7559ec59c7d4","system_id":"levelo_inurba_marseille","lat":43.2999,"lon":5.37148,"is_reserved":false,"is_disabled":true,"rental_uris":{"android":"levelo://app?vid=4065efaf-7189-487d-b340-7559ec59c7d4","ios":"levelo://app?vid=4065efaf-7189-487d-b340-7559ec59c7d4"},"vehicle_type_id":"4","last_reported":1756361783,"current_range_meters":16400,"station_id":"ce4bgr92rcd13ifvqc7g","pricing_plan_id":"cebpf4jnsgd1na2vs0mg"},{"bike_id":"17e913a4-9bad-45a2-a833-803e708ff009","system_id":"levelo_inurba_marseille","lat":43.27973,"lon":5.38734,"is_reserved":false,"is_disabled":false,"rental_uris":{"android":"levelo://app?vid=17e913a4-9bad-45a2-a833-803e708ff009","ios":"levelo://app?vid=17e913a4-9bad-45a2-a833-803e708ff009"},"vehicle_type_id":"4","last_reported":1756361783,"current_range_meters":16400,"station_id":"ce4bhg12rcd13ifvqf80","pricing_plan_id":"cebpf4jnsgd1na2vs0mg"},{"bike_id":"259905c0-0b2a-48d2-8997-dcb3931ef5bd","system_id":"levelo_inurba_marseille","lat":43.28106,"lon":5.37835,"is_reserved":false,"is_disabled":false,"rental_uris":{"android":"levelo://app?vid=259905c0-0b2a-48d2-8997-dcb3931ef5bd","ios":"levelo://app?vid=259905c0-0b2a-48d2-8997-dcb3931ef5bd"},"vehicle_type_id":"4","last_reported":1756361783,"current_range_meters":16400,"station_id":"ce4bha12rcd13ifvqee0","pricing_plan_id":"cebpf4jnsgd1na2vs0mg"},{"bike_id":"2c246624-962d-4f72-8341-3c6523db29ef","system_id":"levelo_inurba_marseille","lat":43.26559,"lon":5.37283,"is_reserved":false,"is_disabled":true,"rental_uris":{"android":"levelo://app?vid=2c246624-962d-4f72-8341-3c6523db29ef","ios":"levelo://app?vid=2c246624-962d-4f72-8341-3c6523db29ef"},"vehicle_type_id":"4","last_reported":1756361783,"current_range_meters":16400,"station_id":"ce4bhg12rcd13ifvqf70","pricing_plan_id":"cebpf4jnsgd1na2vs0mg"},{"bike_id":"07296681-3400-48d5-88e2-c863a00e5bf3","system_id":"levelo_inurba_marseille","lat":43.22925,"lon":5.35376,"is_reserved":false,"is_disabled":false,"rental_uris":{"android":"levelo://app?vid=07296681-3400-48d5-88e2-c863a00e5bf3","ios":"levelo://app?vid=07296681-3400-48d5-88e2-c863a00e5bf3"},"vehicle_type_id":"4","last_reported":1756361783,"current_range_meters":16400,"station_id":"cpo3532slgdg3j2ikp40","pricing_plan_id":"cebpf4jnsgd1na2vs0mg"},{"bike_id":"a7d901c5-8f26-47c5-a017-354deeef60ff","system_id":"levelo_inurba_marseille","lat":43.24179,"lon":5.39726,"is_reserved":false,"is_disabled":false,"rental_uris":{"android":"levelo://app?vid=a7d901c5-8f26-47c5-a017-354deeef60ff","ios":"levelo://app?vid=a7d901c5-8f26-47c5-a017-354deeef60ff"},"vehicle_type_id":"4","last_reported":1756361783,"current_range_meters":16800,"station_id":"ce4bhn12rcd13ifvqgpg","pricing_plan_id":"cebpf4jnsgd1na2vs0mg"},{"bike_id":"ed53376a-8c9c-4ff8-9c32-c69f55f82243","system_id":"levelo_inurba_marseille","lat":43.30375,"lon":5.41911,"is_reserved":false,"is_disabled":true,"rental_uris":{"android":"levelo://app?vid=ed53376a-8c9c-4ff8-9c32-c69f55f82243","ios":"levelo://app?vid=ed53376a-8c9c-4ff8-9c32-c69f55f82243"},"vehicle_type_id":"4","last_reported":1756361783,"current_range_meters":16800,"station_id":"ce4bhop2rcd13ifvqh7g","pricing_plan_id":"cebpf4jnsgd1na2vs0mg"},{"bike_id":"e6caca03-e4c1-40ce-9f4e-cc5046f7af92","system_id":"levelo_inurba_marseille","lat":43.3201,"lon":5.38152,"is_reserved":false,"is_disabled":false,"rental_uris":{"android":"levelo://app?vid=e6caca03-e4c1-40ce-9f4e-cc5046f7af92","ios":"levelo://app?vid=e6caca03-e4c1-40ce-9f4e-cc5046f7af92"},"vehicle_type_id":"4","last_reported":1756361783,"current_range_meters":16800,"station_id":"ce4bhr12rcd13ifvqhpg","pricing_plan_id":"cebpf4jnsgd1na2vs0mg"},{"bike_id":"00865bff-72de-47be-acda-9cf6ec16a836","system_id":"levelo_inurba_marseille","lat":43.321065,"lon":5.367768,"is_reserved":false,"is_disabled":false,"rental_uris":{"android":"levelo://app?vid=00865bff-72de-47be-acda-9cf6ec16a836","ios":"levelo://app?vid=00865bff-72de-47be-acda-9cf6ec16a836"},"vehicle_type_id":"4","last_reported":1756361783,"current_range_meters":16800,"station_id":"ce4bhrh2rcd13ifvqhug","pricing_plan_id":"cebpf4jnsgd1na2vs0mg"},{"bike_id":"086fb8bd-6d0b-46ba-bd91-901ac277021b","system_id":"levelo_inurba_marseille","lat":43.269705,"lon":5.390362,"is_reserved":false,"is_disabled":false,"rental_uris":{"android":"levelo://app?vid=086fb8bd-6d0b-46ba-bd91-901ac277021b","ios":"levelo://app?vid=086fb8bd-6d0b-46ba-bd91-901ac277021b"},"vehicle_type_id":"4","last_reported":1756361783,"current_range_meters":16800,"station_id":"","pricing_plan_id":"cebpf4jnsgd1na2vs0mg"},{"bike_id":"b43d7a83-48eb-4bc3-814f-5aeaa6724e9a","system_id":"levelo_inurba_marseille","lat":43.313635,"lon":5.38495,"is_reserved":false,"is_disabled":false,"rental_uris":{"android":"levelo://app?vid=b43d7a83-48eb-4bc3-814f-5aeaa6724e9a","ios":"levelo://app?vid=b43d7a83-48eb-4bc3-814f-5aeaa6724e9a"},"vehicle_type_id":"4","last_reported":1756361783,"current_range_meters":16800,"station_id":"ce4bgt92rcd13ifvqcf0","pricing_plan_id":"cebpf4jnsgd1na2vs0mg"},{"bike_id":"29c55d68-58c5-4ef2-b442-72bb9c55ddb0","system_id":"levelo_inurba_marseille","lat":43.32347,"lon":5.36738,"is_reserved":false,"is_disabled":false,"rental_uris":{"android":"levelo://app?vid=29c55d68-58c5-4ef2-b442-72bb9c55ddb0","ios":"levelo://app?vid=29c55d68-58c5-4ef2-b442-72bb9c55ddb0"},"vehicle_type_id":"4","last_reported":1756361783,"current_range_meters":16800,"station_id":"ce4bhsh2rcd13ifvqi2g","pricing_plan_id":"cebpf4jnsgd1na2vs0mg"},{"bike_id":"a66cf846-0eb4-49c2-a409-deac34f83121","system_id":"levelo_inurba_marseille","lat":43.29969,"lon":5.38483,"is_reserved":false,"is_disabled":true,"rental_uris":{"android":"levelo://app?vid=a66cf846-0eb4-49c2-a409-deac34f83121","ios":"levelo://app?vid=a66cf846-0eb4-49c2-a409-deac34f83121"},"vehicle_type_id":"4","last_reported":1756361783,"current_range_meters":16800,"station_id":"ce4bgj92rcd13ifvqbd0","pricing_plan_id":"cebpf4jnsgd1na2vs0mg"},{"bike_id":"8cd383a6-fbd9-4809-9873-430c643e5314","system_id":"levelo_inurba_marseille","lat":43.24396,"lon":5.37058,"is_reserved":false,"is_disabled":false,"rental_uris":{"android":"levelo://app?vid=8cd383a6-fbd9-4809-9873-430c643e5314","ios":"levelo://app?vid=8cd383a6-fbd9-4809-9873-430c643e5314"},"vehicle_type_id":"4","last_reported":1756361783,"current_range_meters":16800,"station_id":"ce4bhhh2rcd13ifvqfk0","pricing_plan_id":"cebpf4jnsgd1na2vs0mg"},{"bike_id":"4c9c5e8f-e8ef-4293-bfce-8e0678777f42","system_id":"levelo_inurba_marseille","lat":43.29029,"lon":5.39903,"is_reserved":false,"is_disabled":false,"rental_uris":{"android":"levelo://app?vid=4c9c5e8f-e8ef-4293-bfce-8e0678777f42","ios":"levelo://app?vid=4c9c5e8f-e8ef-4293-bfce-8e0678777f42"},"vehicle_type_id":"4","last_reported":1756361783,"current_range_meters":16800,"station_id":"","pricing_plan_id":"cebpf4jnsgd1na2vs0mg"},{"bike_id":"d4411ce1-1269-4134-adda-1eb61c16980f","system_id":"levelo_inurba_marseille","lat":43.281172,"lon":5.378632,"is_reserved":false,"is_disabled":true,"rental_uris":{"android":"levelo://app?vid=d4411ce1-1269-4134-adda-1eb61c16980f","ios":"levelo://app?vid=d4411ce1-1269-4134-adda-1eb61c16980f"},"vehicle_type_id":"4","last_reported":1756361783,"current_range_meters":17200,"station_id":"ce4bha12rcd13ifvqee0","pricing_plan_id":"cebpf4jnsgd1na2vs0mg"},{"bike_id":"db886a6e-1dd7-4ad6-80af-762275a5c8b0","system_id":"levelo_inurba_marseille","lat":43.279501,"lon":5.410209,"is_reserved":false,"is_disabled":false,"rental_uris":{"android":"levelo://app?vid=db886a6e-1dd7-4ad6-80af-762275a5c8b0","ios":"levelo://app?vid=db886a6e-1dd7-4ad6-80af-762275a5c8b0"},"vehicle_type_id":"4","last_reported":1756361783,"current_range_meters":17200,"station_id":"ce4bhnp2rcd13ifvqh0g","pricing_plan_id":"cebpf4jnsgd1na2vs0mg"},{"bike_id":"5e776573-7fe8-4c6a-8df1-f882385cb88f","system_id":"levelo_inurba_marseille","lat":43.30153,"lon":5.3808,"is_reserved":false,"is_disabled":false,"rental_uris":{"android":"levelo://app?vid=5e776573-7fe8-4c6a-8df1-f882385cb88f","ios":"levelo://app?vid=5e776573-7fe8-4c6a-8df1-f882385cb88f"},"vehicle_type_id":"4","last_reported":1756361783,"current_range_meters":17200,"station_id":"ce4bgjp2rcd13ifvqbh0","pricing_plan_id":"cebpf4jnsgd1na2vs0mg"},{"bike_id":"6b964c8c-132d-48df-aeaf-c43accdd6c9e","system_id":"levelo_inurba_marseille","lat":43.3054,"lon":5.36549,"is_reserved":false,"is_disabled":false,"rental_uris":{"android":"levelo://app?vid=6b964c8c-132d-48df-aeaf-c43accdd6c9e","ios":"levelo://app?vid=6b964c8c-132d-48df-aeaf-c43accdd6c9e"},"vehicle_type_id":"4","last_reported":1756361783,"current_range_meters":17200,"station_id":"ce4bgs12rcd13ifvqcag","pricing_plan_id":"cebpf4jnsgd1na2vs0mg"},{"bike_id":"fad509bb-f53b-44b6-a94f-044ddb828f7d","system_id":"levelo_inurba_marseille","lat":43.27064,"lon":5.40258,"is_reserved":false,"is_disabled":true,"rental_uris":{"android":"levelo://app?vid=fad509bb-f53b-44b6-a94f-044ddb828f7d","ios":"levelo://app?vid=fad509bb-f53b-44b6-a94f-044ddb828f7d"},"vehicle_type_id":"4","last_reported":1756361783,"current_range_meters":17200,"station_id":"cjm6bp8fraef2m0cb0m0","pricing_plan_id":"cebpf4jnsgd1na2vs0mg"},{"bike_id":"d6a76d0f-a9d1-4617-9b61-109898a0e698","system_id":"levelo_inurba_marseille","lat":43.24539,"lon":5.39523,"is_reserved":false,"is_disabled":false,"rental_uris":{"android":"levelo://app?vid=d6a76d0f-a9d1-4617-9b61-109898a0e698","ios":"levelo://app?vid=d6a76d0f-a9d1-4617-9b61-109898a0e698"},"vehicle_type_id":"4","last_reported":1756361783,"current_range_meters":17200,"station_id":"ce4bhlp2rcd13ifvqgjg","pricing_plan_id":"cebpf4jnsgd1na2vs0mg"},{"bike_id":"d535bf59-462f-46ae-b9fb-52bfa64316d1","system_id":"levelo_inurba_marseille","lat":43.241791,"lon":5.397221,"is_reserved":false,"is_disabled":false,"rental_uris":{"android":"levelo://app?vid=d535bf59-462f-46ae-b9fb-52bfa64316d1","ios":"levelo://app?vid=d535bf59-462f-46ae-b9fb-52bfa64316d1"},"vehicle_type_id":"4","last_reported":1756361783,"current_range_meters":17600,"station_id":"ce4bhn12rcd13ifvqgpg","pricing_plan_id":"cebpf4jnsgd1na2vs0mg"},{"bike_id":"9c8400d3-bf6a-452a-a361-cb727e9c5324","system_id":"levelo_inurba_marseille","lat":43.29249,"lon":5.3715,"is_reserved":false,"is_disabled":false,"rental_uris":{"android":"levelo://app?vid=9c8400d3-bf6a-452a-a361-cb727e9c5324","ios":"levelo://app?vid=9c8400d3-bf6a-452a-a361-cb727e9c5324"},"vehicle_type_id":"4","last_reported":1756361783,"current_range_meters":17600,"station_id":"","pricing_plan_id":"cebpf4jnsgd1na2vs0mg"},{"bike_id":"731ff345-1377-45e9-acf9-0825f15b172a","system_id":"levelo_inurba_marseille","lat":43.229281,"lon":5.353763,"is_reserved":false,"is_disabled":false,"rental_uris":{"android":"levelo://app?vid=731ff345-1377-45e9-acf9-0825f15b172a","ios":"levelo://app?vid=731ff345-1377-45e9-acf9-0825f15b172a"},"vehicle_type_id":"4","last_reported":1756361783,"current_range_meters":17600,"station_id":"cpo3532slgdg3j2ikp40","pricing_plan_id":"cebpf4jnsgd1na2vs0mg"},{"bike_id":"1d6d2e3d-e6be-45f3-9550-08daca30c94e","system_id":"levelo_inurba_marseille","lat":43.23152,"lon":5.43716,"is_reserved":false,"is_disabled":false,"rental_uris":{"android":"levelo://app?vid=1d6d2e3d-e6be-45f3-9550-08daca30c94e","ios":"levelo://app?vid=1d6d2e3d-e6be-45f3-9550-08daca30c94e"},"vehicle_type_id":"4","last_reported":1756361783,"current_range_meters":17600,"station_id":"ce4bhmp2rcd13ifvqgog","pricing_plan_id":"cebpf4jnsgd1na2vs0mg"},{"bike_id":"62a8c0bf-06af-44b2-acbd-3e96055782c5","system_id":"levelo_inurba_marseille","lat":43.23064,"lon":5.35503,"is_reserved":false,"is_disabled":false,"rental_uris":{"android":"levelo://app?vid=62a8c0bf-06af-44b2-acbd-3e96055782c5","ios":"levelo://app?vid=62a8c0bf-06af-44b2-acbd-3e96055782c5"},"vehicle_type_id":"4","last_reported":1756361783,"current_range_meters":17600,"station_id":"cpo3342slgdg3j2ifvpg","pricing_plan_id":"cebpf4jnsgd1na2vs0mg"},{"bike_id":"4e9a300f-6092-4b28-8755-06fe9c3e1c46","system_id":"levelo_inurba_marseille","lat":43.29056,"lon":5.39956,"is_reserved":false,"is_disabled":false,"rental_uris":{"android":"levelo://app?vid=4e9a300f-6092-4b28-8755-06fe9c3e1c46","ios":"levelo://app?vid=4e9a300f-6092-4b28-8755-06fe9c3e1c46"},"vehicle_type_id":"4","last_reported":1756361783,"current_range_meters":17600,"station_id":"ce4bh392rcd13ifvqdm0","pricing_plan_id":"cebpf4jnsgd1na2vs0mg"},{"bike_id":"888feb6a-0a42-486b-8d98-ecf3ac765de2","system_id":"levelo_inurba_marseille","lat":43.30012,"lon":5.37179,"is_reserved":false,"is_disabled":false,"rental_uris":{"android":"levelo://app?vid=888feb6a-0a42-486b-8d98-ecf3ac765de2","ios":"levelo://app?vid=888feb6a-0a42-486b-8d98-ecf3ac765de2"},"vehicle_type_id":"4","last_reported":1756361783,"current_range_meters":17600,"station_id":"ce4bgr92rcd13ifvqc7g","pricing_plan_id":"cebpf4jnsgd1na2vs0mg"},{"bike_id":"8b29b749-bc81-4c76-9fbe-41a119eee602","system_id":"levelo_inurba_marseille","lat":43.2905,"lon":5.39947,"is_reserved":false,"is_disabled":true,"rental_uris":{"android":"levelo://app?vid=8b29b749-bc81-4c76-9fbe-41a119eee602","ios":"levelo://app?vid=8b29b749-bc81-4c76-9fbe-41a119eee602"},"vehicle_type_id":"4","last_reported":1756361783,"current_range_meters":17600,"station_id":"ce4bh392rcd13ifvqdm0","pricing_plan_id":"cebpf4jnsgd1na2vs0mg"},{"bike_id":"5755a61b-4306-460b-86d8-f1b4b8a4f629","system_id":"levelo_inurba_marseille","lat":43.29369,"lon":5.37844,"is_reserved":false,"is_disabled":false,"rental_uris":{"android":"levelo://app?vid=5755a61b-4306-460b-86d8-f1b4b8a4f629","ios":"levelo://app?vid=5755a61b-4306-460b-86d8-f1b4b8a4f629"},"vehicle_type_id":"4","last_reported":1756361783,"current_range_meters":17200,"station_id":"ce4bgjh2rcd13ifvqbf0","pricing_plan_id":"cebpf4jnsgd1na2vs0mg"},{"bike_id":"9e91bce2-67cc-4830-9901-387177c316fa","system_id":"levelo_inurba_marseille","lat":43.31359,"lon":5.36688,"is_reserved":false,"is_disabled":false,"rental_uris":{"android":"levelo://app?vid=9e91bce2-67cc-4830-9901-387177c316fa","ios":"levelo://app?vid=9e91bce2-67cc-4830-9901-387177c316fa"},"vehicle_type_id":"4","last_reported":1756361783,"current_range_meters":17600,"station_id":"ce4bgr92rcd13ifvqc6g","pricing_plan_id":"cebpf4jnsgd1na2vs0mg"},{"bike_id":"36fbdd70-475b-4dab-8e44-8001364faced","system_id":"levelo_inurba_marseille","lat":43.2657,"lon":5.39006,"is_reserved":false,"is_disabled":false,"rental_uris":{"android":"levelo://app?vid=36fbdd70-475b-4dab-8e44-8001364faced","ios":"levelo://app?vid=36fbdd70-475b-4dab-8e44-8001364faced"},"vehicle_type_id":"4","last_reported":1756361783,"current_range_meters":18000,"station_id":"ce4bhe12rcd13ifvqf30","pricing_plan_id":"cebpf4jnsgd1na2vs0mg"},{"bike_id":"42515969-df58-4bc3-81b4-d2c5b3092781","system_id":"levelo_inurba_marseille","lat":43.27719,"lon":5.41988,"is_reserved":false,"is_disabled":false,"rental_uris":{"android":"levelo://app?vid=42515969-df58-4bc3-81b4-d2c5b3092781","ios":"levelo://app?vid=42515969-df58-4bc3-81b4-d2c5b3092781"},"vehicle_type_id":"4","last_reported":1756361783,"current_range_meters":18000,"station_id":"","pricing_plan_id":"cebpf4jnsgd1na2vs0mg"},{"bike_id":"4fbce97f-acb9-4c6a-8eb5-11735db2ebfe","system_id":"levelo_inurba_marseille","lat":43.282173,"lon":5.390413,"is_reserved":false,"is_disabled":false,"rental_uris":{"android":"levelo://app?vid=4fbce97f-acb9-4c6a-8eb5-11735db2ebfe","ios":"levelo://app?vid=4fbce97f-acb9-4c6a-8eb5-11735db2ebfe"},"vehicle_type_id":"4","last_reported":1756361783,"current_range_meters":18000,"station_id":"ce4bhn92rcd13ifvqgsg","pricing_plan_id":"cebpf4jnsgd1na2vs0mg"},{"bike_id":"2592d48e-4f91-4661-a841-16b2ce57828c","system_id":"levelo_inurba_marseille","lat":43.24228,"lon":5.38725,"is_reserved":false,"is_disabled":false,"rental_uris":{"android":"levelo://app?vid=2592d48e-4f91-4661-a841-16b2ce57828c","ios":"levelo://app?vid=2592d48e-4f91-4661-a841-16b2ce57828c"},"vehicle_type_id":"4","last_reported":1756361783,"current_range_meters":18000,"station_id":"","pricing_plan_id":"cebpf4jnsgd1na2vs0mg"},{"bike_id":"491a51e4-1469-463f-b9cc-ff15d2c85312","system_id":"levelo_inurba_marseille","lat":43.29531,"lon":5.38543,"is_reserved":false,"is_disabled":true,"rental_uris":{"android":"levelo://app?vid=491a51e4-1469-463f-b9cc-ff15d2c85312","ios":"levelo://app?vid=491a51e4-1469-463f-b9cc-ff15d2c85312"},"vehicle_type_id":"4","last_reported":1756361783,"current_range_meters":18000,"station_id":"ce4bgih2rcd13ifvqba0","pricing_plan_id":"cebpf4jnsgd1na2vs0mg"},{"bike_id":"8a3d08a4-6e22-43fc-a3af-efea32020201","system_id":"levelo_inurba_marseille","lat":43.323593,"lon":5.367647,"is_reserved":false,"is_disabled":false,"rental_uris":{"android":"levelo://app?vid=8a3d08a4-6e22-43fc-a3af-efea32020201","ios":"levelo://app?vid=8a3d08a4-6e22-43fc-a3af-efea32020201"},"vehicle_type_id":"4","last_reported":1756361783,"current_range_meters":18000,"station_id":"ce4bhsh2rcd13ifvqi2g","pricing_plan_id":"cebpf4jnsgd1na2vs0mg"},{"bike_id":"06669016-cd47-459f-9dbc-b8f7fe75d379","system_id":"levelo_inurba_marseille","lat":43.32283,"lon":5.38256,"is_reserved":false,"is_disabled":false,"rental_uris":{"android":"levelo://app?vid=06669016-cd47-459f-9dbc-b8f7fe75d379","ios":"levelo://app?vid=06669016-cd47-459f-9dbc-b8f7fe75d379"},"vehicle_type_id":"4","last_reported":1756361783,"current_range_meters":18000,"station_id":"ce4bhr12rcd13ifvqhqg","pricing_plan_id":"cebpf4jnsgd1na2vs0mg"},{"bike_id":"a105b77d-2efb-4159-9821-8cb9fb53320e","system_id":"levelo_inurba_marseille","lat":43.231893,"lon":5.399918,"is_reserved":false,"is_disabled":false,"rental_uris":{"android":"levelo://app?vid=a105b77d-2efb-4159-9821-8cb9fb53320e","ios":"levelo://app?vid=a105b77d-2efb-4159-9821-8cb9fb53320e"},"vehicle_type_id":"4","last_reported":1756361783,"current_range_meters":18000,"station_id":"ce4bhn12rcd13ifvqgqg","pricing_plan_id":"cebpf4jnsgd1na2vs0mg"},{"bike_id":"3d14d85f-1bc8-43df-8ea9-56d585eef156","system_id":"levelo_inurba_marseille","lat":43.23968,"lon":5.36633,"is_reserved":false,"is_disabled":false,"rental_uris":{"android":"levelo://app?vid=3d14d85f-1bc8-43df-8ea9-56d585eef156","ios":"levelo://app?vid=3d14d85f-1bc8-43df-8ea9-56d585eef156"},"vehicle_type_id":"4","last_reported":1756361783,"current_range_meters":18000,"station_id":"ce4bhi12rcd13ifvqfp0","pricing_plan_id":"cebpf4jnsgd1na2vs0mg"},{"bike_id":"92594421-8cf0-4b8b-889c-a8296396cf9c","system_id":"levelo_inurba_marseille","lat":43.3015,"lon":5.38078,"is_reserved":false,"is_disabled":false,"rental_uris":{"android":"levelo://app?vid=92594421-8cf0-4b8b-889c-a8296396cf9c","ios":"levelo://app?vid=92594421-8cf0-4b8b-889c-a8296396cf9c"},"vehicle_type_id":"4","last_reported":1756361783,"current_range_meters":18000,"station_id":"ce4bgjp2rcd13ifvqbh0","pricing_plan_id":"cebpf4jnsgd1na2vs0mg"},{"bike_id":"c8ed8afa-4750-4d5e-b29e-7da3cd8f4dc7","system_id":"levelo_inurba_marseille","lat":43.323649,"lon":5.367406,"is_reserved":false,"is_disabled":false,"rental_uris":{"android":"levelo://app?vid=c8ed8afa-4750-4d5e-b29e-7da3cd8f4dc7","ios":"levelo://app?vid=c8ed8afa-4750-4d5e-b29e-7da3cd8f4dc7"},"vehicle_type_id":"4","last_reported":1756361783,"current_range_meters":18000,"station_id":"ce4bhsh2rcd13ifvqi2g","pricing_plan_id":"cebpf4jnsgd1na2vs0mg"},{"bike_id":"629279d5-1d26-4cb0-9c4e-578c5e0532a9","system_id":"levelo_inurba_marseille","lat":43.306558,"lon":5.400889,"is_reserved":false,"is_disabled":false,"rental_uris":{"android":"levelo://app?vid=629279d5-1d26-4cb0-9c4e-578c5e0532a9","ios":"levelo://app?vid=629279d5-1d26-4cb0-9c4e-578c5e0532a9"},"vehicle_type_id":"4","last_reported":1756361783,"current_range_meters":18800,"station_id":"ce4bh112rcd13ifvqda0","pricing_plan_id":"cebpf4jnsgd1na2vs0mg"},{"bike_id":"2f8bde8c-ce1d-4004-a2b3-f2196ee05fdf","system_id":"levelo_inurba_marseille","lat":43.27329,"lon":5.39088,"is_reserved":false,"is_disabled":false,"rental_uris":{"android":"levelo://app?vid=2f8bde8c-ce1d-4004-a2b3-f2196ee05fdf","ios":"levelo://app?vid=2f8bde8c-ce1d-4004-a2b3-f2196ee05fdf"},"vehicle_type_id":"4","last_reported":1756361783,"current_range_meters":18800,"station_id":"ce4bhgp2rcd13ifvqfe0","pricing_plan_id":"cebpf4jnsgd1na2vs0mg"},{"bike_id":"aecefe84-afe2-4dc5-be5b-719995a8c9da","system_id":"levelo_inurba_marseille","lat":43.2798,"lon":5.41663,"is_reserved":false,"is_disabled":false,"rental_uris":{"android":"levelo://app?vid=aecefe84-afe2-4dc5-be5b-719995a8c9da","ios":"levelo://app?vid=aecefe84-afe2-4dc5-be5b-719995a8c9da"},"vehicle_type_id":"4","last_reported":1756361783,"current_range_meters":18800,"station_id":"ce4bho12rcd13ifvqh1g","pricing_plan_id":"cebpf4jnsgd1na2vs0mg"},{"bike_id":"8d86e0b1-bdad-4fb8-85ea-beb0387a68af","system_id":"levelo_inurba_marseille","lat":43.29047,"lon":5.3996,"is_reserved":false,"is_disabled":false,"rental_uris":{"android":"levelo://app?vid=8d86e0b1-bdad-4fb8-85ea-beb0387a68af","ios":"levelo://app?vid=8d86e0b1-bdad-4fb8-85ea-beb0387a68af"},"vehicle_type_id":"4","last_reported":1756361783,"current_range_meters":18800,"station_id":"ce4bh392rcd13ifvqdm0","pricing_plan_id":"cebpf4jnsgd1na2vs0mg"},{"bike_id":"b5ae447b-0979-4e21-8563-7d75308c4c07","system_id":"levelo_inurba_marseille","lat":43.30157,"lon":5.38084,"is_reserved":false,"is_disabled":false,"rental_uris":{"android":"levelo://app?vid=b5ae447b-0979-4e21-8563-7d75308c4c07","ios":"levelo://app?vid=b5ae447b-0979-4e21-8563-7d75308c4c07"},"vehicle_type_id":"4","last_reported":1756361783,"current_range_meters":18800,"station_id":"ce4bgjp2rcd13ifvqbh0","pricing_plan_id":"cebpf4jnsgd1na2vs0mg"},{"bike_id":"a3e4ee41-5175-47da-ad6e-4c5ae3eb42d9","system_id":"levelo_inurba_marseille","lat":43.211966,"lon":5.350663,"is_reserved":false,"is_disabled":false,"rental_uris":{"android":"levelo://app?vid=a3e4ee41-5175-47da-ad6e-4c5ae3eb42d9","ios":"levelo://app?vid=a3e4ee41-5175-47da-ad6e-4c5ae3eb42d9"},"vehicle_type_id":"4","last_reported":1756361783,"current_range_meters":18800,"station_id":"st_cvj6sg6p6f1abm77japg","pricing_plan_id":"cebpf4jnsgd1na2vs0mg"},{"bike_id":"5c521629-f807-425a-bcbb-c3e99fd6e4e1","system_id":"levelo_inurba_marseille","lat":43.251123,"lon":5.4033,"is_reserved":false,"is_disabled":false,"rental_uris":{"android":"levelo://app?vid=5c521629-f807-425a-bcbb-c3e99fd6e4e1","ios":"levelo://app?vid=5c521629-f807-425a-bcbb-c3e99fd6e4e1"},"vehicle_type_id":"4","last_reported":1756361783,"current_range_meters":19200,"station_id":"ce4bhlh2rcd13ifvqgig","pricing_plan_id":"cebpf4jnsgd1na2vs0mg"},{"bike_id":"96bad607-0a18-4892-af5b-e3ae9d74d97b","system_id":"levelo_inurba_marseille","lat":43.23059,"lon":5.35491,"is_reserved":false,"is_disabled":false,"rental_uris":{"android":"levelo://app?vid=96bad607-0a18-4892-af5b-e3ae9d74d97b","ios":"levelo://app?vid=96bad607-0a18-4892-af5b-e3ae9d74d97b"},"vehicle_type_id":"4","last_reported":1756361783,"current_range_meters":19200,"station_id":"cpo3342slgdg3j2ifvpg","pricing_plan_id":"cebpf4jnsgd1na2vs0mg"},{"bike_id":"3d5aa2e5-19b6-4546-9f2c-20c48df2b60d","system_id":"levelo_inurba_marseille","lat":43.25961,"lon":5.41372,"is_reserved":false,"is_disabled":false,"rental_uris":{"android":"levelo://app?vid=3d5aa2e5-19b6-4546-9f2c-20c48df2b60d","ios":"levelo://app?vid=3d5aa2e5-19b6-4546-9f2c-20c48df2b60d"},"vehicle_type_id":"4","last_reported":1756361783,"current_range_meters":19200,"station_id":"","pricing_plan_id":"cebpf4jnsgd1na2vs0mg"},{"bike_id":"89a9786f-67c9-44e6-87fb-c9915a642bde","system_id":"levelo_inurba_marseille","lat":43.28703,"lon":5.39968,"is_reserved":false,"is_disabled":false,"rental_uris":{"android":"levelo://app?vid=89a9786f-67c9-44e6-87fb-c9915a642bde","ios":"levelo://app?vid=89a9786f-67c9-44e6-87fb-c9915a642bde"},"vehicle_type_id":"4","last_reported":1756361783,"current_range_meters":19200,"station_id":"ce4bho92rcd13ifvqh3g","pricing_plan_id":"cebpf4jnsgd1na2vs0mg"},{"bike_id":"7b1b67ce-ec3a-4306-99ef-9044c3533e21","system_id":"levelo_inurba_marseille","lat":43.231523,"lon":5.43705,"is_reserved":false,"is_disabled":false,"rental_uris":{"android":"levelo://app?vid=7b1b67ce-ec3a-4306-99ef-9044c3533e21","ios":"levelo://app?vid=7b1b67ce-ec3a-4306-99ef-9044c3533e21"},"vehicle_type_id":"4","last_reported":1756361783,"current_range_meters":19200,"station_id":"ce4bhmp2rcd13ifvqgog","pricing_plan_id":"cebpf4jnsgd1na2vs0mg"},{"bike_id":"f0384fbb-6485-4c18-9cc5-2fe16aa6e603","system_id":"levelo_inurba_marseille","lat":43.24148,"lon":5.36507,"is_reserved":false,"is_disabled":false,"rental_uris":{"android":"levelo://app?vid=f0384fbb-6485-4c18-9cc5-2fe16aa6e603","ios":"levelo://app?vid=f0384fbb-6485-4c18-9cc5-2fe16aa6e603"},"vehicle_type_id":"4","last_reported":1756361783,"current_range_meters":19200,"station_id":"cpo36qri1sfpv3e86is0","pricing_plan_id":"cebpf4jnsgd1na2vs0mg"},{"bike_id":"4802c3e7-9c86-4409-9047-07b960a0eaea","system_id":"levelo_inurba_marseille","lat":43.26947,"lon":5.38636,"is_reserved":false,"is_disabled":false,"rental_uris":{"android":"levelo://app?vid=4802c3e7-9c86-4409-9047-07b960a0eaea","ios":"levelo://app?vid=4802c3e7-9c86-4409-9047-07b960a0eaea"},"vehicle_type_id":"4","last_reported":1756361783,"current_range_meters":18800,"station_id":"ce4bhh92rcd13ifvqfh0","pricing_plan_id":"cebpf4jnsgd1na2vs0mg"},{"bike_id":"dee5fc92-9d8d-42ec-97e1-996d8f5266a8","system_id":"levelo_inurba_marseille","lat":43.229252,"lon":5.353724,"is_reserved":false,"is_disabled":false,"rental_uris":{"android":"levelo://app?vid=dee5fc92-9d8d-42ec-97e1-996d8f5266a8","ios":"levelo://app?vid=dee5fc92-9d8d-42ec-97e1-996d8f5266a8"},"vehicle_type_id":"4","last_reported":1756361783,"current_range_meters":19600,"station_id":"cpo3532slgdg3j2ikp40","pricing_plan_id":"cebpf4jnsgd1na2vs0mg"},{"bike_id":"9bee6c81-bef5-4109-894d-a231db231dd9","system_id":"levelo_inurba_marseille","lat":43.310754,"lon":5.383522,"is_reserved":false,"is_disabled":false,"rental_uris":{"android":"levelo://app?vid=9bee6c81-bef5-4109-894d-a231db231dd9","ios":"levelo://app?vid=9bee6c81-bef5-4109-894d-a231db231dd9"},"vehicle_type_id":"4","last_reported":1756361783,"current_range_meters":19600,"station_id":"ce4bgv92rcd13ifvqcr0","pricing_plan_id":"cebpf4jnsgd1na2vs0mg"},{"bike_id":"889e0047-146f-4dba-ab11-f67cc57a8b3f","system_id":"levelo_inurba_marseille","lat":43.30092,"lon":5.39096,"is_reserved":false,"is_disabled":false,"rental_uris":{"android":"levelo://app?vid=889e0047-146f-4dba-ab11-f67cc57a8b3f","ios":"levelo://app?vid=889e0047-146f-4dba-ab11-f67cc57a8b3f"},"vehicle_type_id":"4","last_reported":1756361783,"current_range_meters":19600,"station_id":"ce4bh192rcd13ifvqdb0","pricing_plan_id":"cebpf4jnsgd1na2vs0mg"},{"bike_id":"c6c8ec1e-f453-4d56-89b1-2be28fd3f532","system_id":"levelo_inurba_marseille","lat":43.33603,"lon":5.41035,"is_reserved":false,"is_disabled":false,"rental_uris":{"android":"levelo://app?vid=c6c8ec1e-f453-4d56-89b1-2be28fd3f532","ios":"levelo://app?vid=c6c8ec1e-f453-4d56-89b1-2be28fd3f532"},"vehicle_type_id":"4","last_reported":1756361783,"current_range_meters":19600,"station_id":"ce4bhqh2rcd13ifvqhmg","pricing_plan_id":"cebpf4jnsgd1na2vs0mg"},{"bike_id":"688af5fb-6252-4eed-9501-ed7d2b2be597","system_id":"levelo_inurba_marseille","lat":43.241766,"lon":5.363955,"is_reserved":false,"is_disabled":false,"rental_uris":{"android":"levelo://app?vid=688af5fb-6252-4eed-9501-ed7d2b2be597","ios":"levelo://app?vid=688af5fb-6252-4eed-9501-ed7d2b2be597"},"vehicle_type_id":"4","last_reported":1756361783,"current_range_meters":19600,"station_id":"cpo36qri1sfpv3e86is0","pricing_plan_id":"cebpf4jnsgd1na2vs0mg"},{"bike_id":"e36ac928-4535-4c0a-9fee-0953be656982","system_id":"levelo_inurba_marseille","lat":43.308,"lon":5.3814,"is_reserved":false,"is_disabled":true,"rental_uris":{"android":"levelo://app?vid=e36ac928-4535-4c0a-9fee-0953be656982","ios":"levelo://app?vid=e36ac928-4535-4c0a-9fee-0953be656982"},"vehicle_type_id":"4","last_reported":1756361783,"current_range_meters":19600,"station_id":"ce4bgt12rcd13ifvqce0","pricing_plan_id":"cebpf4jnsgd1na2vs0mg"},{"bike_id":"f7cd213d-8b5c-44c2-9a2a-6c74fe359cab","system_id":"levelo_inurba_marseille","lat":43.26016,"lon":5.37539,"is_reserved":false,"is_disabled":false,"rental_uris":{"android":"levelo://app?vid=f7cd213d-8b5c-44c2-9a2a-6c74fe359cab","ios":"levelo://app?vid=f7cd213d-8b5c-44c2-9a2a-6c74fe359cab"},"vehicle_type_id":"4","last_reported":1756361783,"current_range_meters":19600,"station_id":"","pricing_plan_id":"cebpf4jnsgd1na2vs0mg"},{"bike_id":"3b12bc8e-850d-426b-9fe5-d4e33b5086b0","system_id":"levelo_inurba_marseille","lat":43.28935,"lon":5.36394,"is_reserved":false,"is_disabled":false,"rental_uris":{"android":"levelo://app?vid=3b12bc8e-850d-426b-9fe5-d4e33b5086b0","ios":"levelo://app?vid=3b12bc8e-850d-426b-9fe5-d4e33b5086b0"},"vehicle_type_id":"4","last_reported":1756361783,"current_range_meters":19600,"station_id":"ce4bhc92rcd13ifvqetg","pricing_plan_id":"cebpf4jnsgd1na2vs0mg"},{"bike_id":"295b5131-2ce7-4504-997b-819bd8cd05de","system_id":"levelo_inurba_marseille","lat":43.24075,"lon":5.37761,"is_reserved":false,"is_disabled":false,"rental_uris":{"android":"levelo://app?vid=295b5131-2ce7-4504-997b-819bd8cd05de","ios":"levelo://app?vid=295b5131-2ce7-4504-997b-819bd8cd05de"},"vehicle_type_id":"4","last_reported":1756361783,"current_range_meters":19600,"station_id":"ce4bhnp2rcd13ifvqgvg","pricing_plan_id":"cebpf4jnsgd1na2vs0mg"},{"bike_id":"ab2b2968-2afc-4029-82d1-f9d7f0e7846c","system_id":"levelo_inurba_marseille","lat":43.292618,"lon":5.376212,"is_reserved":false,"is_disabled":false,"rental_uris":{"android":"levelo://app?vid=ab2b2968-2afc-4029-82d1-f9d7f0e7846c","ios":"levelo://app?vid=ab2b2968-2afc-4029-82d1-f9d7f0e7846c"},"vehicle_type_id":"4","last_reported":1756361783,"current_range_meters":20000,"station_id":"ce4bgi12rcd13ifvqb80","pricing_plan_id":"cebpf4jnsgd1na2vs0mg"},{"bike_id":"d2dedc8c-958b-4158-a1e7-2313bfd8aa02","system_id":"levelo_inurba_marseille","lat":43.31767,"lon":5.38446,"is_reserved":false,"is_disabled":false,"rental_uris":{"android":"levelo://app?vid=d2dedc8c-958b-4158-a1e7-2313bfd8aa02","ios":"levelo://app?vid=d2dedc8c-958b-4158-a1e7-2313bfd8aa02"},"vehicle_type_id":"4","last_reported":1756361783,"current_range_meters":20000,"station_id":"","pricing_plan_id":"cebpf4jnsgd1na2vs0mg"},{"bike_id":"60863403-b289-4c9c-b2d0-3d448abf417f","system_id":"levelo_inurba_marseille","lat":43.28274,"lon":5.35066,"is_reserved":false,"is_disabled":true,"rental_uris":{"android":"levelo://app?vid=60863403-b289-4c9c-b2d0-3d448abf417f","ios":"levelo://app?vid=60863403-b289-4c9c-b2d0-3d448abf417f"},"vehicle_type_id":"4","last_reported":1756361783,"current_range_meters":20000,"station_id":"ce4bhbp2rcd13ifvqerg","pricing_plan_id":"cebpf4jnsgd1na2vs0mg"},{"bike_id":"196169a4-3222-419a-be3c-e08cc270c692","system_id":"levelo_inurba_marseille","lat":43.293186,"lon":5.372948,"is_reserved":false,"is_disabled":false,"rental_uris":{"android":"levelo://app?vid=196169a4-3222-419a-be3c-e08cc270c692","ios":"levelo://app?vid=196169a4-3222-419a-be3c-e08cc270c692"},"vehicle_type_id":"4","last_reported":1756361783,"current_range_meters":20000,"station_id":"","pricing_plan_id":"cebpf4jnsgd1na2vs0mg"},{"bike_id":"d1012ec4-1fc3-4e5f-a82c-9d7d73d65c20","system_id":"levelo_inurba_marseille","lat":43.26026,"lon":5.41738,"is_reserved":false,"is_disabled":false,"rental_uris":{"android":"levelo://app?vid=d1012ec4-1fc3-4e5f-a82c-9d7d73d65c20","ios":"levelo://app?vid=d1012ec4-1fc3-4e5f-a82c-9d7d73d65c20"},"vehicle_type_id":"4","last_reported":1756361783,"current_range_meters":20000,"station_id":"","pricing_plan_id":"cebpf4jnsgd1na2vs0mg"},{"bike_id":"2be27af2-3046-497e-8c06-a87c1462f737","system_id":"levelo_inurba_marseille","lat":43.295362,"lon":5.385467,"is_reserved":false,"is_disabled":true,"rental_uris":{"android":"levelo://app?vid=2be27af2-3046-497e-8c06-a87c1462f737","ios":"levelo://app?vid=2be27af2-3046-497e-8c06-a87c1462f737"},"vehicle_type_id":"4","last_reported":1756361783,"current_range_meters":20000,"station_id":"ce4bgih2rcd13ifvqba0","pricing_plan_id":"cebpf4jnsgd1na2vs0mg"},{"bike_id":"73062ea2-c8f0-4ed7-b195-1239ee6e1904","system_id":"levelo_inurba_marseille","lat":43.30592,"lon":5.37229,"is_reserved":false,"is_disabled":false,"rental_uris":{"android":"levelo://app?vid=73062ea2-c8f0-4ed7-b195-1239ee6e1904","ios":"levelo://app?vid=73062ea2-c8f0-4ed7-b195-1239ee6e1904"},"vehicle_type_id":"4","last_reported":1756361783,"current_range_meters":20400,"station_id":"ce4bgqh2rcd13ifvqc4g","pricing_plan_id":"cebpf4jnsgd1na2vs0mg"},{"bike_id":"6ca3849b-40a4-4700-a037-8db563d574fa","system_id":"levelo_inurba_marseille","lat":43.23962,"lon":5.36629,"is_reserved":false,"is_disabled":false,"rental_uris":{"android":"levelo://app?vid=6ca3849b-40a4-4700-a037-8db563d574fa","ios":"levelo://app?vid=6ca3849b-40a4-4700-a037-8db563d574fa"},"vehicle_type_id":"4","last_reported":1756361783,"current_range_meters":20400,"station_id":"ce4bhi12rcd13ifvqfp0","pricing_plan_id":"cebpf4jnsgd1na2vs0mg"},{"bike_id":"75bfbaf3-808c-4902-83fc-5daac8bc1a7e","system_id":"levelo_inurba_marseille","lat":43.271754,"lon":5.409939,"is_reserved":false,"is_disabled":false,"rental_uris":{"android":"levelo://app?vid=75bfbaf3-808c-4902-83fc-5daac8bc1a7e","ios":"levelo://app?vid=75bfbaf3-808c-4902-83fc-5daac8bc1a7e"},"vehicle_type_id":"4","last_reported":1756361783,"current_range_meters":20400,"station_id":"ce4bhl12rcd13ifvqgf0","pricing_plan_id":"cebpf4jnsgd1na2vs0mg"},{"bike_id":"af0e337f-d4cf-4e28-9020-c2f2b620012b","system_id":"levelo_inurba_marseille","lat":43.22923,"lon":5.35372,"is_reserved":false,"is_disabled":false,"rental_uris":{"android":"levelo://app?vid=af0e337f-d4cf-4e28-9020-c2f2b620012b","ios":"levelo://app?vid=af0e337f-d4cf-4e28-9020-c2f2b620012b"},"vehicle_type_id":"4","last_reported":1756361783,"current_range_meters":20400,"station_id":"cpo3532slgdg3j2ikp40","pricing_plan_id":"cebpf4jnsgd1na2vs0mg"},{"bike_id":"c6a5edcb-70de-442c-867d-206ab7fa279a","system_id":"levelo_inurba_marseille","lat":43.30264,"lon":5.36901,"is_reserved":false,"is_disabled":true,"rental_uris":{"android":"levelo://app?vid=c6a5edcb-70de-442c-867d-206ab7fa279a","ios":"levelo://app?vid=c6a5edcb-70de-442c-867d-206ab7fa279a"},"vehicle_type_id":"4","last_reported":1756361783,"current_range_meters":20400,"station_id":"ce4bgqh2rcd13ifvqc5g","pricing_plan_id":"cebpf4jnsgd1na2vs0mg"},{"bike_id":"239722dc-8548-47bb-85cb-de762ab886f0","system_id":"levelo_inurba_marseille","lat":43.27498,"lon":5.42457,"is_reserved":false,"is_disabled":false,"rental_uris":{"android":"levelo://app?vid=239722dc-8548-47bb-85cb-de762ab886f0","ios":"levelo://app?vid=239722dc-8548-47bb-85cb-de762ab886f0"},"vehicle_type_id":"4","last_reported":1756361783,"current_range_meters":20400,"station_id":"ce4bhn92rcd13ifvqgrg","pricing_plan_id":"cebpf4jnsgd1na2vs0mg"},{"bike_id":"8022b2eb-d44b-41bc-9f96-2c68d3cd359b","system_id":"levelo_inurba_marseille","lat":43.321239,"lon":5.367768,"is_reserved":false,"is_disabled":false,"rental_uris":{"android":"levelo://app?vid=8022b2eb-d44b-41bc-9f96-2c68d3cd359b","ios":"levelo://app?vid=8022b2eb-d44b-41bc-9f96-2c68d3cd359b"},"vehicle_type_id":"4","last_reported":1756361783,"current_range_meters":20400,"station_id":"ce4bhrh2rcd13ifvqhug","pricing_plan_id":"cebpf4jnsgd1na2vs0mg"},{"bike_id":"b4c83a61-63eb-4c1b-aabc-26ec8a3306b8","system_id":"levelo_inurba_marseille","lat":43.31535,"lon":5.3864,"is_reserved":false,"is_disabled":false,"rental_uris":{"android":"levelo://app?vid=b4c83a61-63eb-4c1b-aabc-26ec8a3306b8","ios":"levelo://app?vid=b4c83a61-63eb-4c1b-aabc-26ec8a3306b8"},"vehicle_type_id":"4","last_reported":1756361783,"current_range_meters":20400,"station_id":"","pricing_plan_id":"cebpf4jnsgd1na2vs0mg"},{"bike_id":"d34f26af-9e66-4280-ab69-ceb62fa8ee85","system_id":"levelo_inurba_marseille","lat":43.305479,"lon":5.367011,"is_reserved":false,"is_disabled":false,"rental_uris":{"android":"levelo://app?vid=d34f26af-9e66-4280-ab69-ceb62fa8ee85","ios":"levelo://app?vid=d34f26af-9e66-4280-ab69-ceb62fa8ee85"},"vehicle_type_id":"4","last_reported":1756361783,"current_range_meters":20400,"station_id":"","pricing_plan_id":"cebpf4jnsgd1na2vs0mg"},{"bike_id":"6c6d719e-a8c1-4e2f-9b89-6e8ef872bc6a","system_id":"levelo_inurba_marseille","lat":43.273475,"lon":5.378373,"is_reserved":false,"is_disabled":false,"rental_uris":{"android":"levelo://app?vid=6c6d719e-a8c1-4e2f-9b89-6e8ef872bc6a","ios":"levelo://app?vid=6c6d719e-a8c1-4e2f-9b89-6e8ef872bc6a"},"vehicle_type_id":"4","last_reported":1756361783,"current_range_meters":20400,"station_id":"","pricing_plan_id":"cebpf4jnsgd1na2vs0mg"},{"bike_id":"bee96ce7-9736-4458-8331-0ac028dfe51c","system_id":"levelo_inurba_marseille","lat":43.291134,"lon":5.380819,"is_reserved":false,"is_disabled":true,"rental_uris":{"android":"levelo://app?vid=bee96ce7-9736-4458-8331-0ac028dfe51c","ios":"levelo://app?vid=bee96ce7-9736-4458-8331-0ac028dfe51c"},"vehicle_type_id":"4","last_reported":1756361783,"current_range_meters":20800,"station_id":"","pricing_plan_id":"cebpf4jnsgd1na2vs0mg"},{"bike_id":"14e9d4c7-01c3-4b38-b7c7-ed26c195c9cc","system_id":"levelo_inurba_marseille","lat":43.337444,"lon":5.374475,"is_reserved":false,"is_disabled":false,"rental_uris":{"android":"levelo://app?vid=14e9d4c7-01c3-4b38-b7c7-ed26c195c9cc","ios":"levelo://app?vid=14e9d4c7-01c3-4b38-b7c7-ed26c195c9cc"},"vehicle_type_id":"4","last_reported":1756361783,"current_range_meters":20800,"station_id":"","pricing_plan_id":"cebpf4jnsgd1na2vs0mg"},{"bike_id":"937f6597-d86e-4755-98e8-51ec10edf79c","system_id":"levelo_inurba_marseille","lat":43.27206,"lon":5.39181,"is_reserved":false,"is_disabled":false,"rental_uris":{"android":"levelo://app?vid=937f6597-d86e-4755-98e8-51ec10edf79c","ios":"levelo://app?vid=937f6597-d86e-4755-98e8-51ec10edf79c"},"vehicle_type_id":"4","last_reported":1756361783,"current_range_meters":20800,"station_id":"ce4bhhp2rcd13ifvqfm0","pricing_plan_id":"cebpf4jnsgd1na2vs0mg"},{"bike_id":"6166bfd1-2ee9-4ad1-b509-7e03fe6f760b","system_id":"levelo_inurba_marseille","lat":43.311228,"lon":5.377627,"is_reserved":false,"is_disabled":true,"rental_uris":{"android":"levelo://app?vid=6166bfd1-2ee9-4ad1-b509-7e03fe6f760b","ios":"levelo://app?vid=6166bfd1-2ee9-4ad1-b509-7e03fe6f760b"},"vehicle_type_id":"4","last_reported":1756361783,"current_range_meters":20800,"station_id":"ce4bgt92rcd13ifvqcg0","pricing_plan_id":"cebpf4jnsgd1na2vs0mg"},{"bike_id":"2cf4a595-6c42-4304-85da-1d8ad151caf3","system_id":"levelo_inurba_marseille","lat":43.24667,"lon":5.38156,"is_reserved":false,"is_disabled":false,"rental_uris":{"android":"levelo://app?vid=2cf4a595-6c42-4304-85da-1d8ad151caf3","ios":"levelo://app?vid=2cf4a595-6c42-4304-85da-1d8ad151caf3"},"vehicle_type_id":"4","last_reported":1756361783,"current_range_meters":20800,"station_id":"ce4bhih2rcd13ifvqfr0","pricing_plan_id":"cebpf4jnsgd1na2vs0mg"},{"bike_id":"3235a8e4-0285-41ed-a073-4267b3ce62ac","system_id":"levelo_inurba_marseille","lat":43.27095,"lon":5.42295,"is_reserved":false,"is_disabled":false,"rental_uris":{"android":"levelo://app?vid=3235a8e4-0285-41ed-a073-4267b3ce62ac","ios":"levelo://app?vid=3235a8e4-0285-41ed-a073-4267b3ce62ac"},"vehicle_type_id":"4","last_reported":1756361783,"current_range_meters":21600,"station_id":"ce4bhk92rcd13ifvqgb0","pricing_plan_id":"cebpf4jnsgd1na2vs0mg"},{"bike_id":"8344d994-2dde-464d-8aa2-0a57b3058d47","system_id":"levelo_inurba_marseille","lat":43.27815,"lon":5.40708,"is_reserved":false,"is_disabled":false,"rental_uris":{"android":"levelo://app?vid=8344d994-2dde-464d-8aa2-0a57b3058d47","ios":"levelo://app?vid=8344d994-2dde-464d-8aa2-0a57b3058d47"},"vehicle_type_id":"4","last_reported":1756361783,"current_range_meters":21600,"station_id":"ce4bhnh2rcd13ifvqgtg","pricing_plan_id":"cebpf4jnsgd1na2vs0mg"},{"bike_id":"c280a47f-d81e-4b34-8047-63886139980d","system_id":"levelo_inurba_marseille","lat":43.2926,"lon":5.40913,"is_reserved":false,"is_disabled":false,"rental_uris":{"android":"levelo://app?vid=c280a47f-d81e-4b34-8047-63886139980d","ios":"levelo://app?vid=c280a47f-d81e-4b34-8047-63886139980d"},"vehicle_type_id":"4","last_reported":1756361783,"current_range_meters":20800,"station_id":"ce4bh192rcd13ifvqdc0","pricing_plan_id":"cebpf4jnsgd1na2vs0mg"},{"bike_id":"a157f9f9-1eeb-4be7-9cb8-047dd0c6aebd","system_id":"levelo_inurba_marseille","lat":43.240713,"lon":5.377542,"is_reserved":false,"is_disabled":false,"rental_uris":{"android":"levelo://app?vid=a157f9f9-1eeb-4be7-9cb8-047dd0c6aebd","ios":"levelo://app?vid=a157f9f9-1eeb-4be7-9cb8-047dd0c6aebd"},"vehicle_type_id":"4","last_reported":1756361783,"current_range_meters":21600,"station_id":"ce4bhnp2rcd13ifvqgvg","pricing_plan_id":"cebpf4jnsgd1na2vs0mg"},{"bike_id":"a306cb00-5b23-4c87-a114-3ae0e904c3bf","system_id":"levelo_inurba_marseille","lat":43.3048,"lon":5.37916,"is_reserved":false,"is_disabled":false,"rental_uris":{"android":"levelo://app?vid=a306cb00-5b23-4c87-a114-3ae0e904c3bf","ios":"levelo://app?vid=a306cb00-5b23-4c87-a114-3ae0e904c3bf"},"vehicle_type_id":"4","last_reported":1756361783,"current_range_meters":21600,"station_id":"ce4bgup2rcd13ifvqcn0","pricing_plan_id":"cebpf4jnsgd1na2vs0mg"},{"bike_id":"455c5dbc-2320-459c-b724-a7bb5efbfea7","system_id":"levelo_inurba_marseille","lat":43.297024,"lon":5.376953,"is_reserved":false,"is_disabled":false,"rental_uris":{"android":"levelo://app?vid=455c5dbc-2320-459c-b724-a7bb5efbfea7","ios":"levelo://app?vid=455c5dbc-2320-459c-b724-a7bb5efbfea7"},"vehicle_type_id":"4","last_reported":1756361783,"current_range_meters":21600,"station_id":"ce4bgkh2rcd13ifvqbl0","pricing_plan_id":"cebpf4jnsgd1na2vs0mg"},{"bike_id":"3dd23926-ae78-488e-8f33-e0fe0712154d","system_id":"levelo_inurba_marseille","lat":43.31197,"lon":5.37801,"is_reserved":false,"is_disabled":false,"rental_uris":{"android":"levelo://app?vid=3dd23926-ae78-488e-8f33-e0fe0712154d","ios":"levelo://app?vid=3dd23926-ae78-488e-8f33-e0fe0712154d"},"vehicle_type_id":"4","last_reported":1756361783,"current_range_meters":21600,"station_id":"","pricing_plan_id":"cebpf4jnsgd1na2vs0mg"},{"bike_id":"2f705b61-5428-4e70-90a0-bdd3ba54f0c5","system_id":"levelo_inurba_marseille","lat":43.31076,"lon":5.38349,"is_reserved":false,"is_disabled":true,"rental_uris":{"android":"levelo://app?vid=2f705b61-5428-4e70-90a0-bdd3ba54f0c5","ios":"levelo://app?vid=2f705b61-5428-4e70-90a0-bdd3ba54f0c5"},"vehicle_type_id":"4","last_reported":1756361783,"current_range_meters":21600,"station_id":"ce4bgv92rcd13ifvqcr0","pricing_plan_id":"cebpf4jnsgd1na2vs0mg"},{"bike_id":"e66b3941-edc1-47d2-a508-6af05bed5109","system_id":"levelo_inurba_marseille","lat":43.22506,"lon":5.34781,"is_reserved":false,"is_disabled":false,"rental_uris":{"android":"levelo://app?vid=e66b3941-edc1-47d2-a508-6af05bed5109","ios":"levelo://app?vid=e66b3941-edc1-47d2-a508-6af05bed5109"},"vehicle_type_id":"4","last_reported":1756361783,"current_range_meters":21600,"station_id":"st_cvj5dfep6f1abm77gieg","pricing_plan_id":"cebpf4jnsgd1na2vs0mg"},