{"last_updated":1683569293,"ttl":30,"version":"2.2","data":{"bikes":[{"bike_id":"7781a052-e0b1-4c3c-837f-642ae1d7de4c","system_id":"levelo_inurba_marseille","lat":43.312239,"lon":5.368562,"is_reserved":false,"is_disabled":false,"rental_uris":{"android":"levelo://app?vid=7781a052-e0b1-4c3c-837f-642ae1d7de4c","ios":"levelo://app?vid=7781a052-e0b1-4c3c-837f-642ae1d7de4c"},"vehicle_type_id":"4","last_reported":1683569294,"current_range_meters":21200,"station_id":"ce4bgl92rcd13ifvqbq0","pricing_plan_id":"free"},{"bike_id":"8e14fb6c-d150-4c64-bca5-d944d9529093","system_id":"levelo_inurba_marseille","lat":43.314811,"lon":5.373103,"is_reserved":false,"is_disabled":false,"rental_uris":{"android":"levelo://app?vid=8e14fb6c-d150-4c64-bca5-d944d9529093","ios":"levelo://app?vid=8e14fb6c-d150-4c64-bca5-d944d9529093"},"vehicle_type_id":"4","last_reported":1683569294,"current_range_meters":7600,"station_id":"ce4bgt12rcd13ifvqcd0","pricing_plan_id":"free"},{"bike_id":"c37db171-2dc3-48de-b850-b04551f8ce1b","system_id":"levelo_inurba_marseille","lat":43.314811,"lon":5.373104,"is_reserved":false,"is_disabled":false,"rental_uris":{"android":"levelo://app?vid=c37db171-2dc3-48de-b850-b04551f8ce1b","ios":"levelo://app?vid=c37db171-2dc3-48de-b850-b04551f8ce1b"},"vehicle_type_id":"4","last_reported":1683569294,"current_range_meters":6400,"station_id":"ce4bgt12rcd13ifvqcd0","pricing_plan_id":"free"},{"bike_id":"25398221-a071-4440-a44e-f4b1e67144ff","system_id":"levelo_inurba_marseille","lat":43.308614,"lon":5.372098,"is_reserved":false,"is_disabled":false,"rental_uris":{"android":"levelo://app?vid=25398221-a071-4440-a44e-f4b1e67144ff","ios":"levelo://app?vid=25398221-a071-4440-a44e-f4b1e67144ff"},"vehicle_type_id":"4","last_reported":1683569294,"current_range_meters":19600,"station_id":"ce4bguh2rcd13ifvqckg","pricing_plan_id":"free"},{"bike_id":"a48a625a-97ca-4db2-be87-8931aa82b0f3","system_id":"levelo_inurba_marseille","lat":43.30893,"lon":5.37191,"is_reserved":false,"is_disabled":false,"rental_uris":{"android":"levelo://app?vid=a48a625a-97ca-4db2-be87-8931aa82b0f3","ios":"levelo://app?vid=a48a625a-97ca-4db2-be87-8931aa82b0f3"},"vehicle_type_id":"4","last_reported":1683569294,"current_range_meters":26800,"station_id":"","pricing_plan_id":"free"},{"bike_id":"dffeef6a-78d0-4568-ab84-8fc1cb06afcc","system_id":"levelo_inurba_marseille","lat":43.308614,"lon":5.372098,"is_reserved":false,"is_disabled":false,"rental_uris":{"android":"levelo://app?vid=dffeef6a-78d0-4568-ab84-8fc1cb06afcc","ios":"levelo://app?vid=dffeef6a-78d0-4568-ab84-8fc1cb06afcc"},"vehicle_type_id":"4","last_reported":1683569294,"current_range_meters":25200,"station_id":"ce4bguh2rcd13ifvqckg","pricing_plan_id":"free"},{"bike_id":"3a0dc016-17c7-40cd-897e-7b19072cac9f","system_id":"levelo_inurba_marseille","lat":43.308614,"lon":5.372098,"is_reserved":false,"is_disabled":false,"rental_uris":{"android":"levelo://app?vid=3a0dc016-17c7-40cd-897e-7b19072cac9f","ios":"levelo://app?vid=3a0dc016-17c7-40cd-897e-7b19072cac9f"},"vehicle_type_id":"4","last_reported":1683569294,"current_range_meters":22000,"station_id":"ce4bguh2rcd13ifvqckg","pricing_plan_id":"free"},{"bike_id":"da381dc7-5bd2-4bcd-a0a3-25a7cf736985","system_id":"levelo_inurba_marseille","lat":43.308614,"lon":5.372098,"is_reserved":false,"is_disabled":false,"rental_uris":{"android":"levelo://app?vid=da381dc7-5bd2-4bcd-a0a3-25a7cf736985","ios":"levelo://app?vid=da381dc7-5bd2-4bcd-a0a3-25a7cf736985"},"vehicle_type_id":"4","last_reported":1683569294,"current_range_meters":31200,"station_id":"ce4bguh2rcd13ifvqckg","pricing_plan_id":"free"},{"bike_id":"010acae5-1b85-40a0-97c1-79823a9fd89b","system_id":"levelo_inurba_marseille","lat":43.311131,"lon":5.377651,"is_reserved":false,"is_disabled":false,"rental_uris":{"android":"levelo://app?vid=010acae5-1b85-40a0-97c1-79823a9fd89b","ios":"levelo://app?vid=010acae5-1b85-40a0-97c1-79823a9fd89b"},"vehicle_type_id":"4","last_reported":1683569294,"current_range_meters":14000,"station_id":"ce4bgt92rcd13ifvqcg0","pricing_plan_id":"free"},{"bike_id":"3a49f45a-3aa2-466e-806d-bf0ef1d3ff8e","system_id":"levelo_inurba_marseille","lat":43.317075,"lon":5.377367,"is_reserved":false,"is_disabled":false,"rental_uris":{"android":"levelo://app?vid=3a49f45a-3aa2-466e-806d-bf0ef1d3ff8e","ios":"levelo://app?vid=3a49f45a-3aa2-466e-806d-bf0ef1d3ff8e"},"vehicle_type_id":"4","last_reported":1683569294,"current_range_meters":32000,"station_id":"ce4bgth2rcd13ifvqch0","pricing_plan_id":"free"},{"bike_id":"a06d57a0-4d36-4e4a-85f6-3b26881d68f1","system_id":"levelo_inurba_marseille","lat":43.317075,"lon":5.377367,"is_reserved":false,"is_disabled":false,"rental_uris":{"android":"levelo://app?vid=a06d57a0-4d36-4e4a-85f6-3b26881d68f1","ios":"levelo://app?vid=a06d57a0-4d36-4e4a-85f6-3b26881d68f1"},"vehicle_type_id":"4","last_reported":1683569294,"current_range_meters":18400,"station_id":"ce4bgth2rcd13ifvqch0","pricing_plan_id":"free"},{"bike_id":"42449e72-d7dd-4a64-a5b6-2ff486bee09f","system_id":"levelo_inurba_marseille","lat":43.303046,"lon":5.368981,"is_reserved":false,"is_disabled":false,"rental_uris":{"android":"levelo://app?vid=42449e72-d7dd-4a64-a5b6-2ff486bee09f","ios":"levelo://app?vid=42449e72-d7dd-4a64-a5b6-2ff486bee09f"},"vehicle_type_id":"4","last_reported":1683569294,"current_range_meters":29200,"station_id":"ce4bgqh2rcd13ifvqc5g","pricing_plan_id":"free"},{"bike_id":"278379e9-3ea3-4752-9fa5-51d24b132a79","system_id":"levelo_inurba_marseille","lat":43.315293,"lon":5.380349,"is_reserved":false,"is_disabled":false,"rental_uris":{"android":"levelo://app?vid=278379e9-3ea3-4752-9fa5-51d24b132a79","ios":"levelo://app?vid=278379e9-3ea3-4752-9fa5-51d24b132a79"},"vehicle_type_id":"4","last_reported":1683569294,"current_range_meters":30800,"station_id":"ce4bhsp2rcd13ifvqi50","pricing_plan_id":"free"},{"bike_id":"5681bfb4-3cbd-4159-a53a-1a341d6c8eeb","system_id":"levelo_inurba_marseille","lat":43.315293,"lon":5.380349,"is_reserved":false,"is_disabled":false,"rental_uris":{"android":"levelo://app?vid=5681bfb4-3cbd-4159-a53a-1a341d6c8eeb","ios":"levelo://app?vid=5681bfb4-3cbd-4159-a53a-1a341d6c8eeb"},"vehicle_type_id":"4","last_reported":1683569294,"current_range_meters":29200,"station_id":"ce4bhsp2rcd13ifvqi50","pricing_plan_id":"free"},{"bike_id":"74dc49db-f918-43ed-a8d8-199327d2e08a","system_id":"levelo_inurba_marseille","lat":43.3025,"lon":5.36465,"is_reserved":false,"is_disabled":false,"rental_uris":{"android":"levelo://app?vid=74dc49db-f918-43ed-a8d8-199327d2e08a","ios":"levelo://app?vid=74dc49db-f918-43ed-a8d8-199327d2e08a"},"vehicle_type_id":"4","last_reported":1683569294,"current_range_meters":19200,"station_id":"","pricing_plan_id":"free"},{"bike_id":"e14fba7d-4ec8-415f-a97b-2c80a09495a0","system_id":"levelo_inurba_marseille","lat":43.30193,"lon":5.36624,"is_reserved":false,"is_disabled":false,"rental_uris":{"android":"levelo://app?vid=e14fba7d-4ec8-415f-a97b-2c80a09495a0","ios":"levelo://app?vid=e14fba7d-4ec8-415f-a97b-2c80a09495a0"},"vehicle_type_id":"4","last_reported":1683569294,"current_range_meters":25200,"station_id":"ce4bgrh2rcd13ifvqc8g","pricing_plan_id":"free"},{"bike_id":"13fe73e1-ca42-4e3c-9eec-227455027aca","system_id":"levelo_inurba_marseille","lat":43.301939,"lon":5.366286,"is_reserved":false,"is_disabled":false,"rental_uris":{"android":"levelo://app?vid=13fe73e1-ca42-4e3c-9eec-227455027aca","ios":"levelo://app?vid=13fe73e1-ca42-4e3c-9eec-227455027aca"},"vehicle_type_id":"4","last_reported":1683569294,"current_range_meters":3200,"station_id":"ce4bgrh2rcd13ifvqc8g","pricing_plan_id":"free"},{"bike_id":"941f1648-04b4-4a32-88cf-2ede7409bb85","system_id":"levelo_inurba_marseille","lat":43.308012,"lon":5.381511,"is_reserved":false,"is_disabled":false,"rental_uris":{"android":"levelo://app?vid=941f1648-04b4-4a32-88cf-2ede7409bb85","ios":"levelo://app?vid=941f1648-04b4-4a32-88cf-2ede7409bb85"},"vehicle_type_id":"4","last_reported":1683569294,"current_range_meters":12800,"station_id":"ce4bgt12rcd13ifvqce0","pricing_plan_id":"free"},{"bike_id":"448a1aea-2c94-44c6-8ac1-28350ae36723","system_id":"levelo_inurba_marseille","lat":43.308012,"lon":5.381511,"is_reserved":false,"is_disabled":false,"rental_uris":{"android":"levelo://app?vid=448a1aea-2c94-44c6-8ac1-28350ae36723","ios":"levelo://app?vid=448a1aea-2c94-44c6-8ac1-28350ae36723"},"vehicle_type_id":"4","last_reported":1683569294,"current_range_meters":19200,"station_id":"ce4bgt12rcd13ifvqce0","pricing_plan_id":"free"},{"bike_id":"af167ffd-9c1c-4177-8ea7-124c86eb286c","system_id":"levelo_inurba_marseille","lat":43.308012,"lon":5.381511,"is_reserved":false,"is_disabled":false,"rental_uris":{"android":"levelo://app?vid=af167ffd-9c1c-4177-8ea7-124c86eb286c","ios":"levelo://app?vid=af167ffd-9c1c-4177-8ea7-124c86eb286c"},"vehicle_type_id":"4","last_reported":1683569294,"current_range_meters":7200,"station_id":"ce4bgt12rcd13ifvqce0","pricing_plan_id":"free"},{"bike_id":"eaa3674e-fc2b-4278-91b7-bd516877357f","system_id":"levelo_inurba_marseille","lat":43.308012,"lon":5.381511,"is_reserved":false,"is_disabled":false,"rental_uris":{"android":"levelo://app?vid=eaa3674e-fc2b-4278-91b7-bd516877357f","ios":"levelo://app?vid=eaa3674e-fc2b-4278-91b7-bd516877357f"},"vehicle_type_id":"4","last_reported":1683569294,"current_range_meters":0,"station_id":"ce4bgt12rcd13ifvqce0","pricing_plan_id":"free"},{"bike_id":"ad3b9c03-6d10-46a6-9adb-dd9cc355f930","system_id":"levelo_inurba_marseille","lat":43.304606,"lon":5.379026,"is_reserved":false,"is_disabled":false,"rental_uris":{"android":"levelo://app?vid=ad3b9c03-6d10-46a6-9adb-dd9cc355f930","ios":"levelo://app?vid=ad3b9c03-6d10-46a6-9adb-dd9cc355f930"},"vehicle_type_id":"4","last_reported":1683569294,"current_range_meters":1600,"station_id":"ce4bgup2rcd13ifvqcn0","pricing_plan_id":"free"},{"bike_id":"6a446190-79cc-46e2-8532-9fab08df84df","system_id":"levelo_inurba_marseille","lat":43.30144,"lon":5.37417,"is_reserved":false,"is_disabled":false,"rental_uris":{"android":"levelo://app?vid=6a446190-79cc-46e2-8532-9fab08df84df","ios":"levelo://app?vid=6a446190-79cc-46e2-8532-9fab08df84df"},"vehicle_type_id":"4","last_reported":1683569294,"current_range_meters":8400,"station_id":"","pricing_plan_id":"free"},{"bike_id":"cc1f243f-d065-4398-acb1-c501e6632e28","system_id":"levelo_inurba_marseille","lat":43.3014,"lon":5.37413,"is_reserved":false,"is_disabled":false,"rental_uris":{"android":"levelo://app?vid=cc1f243f-d065-4398-acb1-c501e6632e28","ios":"levelo://app?vid=cc1f243f-d065-4398-acb1-c501e6632e28"},"vehicle_type_id":"4","last_reported":1683569294,"current_range_meters":6800,"station_id":"ce4bgs92rcd13ifvqcc0","pricing_plan_id":"free"},{"bike_id":"643c481d-c2ec-48c0-abc1-e58045459641","system_id":"levelo_inurba_marseille","lat":43.313571,"lon":5.384829,"is_reserved":false,"is_disabled":false,"rental_uris":{"android":"levelo://app?vid=643c481d-c2ec-48c0-abc1-e58045459641","ios":"levelo://app?vid=643c481d-c2ec-48c0-abc1-e58045459641"},"vehicle_type_id":"4","last_reported":1683569294,"current_range_meters":10000,"station_id":"ce4bgt92rcd13ifvqcf0","pricing_plan_id":"free"},{"bike_id":"1d0849d1-a7d1-4997-84e0-f9d02dcb2b96","system_id":"levelo_inurba_marseille","lat":43.313571,"lon":5.384829,"is_reserved":false,"is_disabled":false,"rental_uris":{"android":"levelo://app?vid=1d0849d1-a7d1-4997-84e0-f9d02dcb2b96","ios":"levelo://app?vid=1d0849d1-a7d1-4997-84e0-f9d02dcb2b96"},"vehicle_type_id":"4","last_reported":1683569294,"current_range_meters":23200,"station_id":"ce4bgt92rcd13ifvqcf0","pricing_plan_id":"free"},{"bike_id":"11355a26-ce04-4637-b186-e63c722271b4","system_id":"levelo_inurba_marseille","lat":43.31371,"lon":5.38518,"is_reserved":false,"is_disabled":false,"rental_uris":{"android":"levelo://app?vid=11355a26-ce04-4637-b186-e63c722271b4","ios":"levelo://app?vid=11355a26-ce04-4637-b186-e63c722271b4"},"vehicle_type_id":"4","last_reported":1683569294,"current_range_meters":26400,"station_id":"","pricing_plan_id":"free"},{"bike_id":"af37a49e-dde4-4515-a623-79c365345183","system_id":"levelo_inurba_marseille","lat":43.305364,"lon":5.384119,"is_reserved":false,"is_disabled":false,"rental_uris":{"android":"levelo://app?vid=af37a49e-dde4-4515-a623-79c365345183","ios":"levelo://app?vid=af37a49e-dde4-4515-a623-79c365345183"},"vehicle_type_id":"4","last_reported":1683569294,"current_range_meters":18000,"station_id":"ce4bgg92rcd13ifvqb30","pricing_plan_id":"free"},{"bike_id":"f1aa2330-3b31-44a4-97f8-e98ceff08ecf","system_id":"levelo_inurba_marseille","lat":43.32712,"lon":5.36308,"is_reserved":false,"is_disabled":false,"rental_uris":{"android":"levelo://app?vid=f1aa2330-3b31-44a4-97f8-e98ceff08ecf","ios":"levelo://app?vid=f1aa2330-3b31-44a4-97f8-e98ceff08ecf"},"vehicle_type_id":"4","last_reported":1683569294,"current_range_meters":24800,"station_id":"","pricing_plan_id":"free"},{"bike_id":"27f65132-a2c2-44d7-8d8b-01e8765efc06","system_id":"levelo_inurba_marseille","lat":43.305364,"lon":5.384119,"is_reserved":false,"is_disabled":false,"rental_uris":{"android":"levelo://app?vid=27f65132-a2c2-44d7-8d8b-01e8765efc06","ios":"levelo://app?vid=27f65132-a2c2-44d7-8d8b-01e8765efc06"},"vehicle_type_id":"4","last_reported":1683569294,"current_range_meters":4000,"station_id":"ce4bgg92rcd13ifvqb30","pricing_plan_id":"free"},{"bike_id":"585ae569-fc34-4c57-8696-99001ae96c0e","system_id":"levelo_inurba_marseille","lat":43.299243,"lon":5.37481,"is_reserved":false,"is_disabled":false,"rental_uris":{"android":"levelo://app?vid=585ae569-fc34-4c57-8696-99001ae96c0e","ios":"levelo://app?vid=585ae569-fc34-4c57-8696-99001ae96c0e"},"vehicle_type_id":"4","last_reported":1683569294,"current_range_meters":10400,"station_id":"ce4bgjh2rcd13ifvqbg0","pricing_plan_id":"free"},{"bike_id":"fbf200a0-dde1-4a56-9a69-b31404d19c43","system_id":"levelo_inurba_marseille","lat":43.311722,"lon":5.387247,"is_reserved":false,"is_disabled":false,"rental_uris":{"android":"levelo://app?vid=fbf200a0-dde1-4a56-9a69-b31404d19c43","ios":"levelo://app?vid=fbf200a0-dde1-4a56-9a69-b31404d19c43"},"vehicle_type_id":"4","last_reported":1683569294,"current_range_meters":20800,"station_id":"ce4bgv12rcd13ifvqcp0","pricing_plan_id":"free"},{"bike_id":"0f26b613-3fc5-4239-aa6e-6ca59f85de1d","system_id":"levelo_inurba_marseille","lat":43.311722,"lon":5.387247,"is_reserved":false,"is_disabled":false,"rental_uris":{"android":"levelo://app?vid=0f26b613-3fc5-4239-aa6e-6ca59f85de1d","ios":"levelo://app?vid=0f26b613-3fc5-4239-aa6e-6ca59f85de1d"},"vehicle_type_id":"4","last_reported":1683569294,"current_range_meters":3600,"station_id":"ce4bgv12rcd13ifvqcp0","pricing_plan_id":"free"},{"bike_id":"18e03e45-8a85-4abc-91e7-9caaf6c1a8ca","system_id":"levelo_inurba_marseille","lat":43.311722,"lon":5.387247,"is_reserved":false,"is_disabled":false,"rental_uris":{"android":"levelo://app?vid=18e03e45-8a85-4abc-91e7-9caaf6c1a8ca","ios":"levelo://app?vid=18e03e45-8a85-4abc-91e7-9caaf6c1a8ca"},"vehicle_type_id":"4","last_reported":1683569294,"current_range_meters":24400,"station_id":"ce4bgv12rcd13ifvqcp0","pricing_plan_id":"free"},{"bike_id":"cf8c7da2-e708-4f06-83c9-fd07af8c5a8d","system_id":"levelo_inurba_marseille","lat":43.2968,"lon":5.37291,"is_reserved":false,"is_disabled":false,"rental_uris":{"android":"levelo://app?vid=cf8c7da2-e708-4f06-83c9-fd07af8c5a8d","ios":"levelo://app?vid=cf8c7da2-e708-4f06-83c9-fd07af8c5a8d"},"vehicle_type_id":"4","last_reported":1683569294,"current_range_meters":5600,"station_id":"ce4bgk12rcd13ifvqbj0","pricing_plan_id":"free"},{"bike_id":"d0a36c28-79a7-4531-8430-60be5a130e58","system_id":"levelo_inurba_marseille","lat":43.296131,"lon":5.370791,"is_reserved":false,"is_disabled":false,"rental_uris":{"android":"levelo://app?vid=d0a36c28-79a7-4531-8430-60be5a130e58","ios":"levelo://app?vid=d0a36c28-79a7-4531-8430-60be5a130e58"},"vehicle_type_id":"4","last_reported":1683569294,"current_range_meters":10800,"station_id":"ce4bgnh2rcd13ifvqc0g","pricing_plan_id":"free"},{"bike_id":"90bfe8d7-b8ad-450c-b6db-ae45552c86d9","system_id":"levelo_inurba_marseille","lat":43.296129,"lon":5.370777,"is_reserved":false,"is_disabled":false,"rental_uris":{"android":"levelo://app?vid=90bfe8d7-b8ad-450c-b6db-ae45552c86d9","ios":"levelo://app?vid=90bfe8d7-b8ad-450c-b6db-ae45552c86d9"},"vehicle_type_id":"4","last_reported":1683569294,"current_range_meters":26800,"station_id":"ce4bgnh2rcd13ifvqc0g","pricing_plan_id":"free"},{"bike_id":"36e5615e-4eed-4c17-bd2a-7fd42e535ab9","system_id":"levelo_inurba_marseille","lat":43.29573,"lon":5.367355,"is_reserved":false,"is_disabled":false,"rental_uris":{"android":"levelo://app?vid=36e5615e-4eed-4c17-bd2a-7fd42e535ab9","ios":"levelo://app?vid=36e5615e-4eed-4c17-bd2a-7fd42e535ab9"},"vehicle_type_id":"4","last_reported":1683569294,"current_range_meters":11600,"station_id":"ce4bgph2rcd13ifvqc2g","pricing_plan_id":"free"},{"bike_id":"1d8a7b72-cba8-4919-9b8a-bfa774f16e8a","system_id":"levelo_inurba_marseille","lat":43.296921,"lon":5.376579,"is_reserved":false,"is_disabled":false,"rental_uris":{"android":"levelo://app?vid=1d8a7b72-cba8-4919-9b8a-bfa774f16e8a","ios":"levelo://app?vid=1d8a7b72-cba8-4919-9b8a-bfa774f16e8a"},"vehicle_type_id":"4","last_reported":1683569294,"current_range_meters":400,"station_id":"ce4bgkh2rcd13ifvqbl0","pricing_plan_id":"free"},{"bike_id":"28358b1e-35cb-4822-938b-ec207271034f","system_id":"levelo_inurba_marseille","lat":43.299028,"lon":5.381509,"is_reserved":false,"is_disabled":false,"rental_uris":{"android":"levelo://app?vid=28358b1e-35cb-4822-938b-ec207271034f","ios":"levelo://app?vid=28358b1e-35cb-4822-938b-ec207271034f"},"vehicle_type_id":"4","last_reported":1683569294,"current_range_meters":0,"station_id":"ce4bgj12rcd13ifvqbc0","pricing_plan_id":"free"},{"bike_id":"a88f8ed1-f7f8-42b7-9a3f-767a378d96c8","system_id":"levelo_inurba_marseille","lat":43.299028,"lon":5.381509,"is_reserved":false,"is_disabled":false,"rental_uris":{"android":"levelo://app?vid=a88f8ed1-f7f8-42b7-9a3f-767a378d96c8","ios":"levelo://app?vid=a88f8ed1-f7f8-42b7-9a3f-767a378d96c8"},"vehicle_type_id":"4","last_reported":1683569294,"current_range_meters":19600,"station_id":"ce4bgj12rcd13ifvqbc0","pricing_plan_id":"free"},{"bike_id":"e1b7774d-aeed-4ca6-bf64-a6d2a9ff5248","system_id":"levelo_inurba_marseille","lat":43.299028,"lon":5.381509,"is_reserved":false,"is_disabled":false,"rental_uris":{"android":"levelo://app?vid=e1b7774d-aeed-4ca6-bf64-a6d2a9ff5248","ios":"levelo://app?vid=e1b7774d-aeed-4ca6-bf64-a6d2a9ff5248"},"vehicle_type_id":"4","last_reported":1683569294,"current_range_meters":6400,"station_id":"ce4bgj12rcd13ifvqbc0","pricing_plan_id":"free"},{"bike_id":"557e416e-30f1-4298-9db0-14a5f5f42c89","system_id":"levelo_inurba_marseille","lat":43.296921,"lon":5.376579,"is_reserved":false,"is_disabled":false,"rental_uris":{"android":"levelo://app?vid=557e416e-30f1-4298-9db0-14a5f5f42c89","ios":"levelo://app?vid=557e416e-30f1-4298-9db0-14a5f5f42c89"},"vehicle_type_id":"4","last_reported":1683569294,"current_range_meters":6400,"station_id":"ce4bgkh2rcd13ifvqbl0","pricing_plan_id":"free"},{"bike_id":"f7d2e192-6054-4166-866a-e4a4708b1805","system_id":"levelo_inurba_marseille","lat":43.299028,"lon":5.381509,"is_reserved":false,"is_disabled":false,"rental_uris":{"android":"levelo://app?vid=f7d2e192-6054-4166-866a-e4a4708b1805","ios":"levelo://app?vid=f7d2e192-6054-4166-866a-e4a4708b1805"},"vehicle_type_id":"4","last_reported":1683569294,"current_range_meters":22400,"station_id":"ce4bgj12rcd13ifvqbc0","pricing_plan_id":"free"},{"bike_id":"40bcea4e-adf4-4001-b0a1-f6360e1f6d72","system_id":"levelo_inurba_marseille","lat":43.317557,"lon":5.390173,"is_reserved":false,"is_disabled":false,"rental_uris":{"android":"levelo://app?vid=40bcea4e-adf4-4001-b0a1-f6360e1f6d72","ios":"levelo://app?vid=40bcea4e-adf4-4001-b0a1-f6360e1f6d72"},"vehicle_type_id":"4","last_reported":1683569294,"current_range_meters":400,"station_id":"ce4bhqp2rcd13ifvqhng","pricing_plan_id":"free"},{"bike_id":"4f6418cd-2719-486c-8971-8645a7fa1118","system_id":"levelo_inurba_marseille","lat":43.317557,"lon":5.390173,"is_reserved":false,"is_disabled":false,"rental_uris":{"android":"levelo://app?vid=4f6418cd-2719-486c-8971-8645a7fa1118","ios":"levelo://app?vid=4f6418cd-2719-486c-8971-8645a7fa1118"},"vehicle_type_id":"4","last_reported":1683569294,"current_range_meters":11200,"station_id":"ce4bhqp2rcd13ifvqhng","pricing_plan_id":"free"},{"bike_id":"a6833ac8-5b85-4bf3-b546-bc2dc743a297","system_id":"levelo_inurba_marseille","lat":43.31761,"lon":5.390172,"is_reserved":false,"is_disabled":false,"rental_uris":{"android":"levelo://app?vid=a6833ac8-5b85-4bf3-b546-bc2dc743a297","ios":"levelo://app?vid=a6833ac8-5b85-4bf3-b546-bc2dc743a297"},"vehicle_type_id":"4","last_reported":1683569294,"current_range_meters":14400,"station_id":"","pricing_plan_id":"free"},{"bike_id":"29807c1d-aba6-4f28-a125-15ec9a94d472","system_id":"levelo_inurba_marseille","lat":43.298037,"lon":5.381066,"is_reserved":false,"is_disabled":false,"rental_uris":{"android":"levelo://app?vid=29807c1d-aba6-4f28-a125-15ec9a94d472","ios":"levelo://app?vid=29807c1d-aba6-4f28-a125-15ec9a94d472"},"vehicle_type_id":"4","last_reported":1683569294,"current_range_meters":19200,"station_id":"ce4bgip2rcd13ifvqbb0","pricing_plan_id":"free"},{"bike_id":"ff4abca5-c392-4940-9d31-3a4227a58fcc","system_id":"levelo_inurba_marseille","lat":43.298037,"lon":5.381066,"is_reserved":false,"is_disabled":false,"rental_uris":{"android":"levelo://app?vid=ff4abca5-c392-4940-9d31-3a4227a58fcc","ios":"levelo://app?vid=ff4abca5-c392-4940-9d31-3a4227a58fcc"},"vehicle_type_id":"4","last_reported":1683569294,"current_range_meters":800,"station_id":"ce4bgip2rcd13ifvqbb0","pricing_plan_id":"free"},{"bike_id":"9e87c5ae-5acb-4414-89e4-e53bac846c1f","system_id":"levelo_inurba_marseille","lat":43.298037,"lon":5.381066,"is_reserved":false,"is_disabled":false,"rental_uris":{"android":"levelo://app?vid=9e87c5ae-5acb-4414-89e4-e53bac846c1f","ios":"levelo://app?vid=9e87c5ae-5acb-4414-89e4-e53bac846c1f"},"vehicle_type_id":"4","last_reported":1683569294,"current_range_meters":25200,"station_id":"ce4bgip2rcd13ifvqbb0","pricing_plan_id":"free"},{"bike_id":"5781c782-6722-4fed-842d-2393ed29abad","system_id":"levelo_inurba_marseille","lat":43.298037,"lon":5.381066,"is_reserved":false,"is_disabled":false,"rental_uris":{"android":"levelo://app?vid=5781c782-6722-4fed-842d-2393ed29abad","ios":"levelo://app?vid=5781c782-6722-4fed-842d-2393ed29abad"},"vehicle_type_id":"4","last_reported":1683569294,"current_range_meters":0,"station_id":"ce4bgip2rcd13ifvqbb0","pricing_plan_id":"free"},{"bike_id":"da671956-1fc3-4352-93b8-aef091ff1386","system_id":"levelo_inurba_marseille","lat":43.298037,"lon":5.381066,"is_reserved":false,"is_disabled":false,"rental_uris":{"android":"levelo://app?vid=da671956-1fc3-4352-93b8-aef091ff1386","ios":"levelo://app?vid=da671956-1fc3-4352-93b8-aef091ff1386"},"vehicle_type_id":"4","last_reported":1683569294,"current_range_meters":24400,"station_id":"ce4bgip2rcd13ifvqbb0","pricing_plan_id":"free"},{"bike_id":"571c5984-37c5-4203-85a1-f3264c697fdb","system_id":"levelo_inurba_marseille","lat":43.296277,"lon":5.377108,"is_reserved":false,"is_disabled":false,"rental_uris":{"android":"levelo://app?vid=571c5984-37c5-4203-85a1-f3264c697fdb","ios":"levelo://app?vid=571c5984-37c5-4203-85a1-f3264c697fdb"},"vehicle_type_id":"4","last_reported":1683569294,"current_range_meters":8800,"station_id":"ce4bgi92rcd13ifvqb90","pricing_plan_id":"free"},{"bike_id":"275c5ca2-09f7-41c2-90b3-d19b6eca07e3","system_id":"levelo_inurba_marseille","lat":43.30415,"lon":5.38876,"is_reserved":false,"is_disabled":false,"rental_uris":{"android":"levelo://app?vid=275c5ca2-09f7-41c2-90b3-d19b6eca07e3","ios":"levelo://app?vid=275c5ca2-09f7-41c2-90b3-d19b6eca07e3"},"vehicle_type_id":"4","last_reported":1683569294,"current_range_meters":17600,"station_id":"ce4bgk12rcd13ifvqbi0","pricing_plan_id":"free"},{"bike_id":"7a7de1c7-b700-4a01-9d90-04859f7934aa","system_id":"levelo_inurba_marseille","lat":43.30427,"lon":5.38887,"is_reserved":false,"is_disabled":false,"rental_uris":{"android":"levelo://app?vid=7a7de1c7-b700-4a01-9d90-04859f7934aa","ios":"levelo://app?vid=7a7de1c7-b700-4a01-9d90-04859f7934aa"},"vehicle_type_id":"4","last_reported":1683569294,"current_range_meters":19600,"station_id":"ce4bgk12rcd13ifvqbi0","pricing_plan_id":"free"},{"bike_id":"08e06f9d-50d3-4123-b69a-b457ddf9e6dc","system_id":"levelo_inurba_marseille","lat":43.304274,"lon":5.388873,"is_reserved":false,"is_disabled":false,"rental_uris":{"android":"levelo://app?vid=08e06f9d-50d3-4123-b69a-b457ddf9e6dc","ios":"levelo://app?vid=08e06f9d-50d3-4123-b69a-b457ddf9e6dc"},"vehicle_type_id":"4","last_reported":1683569294,"current_range_meters":0,"station_id":"ce4bgk12rcd13ifvqbi0","pricing_plan_id":"free"},{"bike_id":"f9a6c5e7-8f04-4e91-b6a4-31982b61da8d","system_id":"levelo_inurba_marseille","lat":43.296277,"lon":5.377108,"is_reserved":false,"is_disabled":false,"rental_uris":{"android":"levelo://app?vid=f9a6c5e7-8f04-4e91-b6a4-31982b61da8d","ios":"levelo://app?vid=f9a6c5e7-8f04-4e91-b6a4-31982b61da8d"},"vehicle_type_id":"4","last_reported":1683569294,"current_range_meters":1200,"station_id":"ce4bgi92rcd13ifvqb90","pricing_plan_id":"free"},{"bike_id":"8755ace0-745f-46c9-bf53-258f1ca37f71","system_id":"levelo_inurba_marseille","lat":43.29613,"lon":5.37724,"is_reserved":false,"is_disabled":false,"rental_uris":{"android":"levelo://app?vid=8755ace0-745f-46c9-bf53-258f1ca37f71","ios":"levelo://app?vid=8755ace0-745f-46c9-bf53-258f1ca37f71"},"vehicle_type_id":"4","last_reported":1683569294,"current_range_meters":0,"station_id":"ce4bgi92rcd13ifvqb90","pricing_plan_id":"free"},{"bike_id":"b6d2584b-6561-4d93-b724-eb5530b9883a","system_id":"levelo_inurba_marseille","lat":43.29972,"lon":5.38491,"is_reserved":false,"is_disabled":false,"rental_uris":{"android":"levelo://app?vid=b6d2584b-6561-4d93-b724-eb5530b9883a","ios":"levelo://app?vid=b6d2584b-6561-4d93-b724-eb5530b9883a"},"vehicle_type_id":"4","last_reported":1683569294,"current_range_meters":25600,"station_id":"ce4bgj92rcd13ifvqbd0","pricing_plan_id":"free"},{"bike_id":"d7af2dd5-bccc-4048-9328-aef253ddb618","system_id":"levelo_inurba_marseille","lat":43.299707,"lon":5.384859,"is_reserved":false,"is_disabled":false,"rental_uris":{"android":"levelo://app?vid=d7af2dd5-bccc-4048-9328-aef253ddb618","ios":"levelo://app?vid=d7af2dd5-bccc-4048-9328-aef253ddb618"},"vehicle_type_id":"4","last_reported":1683569294,"current_range_meters":10000,"station_id":"ce4bgj92rcd13ifvqbd0","pricing_plan_id":"free"},{"bike_id":"d4e834c1-e0cf-43b1-8aab-0cacd338c759","system_id":"levelo_inurba_marseille","lat":43.299717,"lon":5.384845,"is_reserved":false,"is_disabled":false,"rental_uris":{"android":"levelo://app?vid=d4e834c1-e0cf-43b1-8aab-0cacd338c759","ios":"levelo://app?vid=d4e834c1-e0cf-43b1-8aab-0cacd338c759"},"vehicle_type_id":"4","last_reported":1683569294,"current_range_meters":27600,"station_id":"ce4bgj92rcd13ifvqbd0","pricing_plan_id":"free"},{"bike_id":"4e61b236-f29c-426f-a363-b30cfb63f881","system_id":"levelo_inurba_marseille","lat":43.295279,"lon":5.375048,"is_reserved":false,"is_disabled":false,"rental_uris":{"android":"levelo://app?vid=4e61b236-f29c-426f-a363-b30cfb63f881","ios":"levelo://app?vid=4e61b236-f29c-426f-a363-b30cfb63f881"},"vehicle_type_id":"4","last_reported":1683569294,"current_range_meters":8800,"station_id":"ce4bgkp2rcd13ifvqbmg","pricing_plan_id":"free"},{"bike_id":"52f9a966-88e9-4e72-92c8-0db5bd19f2c4","system_id":"levelo_inurba_marseille","lat":43.31411,"lon":5.3935,"is_reserved":false,"is_disabled":false,"rental_uris":{"android":"levelo://app?vid=52f9a966-88e9-4e72-92c8-0db5bd19f2c4","ios":"levelo://app?vid=52f9a966-88e9-4e72-92c8-0db5bd19f2c4"},"vehicle_type_id":"4","last_reported":1683569294,"current_range_meters":4000,"station_id":"","pricing_plan_id":"free"},{"bike_id":"b00e0e32-287b-406e-a277-26d8e624e8d6","system_id":"levelo_inurba_marseille","lat":43.29601,"lon":5.381084,"is_reserved":false,"is_disabled":false,"rental_uris":{"android":"levelo://app?vid=b00e0e32-287b-406e-a277-26d8e624e8d6","ios":"levelo://app?vid=b00e0e32-287b-406e-a277-26d8e624e8d6"},"vehicle_type_id":"4","last_reported":1683569294,"current_range_meters":4800,"station_id":"ce4bgl12rcd13ifvqbo0","pricing_plan_id":"free"},{"bike_id":"774bd473-bc53-4915-8529-039b131e459b","system_id":"levelo_inurba_marseille","lat":43.29305,"lon":5.36945,"is_reserved":false,"is_disabled":false,"rental_uris":{"android":"levelo://app?vid=774bd473-bc53-4915-8529-039b131e459b","ios":"levelo://app?vid=774bd473-bc53-4915-8529-039b131e459b"},"vehicle_type_id":"4","last_reported":1683569294,"current_range_meters":20400,"station_id":"ce4bhi12rcd13ifvqfq0","pricing_plan_id":"free"},{"bike_id":"788359f4-d8f1-40e7-839f-43dd2c145eeb","system_id":"levelo_inurba_marseille","lat":43.293249,"lon":5.371578,"is_reserved":false,"is_disabled":false,"rental_uris":{"android":"levelo://app?vid=788359f4-d8f1-40e7-839f-43dd2c145eeb","ios":"levelo://app?vid=788359f4-d8f1-40e7-839f-43dd2c145eeb"},"vehicle_type_id":"4","last_reported":1683569294,"current_range_meters":14000,"station_id":"ce4bgh92rcd13ifvqb40","pricing_plan_id":"free"},{"bike_id":"39032834-93fa-4f05-86ff-8e87f1c6b0bf","system_id":"levelo_inurba_marseille","lat":43.29274,"lon":5.36839,"is_reserved":false,"is_disabled":false,"rental_uris":{"android":"levelo://app?vid=39032834-93fa-4f05-86ff-8e87f1c6b0bf","ios":"levelo://app?vid=39032834-93fa-4f05-86ff-8e87f1c6b0bf"},"vehicle_type_id":"4","last_reported":1683569294,"current_range_meters":31200,"station_id":"","pricing_plan_id":"free"},{"bike_id":"61129903-5bbb-41fb-88c1-3252d0e773d5","system_id":"levelo_inurba_marseille","lat":43.29307,"lon":5.37454,"is_reserved":false,"is_disabled":false,"rental_uris":{"android":"levelo://app?vid=61129903-5bbb-41fb-88c1-3252d0e773d5","ios":"levelo://app?vid=61129903-5bbb-41fb-88c1-3252d0e773d5"},"vehicle_type_id":"4","last_reported":1683569294,"current_range_meters":4000,"station_id":"ce4bgi12rcd13ifvqb70","pricing_plan_id":"free"},{"bike_id":"f86fd6e0-5c44-4d87-8111-0556f999cec5","system_id":"levelo_inurba_marseille","lat":43.29306,"lon":5.37459,"is_reserved":false,"is_disabled":false,"rental_uris":{"android":"levelo://app?vid=f86fd6e0-5c44-4d87-8111-0556f999cec5","ios":"levelo://app?vid=f86fd6e0-5c44-4d87-8111-0556f999cec5"},"vehicle_type_id":"4","last_reported":1683569294,"current_range_meters":24000,"station_id":"ce4bgi12rcd13ifvqb70","pricing_plan_id":"free"},{"bike_id":"fd2bfbe7-6627-4bf2-9965-d9ffcf771d9c","system_id":"levelo_inurba_marseille","lat":43.305994,"lon":5.393687,"is_reserved":false,"is_disabled":false,"rental_uris":{"android":"levelo://app?vid=fd2bfbe7-6627-4bf2-9965-d9ffcf771d9c","ios":"levelo://app?vid=fd2bfbe7-6627-4bf2-9965-d9ffcf771d9c"},"vehicle_type_id":"4","last_reported":1683569294,"current_range_meters":18800,"station_id":"ce4bh0p2rcd13ifvqd80","pricing_plan_id":"free"},{"bike_id":"83ad3909-de85-42db-8517-ba6edd718171","system_id":"levelo_inurba_marseille","lat":43.293009,"lon":5.374584,"is_reserved":false,"is_disabled":false,"rental_uris":{"android":"levelo://app?vid=83ad3909-de85-42db-8517-ba6edd718171","ios":"levelo://app?vid=83ad3909-de85-42db-8517-ba6edd718171"},"vehicle_type_id":"4","last_reported":1683569294,"current_range_meters":0,"station_id":"ce4bgi12rcd13ifvqb70","pricing_plan_id":"free"},{"bike_id":"c6a99708-8ce6-48a2-9fbb-402cca1d1d88","system_id":"levelo_inurba_marseille","lat":43.305994,"lon":5.393687,"is_reserved":false,"is_disabled":false,"rental_uris":{"android":"levelo://app?vid=c6a99708-8ce6-48a2-9fbb-402cca1d1d88","ios":"levelo://app?vid=c6a99708-8ce6-48a2-9fbb-402cca1d1d88"},"vehicle_type_id":"4","last_reported":1683569294,"current_range_meters":13600,"station_id":"ce4bh0p2rcd13ifvqd80","pricing_plan_id":"free"},{"bike_id":"841cdec0-8f3e-46cc-afa8-b0dc6de4a52d","system_id":"levelo_inurba_marseille","lat":43.30299,"lon":5.392,"is_reserved":false,"is_disabled":false,"rental_uris":{"android":"levelo://app?vid=841cdec0-8f3e-46cc-afa8-b0dc6de4a52d","ios":"levelo://app?vid=841cdec0-8f3e-46cc-afa8-b0dc6de4a52d"},"vehicle_type_id":"4","last_reported":1683569294,"current_range_meters":0,"station_id":"ce4bgkh2rcd13ifvqbk0","pricing_plan_id":"free"},{"bike_id":"40dcfdcb-d876-448d-9e11-2511a5179524","system_id":"levelo_inurba_marseille","lat":43.303002,"lon":5.392142,"is_reserved":false,"is_disabled":false,"rental_uris":{"android":"levelo://app?vid=40dcfdcb-d876-448d-9e11-2511a5179524","ios":"levelo://app?vid=40dcfdcb-d876-448d-9e11-2511a5179524"},"vehicle_type_id":"4","last_reported":1683569294,"current_range_meters":3200,"station_id":"ce4bgkh2rcd13ifvqbk0","pricing_plan_id":"free"},{"bike_id":"cbf4f3a4-4040-48cc-b348-be59380a7590","system_id":"levelo_inurba_marseille","lat":43.2936,"lon":5.37835,"is_reserved":false,"is_disabled":false,"rental_uris":{"android":"levelo://app?vid=cbf4f3a4-4040-48cc-b348-be59380a7590","ios":"levelo://app?vid=cbf4f3a4-4040-48cc-b348-be59380a7590"},"vehicle_type_id":"4","last_reported":1683569294,"current_range_meters":1200,"station_id":"ce4bgjh2rcd13ifvqbf0","pricing_plan_id":"free"},{"bike_id":"16a02928-0f6c-4845-b066-3742973c7e5c","system_id":"levelo_inurba_marseille","lat":43.2936,"lon":5.37835,"is_reserved":false,"is_disabled":false,"rental_uris":{"android":"levelo://app?vid=16a02928-0f6c-4845-b066-3742973c7e5c","ios":"levelo://app?vid=16a02928-0f6c-4845-b066-3742973c7e5c"},"vehicle_type_id":"4","last_reported":1683569294,"current_range_meters":18000,"station_id":"ce4bgjh2rcd13ifvqbf0","pricing_plan_id":"free"},{"bike_id":"b58e8cfe-71d0-4aaf-b8a7-a61203c86a0b","system_id":"levelo_inurba_marseille","lat":43.2936,"lon":5.37835,"is_reserved":false,"is_disabled":false,"rental_uris":{"android":"levelo://app?vid=b58e8cfe-71d0-4aaf-b8a7-a61203c86a0b","ios":"levelo://app?vid=b58e8cfe-71d0-4aaf-b8a7-a61203c86a0b"},"vehicle_type_id":"4","last_reported":1683569294,"current_range_meters":22800,"station_id":"ce4bgjh2rcd13ifvqbf0","pricing_plan_id":"free"},{"bike_id":"7e2fa433-546c-4af2-b816-01544a5a236f","system_id":"levelo_inurba_marseille","lat":43.2936,"lon":5.37835,"is_reserved":false,"is_disabled":false,"rental_uris":{"android":"levelo://app?vid=7e2fa433-546c-4af2-b816-01544a5a236f","ios":"levelo://app?vid=7e2fa433-546c-4af2-b816-01544a5a236f"},"vehicle_type_id":"4","last_reported":1683569294,"current_range_meters":27200,"station_id":"ce4bgjh2rcd13ifvqbf0","pricing_plan_id":"free"},{"bike_id":"2ee5a465-d9f4-428c-870f-9b894c3f954a","system_id":"levelo_inurba_marseille","lat":43.298764,"lon":5.388973,"is_reserved":false,"is_disabled":false,"rental_uris":{"android":"levelo://app?vid=2ee5a465-d9f4-428c-870f-9b894c3f954a","ios":"levelo://app?vid=2ee5a465-d9f4-428c-870f-9b894c3f954a"},"vehicle_type_id":"4","last_reported":1683569294,"current_range_meters":7600,"station_id":"ce4bh392rcd13ifvqdl0","pricing_plan_id":"free"},{"bike_id":"cbcbc4a0-bdb1-47c4-b302-44d1795e788d","system_id":"levelo_inurba_marseille","lat":43.292663,"lon":5.376394,"is_reserved":false,"is_disabled":false,"rental_uris":{"android":"levelo://app?vid=cbcbc4a0-bdb1-47c4-b302-44d1795e788d","ios":"levelo://app?vid=cbcbc4a0-bdb1-47c4-b302-44d1795e788d"},"vehicle_type_id":"4","last_reported":1683569294,"current_range_meters":4800,"station_id":"ce4bgi12rcd13ifvqb80","pricing_plan_id":"free"},{"bike_id":"517aa45a-ff6b-475a-99fc-905d9f66ff72","system_id":"levelo_inurba_marseille","lat":43.292663,"lon":5.376389,"is_reserved":false,"is_disabled":false,"rental_uris":{"android":"levelo://app?vid=517aa45a-ff6b-475a-99fc-905d9f66ff72","ios":"levelo://app?vid=517aa45a-ff6b-475a-99fc-905d9f66ff72"},"vehicle_type_id":"4","last_reported":1683569294,"current_range_meters":0,"station_id":"ce4bgi12rcd13ifvqb80","pricing_plan_id":"free"},{"bike_id":"05a5a02b-04c1-4b7a-aefa-ea962c3df7bf","system_id":"levelo_inurba_marseille","lat":43.298764,"lon":5.388973,"is_reserved":false,"is_disabled":false,"rental_uris":{"android":"levelo://app?vid=05a5a02b-04c1-4b7a-aefa-ea962c3df7bf","ios":"levelo://app?vid=05a5a02b-04c1-4b7a-aefa-ea962c3df7bf"},"vehicle_type_id":"4","last_reported":1683569294,"current_range_meters":24000,"station_id":"ce4bh392rcd13ifvqdl0","pricing_plan_id":"free"},{"bike_id":"c5b017a7-150e-4b7d-9da2-a8bc5a4d0e42","system_id":"levelo_inurba_marseille","lat":43.31324,"lon":5.39686,"is_reserved":false,"is_disabled":false,"rental_uris":{"android":"levelo://app?vid=c5b017a7-150e-4b7d-9da2-a8bc5a4d0e42","ios":"levelo://app?vid=c5b017a7-150e-4b7d-9da2-a8bc5a4d0e42"},"vehicle_type_id":"4","last_reported":1683569294,"current_range_meters":11200,"station_id":"ce4bgvp2rcd13ifvqcu0","pricing_plan_id":"free"},{"bike_id":"28593291-c317-41e0-acb7-f3211c568bc3","system_id":"levelo_inurba_marseille","lat":43.313253,"lon":5.396873,"is_reserved":false,"is_disabled":false,"rental_uris":{"android":"levelo://app?vid=28593291-c317-41e0-acb7-f3211c568bc3","ios":"levelo://app?vid=28593291-c317-41e0-acb7-f3211c568bc3"},"vehicle_type_id":"4","last_reported":1683569294,"current_range_meters":6000,"station_id":"ce4bgvp2rcd13ifvqcu0","pricing_plan_id":"free"},{"bike_id":"02a50577-cce1-41c4-a92a-7cd10a1769a8","system_id":"levelo_inurba_marseille","lat":43.309038,"lon":5.396546,"is_reserved":false,"is_disabled":false,"rental_uris":{"android":"levelo://app?vid=02a50577-cce1-41c4-a92a-7cd10a1769a8","ios":"levelo://app?vid=02a50577-cce1-41c4-a92a-7cd10a1769a8"},"vehicle_type_id":"4","last_reported":1683569294,"current_range_meters":20400,"station_id":"ce4bh012rcd13ifvqcv0","pricing_plan_id":"free"},{"bike_id":"87c74ce0-1094-45d1-908c-3377b55dabe9","system_id":"levelo_inurba_marseille","lat":43.313291,"lon":5.396838,"is_reserved":false,"is_disabled":false,"rental_uris":{"android":"levelo://app?vid=87c74ce0-1094-45d1-908c-3377b55dabe9","ios":"levelo://app?vid=87c74ce0-1094-45d1-908c-3377b55dabe9"},"vehicle_type_id":"4","last_reported":1683569294,"current_range_meters":2400,"station_id":"ce4bgvp2rcd13ifvqcu0","pricing_plan_id":"free"},{"bike_id":"ec955817-b0f8-4adf-ba33-90bb1d981929","system_id":"levelo_inurba_marseille","lat":43.309038,"lon":5.396546,"is_reserved":false,"is_disabled":false,"rental_uris":{"android":"levelo://app?vid=ec955817-b0f8-4adf-ba33-90bb1d981929","ios":"levelo://app?vid=ec955817-b0f8-4adf-ba33-90bb1d981929"},"vehicle_type_id":"4","last_reported":1683569294,"current_range_meters":23600,"station_id":"ce4bh012rcd13ifvqcv0","pricing_plan_id":"free"},{"bike_id":"61030399-0dc2-4b2d-aaa4-b7f1e569da6c","system_id":"levelo_inurba_marseille","lat":43.309038,"lon":5.396546,"is_reserved":false,"is_disabled":false,"rental_uris":{"android":"levelo://app?vid=61030399-0dc2-4b2d-aaa4-b7f1e569da6c","ios":"levelo://app?vid=61030399-0dc2-4b2d-aaa4-b7f1e569da6c"},"vehicle_type_id":"4","last_reported":1683569294,"current_range_meters":12400,"station_id":"ce4bh012rcd13ifvqcv0","pricing_plan_id":"free"},{"bike_id":"0dea751e-fdb2-453f-83ce-9226b5b144ec","system_id":"levelo_inurba_marseille","lat":43.309038,"lon":5.396546,"is_reserved":false,"is_disabled":false,"rental_uris":{"android":"levelo://app?vid=0dea751e-fdb2-453f-83ce-9226b5b144ec","ios":"levelo://app?vid=0dea751e-fdb2-453f-83ce-9226b5b144ec"},"vehicle_type_id":"4","last_reported":1683569294,"current_range_meters":17600,"station_id":"ce4bh012rcd13ifvqcv0","pricing_plan_id":"free"},{"bike_id":"0d4eeb0b-7473-4a8a-ad90-873a70a85ca2","system_id":"levelo_inurba_marseille","lat":43.29529,"lon":5.385581,"is_reserved":false,"is_disabled":false,"rental_uris":{"android":"levelo://app?vid=0d4eeb0b-7473-4a8a-ad90-873a70a85ca2","ios":"levelo://app?vid=0d4eeb0b-7473-4a8a-ad90-873a70a85ca2"},"vehicle_type_id":"4","last_reported":1683569294,"current_range_meters":26400,"station_id":"ce4bgih2rcd13ifvqba0","pricing_plan_id":"free"},{"bike_id":"ed662519-6dfa-4817-86da-76238a458fd1","system_id":"levelo_inurba_marseille","lat":43.29529,"lon":5.385581,"is_reserved":false,"is_disabled":false,"rental_uris":{"android":"levelo://app?vid=ed662519-6dfa-4817-86da-76238a458fd1","ios":"levelo://app?vid=ed662519-6dfa-4817-86da-76238a458fd1"},"vehicle_type_id":"4","last_reported":1683569294,"current_range_meters":30400,"station_id":"ce4bgih2rcd13ifvqba0","pricing_plan_id":"free"},{"bike_id":"e4df78f3-a8b0-44b9-a5a2-aede7b14baf7","system_id":"levelo_inurba_marseille","lat":43.309038,"lon":5.396546,"is_reserved":false,"is_disabled":false,"rental_uris":{"android":"levelo://app?vid=e4df78f3-a8b0-44b9-a5a2-aede7b14baf7","ios":"levelo://app?vid=e4df78f3-a8b0-44b9-a5a2-aede7b14baf7"},"vehicle_type_id":"4","last_reported":1683569294,"current_range_meters":16000,"station_id":"ce4bh012rcd13ifvqcv0","pricing_plan_id":"free"},{"bike_id":"d1b7d77b-0eaa-4398-a779-d06c3caaa2b6","system_id":"levelo_inurba_marseille","lat":43.29529,"lon":5.385581,"is_reserved":false,"is_disabled":false,"rental_uris":{"android":"levelo://app?vid=d1b7d77b-0eaa-4398-a779-d06c3caaa2b6","ios":"levelo://app?vid=d1b7d77b-0eaa-4398-a779-d06c3caaa2b6"},"vehicle_type_id":"4","last_reported":1683569294,"current_range_meters":31200,"station_id":"ce4bgih2rcd13ifvqba0","pricing_plan_id":"free"},{"bike_id":"563519ee-08cd-4248-bad9-9086201937ca","system_id":"levelo_inurba_marseille","lat":43.29529,"lon":5.385581,"is_reserved":false,"is_disabled":false,"rental_uris":{"android":"levelo://app?vid=563519ee-08cd-4248-bad9-9086201937ca","ios":"levelo://app?vid=563519ee-08cd-4248-bad9-9086201937ca"},"vehicle_type_id":"4","last_reported":1683569294,"current_range_meters":22400,"station_id":"ce4bgih2rcd13ifvqba0","pricing_plan_id":"free"},{"bike_id":"3f31b4bb-6edd-41ae-ba93-4b0ba2699799","system_id":"levelo_inurba_marseille","lat":43.29529,"lon":5.385581,"is_reserved":false,"is_disabled":false,"rental_uris":{"android":"levelo://app?vid=3f31b4bb-6edd-41ae-ba93-4b0ba2699799","ios":"levelo://app?vid=3f31b4bb-6edd-41ae-ba93-4b0ba2699799"},"vehicle_type_id":"4","last_reported":1683569294,"current_range_meters":7200,"station_id":"ce4bgih2rcd13ifvqba0","pricing_plan_id":"free"},{"bike_id":"cdd6e6a3-38b2-4d65-8875-a06f96748f22","system_id":"levelo_inurba_marseille","lat":43.29529,"lon":5.385581,"is_reserved":false,"is_disabled":false,"rental_uris":{"android":"levelo://app?vid=cdd6e6a3-38b2-4d65-8875-a06f96748f22","ios":"levelo://app?vid=cdd6e6a3-38b2-4d65-8875-a06f96748f22"},"vehicle_type_id":"4","last_reported":1683569294,"current_range_meters":14000,"station_id":"ce4bgih2rcd13ifvqba0","pricing_plan_id":"free"},{"bike_id":"85647ec9-4241-4cfe-97ed-a23c6cb5e294","system_id":"levelo_inurba_marseille","lat":43.29529,"lon":5.385581,"is_reserved":false,"is_disabled":false,"rental_uris":{"android":"levelo://app?vid=85647ec9-4241-4cfe-97ed-a23c6cb5e294","ios":"levelo://app?vid=85647ec9-4241-4cfe-97ed-a23c6cb5e294"},"vehicle_type_id":"4","last_reported":1683569294,"current_range_meters":800,"station_id":"ce4bgih2rcd13ifvqba0","pricing_plan_id":"free"},{"bike_id":"9992e20a-d12a-4733-b64c-de90051ef2d9","system_id":"levelo_inurba_marseille","lat":43.29529,"lon":5.385581,"is_reserved":false,"is_disabled":false,"rental_uris":{"android":"levelo://app?vid=9992e20a-d12a-4733-b64c-de90051ef2d9","ios":"levelo://app?vid=9992e20a-d12a-4733-b64c-de90051ef2d9"},"vehicle_type_id":"4","last_reported":1683569294,"current_range_meters":26400,"station_id":"ce4bgih2rcd13ifvqba0","pricing_plan_id":"free"},{"bike_id":"a686e6d3-b303-4d52-ac69-25b5cc13c43f","system_id":"levelo_inurba_marseille","lat":43.29529,"lon":5.385581,"is_reserved":false,"is_disabled":false,"rental_uris":{"android":"levelo://app?vid=a686e6d3-b303-4d52-ac69-25b5cc13c43f","ios":"levelo://app?vid=a686e6d3-b303-4d52-ac69-25b5cc13c43f"},"vehicle_type_id":"4","last_reported":1683569294,"current_range_meters":28000,"station_id":"ce4bgih2rcd13ifvqba0","pricing_plan_id":"free"},{"bike_id":"b518633d-e4b1-4590-b4ca-30a244c98d10","system_id":"levelo_inurba_marseille","lat":43.29529,"lon":5.385581,"is_reserved":false,"is_disabled":false,"rental_uris":{"android":"levelo://app?vid=b518633d-e4b1-4590-b4ca-30a244c98d10","ios":"levelo://app?vid=b518633d-e4b1-4590-b4ca-30a244c98d10"},"vehicle_type_id":"4","last_reported":1683569294,"current_range_meters":5200,"station_id":"ce4bgih2rcd13ifvqba0","pricing_plan_id":"free"},{"bike_id":"abcd74a8-8a81-4964-8302-be8ceb11492a","system_id":"levelo_inurba_marseille","lat":43.290779,"lon":5.371482,"is_reserved":false,"is_disabled":false,"rental_uris":{"android":"levelo://app?vid=abcd74a8-8a81-4964-8302-be8ceb11492a","ios":"levelo://app?vid=abcd74a8-8a81-4964-8302-be8ceb11492a"},"vehicle_type_id":"4","last_reported":1683569294,"current_range_meters":20400,"station_id":"ce4bh5p2rcd13ifvqe4g","pricing_plan_id":"free"},{"bike_id":"0379ed97-891c-4d29-bd93-f5280b044ec3","system_id":"levelo_inurba_marseille","lat":43.302008,"lon":5.394694,"is_reserved":false,"is_disabled":false,"rental_uris":{"android":"levelo://app?vid=0379ed97-891c-4d29-bd93-f5280b044ec3","ios":"levelo://app?vid=0379ed97-891c-4d29-bd93-f5280b044ec3"},"vehicle_type_id":"4","last_reported":1683569294,"current_range_meters":8000,"station_id":"ce4bh0p2rcd13ifvqd70","pricing_plan_id":"free"},{"bike_id":"0c70f3c5-cc69-45ce-b55b-421092ab205b","system_id":"levelo_inurba_marseille","lat":43.302008,"lon":5.394694,"is_reserved":false,"is_disabled":false,"rental_uris":{"android":"levelo://app?vid=0c70f3c5-cc69-45ce-b55b-421092ab205b","ios":"levelo://app?vid=0c70f3c5-cc69-45ce-b55b-421092ab205b"},"vehicle_type_id":"4","last_reported":1683569294,"current_range_meters":8400,"station_id":"ce4bh0p2rcd13ifvqd70","pricing_plan_id":"free"},{"bike_id":"42e4736b-feb6-4572-8634-247cd3dc213d","system_id":"levelo_inurba_marseille","lat":43.29425,"lon":5.38622,"is_reserved":false,"is_disabled":false,"rental_uris":{"android":"levelo://app?vid=42e4736b-feb6-4572-8634-247cd3dc213d","ios":"levelo://app?vid=42e4736b-feb6-4572-8634-247cd3dc213d"},"vehicle_type_id":"4","last_reported":1683569294,"current_range_meters":28400,"station_id":"ce4bh2h2rcd13ifvqdh0","pricing_plan_id":"free"},{"bike_id":"33f19d90-8831-4b02-ae21-a45d39e365df","system_id":"levelo_inurba_marseille","lat":43.29422,"lon":5.38619,"is_reserved":false,"is_disabled":false,"rental_uris":{"android":"levelo://app?vid=33f19d90-8831-4b02-ae21-a45d39e365df","ios":"levelo://app?vid=33f19d90-8831-4b02-ae21-a45d39e365df"},"vehicle_type_id":"4","last_reported":1683569294,"current_range_meters":17600,"station_id":"ce4bh2h2rcd13ifvqdh0","pricing_plan_id":"free"},{"bike_id":"a4d27612-91c1-4ff7-bcaf-b30faac93b91","system_id":"levelo_inurba_marseille","lat":43.290327,"lon":5.375711,"is_reserved":false,"is_disabled":false,"rental_uris":{"android":"levelo://app?vid=a4d27612-91c1-4ff7-bcaf-b30faac93b91","ios":"levelo://app?vid=a4d27612-91c1-4ff7-bcaf-b30faac93b91"},"vehicle_type_id":"4","last_reported":1683569294,"current_range_meters":400,"station_id":"ce4bh692rcd13ifvqe90","pricing_plan_id":"free"},{"bike_id":"412e8876-f85a-4a28-8101-929639283154","system_id":"levelo_inurba_marseille","lat":43.294162,"lon":5.386292,"is_reserved":false,"is_disabled":false,"rental_uris":{"android":"levelo://app?vid=412e8876-f85a-4a28-8101-929639283154","ios":"levelo://app?vid=412e8876-f85a-4a28-8101-929639283154"},"vehicle_type_id":"4","last_reported":1683569294,"current_range_meters":23200,"station_id":"ce4bh2h2rcd13ifvqdh0","pricing_plan_id":"free"},{"bike_id":"407e0e95-4266-48e1-be76-9f2cab521c36","system_id":"levelo_inurba_marseille","lat":43.290319,"lon":5.375732,"is_reserved":false,"is_disabled":false,"rental_uris":{"android":"levelo://app?vid=407e0e95-4266-48e1-be76-9f2cab521c36","ios":"levelo://app?vid=407e0e95-4266-48e1-be76-9f2cab521c36"},"vehicle_type_id":"4","last_reported":1683569294,"current_range_meters":10400,"station_id":"ce4bh692rcd13ifvqe90","pricing_plan_id":"free"},{"bike_id":"f860820c-8b94-40e5-8742-49d2ec5c3b74","system_id":"levelo_inurba_marseille","lat":43.294162,"lon":5.386292,"is_reserved":false,"is_disabled":false,"rental_uris":{"android":"levelo://app?vid=f860820c-8b94-40e5-8742-49d2ec5c3b74","ios":"levelo://app?vid=f860820c-8b94-40e5-8742-49d2ec5c3b74"},"vehicle_type_id":"4","last_reported":1683569294,"current_range_meters":5600,"station_id":"ce4bh2h2rcd13ifvqdh0","pricing_plan_id":"free"},{"bike_id":"db9eb8ee-8c0c-4dac-99a9-46a9bd02083b","system_id":"levelo_inurba_marseille","lat":43.294162,"lon":5.386292,"is_reserved":false,"is_disabled":false,"rental_uris":{"android":"levelo://app?vid=db9eb8ee-8c0c-4dac-99a9-46a9bd02083b","ios":"levelo://app?vid=db9eb8ee-8c0c-4dac-99a9-46a9bd02083b"},"vehicle_type_id":"4","last_reported":1683569294,"current_range_meters":4400,"station_id":"ce4bh2h2rcd13ifvqdh0","pricing_plan_id":"free"},{"bike_id":"27c4ec7c-6f9b-4d41-ae6c-db923372edc2","system_id":"levelo_inurba_marseille","lat":43.294162,"lon":5.386292,"is_reserved":false,"is_disabled":false,"rental_uris":{"android":"levelo://app?vid=27c4ec7c-6f9b-4d41-ae6c-db923372edc2","ios":"levelo://app?vid=27c4ec7c-6f9b-4d41-ae6c-db923372edc2"},"vehicle_type_id":"4","last_reported":1683569294,"current_range_meters":10000,"station_id":"ce4bh2h2rcd13ifvqdh0","pricing_plan_id":"free"},{"bike_id":"9846ea2a-9af2-47b9-bbd0-5ef390fb810c","system_id":"levelo_inurba_marseille","lat":43.29418,"lon":5.38624,"is_reserved":false,"is_disabled":false,"rental_uris":{"android":"levelo://app?vid=9846ea2a-9af2-47b9-bbd0-5ef390fb810c","ios":"levelo://app?vid=9846ea2a-9af2-47b9-bbd0-5ef390fb810c"},"vehicle_type_id":"4","last_reported":1683569294,"current_range_meters":5200,"station_id":"ce4bh2h2rcd13ifvqdh0","pricing_plan_id":"free"},{"bike_id":"c957cb95-9b9c-49dd-ba56-7dbc6e160fa9","system_id":"levelo_inurba_marseille","lat":43.289184,"lon":5.366408,"is_reserved":false,"is_disabled":false,"rental_uris":{"android":"levelo://app?vid=c957cb95-9b9c-49dd-ba56-7dbc6e160fa9","ios":"levelo://app?vid=c957cb95-9b9c-49dd-ba56-7dbc6e160fa9"},"vehicle_type_id":"4","last_reported":1683569294,"current_range_meters":22800,"station_id":"ce4bhap2rcd13ifvqek0","pricing_plan_id":"free"},{"bike_id":"6ff81f4a-eb5e-4337-af31-1c2c46308c55","system_id":"levelo_inurba_marseille","lat":43.289184,"lon":5.366408,"is_reserved":false,"is_disabled":false,"rental_uris":{"android":"levelo://app?vid=6ff81f4a-eb5e-4337-af31-1c2c46308c55","ios":"levelo://app?vid=6ff81f4a-eb5e-4337-af31-1c2c46308c55"},"vehicle_type_id":"4","last_reported":1683569294,"current_range_meters":4000,"station_id":"ce4bhap2rcd13ifvqek0","pricing_plan_id":"free"},{"bike_id":"18aa1820-c3c3-4ebe-935b-6bd71b0ab5c1","system_id":"levelo_inurba_marseille","lat":43.294162,"lon":5.386292,"is_reserved":false,"is_disabled":false,"rental_uris":{"android":"levelo://app?vid=18aa1820-c3c3-4ebe-935b-6bd71b0ab5c1","ios":"levelo://app?vid=18aa1820-c3c3-4ebe-935b-6bd71b0ab5c1"},"vehicle_type_id":"4","last_reported":1683569294,"current_range_meters":3600,"station_id":"ce4bh2h2rcd13ifvqdh0","pricing_plan_id":"free"},{"bike_id":"16a6c2c6-e8c0-4350-b741-acbe93394046","system_id":"levelo_inurba_marseille","lat":43.294162,"lon":5.386292,"is_reserved":false,"is_disabled":false,"rental_uris":{"android":"levelo://app?vid=16a6c2c6-e8c0-4350-b741-acbe93394046","ios":"levelo://app?vid=16a6c2c6-e8c0-4350-b741-acbe93394046"},"vehicle_type_id":"4","last_reported":1683569294,"current_range_meters":27600,"station_id":"ce4bh2h2rcd13ifvqdh0","pricing_plan_id":"free"},{"bike_id":"1b8144b9-db2f-4b16-8903-e77b5abd4a06","system_id":"levelo_inurba_marseille","lat":43.29414,"lon":5.38623,"is_reserved":false,"is_disabled":false,"rental_uris":{"android":"levelo://app?vid=1b8144b9-db2f-4b16-8903-e77b5abd4a06","ios":"levelo://app?vid=1b8144b9-db2f-4b16-8903-e77b5abd4a06"},"vehicle_type_id":"4","last_reported":1683569294,"current_range_meters":8400,"station_id":"ce4bh2h2rcd13ifvqdh0","pricing_plan_id":"free"},{"bike_id":"846ae65a-773f-4c08-9088-eebf5e6cbe13","system_id":"levelo_inurba_marseille","lat":43.294162,"lon":5.386292,"is_reserved":false,"is_disabled":false,"rental_uris":{"android":"levelo://app?vid=846ae65a-773f-4c08-9088-eebf5e6cbe13","ios":"levelo://app?vid=846ae65a-773f-4c08-9088-eebf5e6cbe13"},"vehicle_type_id":"4","last_reported":1683569294,"current_range_meters":2000,"station_id":"ce4bh2h2rcd13ifvqdh0","pricing_plan_id":"free"},{"bike_id":"1de33a5b-fd8a-4a91-bb78-c16244b62329","system_id":"levelo_inurba_marseille","lat":43.294162,"lon":5.386292,"is_reserved":false,"is_disabled":false,"rental_uris":{"android":"levelo://app?vid=1de33a5b-fd8a-4a91-bb78-c16244b62329","ios":"levelo://app?vid=1de33a5b-fd8a-4a91-bb78-c16244b62329"},"vehicle_type_id":"4","last_reported":1683569294,"current_range_meters":18000,"station_id":"ce4bh2h2rcd13ifvqdh0","pricing_plan_id":"free"},{"bike_id":"cc844d38-caa7-4bd3-8faf-f72aa8ed8d73","system_id":"levelo_inurba_marseille","lat":43.289184,"lon":5.366408,"is_reserved":false,"is_disabled":false,"rental_uris":{"android":"levelo://app?vid=cc844d38-caa7-4bd3-8faf-f72aa8ed8d73","ios":"levelo://app?vid=cc844d38-caa7-4bd3-8faf-f72aa8ed8d73"},"vehicle_type_id":"4","last_reported":1683569294,"current_range_meters":16800,"station_id":"ce4bhap2rcd13ifvqek0","pricing_plan_id":"free"},{"bike_id":"89f333b9-efaa-46bd-b28a-3cdb2c584912","system_id":"levelo_inurba_marseille","lat":43.292621,"lon":5.384328,"is_reserved":false,"is_disabled":false,"rental_uris":{"android":"levelo://app?vid=89f333b9-efaa-46bd-b28a-3cdb2c584912","ios":"levelo://app?vid=89f333b9-efaa-46bd-b28a-3cdb2c584912"},"vehicle_type_id":"4","last_reported":1683569294,"current_range_meters":21200,"station_id":"ce4bh692rcd13ifvqea0","pricing_plan_id":"free"},{"bike_id":"577c74b4-bc3c-4cf3-a5ae-d39de8017fb6","system_id":"levelo_inurba_marseille","lat":43.295169,"lon":5.390426,"is_reserved":false,"is_disabled":false,"rental_uris":{"android":"levelo://app?vid=577c74b4-bc3c-4cf3-a5ae-d39de8017fb6","ios":"levelo://app?vid=577c74b4-bc3c-4cf3-a5ae-d39de8017fb6"},"vehicle_type_id":"4","last_reported":1683569294,"current_range_meters":23200,"station_id":"ce4bh3p2rcd13ifvqdp0","pricing_plan_id":"free"},{"bike_id":"900543c1-ba77-4615-8f9b-f04944156c0b","system_id":"levelo_inurba_marseille","lat":43.33041,"lon":5.38917,"is_reserved":false,"is_disabled":false,"rental_uris":{"android":"levelo://app?vid=900543c1-ba77-4615-8f9b-f04944156c0b","ios":"levelo://app?vid=900543c1-ba77-4615-8f9b-f04944156c0b"},"vehicle_type_id":"4","last_reported":1683569294,"current_range_meters":4400,"station_id":"ce4bhr92rcd13ifvqhrg","pricing_plan_id":"free"},{"bike_id":"fba4825a-c3ad-4e1b-8a8f-3b5dd322bb5f","system_id":"levelo_inurba_marseille","lat":43.33044,"lon":5.38916,"is_reserved":false,"is_disabled":false,"rental_uris":{"android":"levelo://app?vid=fba4825a-c3ad-4e1b-8a8f-3b5dd322bb5f","ios":"levelo://app?vid=fba4825a-c3ad-4e1b-8a8f-3b5dd322bb5f"},"vehicle_type_id":"4","last_reported":1683569294,"current_range_meters":1200,"station_id":"ce4bhr92rcd13ifvqhrg","pricing_plan_id":"free"},{"bike_id":"c80426be-83d3-4e57-a092-befe7b8a7a79","system_id":"levelo_inurba_marseille","lat":43.33045,"lon":5.38916,"is_reserved":false,"is_disabled":false,"rental_uris":{"android":"levelo://app?vid=c80426be-83d3-4e57-a092-befe7b8a7a79","ios":"levelo://app?vid=c80426be-83d3-4e57-a092-befe7b8a7a79"},"vehicle_type_id":"4","last_reported":1683569294,"current_range_meters":24800,"station_id":"ce4bhr92rcd13ifvqhrg","pricing_plan_id":"free"},{"bike_id":"2c4d1fc8-5966-49f2-8d08-251e531c7e7f","system_id":"levelo_inurba_marseille","lat":43.33045,"lon":5.38917,"is_reserved":false,"is_disabled":false,"rental_uris":{"android":"levelo://app?vid=2c4d1fc8-5966-49f2-8d08-251e531c7e7f","ios":"levelo://app?vid=2c4d1fc8-5966-49f2-8d08-251e531c7e7f"},"vehicle_type_id":"4","last_reported":1683569294,"current_range_meters":24400,"station_id":"ce4bhr92rcd13ifvqhrg","pricing_plan_id":"free"},{"bike_id":"72f7fdc7-4763-479b-a34e-f238ca3cd360","system_id":"levelo_inurba_marseille","lat":43.33046,"lon":5.38918,"is_reserved":false,"is_disabled":false,"rental_uris":{"android":"levelo://app?vid=72f7fdc7-4763-479b-a34e-f238ca3cd360","ios":"levelo://app?vid=72f7fdc7-4763-479b-a34e-f238ca3cd360"},"vehicle_type_id":"4","last_reported":1683569294,"current_range_meters":25600,"station_id":"ce4bhr92rcd13ifvqhrg","pricing_plan_id":"free"},{"bike_id":"0f789c79-226b-4c8f-ab80-8dbe22335ac0","system_id":"levelo_inurba_marseille","lat":43.290995,"lon":5.381361,"is_reserved":false,"is_disabled":false,"rental_uris":{"android":"levelo://app?vid=0f789c79-226b-4c8f-ab80-8dbe22335ac0","ios":"levelo://app?vid=0f789c79-226b-4c8f-ab80-8dbe22335ac0"},"vehicle_type_id":"4","last_reported":1683569294,"current_range_meters":400,"station_id":"ce4bh512rcd13ifvqe2g","pricing_plan_id":"free"},{"bike_id":"305be4de-286b-40f1-bf9e-858adb0bdec5","system_id":"levelo_inurba_marseille","lat":43.292663,"lon":5.376394,"is_reserved":false,"is_disabled":false,"rental_uris":{"android":"levelo://app?vid=305be4de-286b-40f1-bf9e-858adb0bdec5","ios":"levelo://app?vid=305be4de-286b-40f1-bf9e-858adb0bdec5"},"vehicle_type_id":"4","last_reported":1683569294,"current_range_meters":800,"station_id":"ce4bgi12rcd13ifvqb80","pricing_plan_id":"free"},{"bike_id":"b188a9e8-a753-4b5d-8ae2-425902d8082e","system_id":"levelo_inurba_marseille","lat":43.295169,"lon":5.390426,"is_reserved":false,"is_disabled":false,"rental_uris":{"android":"levelo://app?vid=b188a9e8-a753-4b5d-8ae2-425902d8082e","ios":"levelo://app?vid=b188a9e8-a753-4b5d-8ae2-425902d8082e"},"vehicle_type_id":"4","last_reported":1683569294,"current_range_meters":6800,"station_id":"ce4bh3p2rcd13ifvqdp0","pricing_plan_id":"free"},{"bike_id":"3510807f-f7a1-4fbc-9071-251b6b65669f","system_id":"levelo_inurba_marseille","lat":43.295169,"lon":5.390426,"is_reserved":false,"is_disabled":false,"rental_uris":{"android":"levelo://app?vid=3510807f-f7a1-4fbc-9071-251b6b65669f","ios":"levelo://app?vid=3510807f-f7a1-4fbc-9071-251b6b65669f"},"vehicle_type_id":"4","last_reported":1683569294,"current_range_meters":16400,"station_id":"ce4bh3p2rcd13ifvqdp0","pricing_plan_id":"free"},{"bike_id":"bc2f2d8e-3d91-4b4d-ac28-73db59aaea6f","system_id":"levelo_inurba_marseille","lat":43.295169,"lon":5.390426,"is_reserved":false,"is_disabled":false,"rental_uris":{"android":"levelo://app?vid=bc2f2d8e-3d91-4b4d-ac28-73db59aaea6f","ios":"levelo://app?vid=bc2f2d8e-3d91-4b4d-ac28-73db59aaea6f"},"vehicle_type_id":"4","last_reported":1683569294,"current_range_meters":15200,"station_id":"ce4bh3p2rcd13ifvqdp0","pricing_plan_id":"free"},{"bike_id":"18e34af4-fffa-480a-b075-dbc703c1d151","system_id":"levelo_inurba_marseille","lat":43.29528,"lon":5.39031,"is_reserved":false,"is_disabled":false,"rental_uris":{"android":"levelo://app?vid=18e34af4-fffa-480a-b075-dbc703c1d151","ios":"levelo://app?vid=18e34af4-fffa-480a-b075-dbc703c1d151"},"vehicle_type_id":"4","last_reported":1683569294,"current_range_meters":8800,"station_id":"ce4bh3p2rcd13ifvqdp0","pricing_plan_id":"free"},{"bike_id":"dd8c85d1-1893-43dd-9f60-6529364c14a1","system_id":"levelo_inurba_marseille","lat":43.295169,"lon":5.390426,"is_reserved":false,"is_disabled":false,"rental_uris":{"android":"levelo://app?vid=dd8c85d1-1893-43dd-9f60-6529364c14a1","ios":"levelo://app?vid=dd8c85d1-1893-43dd-9f60-6529364c14a1"},"vehicle_type_id":"4","last_reported":1683569294,"current_range_meters":17600,"station_id":"ce4bh3p2rcd13ifvqdp0","pricing_plan_id":"free"},{"bike_id":"fc20990b-b72e-4f54-9e24-2161a47b454b","system_id":"levelo_inurba_marseille","lat":43.295169,"lon":5.390426,"is_reserved":false,"is_disabled":false,"rental_uris":{"android":"levelo://app?vid=fc20990b-b72e-4f54-9e24-2161a47b454b","ios":"levelo://app?vid=fc20990b-b72e-4f54-9e24-2161a47b454b"},"vehicle_type_id":"4","last_reported":1683569294,"current_range_meters":26400,"station_id":"ce4bh3p2rcd13ifvqdp0","pricing_plan_id":"free"},{"bike_id":"6a3a492a-1236-42c1-8bb7-feb21345b5e0","system_id":"levelo_inurba_marseille","lat":43.2901,"lon":5.381269,"is_reserved":false,"is_disabled":false,"rental_uris":{"android":"levelo://app?vid=6a3a492a-1236-42c1-8bb7-feb21345b5e0","ios":"levelo://app?vid=6a3a492a-1236-42c1-8bb7-feb21345b5e0"},"vehicle_type_id":"4","last_reported":1683569294,"current_range_meters":9600,"station_id":"ce4bh4p2rcd13ifvqe1g","pricing_plan_id":"free"},{"bike_id":"be636aee-f129-4f16-b8e4-cc562e873750","system_id":"levelo_inurba_marseille","lat":43.289741,"lon":5.378306,"is_reserved":false,"is_disabled":false,"rental_uris":{"android":"levelo://app?vid=be636aee-f129-4f16-b8e4-cc562e873750","ios":"levelo://app?vid=be636aee-f129-4f16-b8e4-cc562e873750"},"vehicle_type_id":"4","last_reported":1683569294,"current_range_meters":30400,"station_id":"ce4bh9p2rcd13ifvqed0","pricing_plan_id":"free"},{"bike_id":"78725f08-8d42-4f1a-9002-0d0b35dc7efd","system_id":"levelo_inurba_marseille","lat":43.33751,"lon":5.37441,"is_reserved":false,"is_disabled":false,"rental_uris":{"android":"levelo://app?vid=78725f08-8d42-4f1a-9002-0d0b35dc7efd","ios":"levelo://app?vid=78725f08-8d42-4f1a-9002-0d0b35dc7efd"},"vehicle_type_id":"4","last_reported":1683569294,"current_range_meters":14000,"station_id":"","pricing_plan_id":"free"},{"bike_id":"7c7fe969-ca3b-4e6a-9b0a-6e22bc5df003","system_id":"levelo_inurba_marseille","lat":43.33757,"lon":5.3743,"is_reserved":false,"is_disabled":false,"rental_uris":{"android":"levelo://app?vid=7c7fe969-ca3b-4e6a-9b0a-6e22bc5df003","ios":"levelo://app?vid=7c7fe969-ca3b-4e6a-9b0a-6e22bc5df003"},"vehicle_type_id":"4","last_reported":1683569294,"current_range_meters":31200,"station_id":"ce4rr2p2rcd13i802rgg","pricing_plan_id":"free"},{"bike_id":"3be8f928-1ebf-42b1-87d7-220a02387f80","system_id":"levelo_inurba_marseille","lat":43.30643,"lon":5.40098,"is_reserved":false,"is_disabled":false,"rental_uris":{"android":"levelo://app?vid=3be8f928-1ebf-42b1-87d7-220a02387f80","ios":"levelo://app?vid=3be8f928-1ebf-42b1-87d7-220a02387f80"},"vehicle_type_id":"4","last_reported":1683569294,"current_range_meters":5600,"station_id":"","pricing_plan_id":"free"},{"bike_id":"5518e36c-d11c-43c3-87d9-403a2a800f9c","system_id":"levelo_inurba_marseille","lat":43.301117,"lon":5.398795,"is_reserved":false,"is_disabled":false,"rental_uris":{"android":"levelo://app?vid=5518e36c-d11c-43c3-87d9-403a2a800f9c","ios":"levelo://app?vid=5518e36c-d11c-43c3-87d9-403a2a800f9c"},"vehicle_type_id":"4","last_reported":1683569294,"current_range_meters":26000,"station_id":"ce4bh0h2rcd13ifvqd40","pricing_plan_id":"free"},{"bike_id":"32e68baa-c670-4eea-b44b-21a67f62175c","system_id":"levelo_inurba_marseille","lat":43.301117,"lon":5.398795,"is_reserved":false,"is_disabled":false,"rental_uris":{"android":"levelo://app?vid=32e68baa-c670-4eea-b44b-21a67f62175c","ios":"levelo://app?vid=32e68baa-c670-4eea-b44b-21a67f62175c"},"vehicle_type_id":"4","last_reported":1683569294,"current_range_meters":2000,"station_id":"ce4bh0h2rcd13ifvqd40","pricing_plan_id":"free"},{"bike_id":"2bc5e800-af2c-4409-b008-30004a73afab","system_id":"levelo_inurba_marseille","lat":43.301117,"lon":5.398795,"is_reserved":false,"is_disabled":false,"rental_uris":{"android":"levelo://app?vid=2bc5e800-af2c-4409-b008-30004a73afab","ios":"levelo://app?vid=2bc5e800-af2c-4409-b008-30004a73afab"},"vehicle_type_id":"4","last_reported":1683569294,"current_range_meters":18000,"station_id":"ce4bh0h2rcd13ifvqd40","pricing_plan_id":"free"},{"bike_id":"31c519be-4b56-485c-aed8-f701ba1fb58d","system_id":"levelo_inurba_marseille","lat":43.301117,"lon":5.398795,"is_reserved":false,"is_disabled":false,"rental_uris":{"android":"levelo://app?vid=31c519be-4b56-485c-aed8-f701ba1fb58d","ios":"levelo://app?vid=31c519be-4b56-485c-aed8-f701ba1fb58d"},"vehicle_type_id":"4","last_reported":1683569294,"current_range_meters":22800,"station_id":"ce4bh0h2rcd13ifvqd40","pricing_plan_id":"free"},{"bike_id":"d860e650-c532-444e-95b1-4e172d9c2f92","system_id":"levelo_inurba_marseille","lat":43.298681,"lon":5.397225,"is_reserved":false,"is_disabled":false,"rental_uris":{"android":"levelo://app?vid=d860e650-c532-444e-95b1-4e172d9c2f92","ios":"levelo://app?vid=d860e650-c532-444e-95b1-4e172d9c2f92"},"vehicle_type_id":"4","last_reported":1683569294,"current_range_meters":29200,"station_id":"ce4bh0h2rcd13ifvqd50","pricing_plan_id":"free"},{"bike_id":"62c19174-800a-4ec3-97ea-1a75587c5049","system_id":"levelo_inurba_marseille","lat":43.298681,"lon":5.397225,"is_reserved":false,"is_disabled":false,"rental_uris":{"android":"levelo://app?vid=62c19174-800a-4ec3-97ea-1a75587c5049","ios":"levelo://app?vid=62c19174-800a-4ec3-97ea-1a75587c5049"},"vehicle_type_id":"4","last_reported":1683569294,"current_range_meters":18400,"station_id":"ce4bh0h2rcd13ifvqd50","pricing_plan_id":"free"},{"bike_id":"e01e0504-8f28-4b24-b937-c5b09fc7c79a","system_id":"levelo_inurba_marseille","lat":43.298681,"lon":5.397225,"is_reserved":false,"is_disabled":false,"rental_uris":{"android":"levelo://app?vid=e01e0504-8f28-4b24-b937-c5b09fc7c79a","ios":"levelo://app?vid=e01e0504-8f28-4b24-b937-c5b09fc7c79a"},"vehicle_type_id":"4","last_reported":1683569294,"current_range_meters":24400,"station_id":"ce4bh0h2rcd13ifvqd50","pricing_plan_id":"free"},{"bike_id":"a102ff74-b0eb-4c62-95fc-cb598f4ac12b","system_id":"levelo_inurba_marseille","lat":43.298681,"lon":5.397225,"is_reserved":false,"is_disabled":false,"rental_uris":{"android":"levelo://app?vid=a102ff74-b0eb-4c62-95fc-cb598f4ac12b","ios":"levelo://app?vid=a102ff74-b0eb-4c62-95fc-cb598f4ac12b"},"vehicle_type_id":"4","last_reported":1683569294,"current_range_meters":19200,"station_id":"ce4bh0h2rcd13ifvqd50","pricing_plan_id":"free"},{"bike_id":"21fd4991-eba0-4b16-8304-09f779322b2e","system_id":"levelo_inurba_marseille","lat":43.298681,"lon":5.397225,"is_reserved":false,"is_disabled":false,"rental_uris":{"android":"levelo://app?vid=21fd4991-eba0-4b16-8304-09f779322b2e","ios":"levelo://app?vid=21fd4991-eba0-4b16-8304-09f779322b2e"},"vehicle_type_id":"4","last_reported":1683569294,"current_range_meters":31200,"station_id":"ce4bh0h2rcd13ifvqd50","pricing_plan_id":"free"},{"bike_id":"f40e982e-e6f7-4cf6-b093-edceffa48711","system_id":"levelo_inurba_marseille","lat":43.298681,"lon":5.397225,"is_reserved":false,"is_disabled":false,"rental_uris":{"android":"levelo://app?vid=f40e982e-e6f7-4cf6-b093-edceffa48711","ios":"levelo://app?vid=f40e982e-e6f7-4cf6-b093-edceffa48711"},"vehicle_type_id":"4","last_reported":1683569294,"current_range_meters":23200,"station_id":"ce4bh0h2rcd13ifvqd50","pricing_plan_id":"free"},{"bike_id":"2c73bd9d-7d90-476b-8923-736bc1cd0bbe","system_id":"levelo_inurba_marseille","lat":43.298681,"lon":5.397225,"is_reserved":false,"is_disabled":false,"rental_uris":{"android":"levelo://app?vid=2c73bd9d-7d90-476b-8923-736bc1cd0bbe","ios":"levelo://app?vid=2c73bd9d-7d90-476b-8923-736bc1cd0bbe"},"vehicle_type_id":"4","last_reported":1683569294,"current_range_meters":29600,"station_id":"ce4bh0h2rcd13ifvqd50","pricing_plan_id":"free"},{"bike_id":"d27ef292-8052-4dfb-b785-db62eb192aff","system_id":"levelo_inurba_marseille","lat":43.298681,"lon":5.397225,"is_reserved":false,"is_disabled":false,"rental_uris":{"android":"levelo://app?vid=d27ef292-8052-4dfb-b785-db62eb192aff","ios":"levelo://app?vid=d27ef292-8052-4dfb-b785-db62eb192aff"},"vehicle_type_id":"4","last_reported":1683569294,"current_range_meters":30800,"station_id":"ce4bh0h2rcd13ifvqd50","pricing_plan_id":"free"},{"bike_id":"a4a5fad3-6cb4-4085-8922-23f8d32cf01e","system_id":"levelo_inurba_marseille","lat":43.298681,"lon":5.397225,"is_reserved":false,"is_disabled":false,"rental_uris":{"android":"levelo://app?vid=a4a5fad3-6cb4-4085-8922-23f8d32cf01e","ios":"levelo://app?vid=a4a5fad3-6cb4-4085-8922-23f8d32cf01e"},"vehicle_type_id":"4","last_reported":1683569294,"current_range_meters":13600,"station_id":"ce4bh0h2rcd13ifvqd50","pricing_plan_id":"free"},{"bike_id":"e4f446dc-8894-4469-9f4e-d7a80324155c","system_id":"levelo_inurba_marseille","lat":43.298681,"lon":5.397225,"is_reserved":false,"is_disabled":false,"rental_uris":{"android":"levelo://app?vid=e4f446dc-8894-4469-9f4e-d7a80324155c","ios":"levelo://app?vid=e4f446dc-8894-4469-9f4e-d7a80324155c"},"vehicle_type_id":"4","last_reported":1683569294,"current_range_meters":18000,"station_id":"ce4bh0h2rcd13ifvqd50","pricing_plan_id":"free"},{"bike_id":"55a11bd9-1501-4c33-ba0c-007cf2c927d1","system_id":"levelo_inurba_marseille","lat":43.29517,"lon":5.39399,"is_reserved":false,"is_disabled":false,"rental_uris":{"android":"levelo://app?vid=55a11bd9-1501-4c33-ba0c-007cf2c927d1","ios":"levelo://app?vid=55a11bd9-1501-4c33-ba0c-007cf2c927d1"},"vehicle_type_id":"4","last_reported":1683569294,"current_range_meters":6000,"station_id":"ce4bh292rcd13ifvqdf0","pricing_plan_id":"free"},{"bike_id":"28def054-93cf-45a7-88a2-fa07874b8d04","system_id":"levelo_inurba_marseille","lat":43.290345,"lon":5.38646,"is_reserved":false,"is_disabled":false,"rental_uris":{"android":"levelo://app?vid=28def054-93cf-45a7-88a2-fa07874b8d04","ios":"levelo://app?vid=28def054-93cf-45a7-88a2-fa07874b8d04"},"vehicle_type_id":"4","last_reported":1683569294,"current_range_meters":20000,"station_id":"ce4bh4p2rcd13ifvqe0g","pricing_plan_id":"free"},{"bike_id":"5d8e9d0e-ff00-4e6f-a9f3-002675cc963a","system_id":"levelo_inurba_marseille","lat":43.286039,"lon":5.370679,"is_reserved":false,"is_disabled":false,"rental_uris":{"android":"levelo://app?vid=5d8e9d0e-ff00-4e6f-a9f3-002675cc963a","ios":"levelo://app?vid=5d8e9d0e-ff00-4e6f-a9f3-002675cc963a"},"vehicle_type_id":"4","last_reported":1683569294,"current_range_meters":19600,"station_id":"ce4bht12rcd13ifvqi60","pricing_plan_id":"free"},{"bike_id":"c09ed9e6-5ff7-4551-96cf-d834ba882ca8","system_id":"levelo_inurba_marseille","lat":43.286039,"lon":5.370679,"is_reserved":false,"is_disabled":false,"rental_uris":{"android":"levelo://app?vid=c09ed9e6-5ff7-4551-96cf-d834ba882ca8","ios":"levelo://app?vid=c09ed9e6-5ff7-4551-96cf-d834ba882ca8"},"vehicle_type_id":"4","last_reported":1683569294,"current_range_meters":7200,"station_id":"ce4bht12rcd13ifvqi60","pricing_plan_id":"free"},{"bike_id":"9e89e1bb-febc-440e-a066-5e002950af11","system_id":"levelo_inurba_marseille","lat":43.286039,"lon":5.370679,"is_reserved":false,"is_disabled":false,"rental_uris":{"android":"levelo://app?vid=9e89e1bb-febc-440e-a066-5e002950af11","ios":"levelo://app?vid=9e89e1bb-febc-440e-a066-5e002950af11"},"vehicle_type_id":"4","last_reported":1683569294,"current_range_meters":20800,"station_id":"ce4bht12rcd13ifvqi60","pricing_plan_id":"free"},{"bike_id":"5692db15-3a41-4540-9a5a-ed21d8261cd9","system_id":"levelo_inurba_marseille","lat":43.286039,"lon":5.370679,"is_reserved":false,"is_disabled":false,"rental_uris":{"android":"levelo://app?vid=5692db15-3a41-4540-9a5a-ed21d8261cd9","ios":"levelo://app?vid=5692db15-3a41-4540-9a5a-ed21d8261cd9"},"vehicle_type_id":"4","last_reported":1683569294,"current_range_meters":5200,"station_id":"ce4bht12rcd13ifvqi60","pricing_plan_id":"free"},{"bike_id":"0cc68598-f5d0-4aa4-9e99-2d9c1f51a886","system_id":"levelo_inurba_marseille","lat":43.286039,"lon":5.370679,"is_reserved":false,"is_disabled":false,"rental_uris":{"android":"levelo://app?vid=0cc68598-f5d0-4aa4-9e99-2d9c1f51a886","ios":"levelo://app?vid=0cc68598-f5d0-4aa4-9e99-2d9c1f51a886"},"vehicle_type_id":"4","last_reported":1683569294,"current_range_meters":9200,"station_id":"ce4bht12rcd13ifvqi60","pricing_plan_id":"free"},{"bike_id":"48e650f9-d423-4617-aff2-dbacf4375b13","system_id":"levelo_inurba_marseille","lat":43.286039,"lon":5.370679,"is_reserved":false,"is_disabled":false,"rental_uris":{"android":"levelo://app?vid=48e650f9-d423-4617-aff2-dbacf4375b13","ios":"levelo://app?vid=48e650f9-d423-4617-aff2-dbacf4375b13"},"vehicle_type_id":"4","last_reported":1683569294,"current_range_meters":6800,"station_id":"ce4bht12rcd13ifvqi60","pricing_plan_id":"free"},{"bike_id":"c56749c3-d272-4843-90a2-f48972a1c742","system_id":"levelo_inurba_marseille","lat":43.286039,"lon":5.370681,"is_reserved":false,"is_disabled":false,"rental_uris":{"android":"levelo://app?vid=c56749c3-d272-4843-90a2-f48972a1c742","ios":"levelo://app?vid=c56749c3-d272-4843-90a2-f48972a1c742"},"vehicle_type_id":"4","last_reported":1683569294,"current_range_meters":22000,"station_id":"ce4bht12rcd13ifvqi60","pricing_plan_id":"free"},{"bike_id":"84d5f118-606e-48d6-b173-fa009e1430bd","system_id":"levelo_inurba_marseille","lat":43.28606,"lon":5.37064,"is_reserved":false,"is_disabled":false,"rental_uris":{"android":"levelo://app?vid=84d5f118-606e-48d6-b173-fa009e1430bd","ios":"levelo://app?vid=84d5f118-606e-48d6-b173-fa009e1430bd"},"vehicle_type_id":"4","last_reported":1683569294,"current_range_meters":3600,"station_id":"","pricing_plan_id":"free"},{"bike_id":"8ea8f85d-3eb7-4082-a8cc-7cc2f49a59f6","system_id":"levelo_inurba_marseille","lat":43.287184,"lon":5.37937,"is_reserved":false,"is_disabled":false,"rental_uris":{"android":"levelo://app?vid=8ea8f85d-3eb7-4082-a8cc-7cc2f49a59f6","ios":"levelo://app?vid=8ea8f85d-3eb7-4082-a8cc-7cc2f49a59f6"},"vehicle_type_id":"4","last_reported":1683569294,"current_range_meters":4800,"station_id":"ce4bh9p2rcd13ifvqec0","pricing_plan_id":"free"},{"bike_id":"ec4adfa9-7d30-438a-9428-727803aa2a36","system_id":"levelo_inurba_marseille","lat":43.291994,"lon":5.392907,"is_reserved":false,"is_disabled":false,"rental_uris":{"android":"levelo://app?vid=ec4adfa9-7d30-438a-9428-727803aa2a36","ios":"levelo://app?vid=ec4adfa9-7d30-438a-9428-727803aa2a36"},"vehicle_type_id":"4","last_reported":1683569294,"current_range_meters":27200,"station_id":"ce4bh192rcd13ifvqdd0","pricing_plan_id":"free"},{"bike_id":"f6c9f285-88dd-4a7e-a91e-1aab9d697c42","system_id":"levelo_inurba_marseille","lat":43.291994,"lon":5.392907,"is_reserved":false,"is_disabled":false,"rental_uris":{"android":"levelo://app?vid=f6c9f285-88dd-4a7e-a91e-1aab9d697c42","ios":"levelo://app?vid=f6c9f285-88dd-4a7e-a91e-1aab9d697c42"},"vehicle_type_id":"4","last_reported":1683569294,"current_range_meters":28000,"station_id":"ce4bh192rcd13ifvqdd0","pricing_plan_id":"free"},{"bike_id":"213af623-0f54-4a3d-b9ee-5138dced21de","system_id":"levelo_inurba_marseille","lat":43.291994,"lon":5.392907,"is_reserved":false,"is_disabled":false,"rental_uris":{"android":"levelo://app?vid=213af623-0f54-4a3d-b9ee-5138dced21de","ios":"levelo://app?vid=213af623-0f54-4a3d-b9ee-5138dced21de"},"vehicle_type_id":"4","last_reported":1683569294,"current_range_meters":12800,"station_id":"ce4bh192rcd13ifvqdd0","pricing_plan_id":"free"},{"bike_id":"9e56e3d7-5b14-43eb-bef1-5b6f559a4c6a","system_id":"levelo_inurba_marseille","lat":43.284534,"lon":5.358662,"is_reserved":false,"is_disabled":false,"rental_uris":{"android":"levelo://app?vid=9e56e3d7-5b14-43eb-bef1-5b6f559a4c6a","ios":"levelo://app?vid=9e56e3d7-5b14-43eb-bef1-5b6f559a4c6a"},"vehicle_type_id":"4","last_reported":1683569294,"current_range_meters":11200,"station_id":"ce4bhah2rcd13ifvqei0","pricing_plan_id":"free"},{"bike_id":"c3a3070c-6eb0-41ca-bac9-d5f94e7c0c22","system_id":"levelo_inurba_marseille","lat":43.284534,"lon":5.358662,"is_reserved":false,"is_disabled":false,"rental_uris":{"android":"levelo://app?vid=c3a3070c-6eb0-41ca-bac9-d5f94e7c0c22","ios":"levelo://app?vid=c3a3070c-6eb0-41ca-bac9-d5f94e7c0c22"},"vehicle_type_id":"4","last_reported":1683569294,"current_range_meters":16000,"station_id":"ce4bhah2rcd13ifvqei0","pricing_plan_id":"free"},{"bike_id":"068d2c39-67a0-4f69-8540-3afe1cd1def6","system_id":"levelo_inurba_marseille","lat":43.2861,"lon":5.35102,"is_reserved":false,"is_disabled":false,"rental_uris":{"android":"levelo://app?vid=068d2c39-67a0-4f69-8540-3afe1cd1def6","ios":"levelo://app?vid=068d2c39-67a0-4f69-8540-3afe1cd1def6"},"vehicle_type_id":"4","last_reported":1683569294,"current_range_meters":2400,"station_id":"","pricing_plan_id":"free"},{"bike_id":"7e99124f-97c2-4428-8d0e-9f13146255fd","system_id":"levelo_inurba_marseille","lat":43.29574,"lon":5.39971,"is_reserved":false,"is_disabled":false,"rental_uris":{"android":"levelo://app?vid=7e99124f-97c2-4428-8d0e-9f13146255fd","ios":"levelo://app?vid=7e99124f-97c2-4428-8d0e-9f13146255fd"},"vehicle_type_id":"4","last_reported":1683569294,"current_range_meters":18800,"station_id":"ce4bh312rcd13ifvqdj0","pricing_plan_id":"free"},{"bike_id":"e5b3afab-84d4-413d-92ad-3655569f07db","system_id":"levelo_inurba_marseille","lat":43.29562,"lon":5.39971,"is_reserved":false,"is_disabled":false,"rental_uris":{"android":"levelo://app?vid=e5b3afab-84d4-413d-92ad-3655569f07db","ios":"levelo://app?vid=e5b3afab-84d4-413d-92ad-3655569f07db"},"vehicle_type_id":"4","last_reported":1683569294,"current_range_meters":1600,"station_id":"","pricing_plan_id":"free"},{"bike_id":"e8c6eaa1-32c3-4cff-86e5-ead7b54238b4","system_id":"levelo_inurba_marseille","lat":43.286595,"lon":5.386795,"is_reserved":false,"is_disabled":false,"rental_uris":{"android":"levelo://app?vid=e8c6eaa1-32c3-4cff-86e5-ead7b54238b4","ios":"levelo://app?vid=e8c6eaa1-32c3-4cff-86e5-ead7b54238b4"},"vehicle_type_id":"4","last_reported":1683569294,"current_range_meters":28400,"station_id":"ce4bh492rcd13ifvqdug","pricing_plan_id":"free"},{"bike_id":"4323174b-17d2-4140-967a-1bd7e0950134","system_id":"levelo_inurba_marseille","lat":43.33718,"lon":5.39179,"is_reserved":false,"is_disabled":false,"rental_uris":{"android":"levelo://app?vid=4323174b-17d2-4140-967a-1bd7e0950134","ios":"levelo://app?vid=4323174b-17d2-4140-967a-1bd7e0950134"},"vehicle_type_id":"4","last_reported":1683569294,"current_range_meters":12800,"station_id":"ce4bhr92rcd13ifvqhsg","pricing_plan_id":"free"},{"bike_id":"eeed33b8-4405-4fee-8d96-fecd07572891","system_id":"levelo_inurba_marseille","lat":43.323464,"lon":5.406297,"is_reserved":false,"is_disabled":false,"rental_uris":{"android":"levelo://app?vid=eeed33b8-4405-4fee-8d96-fecd07572891","ios":"levelo://app?vid=eeed33b8-4405-4fee-8d96-fecd07572891"},"vehicle_type_id":"4","last_reported":1683569294,"current_range_meters":31200,"station_id":"ce4bhq92rcd13ifvqhjg","pricing_plan_id":"free"},{"bike_id":"9c83bfd6-c1b6-4a4e-a784-955d5b766f75","system_id":"levelo_inurba_marseille","lat":43.323464,"lon":5.406297,"is_reserved":false,"is_disabled":false,"rental_uris":{"android":"levelo://app?vid=9c83bfd6-c1b6-4a4e-a784-955d5b766f75","ios":"levelo://app?vid=9c83bfd6-c1b6-4a4e-a784-955d5b766f75"},"vehicle_type_id":"4","last_reported":1683569294,"current_range_meters":26000,"station_id":"ce4bhq92rcd13ifvqhjg","pricing_plan_id":"free"},{"bike_id":"f536521f-f652-4f76-95a5-be13ca8d8868","system_id":"levelo_inurba_marseille","lat":43.323464,"lon":5.406297,"is_reserved":false,"is_disabled":false,"rental_uris":{"android":"levelo://app?vid=f536521f-f652-4f76-95a5-be13ca8d8868","ios":"levelo://app?vid=f536521f-f652-4f76-95a5-be13ca8d8868"},"vehicle_type_id":"4","last_reported":1683569294,"current_range_meters":10800,"station_id":"ce4bhq92rcd13ifvqhjg","pricing_plan_id":"free"},{"bike_id":"beffdc6c-64e2-47ba-8737-796c48c655c7","system_id":"levelo_inurba_marseille","lat":43.288501,"lon":5.393087,"is_reserved":false,"is_disabled":false,"rental_uris":{"android":"levelo://app?vid=beffdc6c-64e2-47ba-8737-796c48c655c7","ios":"levelo://app?vid=beffdc6c-64e2-47ba-8737-796c48c655c7"},"vehicle_type_id":"4","last_reported":1683569294,"current_range_meters":20000,"station_id":"ce4bh2p2rcd13ifvqdi0","pricing_plan_id":"free"},{"bike_id":"c3bd0bea-ec0e-4f8b-b4dd-2433304896cf","system_id":"levelo_inurba_marseille","lat":43.288501,"lon":5.393087,"is_reserved":false,"is_disabled":false,"rental_uris":{"android":"levelo://app?vid=c3bd0bea-ec0e-4f8b-b4dd-2433304896cf","ios":"levelo://app?vid=c3bd0bea-ec0e-4f8b-b4dd-2433304896cf"},"vehicle_type_id":"4","last_reported":1683569294,"current_range_meters":17600,"station_id":"ce4bh2p2rcd13ifvqdi0","pricing_plan_id":"free"},{"bike_id":"bca1bdce-b843-49d9-bb5d-4c1e823cd726","system_id":"levelo_inurba_marseille","lat":43.28843,"lon":5.39331,"is_reserved":false,"is_disabled":false,"rental_uris":{"android":"levelo://app?vid=bca1bdce-b843-49d9-bb5d-4c1e823cd726","ios":"levelo://app?vid=bca1bdce-b843-49d9-bb5d-4c1e823cd726"},"vehicle_type_id":"4","last_reported":1683569294,"current_range_meters":0,"station_id":"ce4bh2p2rcd13ifvqdi0","pricing_plan_id":"free"},{"bike_id":"aaa538ff-e314-4b5f-81fb-34d132333bf6","system_id":"levelo_inurba_marseille","lat":43.284187,"lon":5.349827,"is_reserved":false,"is_disabled":false,"rental_uris":{"android":"levelo://app?vid=aaa538ff-e314-4b5f-81fb-34d132333bf6","ios":"levelo://app?vid=aaa538ff-e314-4b5f-81fb-34d132333bf6"},"vehicle_type_id":"4","last_reported":1683569294,"current_range_meters":0,"station_id":"","pricing_plan_id":"free"},{"bike_id":"f2a0bf5b-f74b-46bb-bc71-25611b93fe37","system_id":"levelo_inurba_marseille","lat":43.283502,"lon":5.386471,"is_reserved":false,"is_disabled":false,"rental_uris":{"android":"levelo://app?vid=f2a0bf5b-f74b-46bb-bc71-25611b93fe37","ios":"levelo://app?vid=f2a0bf5b-f74b-46bb-bc71-25611b93fe37"},"vehicle_type_id":"4","last_reported":1683569294,"current_range_meters":6000,"station_id":"ce4bh492rcd13ifvqdvg","pricing_plan_id":"free"},{"bike_id":"6647202b-d13a-4957-92a6-c30fb8c8d34e","system_id":"levelo_inurba_marseille","lat":43.283502,"lon":5.386471,"is_reserved":false,"is_disabled":false,"rental_uris":{"android":"levelo://app?vid=6647202b-d13a-4957-92a6-c30fb8c8d34e","ios":"levelo://app?vid=6647202b-d13a-4957-92a6-c30fb8c8d34e"},"vehicle_type_id":"4","last_reported":1683569294,"current_range_meters":19200,"station_id":"ce4bh492rcd13ifvqdvg","pricing_plan_id":"free"},{"bike_id":"76242f32-c407-44d4-84d7-fa1d50b0f9dc","system_id":"levelo_inurba_marseille","lat":43.32444,"lon":5.40831,"is_reserved":false,"is_disabled":false,"rental_uris":{"android":"levelo://app?vid=76242f32-c407-44d4-84d7-fa1d50b0f9dc","ios":"levelo://app?vid=76242f32-c407-44d4-84d7-fa1d50b0f9dc"},"vehicle_type_id":"4","last_reported":1683569294,"current_range_meters":0,"station_id":"","pricing_plan_id":"free"},{"bike_id":"8e41f1ea-23a9-411c-a227-f39bb5301db0","system_id":"levelo_inurba_marseille","lat":43.282754,"lon":5.350519,"is_reserved":false,"is_disabled":false,"rental_uris":{"android":"levelo://app?vid=8e41f1ea-23a9-411c-a227-f39bb5301db0","ios":"levelo://app?vid=8e41f1ea-23a9-411c-a227-f39bb5301db0"},"vehicle_type_id":"4","last_reported":1683569294,"current_range_meters":0,"station_id":"ce4bhbp2rcd13ifvqerg","pricing_plan_id":"free"},{"bike_id":"5c5c3b3e-8977-429d-b8ba-b1d074ab6645","system_id":"levelo_inurba_marseille","lat":43.282754,"lon":5.350519,"is_reserved":false,"is_disabled":false,"rental_uris":{"android":"levelo://app?vid=5c5c3b3e-8977-429d-b8ba-b1d074ab6645","ios":"levelo://app?vid=5c5c3b3e-8977-429d-b8ba-b1d074ab6645"},"vehicle_type_id":"4","last_reported":1683569294,"current_range_meters":0,"station_id":"ce4bhbp2rcd13ifvqerg","pricing_plan_id":"free"},{"bike_id":"2f6ed862-ae8a-496a-9c7e-c084541f672a","system_id":"levelo_inurba_marseille","lat":43.283502,"lon":5.386471,"is_reserved":false,"is_disabled":false,"rental_uris":{"android":"levelo://app?vid=2f6ed862-ae8a-496a-9c7e-c084541f672a","ios":"levelo://app?vid=2f6ed862-ae8a-496a-9c7e-c084541f672a"},"vehicle_type_id":"4","last_reported":1683569294,"current_range_meters":0,"station_id":"ce4bh492rcd13ifvqdvg","pricing_plan_id":"free"},{"bike_id":"c77f108b-ecc6-41e4-8c28-2f63f1d80297","system_id":"levelo_inurba_marseille","lat":43.28039,"lon":5.369297,"is_reserved":false,"is_disabled":false,"rental_uris":{"android":"levelo://app?vid=c77f108b-ecc6-41e4-8c28-2f63f1d80297","ios":"levelo://app?vid=c77f108b-ecc6-41e4-8c28-2f63f1d80297"},"vehicle_type_id":"4","last_reported":1683569294,"current_range_meters":0,"station_id":"ce4bha12rcd13ifvqef0","pricing_plan_id":"free"},{"bike_id":"30cfbec4-bc47-47bf-91e4-b660b289a398","system_id":"levelo_inurba_marseille","lat":43.28039,"lon":5.369297,"is_reserved":false,"is_disabled":false,"rental_uris":{"android":"levelo://app?vid=30cfbec4-bc47-47bf-91e4-b660b289a398","ios":"levelo://app?vid=30cfbec4-bc47-47bf-91e4-b660b289a398"},"vehicle_type_id":"4","last_reported":1683569294,"current_range_meters":26800,"station_id":"ce4bha12rcd13ifvqef0","pricing_plan_id":"free"},{"bike_id":"313da5e9-4c41-46e2-b3d8-b3186b8cd53e","system_id":"levelo_inurba_marseille","lat":43.28033,"lon":5.36948,"is_reserved":false,"is_disabled":false,"rental_uris":{"android":"levelo://app?vid=313da5e9-4c41-46e2-b3d8-b3186b8cd53e","ios":"levelo://app?vid=313da5e9-4c41-46e2-b3d8-b3186b8cd53e"},"vehicle_type_id":"4","last_reported":1683569294,"current_range_meters":20400,"station_id":"ce4bha12rcd13ifvqef0","pricing_plan_id":"free"},{"bike_id":"de395d2e-8d7b-4b04-8d89-3139a3a41fa6","system_id":"levelo_inurba_marseille","lat":43.290412,"lon":5.399633,"is_reserved":false,"is_disabled":false,"rental_uris":{"android":"levelo://app?vid=de395d2e-8d7b-4b04-8d89-3139a3a41fa6","ios":"levelo://app?vid=de395d2e-8d7b-4b04-8d89-3139a3a41fa6"},"vehicle_type_id":"4","last_reported":1683569294,"current_range_meters":2400,"station_id":"ce4bh392rcd13ifvqdm0","pricing_plan_id":"free"},{"bike_id":"5a1ffca6-1e4c-4a7a-9c4b-d81ea2220140","system_id":"levelo_inurba_marseille","lat":43.290412,"lon":5.399633,"is_reserved":false,"is_disabled":false,"rental_uris":{"android":"levelo://app?vid=5a1ffca6-1e4c-4a7a-9c4b-d81ea2220140","ios":"levelo://app?vid=5a1ffca6-1e4c-4a7a-9c4b-d81ea2220140"},"vehicle_type_id":"4","last_reported":1683569294,"current_range_meters":0,"station_id":"ce4bh392rcd13ifvqdm0","pricing_plan_id":"free"},{"bike_id":"f3ff40c0-f002-4180-9dd8-b97fcc608fad","system_id":"levelo_inurba_marseille","lat":43.290412,"lon":5.399633,"is_reserved":false,"is_disabled":false,"rental_uris":{"android":"levelo://app?vid=f3ff40c0-f002-4180-9dd8-b97fcc608fad","ios":"levelo://app?vid=f3ff40c0-f002-4180-9dd8-b97fcc608fad"},"vehicle_type_id":"4","last_reported":1683569294,"current_range_meters":21200,"station_id":"ce4bh392rcd13ifvqdm0","pricing_plan_id":"free"},{"bike_id":"c13d2c4e-e0ca-4e55-83b8-7ce18100c44f","system_id":"levelo_inurba_marseille","lat":43.290412,"lon":5.399633,"is_reserved":false,"is_disabled":false,"rental_uris":{"android":"levelo://app?vid=c13d2c4e-e0ca-4e55-83b8-7ce18100c44f","ios":"levelo://app?vid=c13d2c4e-e0ca-4e55-83b8-7ce18100c44f"},"vehicle_type_id":"4","last_reported":1683569294,"current_range_meters":6400,"station_id":"ce4bh392rcd13ifvqdm0","pricing_plan_id":"free"},{"bike_id":"f761d79a-4905-40f5-963f-20b7b37cd491","system_id":"levelo_inurba_marseille","lat":43.296263,"lon":5.40601,"is_reserved":false,"is_disabled":false,"rental_uris":{"android":"levelo://app?vid=f761d79a-4905-40f5-963f-20b7b37cd491","ios":"levelo://app?vid=f761d79a-4905-40f5-963f-20b7b37cd491"},"vehicle_type_id":"4","last_reported":1683569294,"current_range_meters":26400,"station_id":"ce4bh0h2rcd13ifvqd60","pricing_plan_id":"free"},{"bike_id":"85e955d1-770c-4260-985c-8ef04bfe5c25","system_id":"levelo_inurba_marseille","lat":43.290412,"lon":5.399633,"is_reserved":false,"is_disabled":false,"rental_uris":{"android":"levelo://app?vid=85e955d1-770c-4260-985c-8ef04bfe5c25","ios":"levelo://app?vid=85e955d1-770c-4260-985c-8ef04bfe5c25"},"vehicle_type_id":"4","last_reported":1683569294,"current_range_meters":4000,"station_id":"ce4bh392rcd13ifvqdm0","pricing_plan_id":"free"},{"bike_id":"3b587f50-5824-4a78-8906-10a5d0a386b2","system_id":"levelo_inurba_marseille","lat":43.296263,"lon":5.40601,"is_reserved":false,"is_disabled":false,"rental_uris":{"android":"levelo://app?vid=3b587f50-5824-4a78-8906-10a5d0a386b2","ios":"levelo://app?vid=3b587f50-5824-4a78-8906-10a5d0a386b2"},"vehicle_type_id":"4","last_reported":1683569294,"current_range_meters":19600,"station_id":"ce4bh0h2rcd13ifvqd60","pricing_plan_id":"free"},{"bike_id":"49392b23-c25a-42c5-9ff4-488f363730c0","system_id":"levelo_inurba_marseille","lat":43.281044,"lon":5.378308,"is_reserved":false,"is_disabled":false,"rental_uris":{"android":"levelo://app?vid=49392b23-c25a-42c5-9ff4-488f363730c0","ios":"levelo://app?vid=49392b23-c25a-42c5-9ff4-488f363730c0"},"vehicle_type_id":"4","last_reported":1683569294,"current_range_meters":16000,"station_id":"ce4bha12rcd13ifvqee0","pricing_plan_id":"free"},{"bike_id":"14abd10b-4ceb-4d57-bff9-f57153edd408","system_id":"levelo_inurba_marseille","lat":43.296263,"lon":5.40601,"is_reserved":false,"is_disabled":false,"rental_uris":{"android":"levelo://app?vid=14abd10b-4ceb-4d57-bff9-f57153edd408","ios":"levelo://app?vid=14abd10b-4ceb-4d57-bff9-f57153edd408"},"vehicle_type_id":"4","last_reported":1683569294,"current_range_meters":28400,"station_id":"ce4bh0h2rcd13ifvqd60","pricing_plan_id":"free"},{"bike_id":"83f9a010-060f-4de5-811a-4549bb41fe63","system_id":"levelo_inurba_marseille","lat":43.281044,"lon":5.378308,"is_reserved":false,"is_disabled":false,"rental_uris":{"android":"levelo://app?vid=83f9a010-060f-4de5-811a-4549bb41fe63","ios":"levelo://app?vid=83f9a010-060f-4de5-811a-4549bb41fe63"},"vehicle_type_id":"4","last_reported":1683569294,"current_range_meters":3200,"station_id":"ce4bha12rcd13ifvqee0","pricing_plan_id":"free"},{"bike_id":"b81ab010-e3da-43ab-9f74-b5b74cb976a3","system_id":"levelo_inurba_marseille","lat":43.296263,"lon":5.40601,"is_reserved":false,"is_disabled":false,"rental_uris":{"android":"levelo://app?vid=b81ab010-e3da-43ab-9f74-b5b74cb976a3","ios":"levelo://app?vid=b81ab010-e3da-43ab-9f74-b5b74cb976a3"},"vehicle_type_id":"4","last_reported":1683569294,"current_range_meters":6000,"station_id":"ce4bh0h2rcd13ifvqd60","pricing_plan_id":"free"},{"bike_id":"e59f77dc-9ee1-438e-9dcd-4a12e6cec524","system_id":"levelo_inurba_marseille","lat":43.281044,"lon":5.378308,"is_reserved":false,"is_disabled":false,"rental_uris":{"android":"levelo://app?vid=e59f77dc-9ee1-438e-9dcd-4a12e6cec524","ios":"levelo://app?vid=e59f77dc-9ee1-438e-9dcd-4a12e6cec524"},"vehicle_type_id":"4","last_reported":1683569294,"current_range_meters":0,"station_id":"ce4bha12rcd13ifvqee0","pricing_plan_id":"free"},{"bike_id":"7b62e9e2-bd32-4444-8e46-977cbae0a802","system_id":"levelo_inurba_marseille","lat":43.281044,"lon":5.378308,"is_reserved":false,"is_disabled":false,"rental_uris":{"android":"levelo://app?vid=7b62e9e2-bd32-4444-8e46-977cbae0a802","ios":"levelo://app?vid=7b62e9e2-bd32-4444-8e46-977cbae0a802"},"vehicle_type_id":"4","last_reported":1683569294,"current_range_meters":22800,"station_id":"ce4bha12rcd13ifvqee0","pricing_plan_id":"free"},{"bike_id":"61df1e3b-9e14-4cca-8a23-54d49719181d","system_id":"levelo_inurba_marseille","lat":43.29041,"lon":5.399634,"is_reserved":false,"is_disabled":false,"rental_uris":{"android":"levelo://app?vid=61df1e3b-9e14-4cca-8a23-54d49719181d","ios":"levelo://app?vid=61df1e3b-9e14-4cca-8a23-54d49719181d"},"vehicle_type_id":"4","last_reported":1683569294,"current_range_meters":800,"station_id":"ce4bh392rcd13ifvqdm0","pricing_plan_id":"free"},{"bike_id":"1caa232a-fafe-4be6-9d64-be5059b44f1d","system_id":"levelo_inurba_marseille","lat":43.296263,"lon":5.40601,"is_reserved":false,"is_disabled":false,"rental_uris":{"android":"levelo://app?vid=1caa232a-fafe-4be6-9d64-be5059b44f1d","ios":"levelo://app?vid=1caa232a-fafe-4be6-9d64-be5059b44f1d"},"vehicle_type_id":"4","last_reported":1683569294,"current_range_meters":26000,"station_id":"ce4bh0h2rcd13ifvqd60","pricing_plan_id":"free"},{"bike_id":"470052f3-23b3-414c-ab3d-48b9522f663d","system_id":"levelo_inurba_marseille","lat":43.296263,"lon":5.40601,"is_reserved":false,"is_disabled":false,"rental_uris":{"android":"levelo://app?vid=470052f3-23b3-414c-ab3d-48b9522f663d","ios":"levelo://app?vid=470052f3-23b3-414c-ab3d-48b9522f663d"},"vehicle_type_id":"4","last_reported":1683569294,"current_range_meters":30400,"station_id":"ce4bh0h2rcd13ifvqd60","pricing_plan_id":"free"},{"bike_id":"9bb8068d-e986-4888-8303-4e5b00990187","system_id":"levelo_inurba_marseille","lat":43.296263,"lon":5.40601,"is_reserved":false,"is_disabled":false,"rental_uris":{"android":"levelo://app?vid=9bb8068d-e986-4888-8303-4e5b00990187","ios":"levelo://app?vid=9bb8068d-e986-4888-8303-4e5b00990187"},"vehicle_type_id":"4","last_reported":1683569294,"current_range_meters":24800,"station_id":"ce4bh0h2rcd13ifvqd60","pricing_plan_id":"free"},{"bike_id":"672d37c5-d530-470e-8e44-d21ddf1676df","system_id":"levelo_inurba_marseille","lat":43.296263,"lon":5.40601,"is_reserved":false,"is_disabled":false,"rental_uris":{"android":"levelo://app?vid=672d37c5-d530-470e-8e44-d21ddf1676df","ios":"levelo://app?vid=672d37c5-d530-470e-8e44-d21ddf1676df"},"vehicle_type_id":"4","last_reported":1683569294,"current_range_meters":31200,"station_id":"ce4bh0h2rcd13ifvqd60","pricing_plan_id":"free"},{"bike_id":"2ac72815-67da-47ca-bad4-40d866b1caa4","system_id":"levelo_inurba_marseille","lat":43.296263,"lon":5.40601,"is_reserved":false,"is_disabled":false,"rental_uris":{"android":"levelo://app?vid=2ac72815-67da-47ca-bad4-40d866b1caa4","ios":"levelo://app?vid=2ac72815-67da-47ca-bad4-40d866b1caa4"},"vehicle_type_id":"4","last_reported":1683569294,"current_range_meters":21200,"station_id":"ce4bh0h2rcd13ifvqd60","pricing_plan_id":"free"},{"bike_id":"456f5319-0db4-4665-8f42-dabd3313a79c","system_id":"levelo_inurba_marseille","lat":43.281044,"lon":5.378308,"is_reserved":false,"is_disabled":false,"rental_uris":{"android":"levelo://app?vid=456f5319-0db4-4665-8f42-dabd3313a79c","ios":"levelo://app?vid=456f5319-0db4-4665-8f42-dabd3313a79c"},"vehicle_type_id":"4","last_reported":1683569294,"current_range_meters":5600,"station_id":"ce4bha12rcd13ifvqee0","pricing_plan_id":"free"},{"bike_id":"13e67150-c896-4123-b1fa-6d0bdf7541a2","system_id":"levelo_inurba_marseille","lat":43.296263,"lon":5.40601,"is_reserved":false,"is_disabled":false,"rental_uris":{"android":"levelo://app?vid=13e67150-c896-4123-b1fa-6d0bdf7541a2","ios":"levelo://app?vid=13e67150-c896-4123-b1fa-6d0bdf7541a2"},"vehicle_type_id":"4","last_reported":1683569294,"current_range_meters":31200,"station_id":"ce4bh0h2rcd13ifvqd60","pricing_plan_id":"free"},{"bike_id":"47510b3e-ad89-4be9-9f6e-95b0e03e05c3","system_id":"levelo_inurba_marseille","lat":43.281044,"lon":5.378308,"is_reserved":false,"is_disabled":false,"rental_uris":{"android":"levelo://app?vid=47510b3e-ad89-4be9-9f6e-95b0e03e05c3","ios":"levelo://app?vid=47510b3e-ad89-4be9-9f6e-95b0e03e05c3"},"vehicle_type_id":"4","last_reported":1683569294,"current_range_meters":4400,"station_id":"ce4bha12rcd13ifvqee0","pricing_plan_id":"free"},{"bike_id":"63e33401-f288-45c2-bcac-3050a8838e2b","system_id":"levelo_inurba_marseille","lat":43.284462,"lon":5.392121,"is_reserved":false,"is_disabled":false,"rental_uris":{"android":"levelo://app?vid=63e33401-f288-45c2-bcac-3050a8838e2b","ios":"levelo://app?vid=63e33401-f288-45c2-bcac-3050a8838e2b"},"vehicle_type_id":"4","last_reported":1683569294,"current_range_meters":14400,"station_id":"ce4bhoh2rcd13ifvqh5g","pricing_plan_id":"free"},{"bike_id":"22381b0a-657d-4bef-b5f0-59a8c1b01d14","system_id":"levelo_inurba_marseille","lat":43.284462,"lon":5.392121,"is_reserved":false,"is_disabled":false,"rental_uris":{"android":"levelo://app?vid=22381b0a-657d-4bef-b5f0-59a8c1b01d14","ios":"levelo://app?vid=22381b0a-657d-4bef-b5f0-59a8c1b01d14"},"vehicle_type_id":"4","last_reported":1683569294,"current_range_meters":31600,"station_id":"ce4bhoh2rcd13ifvqh5g","pricing_plan_id":"free"},{"bike_id":"7d9d45c7-bfdb-4a75-8456-66277b3fb7de","system_id":"levelo_inurba_marseille","lat":43.284462,"lon":5.392121,"is_reserved":false,"is_disabled":false,"rental_uris":{"android":"levelo://app?vid=7d9d45c7-bfdb-4a75-8456-66277b3fb7de","ios":"levelo://app?vid=7d9d45c7-bfdb-4a75-8456-66277b3fb7de"},"vehicle_type_id":"4","last_reported":1683569294,"current_range_meters":12800,"station_id":"ce4bhoh2rcd13ifvqh5g","pricing_plan_id":"free"},{"bike_id":"8eae172b-a0af-4faf-95e9-60284be22d4c","system_id":"levelo_inurba_marseille","lat":43.284462,"lon":5.392121,"is_reserved":false,"is_disabled":false,"rental_uris":{"android":"levelo://app?vid=8eae172b-a0af-4faf-95e9-60284be22d4c","ios":"levelo://app?vid=8eae172b-a0af-4faf-95e9-60284be22d4c"},"vehicle_type_id":"4","last_reported":1683569294,"current_range_meters":19600,"station_id":"ce4bhoh2rcd13ifvqh5g","pricing_plan_id":"free"},{"bike_id":"3aa64a31-6639-4ab3-8dc0-10a83e87ef45","system_id":"levelo_inurba_marseille","lat":43.284462,"lon":5.392121,"is_reserved":false,"is_disabled":false,"rental_uris":{"android":"levelo://app?vid=3aa64a31-6639-4ab3-8dc0-10a83e87ef45","ios":"levelo://app?vid=3aa64a31-6639-4ab3-8dc0-10a83e87ef45"},"vehicle_type_id":"4","last_reported":1683569294,"current_range_meters":11200,"station_id":"ce4bhoh2rcd13ifvqh5g","pricing_plan_id":"free"},{"bike_id":"b9134a76-7e55-4046-872b-92867e7aa040","system_id":"levelo_inurba_marseille","lat":43.28573,"lon":5.394992,"is_reserved":false,"is_disabled":false,"rental_uris":{"android":"levelo://app?vid=b9134a76-7e55-4046-872b-92867e7aa040","ios":"levelo://app?vid=b9134a76-7e55-4046-872b-92867e7aa040"},"vehicle_type_id":"4","last_reported":1683569294,"current_range_meters":2400,"station_id":"ce4bh292rcd13ifvqdg0","pricing_plan_id":"free"},{"bike_id":"b61c7d57-1d61-42d7-968d-49418d19bb8b","system_id":"levelo_inurba_marseille","lat":43.28571,"lon":5.39496,"is_reserved":false,"is_disabled":false,"rental_uris":{"android":"levelo://app?vid=b61c7d57-1d61-42d7-968d-49418d19bb8b","ios":"levelo://app?vid=b61c7d57-1d61-42d7-968d-49418d19bb8b"},"vehicle_type_id":"4","last_reported":1683569294,"current_range_meters":16400,"station_id":"ce4bh292rcd13ifvqdg0","pricing_plan_id":"free"},{"bike_id":"de7ea1e6-fa43-469e-b37b-7f7dd52fa4a5","system_id":"levelo_inurba_marseille","lat":43.32609,"lon":5.41049,"is_reserved":false,"is_disabled":false,"rental_uris":{"android":"levelo://app?vid=de7ea1e6-fa43-469e-b37b-7f7dd52fa4a5","ios":"levelo://app?vid=de7ea1e6-fa43-469e-b37b-7f7dd52fa4a5"},"vehicle_type_id":"4","last_reported":1683569294,"current_range_meters":1200,"station_id":"ce4bhpp2rcd13ifvqhgg","pricing_plan_id":"free"},{"bike_id":"0cd0fd2f-a23e-474b-9b79-ae521e06e7f8","system_id":"levelo_inurba_marseille","lat":43.304188,"lon":5.412904,"is_reserved":false,"is_disabled":false,"rental_uris":{"android":"levelo://app?vid=0cd0fd2f-a23e-474b-9b79-ae521e06e7f8","ios":"levelo://app?vid=0cd0fd2f-a23e-474b-9b79-ae521e06e7f8"},"vehicle_type_id":"4","last_reported":1683569294,"current_range_meters":9600,"station_id":"ce4bhop2rcd13ifvqh8g","pricing_plan_id":"free"},{"bike_id":"d43101b5-746e-41b0-a429-3467052e0791","system_id":"levelo_inurba_marseille","lat":43.320045,"lon":5.415048,"is_reserved":false,"is_disabled":false,"rental_uris":{"android":"levelo://app?vid=d43101b5-746e-41b0-a429-3467052e0791","ios":"levelo://app?vid=d43101b5-746e-41b0-a429-3467052e0791"},"vehicle_type_id":"4","last_reported":1683569294,"current_range_meters":30400,"station_id":"ce4bhq92rcd13ifvqhkg","pricing_plan_id":"free"},{"bike_id":"e2d76a7b-dbe8-4862-b56a-c113c7f943ab","system_id":"levelo_inurba_marseille","lat":43.299577,"lon":5.413277,"is_reserved":false,"is_disabled":false,"rental_uris":{"android":"levelo://app?vid=e2d76a7b-dbe8-4862-b56a-c113c7f943ab","ios":"levelo://app?vid=e2d76a7b-dbe8-4862-b56a-c113c7f943ab"},"vehicle_type_id":"4","last_reported":1683569294,"current_range_meters":8800,"station_id":"ce4bhp12rcd13ifvqh9g","pricing_plan_id":"free"},{"bike_id":"e2cdd06f-7a0f-4bfe-bac8-0a4c22438b4b","system_id":"levelo_inurba_marseille","lat":43.299579,"lon":5.413255,"is_reserved":false,"is_disabled":false,"rental_uris":{"android":"levelo://app?vid=e2cdd06f-7a0f-4bfe-bac8-0a4c22438b4b","ios":"levelo://app?vid=e2cdd06f-7a0f-4bfe-bac8-0a4c22438b4b"},"vehicle_type_id":"4","last_reported":1683569294,"current_range_meters":12800,"station_id":"ce4bhp12rcd13ifvqh9g","pricing_plan_id":"free"},{"bike_id":"86fbc53d-c03f-4ee9-b132-46b5f07378a9","system_id":"levelo_inurba_marseille","lat":43.292571,"lon":5.409107,"is_reserved":false,"is_disabled":false,"rental_uris":{"android":"levelo://app?vid=86fbc53d-c03f-4ee9-b132-46b5f07378a9","ios":"levelo://app?vid=86fbc53d-c03f-4ee9-b132-46b5f07378a9"},"vehicle_type_id":"4","last_reported":1683569294,"current_range_meters":4400,"station_id":"ce4bh192rcd13ifvqdc0","pricing_plan_id":"free"},{"bike_id":"13a355db-6cfb-499c-be68-3bee12c3f5c1","system_id":"levelo_inurba_marseille","lat":43.292571,"lon":5.409107,"is_reserved":false,"is_disabled":false,"rental_uris":{"android":"levelo://app?vid=13a355db-6cfb-499c-be68-3bee12c3f5c1","ios":"levelo://app?vid=13a355db-6cfb-499c-be68-3bee12c3f5c1"},