{"last_updated":1773641631,"ttl":60,"version":"2.2","data":{"bikes":[{"bike_id":"60180ce9-eb32-4811-a93f-9cd3f410f930","system_id":"levelo_inurba_marseille","lat":43.29043,"lon":5.38648,"is_reserved":false,"is_disabled":false,"rental_uris":{"android":"levelo://app?vid=60180ce9-eb32-4811-a93f-9cd3f410f930","ios":"levelo://app?vid=60180ce9-eb32-4811-a93f-9cd3f410f930"},"vehicle_type_id":"4","last_reported":1773641632,"current_range_meters":30800,"station_id":"ce4bh4p2rcd13ifvqe0g","pricing_plan_id":"cebpf4jnsgd1na2vs0mg"},{"bike_id":"f18077e7-a01f-4bdc-8d1a-e93985fb7e36","system_id":"levelo_inurba_marseille","lat":43.30318,"lon":5.36867,"is_reserved":false,"is_disabled":false,"rental_uris":{"android":"levelo://app?vid=f18077e7-a01f-4bdc-8d1a-e93985fb7e36","ios":"levelo://app?vid=f18077e7-a01f-4bdc-8d1a-e93985fb7e36"},"vehicle_type_id":"4","last_reported":1773641632,"current_range_meters":39200,"station_id":"ce4bgqh2rcd13ifvqc5g","pricing_plan_id":"cebpf4jnsgd1na2vs0mg"},{"bike_id":"ccb5a348-c530-4b8b-9eb6-f11d532ffe32","system_id":"levelo_inurba_marseille","lat":43.28985,"lon":5.4031,"is_reserved":false,"is_disabled":true,"rental_uris":{"android":"levelo://app?vid=ccb5a348-c530-4b8b-9eb6-f11d532ffe32","ios":"levelo://app?vid=ccb5a348-c530-4b8b-9eb6-f11d532ffe32"},"vehicle_type_id":"4","last_reported":1773641632,"current_range_meters":30800,"station_id":"","pricing_plan_id":"cebpf4jnsgd1na2vs0mg"},{"bike_id":"79b4613d-1723-4030-b52f-83dd48b74ef2","system_id":"levelo_inurba_marseille","lat":43.24663,"lon":5.38159,"is_reserved":false,"is_disabled":false,"rental_uris":{"android":"levelo://app?vid=79b4613d-1723-4030-b52f-83dd48b74ef2","ios":"levelo://app?vid=79b4613d-1723-4030-b52f-83dd48b74ef2"},"vehicle_type_id":"4","last_reported":1773641632,"current_range_meters":24800,"station_id":"ce4bhih2rcd13ifvqfr0","pricing_plan_id":"cebpf4jnsgd1na2vs0mg"},{"bike_id":"a4ca7329-3ac2-44ac-9c8b-c3829e8c8f46","system_id":"levelo_inurba_marseille","lat":43.2737,"lon":5.3626,"is_reserved":false,"is_disabled":true,"rental_uris":{"android":"levelo://app?vid=a4ca7329-3ac2-44ac-9c8b-c3829e8c8f46","ios":"levelo://app?vid=a4ca7329-3ac2-44ac-9c8b-c3829e8c8f46"},"vehicle_type_id":"4","last_reported":1773641632,"current_range_meters":32000,"station_id":"ce4bhbh2rcd13ifvqeo0","pricing_plan_id":"cebpf4jnsgd1na2vs0mg"},{"bike_id":"491c8e5a-3f41-4ecc-b74f-f81ad323c9b6","system_id":"levelo_inurba_marseille","lat":43.32272,"lon":5.38294,"is_reserved":false,"is_disabled":false,"rental_uris":{"android":"levelo://app?vid=491c8e5a-3f41-4ecc-b74f-f81ad323c9b6","ios":"levelo://app?vid=491c8e5a-3f41-4ecc-b74f-f81ad323c9b6"},"vehicle_type_id":"4","last_reported":1773641632,"current_range_meters":18000,"station_id":"ce4bhr12rcd13ifvqhqg","pricing_plan_id":"cebpf4jnsgd1na2vs0mg"},{"bike_id":"0ae745ab-afb8-4357-87b5-3deaa4ba80bf","system_id":"levelo_inurba_marseille","lat":43.25722,"lon":5.41098,"is_reserved":false,"is_disabled":false,"rental_uris":{"android":"levelo://app?vid=0ae745ab-afb8-4357-87b5-3deaa4ba80bf","ios":"levelo://app?vid=0ae745ab-afb8-4357-87b5-3deaa4ba80bf"},"vehicle_type_id":"4","last_reported":1773641632,"current_range_meters":28800,"station_id":"ce4bhkp2rcd13ifvqgd0","pricing_plan_id":"cebpf4jnsgd1na2vs0mg"},{"bike_id":"9654a120-eb31-40ad-8244-99795531391f","system_id":"levelo_inurba_marseille","lat":43.30206,"lon":5.39474,"is_reserved":false,"is_disabled":false,"rental_uris":{"android":"levelo://app?vid=9654a120-eb31-40ad-8244-99795531391f","ios":"levelo://app?vid=9654a120-eb31-40ad-8244-99795531391f"},"vehicle_type_id":"4","last_reported":1773641632,"current_range_meters":27600,"station_id":"ce4bh0p2rcd13ifvqd70","pricing_plan_id":"cebpf4jnsgd1na2vs0mg"},{"bike_id":"0af203fb-c1fe-4f43-a9a2-b6b372ffe20c","system_id":"levelo_inurba_marseille","lat":43.28475,"lon":5.48402,"is_reserved":false,"is_disabled":false,"rental_uris":{"android":"levelo://app?vid=0af203fb-c1fe-4f43-a9a2-b6b372ffe20c","ios":"levelo://app?vid=0af203fb-c1fe-4f43-a9a2-b6b372ffe20c"},"vehicle_type_id":"4","last_reported":1773641632,"current_range_meters":19600,"station_id":"","pricing_plan_id":"cebpf4jnsgd1na2vs0mg"},{"bike_id":"0ecd47cf-a7b9-4223-8093-c6087cb3bd4a","system_id":"levelo_inurba_marseille","lat":43.28429,"lon":5.34998,"is_reserved":false,"is_disabled":false,"rental_uris":{"android":"levelo://app?vid=0ecd47cf-a7b9-4223-8093-c6087cb3bd4a","ios":"levelo://app?vid=0ecd47cf-a7b9-4223-8093-c6087cb3bd4a"},"vehicle_type_id":"4","last_reported":1773641632,"current_range_meters":22800,"station_id":"ce4bhbh2rcd13ifvqepg","pricing_plan_id":"cebpf4jnsgd1na2vs0mg"},{"bike_id":"319b1581-475f-4797-be0a-0bd4a5861756","system_id":"levelo_inurba_marseille","lat":43.31387,"lon":5.36689,"is_reserved":false,"is_disabled":false,"rental_uris":{"android":"levelo://app?vid=319b1581-475f-4797-be0a-0bd4a5861756","ios":"levelo://app?vid=319b1581-475f-4797-be0a-0bd4a5861756"},"vehicle_type_id":"4","last_reported":1773641632,"current_range_meters":34800,"station_id":"","pricing_plan_id":"cebpf4jnsgd1na2vs0mg"},{"bike_id":"e4cf0b84-eff9-4db0-a015-7cb21f6dc8b2","system_id":"levelo_inurba_marseille","lat":43.25781,"lon":5.39492,"is_reserved":false,"is_disabled":false,"rental_uris":{"android":"levelo://app?vid=e4cf0b84-eff9-4db0-a015-7cb21f6dc8b2","ios":"levelo://app?vid=e4cf0b84-eff9-4db0-a015-7cb21f6dc8b2"},"vehicle_type_id":"4","last_reported":1773641632,"current_range_meters":8000,"station_id":"","pricing_plan_id":"cebpf4jnsgd1na2vs0mg"},{"bike_id":"943f55b7-b8a0-4a3a-9f27-c564cd778722","system_id":"levelo_inurba_marseille","lat":43.2945,"lon":5.39767,"is_reserved":false,"is_disabled":false,"rental_uris":{"android":"levelo://app?vid=943f55b7-b8a0-4a3a-9f27-c564cd778722","ios":"levelo://app?vid=943f55b7-b8a0-4a3a-9f27-c564cd778722"},"vehicle_type_id":"4","last_reported":1773641632,"current_range_meters":28400,"station_id":"ce4bh3h2rcd13ifvqdo0","pricing_plan_id":"cebpf4jnsgd1na2vs0mg"},{"bike_id":"e06b6f91-93be-4271-a893-ca5b609ebf7f","system_id":"levelo_inurba_marseille","lat":43.30541,"lon":5.36537,"is_reserved":false,"is_disabled":false,"rental_uris":{"android":"levelo://app?vid=e06b6f91-93be-4271-a893-ca5b609ebf7f","ios":"levelo://app?vid=e06b6f91-93be-4271-a893-ca5b609ebf7f"},"vehicle_type_id":"4","last_reported":1773641632,"current_range_meters":20800,"station_id":"ce4bgs12rcd13ifvqcag","pricing_plan_id":"cebpf4jnsgd1na2vs0mg"},{"bike_id":"7057c1d2-2853-4515-8d3b-66883ea12928","system_id":"levelo_inurba_marseille","lat":43.307996,"lon":5.381799,"is_reserved":false,"is_disabled":false,"rental_uris":{"android":"levelo://app?vid=7057c1d2-2853-4515-8d3b-66883ea12928","ios":"levelo://app?vid=7057c1d2-2853-4515-8d3b-66883ea12928"},"vehicle_type_id":"4","last_reported":1773641632,"current_range_meters":25600,"station_id":"ce4bgv12rcd13ifvqcp0","pricing_plan_id":"cebpf4jnsgd1na2vs0mg"},{"bike_id":"7e113368-8b43-4dc9-a7d3-1b200ce7f912","system_id":"levelo_inurba_marseille","lat":43.27069,"lon":5.38313,"is_reserved":false,"is_disabled":false,"rental_uris":{"android":"levelo://app?vid=7e113368-8b43-4dc9-a7d3-1b200ce7f912","ios":"levelo://app?vid=7e113368-8b43-4dc9-a7d3-1b200ce7f912"},"vehicle_type_id":"4","last_reported":1773641632,"current_range_meters":29600,"station_id":"st_d3n2fo6cfp8s73cte1j0","pricing_plan_id":"cebpf4jnsgd1na2vs0mg"},{"bike_id":"a647bb78-82f0-42e3-943d-a40dd43c43e0","system_id":"levelo_inurba_marseille","lat":43.30958,"lon":5.39081,"is_reserved":false,"is_disabled":false,"rental_uris":{"android":"levelo://app?vid=a647bb78-82f0-42e3-943d-a40dd43c43e0","ios":"levelo://app?vid=a647bb78-82f0-42e3-943d-a40dd43c43e0"},"vehicle_type_id":"4","last_reported":1773641632,"current_range_meters":36800,"station_id":"ce4bgup2rcd13ifvqco0","pricing_plan_id":"cebpf4jnsgd1na2vs0mg"},{"bike_id":"ee0cf3c9-e978-4094-86ec-91b1d823e957","system_id":"levelo_inurba_marseille","lat":43.30516,"lon":5.36537,"is_reserved":false,"is_disabled":false,"rental_uris":{"android":"levelo://app?vid=ee0cf3c9-e978-4094-86ec-91b1d823e957","ios":"levelo://app?vid=ee0cf3c9-e978-4094-86ec-91b1d823e957"},"vehicle_type_id":"4","last_reported":1773641632,"current_range_meters":31200,"station_id":"","pricing_plan_id":"cebpf4jnsgd1na2vs0mg"},{"bike_id":"6d2a69d8-d20f-4ec0-be72-54a9cb146081","system_id":"levelo_inurba_marseille","lat":43.30151,"lon":5.37418,"is_reserved":false,"is_disabled":false,"rental_uris":{"android":"levelo://app?vid=6d2a69d8-d20f-4ec0-be72-54a9cb146081","ios":"levelo://app?vid=6d2a69d8-d20f-4ec0-be72-54a9cb146081"},"vehicle_type_id":"4","last_reported":1773641632,"current_range_meters":24800,"station_id":"ce4bgs92rcd13ifvqcc0","pricing_plan_id":"cebpf4jnsgd1na2vs0mg"},{"bike_id":"25c602c7-a0d8-4355-978a-14f82afb4bee","system_id":"levelo_inurba_marseille","lat":43.28409,"lon":5.37527,"is_reserved":false,"is_disabled":false,"rental_uris":{"android":"levelo://app?vid=25c602c7-a0d8-4355-978a-14f82afb4bee","ios":"levelo://app?vid=25c602c7-a0d8-4355-978a-14f82afb4bee"},"vehicle_type_id":"4","last_reported":1773641632,"current_range_meters":18000,"station_id":"ce4bh412rcd13ifvqds0","pricing_plan_id":"cebpf4jnsgd1na2vs0mg"},{"bike_id":"f08842d3-8df3-4b17-86db-33048769b53d","system_id":"levelo_inurba_marseille","lat":43.25102,"lon":5.40356,"is_reserved":false,"is_disabled":false,"rental_uris":{"android":"levelo://app?vid=f08842d3-8df3-4b17-86db-33048769b53d","ios":"levelo://app?vid=f08842d3-8df3-4b17-86db-33048769b53d"},"vehicle_type_id":"4","last_reported":1773641632,"current_range_meters":22800,"station_id":"ce4bhlh2rcd13ifvqgig","pricing_plan_id":"cebpf4jnsgd1na2vs0mg"},{"bike_id":"d198a77d-2fb3-46b7-baa0-877a63e847b4","system_id":"levelo_inurba_marseille","lat":43.28571,"lon":5.39506,"is_reserved":false,"is_disabled":false,"rental_uris":{"android":"levelo://app?vid=d198a77d-2fb3-46b7-baa0-877a63e847b4","ios":"levelo://app?vid=d198a77d-2fb3-46b7-baa0-877a63e847b4"},"vehicle_type_id":"4","last_reported":1773641632,"current_range_meters":38800,"station_id":"ce4bh292rcd13ifvqdg0","pricing_plan_id":"cebpf4jnsgd1na2vs0mg"},{"bike_id":"57dd6363-e0d7-46be-9ded-9939582378fc","system_id":"levelo_inurba_marseille","lat":43.30135,"lon":5.37438,"is_reserved":false,"is_disabled":false,"rental_uris":{"android":"levelo://app?vid=57dd6363-e0d7-46be-9ded-9939582378fc","ios":"levelo://app?vid=57dd6363-e0d7-46be-9ded-9939582378fc"},"vehicle_type_id":"4","last_reported":1773641632,"current_range_meters":38800,"station_id":"ce4bgs92rcd13ifvqcc0","pricing_plan_id":"cebpf4jnsgd1na2vs0mg"},{"bike_id":"5ab24fcb-5f8a-45c3-a7bc-09941a377b6b","system_id":"levelo_inurba_marseille","lat":43.2622,"lon":5.40446,"is_reserved":false,"is_disabled":false,"rental_uris":{"android":"levelo://app?vid=5ab24fcb-5f8a-45c3-a7bc-09941a377b6b","ios":"levelo://app?vid=5ab24fcb-5f8a-45c3-a7bc-09941a377b6b"},"vehicle_type_id":"4","last_reported":1773641632,"current_range_meters":30000,"station_id":"ce4bhmh2rcd13ifvqgmg","pricing_plan_id":"cebpf4jnsgd1na2vs0mg"},{"bike_id":"4a8d7a43-5dbb-42a2-b5ca-8c6627ac6666","system_id":"levelo_inurba_marseille","lat":43.30175,"lon":5.36648,"is_reserved":false,"is_disabled":false,"rental_uris":{"android":"levelo://app?vid=4a8d7a43-5dbb-42a2-b5ca-8c6627ac6666","ios":"levelo://app?vid=4a8d7a43-5dbb-42a2-b5ca-8c6627ac6666"},"vehicle_type_id":"4","last_reported":1773641632,"current_range_meters":39200,"station_id":"ce4bgrh2rcd13ifvqc8g","pricing_plan_id":"cebpf4jnsgd1na2vs0mg"},{"bike_id":"accdce2d-caf9-4768-8e02-206d5f3349d6","system_id":"levelo_inurba_marseille","lat":43.30963,"lon":5.3906,"is_reserved":false,"is_disabled":false,"rental_uris":{"android":"levelo://app?vid=accdce2d-caf9-4768-8e02-206d5f3349d6","ios":"levelo://app?vid=accdce2d-caf9-4768-8e02-206d5f3349d6"},"vehicle_type_id":"4","last_reported":1773641632,"current_range_meters":33200,"station_id":"ce4bgup2rcd13ifvqco0","pricing_plan_id":"cebpf4jnsgd1na2vs0mg"},{"bike_id":"5296aef9-3e8d-4c7d-b712-00f2c790aeaf","system_id":"levelo_inurba_marseille","lat":43.29035,"lon":5.37223,"is_reserved":false,"is_disabled":true,"rental_uris":{"android":"levelo://app?vid=5296aef9-3e8d-4c7d-b712-00f2c790aeaf","ios":"levelo://app?vid=5296aef9-3e8d-4c7d-b712-00f2c790aeaf"},"vehicle_type_id":"4","last_reported":1773641632,"current_range_meters":24400,"station_id":"","pricing_plan_id":"cebpf4jnsgd1na2vs0mg"},{"bike_id":"7d5b997f-5115-45cd-8ced-c8507a994f25","system_id":"levelo_inurba_marseille","lat":43.30119,"lon":5.3671,"is_reserved":false,"is_disabled":false,"rental_uris":{"android":"levelo://app?vid=7d5b997f-5115-45cd-8ced-c8507a994f25","ios":"levelo://app?vid=7d5b997f-5115-45cd-8ced-c8507a994f25"},"vehicle_type_id":"4","last_reported":1773641632,"current_range_meters":22400,"station_id":"","pricing_plan_id":"cebpf4jnsgd1na2vs0mg"},{"bike_id":"3d31c737-ae93-44f8-9419-6651a907c080","system_id":"levelo_inurba_marseille","lat":43.23961,"lon":5.3664,"is_reserved":false,"is_disabled":false,"rental_uris":{"android":"levelo://app?vid=3d31c737-ae93-44f8-9419-6651a907c080","ios":"levelo://app?vid=3d31c737-ae93-44f8-9419-6651a907c080"},"vehicle_type_id":"4","last_reported":1773641632,"current_range_meters":18800,"station_id":"ce4bhi12rcd13ifvqfp0","pricing_plan_id":"cebpf4jnsgd1na2vs0mg"},{"bike_id":"a8c4eea5-2f51-4fc6-9d13-828cb067aad6","system_id":"levelo_inurba_marseille","lat":43.28925,"lon":5.36396,"is_reserved":false,"is_disabled":false,"rental_uris":{"android":"levelo://app?vid=a8c4eea5-2f51-4fc6-9d13-828cb067aad6","ios":"levelo://app?vid=a8c4eea5-2f51-4fc6-9d13-828cb067aad6"},"vehicle_type_id":"4","last_reported":1773641632,"current_range_meters":25600,"station_id":"ce4bhc92rcd13ifvqetg","pricing_plan_id":"cebpf4jnsgd1na2vs0mg"},{"bike_id":"14e842ca-38a9-454c-bc50-3c462bc7fa24","system_id":"levelo_inurba_marseille","lat":43.26676,"lon":5.38281,"is_reserved":false,"is_disabled":false,"rental_uris":{"android":"levelo://app?vid=14e842ca-38a9-454c-bc50-3c462bc7fa24","ios":"levelo://app?vid=14e842ca-38a9-454c-bc50-3c462bc7fa24"},"vehicle_type_id":"4","last_reported":1773641632,"current_range_meters":40000,"station_id":"ce4bhg92rcd13ifvqf90","pricing_plan_id":"cebpf4jnsgd1na2vs0mg"},{"bike_id":"f501a03a-e01e-464b-ba29-9a248bf740dd","system_id":"levelo_inurba_marseille","lat":43.30145,"lon":5.39877,"is_reserved":false,"is_disabled":false,"rental_uris":{"android":"levelo://app?vid=f501a03a-e01e-464b-ba29-9a248bf740dd","ios":"levelo://app?vid=f501a03a-e01e-464b-ba29-9a248bf740dd"},"vehicle_type_id":"4","last_reported":1773641632,"current_range_meters":38000,"station_id":"ce4bh0h2rcd13ifvqd40","pricing_plan_id":"cebpf4jnsgd1na2vs0mg"},{"bike_id":"9d21bae3-6b88-4720-9012-b71962781d5d","system_id":"levelo_inurba_marseille","lat":43.25862,"lon":5.39915,"is_reserved":false,"is_disabled":true,"rental_uris":{"android":"levelo://app?vid=9d21bae3-6b88-4720-9012-b71962781d5d","ios":"levelo://app?vid=9d21bae3-6b88-4720-9012-b71962781d5d"},"vehicle_type_id":"4","last_reported":1773641632,"current_range_meters":39200,"station_id":"ce4bhl92rcd13ifvqghg","pricing_plan_id":"cebpf4jnsgd1na2vs0mg"},{"bike_id":"8b528faf-fc5f-4588-ba28-012f6144064f","system_id":"levelo_inurba_marseille","lat":43.29524,"lon":5.394,"is_reserved":false,"is_disabled":false,"rental_uris":{"android":"levelo://app?vid=8b528faf-fc5f-4588-ba28-012f6144064f","ios":"levelo://app?vid=8b528faf-fc5f-4588-ba28-012f6144064f"},"vehicle_type_id":"4","last_reported":1773641632,"current_range_meters":38800,"station_id":"ce4bh292rcd13ifvqdf0","pricing_plan_id":"cebpf4jnsgd1na2vs0mg"},{"bike_id":"00d978b9-275e-4a03-9464-6a0ab470a1bb","system_id":"levelo_inurba_marseille","lat":43.29626,"lon":5.40614,"is_reserved":false,"is_disabled":false,"rental_uris":{"android":"levelo://app?vid=00d978b9-275e-4a03-9464-6a0ab470a1bb","ios":"levelo://app?vid=00d978b9-275e-4a03-9464-6a0ab470a1bb"},"vehicle_type_id":"4","last_reported":1773641632,"current_range_meters":16400,"station_id":"ce4bh0h2rcd13ifvqd60","pricing_plan_id":"cebpf4jnsgd1na2vs0mg"},{"bike_id":"b278ad17-e09c-46d1-95da-e7299e72a641","system_id":"levelo_inurba_marseille","lat":43.22561,"lon":5.4162,"is_reserved":false,"is_disabled":false,"rental_uris":{"android":"levelo://app?vid=b278ad17-e09c-46d1-95da-e7299e72a641","ios":"levelo://app?vid=b278ad17-e09c-46d1-95da-e7299e72a641"},"vehicle_type_id":"4","last_reported":1773641632,"current_range_meters":32000,"station_id":"st_d2o4gvlbi1j2169b742g","pricing_plan_id":"cebpf4jnsgd1na2vs0mg"},{"bike_id":"7e55300e-c6ce-4cea-b352-04866308b200","system_id":"levelo_inurba_marseille","lat":43.29622,"lon":5.42147,"is_reserved":false,"is_disabled":false,"rental_uris":{"android":"levelo://app?vid=7e55300e-c6ce-4cea-b352-04866308b200","ios":"levelo://app?vid=7e55300e-c6ce-4cea-b352-04866308b200"},"vehicle_type_id":"4","last_reported":1773641632,"current_range_meters":20800,"station_id":"","pricing_plan_id":"cebpf4jnsgd1na2vs0mg"},{"bike_id":"60203919-976b-462e-8d8d-4448eaac5e60","system_id":"levelo_inurba_marseille","lat":43.28671,"lon":5.374,"is_reserved":false,"is_disabled":false,"rental_uris":{"android":"levelo://app?vid=60203919-976b-462e-8d8d-4448eaac5e60","ios":"levelo://app?vid=60203919-976b-462e-8d8d-4448eaac5e60"},"vehicle_type_id":"4","last_reported":1773641632,"current_range_meters":38400,"station_id":"ce4bh3p2rcd13ifvqdq0","pricing_plan_id":"cebpf4jnsgd1na2vs0mg"},{"bike_id":"b873da24-1045-4d09-b91f-3e423eac7b45","system_id":"levelo_inurba_marseille","lat":43.33149,"lon":5.37705,"is_reserved":false,"is_disabled":false,"rental_uris":{"android":"levelo://app?vid=b873da24-1045-4d09-b91f-3e423eac7b45","ios":"levelo://app?vid=b873da24-1045-4d09-b91f-3e423eac7b45"},"vehicle_type_id":"4","last_reported":1773641632,"current_range_meters":6400,"station_id":"st_d46cu089ee8s73dldbu0","pricing_plan_id":"cebpf4jnsgd1na2vs0mg"},{"bike_id":"54f965b4-98fe-41df-a421-e7a9058d140b","system_id":"levelo_inurba_marseille","lat":43.3054,"lon":5.36553,"is_reserved":false,"is_disabled":false,"rental_uris":{"android":"levelo://app?vid=54f965b4-98fe-41df-a421-e7a9058d140b","ios":"levelo://app?vid=54f965b4-98fe-41df-a421-e7a9058d140b"},"vehicle_type_id":"4","last_reported":1773641632,"current_range_meters":9200,"station_id":"ce4bgs12rcd13ifvqcag","pricing_plan_id":"cebpf4jnsgd1na2vs0mg"},{"bike_id":"6451d17f-d1b7-49ca-bcb9-e39c1e229018","system_id":"levelo_inurba_marseille","lat":43.28406,"lon":5.34997,"is_reserved":false,"is_disabled":false,"rental_uris":{"android":"levelo://app?vid=6451d17f-d1b7-49ca-bcb9-e39c1e229018","ios":"levelo://app?vid=6451d17f-d1b7-49ca-bcb9-e39c1e229018"},"vehicle_type_id":"4","last_reported":1773641632,"current_range_meters":38400,"station_id":"ce4bhbh2rcd13ifvqepg","pricing_plan_id":"cebpf4jnsgd1na2vs0mg"},{"bike_id":"28c9c9bb-a40d-4b63-a12b-d6e8281724a0","system_id":"levelo_inurba_marseille","lat":43.27653,"lon":5.38938,"is_reserved":false,"is_disabled":true,"rental_uris":{"android":"levelo://app?vid=28c9c9bb-a40d-4b63-a12b-d6e8281724a0","ios":"levelo://app?vid=28c9c9bb-a40d-4b63-a12b-d6e8281724a0"},"vehicle_type_id":"4","last_reported":1773641632,"current_range_meters":8000,"station_id":"","pricing_plan_id":"cebpf4jnsgd1na2vs0mg"},{"bike_id":"a19df20f-9231-402c-af4b-243a8eb73680","system_id":"levelo_inurba_marseille","lat":43.33152,"lon":5.37627,"is_reserved":false,"is_disabled":false,"rental_uris":{"android":"levelo://app?vid=a19df20f-9231-402c-af4b-243a8eb73680","ios":"levelo://app?vid=a19df20f-9231-402c-af4b-243a8eb73680"},"vehicle_type_id":"4","last_reported":1773641632,"current_range_meters":20400,"station_id":"st_d46cu089ee8s73dldbu0","pricing_plan_id":"cebpf4jnsgd1na2vs0mg"},{"bike_id":"6e573b05-df54-421e-bd5c-785fb8f9ede2","system_id":"levelo_inurba_marseille","lat":43.30776,"lon":5.38164,"is_reserved":false,"is_disabled":false,"rental_uris":{"android":"levelo://app?vid=6e573b05-df54-421e-bd5c-785fb8f9ede2","ios":"levelo://app?vid=6e573b05-df54-421e-bd5c-785fb8f9ede2"},"vehicle_type_id":"4","last_reported":1773641632,"current_range_meters":39200,"station_id":"ce4bgt12rcd13ifvqce0","pricing_plan_id":"cebpf4jnsgd1na2vs0mg"},{"bike_id":"b992d013-31c6-40e6-b76c-ffb49d136524","system_id":"levelo_inurba_marseille","lat":43.32445,"lon":5.38872,"is_reserved":false,"is_disabled":false,"rental_uris":{"android":"levelo://app?vid=b992d013-31c6-40e6-b76c-ffb49d136524","ios":"levelo://app?vid=b992d013-31c6-40e6-b76c-ffb49d136524"},"vehicle_type_id":"4","last_reported":1773641632,"current_range_meters":38400,"station_id":"ce4bhqp2rcd13ifvqhog","pricing_plan_id":"cebpf4jnsgd1na2vs0mg"},{"bike_id":"14222995-893f-4cc9-8b3c-b55864764e6a","system_id":"levelo_inurba_marseille","lat":43.30402,"lon":5.41317,"is_reserved":false,"is_disabled":false,"rental_uris":{"android":"levelo://app?vid=14222995-893f-4cc9-8b3c-b55864764e6a","ios":"levelo://app?vid=14222995-893f-4cc9-8b3c-b55864764e6a"},"vehicle_type_id":"4","last_reported":1773641632,"current_range_meters":37600,"station_id":"ce4bhop2rcd13ifvqh8g","pricing_plan_id":"cebpf4jnsgd1na2vs0mg"},{"bike_id":"cab3f41b-7bc8-4e09-baa0-b80b41a112e3","system_id":"levelo_inurba_marseille","lat":43.30776,"lon":5.3766,"is_reserved":false,"is_disabled":false,"rental_uris":{"android":"levelo://app?vid=cab3f41b-7bc8-4e09-baa0-b80b41a112e3","ios":"levelo://app?vid=cab3f41b-7bc8-4e09-baa0-b80b41a112e3"},"vehicle_type_id":"4","last_reported":1773641632,"current_range_meters":30000,"station_id":"ce4bgv92rcd13ifvqcq0","pricing_plan_id":"cebpf4jnsgd1na2vs0mg"},{"bike_id":"77216a7f-364c-4873-bc97-ce369405114b","system_id":"levelo_inurba_marseille","lat":43.30147,"lon":5.43129,"is_reserved":false,"is_disabled":false,"rental_uris":{"android":"levelo://app?vid=77216a7f-364c-4873-bc97-ce369405114b","ios":"levelo://app?vid=77216a7f-364c-4873-bc97-ce369405114b"},"vehicle_type_id":"4","last_reported":1773641632,"current_range_meters":4800,"station_id":"st_d3js3co5814s73ftftug","pricing_plan_id":"cebpf4jnsgd1na2vs0mg"},{"bike_id":"6a4f4a2a-66e3-4916-8695-45549b884152","system_id":"levelo_inurba_marseille","lat":43.23964,"lon":5.36642,"is_reserved":false,"is_disabled":false,"rental_uris":{"android":"levelo://app?vid=6a4f4a2a-66e3-4916-8695-45549b884152","ios":"levelo://app?vid=6a4f4a2a-66e3-4916-8695-45549b884152"},"vehicle_type_id":"4","last_reported":1773641632,"current_range_meters":32400,"station_id":"ce4bhi12rcd13ifvqfp0","pricing_plan_id":"cebpf4jnsgd1na2vs0mg"},{"bike_id":"9b239944-ef15-4318-90d7-ee3527eb9d62","system_id":"levelo_inurba_marseille","lat":43.26372,"lon":5.41069,"is_reserved":false,"is_disabled":false,"rental_uris":{"android":"levelo://app?vid=9b239944-ef15-4318-90d7-ee3527eb9d62","ios":"levelo://app?vid=9b239944-ef15-4318-90d7-ee3527eb9d62"},"vehicle_type_id":"4","last_reported":1773641632,"current_range_meters":26800,"station_id":"st_d4e5ca6na9uc73bfl5fg","pricing_plan_id":"cebpf4jnsgd1na2vs0mg"},{"bike_id":"0daf6109-b8b0-47a6-a266-d3ab8c2a01a8","system_id":"levelo_inurba_marseille","lat":43.24025,"lon":5.37811,"is_reserved":false,"is_disabled":false,"rental_uris":{"android":"levelo://app?vid=0daf6109-b8b0-47a6-a266-d3ab8c2a01a8","ios":"levelo://app?vid=0daf6109-b8b0-47a6-a266-d3ab8c2a01a8"},"vehicle_type_id":"4","last_reported":1773641632,"current_range_meters":31200,"station_id":"ce4bhnp2rcd13ifvqgvg","pricing_plan_id":"cebpf4jnsgd1na2vs0mg"},{"bike_id":"82689d02-126d-4ee3-b5fe-e5e0bd6067b5","system_id":"levelo_inurba_marseille","lat":43.30191,"lon":5.38089,"is_reserved":false,"is_disabled":false,"rental_uris":{"android":"levelo://app?vid=82689d02-126d-4ee3-b5fe-e5e0bd6067b5","ios":"levelo://app?vid=82689d02-126d-4ee3-b5fe-e5e0bd6067b5"},"vehicle_type_id":"4","last_reported":1773641632,"current_range_meters":34000,"station_id":"ce4bgjp2rcd13ifvqbh0","pricing_plan_id":"cebpf4jnsgd1na2vs0mg"},{"bike_id":"014fbe6d-acef-4024-b919-caaae3fc7ea1","system_id":"levelo_inurba_marseille","lat":43.28614,"lon":5.35101,"is_reserved":false,"is_disabled":false,"rental_uris":{"android":"levelo://app?vid=014fbe6d-acef-4024-b919-caaae3fc7ea1","ios":"levelo://app?vid=014fbe6d-acef-4024-b919-caaae3fc7ea1"},"vehicle_type_id":"4","last_reported":1773641632,"current_range_meters":28800,"station_id":"","pricing_plan_id":"cebpf4jnsgd1na2vs0mg"},{"bike_id":"2f8a3295-f223-48a5-8862-585af649d3ce","system_id":"levelo_inurba_marseille","lat":43.30804,"lon":5.38156,"is_reserved":false,"is_disabled":false,"rental_uris":{"android":"levelo://app?vid=2f8a3295-f223-48a5-8862-585af649d3ce","ios":"levelo://app?vid=2f8a3295-f223-48a5-8862-585af649d3ce"},"vehicle_type_id":"4","last_reported":1773641632,"current_range_meters":38800,"station_id":"ce4bgt12rcd13ifvqce0","pricing_plan_id":"cebpf4jnsgd1na2vs0mg"},{"bike_id":"ac057b0b-ec7d-474d-bc6b-e45075be10be","system_id":"levelo_inurba_marseille","lat":43.27234,"lon":5.39157,"is_reserved":false,"is_disabled":false,"rental_uris":{"android":"levelo://app?vid=ac057b0b-ec7d-474d-bc6b-e45075be10be","ios":"levelo://app?vid=ac057b0b-ec7d-474d-bc6b-e45075be10be"},"vehicle_type_id":"4","last_reported":1773641632,"current_range_meters":26800,"station_id":"ce4bhhp2rcd13ifvqfm0","pricing_plan_id":"cebpf4jnsgd1na2vs0mg"},{"bike_id":"19373765-144a-4790-8089-8a5de9544f1f","system_id":"levelo_inurba_marseille","lat":43.24177,"lon":5.3973,"is_reserved":false,"is_disabled":false,"rental_uris":{"android":"levelo://app?vid=19373765-144a-4790-8089-8a5de9544f1f","ios":"levelo://app?vid=19373765-144a-4790-8089-8a5de9544f1f"},"vehicle_type_id":"4","last_reported":1773641632,"current_range_meters":29600,"station_id":"ce4bhn12rcd13ifvqgpg","pricing_plan_id":"cebpf4jnsgd1na2vs0mg"},{"bike_id":"db1fd290-7cf1-46ef-b260-8dc92a365963","system_id":"levelo_inurba_marseille","lat":43.28889,"lon":5.38441,"is_reserved":false,"is_disabled":false,"rental_uris":{"android":"levelo://app?vid=db1fd290-7cf1-46ef-b260-8dc92a365963","ios":"levelo://app?vid=db1fd290-7cf1-46ef-b260-8dc92a365963"},"vehicle_type_id":"4","last_reported":1773641632,"current_range_meters":3600,"station_id":"","pricing_plan_id":"cebpf4jnsgd1na2vs0mg"},{"bike_id":"d0dab2fa-d617-4c19-a612-133b45b47130","system_id":"levelo_inurba_marseille","lat":43.23165,"lon":5.35571,"is_reserved":false,"is_disabled":false,"rental_uris":{"android":"levelo://app?vid=d0dab2fa-d617-4c19-a612-133b45b47130","ios":"levelo://app?vid=d0dab2fa-d617-4c19-a612-133b45b47130"},"vehicle_type_id":"4","last_reported":1773641632,"current_range_meters":22400,"station_id":"ce4bhu92rcd13ifvqi70","pricing_plan_id":"cebpf4jnsgd1na2vs0mg"},{"bike_id":"491ba74c-a458-433d-a534-dfa81b7720cd","system_id":"levelo_inurba_marseille","lat":43.21758,"lon":5.34613,"is_reserved":false,"is_disabled":false,"rental_uris":{"android":"levelo://app?vid=491ba74c-a458-433d-a534-dfa81b7720cd","ios":"levelo://app?vid=491ba74c-a458-433d-a534-dfa81b7720cd"},"vehicle_type_id":"4","last_reported":1773641632,"current_range_meters":10000,"station_id":"st_cvj6r9ubvosntc0bgbag","pricing_plan_id":"cebpf4jnsgd1na2vs0mg"},{"bike_id":"e2c6eb21-c762-4ca4-b8e5-e457167376aa","system_id":"levelo_inurba_marseille","lat":43.25328,"lon":5.42181,"is_reserved":false,"is_disabled":false,"rental_uris":{"android":"levelo://app?vid=e2c6eb21-c762-4ca4-b8e5-e457167376aa","ios":"levelo://app?vid=e2c6eb21-c762-4ca4-b8e5-e457167376aa"},"vehicle_type_id":"4","last_reported":1773641632,"current_range_meters":20800,"station_id":"st_d2m65c5bi1j21697t3ng","pricing_plan_id":"cebpf4jnsgd1na2vs0mg"},{"bike_id":"c2d75a77-7dda-428e-bdbd-a97c9d7e2102","system_id":"levelo_inurba_marseille","lat":43.27065,"lon":5.38309,"is_reserved":false,"is_disabled":true,"rental_uris":{"android":"levelo://app?vid=c2d75a77-7dda-428e-bdbd-a97c9d7e2102","ios":"levelo://app?vid=c2d75a77-7dda-428e-bdbd-a97c9d7e2102"},"vehicle_type_id":"4","last_reported":1773641632,"current_range_meters":36400,"station_id":"st_d3n2fo6cfp8s73cte1j0","pricing_plan_id":"cebpf4jnsgd1na2vs0mg"},{"bike_id":"857b6928-ed90-4f6e-a6cf-93ba460b7680","system_id":"levelo_inurba_marseille","lat":43.32355,"lon":5.38911,"is_reserved":false,"is_disabled":false,"rental_uris":{"android":"levelo://app?vid=857b6928-ed90-4f6e-a6cf-93ba460b7680","ios":"levelo://app?vid=857b6928-ed90-4f6e-a6cf-93ba460b7680"},"vehicle_type_id":"4","last_reported":1773641632,"current_range_meters":39200,"station_id":"ce4bhqp2rcd13ifvqhog","pricing_plan_id":"cebpf4jnsgd1na2vs0mg"},{"bike_id":"147d9e2e-4d7d-4c39-81db-3a5e5196e84c","system_id":"levelo_inurba_marseille","lat":43.30178,"lon":5.3663,"is_reserved":false,"is_disabled":false,"rental_uris":{"android":"levelo://app?vid=147d9e2e-4d7d-4c39-81db-3a5e5196e84c","ios":"levelo://app?vid=147d9e2e-4d7d-4c39-81db-3a5e5196e84c"},"vehicle_type_id":"4","last_reported":1773641632,"current_range_meters":30400,"station_id":"ce4bgrh2rcd13ifvqc8g","pricing_plan_id":"cebpf4jnsgd1na2vs0mg"},{"bike_id":"e378ab9d-c754-4563-b960-fd5460f9bff6","system_id":"levelo_inurba_marseille","lat":43.29923,"lon":5.37557,"is_reserved":false,"is_disabled":false,"rental_uris":{"android":"levelo://app?vid=e378ab9d-c754-4563-b960-fd5460f9bff6","ios":"levelo://app?vid=e378ab9d-c754-4563-b960-fd5460f9bff6"},"vehicle_type_id":"4","last_reported":1773641632,"current_range_meters":39200,"station_id":"","pricing_plan_id":"cebpf4jnsgd1na2vs0mg"},{"bike_id":"dea631f7-42a0-4fc4-b750-984aa138e4f3","system_id":"levelo_inurba_marseille","lat":43.32342,"lon":5.38848,"is_reserved":false,"is_disabled":false,"rental_uris":{"android":"levelo://app?vid=dea631f7-42a0-4fc4-b750-984aa138e4f3","ios":"levelo://app?vid=dea631f7-42a0-4fc4-b750-984aa138e4f3"},"vehicle_type_id":"4","last_reported":1773641632,"current_range_meters":34000,"station_id":"ce4bhqp2rcd13ifvqhog","pricing_plan_id":"cebpf4jnsgd1na2vs0mg"},{"bike_id":"77cf337a-f277-4c7f-be96-deb35b8f95b1","system_id":"levelo_inurba_marseille","lat":43.28717,"lon":5.36083,"is_reserved":false,"is_disabled":false,"rental_uris":{"android":"levelo://app?vid=77cf337a-f277-4c7f-be96-deb35b8f95b1","ios":"levelo://app?vid=77cf337a-f277-4c7f-be96-deb35b8f95b1"},"vehicle_type_id":"4","last_reported":1773641632,"current_range_meters":22800,"station_id":"cki0cbj6b192h4jlfktg","pricing_plan_id":"cebpf4jnsgd1na2vs0mg"},{"bike_id":"ef124b6c-1864-4cf0-9457-14566d1138f0","system_id":"levelo_inurba_marseille","lat":43.26382,"lon":5.41043,"is_reserved":false,"is_disabled":false,"rental_uris":{"android":"levelo://app?vid=ef124b6c-1864-4cf0-9457-14566d1138f0","ios":"levelo://app?vid=ef124b6c-1864-4cf0-9457-14566d1138f0"},"vehicle_type_id":"4","last_reported":1773641632,"current_range_meters":27600,"station_id":"st_d4e5ca6na9uc73bfl5fg","pricing_plan_id":"cebpf4jnsgd1na2vs0mg"},{"bike_id":"fb9fd7c0-1f0e-473c-835c-9d5348822fc0","system_id":"levelo_inurba_marseille","lat":43.29048,"lon":5.39951,"is_reserved":false,"is_disabled":true,"rental_uris":{"android":"levelo://app?vid=fb9fd7c0-1f0e-473c-835c-9d5348822fc0","ios":"levelo://app?vid=fb9fd7c0-1f0e-473c-835c-9d5348822fc0"},"vehicle_type_id":"4","last_reported":1773641632,"current_range_meters":17200,"station_id":"ce4bh392rcd13ifvqdm0","pricing_plan_id":"cebpf4jnsgd1na2vs0mg"},{"bike_id":"38d0531b-a376-45b1-a464-727ba8a8c5fe","system_id":"levelo_inurba_marseille","lat":43.29176,"lon":5.39331,"is_reserved":false,"is_disabled":true,"rental_uris":{"android":"levelo://app?vid=38d0531b-a376-45b1-a464-727ba8a8c5fe","ios":"levelo://app?vid=38d0531b-a376-45b1-a464-727ba8a8c5fe"},"vehicle_type_id":"4","last_reported":1773641632,"current_range_meters":14400,"station_id":"ce4bh192rcd13ifvqdd0","pricing_plan_id":"cebpf4jnsgd1na2vs0mg"},{"bike_id":"c4ad7f1e-83a8-402d-934c-52848b63da9f","system_id":"levelo_inurba_marseille","lat":43.29485,"lon":5.43316,"is_reserved":false,"is_disabled":false,"rental_uris":{"android":"levelo://app?vid=c4ad7f1e-83a8-402d-934c-52848b63da9f","ios":"levelo://app?vid=c4ad7f1e-83a8-402d-934c-52848b63da9f"},"vehicle_type_id":"4","last_reported":1773641632,"current_range_meters":20800,"station_id":"st_d3j5ugp08ojc73fj9d10","pricing_plan_id":"cebpf4jnsgd1na2vs0mg"},{"bike_id":"aa431859-1766-448d-ae65-01c6f44f24b6","system_id":"levelo_inurba_marseille","lat":43.30161,"lon":5.38083,"is_reserved":false,"is_disabled":false,"rental_uris":{"android":"levelo://app?vid=aa431859-1766-448d-ae65-01c6f44f24b6","ios":"levelo://app?vid=aa431859-1766-448d-ae65-01c6f44f24b6"},"vehicle_type_id":"4","last_reported":1773641632,"current_range_meters":30800,"station_id":"ce4bgjp2rcd13ifvqbh0","pricing_plan_id":"cebpf4jnsgd1na2vs0mg"},{"bike_id":"0789a56b-6150-4be2-b269-f639a5ed5506","system_id":"levelo_inurba_marseille","lat":43.2571,"lon":5.41113,"is_reserved":false,"is_disabled":false,"rental_uris":{"android":"levelo://app?vid=0789a56b-6150-4be2-b269-f639a5ed5506","ios":"levelo://app?vid=0789a56b-6150-4be2-b269-f639a5ed5506"},"vehicle_type_id":"4","last_reported":1773641632,"current_range_meters":39200,"station_id":"ce4bhkp2rcd13ifvqgd0","pricing_plan_id":"cebpf4jnsgd1na2vs0mg"},{"bike_id":"e0aa63f5-6cf0-4cfc-8b9f-a48278f7aec2","system_id":"levelo_inurba_marseille","lat":43.24071,"lon":5.37756,"is_reserved":false,"is_disabled":false,"rental_uris":{"android":"levelo://app?vid=e0aa63f5-6cf0-4cfc-8b9f-a48278f7aec2","ios":"levelo://app?vid=e0aa63f5-6cf0-4cfc-8b9f-a48278f7aec2"},"vehicle_type_id":"4","last_reported":1773641632,"current_range_meters":9600,"station_id":"ce4bhnp2rcd13ifvqgvg","pricing_plan_id":"cebpf4jnsgd1na2vs0mg"},{"bike_id":"8f9cd0e1-d2d1-45ac-b8ff-abecdcb2737a","system_id":"levelo_inurba_marseille","lat":43.29086,"lon":5.38157,"is_reserved":false,"is_disabled":false,"rental_uris":{"android":"levelo://app?vid=8f9cd0e1-d2d1-45ac-b8ff-abecdcb2737a","ios":"levelo://app?vid=8f9cd0e1-d2d1-45ac-b8ff-abecdcb2737a"},"vehicle_type_id":"4","last_reported":1773641632,"current_range_meters":39200,"station_id":"ce4bh512rcd13ifvqe2g","pricing_plan_id":"cebpf4jnsgd1na2vs0mg"},{"bike_id":"f872ddfb-f9fc-46b4-bd1c-67ae3eea33ed","system_id":"levelo_inurba_marseille","lat":43.27821,"lon":5.40726,"is_reserved":false,"is_disabled":false,"rental_uris":{"android":"levelo://app?vid=f872ddfb-f9fc-46b4-bd1c-67ae3eea33ed","ios":"levelo://app?vid=f872ddfb-f9fc-46b4-bd1c-67ae3eea33ed"},"vehicle_type_id":"4","last_reported":1773641632,"current_range_meters":28800,"station_id":"ce4bhnh2rcd13ifvqgtg","pricing_plan_id":"cebpf4jnsgd1na2vs0mg"},{"bike_id":"b2c3231a-a459-4980-96de-a0758c9683cb","system_id":"levelo_inurba_marseille","lat":43.25147,"lon":5.40303,"is_reserved":false,"is_disabled":false,"rental_uris":{"android":"levelo://app?vid=b2c3231a-a459-4980-96de-a0758c9683cb","ios":"levelo://app?vid=b2c3231a-a459-4980-96de-a0758c9683cb"},"vehicle_type_id":"4","last_reported":1773641632,"current_range_meters":22800,"station_id":"","pricing_plan_id":"cebpf4jnsgd1na2vs0mg"},{"bike_id":"7a0d2b44-2532-4e82-9b01-539293bc78af","system_id":"levelo_inurba_marseille","lat":43.29268,"lon":5.40913,"is_reserved":false,"is_disabled":false,"rental_uris":{"android":"levelo://app?vid=7a0d2b44-2532-4e82-9b01-539293bc78af","ios":"levelo://app?vid=7a0d2b44-2532-4e82-9b01-539293bc78af"},"vehicle_type_id":"4","last_reported":1773641632,"current_range_meters":38800,"station_id":"ce4bh192rcd13ifvqdc0","pricing_plan_id":"cebpf4jnsgd1na2vs0mg"},{"bike_id":"6bd46585-7360-490f-b2a6-8e61e6304105","system_id":"levelo_inurba_marseille","lat":43.29736,"lon":5.42793,"is_reserved":false,"is_disabled":false,"rental_uris":{"android":"levelo://app?vid=6bd46585-7360-490f-b2a6-8e61e6304105","ios":"levelo://app?vid=6bd46585-7360-490f-b2a6-8e61e6304105"},"vehicle_type_id":"4","last_reported":1773641632,"current_range_meters":14800,"station_id":"st_d3md5207bmas73dh9klg","pricing_plan_id":"cebpf4jnsgd1na2vs0mg"},{"bike_id":"4c177e21-a8fe-4f57-a94f-d114f72249f7","system_id":"levelo_inurba_marseille","lat":43.31858,"lon":5.3697,"is_reserved":false,"is_disabled":false,"rental_uris":{"android":"levelo://app?vid=4c177e21-a8fe-4f57-a94f-d114f72249f7","ios":"levelo://app?vid=4c177e21-a8fe-4f57-a94f-d114f72249f7"},"vehicle_type_id":"4","last_reported":1773641632,"current_range_meters":38000,"station_id":"","pricing_plan_id":"cebpf4jnsgd1na2vs0mg"},{"bike_id":"962cd1c7-7f8e-4808-ad6d-1605d16400d7","system_id":"levelo_inurba_marseille","lat":43.26524,"lon":5.39028,"is_reserved":false,"is_disabled":false,"rental_uris":{"android":"levelo://app?vid=962cd1c7-7f8e-4808-ad6d-1605d16400d7","ios":"levelo://app?vid=962cd1c7-7f8e-4808-ad6d-1605d16400d7"},"vehicle_type_id":"4","last_reported":1773641632,"current_range_meters":14400,"station_id":"ce4bhe12rcd13ifvqf30","pricing_plan_id":"cebpf4jnsgd1na2vs0mg"},{"bike_id":"3cf889fb-bbe4-469a-8cd8-7b20282218a8","system_id":"levelo_inurba_marseille","lat":43.30237,"lon":5.40025,"is_reserved":false,"is_disabled":true,"rental_uris":{"android":"levelo://app?vid=3cf889fb-bbe4-469a-8cd8-7b20282218a8","ios":"levelo://app?vid=3cf889fb-bbe4-469a-8cd8-7b20282218a8"},"vehicle_type_id":"4","last_reported":1773641632,"current_range_meters":12000,"station_id":"","pricing_plan_id":"cebpf4jnsgd1na2vs0mg"},{"bike_id":"91df0174-aaee-4b9c-8836-32629188212b","system_id":"levelo_inurba_marseille","lat":43.30153,"lon":5.38088,"is_reserved":false,"is_disabled":false,"rental_uris":{"android":"levelo://app?vid=91df0174-aaee-4b9c-8836-32629188212b","ios":"levelo://app?vid=91df0174-aaee-4b9c-8836-32629188212b"},"vehicle_type_id":"4","last_reported":1773641632,"current_range_meters":32800,"station_id":"ce4bgjp2rcd13ifvqbh0","pricing_plan_id":"cebpf4jnsgd1na2vs0mg"},{"bike_id":"90006b8d-6aa9-4ebe-9082-e177c10b421a","system_id":"levelo_inurba_marseille","lat":43.30394,"lon":5.36928,"is_reserved":false,"is_disabled":false,"rental_uris":{"android":"levelo://app?vid=90006b8d-6aa9-4ebe-9082-e177c10b421a","ios":"levelo://app?vid=90006b8d-6aa9-4ebe-9082-e177c10b421a"},"vehicle_type_id":"4","last_reported":1773641632,"current_range_meters":38000,"station_id":"","pricing_plan_id":"cebpf4jnsgd1na2vs0mg"},{"bike_id":"0cf63c20-63c7-4c31-9739-9293c2fb4ef7","system_id":"levelo_inurba_marseille","lat":43.30652,"lon":5.40082,"is_reserved":false,"is_disabled":false,"rental_uris":{"android":"levelo://app?vid=0cf63c20-63c7-4c31-9739-9293c2fb4ef7","ios":"levelo://app?vid=0cf63c20-63c7-4c31-9739-9293c2fb4ef7"},"vehicle_type_id":"4","last_reported":1773641632,"current_range_meters":10000,"station_id":"ce4bh112rcd13ifvqda0","pricing_plan_id":"cebpf4jnsgd1na2vs0mg"},{"bike_id":"91420cc8-b163-49e8-837b-e233af013d8c","system_id":"levelo_inurba_marseille","lat":43.31723,"lon":5.42431,"is_reserved":false,"is_disabled":false,"rental_uris":{"android":"levelo://app?vid=91420cc8-b163-49e8-837b-e233af013d8c","ios":"levelo://app?vid=91420cc8-b163-49e8-837b-e233af013d8c"},"vehicle_type_id":"4","last_reported":1773641632,"current_range_meters":28000,"station_id":"ce4bhp92rcd13ifvqhbg","pricing_plan_id":"cebpf4jnsgd1na2vs0mg"},{"bike_id":"8ae3cd93-1df5-4c86-a3cd-ea1407ea9258","system_id":"levelo_inurba_marseille","lat":43.30745,"lon":5.42439,"is_reserved":false,"is_disabled":false,"rental_uris":{"android":"levelo://app?vid=8ae3cd93-1df5-4c86-a3cd-ea1407ea9258","ios":"levelo://app?vid=8ae3cd93-1df5-4c86-a3cd-ea1407ea9258"},"vehicle_type_id":"4","last_reported":1773641632,"current_range_meters":33600,"station_id":"st_cvj6ca6bvosntc0bfgr0","pricing_plan_id":"cebpf4jnsgd1na2vs0mg"},{"bike_id":"0bd699b8-0f51-4e7d-b635-e29484ca415b","system_id":"levelo_inurba_marseille","lat":43.25474,"lon":5.38266,"is_reserved":false,"is_disabled":false,"rental_uris":{"android":"levelo://app?vid=0bd699b8-0f51-4e7d-b635-e29484ca415b","ios":"levelo://app?vid=0bd699b8-0f51-4e7d-b635-e29484ca415b"},"vehicle_type_id":"4","last_reported":1773641632,"current_range_meters":20000,"station_id":"","pricing_plan_id":"cebpf4jnsgd1na2vs0mg"},{"bike_id":"a1a487e0-263f-4bcb-a083-313a46d262d6","system_id":"levelo_inurba_marseille","lat":43.29116,"lon":5.43276,"is_reserved":false,"is_disabled":true,"rental_uris":{"android":"levelo://app?vid=a1a487e0-263f-4bcb-a083-313a46d262d6","ios":"levelo://app?vid=a1a487e0-263f-4bcb-a083-313a46d262d6"},"vehicle_type_id":"4","last_reported":1773641632,"current_range_meters":23200,"station_id":"","pricing_plan_id":"cebpf4jnsgd1na2vs0mg"},{"bike_id":"93a5d93d-4fe2-4ba7-a041-a880da70a9fa","system_id":"levelo_inurba_marseille","lat":43.30798,"lon":5.38143,"is_reserved":false,"is_disabled":false,"rental_uris":{"android":"levelo://app?vid=93a5d93d-4fe2-4ba7-a041-a880da70a9fa","ios":"levelo://app?vid=93a5d93d-4fe2-4ba7-a041-a880da70a9fa"},"vehicle_type_id":"4","last_reported":1773641632,"current_range_meters":38800,"station_id":"ce4bgt12rcd13ifvqce0","pricing_plan_id":"cebpf4jnsgd1na2vs0mg"},{"bike_id":"6e1abef7-ccec-480c-b088-7bd1e10f49d7","system_id":"levelo_inurba_marseille","lat":43.25332,"lon":5.42178,"is_reserved":false,"is_disabled":false,"rental_uris":{"android":"levelo://app?vid=6e1abef7-ccec-480c-b088-7bd1e10f49d7","ios":"levelo://app?vid=6e1abef7-ccec-480c-b088-7bd1e10f49d7"},"vehicle_type_id":"4","last_reported":1773641632,"current_range_meters":37600,"station_id":"st_d2m65c5bi1j21697t3ng","pricing_plan_id":"cebpf4jnsgd1na2vs0mg"},{"bike_id":"c2329533-53c9-429e-ab26-3577d02aaa7c","system_id":"levelo_inurba_marseille","lat":43.28072,"lon":5.3965,"is_reserved":false,"is_disabled":false,"rental_uris":{"android":"levelo://app?vid=c2329533-53c9-429e-ab26-3577d02aaa7c","ios":"levelo://app?vid=c2329533-53c9-429e-ab26-3577d02aaa7c"},"vehicle_type_id":"4","last_reported":1773641632,"current_range_meters":37600,"station_id":"ce4bho12rcd13ifvqh2g","pricing_plan_id":"cebpf4jnsgd1na2vs0mg"},{"bike_id":"ddd64a40-0275-4ca7-a97f-2eff5d3e514a","system_id":"levelo_inurba_marseille","lat":43.28479,"lon":5.48396,"is_reserved":false,"is_disabled":false,"rental_uris":{"android":"levelo://app?vid=ddd64a40-0275-4ca7-a97f-2eff5d3e514a","ios":"levelo://app?vid=ddd64a40-0275-4ca7-a97f-2eff5d3e514a"},"vehicle_type_id":"4","last_reported":1773641632,"current_range_meters":9200,"station_id":"","pricing_plan_id":"cebpf4jnsgd1na2vs0mg"},{"bike_id":"01fb8154-7529-482f-ae88-1aab3364d088","system_id":"levelo_inurba_marseille","lat":43.28985,"lon":5.36566,"is_reserved":false,"is_disabled":false,"rental_uris":{"android":"levelo://app?vid=01fb8154-7529-482f-ae88-1aab3364d088","ios":"levelo://app?vid=01fb8154-7529-482f-ae88-1aab3364d088"},"vehicle_type_id":"4","last_reported":1773641632,"current_range_meters":37600,"station_id":"ce4bhap2rcd13ifvqek0","pricing_plan_id":"cebpf4jnsgd1na2vs0mg"},{"bike_id":"81467cca-3c71-4094-a5dc-2ce923c92b67","system_id":"levelo_inurba_marseille","lat":43.26667,"lon":5.38282,"is_reserved":false,"is_disabled":false,"rental_uris":{"android":"levelo://app?vid=81467cca-3c71-4094-a5dc-2ce923c92b67","ios":"levelo://app?vid=81467cca-3c71-4094-a5dc-2ce923c92b67"},"vehicle_type_id":"4","last_reported":1773641632,"current_range_meters":28000,"station_id":"ce4bhg92rcd13ifvqf90","pricing_plan_id":"cebpf4jnsgd1na2vs0mg"},{"bike_id":"808e0505-a916-4905-baf9-4b0ab02a4fd3","system_id":"levelo_inurba_marseille","lat":43.29222,"lon":5.36065,"is_reserved":false,"is_disabled":false,"rental_uris":{"android":"levelo://app?vid=808e0505-a916-4905-baf9-4b0ab02a4fd3","ios":"levelo://app?vid=808e0505-a916-4905-baf9-4b0ab02a4fd3"},"vehicle_type_id":"4","last_reported":1773641632,"current_range_meters":18800,"station_id":"ce4bhbh2rcd13ifvqeqg","pricing_plan_id":"cebpf4jnsgd1na2vs0mg"},{"bike_id":"1a2ad8e0-25f4-4b1d-a268-792ddb756ae5","system_id":"levelo_inurba_marseille","lat":43.33545,"lon":5.37461,"is_reserved":false,"is_disabled":false,"rental_uris":{"android":"levelo://app?vid=1a2ad8e0-25f4-4b1d-a268-792ddb756ae5","ios":"levelo://app?vid=1a2ad8e0-25f4-4b1d-a268-792ddb756ae5"},"vehicle_type_id":"4","last_reported":1773641632,"current_range_meters":14400,"station_id":"st_d46tts09ee8s73dlu43g","pricing_plan_id":"cebpf4jnsgd1na2vs0mg"},{"bike_id":"5dea7ece-1d9b-471d-a08a-4a42d6f62761","system_id":"levelo_inurba_marseille","lat":43.28607,"lon":5.35084,"is_reserved":false,"is_disabled":false,"rental_uris":{"android":"levelo://app?vid=5dea7ece-1d9b-471d-a08a-4a42d6f62761","ios":"levelo://app?vid=5dea7ece-1d9b-471d-a08a-4a42d6f62761"},"vehicle_type_id":"4","last_reported":1773641632,"current_range_meters":33600,"station_id":"ce4bhch2rcd13ifvqeug","pricing_plan_id":"cebpf4jnsgd1na2vs0mg"},{"bike_id":"e6848c42-4a8d-4b5f-821d-881ce2de5a3c","system_id":"levelo_inurba_marseille","lat":43.30169,"lon":5.38093,"is_reserved":false,"is_disabled":false,"rental_uris":{"android":"levelo://app?vid=e6848c42-4a8d-4b5f-821d-881ce2de5a3c","ios":"levelo://app?vid=e6848c42-4a8d-4b5f-821d-881ce2de5a3c"},"vehicle_type_id":"4","last_reported":1773641632,"current_range_meters":34800,"station_id":"ce4bgjp2rcd13ifvqbh0","pricing_plan_id":"cebpf4jnsgd1na2vs0mg"},{"bike_id":"4ca44aa6-10ac-4fa2-bc13-c4d3efd72fda","system_id":"levelo_inurba_marseille","lat":43.29955,"lon":5.41327,"is_reserved":false,"is_disabled":false,"rental_uris":{"android":"levelo://app?vid=4ca44aa6-10ac-4fa2-bc13-c4d3efd72fda","ios":"levelo://app?vid=4ca44aa6-10ac-4fa2-bc13-c4d3efd72fda"},"vehicle_type_id":"4","last_reported":1773641632,"current_range_meters":12000,"station_id":"ce4bhp12rcd13ifvqh9g","pricing_plan_id":"cebpf4jnsgd1na2vs0mg"},{"bike_id":"8e34bded-9525-4894-bb7f-75c7d720f9d9","system_id":"levelo_inurba_marseille","lat":43.25524,"lon":5.38246,"is_reserved":false,"is_disabled":false,"rental_uris":{"android":"levelo://app?vid=8e34bded-9525-4894-bb7f-75c7d720f9d9","ios":"levelo://app?vid=8e34bded-9525-4894-bb7f-75c7d720f9d9"},"vehicle_type_id":"4","last_reported":1773641632,"current_range_meters":38400,"station_id":"ce4bhih2rcd13ifvqfs0","pricing_plan_id":"cebpf4jnsgd1na2vs0mg"},{"bike_id":"4196f460-38e0-4346-bc6c-1b0016203b0f","system_id":"levelo_inurba_marseille","lat":43.31701,"lon":5.40478,"is_reserved":false,"is_disabled":false,"rental_uris":{"android":"levelo://app?vid=4196f460-38e0-4346-bc6c-1b0016203b0f","ios":"levelo://app?vid=4196f460-38e0-4346-bc6c-1b0016203b0f"},"vehicle_type_id":"4","last_reported":1773641632,"current_range_meters":28800,"station_id":"ce4bh012rcd13ifvqd00","pricing_plan_id":"cebpf4jnsgd1na2vs0mg"},{"bike_id":"529a3fba-c634-4c3b-b494-ce629a839a61","system_id":"levelo_inurba_marseille","lat":43.24522,"lon":5.39541,"is_reserved":false,"is_disabled":false,"rental_uris":{"android":"levelo://app?vid=529a3fba-c634-4c3b-b494-ce629a839a61","ios":"levelo://app?vid=529a3fba-c634-4c3b-b494-ce629a839a61"},"vehicle_type_id":"4","last_reported":1773641632,"current_range_meters":20400,"station_id":"ce4bhlp2rcd13ifvqgjg","pricing_plan_id":"cebpf4jnsgd1na2vs0mg"},{"bike_id":"8d7bb8e1-ba6a-4d85-92d2-55de86941036","system_id":"levelo_inurba_marseille","lat":43.30144,"lon":5.3987,"is_reserved":false,"is_disabled":true,"rental_uris":{"android":"levelo://app?vid=8d7bb8e1-ba6a-4d85-92d2-55de86941036","ios":"levelo://app?vid=8d7bb8e1-ba6a-4d85-92d2-55de86941036"},"vehicle_type_id":"4","last_reported":1773641632,"current_range_meters":36800,"station_id":"ce4bh0h2rcd13ifvqd40","pricing_plan_id":"cebpf4jnsgd1na2vs0mg"},{"bike_id":"03b7b7b0-c95a-4859-aa17-1d1122cba41f","system_id":"levelo_inurba_marseille","lat":43.31078,"lon":5.42446,"is_reserved":false,"is_disabled":false,"rental_uris":{"android":"levelo://app?vid=03b7b7b0-c95a-4859-aa17-1d1122cba41f","ios":"levelo://app?vid=03b7b7b0-c95a-4859-aa17-1d1122cba41f"},"vehicle_type_id":"4","last_reported":1773641632,"current_range_meters":39200,"station_id":"ce4bhp92rcd13ifvqhag","pricing_plan_id":"cebpf4jnsgd1na2vs0mg"},{"bike_id":"143d16da-44d6-45e7-a9ae-c2ad8ff29ee0","system_id":"levelo_inurba_marseille","lat":43.24795,"lon":5.37474,"is_reserved":false,"is_disabled":false,"rental_uris":{"android":"levelo://app?vid=143d16da-44d6-45e7-a9ae-c2ad8ff29ee0","ios":"levelo://app?vid=143d16da-44d6-45e7-a9ae-c2ad8ff29ee0"},"vehicle_type_id":"4","last_reported":1773641632,"current_range_meters":8000,"station_id":"ce4bhgh2rcd13ifvqfb0","pricing_plan_id":"cebpf4jnsgd1na2vs0mg"},{"bike_id":"968156d7-a71a-4f79-a635-19dbd790a168","system_id":"levelo_inurba_marseille","lat":43.28537,"lon":5.44105,"is_reserved":false,"is_disabled":false,"rental_uris":{"android":"levelo://app?vid=968156d7-a71a-4f79-a635-19dbd790a168","ios":"levelo://app?vid=968156d7-a71a-4f79-a635-19dbd790a168"},"vehicle_type_id":"4","last_reported":1773641632,"current_range_meters":25200,"station_id":"st_d3j3df2ikq2c7380ej80","pricing_plan_id":"cebpf4jnsgd1na2vs0mg"},{"bike_id":"ff8738cd-a9bf-4508-bea6-36829be4e407","system_id":"levelo_inurba_marseille","lat":43.28613,"lon":5.35174,"is_reserved":false,"is_disabled":false,"rental_uris":{"android":"levelo://app?vid=ff8738cd-a9bf-4508-bea6-36829be4e407","ios":"levelo://app?vid=ff8738cd-a9bf-4508-bea6-36829be4e407"},"vehicle_type_id":"4","last_reported":1773641632,"current_range_meters":24400,"station_id":"","pricing_plan_id":"cebpf4jnsgd1na2vs0mg"},{"bike_id":"23a637ec-04a3-49af-8a00-c5a6e270e0c1","system_id":"levelo_inurba_marseille","lat":43.29257,"lon":5.40893,"is_reserved":false,"is_disabled":false,"rental_uris":{"android":"levelo://app?vid=23a637ec-04a3-49af-8a00-c5a6e270e0c1","ios":"levelo://app?vid=23a637ec-04a3-49af-8a00-c5a6e270e0c1"},"vehicle_type_id":"4","last_reported":1773641632,"current_range_meters":33600,"station_id":"ce4bh192rcd13ifvqdc0","pricing_plan_id":"cebpf4jnsgd1na2vs0mg"},{"bike_id":"ce7ab000-ef36-45d8-8e94-77a4c6238e6d","system_id":"levelo_inurba_marseille","lat":43.30547,"lon":5.36533,"is_reserved":false,"is_disabled":true,"rental_uris":{"android":"levelo://app?vid=ce7ab000-ef36-45d8-8e94-77a4c6238e6d","ios":"levelo://app?vid=ce7ab000-ef36-45d8-8e94-77a4c6238e6d"},"vehicle_type_id":"4","last_reported":1773641632,"current_range_meters":19600,"station_id":"ce4bgs12rcd13ifvqcag","pricing_plan_id":"cebpf4jnsgd1na2vs0mg"},{"bike_id":"e842dc60-ab62-4379-a0ed-030031db5b1e","system_id":"levelo_inurba_marseille","lat":43.21182,"lon":5.35142,"is_reserved":false,"is_disabled":false,"rental_uris":{"android":"levelo://app?vid=e842dc60-ab62-4379-a0ed-030031db5b1e","ios":"levelo://app?vid=e842dc60-ab62-4379-a0ed-030031db5b1e"},"vehicle_type_id":"4","last_reported":1773641632,"current_range_meters":11600,"station_id":"st_cvj6sg6p6f1abm77japg","pricing_plan_id":"cebpf4jnsgd1na2vs0mg"},{"bike_id":"70014854-acff-49ca-9046-c49e81b9ca34","system_id":"levelo_inurba_marseille","lat":43.2176,"lon":5.34593,"is_reserved":false,"is_disabled":false,"rental_uris":{"android":"levelo://app?vid=70014854-acff-49ca-9046-c49e81b9ca34","ios":"levelo://app?vid=70014854-acff-49ca-9046-c49e81b9ca34"},"vehicle_type_id":"4","last_reported":1773641632,"current_range_meters":27200,"station_id":"st_cvj6r9ubvosntc0bgbag","pricing_plan_id":"cebpf4jnsgd1na2vs0mg"},{"bike_id":"ebae0e78-6890-4e81-8932-827cabc0dcd4","system_id":"levelo_inurba_marseille","lat":43.30318,"lon":5.36873,"is_reserved":false,"is_disabled":false,"rental_uris":{"android":"levelo://app?vid=ebae0e78-6890-4e81-8932-827cabc0dcd4","ios":"levelo://app?vid=ebae0e78-6890-4e81-8932-827cabc0dcd4"},"vehicle_type_id":"4","last_reported":1773641632,"current_range_meters":39200,"station_id":"ce4bgqh2rcd13ifvqc5g","pricing_plan_id":"cebpf4jnsgd1na2vs0mg"},{"bike_id":"3998c6a9-9fc6-4061-bac8-8f38e33bf625","system_id":"levelo_inurba_marseille","lat":43.25082,"lon":5.39548,"is_reserved":false,"is_disabled":false,"rental_uris":{"android":"levelo://app?vid=3998c6a9-9fc6-4061-bac8-8f38e33bf625","ios":"levelo://app?vid=3998c6a9-9fc6-4061-bac8-8f38e33bf625"},"vehicle_type_id":"4","last_reported":1773641632,"current_range_meters":39200,"station_id":"ce4bhm12rcd13ifvqgkg","pricing_plan_id":"cebpf4jnsgd1na2vs0mg"},{"bike_id":"5e6a52b2-80fb-4f49-af6b-3d4193534c8a","system_id":"levelo_inurba_marseille","lat":43.28258,"lon":5.35091,"is_reserved":false,"is_disabled":false,"rental_uris":{"android":"levelo://app?vid=5e6a52b2-80fb-4f49-af6b-3d4193534c8a","ios":"levelo://app?vid=5e6a52b2-80fb-4f49-af6b-3d4193534c8a"},"vehicle_type_id":"4","last_reported":1773641632,"current_range_meters":38000,"station_id":"ce4bhbp2rcd13ifvqerg","pricing_plan_id":"cebpf4jnsgd1na2vs0mg"},{"bike_id":"f390fab6-52a0-4bcf-a47e-3a9e67e606d0","system_id":"levelo_inurba_marseille","lat":43.31439,"lon":5.37333,"is_reserved":false,"is_disabled":false,"rental_uris":{"android":"levelo://app?vid=f390fab6-52a0-4bcf-a47e-3a9e67e606d0","ios":"levelo://app?vid=f390fab6-52a0-4bcf-a47e-3a9e67e606d0"},"vehicle_type_id":"4","last_reported":1773641632,"current_range_meters":36000,"station_id":"","pricing_plan_id":"cebpf4jnsgd1na2vs0mg"},{"bike_id":"177dde7b-d2de-4c6f-a770-315c66758692","system_id":"levelo_inurba_marseille","lat":43.28476,"lon":5.4839,"is_reserved":false,"is_disabled":false,"rental_uris":{"android":"levelo://app?vid=177dde7b-d2de-4c6f-a770-315c66758692","ios":"levelo://app?vid=177dde7b-d2de-4c6f-a770-315c66758692"},"vehicle_type_id":"4","last_reported":1773641632,"current_range_meters":34000,"station_id":"","pricing_plan_id":"cebpf4jnsgd1na2vs0mg"},{"bike_id":"6f54e01c-8e88-4d8b-ae33-a3d8388a376b","system_id":"levelo_inurba_marseille","lat":43.25018,"lon":5.38916,"is_reserved":false,"is_disabled":false,"rental_uris":{"android":"levelo://app?vid=6f54e01c-8e88-4d8b-ae33-a3d8388a376b","ios":"levelo://app?vid=6f54e01c-8e88-4d8b-ae33-a3d8388a376b"},"vehicle_type_id":"4","last_reported":1773641632,"current_range_meters":25600,"station_id":"ce4bhgp2rcd13ifvqfd0","pricing_plan_id":"cebpf4jnsgd1na2vs0mg"},{"bike_id":"a051cb11-967e-431a-9bb7-b0327fee3e80","system_id":"levelo_inurba_marseille","lat":43.31642,"lon":5.4054,"is_reserved":false,"is_disabled":false,"rental_uris":{"android":"levelo://app?vid=a051cb11-967e-431a-9bb7-b0327fee3e80","ios":"levelo://app?vid=a051cb11-967e-431a-9bb7-b0327fee3e80"},"vehicle_type_id":"4","last_reported":1773641632,"current_range_meters":27600,"station_id":"","pricing_plan_id":"cebpf4jnsgd1na2vs0mg"},{"bike_id":"5b8559b0-3e9d-4180-86ed-03032c99a483","system_id":"levelo_inurba_marseille","lat":43.23428,"lon":5.41254,"is_reserved":false,"is_disabled":false,"rental_uris":{"android":"levelo://app?vid=5b8559b0-3e9d-4180-86ed-03032c99a483","ios":"levelo://app?vid=5b8559b0-3e9d-4180-86ed-03032c99a483"},"vehicle_type_id":"4","last_reported":1773641632,"current_range_meters":18000,"station_id":"","pricing_plan_id":"cebpf4jnsgd1na2vs0mg"},{"bike_id":"1741325f-8422-4356-83e0-b5761d6e485a","system_id":"levelo_inurba_marseille","lat":43.31378,"lon":5.36719,"is_reserved":false,"is_disabled":false,"rental_uris":{"android":"levelo://app?vid=1741325f-8422-4356-83e0-b5761d6e485a","ios":"levelo://app?vid=1741325f-8422-4356-83e0-b5761d6e485a"},"vehicle_type_id":"4","last_reported":1773641632,"current_range_meters":36400,"station_id":"ce4bgr92rcd13ifvqc6g","pricing_plan_id":"cebpf4jnsgd1na2vs0mg"},{"bike_id":"fdb59933-d372-4b8d-824f-32df33db4cd9","system_id":"levelo_inurba_marseille","lat":43.30151,"lon":5.37392,"is_reserved":false,"is_disabled":false,"rental_uris":{"android":"levelo://app?vid=fdb59933-d372-4b8d-824f-32df33db4cd9","ios":"levelo://app?vid=fdb59933-d372-4b8d-824f-32df33db4cd9"},"vehicle_type_id":"4","last_reported":1773641632,"current_range_meters":7200,"station_id":"ce4bgs92rcd13ifvqcc0","pricing_plan_id":"cebpf4jnsgd1na2vs0mg"},{"bike_id":"43918b9b-ff13-4bbb-ac03-aa8307d32985","system_id":"levelo_inurba_marseille","lat":43.2319,"lon":5.35552,"is_reserved":false,"is_disabled":false,"rental_uris":{"android":"levelo://app?vid=43918b9b-ff13-4bbb-ac03-aa8307d32985","ios":"levelo://app?vid=43918b9b-ff13-4bbb-ac03-aa8307d32985"},"vehicle_type_id":"4","last_reported":1773641632,"current_range_meters":28800,"station_id":"ce4bhu92rcd13ifvqi70","pricing_plan_id":"cebpf4jnsgd1na2vs0mg"},{"bike_id":"f4b7fd6d-fc43-40a0-9444-97cda83baecc","system_id":"levelo_inurba_marseille","lat":43.28478,"lon":5.48386,"is_reserved":false,"is_disabled":false,"rental_uris":{"android":"levelo://app?vid=f4b7fd6d-fc43-40a0-9444-97cda83baecc","ios":"levelo://app?vid=f4b7fd6d-fc43-40a0-9444-97cda83baecc"},"vehicle_type_id":"4","last_reported":1773641632,"current_range_meters":26800,"station_id":"","pricing_plan_id":"cebpf4jnsgd1na2vs0mg"},{"bike_id":"4d47efcc-581f-464c-b97b-1dcc117fecd5","system_id":"levelo_inurba_marseille","lat":43.24206,"lon":5.3641,"is_reserved":false,"is_disabled":false,"rental_uris":{"android":"levelo://app?vid=4d47efcc-581f-464c-b97b-1dcc117fecd5","ios":"levelo://app?vid=4d47efcc-581f-464c-b97b-1dcc117fecd5"},"vehicle_type_id":"4","last_reported":1773641632,"current_range_meters":6800,"station_id":"cpo36qri1sfpv3e86is0","pricing_plan_id":"cebpf4jnsgd1na2vs0mg"},{"bike_id":"ad5d6575-373a-4626-b109-e5e54a834cdc","system_id":"levelo_inurba_marseille","lat":43.30922,"lon":5.40151,"is_reserved":false,"is_disabled":true,"rental_uris":{"android":"levelo://app?vid=ad5d6575-373a-4626-b109-e5e54a834cdc","ios":"levelo://app?vid=ad5d6575-373a-4626-b109-e5e54a834cdc"},"vehicle_type_id":"4","last_reported":1773641632,"current_range_meters":28800,"station_id":"ce4bgvp2rcd13ifvqct0","pricing_plan_id":"cebpf4jnsgd1na2vs0mg"},{"bike_id":"af920090-c1ea-4536-8501-743fdadaa40a","system_id":"levelo_inurba_marseille","lat":43.2909,"lon":5.38145,"is_reserved":false,"is_disabled":false,"rental_uris":{"android":"levelo://app?vid=af920090-c1ea-4536-8501-743fdadaa40a","ios":"levelo://app?vid=af920090-c1ea-4536-8501-743fdadaa40a"},"vehicle_type_id":"4","last_reported":1773641632,"current_range_meters":39200,"station_id":"ce4bh512rcd13ifvqe2g","pricing_plan_id":"cebpf4jnsgd1na2vs0mg"},{"bike_id":"4b97481f-9108-45fd-821f-d48a3d5cbf8b","system_id":"levelo_inurba_marseille","lat":43.24541,"lon":5.38426,"is_reserved":false,"is_disabled":false,"rental_uris":{"android":"levelo://app?vid=4b97481f-9108-45fd-821f-d48a3d5cbf8b","ios":"levelo://app?vid=4b97481f-9108-45fd-821f-d48a3d5cbf8b"},"vehicle_type_id":"4","last_reported":1773641632,"current_range_meters":39200,"station_id":"ce4bhih2rcd13ifvqfr0","pricing_plan_id":"cebpf4jnsgd1na2vs0mg"},{"bike_id":"47437dbd-a43a-491e-9da9-be7faee139eb","system_id":"levelo_inurba_marseille","lat":43.32458,"lon":5.36597,"is_reserved":false,"is_disabled":false,"rental_uris":{"android":"levelo://app?vid=47437dbd-a43a-491e-9da9-be7faee139eb","ios":"levelo://app?vid=47437dbd-a43a-491e-9da9-be7faee139eb"},"vehicle_type_id":"4","last_reported":1773641632,"current_range_meters":39200,"station_id":"ce4bhs12rcd13ifvqhvg","pricing_plan_id":"cebpf4jnsgd1na2vs0mg"},{"bike_id":"bad3acb1-605c-4b34-b1f7-4179ab82149a","system_id":"levelo_inurba_marseille","lat":43.27071,"lon":5.42255,"is_reserved":false,"is_disabled":false,"rental_uris":{"android":"levelo://app?vid=bad3acb1-605c-4b34-b1f7-4179ab82149a","ios":"levelo://app?vid=bad3acb1-605c-4b34-b1f7-4179ab82149a"},"vehicle_type_id":"4","last_reported":1773641632,"current_range_meters":36800,"station_id":"ce4bhk92rcd13ifvqgb0","pricing_plan_id":"cebpf4jnsgd1na2vs0mg"},{"bike_id":"c767c7d5-f24b-40e4-83cb-64b6d7283201","system_id":"levelo_inurba_marseille","lat":43.3031,"lon":5.40432,"is_reserved":false,"is_disabled":false,"rental_uris":{"android":"levelo://app?vid=c767c7d5-f24b-40e4-83cb-64b6d7283201","ios":"levelo://app?vid=c767c7d5-f24b-40e4-83cb-64b6d7283201"},"vehicle_type_id":"4","last_reported":1773641632,"current_range_meters":39200,"station_id":"ce4bh012rcd13ifvqd10","pricing_plan_id":"cebpf4jnsgd1na2vs0mg"},{"bike_id":"24f93750-51b8-472f-b4d2-f19a8909224c","system_id":"levelo_inurba_marseille","lat":43.32342,"lon":5.36726,"is_reserved":false,"is_disabled":false,"rental_uris":{"android":"levelo://app?vid=24f93750-51b8-472f-b4d2-f19a8909224c","ios":"levelo://app?vid=24f93750-51b8-472f-b4d2-f19a8909224c"},"vehicle_type_id":"4","last_reported":1773641632,"current_range_meters":30800,"station_id":"ce4bhsh2rcd13ifvqi2g","pricing_plan_id":"cebpf4jnsgd1na2vs0mg"},{"bike_id":"49fc7284-9e84-4e41-b11a-a6f445433570","system_id":"levelo_inurba_marseille","lat":43.28079,"lon":5.39657,"is_reserved":false,"is_disabled":true,"rental_uris":{"android":"levelo://app?vid=49fc7284-9e84-4e41-b11a-a6f445433570","ios":"levelo://app?vid=49fc7284-9e84-4e41-b11a-a6f445433570"},"vehicle_type_id":"4","last_reported":1773641632,"current_range_meters":32400,"station_id":"ce4bho12rcd13ifvqh2g","pricing_plan_id":"cebpf4jnsgd1na2vs0mg"},{"bike_id":"d704426a-1f6b-4db1-a876-d214da7986d1","system_id":"levelo_inurba_marseille","lat":43.29454,"lon":5.39763,"is_reserved":false,"is_disabled":true,"rental_uris":{"android":"levelo://app?vid=d704426a-1f6b-4db1-a876-d214da7986d1","ios":"levelo://app?vid=d704426a-1f6b-4db1-a876-d214da7986d1"},"vehicle_type_id":"4","last_reported":1773641632,"current_range_meters":20400,"station_id":"ce4bh3h2rcd13ifvqdo0","pricing_plan_id":"cebpf4jnsgd1na2vs0mg"},{"bike_id":"cf19edb0-619d-42fe-8e04-f3c919b93e8b","system_id":"levelo_inurba_marseille","lat":43.2319,"lon":5.35571,"is_reserved":false,"is_disabled":false,"rental_uris":{"android":"levelo://app?vid=cf19edb0-619d-42fe-8e04-f3c919b93e8b","ios":"levelo://app?vid=cf19edb0-619d-42fe-8e04-f3c919b93e8b"},"vehicle_type_id":"4","last_reported":1773641632,"current_range_meters":30800,"station_id":"ce4bhu92rcd13ifvqi70","pricing_plan_id":"cebpf4jnsgd1na2vs0mg"},{"bike_id":"4f8a8f64-0cea-447a-a6cb-ea09d24d6c0e","system_id":"levelo_inurba_marseille","lat":43.22606,"lon":5.41559,"is_reserved":false,"is_disabled":false,"rental_uris":{"android":"levelo://app?vid=4f8a8f64-0cea-447a-a6cb-ea09d24d6c0e","ios":"levelo://app?vid=4f8a8f64-0cea-447a-a6cb-ea09d24d6c0e"},"vehicle_type_id":"4","last_reported":1773641632,"current_range_meters":36800,"station_id":"st_d2o4gvlbi1j2169b742g","pricing_plan_id":"cebpf4jnsgd1na2vs0mg"},{"bike_id":"0adcc58c-e2a2-4863-ace0-5a79a2514524","system_id":"levelo_inurba_marseille","lat":43.30153,"lon":5.37412,"is_reserved":false,"is_disabled":false,"rental_uris":{"android":"levelo://app?vid=0adcc58c-e2a2-4863-ace0-5a79a2514524","ios":"levelo://app?vid=0adcc58c-e2a2-4863-ace0-5a79a2514524"},"vehicle_type_id":"4","last_reported":1773641632,"current_range_meters":39200,"station_id":"ce4bgs92rcd13ifvqcc0","pricing_plan_id":"cebpf4jnsgd1na2vs0mg"},{"bike_id":"8817ca42-14d2-402b-93d9-5bb6c2ac773a","system_id":"levelo_inurba_marseille","lat":43.29435,"lon":5.3978,"is_reserved":false,"is_disabled":true,"rental_uris":{"android":"levelo://app?vid=8817ca42-14d2-402b-93d9-5bb6c2ac773a","ios":"levelo://app?vid=8817ca42-14d2-402b-93d9-5bb6c2ac773a"},"vehicle_type_id":"4","last_reported":1773641632,"current_range_meters":36400,"station_id":"ce4bh3h2rcd13ifvqdo0","pricing_plan_id":"cebpf4jnsgd1na2vs0mg"},{"bike_id":"f0adaabd-6dc3-4ef8-bf28-95e4254c8d8c","system_id":"levelo_inurba_marseille","lat":43.30779,"lon":5.37647,"is_reserved":false,"is_disabled":false,"rental_uris":{"android":"levelo://app?vid=f0adaabd-6dc3-4ef8-bf28-95e4254c8d8c","ios":"levelo://app?vid=f0adaabd-6dc3-4ef8-bf28-95e4254c8d8c"},"vehicle_type_id":"4","last_reported":1773641632,"current_range_meters":32800,"station_id":"ce4bgv92rcd13ifvqcq0","pricing_plan_id":"cebpf4jnsgd1na2vs0mg"},{"bike_id":"34257e2b-5da9-4af1-bdd7-664aa8db6834","system_id":"levelo_inurba_marseille","lat":43.23207,"lon":5.3556,"is_reserved":false,"is_disabled":false,"rental_uris":{"android":"levelo://app?vid=34257e2b-5da9-4af1-bdd7-664aa8db6834","ios":"levelo://app?vid=34257e2b-5da9-4af1-bdd7-664aa8db6834"},"vehicle_type_id":"4","last_reported":1773641632,"current_range_meters":36000,"station_id":"ce4bhu92rcd13ifvqi70","pricing_plan_id":"cebpf4jnsgd1na2vs0mg"},{"bike_id":"288bcbf7-3a52-4b2b-9af2-61f8cf367965","system_id":"levelo_inurba_marseille","lat":43.25727,"lon":5.41098,"is_reserved":false,"is_disabled":false,"rental_uris":{"android":"levelo://app?vid=288bcbf7-3a52-4b2b-9af2-61f8cf367965","ios":"levelo://app?vid=288bcbf7-3a52-4b2b-9af2-61f8cf367965"},"vehicle_type_id":"4","last_reported":1773641632,"current_range_meters":35200,"station_id":"ce4bhkp2rcd13ifvqgd0","pricing_plan_id":"cebpf4jnsgd1na2vs0mg"},{"bike_id":"fec66160-eca4-4055-a135-94a62af705e8","system_id":"levelo_inurba_marseille","lat":43.25016,"lon":5.38954,"is_reserved":false,"is_disabled":false,"rental_uris":{"android":"levelo://app?vid=fec66160-eca4-4055-a135-94a62af705e8","ios":"levelo://app?vid=fec66160-eca4-4055-a135-94a62af705e8"},"vehicle_type_id":"4","last_reported":1773641632,"current_range_meters":9200,"station_id":"ce4bhgp2rcd13ifvqfd0","pricing_plan_id":"cebpf4jnsgd1na2vs0mg"},{"bike_id":"491cd09c-e0c2-44f1-852f-8525d428457d","system_id":"levelo_inurba_marseille","lat":43.3109,"lon":5.42434,"is_reserved":false,"is_disabled":false,"rental_uris":{"android":"levelo://app?vid=491cd09c-e0c2-44f1-852f-8525d428457d","ios":"levelo://app?vid=491cd09c-e0c2-44f1-852f-8525d428457d"},"vehicle_type_id":"4","last_reported":1773641632,"current_range_meters":23200,"station_id":"ce4bhp92rcd13ifvqhag","pricing_plan_id":"cebpf4jnsgd1na2vs0mg"},{"bike_id":"975ecce4-d3ec-41a6-9530-5e16d76c8919","system_id":"levelo_inurba_marseille","lat":43.30635,"lon":5.40087,"is_reserved":false,"is_disabled":false,"rental_uris":{"android":"levelo://app?vid=975ecce4-d3ec-41a6-9530-5e16d76c8919","ios":"levelo://app?vid=975ecce4-d3ec-41a6-9530-5e16d76c8919"},"vehicle_type_id":"4","last_reported":1773641632,"current_range_meters":32800,"station_id":"ce4bh112rcd13ifvqda0","pricing_plan_id":"cebpf4jnsgd1na2vs0mg"},{"bike_id":"8efb579a-a563-4156-bc48-a4542721ceab","system_id":"levelo_inurba_marseille","lat":43.23205,"lon":5.35555,"is_reserved":false,"is_disabled":false,"rental_uris":{"android":"levelo://app?vid=8efb579a-a563-4156-bc48-a4542721ceab","ios":"levelo://app?vid=8efb579a-a563-4156-bc48-a4542721ceab"},"vehicle_type_id":"4","last_reported":1773641632,"current_range_meters":18000,"station_id":"ce4bhu92rcd13ifvqi70","pricing_plan_id":"cebpf4jnsgd1na2vs0mg"},{"bike_id":"1874b19e-0548-464e-a099-f4a065d3ad45","system_id":"levelo_inurba_marseille","lat":43.26941,"lon":5.40256,"is_reserved":false,"is_disabled":false,"rental_uris":{"android":"levelo://app?vid=1874b19e-0548-464e-a099-f4a065d3ad45","ios":"levelo://app?vid=1874b19e-0548-464e-a099-f4a065d3ad45"},"vehicle_type_id":"4","last_reported":1773641632,"current_range_meters":38800,"station_id":"cjm6bp8fraef2m0cb0m0","pricing_plan_id":"cebpf4jnsgd1na2vs0mg"},{"bike_id":"a7c58bd4-82e2-4124-a2ab-cc2a89a16713","system_id":"levelo_inurba_marseille","lat":43.30079,"lon":5.43173,"is_reserved":false,"is_disabled":false,"rental_uris":{"android":"levelo://app?vid=a7c58bd4-82e2-4124-a2ab-cc2a89a16713","ios":"levelo://app?vid=a7c58bd4-82e2-4124-a2ab-cc2a89a16713"},"vehicle_type_id":"4","last_reported":1773641632,"current_range_meters":9200,"station_id":"st_d3js3co5814s73ftftug","pricing_plan_id":"cebpf4jnsgd1na2vs0mg"},{"bike_id":"e59ffb01-b028-44ab-a5e5-5d8f6dba3aee","system_id":"levelo_inurba_marseille","lat":43.29808,"lon":5.37104,"is_reserved":false,"is_disabled":false,"rental_uris":{"android":"levelo://app?vid=e59ffb01-b028-44ab-a5e5-5d8f6dba3aee","ios":"levelo://app?vid=e59ffb01-b028-44ab-a5e5-5d8f6dba3aee"},"vehicle_type_id":"4","last_reported":1773641632,"current_range_meters":38800,"station_id":"ce4bgop2rcd13ifvqc1g","pricing_plan_id":"cebpf4jnsgd1na2vs0mg"},{"bike_id":"b7a837a2-707b-41c4-be99-5100ccdbb252","system_id":"levelo_inurba_marseille","lat":43.30741,"lon":5.4245,"is_reserved":false,"is_disabled":false,"rental_uris":{"android":"levelo://app?vid=b7a837a2-707b-41c4-be99-5100ccdbb252","ios":"levelo://app?vid=b7a837a2-707b-41c4-be99-5100ccdbb252"},"vehicle_type_id":"4","last_reported":1773641632,"current_range_meters":14800,"station_id":"st_cvj6ca6bvosntc0bfgr0","pricing_plan_id":"cebpf4jnsgd1na2vs0mg"},{"bike_id":"c10e9044-3f68-457a-8705-15b71fffa84f","system_id":"levelo_inurba_marseille","lat":43.29793,"lon":5.38121,"is_reserved":false,"is_disabled":true,"rental_uris":{"android":"levelo://app?vid=c10e9044-3f68-457a-8705-15b71fffa84f","ios":"levelo://app?vid=c10e9044-3f68-457a-8705-15b71fffa84f"},"vehicle_type_id":"4","last_reported":1773641632,"current_range_meters":16000,"station_id":"ce4bgip2rcd13ifvqbb0","pricing_plan_id":"cebpf4jnsgd1na2vs0mg"},{"bike_id":"c53fbb2a-979a-463a-b9d8-b70e0a06d8d0","system_id":"levelo_inurba_marseille","lat":43.28623,"lon":5.351,"is_reserved":false,"is_disabled":false,"rental_uris":{"android":"levelo://app?vid=c53fbb2a-979a-463a-b9d8-b70e0a06d8d0","ios":"levelo://app?vid=c53fbb2a-979a-463a-b9d8-b70e0a06d8d0"},"vehicle_type_id":"4","last_reported":1773641632,"current_range_meters":35200,"station_id":"ce4bhch2rcd13ifvqeug","pricing_plan_id":"cebpf4jnsgd1na2vs0mg"},{"bike_id":"da5d8a21-330f-4a1a-8fba-695882c6a004","system_id":"levelo_inurba_marseille","lat":43.3015,"lon":5.37412,"is_reserved":false,"is_disabled":false,"rental_uris":{"android":"levelo://app?vid=da5d8a21-330f-4a1a-8fba-695882c6a004","ios":"levelo://app?vid=da5d8a21-330f-4a1a-8fba-695882c6a004"},"vehicle_type_id":"4","last_reported":1773641632,"current_range_meters":12800,"station_id":"ce4bgs92rcd13ifvqcc0","pricing_plan_id":"cebpf4jnsgd1na2vs0mg"},{"bike_id":"962c6d07-7867-4dac-95ad-de6bda73a8e0","system_id":"levelo_inurba_marseille","lat":43.21191,"lon":5.35075,"is_reserved":false,"is_disabled":true,"rental_uris":{"android":"levelo://app?vid=962c6d07-7867-4dac-95ad-de6bda73a8e0","ios":"levelo://app?vid=962c6d07-7867-4dac-95ad-de6bda73a8e0"},"vehicle_type_id":"4","last_reported":1773641632,"current_range_meters":0,"station_id":"st_cvj6sg6p6f1abm77japg","pricing_plan_id":"cebpf4jnsgd1na2vs0mg"},{"bike_id":"eb1d1e5d-c035-4be2-ab4f-714082cc667f","system_id":"levelo_inurba_marseille","lat":43.25081,"lon":5.39534,"is_reserved":false,"is_disabled":false,"rental_uris":{"android":"levelo://app?vid=eb1d1e5d-c035-4be2-ab4f-714082cc667f","ios":"levelo://app?vid=eb1d1e5d-c035-4be2-ab4f-714082cc667f"},"vehicle_type_id":"4","last_reported":1773641632,"current_range_meters":18800,"station_id":"ce4bhm12rcd13ifvqgkg","pricing_plan_id":"cebpf4jnsgd1na2vs0mg"},{"bike_id":"cf3d27ef-91c6-429a-962e-d10a32a01938","system_id":"levelo_inurba_marseille","lat":43.2983,"lon":5.44055,"is_reserved":false,"is_disabled":false,"rental_uris":{"android":"levelo://app?vid=cf3d27ef-91c6-429a-962e-d10a32a01938","ios":"levelo://app?vid=cf3d27ef-91c6-429a-962e-d10a32a01938"},"vehicle_type_id":"4","last_reported":1773641632,"current_range_meters":8800,"station_id":"st_d3jp68qikq2c7381ktn0","pricing_plan_id":"cebpf4jnsgd1na2vs0mg"},{"bike_id":"7e6a1a7b-3526-463b-ac8e-a0a48ab0f275","system_id":"levelo_inurba_marseille","lat":43.33783,"lon":5.37491,"is_reserved":false,"is_disabled":true,"rental_uris":{"android":"levelo://app?vid=7e6a1a7b-3526-463b-ac8e-a0a48ab0f275","ios":"levelo://app?vid=7e6a1a7b-3526-463b-ac8e-a0a48ab0f275"},"vehicle_type_id":"4","last_reported":1773641632,"current_range_meters":0,"station_id":"","pricing_plan_id":"cebpf4jnsgd1na2vs0mg"},{"bike_id":"6d0a1d1d-62d9-4b05-b15c-9b1404f11361","system_id":"levelo_inurba_marseille","lat":43.23966,"lon":5.36636,"is_reserved":false,"is_disabled":true,"rental_uris":{"android":"levelo://app?vid=6d0a1d1d-62d9-4b05-b15c-9b1404f11361","ios":"levelo://app?vid=6d0a1d1d-62d9-4b05-b15c-9b1404f11361"},"vehicle_type_id":"4","last_reported":1773641632,"current_range_meters":38000,"station_id":"ce4bhi12rcd13ifvqfp0","pricing_plan_id":"cebpf4jnsgd1na2vs0mg"},{"bike_id":"b0132243-f4b6-4b7e-aa11-7c099a0ff718","system_id":"levelo_inurba_marseille","lat":43.29947,"lon":5.36549,"is_reserved":false,"is_disabled":false,"rental_uris":{"android":"levelo://app?vid=b0132243-f4b6-4b7e-aa11-7c099a0ff718","ios":"levelo://app?vid=b0132243-f4b6-4b7e-aa11-7c099a0ff718"},"vehicle_type_id":"4","last_reported":1773641632,"current_range_meters":38400,"station_id":"ce4bgm92rcd13ifvqbr0","pricing_plan_id":"cebpf4jnsgd1na2vs0mg"},{"bike_id":"f70049b1-58e2-4ef1-a27e-5ff4283136c7","system_id":"levelo_inurba_marseille","lat":43.3133,"lon":5.39718,"is_reserved":false,"is_disabled":false,"rental_uris":{"android":"levelo://app?vid=f70049b1-58e2-4ef1-a27e-5ff4283136c7","ios":"levelo://app?vid=f70049b1-58e2-4ef1-a27e-5ff4283136c7"},"vehicle_type_id":"4","last_reported":1773641632,"current_range_meters":39200,"station_id":"ce4bgvp2rcd13ifvqcu0","pricing_plan_id":"cebpf4jnsgd1na2vs0mg"},{"bike_id":"6ae96351-5177-4074-8fa8-1832a240672a","system_id":"levelo_inurba_marseille","lat":43.26533,"lon":5.39052,"is_reserved":false,"is_disabled":true,"rental_uris":{"android":"levelo://app?vid=6ae96351-5177-4074-8fa8-1832a240672a","ios":"levelo://app?vid=6ae96351-5177-4074-8fa8-1832a240672a"},"vehicle_type_id":"4","last_reported":1773641632,"current_range_meters":9200,"station_id":"ce4bhe12rcd13ifvqf30","pricing_plan_id":"cebpf4jnsgd1na2vs0mg"},{"bike_id":"429ee4c1-9911-4645-a530-ab1ab4c10e57","system_id":"levelo_inurba_marseille","lat":43.2887,"lon":5.39311,"is_reserved":false,"is_disabled":false,"rental_uris":{"android":"levelo://app?vid=429ee4c1-9911-4645-a530-ab1ab4c10e57","ios":"levelo://app?vid=429ee4c1-9911-4645-a530-ab1ab4c10e57"},"vehicle_type_id":"4","last_reported":1773641632,"current_range_meters":26800,"station_id":"ce4bh2p2rcd13ifvqdi0","pricing_plan_id":"cebpf4jnsgd1na2vs0mg"},{"bike_id":"41f088ce-01f5-4e54-a979-13e143423988","system_id":"levelo_inurba_marseille","lat":43.29209,"lon":5.36082,"is_reserved":false,"is_disabled":false,"rental_uris":{"android":"levelo://app?vid=41f088ce-01f5-4e54-a979-13e143423988","ios":"levelo://app?vid=41f088ce-01f5-4e54-a979-13e143423988"},"vehicle_type_id":"4","last_reported":1773641632,"current_range_meters":37600,"station_id":"ce4bhbh2rcd13ifvqeqg","pricing_plan_id":"cebpf4jnsgd1na2vs0mg"},{"bike_id":"88bd1de4-947e-43e7-996f-b3a6c434223c","system_id":"levelo_inurba_marseille","lat":43.25835,"lon":5.39433,"is_reserved":false,"is_disabled":true,"rental_uris":{"android":"levelo://app?vid=88bd1de4-947e-43e7-996f-b3a6c434223c","ios":"levelo://app?vid=88bd1de4-947e-43e7-996f-b3a6c434223c"},"vehicle_type_id":"4","last_reported":1773641632,"current_range_meters":34800,"station_id":"ce4bhip2rcd13ifvqft0","pricing_plan_id":"cebpf4jnsgd1na2vs0mg"},{"bike_id":"05f50eb5-8d59-44ce-ba20-2d5c1a8a4c7b","system_id":"levelo_inurba_marseille","lat":43.31721,"lon":5.42402,"is_reserved":false,"is_disabled":false,"rental_uris":{"android":"levelo://app?vid=05f50eb5-8d59-44ce-ba20-2d5c1a8a4c7b","ios":"levelo://app?vid=05f50eb5-8d59-44ce-ba20-2d5c1a8a4c7b"},"vehicle_type_id":"4","last_reported":1773641632,"current_range_meters":20000,"station_id":"ce4bhp92rcd13ifvqhbg","pricing_plan_id":"cebpf4jnsgd1na2vs0mg"},{"bike_id":"693953b5-d1a2-4ed9-9673-97b8ea6995fa","system_id":"levelo_inurba_marseille","lat":43.3044,"lon":5.36603,"is_reserved":false,"is_disabled":false,"rental_uris":{"android":"levelo://app?vid=693953b5-d1a2-4ed9-9673-97b8ea6995fa","ios":"levelo://app?vid=693953b5-d1a2-4ed9-9673-97b8ea6995fa"},"vehicle_type_id":"4","last_reported":1773641632,"current_range_meters":35200,"station_id":"","pricing_plan_id":"cebpf4jnsgd1na2vs0mg"},{"bike_id":"7f666302-8fba-454c-ae9b-b91f8979ec2e","system_id":"levelo_inurba_marseille","lat":43.25135,"lon":5.40349,"is_reserved":false,"is_disabled":false,"rental_uris":{"android":"levelo://app?vid=7f666302-8fba-454c-ae9b-b91f8979ec2e","ios":"levelo://app?vid=7f666302-8fba-454c-ae9b-b91f8979ec2e"},"vehicle_type_id":"4","last_reported":1773641632,"current_range_meters":39200,"station_id":"ce4bhlh2rcd13ifvqgig","pricing_plan_id":"cebpf4jnsgd1na2vs0mg"},{"bike_id":"8c15b4ab-54ee-4a15-8436-ab1916acd928","system_id":"levelo_inurba_marseille","lat":43.28553,"lon":5.39492,"is_reserved":false,"is_disabled":false,"rental_uris":{"android":"levelo://app?vid=8c15b4ab-54ee-4a15-8436-ab1916acd928","ios":"levelo://app?vid=8c15b4ab-54ee-4a15-8436-ab1916acd928"},"vehicle_type_id":"4","last_reported":1773641632,"current_range_meters":39200,"station_id":"ce4bh292rcd13ifvqdg0","pricing_plan_id":"cebpf4jnsgd1na2vs0mg"},{"bike_id":"fc1d1c49-550e-4ed1-b0b4-00108bb3ca3b","system_id":"levelo_inurba_marseille","lat":43.29785,"lon":5.38107,"is_reserved":false,"is_disabled":true,"rental_uris":{"android":"levelo://app?vid=fc1d1c49-550e-4ed1-b0b4-00108bb3ca3b","ios":"levelo://app?vid=fc1d1c49-550e-4ed1-b0b4-00108bb3ca3b"},"vehicle_type_id":"4","last_reported":1773641632,"current_range_meters":15200,"station_id":"ce4bgip2rcd13ifvqbb0","pricing_plan_id":"cebpf4jnsgd1na2vs0mg"},{"bike_id":"b62acf11-2308-4a20-baab-6b62da62f978","system_id":"levelo_inurba_marseille","lat":43.27827,"lon":5.40727,"is_reserved":false,"is_disabled":true,"rental_uris":{"android":"levelo://app?vid=b62acf11-2308-4a20-baab-6b62da62f978","ios":"levelo://app?vid=b62acf11-2308-4a20-baab-6b62da62f978"},"vehicle_type_id":"4","last_reported":1773641632,"current_range_meters":29600,"station_id":"ce4bhnh2rcd13ifvqgtg","pricing_plan_id":"cebpf4jnsgd1na2vs0mg"},{"bike_id":"0266a338-f5f1-48ab-baf0-3f729a66e62d","system_id":"levelo_inurba_marseille","lat":43.29405,"lon":5.37782,"is_reserved":false,"is_disabled":false,"rental_uris":{"android":"levelo://app?vid=0266a338-f5f1-48ab-baf0-3f729a66e62d","ios":"levelo://app?vid=0266a338-f5f1-48ab-baf0-3f729a66e62d"},"vehicle_type_id":"4","last_reported":1773641632,"current_range_meters":37600,"station_id":"ce4bgjh2rcd13ifvqbf0","pricing_plan_id":"cebpf4jnsgd1na2vs0mg"},{"bike_id":"58f111c3-d4d8-401b-b1de-be436e4b63d6","system_id":"levelo_inurba_marseille","lat":43.23197,"lon":5.39985,"is_reserved":false,"is_disabled":false,"rental_uris":{"android":"levelo://app?vid=58f111c3-d4d8-401b-b1de-be436e4b63d6","ios":"levelo://app?vid=58f111c3-d4d8-401b-b1de-be436e4b63d6"},"vehicle_type_id":"4","last_reported":1773641632,"current_range_meters":30000,"station_id":"ce4bhn12rcd13ifvqgqg","pricing_plan_id":"cebpf4jnsgd1na2vs0mg"},{"bike_id":"c2a00a3c-834e-4e79-ae98-290ce9e26bc1","system_id":"levelo_inurba_marseille","lat":43.25118,"lon":5.40343,"is_reserved":false,"is_disabled":false,"rental_uris":{"android":"levelo://app?vid=c2a00a3c-834e-4e79-ae98-290ce9e26bc1","ios":"levelo://app?vid=c2a00a3c-834e-4e79-ae98-290ce9e26bc1"},"vehicle_type_id":"4","last_reported":1773641632,"current_range_meters":39200,"station_id":"ce4bhlh2rcd13ifvqgig","pricing_plan_id":"cebpf4jnsgd1na2vs0mg"},{"bike_id":"da48670a-22f4-47b5-ac7e-4649db27bcfe","system_id":"levelo_inurba_marseille","lat":43.30525,"lon":5.37945,"is_reserved":false,"is_disabled":false,"rental_uris":{"android":"levelo://app?vid=da48670a-22f4-47b5-ac7e-4649db27bcfe","ios":"levelo://app?vid=da48670a-22f4-47b5-ac7e-4649db27bcfe"},"vehicle_type_id":"4","last_reported":1773641632,"current_range_meters":30000,"station_id":"","pricing_plan_id":"cebpf4jnsgd1na2vs0mg"},{"bike_id":"0f5410b7-53d3-477b-81ff-4a6a65aaa798","system_id":"levelo_inurba_marseille","lat":43.30152,"lon":5.38097,"is_reserved":false,"is_disabled":false,"rental_uris":{"android":"levelo://app?vid=0f5410b7-53d3-477b-81ff-4a6a65aaa798","ios":"levelo://app?vid=0f5410b7-53d3-477b-81ff-4a6a65aaa798"},"vehicle_type_id":"4","last_reported":1773641632,"current_range_meters":30400,"station_id":"ce4bgjp2rcd13ifvqbh0","pricing_plan_id":"cebpf4jnsgd1na2vs0mg"},{"bike_id":"543b6cd7-57c9-4fca-8f52-23881734a377","system_id":"levelo_inurba_marseille","lat":43.30121,"lon":5.37431,"is_reserved":false,"is_disabled":false,"rental_uris":{"android":"levelo://app?vid=543b6cd7-57c9-4fca-8f52-23881734a377","ios":"levelo://app?vid=543b6cd7-57c9-4fca-8f52-23881734a377"},"vehicle_type_id":"4","last_reported":1773641632,"current_range_meters":32000,"station_id":"ce4bgs92rcd13ifvqcc0","pricing_plan_id":"cebpf4jnsgd1na2vs0mg"},{"bike_id":"ffd2aa79-124b-40e3-b74b-93a25fcdb83f","system_id":"levelo_inurba_marseille","lat":43.23179,"lon":5.39975,"is_reserved":false,"is_disabled":false,"rental_uris":{"android":"levelo://app?vid=ffd2aa79-124b-40e3-b74b-93a25fcdb83f","ios":"levelo://app?vid=ffd2aa79-124b-40e3-b74b-93a25fcdb83f"},"vehicle_type_id":"4","last_reported":1773641632,"current_range_meters":27600,"station_id":"ce4bhn12rcd13ifvqgqg","pricing_plan_id":"cebpf4jnsgd1na2vs0mg"},{"bike_id":"40450e44-cc9d-407c-957a-1aeb6f187932","system_id":"levelo_inurba_marseille","lat":43.22552,"lon":5.41638,"is_reserved":false,"is_disabled":false,"rental_uris":{"android":"levelo://app?vid=40450e44-cc9d-407c-957a-1aeb6f187932","ios":"levelo://app?vid=40450e44-cc9d-407c-957a-1aeb6f187932"},"vehicle_type_id":"4","last_reported":1773641632,"current_range_meters":8400,"station_id":"st_d2o4gvlbi1j2169b742g","pricing_plan_id":"cebpf4jnsgd1na2vs0mg"},{"bike_id":"e24aa91d-22b2-440b-bc6d-25ab2b336b7a","system_id":"levelo_inurba_marseille","lat":43.23194,"lon":5.35549,"is_reserved":false,"is_disabled":true,"rental_uris":{"android":"levelo://app?vid=e24aa91d-22b2-440b-bc6d-25ab2b336b7a","ios":"levelo://app?vid=e24aa91d-22b2-440b-bc6d-25ab2b336b7a"},"vehicle_type_id":"4","last_reported":1773641632,"current_range_meters":1200,"station_id":"ce4bhu92rcd13ifvqi70","pricing_plan_id":"cebpf4jnsgd1na2vs0mg"},{"bike_id":"55b65b67-58d3-47ad-a7d0-402d47ba7ae0","system_id":"levelo_inurba_marseille","lat":43.28944,"lon":5.39621,"is_reserved":false,"is_disabled":false,"rental_uris":{"android":"levelo://app?vid=55b65b67-58d3-47ad-a7d0-402d47ba7ae0","ios":"levelo://app?vid=55b65b67-58d3-47ad-a7d0-402d47ba7ae0"},"vehicle_type_id":"4","last_reported":1773641632,"current_range_meters":39200,"station_id":"ce4bh3h2rcd13ifvqdn0","pricing_plan_id":"cebpf4jnsgd1na2vs0mg"},{"bike_id":"eaa5390d-2d68-4739-8254-52f983e127b1","system_id":"levelo_inurba_marseille","lat":43.28471,"lon":5.48405,"is_reserved":false,"is_disabled":false,"rental_uris":{"android":"levelo://app?vid=eaa5390d-2d68-4739-8254-52f983e127b1","ios":"levelo://app?vid=eaa5390d-2d68-4739-8254-52f983e127b1"},"vehicle_type_id":"4","last_reported":1773641632,"current_range_meters":22400,"station_id":"","pricing_plan_id":"cebpf4jnsgd1na2vs0mg"},{"bike_id":"b079a898-fba0-4361-9a26-eb9c1eb4a9a1","system_id":"levelo_inurba_marseille","lat":43.29681,"lon":5.36598,"is_reserved":false,"is_disabled":false,"rental_uris":{"android":"levelo://app?vid=b079a898-fba0-4361-9a26-eb9c1eb4a9a1","ios":"levelo://app?vid=b079a898-fba0-4361-9a26-eb9c1eb4a9a1"},"vehicle_type_id":"4","last_reported":1773641632,"current_range_meters":38800,"station_id":"ce4bgn12rcd13ifvqbt0","pricing_plan_id":"cebpf4jnsgd1na2vs0mg"},{"bike_id":"eba7007a-22fe-4603-b600-e6d79c47801e","system_id":"levelo_inurba_marseille","lat":43.27217,"lon":5.40967,"is_reserved":false,"is_disabled":false,"rental_uris":{"android":"levelo://app?vid=eba7007a-22fe-4603-b600-e6d79c47801e","ios":"levelo://app?vid=eba7007a-22fe-4603-b600-e6d79c47801e"},"vehicle_type_id":"4","last_reported":1773641632,"current_range_meters":29600,"station_id":"","pricing_plan_id":"cebpf4jnsgd1na2vs0mg"},{"bike_id":"963aea0f-edfd-42fe-bb5c-9e3909fc1c6c","system_id":"levelo_inurba_marseille","lat":43.255719,"lon":5.382328,"is_reserved":false,"is_disabled":true,"rental_uris":{"android":"levelo://app?vid=963aea0f-edfd-42fe-bb5c-9e3909fc1c6c","ios":"levelo://app?vid=963aea0f-edfd-42fe-bb5c-9e3909fc1c6c"},"vehicle_type_id":"4","last_reported":1773641632,"current_range_meters":1600,"station_id":"ce4bhih2rcd13ifvqfs0","pricing_plan_id":"cebpf4jnsgd1na2vs0mg"},{"bike_id":"8aaf525a-2438-4977-86b2-70256683bfeb","system_id":"levelo_inurba_marseille","lat":43.28495,"lon":5.4409,"is_reserved":false,"is_disabled":false,"rental_uris":{"android":"levelo://app?vid=8aaf525a-2438-4977-86b2-70256683bfeb","ios":"levelo://app?vid=8aaf525a-2438-4977-86b2-70256683bfeb"},"vehicle_type_id":"4","last_reported":1773641632,"current_range_meters":33200,"station_id":"st_d3j3df2ikq2c7380ej80","pricing_plan_id":"cebpf4jnsgd1na2vs0mg"},{"bike_id":"63e0b698-38d7-403f-b894-3845bc25a8f4","system_id":"levelo_inurba_marseille","lat":43.24663,"lon":5.38176,"is_reserved":false,"is_disabled":false,"rental_uris":{"android":"levelo://app?vid=63e0b698-38d7-403f-b894-3845bc25a8f4","ios":"levelo://app?vid=63e0b698-38d7-403f-b894-3845bc25a8f4"},"vehicle_type_id":"4","last_reported":1773641632,"current_range_meters":8000,"station_id":"ce4bhih2rcd13ifvqfr0","pricing_plan_id":"cebpf4jnsgd1na2vs0mg"},{"bike_id":"85384336-ec8c-4d14-8cf7-dd1704f5ada9","system_id":"levelo_inurba_marseille","lat":43.28422,"lon":5.34976,"is_reserved":false,"is_disabled":false,"rental_uris":{"android":"levelo://app?vid=85384336-ec8c-4d14-8cf7-dd1704f5ada9","ios":"levelo://app?vid=85384336-ec8c-4d14-8cf7-dd1704f5ada9"},"vehicle_type_id":"4","last_reported":1773641632,"current_range_meters":36800,"station_id":"ce4bhbh2rcd13ifvqepg","pricing_plan_id":"cebpf4jnsgd1na2vs0mg"},{"bike_id":"595f9878-31d2-4c93-8b8e-9fa0ff0679bb","system_id":"levelo_inurba_marseille","lat":43.30367,"lon":5.42513,"is_reserved":false,"is_disabled":false,"rental_uris":{"android":"levelo://app?vid=595f9878-31d2-4c93-8b8e-9fa0ff0679bb","ios":"levelo://app?vid=595f9878-31d2-4c93-8b8e-9fa0ff0679bb"},"vehicle_type_id":"4","last_reported":1773641632,"current_range_meters":27600,"station_id":"ce4bhoh2rcd13ifvqh6g","pricing_plan_id":"cebpf4jnsgd1na2vs0mg"},{"bike_id":"e1a4d46a-c23c-441f-8d70-9dc1a65b67f9","system_id":"levelo_inurba_marseille","lat":43.21736,"lon":5.34618,"is_reserved":false,"is_disabled":false,"rental_uris":{"android":"levelo://app?vid=e1a4d46a-c23c-441f-8d70-9dc1a65b67f9","ios":"levelo://app?vid=e1a4d46a-c23c-441f-8d70-9dc1a65b67f9"},"vehicle_type_id":"4","last_reported":1773641632,"current_range_meters":38000,"station_id":"st_cvj6r9ubvosntc0bgbag","pricing_plan_id":"cebpf4jnsgd1na2vs0mg"},{"bike_id":"ce21b5c5-85c6-4619-9a52-b91f4257b270","system_id":"levelo_inurba_marseille","lat":43.30319,"lon":5.40443,"is_reserved":false,"is_disabled":false,"rental_uris":{"android":"levelo://app?vid=ce21b5c5-85c6-4619-9a52-b91f4257b270","ios":"levelo://app?vid=ce21b5c5-85c6-4619-9a52-b91f4257b270"},"vehicle_type_id":"4","last_reported":1773641632,"current_range_meters":39200,"station_id":"ce4bh012rcd13ifvqd10","pricing_plan_id":"cebpf4jnsgd1na2vs0mg"},{"bike_id":"592a7547-d375-47f5-a92c-507aad4780b8","system_id":"levelo_inurba_marseille","lat":43.22576,"lon":5.41635,"is_reserved":false,"is_disabled":false,"rental_uris":{"android":"levelo://app?vid=592a7547-d375-47f5-a92c-507aad4780b8","ios":"levelo://app?vid=592a7547-d375-47f5-a92c-507aad4780b8"},"vehicle_type_id":"4","last_reported":1773641632,"current_range_meters":34800,"station_id":"st_d2o4gvlbi1j2169b742g","pricing_plan_id":"cebpf4jnsgd1na2vs0mg"},{"bike_id":"824266b1-c792-430a-84a7-2cff0f7d0e3a","system_id":"levelo_inurba_marseille","lat":43.28278,"lon":5.35078,"is_reserved":false,"is_disabled":false,"rental_uris":{"android":"levelo://app?vid=824266b1-c792-430a-84a7-2cff0f7d0e3a","ios":"levelo://app?vid=824266b1-c792-430a-84a7-2cff0f7d0e3a"},"vehicle_type_id":"4","last_reported":1773641632,"current_range_meters":39200,"station_id":"ce4bhbp2rcd13ifvqerg","pricing_plan_id":"cebpf4jnsgd1na2vs0mg"},{"bike_id":"55b55650-3fda-48c4-a9b3-95d1356dab27","system_id":"levelo_inurba_marseille","lat":43.28862,"lon":5.35813,"is_reserved":false,"is_disabled":false,"rental_uris":{"android":"levelo://app?vid=55b55650-3fda-48c4-a9b3-95d1356dab27","ios":"levelo://app?vid=55b55650-3fda-48c4-a9b3-95d1356dab27"},"vehicle_type_id":"4","last_reported":1773641632,"current_range_meters":38800,"station_id":"ce4bhb12rcd13ifvqem0","pricing_plan_id":"cebpf4jnsgd1na2vs0mg"},{"bike_id":"83af84c7-8680-473f-815e-1fce8416d40c","system_id":"levelo_inurba_marseille","lat":43.3117,"lon":5.39347,"is_reserved":false,"is_disabled":false,"rental_uris":{"android":"levelo://app?vid=83af84c7-8680-473f-815e-1fce8416d40c","ios":"levelo://app?vid=83af84c7-8680-473f-815e-1fce8416d40c"},"vehicle_type_id":"4","last_reported":1773641632,"current_range_meters":25600,"station_id":"","pricing_plan_id":"cebpf4jnsgd1na2vs0mg"},{"bike_id":"10815e11-61cb-415f-8a36-f29cace97448","system_id":"levelo_inurba_marseille","lat":43.30531,"lon":5.3672,"is_reserved":false,"is_disabled":false,"rental_uris":{"android":"levelo://app?vid=10815e11-61cb-415f-8a36-f29cace97448","ios":"levelo://app?vid=10815e11-61cb-415f-8a36-f29cace97448"},"vehicle_type_id":"4","last_reported":1773641632,"current_range_meters":32000,"station_id":"ce4bgrp2rcd13ifvqc9g","pricing_plan_id":"cebpf4jnsgd1na2vs0mg"},{"bike_id":"7a27736f-6216-4aae-89c5-91c1ae6e15f9","system_id":"levelo_inurba_marseille","lat":43.28994,"lon":5.35613,"is_reserved":false,"is_disabled":false,"rental_uris":{"android":"levelo://app?vid=7a27736f-6216-4aae-89c5-91c1ae6e15f9","ios":"levelo://app?vid=7a27736f-6216-4aae-89c5-91c1ae6e15f9"},"vehicle_type_id":"4","last_reported":1773641632,"current_range_meters":22000,"station_id":"ce4bhb92rcd13ifvqen0","pricing_plan_id":"cebpf4jnsgd1na2vs0mg"},{"bike_id":"1e4b6d08-d88d-4a13-8c98-44800c1e0ab2","system_id":"levelo_inurba_marseille","lat":43.3113,"lon":5.3775,"is_reserved":false,"is_disabled":false,"rental_uris":{"android":"levelo://app?vid=1e4b6d08-d88d-4a13-8c98-44800c1e0ab2","ios":"levelo://app?vid=1e4b6d08-d88d-4a13-8c98-44800c1e0ab2"},"vehicle_type_id":"4","last_reported":1773641632,"current_range_meters":35200,"station_id":"ce4bgt92rcd13ifvqcg0","pricing_plan_id":"cebpf4jnsgd1na2vs0mg"},{"bike_id":"a4535440-5a2a-43c4-ac85-ded82e959d70","system_id":"levelo_inurba_marseille","lat":43.29684,"lon":5.39535,"is_reserved":false,"is_disabled":false,"rental_uris":{"android":"levelo://app?vid=a4535440-5a2a-43c4-ac85-ded82e959d70","ios":"levelo://app?vid=a4535440-5a2a-43c4-ac85-ded82e959d70"},"vehicle_type_id":"4","last_reported":1773641632,"current_range_meters":8000,"station_id":"","pricing_plan_id":"cebpf4jnsgd1na2vs0mg"},{"bike_id":"8aafbcd1-e0fe-4ef4-b089-a98b4c86c0ee","system_id":"levelo_inurba_marseille","lat":43.26178,"lon":5.37461,"is_reserved":false,"is_disabled":true,"rental_uris":{"android":"levelo://app?vid=8aafbcd1-e0fe-4ef4-b089-a98b4c86c0ee","ios":"levelo://app?vid=8aafbcd1-e0fe-4ef4-b089-a98b4c86c0ee"},"vehicle_type_id":"4","last_reported":1773641632,"current_range_meters":27200,"station_id":"ce4bhgp2rcd13ifvqfc0","pricing_plan_id":"cebpf4jnsgd1na2vs0mg"},{"bike_id":"b8f18f8f-02c5-4761-9e3f-88bf97c628ec","system_id":"levelo_inurba_marseille","lat":43.2957,"lon":5.39984,"is_reserved":false,"is_disabled":false,"rental_uris":{"android":"levelo://app?vid=b8f18f8f-02c5-4761-9e3f-88bf97c628ec","ios":"levelo://app?vid=b8f18f8f-02c5-4761-9e3f-88bf97c628ec"},"vehicle_type_id":"4","last_reported":1773641632,"current_range_meters":38000,"station_id":"ce4bh312rcd13ifvqdj0","pricing_plan_id":"cebpf4jnsgd1na2vs0mg"},{"bike_id":"b3e8b3aa-26db-449c-8162-0ed85a2bc616","system_id":"levelo_inurba_marseille","lat":43.31667,"lon":5.39577,"is_reserved":false,"is_disabled":false,"rental_uris":{"android":"levelo://app?vid=b3e8b3aa-26db-449c-8162-0ed85a2bc616","ios":"levelo://app?vid=b3e8b3aa-26db-449c-8162-0ed85a2bc616"},"vehicle_type_id":"4","last_reported":1773641632,"current_range_meters":20800,"station_id":"","pricing_plan_id":"cebpf4jnsgd1na2vs0mg"},{"bike_id":"7ef08d16-2fe0-47d6-b92b-1c3a769fb031","system_id":"levelo_inurba_marseille","lat":43.23192,"lon":5.39986,"is_reserved":false,"is_disabled":false,"rental_uris":{"android":"levelo://app?vid=7ef08d16-2fe0-47d6-b92b-1c3a769fb031","ios":"levelo://app?vid=7ef08d16-2fe0-47d6-b92b-1c3a769fb031"},"vehicle_type_id":"4","last_reported":1773641632,"current_range_meters":27600,"station_id":"ce4bhn12rcd13ifvqgqg","pricing_plan_id":"cebpf4jnsgd1na2vs0mg"},{"bike_id":"71fb7c2b-abce-4f46-a4a8-9659ff34b7e0","system_id":"levelo_inurba_marseille","lat":43.29905,"lon":5.3974,"is_reserved":false,"is_disabled":false,"rental_uris":{"android":"levelo://app?vid=71fb7c2b-abce-4f46-a4a8-9659ff34b7e0","ios":"levelo://app?vid=71fb7c2b-abce-4f46-a4a8-9659ff34b7e0"},"vehicle_type_id":"4","last_reported":1773641632,"current_range_meters":25600,"station_id":"ce4bh0h2rcd13ifvqd50","pricing_plan_id":"cebpf4jnsgd1na2vs0mg"},{"bike_id":"d03f9bdb-4ab4-4e1f-ae03-3cffd5c48c8d","system_id":"levelo_inurba_marseille","lat":43.22902,"lon":5.35404,"is_reserved":false,"is_disabled":false,"rental_uris":{"android":"levelo://app?vid=d03f9bdb-4ab4-4e1f-ae03-3cffd5c48c8d","ios":"levelo://app?vid=d03f9bdb-4ab4-4e1f-ae03-3cffd5c48c8d"},"vehicle_type_id":"4","last_reported":1773641632,"current_range_meters":10000,"station_id":"cpo3532slgdg3j2ikp40","pricing_plan_id":"cebpf4jnsgd1na2vs0mg"},{"bike_id":"f3e3ab91-2112-4c97-a948-2b1b001e76ff","system_id":"levelo_inurba_marseille","lat":43.29975,"lon":5.40059,"is_reserved":false,"is_disabled":false,"rental_uris":{"android":"levelo://app?vid=f3e3ab91-2112-4c97-a948-2b1b001e76ff","ios":"levelo://app?vid=f3e3ab91-2112-4c97-a948-2b1b001e76ff"},"vehicle_type_id":"4","last_reported":1773641632,"current_range_meters":39200,"station_id":"","pricing_plan_id":"cebpf4jnsgd1na2vs0mg"},{"bike_id":"41f7a5e6-5e09-4ac7-8267-4af1b266aef0","system_id":"levelo_inurba_marseille","lat":43.27368,"lon":5.36277,"is_reserved":false,"is_disabled":true,"rental_uris":{"android":"levelo://app?vid=41f7a5e6-5e09-4ac7-8267-4af1b266aef0","ios":"levelo://app?vid=41f7a5e6-5e09-4ac7-8267-4af1b266aef0"},"vehicle_type_id":"4","last_reported":1773641632,"current_range_meters":35600,"station_id":"ce4bhbh2rcd13ifvqeo0","pricing_plan_id":"cebpf4jnsgd1na2vs0mg"},{"bike_id":"2d5e4838-7db1-4e02-a5ea-731988a0c6b9","system_id":"levelo_inurba_marseille","lat":43.29582,"lon":5.36762,"is_reserved":false,"is_disabled":true,"rental_uris":{"android":"levelo://app?vid=2d5e4838-7db1-4e02-a5ea-731988a0c6b9","ios":"levelo://app?vid=2d5e4838-7db1-4e02-a5ea-731988a0c6b9"},"vehicle_type_id":"4","last_reported":1773641632,"current_range_meters":36800,"station_id":"ce4bgph2rcd13ifvqc2g","pricing_plan_id":"cebpf4jnsgd1na2vs0mg"},{"bike_id":"0aa11af6-4a66-4b65-b781-8959dd3e1b05","system_id":"levelo_inurba_marseille","lat":43.2991,"lon":5.38077,"is_reserved":false,"is_disabled":false,"rental_uris":{"android":"levelo://app?vid=0aa11af6-4a66-4b65-b781-8959dd3e1b05","ios":"levelo://app?vid=0aa11af6-4a66-4b65-b781-8959dd3e1b05"},"vehicle_type_id":"4","last_reported":1773641632,"current_range_meters":30000,"station_id":"","pricing_plan_id":"cebpf4jnsgd1na2vs0mg"},{"bike_id":"0688cf11-eb47-41ee-9e8f-3aac850b25c6","system_id":"levelo_inurba_marseille","lat":43.26554,"lon":5.39028,"is_reserved":false,"is_disabled":false,"rental_uris":{"android":"levelo://app?vid=0688cf11-eb47-41ee-9e8f-3aac850b25c6","ios":"levelo://app?vid=0688cf11-eb47-41ee-9e8f-3aac850b25c6"},"vehicle_type_id":"4","last_reported":1773641632,"current_range_meters":18000,"station_id":"ce4bhe12rcd13ifvqf30","pricing_plan_id":"cebpf4jnsgd1na2vs0mg"},{"bike_id":"c4997af9-0ce1-4c4d-877a-8bdb47c10212","system_id":"levelo_inurba_marseille","lat":43.28716,"lon":5.40009,"is_reserved":false,"is_disabled":true,"rental_uris":{"android":"levelo://app?vid=c4997af9-0ce1-4c4d-877a-8bdb47c10212","ios":"levelo://app?vid=c4997af9-0ce1-4c4d-877a-8bdb47c10212"},"vehicle_type_id":"4","last_reported":1773641632,"current_range_meters":30000,"station_id":"ce4bho92rcd13ifvqh3g","pricing_plan_id":"cebpf4jnsgd1na2vs0mg"},{"bike_id":"4caf7bc0-45f3-46c0-8d21-c75a94a54d78","system_id":"levelo_inurba_marseille","lat":43.29539,"lon":5.38548,"is_reserved":false,"is_disabled":true,"rental_uris":{"android":"levelo://app?vid=4caf7bc0-45f3-46c0-8d21-c75a94a54d78","ios":"levelo://app?vid=4caf7bc0-45f3-46c0-8d21-c75a94a54d78"},"vehicle_type_id":"4","last_reported":1773641632,"current_range_meters":26000,"station_id":"ce4bgih2rcd13ifvqba0","pricing_plan_id":"cebpf4jnsgd1na2vs0mg"},{"bike_id":"48192291-2a72-4a10-8c60-644c3762149a","system_id":"levelo_inurba_marseille","lat":43.29212,"lon":5.35801,"is_reserved":false,"is_disabled":false,"rental_uris":{"android":"levelo://app?vid=48192291-2a72-4a10-8c60-644c3762149a","ios":"levelo://app?vid=48192291-2a72-4a10-8c60-644c3762149a"},"vehicle_type_id":"4","last_reported":1773641632,"current_range_meters":26000,"station_id":"ce4bhb12rcd13ifvqel0","pricing_plan_id":"cebpf4jnsgd1na2vs0mg"},{"bike_id":"070475bf-1a52-421a-820b-baec73f3c197","system_id":"levelo_inurba_marseille","lat":43.26573,"lon":5.39011,"is_reserved":false,"is_disabled":false,"rental_uris":{"android":"levelo://app?vid=070475bf-1a52-421a-820b-baec73f3c197","ios":"levelo://app?vid=070475bf-1a52-421a-820b-baec73f3c197"},"vehicle_type_id":"4","last_reported":1773641632,"current_range_meters":36800,"station_id":"ce4bhe12rcd13ifvqf30","pricing_plan_id":"cebpf4jnsgd1na2vs0mg"},{"bike_id":"c5301128-1c98-473f-b471-0306f238104d","system_id":"levelo_inurba_marseille","lat":43.23984,"lon":5.36613,"is_reserved":false,"is_disabled":false,"rental_uris":{"android":"levelo://app?vid=c5301128-1c98-473f-b471-0306f238104d","ios":"levelo://app?vid=c5301128-1c98-473f-b471-0306f238104d"},"vehicle_type_id":"4","last_reported":1773641632,"current_range_meters":38000,"station_id":"ce4bhi12rcd13ifvqfp0","pricing_plan_id":"cebpf4jnsgd1na2vs0mg"},{"bike_id":"c8f5ec7e-ccc6-49f8-b39a-2f757784a180","system_id":"levelo_inurba_marseille","lat":43.31476,"lon":5.37316,"is_reserved":false,"is_disabled":false,"rental_uris":{"android":"levelo://app?vid=c8f5ec7e-ccc6-49f8-b39a-2f757784a180","ios":"levelo://app?vid=c8f5ec7e-ccc6-49f8-b39a-2f757784a180"},"vehicle_type_id":"4","last_reported":1773641632,"current_range_meters":8800,"station_id":"ce4bgt12rcd13ifvqcd0","pricing_plan_id":"cebpf4jnsgd1na2vs0mg"},{"bike_id":"9d07eb07-2650-4a0e-b220-6851b55cd8cf","system_id":"levelo_inurba_marseille","lat":43.29947,"lon":5.36545,"is_reserved":false,"is_disabled":false,"rental_uris":{"android":"levelo://app?vid=9d07eb07-2650-4a0e-b220-6851b55cd8cf","ios":"levelo://app?vid=9d07eb07-2650-4a0e-b220-6851b55cd8cf"},"vehicle_type_id":"4","last_reported":1773641632,"current_range_meters":19600,"station_id":"ce4bgm92rcd13ifvqbr0","pricing_plan_id":"cebpf4jnsgd1na2vs0mg"},{"bike_id":"eb57ac44-a887-45f5-96b4-72f1ed090be6","system_id":"levelo_inurba_marseille","lat":43.30251,"lon":5.40091,"is_reserved":false,"is_disabled":false,"rental_uris":{"android":"levelo://app?vid=eb57ac44-a887-45f5-96b4-72f1ed090be6","ios":"levelo://app?vid=eb57ac44-a887-45f5-96b4-72f1ed090be6"},"vehicle_type_id":"4","last_reported":1773641632,"current_range_meters":33200,"station_id":"ce4bgvh2rcd13ifvqcs0","pricing_plan_id":"cebpf4jnsgd1na2vs0mg"},{"bike_id":"f505b7fb-59c0-4e9b-9f6b-da16344a75a6","system_id":"levelo_inurba_marseille","lat":43.28599,"lon":5.35146,"is_reserved":false,"is_disabled":false,"rental_uris":{"android":"levelo://app?vid=f505b7fb-59c0-4e9b-9f6b-da16344a75a6","ios":"levelo://app?vid=f505b7fb-59c0-4e9b-9f6b-da16344a75a6"},"vehicle_type_id":"4","last_reported":1773641632,"current_range_meters":37600,"station_id":"ce4bhch2rcd13ifvqeug","pricing_plan_id":"cebpf4jnsgd1na2vs0mg"},{"bike_id":"a3c5b423-a9fa-4272-80e8-5e01ae0ee9f8","system_id":"levelo_inurba_marseille","lat":43.26059,"lon":5.39393,"is_reserved":false,"is_disabled":false,"rental_uris":{"android":"levelo://app?vid=a3c5b423-a9fa-4272-80e8-5e01ae0ee9f8","ios":"levelo://app?vid=a3c5b423-a9fa-4272-80e8-5e01ae0ee9f8"},"vehicle_type_id":"4","last_reported":1773641632,"current_range_meters":11600,"station_id":"ce4bhh92rcd13ifvqfj0","pricing_plan_id":"cebpf4jnsgd1na2vs0mg"},{"bike_id":"d8424054-6509-4dd6-8936-68fc2d266a65","system_id":"levelo_inurba_marseille","lat":43.25575,"lon":5.38241,"is_reserved":false,"is_disabled":false,"rental_uris":{"android":"levelo://app?vid=d8424054-6509-4dd6-8936-68fc2d266a65","ios":"levelo://app?vid=d8424054-6509-4dd6-8936-68fc2d266a65"},"vehicle_type_id":"4","last_reported":1773641632,"current_range_meters":39200,"station_id":"ce4bhih2rcd13ifvqfs0","pricing_plan_id":"cebpf4jnsgd1na2vs0mg"},{"bike_id":"452d0224-0b0d-4f1c-8bb2-f03f01b74601","system_id":"levelo_inurba_marseille","lat":43.31281,"lon":5.40167,"is_reserved":false,"is_disabled":true,"rental_uris":{"android":"levelo://app?vid=452d0224-0b0d-4f1c-8bb2-f03f01b74601","ios":"levelo://app?vid=452d0224-0b0d-4f1c-8bb2-f03f01b74601"},"vehicle_type_id":"4","last_reported":1773641632,"current_range_meters":6800,"station_id":"ce4bh092rcd13ifvqd30","pricing_plan_id":"cebpf4jnsgd1na2vs0mg"},{"bike_id":"23e678b2-1f77-49cd-b6e6-b676bf50bd0d","system_id":"levelo_inurba_marseille","lat":43.28357,"lon":5.38104,"is_reserved":false,"is_disabled":true,"rental_uris":{"android":"levelo://app?vid=23e678b2-1f77-49cd-b6e6-b676bf50bd0d","ios":"levelo://app?vid=23e678b2-1f77-49cd-b6e6-b676bf50bd0d"},"vehicle_type_id":"4","last_reported":1773641632,"current_range_meters":29600,"station_id":"ce4bh412rcd13ifvqdr0","pricing_plan_id":"cebpf4jnsgd1na2vs0mg"},