{"last_updated":1751883305,"ttl":60,"version":"2.2","data":{"bikes":[{"bike_id":"3da29fb8-fc97-44c6-b9ac-31dd456b2fd4","system_id":"levelo_inurba_marseille","lat":43.33771,"lon":5.37424,"is_reserved":false,"is_disabled":true,"rental_uris":{"android":"levelo://app?vid=3da29fb8-fc97-44c6-b9ac-31dd456b2fd4","ios":"levelo://app?vid=3da29fb8-fc97-44c6-b9ac-31dd456b2fd4"},"vehicle_type_id":"4","last_reported":1751883305,"current_range_meters":0,"station_id":"","pricing_plan_id":"cebpf4jnsgd1na2vs0mg"},{"bike_id":"01861ad8-a8d7-4be6-816e-651927c87584","system_id":"levelo_inurba_marseille","lat":43.33751,"lon":5.37456,"is_reserved":false,"is_disabled":true,"rental_uris":{"android":"levelo://app?vid=01861ad8-a8d7-4be6-816e-651927c87584","ios":"levelo://app?vid=01861ad8-a8d7-4be6-816e-651927c87584"},"vehicle_type_id":"4","last_reported":1751883305,"current_range_meters":0,"station_id":"","pricing_plan_id":"cebpf4jnsgd1na2vs0mg"},{"bike_id":"c1af52b7-f892-4de0-adb4-fb0c70d1c4e6","system_id":"levelo_inurba_marseille","lat":43.32254,"lon":5.44029,"is_reserved":false,"is_disabled":true,"rental_uris":{"android":"levelo://app?vid=c1af52b7-f892-4de0-adb4-fb0c70d1c4e6","ios":"levelo://app?vid=c1af52b7-f892-4de0-adb4-fb0c70d1c4e6"},"vehicle_type_id":"4","last_reported":1751883305,"current_range_meters":0,"station_id":"","pricing_plan_id":"cebpf4jnsgd1na2vs0mg"},{"bike_id":"95c194a9-5cae-4867-bc56-f8781828dc70","system_id":"levelo_inurba_marseille","lat":43.337444,"lon":5.374475,"is_reserved":false,"is_disabled":true,"rental_uris":{"android":"levelo://app?vid=95c194a9-5cae-4867-bc56-f8781828dc70","ios":"levelo://app?vid=95c194a9-5cae-4867-bc56-f8781828dc70"},"vehicle_type_id":"4","last_reported":1751883305,"current_range_meters":0,"station_id":"","pricing_plan_id":"cebpf4jnsgd1na2vs0mg"},{"bike_id":"5e4fccb6-1c76-4083-a352-a6af734b928a","system_id":"levelo_inurba_marseille","lat":43.32191,"lon":5.44007,"is_reserved":false,"is_disabled":true,"rental_uris":{"android":"levelo://app?vid=5e4fccb6-1c76-4083-a352-a6af734b928a","ios":"levelo://app?vid=5e4fccb6-1c76-4083-a352-a6af734b928a"},"vehicle_type_id":"4","last_reported":1751883305,"current_range_meters":0,"station_id":"","pricing_plan_id":"cebpf4jnsgd1na2vs0mg"},{"bike_id":"573a928a-27e4-4c41-92dd-ed057948734b","system_id":"levelo_inurba_marseille","lat":43.31927,"lon":5.37383,"is_reserved":false,"is_disabled":true,"rental_uris":{"android":"levelo://app?vid=573a928a-27e4-4c41-92dd-ed057948734b","ios":"levelo://app?vid=573a928a-27e4-4c41-92dd-ed057948734b"},"vehicle_type_id":"4","last_reported":1751883305,"current_range_meters":0,"station_id":"","pricing_plan_id":"cebpf4jnsgd1na2vs0mg"},{"bike_id":"318b73ce-fb81-4f93-8d0a-043102cd8f2d","system_id":"levelo_inurba_marseille","lat":43.31138,"lon":5.36936,"is_reserved":false,"is_disabled":true,"rental_uris":{"android":"levelo://app?vid=318b73ce-fb81-4f93-8d0a-043102cd8f2d","ios":"levelo://app?vid=318b73ce-fb81-4f93-8d0a-043102cd8f2d"},"vehicle_type_id":"4","last_reported":1751883305,"current_range_meters":0,"station_id":"","pricing_plan_id":"cebpf4jnsgd1na2vs0mg"},{"bike_id":"00484d3d-7717-4965-89c8-d08c6d979a4c","system_id":"levelo_inurba_marseille","lat":43.31218,"lon":5.36851,"is_reserved":false,"is_disabled":true,"rental_uris":{"android":"levelo://app?vid=00484d3d-7717-4965-89c8-d08c6d979a4c","ios":"levelo://app?vid=00484d3d-7717-4965-89c8-d08c6d979a4c"},"vehicle_type_id":"4","last_reported":1751883305,"current_range_meters":0,"station_id":"ce4bgl92rcd13ifvqbq0","pricing_plan_id":"cebpf4jnsgd1na2vs0mg"},{"bike_id":"b4fad069-4146-4f1d-82cc-40dad4b202fc","system_id":"levelo_inurba_marseille","lat":43.31069,"lon":5.38389,"is_reserved":false,"is_disabled":true,"rental_uris":{"android":"levelo://app?vid=b4fad069-4146-4f1d-82cc-40dad4b202fc","ios":"levelo://app?vid=b4fad069-4146-4f1d-82cc-40dad4b202fc"},"vehicle_type_id":"4","last_reported":1751883305,"current_range_meters":0,"station_id":"ce4bgv92rcd13ifvqcr0","pricing_plan_id":"cebpf4jnsgd1na2vs0mg"},{"bike_id":"627f34b2-37dd-497b-b36c-756b38f737ec","system_id":"levelo_inurba_marseille","lat":43.30245,"lon":5.40057,"is_reserved":false,"is_disabled":true,"rental_uris":{"android":"levelo://app?vid=627f34b2-37dd-497b-b36c-756b38f737ec","ios":"levelo://app?vid=627f34b2-37dd-497b-b36c-756b38f737ec"},"vehicle_type_id":"4","last_reported":1751883305,"current_range_meters":0,"station_id":"ce4bgvh2rcd13ifvqcs0","pricing_plan_id":"cebpf4jnsgd1na2vs0mg"},{"bike_id":"50b8f891-35eb-4241-8260-4587589bc0b6","system_id":"levelo_inurba_marseille","lat":43.30248,"lon":5.40055,"is_reserved":false,"is_disabled":true,"rental_uris":{"android":"levelo://app?vid=50b8f891-35eb-4241-8260-4587589bc0b6","ios":"levelo://app?vid=50b8f891-35eb-4241-8260-4587589bc0b6"},"vehicle_type_id":"4","last_reported":1751883305,"current_range_meters":0,"station_id":"ce4bgvh2rcd13ifvqcs0","pricing_plan_id":"cebpf4jnsgd1na2vs0mg"},{"bike_id":"08513697-a460-4ad0-8feb-20a55bfeaecd","system_id":"levelo_inurba_marseille","lat":43.29527,"lon":5.39091,"is_reserved":false,"is_disabled":true,"rental_uris":{"android":"levelo://app?vid=08513697-a460-4ad0-8feb-20a55bfeaecd","ios":"levelo://app?vid=08513697-a460-4ad0-8feb-20a55bfeaecd"},"vehicle_type_id":"4","last_reported":1751883305,"current_range_meters":0,"station_id":"ce4bh3p2rcd13ifvqdp0","pricing_plan_id":"cebpf4jnsgd1na2vs0mg"},{"bike_id":"b4d4d5e6-36e3-4708-bbd8-f38045de0a53","system_id":"levelo_inurba_marseille","lat":43.27377,"lon":5.36248,"is_reserved":false,"is_disabled":true,"rental_uris":{"android":"levelo://app?vid=b4d4d5e6-36e3-4708-bbd8-f38045de0a53","ios":"levelo://app?vid=b4d4d5e6-36e3-4708-bbd8-f38045de0a53"},"vehicle_type_id":"4","last_reported":1751883305,"current_range_meters":0,"station_id":"ce4bhbh2rcd13ifvqeo0","pricing_plan_id":"cebpf4jnsgd1na2vs0mg"},{"bike_id":"6ce5b399-9a00-477e-a029-78bb9d846257","system_id":"levelo_inurba_marseille","lat":43.231523,"lon":5.436968,"is_reserved":false,"is_disabled":true,"rental_uris":{"android":"levelo://app?vid=6ce5b399-9a00-477e-a029-78bb9d846257","ios":"levelo://app?vid=6ce5b399-9a00-477e-a029-78bb9d846257"},"vehicle_type_id":"4","last_reported":1751883305,"current_range_meters":0,"station_id":"ce4bhmp2rcd13ifvqgog","pricing_plan_id":"cebpf4jnsgd1na2vs0mg"},{"bike_id":"0255ca70-42ec-4842-b60b-043dcf8b21cf","system_id":"levelo_inurba_marseille","lat":43.23155,"lon":5.437092,"is_reserved":false,"is_disabled":true,"rental_uris":{"android":"levelo://app?vid=0255ca70-42ec-4842-b60b-043dcf8b21cf","ios":"levelo://app?vid=0255ca70-42ec-4842-b60b-043dcf8b21cf"},"vehicle_type_id":"4","last_reported":1751883305,"current_range_meters":0,"station_id":"ce4bhmp2rcd13ifvqgog","pricing_plan_id":"cebpf4jnsgd1na2vs0mg"},{"bike_id":"5b709ab3-27eb-44be-9159-c5f1579e09cd","system_id":"levelo_inurba_marseille","lat":43.31892,"lon":5.40747,"is_reserved":false,"is_disabled":true,"rental_uris":{"android":"levelo://app?vid=5b709ab3-27eb-44be-9159-c5f1579e09cd","ios":"levelo://app?vid=5b709ab3-27eb-44be-9159-c5f1579e09cd"},"vehicle_type_id":"4","last_reported":1751883305,"current_range_meters":0,"station_id":"ce4bhq12rcd13ifvqhig","pricing_plan_id":"cebpf4jnsgd1na2vs0mg"},{"bike_id":"b4b7eb6f-5d24-4d35-87d8-f90bab30d04c","system_id":"levelo_inurba_marseille","lat":43.32299,"lon":5.38278,"is_reserved":false,"is_disabled":true,"rental_uris":{"android":"levelo://app?vid=b4b7eb6f-5d24-4d35-87d8-f90bab30d04c","ios":"levelo://app?vid=b4b7eb6f-5d24-4d35-87d8-f90bab30d04c"},"vehicle_type_id":"4","last_reported":1751883305,"current_range_meters":0,"station_id":"ce4bhr12rcd13ifvqhqg","pricing_plan_id":"cebpf4jnsgd1na2vs0mg"},{"bike_id":"3d508917-55ee-42b6-894b-89c2a444dc06","system_id":"levelo_inurba_marseille","lat":43.22505,"lon":5.34797,"is_reserved":false,"is_disabled":true,"rental_uris":{"android":"levelo://app?vid=3d508917-55ee-42b6-894b-89c2a444dc06","ios":"levelo://app?vid=3d508917-55ee-42b6-894b-89c2a444dc06"},"vehicle_type_id":"4","last_reported":1751883305,"current_range_meters":0,"station_id":"st_cvj5dfep6f1abm77gieg","pricing_plan_id":"cebpf4jnsgd1na2vs0mg"},{"bike_id":"34982e0d-3864-470b-a989-cf9eb1bc1f10","system_id":"levelo_inurba_marseille","lat":43.225105,"lon":5.347893,"is_reserved":false,"is_disabled":true,"rental_uris":{"android":"levelo://app?vid=34982e0d-3864-470b-a989-cf9eb1bc1f10","ios":"levelo://app?vid=34982e0d-3864-470b-a989-cf9eb1bc1f10"},"vehicle_type_id":"4","last_reported":1751883305,"current_range_meters":0,"station_id":"st_cvj5dfep6f1abm77gieg","pricing_plan_id":"cebpf4jnsgd1na2vs0mg"},{"bike_id":"e252840f-3438-4f5e-a487-e2d145b77703","system_id":"levelo_inurba_marseille","lat":43.21773,"lon":5.34614,"is_reserved":false,"is_disabled":true,"rental_uris":{"android":"levelo://app?vid=e252840f-3438-4f5e-a487-e2d145b77703","ios":"levelo://app?vid=e252840f-3438-4f5e-a487-e2d145b77703"},"vehicle_type_id":"4","last_reported":1751883305,"current_range_meters":0,"station_id":"st_cvj6r9ubvosntc0bgbag","pricing_plan_id":"cebpf4jnsgd1na2vs0mg"},{"bike_id":"e86ba8c9-208d-482c-a826-4c100938472a","system_id":"levelo_inurba_marseille","lat":43.211928,"lon":5.350707,"is_reserved":false,"is_disabled":true,"rental_uris":{"android":"levelo://app?vid=e86ba8c9-208d-482c-a826-4c100938472a","ios":"levelo://app?vid=e86ba8c9-208d-482c-a826-4c100938472a"},"vehicle_type_id":"4","last_reported":1751883305,"current_range_meters":0,"station_id":"st_cvj6sg6p6f1abm77japg","pricing_plan_id":"cebpf4jnsgd1na2vs0mg"},{"bike_id":"4ef40ce1-ec1a-4471-8269-fc2a7bb82f8f","system_id":"levelo_inurba_marseille","lat":43.262031,"lon":5.374462,"is_reserved":false,"is_disabled":true,"rental_uris":{"android":"levelo://app?vid=4ef40ce1-ec1a-4471-8269-fc2a7bb82f8f","ios":"levelo://app?vid=4ef40ce1-ec1a-4471-8269-fc2a7bb82f8f"},"vehicle_type_id":"4","last_reported":1751883305,"current_range_meters":400,"station_id":"","pricing_plan_id":"cebpf4jnsgd1na2vs0mg"},{"bike_id":"a53f9632-6065-468e-8cd8-924e4d96a275","system_id":"levelo_inurba_marseille","lat":43.2904,"lon":5.3994,"is_reserved":false,"is_disabled":true,"rental_uris":{"android":"levelo://app?vid=a53f9632-6065-468e-8cd8-924e4d96a275","ios":"levelo://app?vid=a53f9632-6065-468e-8cd8-924e4d96a275"},"vehicle_type_id":"4","last_reported":1751883305,"current_range_meters":400,"station_id":"ce4bh392rcd13ifvqdm0","pricing_plan_id":"cebpf4jnsgd1na2vs0mg"},{"bike_id":"88ee5675-1d93-4665-969c-f7a2557f47df","system_id":"levelo_inurba_marseille","lat":43.26564,"lon":5.39003,"is_reserved":false,"is_disabled":true,"rental_uris":{"android":"levelo://app?vid=88ee5675-1d93-4665-969c-f7a2557f47df","ios":"levelo://app?vid=88ee5675-1d93-4665-969c-f7a2557f47df"},"vehicle_type_id":"4","last_reported":1751883305,"current_range_meters":800,"station_id":"ce4bhe12rcd13ifvqf30","pricing_plan_id":"cebpf4jnsgd1na2vs0mg"},{"bike_id":"7b11c2b9-8a8c-491c-8b2a-0c4657142f79","system_id":"levelo_inurba_marseille","lat":43.27831,"lon":5.391924,"is_reserved":false,"is_disabled":true,"rental_uris":{"android":"levelo://app?vid=7b11c2b9-8a8c-491c-8b2a-0c4657142f79","ios":"levelo://app?vid=7b11c2b9-8a8c-491c-8b2a-0c4657142f79"},"vehicle_type_id":"4","last_reported":1751883305,"current_range_meters":1200,"station_id":"ce4bhjp2rcd13ifvqga0","pricing_plan_id":"cebpf4jnsgd1na2vs0mg"},{"bike_id":"f0a19a9e-f150-4c1e-bcc6-db3195370cac","system_id":"levelo_inurba_marseille","lat":43.327,"lon":5.43137,"is_reserved":false,"is_disabled":true,"rental_uris":{"android":"levelo://app?vid=f0a19a9e-f150-4c1e-bcc6-db3195370cac","ios":"levelo://app?vid=f0a19a9e-f150-4c1e-bcc6-db3195370cac"},"vehicle_type_id":"4","last_reported":1751883305,"current_range_meters":1600,"station_id":"","pricing_plan_id":"cebpf4jnsgd1na2vs0mg"},{"bike_id":"d2cecde9-01e8-42e2-b19f-65e802659b38","system_id":"levelo_inurba_marseille","lat":43.26564,"lon":5.38998,"is_reserved":false,"is_disabled":true,"rental_uris":{"android":"levelo://app?vid=d2cecde9-01e8-42e2-b19f-65e802659b38","ios":"levelo://app?vid=d2cecde9-01e8-42e2-b19f-65e802659b38"},"vehicle_type_id":"4","last_reported":1751883305,"current_range_meters":2000,"station_id":"ce4bhe12rcd13ifvqf30","pricing_plan_id":"cebpf4jnsgd1na2vs0mg"},{"bike_id":"8eb283fe-44c7-4bb1-836e-cde6c55f1adf","system_id":"levelo_inurba_marseille","lat":43.31808,"lon":5.36831,"is_reserved":false,"is_disabled":false,"rental_uris":{"android":"levelo://app?vid=8eb283fe-44c7-4bb1-836e-cde6c55f1adf","ios":"levelo://app?vid=8eb283fe-44c7-4bb1-836e-cde6c55f1adf"},"vehicle_type_id":"4","last_reported":1751883305,"current_range_meters":4400,"station_id":"","pricing_plan_id":"cebpf4jnsgd1na2vs0mg"},{"bike_id":"29d88fd0-23bb-4976-a988-9f9ebcf08c46","system_id":"levelo_inurba_marseille","lat":43.23967,"lon":5.36629,"is_reserved":false,"is_disabled":false,"rental_uris":{"android":"levelo://app?vid=29d88fd0-23bb-4976-a988-9f9ebcf08c46","ios":"levelo://app?vid=29d88fd0-23bb-4976-a988-9f9ebcf08c46"},"vehicle_type_id":"4","last_reported":1751883305,"current_range_meters":4400,"station_id":"ce4bhi12rcd13ifvqfp0","pricing_plan_id":"cebpf4jnsgd1na2vs0mg"},{"bike_id":"9770f207-cc96-4ab7-8417-22f8b86019ca","system_id":"levelo_inurba_marseille","lat":43.34992,"lon":5.35042,"is_reserved":false,"is_disabled":false,"rental_uris":{"android":"levelo://app?vid=9770f207-cc96-4ab7-8417-22f8b86019ca","ios":"levelo://app?vid=9770f207-cc96-4ab7-8417-22f8b86019ca"},"vehicle_type_id":"4","last_reported":1751883305,"current_range_meters":4800,"station_id":"","pricing_plan_id":"cebpf4jnsgd1na2vs0mg"},{"bike_id":"c0582ef1-5d35-4b79-9357-11f655f3e0ff","system_id":"levelo_inurba_marseille","lat":43.29028,"lon":5.38135,"is_reserved":false,"is_disabled":false,"rental_uris":{"android":"levelo://app?vid=c0582ef1-5d35-4b79-9357-11f655f3e0ff","ios":"levelo://app?vid=c0582ef1-5d35-4b79-9357-11f655f3e0ff"},"vehicle_type_id":"4","last_reported":1751883305,"current_range_meters":4800,"station_id":"ce4bh4p2rcd13ifvqe1g","pricing_plan_id":"cebpf4jnsgd1na2vs0mg"},{"bike_id":"737cb0c0-6732-4921-9adb-d4f23831f67a","system_id":"levelo_inurba_marseille","lat":43.29226,"lon":5.36062,"is_reserved":false,"is_disabled":false,"rental_uris":{"android":"levelo://app?vid=737cb0c0-6732-4921-9adb-d4f23831f67a","ios":"levelo://app?vid=737cb0c0-6732-4921-9adb-d4f23831f67a"},"vehicle_type_id":"4","last_reported":1751883305,"current_range_meters":4800,"station_id":"ce4bhbh2rcd13ifvqeqg","pricing_plan_id":"cebpf4jnsgd1na2vs0mg"},{"bike_id":"212827c2-5775-418b-81c4-ee6678099c2b","system_id":"levelo_inurba_marseille","lat":43.21756,"lon":5.34614,"is_reserved":false,"is_disabled":false,"rental_uris":{"android":"levelo://app?vid=212827c2-5775-418b-81c4-ee6678099c2b","ios":"levelo://app?vid=212827c2-5775-418b-81c4-ee6678099c2b"},"vehicle_type_id":"4","last_reported":1751883305,"current_range_meters":4800,"station_id":"st_cvj6r9ubvosntc0bgbag","pricing_plan_id":"cebpf4jnsgd1na2vs0mg"},{"bike_id":"35279192-aa02-4043-b13d-0c72d2666616","system_id":"levelo_inurba_marseille","lat":43.29523,"lon":5.39048,"is_reserved":false,"is_disabled":false,"rental_uris":{"android":"levelo://app?vid=35279192-aa02-4043-b13d-0c72d2666616","ios":"levelo://app?vid=35279192-aa02-4043-b13d-0c72d2666616"},"vehicle_type_id":"4","last_reported":1751883305,"current_range_meters":5600,"station_id":"ce4bh3p2rcd13ifvqdp0","pricing_plan_id":"cebpf4jnsgd1na2vs0mg"},{"bike_id":"2e80be75-7eaa-4b61-b786-2a0986c6351c","system_id":"levelo_inurba_marseille","lat":43.25502,"lon":5.3766,"is_reserved":false,"is_disabled":false,"rental_uris":{"android":"levelo://app?vid=2e80be75-7eaa-4b61-b786-2a0986c6351c","ios":"levelo://app?vid=2e80be75-7eaa-4b61-b786-2a0986c6351c"},"vehicle_type_id":"4","last_reported":1751883305,"current_range_meters":5600,"station_id":"ce4bhh12rcd13ifvqff0","pricing_plan_id":"cebpf4jnsgd1na2vs0mg"},{"bike_id":"86c92dc1-b4da-49d9-acb8-ba390f939865","system_id":"levelo_inurba_marseille","lat":43.330301,"lon":5.392326,"is_reserved":false,"is_disabled":false,"rental_uris":{"android":"levelo://app?vid=86c92dc1-b4da-49d9-acb8-ba390f939865","ios":"levelo://app?vid=86c92dc1-b4da-49d9-acb8-ba390f939865"},"vehicle_type_id":"4","last_reported":1751883305,"current_range_meters":6400,"station_id":"","pricing_plan_id":"cebpf4jnsgd1na2vs0mg"},{"bike_id":"adf1d38d-1f03-40cf-9b57-0a8f15f62b2d","system_id":"levelo_inurba_marseille","lat":43.32934,"lon":5.36395,"is_reserved":false,"is_disabled":false,"rental_uris":{"android":"levelo://app?vid=adf1d38d-1f03-40cf-9b57-0a8f15f62b2d","ios":"levelo://app?vid=adf1d38d-1f03-40cf-9b57-0a8f15f62b2d"},"vehicle_type_id":"4","last_reported":1751883305,"current_range_meters":6800,"station_id":"","pricing_plan_id":"cebpf4jnsgd1na2vs0mg"},{"bike_id":"fa3d71d7-e8dc-4ea7-8a74-955854ccc081","system_id":"levelo_inurba_marseille","lat":43.30546,"lon":5.36553,"is_reserved":false,"is_disabled":false,"rental_uris":{"android":"levelo://app?vid=fa3d71d7-e8dc-4ea7-8a74-955854ccc081","ios":"levelo://app?vid=fa3d71d7-e8dc-4ea7-8a74-955854ccc081"},"vehicle_type_id":"4","last_reported":1751883305,"current_range_meters":6800,"station_id":"ce4bgs12rcd13ifvqcag","pricing_plan_id":"cebpf4jnsgd1na2vs0mg"},{"bike_id":"ac49ea30-8caa-4874-822b-b87d6543f4f9","system_id":"levelo_inurba_marseille","lat":43.262133,"lon":5.374395,"is_reserved":false,"is_disabled":false,"rental_uris":{"android":"levelo://app?vid=ac49ea30-8caa-4874-822b-b87d6543f4f9","ios":"levelo://app?vid=ac49ea30-8caa-4874-822b-b87d6543f4f9"},"vehicle_type_id":"4","last_reported":1751883305,"current_range_meters":6800,"station_id":"ce4bhgp2rcd13ifvqfc0","pricing_plan_id":"cebpf4jnsgd1na2vs0mg"},{"bike_id":"79aa9203-d48f-4598-9901-24d7b0b1656c","system_id":"levelo_inurba_marseille","lat":43.2706,"lon":5.42276,"is_reserved":false,"is_disabled":false,"rental_uris":{"android":"levelo://app?vid=79aa9203-d48f-4598-9901-24d7b0b1656c","ios":"levelo://app?vid=79aa9203-d48f-4598-9901-24d7b0b1656c"},"vehicle_type_id":"4","last_reported":1751883305,"current_range_meters":6800,"station_id":"ce4bhk92rcd13ifvqgb0","pricing_plan_id":"cebpf4jnsgd1na2vs0mg"},{"bike_id":"268baf60-9c7a-419c-8df6-646409f735b6","system_id":"levelo_inurba_marseille","lat":43.31475,"lon":5.37285,"is_reserved":false,"is_disabled":false,"rental_uris":{"android":"levelo://app?vid=268baf60-9c7a-419c-8df6-646409f735b6","ios":"levelo://app?vid=268baf60-9c7a-419c-8df6-646409f735b6"},"vehicle_type_id":"4","last_reported":1751883305,"current_range_meters":7200,"station_id":"ce4bgt12rcd13ifvqcd0","pricing_plan_id":"cebpf4jnsgd1na2vs0mg"},{"bike_id":"847f3aed-44d6-4cea-9693-32743567227f","system_id":"levelo_inurba_marseille","lat":43.30883,"lon":5.39652,"is_reserved":false,"is_disabled":false,"rental_uris":{"android":"levelo://app?vid=847f3aed-44d6-4cea-9693-32743567227f","ios":"levelo://app?vid=847f3aed-44d6-4cea-9693-32743567227f"},"vehicle_type_id":"4","last_reported":1751883305,"current_range_meters":7200,"station_id":"ce4bh012rcd13ifvqcv0","pricing_plan_id":"cebpf4jnsgd1na2vs0mg"},{"bike_id":"ca24e76d-fbe4-4856-9429-e8627c897aca","system_id":"levelo_inurba_marseille","lat":43.27947,"lon":5.41047,"is_reserved":false,"is_disabled":false,"rental_uris":{"android":"levelo://app?vid=ca24e76d-fbe4-4856-9429-e8627c897aca","ios":"levelo://app?vid=ca24e76d-fbe4-4856-9429-e8627c897aca"},"vehicle_type_id":"4","last_reported":1751883305,"current_range_meters":7200,"station_id":"ce4bhnp2rcd13ifvqh0g","pricing_plan_id":"cebpf4jnsgd1na2vs0mg"},{"bike_id":"48f2a499-7f81-483a-9fca-3a78ae6b1313","system_id":"levelo_inurba_marseille","lat":43.292291,"lon":5.360511,"is_reserved":false,"is_disabled":false,"rental_uris":{"android":"levelo://app?vid=48f2a499-7f81-483a-9fca-3a78ae6b1313","ios":"levelo://app?vid=48f2a499-7f81-483a-9fca-3a78ae6b1313"},"vehicle_type_id":"4","last_reported":1751883305,"current_range_meters":8000,"station_id":"","pricing_plan_id":"cebpf4jnsgd1na2vs0mg"},{"bike_id":"ed290504-6948-4f69-8584-2e2b0286febf","system_id":"levelo_inurba_marseille","lat":43.21202,"lon":5.35085,"is_reserved":false,"is_disabled":false,"rental_uris":{"android":"levelo://app?vid=ed290504-6948-4f69-8584-2e2b0286febf","ios":"levelo://app?vid=ed290504-6948-4f69-8584-2e2b0286febf"},"vehicle_type_id":"4","last_reported":1751883305,"current_range_meters":8000,"station_id":"st_cvj6sg6p6f1abm77japg","pricing_plan_id":"cebpf4jnsgd1na2vs0mg"},{"bike_id":"23bf14da-a723-428c-afca-1cf2ca6e77f8","system_id":"levelo_inurba_marseille","lat":43.29297,"lon":5.37428,"is_reserved":false,"is_disabled":false,"rental_uris":{"android":"levelo://app?vid=23bf14da-a723-428c-afca-1cf2ca6e77f8","ios":"levelo://app?vid=23bf14da-a723-428c-afca-1cf2ca6e77f8"},"vehicle_type_id":"4","last_reported":1751883305,"current_range_meters":8400,"station_id":"ce4bgi12rcd13ifvqb70","pricing_plan_id":"cebpf4jnsgd1na2vs0mg"},{"bike_id":"eeba0daf-b5fb-4a5d-923d-78fd4b8e537c","system_id":"levelo_inurba_marseille","lat":43.30431,"lon":5.38892,"is_reserved":false,"is_disabled":false,"rental_uris":{"android":"levelo://app?vid=eeba0daf-b5fb-4a5d-923d-78fd4b8e537c","ios":"levelo://app?vid=eeba0daf-b5fb-4a5d-923d-78fd4b8e537c"},"vehicle_type_id":"4","last_reported":1751883305,"current_range_meters":8400,"station_id":"ce4bgk12rcd13ifvqbi0","pricing_plan_id":"cebpf4jnsgd1na2vs0mg"},{"bike_id":"58614f62-8c5e-4538-ba5d-f4f2ececcef7","system_id":"levelo_inurba_marseille","lat":43.30116,"lon":5.39836,"is_reserved":false,"is_disabled":false,"rental_uris":{"android":"levelo://app?vid=58614f62-8c5e-4538-ba5d-f4f2ececcef7","ios":"levelo://app?vid=58614f62-8c5e-4538-ba5d-f4f2ececcef7"},"vehicle_type_id":"4","last_reported":1751883305,"current_range_meters":8400,"station_id":"ce4bh0h2rcd13ifvqd40","pricing_plan_id":"cebpf4jnsgd1na2vs0mg"},{"bike_id":"fe44924c-dcf0-4048-a1ad-9e680cc9c00c","system_id":"levelo_inurba_marseille","lat":43.26012,"lon":5.41734,"is_reserved":false,"is_disabled":false,"rental_uris":{"android":"levelo://app?vid=fe44924c-dcf0-4048-a1ad-9e680cc9c00c","ios":"levelo://app?vid=fe44924c-dcf0-4048-a1ad-9e680cc9c00c"},"vehicle_type_id":"4","last_reported":1751883305,"current_range_meters":8800,"station_id":"","pricing_plan_id":"cebpf4jnsgd1na2vs0mg"},{"bike_id":"60f3d515-a9ba-4358-ba10-5994fece7a0d","system_id":"levelo_inurba_marseille","lat":43.320974,"lon":5.367698,"is_reserved":false,"is_disabled":false,"rental_uris":{"android":"levelo://app?vid=60f3d515-a9ba-4358-ba10-5994fece7a0d","ios":"levelo://app?vid=60f3d515-a9ba-4358-ba10-5994fece7a0d"},"vehicle_type_id":"4","last_reported":1751883305,"current_range_meters":9200,"station_id":"ce4bhrh2rcd13ifvqhug","pricing_plan_id":"cebpf4jnsgd1na2vs0mg"},{"bike_id":"653697c4-c439-4a6d-869a-0ee928b604f9","system_id":"levelo_inurba_marseille","lat":43.260153,"lon":5.417517,"is_reserved":false,"is_disabled":false,"rental_uris":{"android":"levelo://app?vid=653697c4-c439-4a6d-869a-0ee928b604f9","ios":"levelo://app?vid=653697c4-c439-4a6d-869a-0ee928b604f9"},"vehicle_type_id":"4","last_reported":1751883305,"current_range_meters":9600,"station_id":"","pricing_plan_id":"cebpf4jnsgd1na2vs0mg"},{"bike_id":"97c11401-6a6f-4ffe-b92f-87bed817ac7c","system_id":"levelo_inurba_marseille","lat":43.26949,"lon":5.38634,"is_reserved":false,"is_disabled":false,"rental_uris":{"android":"levelo://app?vid=97c11401-6a6f-4ffe-b92f-87bed817ac7c","ios":"levelo://app?vid=97c11401-6a6f-4ffe-b92f-87bed817ac7c"},"vehicle_type_id":"4","last_reported":1751883305,"current_range_meters":9600,"station_id":"ce4bhh92rcd13ifvqfh0","pricing_plan_id":"cebpf4jnsgd1na2vs0mg"},{"bike_id":"0b2ccd0f-688e-4ec3-aac3-f69227ec388f","system_id":"levelo_inurba_marseille","lat":43.321134,"lon":5.367547,"is_reserved":false,"is_disabled":false,"rental_uris":{"android":"levelo://app?vid=0b2ccd0f-688e-4ec3-aac3-f69227ec388f","ios":"levelo://app?vid=0b2ccd0f-688e-4ec3-aac3-f69227ec388f"},"vehicle_type_id":"4","last_reported":1751883305,"current_range_meters":9600,"station_id":"ce4bhrh2rcd13ifvqhug","pricing_plan_id":"cebpf4jnsgd1na2vs0mg"},{"bike_id":"f709a840-f82a-44d6-b7b6-b9b893b58502","system_id":"levelo_inurba_marseille","lat":43.26074,"lon":5.37531,"is_reserved":false,"is_disabled":false,"rental_uris":{"android":"levelo://app?vid=f709a840-f82a-44d6-b7b6-b9b893b58502","ios":"levelo://app?vid=f709a840-f82a-44d6-b7b6-b9b893b58502"},"vehicle_type_id":"4","last_reported":1751883305,"current_range_meters":10000,"station_id":"","pricing_plan_id":"cebpf4jnsgd1na2vs0mg"},{"bike_id":"04fea9d5-3a2e-4885-bcba-67bcb4608548","system_id":"levelo_inurba_marseille","lat":43.28486,"lon":5.38412,"is_reserved":false,"is_disabled":false,"rental_uris":{"android":"levelo://app?vid=04fea9d5-3a2e-4885-bcba-67bcb4608548","ios":"levelo://app?vid=04fea9d5-3a2e-4885-bcba-67bcb4608548"},"vehicle_type_id":"4","last_reported":1751883305,"current_range_meters":10000,"station_id":"ce4bh512rcd13ifvqe3g","pricing_plan_id":"cebpf4jnsgd1na2vs0mg"},{"bike_id":"e113175a-26c2-4709-bd2e-8b90ec8dd3ee","system_id":"levelo_inurba_marseille","lat":43.274947,"lon":5.424516,"is_reserved":false,"is_disabled":false,"rental_uris":{"android":"levelo://app?vid=e113175a-26c2-4709-bd2e-8b90ec8dd3ee","ios":"levelo://app?vid=e113175a-26c2-4709-bd2e-8b90ec8dd3ee"},"vehicle_type_id":"4","last_reported":1751883305,"current_range_meters":10000,"station_id":"ce4bhn92rcd13ifvqgrg","pricing_plan_id":"cebpf4jnsgd1na2vs0mg"},{"bike_id":"06ec5e73-7c37-4d7d-9933-e904369ec74e","system_id":"levelo_inurba_marseille","lat":43.3235,"lon":5.36747,"is_reserved":false,"is_disabled":false,"rental_uris":{"android":"levelo://app?vid=06ec5e73-7c37-4d7d-9933-e904369ec74e","ios":"levelo://app?vid=06ec5e73-7c37-4d7d-9933-e904369ec74e"},"vehicle_type_id":"4","last_reported":1751883305,"current_range_meters":10000,"station_id":"ce4bhsh2rcd13ifvqi2g","pricing_plan_id":"cebpf4jnsgd1na2vs0mg"},{"bike_id":"55da7a65-b064-4fc4-b052-05fbe1c68179","system_id":"levelo_inurba_marseille","lat":43.317735,"lon":5.435937,"is_reserved":false,"is_disabled":false,"rental_uris":{"android":"levelo://app?vid=55da7a65-b064-4fc4-b052-05fbe1c68179","ios":"levelo://app?vid=55da7a65-b064-4fc4-b052-05fbe1c68179"},"vehicle_type_id":"4","last_reported":1751883305,"current_range_meters":10800,"station_id":"","pricing_plan_id":"cebpf4jnsgd1na2vs0mg"},{"bike_id":"30b6a18d-f957-4908-bbe0-1e332dda8539","system_id":"levelo_inurba_marseille","lat":43.29931,"lon":5.36535,"is_reserved":false,"is_disabled":false,"rental_uris":{"android":"levelo://app?vid=30b6a18d-f957-4908-bbe0-1e332dda8539","ios":"levelo://app?vid=30b6a18d-f957-4908-bbe0-1e332dda8539"},"vehicle_type_id":"4","last_reported":1751883305,"current_range_meters":10800,"station_id":"ce4bgm92rcd13ifvqbr0","pricing_plan_id":"cebpf4jnsgd1na2vs0mg"},{"bike_id":"22df80f1-6313-4a5d-913c-7a5559ca9925","system_id":"levelo_inurba_marseille","lat":43.284836,"lon":5.385634,"is_reserved":false,"is_disabled":false,"rental_uris":{"android":"levelo://app?vid=22df80f1-6313-4a5d-913c-7a5559ca9925","ios":"levelo://app?vid=22df80f1-6313-4a5d-913c-7a5559ca9925"},"vehicle_type_id":"4","last_reported":1751883305,"current_range_meters":10800,"station_id":"ce4bh8p2rcd13ifvqeb0","pricing_plan_id":"cebpf4jnsgd1na2vs0mg"},{"bike_id":"7b527f00-f6ea-4963-b59d-8da04a2feedb","system_id":"levelo_inurba_marseille","lat":43.32099,"lon":5.40133,"is_reserved":false,"is_disabled":false,"rental_uris":{"android":"levelo://app?vid=7b527f00-f6ea-4963-b59d-8da04a2feedb","ios":"levelo://app?vid=7b527f00-f6ea-4963-b59d-8da04a2feedb"},"vehicle_type_id":"4","last_reported":1751883305,"current_range_meters":11200,"station_id":"","pricing_plan_id":"cebpf4jnsgd1na2vs0mg"},{"bike_id":"88ea42cb-cf0f-4e4a-8442-732645bc4ba5","system_id":"levelo_inurba_marseille","lat":43.31094,"lon":5.36736,"is_reserved":false,"is_disabled":false,"rental_uris":{"android":"levelo://app?vid=88ea42cb-cf0f-4e4a-8442-732645bc4ba5","ios":"levelo://app?vid=88ea42cb-cf0f-4e4a-8442-732645bc4ba5"},"vehicle_type_id":"4","last_reported":1751883305,"current_range_meters":11200,"station_id":"","pricing_plan_id":"cebpf4jnsgd1na2vs0mg"},{"bike_id":"84c896e5-d5dd-471a-878c-364c4b1c72b6","system_id":"levelo_inurba_marseille","lat":43.29028,"lon":5.38137,"is_reserved":false,"is_disabled":false,"rental_uris":{"android":"levelo://app?vid=84c896e5-d5dd-471a-878c-364c4b1c72b6","ios":"levelo://app?vid=84c896e5-d5dd-471a-878c-364c4b1c72b6"},"vehicle_type_id":"4","last_reported":1751883305,"current_range_meters":11200,"station_id":"ce4bh4p2rcd13ifvqe1g","pricing_plan_id":"cebpf4jnsgd1na2vs0mg"},{"bike_id":"afec862a-443d-4cf9-892d-c4f5dcd0f583","system_id":"levelo_inurba_marseille","lat":43.26261,"lon":5.40325,"is_reserved":false,"is_disabled":false,"rental_uris":{"android":"levelo://app?vid=afec862a-443d-4cf9-892d-c4f5dcd0f583","ios":"levelo://app?vid=afec862a-443d-4cf9-892d-c4f5dcd0f583"},"vehicle_type_id":"4","last_reported":1751883305,"current_range_meters":11200,"station_id":"ce4bhmh2rcd13ifvqgmg","pricing_plan_id":"cebpf4jnsgd1na2vs0mg"},{"bike_id":"ac3bdf79-590c-4410-bcb7-5c720dc55d18","system_id":"levelo_inurba_marseille","lat":43.30805,"lon":5.43523,"is_reserved":false,"is_disabled":false,"rental_uris":{"android":"levelo://app?vid=ac3bdf79-590c-4410-bcb7-5c720dc55d18","ios":"levelo://app?vid=ac3bdf79-590c-4410-bcb7-5c720dc55d18"},"vehicle_type_id":"4","last_reported":1751883305,"current_range_meters":11600,"station_id":"ce4bhph2rcd13ifvqheg","pricing_plan_id":"cebpf4jnsgd1na2vs0mg"},{"bike_id":"80955d0f-8669-4c02-b90f-c6fe20790c37","system_id":"levelo_inurba_marseille","lat":43.23178,"lon":5.35086,"is_reserved":false,"is_disabled":false,"rental_uris":{"android":"levelo://app?vid=80955d0f-8669-4c02-b90f-c6fe20790c37","ios":"levelo://app?vid=80955d0f-8669-4c02-b90f-c6fe20790c37"},"vehicle_type_id":"4","last_reported":1751883305,"current_range_meters":12000,"station_id":"","pricing_plan_id":"cebpf4jnsgd1na2vs0mg"},{"bike_id":"3b22f952-d0bc-4c00-8fd3-7e27b88aea23","system_id":"levelo_inurba_marseille","lat":43.29659,"lon":5.36245,"is_reserved":false,"is_disabled":false,"rental_uris":{"android":"levelo://app?vid=3b22f952-d0bc-4c00-8fd3-7e27b88aea23","ios":"levelo://app?vid=3b22f952-d0bc-4c00-8fd3-7e27b88aea23"},"vehicle_type_id":"4","last_reported":1751883305,"current_range_meters":12000,"station_id":"","pricing_plan_id":"cebpf4jnsgd1na2vs0mg"},{"bike_id":"bb71d76b-8f82-41d5-aac7-d1fe9423c315","system_id":"levelo_inurba_marseille","lat":43.28419,"lon":5.34997,"is_reserved":false,"is_disabled":false,"rental_uris":{"android":"levelo://app?vid=bb71d76b-8f82-41d5-aac7-d1fe9423c315","ios":"levelo://app?vid=bb71d76b-8f82-41d5-aac7-d1fe9423c315"},"vehicle_type_id":"4","last_reported":1751883305,"current_range_meters":12000,"station_id":"ce4bhbh2rcd13ifvqepg","pricing_plan_id":"cebpf4jnsgd1na2vs0mg"},{"bike_id":"507762b7-ed1b-44a3-938e-5ef369615a3e","system_id":"levelo_inurba_marseille","lat":43.29709,"lon":5.37722,"is_reserved":false,"is_disabled":false,"rental_uris":{"android":"levelo://app?vid=507762b7-ed1b-44a3-938e-5ef369615a3e","ios":"levelo://app?vid=507762b7-ed1b-44a3-938e-5ef369615a3e"},"vehicle_type_id":"4","last_reported":1751883305,"current_range_meters":12400,"station_id":"ce4bgkh2rcd13ifvqbl0","pricing_plan_id":"cebpf4jnsgd1na2vs0mg"},{"bike_id":"37f2becd-23f9-4f13-a711-38b8024eeec7","system_id":"levelo_inurba_marseille","lat":43.33768,"lon":5.37516,"is_reserved":false,"is_disabled":false,"rental_uris":{"android":"levelo://app?vid=37f2becd-23f9-4f13-a711-38b8024eeec7","ios":"levelo://app?vid=37f2becd-23f9-4f13-a711-38b8024eeec7"},"vehicle_type_id":"4","last_reported":1751883305,"current_range_meters":12800,"station_id":"","pricing_plan_id":"cebpf4jnsgd1na2vs0mg"},{"bike_id":"fbb6eb26-f5ee-4d8b-a185-17f748b796b4","system_id":"levelo_inurba_marseille","lat":43.32288,"lon":5.44019,"is_reserved":false,"is_disabled":false,"rental_uris":{"android":"levelo://app?vid=fbb6eb26-f5ee-4d8b-a185-17f748b796b4","ios":"levelo://app?vid=fbb6eb26-f5ee-4d8b-a185-17f748b796b4"},"vehicle_type_id":"4","last_reported":1751883305,"current_range_meters":12800,"station_id":"","pricing_plan_id":"cebpf4jnsgd1na2vs0mg"},{"bike_id":"ba0b34a0-a51b-4791-bc9f-2d18f85c7262","system_id":"levelo_inurba_marseille","lat":43.298,"lon":5.38091,"is_reserved":false,"is_disabled":false,"rental_uris":{"android":"levelo://app?vid=ba0b34a0-a51b-4791-bc9f-2d18f85c7262","ios":"levelo://app?vid=ba0b34a0-a51b-4791-bc9f-2d18f85c7262"},"vehicle_type_id":"4","last_reported":1751883305,"current_range_meters":12800,"station_id":"ce4bgip2rcd13ifvqbb0","pricing_plan_id":"cebpf4jnsgd1na2vs0mg"},{"bike_id":"0ab4bff1-9455-4aae-bff1-2f04063b674f","system_id":"levelo_inurba_marseille","lat":43.30451,"lon":5.38897,"is_reserved":false,"is_disabled":false,"rental_uris":{"android":"levelo://app?vid=0ab4bff1-9455-4aae-bff1-2f04063b674f","ios":"levelo://app?vid=0ab4bff1-9455-4aae-bff1-2f04063b674f"},"vehicle_type_id":"4","last_reported":1751883305,"current_range_meters":12800,"station_id":"ce4bgk12rcd13ifvqbi0","pricing_plan_id":"cebpf4jnsgd1na2vs0mg"},{"bike_id":"d0b8f835-b8b9-42ed-a220-3ed645ec25a9","system_id":"levelo_inurba_marseille","lat":43.28277,"lon":5.35029,"is_reserved":false,"is_disabled":false,"rental_uris":{"android":"levelo://app?vid=d0b8f835-b8b9-42ed-a220-3ed645ec25a9","ios":"levelo://app?vid=d0b8f835-b8b9-42ed-a220-3ed645ec25a9"},"vehicle_type_id":"4","last_reported":1751883305,"current_range_meters":12800,"station_id":"ce4bhbp2rcd13ifvqerg","pricing_plan_id":"cebpf4jnsgd1na2vs0mg"},{"bike_id":"b3854816-e1e5-498c-9947-e1b4099c5e05","system_id":"levelo_inurba_marseille","lat":43.2905,"lon":5.36932,"is_reserved":false,"is_disabled":false,"rental_uris":{"android":"levelo://app?vid=b3854816-e1e5-498c-9947-e1b4099c5e05","ios":"levelo://app?vid=b3854816-e1e5-498c-9947-e1b4099c5e05"},"vehicle_type_id":"4","last_reported":1751883305,"current_range_meters":13600,"station_id":"","pricing_plan_id":"cebpf4jnsgd1na2vs0mg"},{"bike_id":"abcdfac5-fe00-4da2-b177-13430b577d14","system_id":"levelo_inurba_marseille","lat":43.30533,"lon":5.365,"is_reserved":false,"is_disabled":false,"rental_uris":{"android":"levelo://app?vid=abcdfac5-fe00-4da2-b177-13430b577d14","ios":"levelo://app?vid=abcdfac5-fe00-4da2-b177-13430b577d14"},"vehicle_type_id":"4","last_reported":1751883305,"current_range_meters":13600,"station_id":"","pricing_plan_id":"cebpf4jnsgd1na2vs0mg"},{"bike_id":"ccc29df5-1113-42b5-b8de-771b9f206409","system_id":"levelo_inurba_marseille","lat":43.26261,"lon":5.37406,"is_reserved":false,"is_disabled":false,"rental_uris":{"android":"levelo://app?vid=ccc29df5-1113-42b5-b8de-771b9f206409","ios":"levelo://app?vid=ccc29df5-1113-42b5-b8de-771b9f206409"},"vehicle_type_id":"4","last_reported":1751883305,"current_range_meters":13600,"station_id":"","pricing_plan_id":"cebpf4jnsgd1na2vs0mg"},{"bike_id":"c613f998-d029-49ec-b4ba-619048f8135f","system_id":"levelo_inurba_marseille","lat":43.30168,"lon":5.38072,"is_reserved":false,"is_disabled":false,"rental_uris":{"android":"levelo://app?vid=c613f998-d029-49ec-b4ba-619048f8135f","ios":"levelo://app?vid=c613f998-d029-49ec-b4ba-619048f8135f"},"vehicle_type_id":"4","last_reported":1751883305,"current_range_meters":13600,"station_id":"ce4bgjp2rcd13ifvqbh0","pricing_plan_id":"cebpf4jnsgd1na2vs0mg"},{"bike_id":"ac882886-b35e-4961-9293-3db50de918aa","system_id":"levelo_inurba_marseille","lat":43.30536,"lon":5.36546,"is_reserved":false,"is_disabled":false,"rental_uris":{"android":"levelo://app?vid=ac882886-b35e-4961-9293-3db50de918aa","ios":"levelo://app?vid=ac882886-b35e-4961-9293-3db50de918aa"},"vehicle_type_id":"4","last_reported":1751883305,"current_range_meters":13600,"station_id":"ce4bgs12rcd13ifvqcag","pricing_plan_id":"cebpf4jnsgd1na2vs0mg"},{"bike_id":"a31d7b1d-f875-4f27-b8f6-640a4ac62493","system_id":"levelo_inurba_marseille","lat":43.33732,"lon":5.39192,"is_reserved":false,"is_disabled":false,"rental_uris":{"android":"levelo://app?vid=a31d7b1d-f875-4f27-b8f6-640a4ac62493","ios":"levelo://app?vid=a31d7b1d-f875-4f27-b8f6-640a4ac62493"},"vehicle_type_id":"4","last_reported":1751883305,"current_range_meters":13600,"station_id":"ce4bhr92rcd13ifvqhsg","pricing_plan_id":"cebpf4jnsgd1na2vs0mg"},{"bike_id":"3c1d6ea0-78b4-4d55-b488-e032e0629a31","system_id":"levelo_inurba_marseille","lat":43.27367,"lon":5.36256,"is_reserved":false,"is_disabled":false,"rental_uris":{"android":"levelo://app?vid=3c1d6ea0-78b4-4d55-b488-e032e0629a31","ios":"levelo://app?vid=3c1d6ea0-78b4-4d55-b488-e032e0629a31"},"vehicle_type_id":"4","last_reported":1751883305,"current_range_meters":14000,"station_id":"ce4bhbh2rcd13ifvqeo0","pricing_plan_id":"cebpf4jnsgd1na2vs0mg"},{"bike_id":"13e73522-903f-424e-a24d-ac279998d396","system_id":"levelo_inurba_marseille","lat":43.22962,"lon":5.35378,"is_reserved":false,"is_disabled":false,"rental_uris":{"android":"levelo://app?vid=13e73522-903f-424e-a24d-ac279998d396","ios":"levelo://app?vid=13e73522-903f-424e-a24d-ac279998d396"},"vehicle_type_id":"4","last_reported":1751883305,"current_range_meters":14000,"station_id":"cpo3532slgdg3j2ikp40","pricing_plan_id":"cebpf4jnsgd1na2vs0mg"},{"bike_id":"78c65a7f-d308-40b5-accc-8e6897ac9f8a","system_id":"levelo_inurba_marseille","lat":43.30103,"lon":5.37797,"is_reserved":false,"is_disabled":false,"rental_uris":{"android":"levelo://app?vid=78c65a7f-d308-40b5-accc-8e6897ac9f8a","ios":"levelo://app?vid=78c65a7f-d308-40b5-accc-8e6897ac9f8a"},"vehicle_type_id":"4","last_reported":1751883305,"current_range_meters":14400,"station_id":"","pricing_plan_id":"cebpf4jnsgd1na2vs0mg"},{"bike_id":"5a9693e6-ca2f-4c04-b4a1-04215c7b0d6a","system_id":"levelo_inurba_marseille","lat":43.30531,"lon":5.36624,"is_reserved":false,"is_disabled":false,"rental_uris":{"android":"levelo://app?vid=5a9693e6-ca2f-4c04-b4a1-04215c7b0d6a","ios":"levelo://app?vid=5a9693e6-ca2f-4c04-b4a1-04215c7b0d6a"},"vehicle_type_id":"4","last_reported":1751883305,"current_range_meters":14400,"station_id":"","pricing_plan_id":"cebpf4jnsgd1na2vs0mg"},{"bike_id":"31d426bb-22d2-4c56-9fd1-0a0e3c1f356e","system_id":"levelo_inurba_marseille","lat":43.30435,"lon":5.38891,"is_reserved":false,"is_disabled":false,"rental_uris":{"android":"levelo://app?vid=31d426bb-22d2-4c56-9fd1-0a0e3c1f356e","ios":"levelo://app?vid=31d426bb-22d2-4c56-9fd1-0a0e3c1f356e"},"vehicle_type_id":"4","last_reported":1751883305,"current_range_meters":14400,"station_id":"ce4bgk12rcd13ifvqbi0","pricing_plan_id":"cebpf4jnsgd1na2vs0mg"},{"bike_id":"53e9b7ad-625a-486c-a022-46e5911f21a5","system_id":"levelo_inurba_marseille","lat":43.25933,"lon":5.40906,"is_reserved":false,"is_disabled":false,"rental_uris":{"android":"levelo://app?vid=53e9b7ad-625a-486c-a022-46e5911f21a5","ios":"levelo://app?vid=53e9b7ad-625a-486c-a022-46e5911f21a5"},"vehicle_type_id":"4","last_reported":1751883305,"current_range_meters":14400,"station_id":"ce4bhm92rcd13ifvqglg","pricing_plan_id":"cebpf4jnsgd1na2vs0mg"},{"bike_id":"cb8de415-46e9-4b4e-8258-2c1154abe0e7","system_id":"levelo_inurba_marseille","lat":43.281542,"lon":5.426355,"is_reserved":false,"is_disabled":false,"rental_uris":{"android":"levelo://app?vid=cb8de415-46e9-4b4e-8258-2c1154abe0e7","ios":"levelo://app?vid=cb8de415-46e9-4b4e-8258-2c1154abe0e7"},"vehicle_type_id":"4","last_reported":1751883305,"current_range_meters":14400,"station_id":"ce4bhnh2rcd13ifvqgug","pricing_plan_id":"cebpf4jnsgd1na2vs0mg"},{"bike_id":"29102da4-02a2-4f9c-99ed-89cdef887179","system_id":"levelo_inurba_marseille","lat":43.22524,"lon":5.34782,"is_reserved":false,"is_disabled":false,"rental_uris":{"android":"levelo://app?vid=29102da4-02a2-4f9c-99ed-89cdef887179","ios":"levelo://app?vid=29102da4-02a2-4f9c-99ed-89cdef887179"},"vehicle_type_id":"4","last_reported":1751883305,"current_range_meters":14400,"station_id":"st_cvj5dfep6f1abm77gieg","pricing_plan_id":"cebpf4jnsgd1na2vs0mg"},{"bike_id":"7dbe417d-3766-498f-a382-f42f6a2dde3a","system_id":"levelo_inurba_marseille","lat":43.27072,"lon":5.40292,"is_reserved":false,"is_disabled":false,"rental_uris":{"android":"levelo://app?vid=7dbe417d-3766-498f-a382-f42f6a2dde3a","ios":"levelo://app?vid=7dbe417d-3766-498f-a382-f42f6a2dde3a"},"vehicle_type_id":"4","last_reported":1751883305,"current_range_meters":14800,"station_id":"ce4bhk92rcd13ifvqgc0","pricing_plan_id":"cebpf4jnsgd1na2vs0mg"},{"bike_id":"cae49035-9185-4058-84f0-a02784882ed3","system_id":"levelo_inurba_marseille","lat":43.31992,"lon":5.36752,"is_reserved":false,"is_disabled":false,"rental_uris":{"android":"levelo://app?vid=cae49035-9185-4058-84f0-a02784882ed3","ios":"levelo://app?vid=cae49035-9185-4058-84f0-a02784882ed3"},"vehicle_type_id":"4","last_reported":1751883305,"current_range_meters":14800,"station_id":"ce4bhrh2rcd13ifvqhug","pricing_plan_id":"cebpf4jnsgd1na2vs0mg"},{"bike_id":"9f75f07b-78c5-42ac-87da-2461e822652f","system_id":"levelo_inurba_marseille","lat":43.31369,"lon":5.39567,"is_reserved":false,"is_disabled":false,"rental_uris":{"android":"levelo://app?vid=9f75f07b-78c5-42ac-87da-2461e822652f","ios":"levelo://app?vid=9f75f07b-78c5-42ac-87da-2461e822652f"},"vehicle_type_id":"4","last_reported":1751883305,"current_range_meters":15200,"station_id":"","pricing_plan_id":"cebpf4jnsgd1na2vs0mg"},{"bike_id":"6a329c1a-f47d-4dae-8b48-71425821baa6","system_id":"levelo_inurba_marseille","lat":43.30144,"lon":5.38773,"is_reserved":false,"is_disabled":false,"rental_uris":{"android":"levelo://app?vid=6a329c1a-f47d-4dae-8b48-71425821baa6","ios":"levelo://app?vid=6a329c1a-f47d-4dae-8b48-71425821baa6"},"vehicle_type_id":"4","last_reported":1751883305,"current_range_meters":15200,"station_id":"ce4bghh2rcd13ifvqb60","pricing_plan_id":"cebpf4jnsgd1na2vs0mg"},{"bike_id":"9854b7f5-b9ea-4b2f-b469-3f3a3e9d005d","system_id":"levelo_inurba_marseille","lat":43.29102,"lon":5.38123,"is_reserved":false,"is_disabled":false,"rental_uris":{"android":"levelo://app?vid=9854b7f5-b9ea-4b2f-b469-3f3a3e9d005d","ios":"levelo://app?vid=9854b7f5-b9ea-4b2f-b469-3f3a3e9d005d"},"vehicle_type_id":"4","last_reported":1751883305,"current_range_meters":15200,"station_id":"ce4bh512rcd13ifvqe2g","pricing_plan_id":"cebpf4jnsgd1na2vs0mg"},{"bike_id":"c7649753-8b60-49ef-8f51-7f42ec5bf7a9","system_id":"levelo_inurba_marseille","lat":43.28477,"lon":5.38418,"is_reserved":false,"is_disabled":false,"rental_uris":{"android":"levelo://app?vid=c7649753-8b60-49ef-8f51-7f42ec5bf7a9","ios":"levelo://app?vid=c7649753-8b60-49ef-8f51-7f42ec5bf7a9"},"vehicle_type_id":"4","last_reported":1751883305,"current_range_meters":15200,"station_id":"ce4bh512rcd13ifvqe3g","pricing_plan_id":"cebpf4jnsgd1na2vs0mg"},{"bike_id":"9def8b07-8521-4023-8fea-449215b8264b","system_id":"levelo_inurba_marseille","lat":43.24388,"lon":5.37063,"is_reserved":false,"is_disabled":false,"rental_uris":{"android":"levelo://app?vid=9def8b07-8521-4023-8fea-449215b8264b","ios":"levelo://app?vid=9def8b07-8521-4023-8fea-449215b8264b"},"vehicle_type_id":"4","last_reported":1751883305,"current_range_meters":15200,"station_id":"ce4bhhh2rcd13ifvqfk0","pricing_plan_id":"cebpf4jnsgd1na2vs0mg"},{"bike_id":"762784bc-76e0-4220-961c-3afad064fde2","system_id":"levelo_inurba_marseille","lat":43.32139,"lon":5.36769,"is_reserved":false,"is_disabled":false,"rental_uris":{"android":"levelo://app?vid=762784bc-76e0-4220-961c-3afad064fde2","ios":"levelo://app?vid=762784bc-76e0-4220-961c-3afad064fde2"},"vehicle_type_id":"4","last_reported":1751883305,"current_range_meters":16000,"station_id":"","pricing_plan_id":"cebpf4jnsgd1na2vs0mg"},{"bike_id":"2b4fe7c6-54f3-480f-b212-e45c52db38ad","system_id":"levelo_inurba_marseille","lat":43.29275,"lon":5.37469,"is_reserved":false,"is_disabled":false,"rental_uris":{"android":"levelo://app?vid=2b4fe7c6-54f3-480f-b212-e45c52db38ad","ios":"levelo://app?vid=2b4fe7c6-54f3-480f-b212-e45c52db38ad"},"vehicle_type_id":"4","last_reported":1751883305,"current_range_meters":16000,"station_id":"ce4bgi12rcd13ifvqb70","pricing_plan_id":"cebpf4jnsgd1na2vs0mg"},{"bike_id":"6fdd71d1-fe1b-47cb-9835-5c05a624ff03","system_id":"levelo_inurba_marseille","lat":43.25105,"lon":5.40325,"is_reserved":false,"is_disabled":false,"rental_uris":{"android":"levelo://app?vid=6fdd71d1-fe1b-47cb-9835-5c05a624ff03","ios":"levelo://app?vid=6fdd71d1-fe1b-47cb-9835-5c05a624ff03"},"vehicle_type_id":"4","last_reported":1751883305,"current_range_meters":16000,"station_id":"ce4bhlh2rcd13ifvqgig","pricing_plan_id":"cebpf4jnsgd1na2vs0mg"},{"bike_id":"ecbe60d8-7bda-4812-920b-5e3057a0e9a0","system_id":"levelo_inurba_marseille","lat":43.21747,"lon":5.34598,"is_reserved":false,"is_disabled":false,"rental_uris":{"android":"levelo://app?vid=ecbe60d8-7bda-4812-920b-5e3057a0e9a0","ios":"levelo://app?vid=ecbe60d8-7bda-4812-920b-5e3057a0e9a0"},"vehicle_type_id":"4","last_reported":1751883305,"current_range_meters":16000,"station_id":"st_cvj6r9ubvosntc0bgbag","pricing_plan_id":"cebpf4jnsgd1na2vs0mg"},{"bike_id":"23089fe3-9bc4-45ed-b7b3-22a8bcbb2474","system_id":"levelo_inurba_marseille","lat":43.33306,"lon":5.43021,"is_reserved":false,"is_disabled":false,"rental_uris":{"android":"levelo://app?vid=23089fe3-9bc4-45ed-b7b3-22a8bcbb2474","ios":"levelo://app?vid=23089fe3-9bc4-45ed-b7b3-22a8bcbb2474"},"vehicle_type_id":"4","last_reported":1751883305,"current_range_meters":16400,"station_id":"","pricing_plan_id":"cebpf4jnsgd1na2vs0mg"},{"bike_id":"2ddd6815-6193-4bc9-bd9f-34f36bc7c904","system_id":"levelo_inurba_marseille","lat":43.28425,"lon":5.34994,"is_reserved":false,"is_disabled":false,"rental_uris":{"android":"levelo://app?vid=2ddd6815-6193-4bc9-bd9f-34f36bc7c904","ios":"levelo://app?vid=2ddd6815-6193-4bc9-bd9f-34f36bc7c904"},"vehicle_type_id":"4","last_reported":1751883305,"current_range_meters":16400,"station_id":"ce4bhbh2rcd13ifvqepg","pricing_plan_id":"cebpf4jnsgd1na2vs0mg"},{"bike_id":"b5928d0e-ffe4-48a7-8896-4ae45354d94d","system_id":"levelo_inurba_marseille","lat":43.25866,"lon":5.39905,"is_reserved":false,"is_disabled":false,"rental_uris":{"android":"levelo://app?vid=b5928d0e-ffe4-48a7-8896-4ae45354d94d","ios":"levelo://app?vid=b5928d0e-ffe4-48a7-8896-4ae45354d94d"},"vehicle_type_id":"4","last_reported":1751883305,"current_range_meters":16400,"station_id":"ce4bhl92rcd13ifvqghg","pricing_plan_id":"cebpf4jnsgd1na2vs0mg"},{"bike_id":"e79346c8-86fc-4daa-86ef-e1e68b65043e","system_id":"levelo_inurba_marseille","lat":43.24079,"lon":5.37757,"is_reserved":false,"is_disabled":false,"rental_uris":{"android":"levelo://app?vid=e79346c8-86fc-4daa-86ef-e1e68b65043e","ios":"levelo://app?vid=e79346c8-86fc-4daa-86ef-e1e68b65043e"},"vehicle_type_id":"4","last_reported":1751883305,"current_range_meters":16400,"station_id":"ce4bhnp2rcd13ifvqgvg","pricing_plan_id":"cebpf4jnsgd1na2vs0mg"},{"bike_id":"8c42ddaa-7e44-446b-a3ce-07b3fad95a41","system_id":"levelo_inurba_marseille","lat":43.26565,"lon":5.39007,"is_reserved":false,"is_disabled":false,"rental_uris":{"android":"levelo://app?vid=8c42ddaa-7e44-446b-a3ce-07b3fad95a41","ios":"levelo://app?vid=8c42ddaa-7e44-446b-a3ce-07b3fad95a41"},"vehicle_type_id":"4","last_reported":1751883305,"current_range_meters":16800,"station_id":"ce4bhe12rcd13ifvqf30","pricing_plan_id":"cebpf4jnsgd1na2vs0mg"},{"bike_id":"88448def-5dd0-4785-bf46-b6c2e5cfe176","system_id":"levelo_inurba_marseille","lat":43.22505,"lon":5.34801,"is_reserved":false,"is_disabled":false,"rental_uris":{"android":"levelo://app?vid=88448def-5dd0-4785-bf46-b6c2e5cfe176","ios":"levelo://app?vid=88448def-5dd0-4785-bf46-b6c2e5cfe176"},"vehicle_type_id":"4","last_reported":1751883305,"current_range_meters":16800,"station_id":"st_cvj5dfep6f1abm77gieg","pricing_plan_id":"cebpf4jnsgd1na2vs0mg"},{"bike_id":"cd921873-e060-4800-a6eb-05ae1b62a4cb","system_id":"levelo_inurba_marseille","lat":43.31237,"lon":5.36857,"is_reserved":false,"is_disabled":false,"rental_uris":{"android":"levelo://app?vid=cd921873-e060-4800-a6eb-05ae1b62a4cb","ios":"levelo://app?vid=cd921873-e060-4800-a6eb-05ae1b62a4cb"},"vehicle_type_id":"4","last_reported":1751883305,"current_range_meters":17200,"station_id":"ce4bgl92rcd13ifvqbq0","pricing_plan_id":"cebpf4jnsgd1na2vs0mg"},{"bike_id":"2fd61b12-5c35-4504-9828-e462cbf1918c","system_id":"levelo_inurba_marseille","lat":43.29632,"lon":5.40594,"is_reserved":false,"is_disabled":false,"rental_uris":{"android":"levelo://app?vid=2fd61b12-5c35-4504-9828-e462cbf1918c","ios":"levelo://app?vid=2fd61b12-5c35-4504-9828-e462cbf1918c"},"vehicle_type_id":"4","last_reported":1751883305,"current_range_meters":17200,"station_id":"ce4bh0h2rcd13ifvqd60","pricing_plan_id":"cebpf4jnsgd1na2vs0mg"},{"bike_id":"6724b3bb-481b-4829-a8e8-71b2cb5369d9","system_id":"levelo_inurba_marseille","lat":43.25943,"lon":5.40888,"is_reserved":false,"is_disabled":false,"rental_uris":{"android":"levelo://app?vid=6724b3bb-481b-4829-a8e8-71b2cb5369d9","ios":"levelo://app?vid=6724b3bb-481b-4829-a8e8-71b2cb5369d9"},"vehicle_type_id":"4","last_reported":1751883305,"current_range_meters":17200,"station_id":"ce4bhm92rcd13ifvqglg","pricing_plan_id":"cebpf4jnsgd1na2vs0mg"},{"bike_id":"9e08be27-1cf0-4f33-8cfd-3ef9c07ffd78","system_id":"levelo_inurba_marseille","lat":43.319978,"lon":5.381506,"is_reserved":false,"is_disabled":false,"rental_uris":{"android":"levelo://app?vid=9e08be27-1cf0-4f33-8cfd-3ef9c07ffd78","ios":"levelo://app?vid=9e08be27-1cf0-4f33-8cfd-3ef9c07ffd78"},"vehicle_type_id":"4","last_reported":1751883305,"current_range_meters":17200,"station_id":"ce4bhr12rcd13ifvqhpg","pricing_plan_id":"cebpf4jnsgd1na2vs0mg"},{"bike_id":"35759f64-3f20-43e2-82a5-7a1f14b64f0d","system_id":"levelo_inurba_marseille","lat":43.3042,"lon":5.3888,"is_reserved":false,"is_disabled":false,"rental_uris":{"android":"levelo://app?vid=35759f64-3f20-43e2-82a5-7a1f14b64f0d","ios":"levelo://app?vid=35759f64-3f20-43e2-82a5-7a1f14b64f0d"},"vehicle_type_id":"4","last_reported":1751883305,"current_range_meters":17600,"station_id":"ce4bgk12rcd13ifvqbi0","pricing_plan_id":"cebpf4jnsgd1na2vs0mg"},{"bike_id":"879cd20c-f3ae-421d-9c95-b63c829839f1","system_id":"levelo_inurba_marseille","lat":43.29843,"lon":5.36268,"is_reserved":false,"is_disabled":false,"rental_uris":{"android":"levelo://app?vid=879cd20c-f3ae-421d-9c95-b63c829839f1","ios":"levelo://app?vid=879cd20c-f3ae-421d-9c95-b63c829839f1"},"vehicle_type_id":"4","last_reported":1751883305,"current_range_meters":17600,"station_id":"ce4bgpp2rcd13ifvqc3g","pricing_plan_id":"cebpf4jnsgd1na2vs0mg"},{"bike_id":"2a769ea3-7515-421a-884e-2a6a16a1f9a4","system_id":"levelo_inurba_marseille","lat":43.30538,"lon":5.36518,"is_reserved":false,"is_disabled":false,"rental_uris":{"android":"levelo://app?vid=2a769ea3-7515-421a-884e-2a6a16a1f9a4","ios":"levelo://app?vid=2a769ea3-7515-421a-884e-2a6a16a1f9a4"},"vehicle_type_id":"4","last_reported":1751883305,"current_range_meters":17600,"station_id":"ce4bgs12rcd13ifvqcag","pricing_plan_id":"cebpf4jnsgd1na2vs0mg"},{"bike_id":"b0d55032-6351-4ef8-a430-58335ed08aaf","system_id":"levelo_inurba_marseille","lat":43.26143,"lon":5.40395,"is_reserved":false,"is_disabled":false,"rental_uris":{"android":"levelo://app?vid=b0d55032-6351-4ef8-a430-58335ed08aaf","ios":"levelo://app?vid=b0d55032-6351-4ef8-a430-58335ed08aaf"},"vehicle_type_id":"4","last_reported":1751883305,"current_range_meters":17600,"station_id":"ce4bhmh2rcd13ifvqgmg","pricing_plan_id":"cebpf4jnsgd1na2vs0mg"},{"bike_id":"2090512e-543d-4a55-b888-2423e2f84234","system_id":"levelo_inurba_marseille","lat":43.2408,"lon":5.37735,"is_reserved":false,"is_disabled":false,"rental_uris":{"android":"levelo://app?vid=2090512e-543d-4a55-b888-2423e2f84234","ios":"levelo://app?vid=2090512e-543d-4a55-b888-2423e2f84234"},"vehicle_type_id":"4","last_reported":1751883305,"current_range_meters":17600,"station_id":"ce4bhnp2rcd13ifvqgvg","pricing_plan_id":"cebpf4jnsgd1na2vs0mg"},{"bike_id":"9bfc7d3d-4e60-4f8a-9c32-ef3d0e77ec5b","system_id":"levelo_inurba_marseille","lat":43.211911,"lon":5.350744,"is_reserved":false,"is_disabled":false,"rental_uris":{"android":"levelo://app?vid=9bfc7d3d-4e60-4f8a-9c32-ef3d0e77ec5b","ios":"levelo://app?vid=9bfc7d3d-4e60-4f8a-9c32-ef3d0e77ec5b"},"vehicle_type_id":"4","last_reported":1751883305,"current_range_meters":17600,"station_id":"st_cvj6sg6p6f1abm77japg","pricing_plan_id":"cebpf4jnsgd1na2vs0mg"},{"bike_id":"3b56315e-3954-46dc-a554-d7db9e033c5a","system_id":"levelo_inurba_marseille","lat":43.286102,"lon":5.351036,"is_reserved":false,"is_disabled":false,"rental_uris":{"android":"levelo://app?vid=3b56315e-3954-46dc-a554-d7db9e033c5a","ios":"levelo://app?vid=3b56315e-3954-46dc-a554-d7db9e033c5a"},"vehicle_type_id":"4","last_reported":1751883305,"current_range_meters":18000,"station_id":"ce4bhch2rcd13ifvqeug","pricing_plan_id":"cebpf4jnsgd1na2vs0mg"},{"bike_id":"3c98c4b7-23a1-474a-9a19-feec919edf15","system_id":"levelo_inurba_marseille","lat":43.24173,"lon":5.39732,"is_reserved":false,"is_disabled":false,"rental_uris":{"android":"levelo://app?vid=3c98c4b7-23a1-474a-9a19-feec919edf15","ios":"levelo://app?vid=3c98c4b7-23a1-474a-9a19-feec919edf15"},"vehicle_type_id":"4","last_reported":1751883305,"current_range_meters":18000,"station_id":"ce4bhn12rcd13ifvqgpg","pricing_plan_id":"cebpf4jnsgd1na2vs0mg"},{"bike_id":"c5c0441e-12e1-4acb-90bf-00ad4768237b","system_id":"levelo_inurba_marseille","lat":43.24069,"lon":5.37764,"is_reserved":false,"is_disabled":false,"rental_uris":{"android":"levelo://app?vid=c5c0441e-12e1-4acb-90bf-00ad4768237b","ios":"levelo://app?vid=c5c0441e-12e1-4acb-90bf-00ad4768237b"},"vehicle_type_id":"4","last_reported":1751883305,"current_range_meters":18000,"station_id":"ce4bhnp2rcd13ifvqgvg","pricing_plan_id":"cebpf4jnsgd1na2vs0mg"},{"bike_id":"c7efae0b-a1af-41e0-a138-7337c964ebfc","system_id":"levelo_inurba_marseille","lat":43.32504,"lon":5.36567,"is_reserved":false,"is_disabled":false,"rental_uris":{"android":"levelo://app?vid=c7efae0b-a1af-41e0-a138-7337c964ebfc","ios":"levelo://app?vid=c7efae0b-a1af-41e0-a138-7337c964ebfc"},"vehicle_type_id":"4","last_reported":1751883305,"current_range_meters":18000,"station_id":"ce4bhs12rcd13ifvqhvg","pricing_plan_id":"cebpf4jnsgd1na2vs0mg"},{"bike_id":"a7c39d59-40bd-4f7b-a228-ff2080b9cf69","system_id":"levelo_inurba_marseille","lat":43.26982,"lon":5.40224,"is_reserved":false,"is_disabled":false,"rental_uris":{"android":"levelo://app?vid=a7c39d59-40bd-4f7b-a228-ff2080b9cf69","ios":"levelo://app?vid=a7c39d59-40bd-4f7b-a228-ff2080b9cf69"},"vehicle_type_id":"4","last_reported":1751883305,"current_range_meters":18000,"station_id":"cjm6bp8fraef2m0cb0m0","pricing_plan_id":"cebpf4jnsgd1na2vs0mg"},{"bike_id":"d4c9c7cd-062f-4f3e-be5a-cf5fb497d1ef","system_id":"levelo_inurba_marseille","lat":43.26935,"lon":5.40245,"is_reserved":false,"is_disabled":false,"rental_uris":{"android":"levelo://app?vid=d4c9c7cd-062f-4f3e-be5a-cf5fb497d1ef","ios":"levelo://app?vid=d4c9c7cd-062f-4f3e-be5a-cf5fb497d1ef"},"vehicle_type_id":"4","last_reported":1751883305,"current_range_meters":18000,"station_id":"cjm6bp8fraef2m0cb0m0","pricing_plan_id":"cebpf4jnsgd1na2vs0mg"},{"bike_id":"89aed59f-866e-4768-b8b5-54548cd7d320","system_id":"levelo_inurba_marseille","lat":43.22504,"lon":5.34788,"is_reserved":false,"is_disabled":false,"rental_uris":{"android":"levelo://app?vid=89aed59f-866e-4768-b8b5-54548cd7d320","ios":"levelo://app?vid=89aed59f-866e-4768-b8b5-54548cd7d320"},"vehicle_type_id":"4","last_reported":1751883305,"current_range_meters":18000,"station_id":"st_cvj5dfep6f1abm77gieg","pricing_plan_id":"cebpf4jnsgd1na2vs0mg"},{"bike_id":"43d0a216-171e-45fe-88be-8650fec68cf8","system_id":"levelo_inurba_marseille","lat":43.21217,"lon":5.35095,"is_reserved":false,"is_disabled":false,"rental_uris":{"android":"levelo://app?vid=43d0a216-171e-45fe-88be-8650fec68cf8","ios":"levelo://app?vid=43d0a216-171e-45fe-88be-8650fec68cf8"},"vehicle_type_id":"4","last_reported":1751883305,"current_range_meters":18000,"station_id":"st_cvj6sg6p6f1abm77japg","pricing_plan_id":"cebpf4jnsgd1na2vs0mg"},{"bike_id":"6a3a3e65-1839-43d5-b574-3a73e4e32dac","system_id":"levelo_inurba_marseille","lat":43.32321,"lon":5.3887,"is_reserved":false,"is_disabled":false,"rental_uris":{"android":"levelo://app?vid=6a3a3e65-1839-43d5-b574-3a73e4e32dac","ios":"levelo://app?vid=6a3a3e65-1839-43d5-b574-3a73e4e32dac"},"vehicle_type_id":"4","last_reported":1751883305,"current_range_meters":18800,"station_id":"","pricing_plan_id":"cebpf4jnsgd1na2vs0mg"},{"bike_id":"888522e3-39b6-4ff3-ad74-ff6c6f771157","system_id":"levelo_inurba_marseille","lat":43.294984,"lon":5.402577,"is_reserved":false,"is_disabled":false,"rental_uris":{"android":"levelo://app?vid=888522e3-39b6-4ff3-ad74-ff6c6f771157","ios":"levelo://app?vid=888522e3-39b6-4ff3-ad74-ff6c6f771157"},"vehicle_type_id":"4","last_reported":1751883305,"current_range_meters":18800,"station_id":"","pricing_plan_id":"cebpf4jnsgd1na2vs0mg"},{"bike_id":"c8810e8f-2a78-4a6d-8cb6-3d76e1b529a8","system_id":"levelo_inurba_marseille","lat":43.30533,"lon":5.36711,"is_reserved":false,"is_disabled":false,"rental_uris":{"android":"levelo://app?vid=c8810e8f-2a78-4a6d-8cb6-3d76e1b529a8","ios":"levelo://app?vid=c8810e8f-2a78-4a6d-8cb6-3d76e1b529a8"},"vehicle_type_id":"4","last_reported":1751883305,"current_range_meters":18800,"station_id":"ce4bgrp2rcd13ifvqc9g","pricing_plan_id":"cebpf4jnsgd1na2vs0mg"},{"bike_id":"2b0606e8-72e9-4320-a493-4ba4b284a2bf","system_id":"levelo_inurba_marseille","lat":43.26215,"lon":5.37442,"is_reserved":false,"is_disabled":false,"rental_uris":{"android":"levelo://app?vid=2b0606e8-72e9-4320-a493-4ba4b284a2bf","ios":"levelo://app?vid=2b0606e8-72e9-4320-a493-4ba4b284a2bf"},"vehicle_type_id":"4","last_reported":1751883305,"current_range_meters":18800,"station_id":"ce4bhgp2rcd13ifvqfc0","pricing_plan_id":"cebpf4jnsgd1na2vs0mg"},{"bike_id":"71704c4f-7c18-4f03-81bf-8dec9b91ab79","system_id":"levelo_inurba_marseille","lat":43.2315,"lon":5.43738,"is_reserved":false,"is_disabled":false,"rental_uris":{"android":"levelo://app?vid=71704c4f-7c18-4f03-81bf-8dec9b91ab79","ios":"levelo://app?vid=71704c4f-7c18-4f03-81bf-8dec9b91ab79"},"vehicle_type_id":"4","last_reported":1751883305,"current_range_meters":18800,"station_id":"ce4bhmp2rcd13ifvqgog","pricing_plan_id":"cebpf4jnsgd1na2vs0mg"},{"bike_id":"d5ef770d-9759-47e3-b3a5-7d2785ef76db","system_id":"levelo_inurba_marseille","lat":43.32929,"lon":5.39031,"is_reserved":false,"is_disabled":false,"rental_uris":{"android":"levelo://app?vid=d5ef770d-9759-47e3-b3a5-7d2785ef76db","ios":"levelo://app?vid=d5ef770d-9759-47e3-b3a5-7d2785ef76db"},"vehicle_type_id":"4","last_reported":1751883305,"current_range_meters":19200,"station_id":"","pricing_plan_id":"cebpf4jnsgd1na2vs0mg"},{"bike_id":"afd2c671-b274-4716-95f7-9abfdfc6dc55","system_id":"levelo_inurba_marseille","lat":43.31529,"lon":5.37447,"is_reserved":false,"is_disabled":false,"rental_uris":{"android":"levelo://app?vid=afd2c671-b274-4716-95f7-9abfdfc6dc55","ios":"levelo://app?vid=afd2c671-b274-4716-95f7-9abfdfc6dc55"},"vehicle_type_id":"4","last_reported":1751883305,"current_range_meters":19200,"station_id":"","pricing_plan_id":"cebpf4jnsgd1na2vs0mg"},{"bike_id":"0df513a5-66af-4575-9c13-0844e112b6d9","system_id":"levelo_inurba_marseille","lat":43.301536,"lon":5.380906,"is_reserved":false,"is_disabled":false,"rental_uris":{"android":"levelo://app?vid=0df513a5-66af-4575-9c13-0844e112b6d9","ios":"levelo://app?vid=0df513a5-66af-4575-9c13-0844e112b6d9"},"vehicle_type_id":"4","last_reported":1751883305,"current_range_meters":19200,"station_id":"ce4bgjp2rcd13ifvqbh0","pricing_plan_id":"cebpf4jnsgd1na2vs0mg"},{"bike_id":"437ac22b-fb81-441e-8d59-b35cb3404f14","system_id":"levelo_inurba_marseille","lat":43.30422,"lon":5.3888,"is_reserved":false,"is_disabled":false,"rental_uris":{"android":"levelo://app?vid=437ac22b-fb81-441e-8d59-b35cb3404f14","ios":"levelo://app?vid=437ac22b-fb81-441e-8d59-b35cb3404f14"},"vehicle_type_id":"4","last_reported":1751883305,"current_range_meters":19600,"station_id":"ce4bgk12rcd13ifvqbi0","pricing_plan_id":"cebpf4jnsgd1na2vs0mg"},{"bike_id":"03deea56-e3e0-48e6-81b5-ca12d9fb8cac","system_id":"levelo_inurba_marseille","lat":43.29847,"lon":5.36279,"is_reserved":false,"is_disabled":false,"rental_uris":{"android":"levelo://app?vid=03deea56-e3e0-48e6-81b5-ca12d9fb8cac","ios":"levelo://app?vid=03deea56-e3e0-48e6-81b5-ca12d9fb8cac"},"vehicle_type_id":"4","last_reported":1751883305,"current_range_meters":19600,"station_id":"ce4bgpp2rcd13ifvqc3g","pricing_plan_id":"cebpf4jnsgd1na2vs0mg"},{"bike_id":"8c74f9d8-c7cc-46ae-99d8-711fc602acc5","system_id":"levelo_inurba_marseille","lat":43.29532,"lon":5.39041,"is_reserved":false,"is_disabled":false,"rental_uris":{"android":"levelo://app?vid=8c74f9d8-c7cc-46ae-99d8-711fc602acc5","ios":"levelo://app?vid=8c74f9d8-c7cc-46ae-99d8-711fc602acc5"},"vehicle_type_id":"4","last_reported":1751883305,"current_range_meters":19600,"station_id":"ce4bh3p2rcd13ifvqdp0","pricing_plan_id":"cebpf4jnsgd1na2vs0mg"},{"bike_id":"51890362-46b0-4ee7-9f02-afbf036d064e","system_id":"levelo_inurba_marseille","lat":43.21197,"lon":5.35094,"is_reserved":false,"is_disabled":false,"rental_uris":{"android":"levelo://app?vid=51890362-46b0-4ee7-9f02-afbf036d064e","ios":"levelo://app?vid=51890362-46b0-4ee7-9f02-afbf036d064e"},"vehicle_type_id":"4","last_reported":1751883305,"current_range_meters":19600,"station_id":"st_cvj6sg6p6f1abm77japg","pricing_plan_id":"cebpf4jnsgd1na2vs0mg"},{"bike_id":"084f14d4-0bc9-446c-902e-a4f3b90135fe","system_id":"levelo_inurba_marseille","lat":43.3242,"lon":5.42871,"is_reserved":false,"is_disabled":false,"rental_uris":{"android":"levelo://app?vid=084f14d4-0bc9-446c-902e-a4f3b90135fe","ios":"levelo://app?vid=084f14d4-0bc9-446c-902e-a4f3b90135fe"},"vehicle_type_id":"4","last_reported":1751883305,"current_range_meters":20000,"station_id":"","pricing_plan_id":"cebpf4jnsgd1na2vs0mg"},{"bike_id":"87c2d236-4978-4760-be77-27d7f5a212e4","system_id":"levelo_inurba_marseille","lat":43.29644,"lon":5.36205,"is_reserved":false,"is_disabled":false,"rental_uris":{"android":"levelo://app?vid=87c2d236-4978-4760-be77-27d7f5a212e4","ios":"levelo://app?vid=87c2d236-4978-4760-be77-27d7f5a212e4"},"vehicle_type_id":"4","last_reported":1751883305,"current_range_meters":20000,"station_id":"","pricing_plan_id":"cebpf4jnsgd1na2vs0mg"},{"bike_id":"3ba3c273-e9a3-4b4d-afb5-37ebd940a1a9","system_id":"levelo_inurba_marseille","lat":43.29829,"lon":5.36268,"is_reserved":false,"is_disabled":false,"rental_uris":{"android":"levelo://app?vid=3ba3c273-e9a3-4b4d-afb5-37ebd940a1a9","ios":"levelo://app?vid=3ba3c273-e9a3-4b4d-afb5-37ebd940a1a9"},"vehicle_type_id":"4","last_reported":1751883305,"current_range_meters":20000,"station_id":"ce4bgpp2rcd13ifvqc3g","pricing_plan_id":"cebpf4jnsgd1na2vs0mg"},{"bike_id":"5ca8af20-c38b-48b3-99db-911905ed8472","system_id":"levelo_inurba_marseille","lat":43.29838,"lon":5.36269,"is_reserved":false,"is_disabled":false,"rental_uris":{"android":"levelo://app?vid=5ca8af20-c38b-48b3-99db-911905ed8472","ios":"levelo://app?vid=5ca8af20-c38b-48b3-99db-911905ed8472"},"vehicle_type_id":"4","last_reported":1751883305,"current_range_meters":20000,"station_id":"ce4bgpp2rcd13ifvqc3g","pricing_plan_id":"cebpf4jnsgd1na2vs0mg"},{"bike_id":"3c35c1cb-c3a7-4f8d-81dc-c78b3d7ef6f7","system_id":"levelo_inurba_marseille","lat":43.31484,"lon":5.37312,"is_reserved":false,"is_disabled":false,"rental_uris":{"android":"levelo://app?vid=3c35c1cb-c3a7-4f8d-81dc-c78b3d7ef6f7","ios":"levelo://app?vid=3c35c1cb-c3a7-4f8d-81dc-c78b3d7ef6f7"},"vehicle_type_id":"4","last_reported":1751883305,"current_range_meters":20000,"station_id":"ce4bgt12rcd13ifvqcd0","pricing_plan_id":"cebpf4jnsgd1na2vs0mg"},{"bike_id":"c00453f7-7b93-479d-b8e5-ddcf64c0c959","system_id":"levelo_inurba_marseille","lat":43.27559,"lon":5.38406,"is_reserved":false,"is_disabled":false,"rental_uris":{"android":"levelo://app?vid=c00453f7-7b93-479d-b8e5-ddcf64c0c959","ios":"levelo://app?vid=c00453f7-7b93-479d-b8e5-ddcf64c0c959"},"vehicle_type_id":"4","last_reported":1751883305,"current_range_meters":20000,"station_id":"ce4bhh92rcd13ifvqfi0","pricing_plan_id":"cebpf4jnsgd1na2vs0mg"},{"bike_id":"135eb05c-d7fa-4180-be69-a1ce7aa654ff","system_id":"levelo_inurba_marseille","lat":43.27062,"lon":5.40264,"is_reserved":false,"is_disabled":false,"rental_uris":{"android":"levelo://app?vid=135eb05c-d7fa-4180-be69-a1ce7aa654ff","ios":"levelo://app?vid=135eb05c-d7fa-4180-be69-a1ce7aa654ff"},"vehicle_type_id":"4","last_reported":1751883305,"current_range_meters":20000,"station_id":"ce4bhk92rcd13ifvqgc0","pricing_plan_id":"cebpf4jnsgd1na2vs0mg"},{"bike_id":"54a02f23-552c-4ab6-92e9-c5073b92cfd1","system_id":"levelo_inurba_marseille","lat":43.24072,"lon":5.3776,"is_reserved":false,"is_disabled":false,"rental_uris":{"android":"levelo://app?vid=54a02f23-552c-4ab6-92e9-c5073b92cfd1","ios":"levelo://app?vid=54a02f23-552c-4ab6-92e9-c5073b92cfd1"},"vehicle_type_id":"4","last_reported":1751883305,"current_range_meters":20000,"station_id":"ce4bhnp2rcd13ifvqgvg","pricing_plan_id":"cebpf4jnsgd1na2vs0mg"},{"bike_id":"49b55577-4cf8-4423-81bf-5c5c0c0edb0f","system_id":"levelo_inurba_marseille","lat":43.32109,"lon":5.36792,"is_reserved":false,"is_disabled":false,"rental_uris":{"android":"levelo://app?vid=49b55577-4cf8-4423-81bf-5c5c0c0edb0f","ios":"levelo://app?vid=49b55577-4cf8-4423-81bf-5c5c0c0edb0f"},"vehicle_type_id":"4","last_reported":1751883305,"current_range_meters":20000,"station_id":"ce4bhrh2rcd13ifvqhug","pricing_plan_id":"cebpf4jnsgd1na2vs0mg"},{"bike_id":"74d1dd5c-9f07-4c49-948a-3ae0ce476859","system_id":"levelo_inurba_marseille","lat":43.30536,"lon":5.36701,"is_reserved":false,"is_disabled":false,"rental_uris":{"android":"levelo://app?vid=74d1dd5c-9f07-4c49-948a-3ae0ce476859","ios":"levelo://app?vid=74d1dd5c-9f07-4c49-948a-3ae0ce476859"},"vehicle_type_id":"4","last_reported":1751883305,"current_range_meters":20400,"station_id":"ce4bgrp2rcd13ifvqc9g","pricing_plan_id":"cebpf4jnsgd1na2vs0mg"},{"bike_id":"8a53de96-ed7c-4b17-9650-7418cd12a367","system_id":"levelo_inurba_marseille","lat":43.30148,"lon":5.37418,"is_reserved":false,"is_disabled":false,"rental_uris":{"android":"levelo://app?vid=8a53de96-ed7c-4b17-9650-7418cd12a367","ios":"levelo://app?vid=8a53de96-ed7c-4b17-9650-7418cd12a367"},"vehicle_type_id":"4","last_reported":1751883305,"current_range_meters":20400,"station_id":"ce4bgs92rcd13ifvqcc0","pricing_plan_id":"cebpf4jnsgd1na2vs0mg"},{"bike_id":"ae3a789b-1685-4a40-9f7a-347caa9c9fb1","system_id":"levelo_inurba_marseille","lat":43.28931,"lon":5.36628,"is_reserved":false,"is_disabled":false,"rental_uris":{"android":"levelo://app?vid=ae3a789b-1685-4a40-9f7a-347caa9c9fb1","ios":"levelo://app?vid=ae3a789b-1685-4a40-9f7a-347caa9c9fb1"},"vehicle_type_id":"4","last_reported":1751883305,"current_range_meters":20400,"station_id":"ce4bhap2rcd13ifvqek0","pricing_plan_id":"cebpf4jnsgd1na2vs0mg"},{"bike_id":"ca4ecafe-f022-4230-bf69-f43db0c01c65","system_id":"levelo_inurba_marseille","lat":43.26578,"lon":5.38996,"is_reserved":false,"is_disabled":false,"rental_uris":{"android":"levelo://app?vid=ca4ecafe-f022-4230-bf69-f43db0c01c65","ios":"levelo://app?vid=ca4ecafe-f022-4230-bf69-f43db0c01c65"},"vehicle_type_id":"4","last_reported":1751883305,"current_range_meters":20400,"station_id":"ce4bhe12rcd13ifvqf30","pricing_plan_id":"cebpf4jnsgd1na2vs0mg"},{"bike_id":"5b33c4a4-5802-46d3-9e87-1c2e42887469","system_id":"levelo_inurba_marseille","lat":43.281601,"lon":5.426413,"is_reserved":false,"is_disabled":false,"rental_uris":{"android":"levelo://app?vid=5b33c4a4-5802-46d3-9e87-1c2e42887469","ios":"levelo://app?vid=5b33c4a4-5802-46d3-9e87-1c2e42887469"},"vehicle_type_id":"4","last_reported":1751883305,"current_range_meters":20400,"station_id":"ce4bhnh2rcd13ifvqgug","pricing_plan_id":"cebpf4jnsgd1na2vs0mg"},{"bike_id":"8b735b5d-e576-4f89-bcea-2d063effe603","system_id":"levelo_inurba_marseille","lat":43.32464,"lon":5.36583,"is_reserved":false,"is_disabled":false,"rental_uris":{"android":"levelo://app?vid=8b735b5d-e576-4f89-bcea-2d063effe603","ios":"levelo://app?vid=8b735b5d-e576-4f89-bcea-2d063effe603"},"vehicle_type_id":"4","last_reported":1751883305,"current_range_meters":20400,"station_id":"ce4bhs12rcd13ifvqhvg","pricing_plan_id":"cebpf4jnsgd1na2vs0mg"},{"bike_id":"419c209a-bbdc-4198-88b6-3abb67b0f343","system_id":"levelo_inurba_marseille","lat":43.29849,"lon":5.36279,"is_reserved":false,"is_disabled":false,"rental_uris":{"android":"levelo://app?vid=419c209a-bbdc-4198-88b6-3abb67b0f343","ios":"levelo://app?vid=419c209a-bbdc-4198-88b6-3abb67b0f343"},"vehicle_type_id":"4","last_reported":1751883305,"current_range_meters":20800,"station_id":"ce4bgpp2rcd13ifvqc3g","pricing_plan_id":"cebpf4jnsgd1na2vs0mg"},{"bike_id":"24a59807-47dd-4284-bf22-c43de7642fb5","system_id":"levelo_inurba_marseille","lat":43.286102,"lon":5.351029,"is_reserved":false,"is_disabled":false,"rental_uris":{"android":"levelo://app?vid=24a59807-47dd-4284-bf22-c43de7642fb5","ios":"levelo://app?vid=24a59807-47dd-4284-bf22-c43de7642fb5"},"vehicle_type_id":"4","last_reported":1751883305,"current_range_meters":20800,"station_id":"ce4bhch2rcd13ifvqeug","pricing_plan_id":"cebpf4jnsgd1na2vs0mg"},{"bike_id":"e59e19b7-a7e9-420d-80ef-2f5d3c7b61ef","system_id":"levelo_inurba_marseille","lat":43.270691,"lon":5.422696,"is_reserved":false,"is_disabled":false,"rental_uris":{"android":"levelo://app?vid=e59e19b7-a7e9-420d-80ef-2f5d3c7b61ef","ios":"levelo://app?vid=e59e19b7-a7e9-420d-80ef-2f5d3c7b61ef"},"vehicle_type_id":"4","last_reported":1751883305,"current_range_meters":20800,"station_id":"ce4bhk92rcd13ifvqgb0","pricing_plan_id":"cebpf4jnsgd1na2vs0mg"},{"bike_id":"8c6f6f97-5cc2-4f2c-9337-02b162edaf3b","system_id":"levelo_inurba_marseille","lat":43.27946,"lon":5.41049,"is_reserved":false,"is_disabled":false,"rental_uris":{"android":"levelo://app?vid=8c6f6f97-5cc2-4f2c-9337-02b162edaf3b","ios":"levelo://app?vid=8c6f6f97-5cc2-4f2c-9337-02b162edaf3b"},"vehicle_type_id":"4","last_reported":1751883305,"current_range_meters":20800,"station_id":"ce4bhnp2rcd13ifvqh0g","pricing_plan_id":"cebpf4jnsgd1na2vs0mg"},{"bike_id":"eee11ad8-fb01-4e1a-97f5-9b869342d505","system_id":"levelo_inurba_marseille","lat":43.22516,"lon":5.34792,"is_reserved":false,"is_disabled":false,"rental_uris":{"android":"levelo://app?vid=eee11ad8-fb01-4e1a-97f5-9b869342d505","ios":"levelo://app?vid=eee11ad8-fb01-4e1a-97f5-9b869342d505"},"vehicle_type_id":"4","last_reported":1751883305,"current_range_meters":20800,"station_id":"st_cvj5dfep6f1abm77gieg","pricing_plan_id":"cebpf4jnsgd1na2vs0mg"},{"bike_id":"a7c9f70f-9a0d-416c-b8fd-c3c4e2af0fcb","system_id":"levelo_inurba_marseille","lat":43.21753,"lon":5.34597,"is_reserved":false,"is_disabled":false,"rental_uris":{"android":"levelo://app?vid=a7c9f70f-9a0d-416c-b8fd-c3c4e2af0fcb","ios":"levelo://app?vid=a7c9f70f-9a0d-416c-b8fd-c3c4e2af0fcb"},"vehicle_type_id":"4","last_reported":1751883305,"current_range_meters":20800,"station_id":"st_cvj6r9ubvosntc0bgbag","pricing_plan_id":"cebpf4jnsgd1na2vs0mg"},{"bike_id":"45b8a5f0-323f-4166-9262-72286a2a01ee","system_id":"levelo_inurba_marseille","lat":43.27365,"lon":5.36247,"is_reserved":false,"is_disabled":false,"rental_uris":{"android":"levelo://app?vid=45b8a5f0-323f-4166-9262-72286a2a01ee","ios":"levelo://app?vid=45b8a5f0-323f-4166-9262-72286a2a01ee"},"vehicle_type_id":"4","last_reported":1751883305,"current_range_meters":21600,"station_id":"ce4bhbh2rcd13ifvqeo0","pricing_plan_id":"cebpf4jnsgd1na2vs0mg"},{"bike_id":"33ec471d-b6c4-4c05-bc84-3babfffe446a","system_id":"levelo_inurba_marseille","lat":43.279716,"lon":5.387484,"is_reserved":false,"is_disabled":false,"rental_uris":{"android":"levelo://app?vid=33ec471d-b6c4-4c05-bc84-3babfffe446a","ios":"levelo://app?vid=33ec471d-b6c4-4c05-bc84-3babfffe446a"},"vehicle_type_id":"4","last_reported":1751883305,"current_range_meters":21600,"station_id":"ce4bhg12rcd13ifvqf80","pricing_plan_id":"cebpf4jnsgd1na2vs0mg"},{"bike_id":"3db12be1-b7d7-4162-939e-1dbc12491649","system_id":"levelo_inurba_marseille","lat":43.28154,"lon":5.42644,"is_reserved":false,"is_disabled":false,"rental_uris":{"android":"levelo://app?vid=3db12be1-b7d7-4162-939e-1dbc12491649","ios":"levelo://app?vid=3db12be1-b7d7-4162-939e-1dbc12491649"},"vehicle_type_id":"4","last_reported":1751883305,"current_range_meters":21600,"station_id":"ce4bhnh2rcd13ifvqgug","pricing_plan_id":"cebpf4jnsgd1na2vs0mg"},{"bike_id":"2695c39e-6304-4770-aa91-558309af57af","system_id":"levelo_inurba_marseille","lat":43.27995,"lon":5.40006,"is_reserved":false,"is_disabled":false,"rental_uris":{"android":"levelo://app?vid=2695c39e-6304-4770-aa91-558309af57af","ios":"levelo://app?vid=2695c39e-6304-4770-aa91-558309af57af"},"vehicle_type_id":"4","last_reported":1751883305,"current_range_meters":21600,"station_id":"ce4bho92rcd13ifvqh4g","pricing_plan_id":"cebpf4jnsgd1na2vs0mg"},{"bike_id":"908dbef4-4cd9-4269-805a-437521e70bb7","system_id":"levelo_inurba_marseille","lat":43.29529,"lon":5.39025,"is_reserved":false,"is_disabled":false,"rental_uris":{"android":"levelo://app?vid=908dbef4-4cd9-4269-805a-437521e70bb7","ios":"levelo://app?vid=908dbef4-4cd9-4269-805a-437521e70bb7"},"vehicle_type_id":"4","last_reported":1751883305,"current_range_meters":22000,"station_id":"ce4bh3p2rcd13ifvqdp0","pricing_plan_id":"cebpf4jnsgd1na2vs0mg"},{"bike_id":"8c1a613c-807f-4cd8-9f8f-625d13e56aa6","system_id":"levelo_inurba_marseille","lat":43.28726,"lon":5.37934,"is_reserved":false,"is_disabled":false,"rental_uris":{"android":"levelo://app?vid=8c1a613c-807f-4cd8-9f8f-625d13e56aa6","ios":"levelo://app?vid=8c1a613c-807f-4cd8-9f8f-625d13e56aa6"},"vehicle_type_id":"4","last_reported":1751883305,"current_range_meters":22000,"station_id":"ce4bh9p2rcd13ifvqec0","pricing_plan_id":"cebpf4jnsgd1na2vs0mg"},{"bike_id":"6aba3874-e721-4373-96c9-edb2220354a0","system_id":"levelo_inurba_marseille","lat":43.26805,"lon":5.40266,"is_reserved":false,"is_disabled":false,"rental_uris":{"android":"levelo://app?vid=6aba3874-e721-4373-96c9-edb2220354a0","ios":"levelo://app?vid=6aba3874-e721-4373-96c9-edb2220354a0"},"vehicle_type_id":"4","last_reported":1751883305,"current_range_meters":22000,"station_id":"ce501612rcd8frsf0b60","pricing_plan_id":"cebpf4jnsgd1na2vs0mg"},{"bike_id":"35d41f41-e942-42c5-97f1-40ccdd96f7a4","system_id":"levelo_inurba_marseille","lat":43.21157,"lon":5.35109,"is_reserved":false,"is_disabled":false,"rental_uris":{"android":"levelo://app?vid=35d41f41-e942-42c5-97f1-40ccdd96f7a4","ios":"levelo://app?vid=35d41f41-e942-42c5-97f1-40ccdd96f7a4"},"vehicle_type_id":"4","last_reported":1751883305,"current_range_meters":22000,"station_id":"st_cvj6sg6p6f1abm77japg","pricing_plan_id":"cebpf4jnsgd1na2vs0mg"},{"bike_id":"22ac5136-2e66-4898-b7f9-52ff4d763dca","system_id":"levelo_inurba_marseille","lat":43.3149,"lon":5.3731,"is_reserved":false,"is_disabled":false,"rental_uris":{"android":"levelo://app?vid=22ac5136-2e66-4898-b7f9-52ff4d763dca","ios":"levelo://app?vid=22ac5136-2e66-4898-b7f9-52ff4d763dca"},"vehicle_type_id":"4","last_reported":1751883305,"current_range_meters":22400,"station_id":"ce4bgt12rcd13ifvqcd0","pricing_plan_id":"cebpf4jnsgd1na2vs0mg"},{"bike_id":"4b1beef9-9f42-4bf5-a7f7-6bdef3b2cb0a","system_id":"levelo_inurba_marseille","lat":43.308848,"lon":5.371924,"is_reserved":false,"is_disabled":false,"rental_uris":{"android":"levelo://app?vid=4b1beef9-9f42-4bf5-a7f7-6bdef3b2cb0a","ios":"levelo://app?vid=4b1beef9-9f42-4bf5-a7f7-6bdef3b2cb0a"},"vehicle_type_id":"4","last_reported":1751883305,"current_range_meters":22400,"station_id":"ce4bguh2rcd13ifvqckg","pricing_plan_id":"cebpf4jnsgd1na2vs0mg"},{"bike_id":"5954242e-213a-4d1d-8214-658f7e91af54","system_id":"levelo_inurba_marseille","lat":43.29226,"lon":5.36072,"is_reserved":false,"is_disabled":false,"rental_uris":{"android":"levelo://app?vid=5954242e-213a-4d1d-8214-658f7e91af54","ios":"levelo://app?vid=5954242e-213a-4d1d-8214-658f7e91af54"},"vehicle_type_id":"4","last_reported":1751883305,"current_range_meters":22400,"station_id":"ce4bhbh2rcd13ifvqeqg","pricing_plan_id":"cebpf4jnsgd1na2vs0mg"},{"bike_id":"293aa314-89fe-4028-9f1b-9db85eddc59f","system_id":"levelo_inurba_marseille","lat":43.24165,"lon":5.36395,"is_reserved":false,"is_disabled":false,"rental_uris":{"android":"levelo://app?vid=293aa314-89fe-4028-9f1b-9db85eddc59f","ios":"levelo://app?vid=293aa314-89fe-4028-9f1b-9db85eddc59f"},"vehicle_type_id":"4","last_reported":1751883305,"current_range_meters":22400,"station_id":"cpo36qri1sfpv3e86is0","pricing_plan_id":"cebpf4jnsgd1na2vs0mg"},{"bike_id":"b287377f-3d0b-47ac-86fe-9e0dfc1563de","system_id":"levelo_inurba_marseille","lat":43.22509,"lon":5.34764,"is_reserved":false,"is_disabled":false,"rental_uris":{"android":"levelo://app?vid=b287377f-3d0b-47ac-86fe-9e0dfc1563de","ios":"levelo://app?vid=b287377f-3d0b-47ac-86fe-9e0dfc1563de"},"vehicle_type_id":"4","last_reported":1751883305,"current_range_meters":22400,"station_id":"st_cvj5dfep6f1abm77gieg","pricing_plan_id":"cebpf4jnsgd1na2vs0mg"},{"bike_id":"ea7df389-5dc0-4c58-88fe-80a5af035925","system_id":"levelo_inurba_marseille","lat":43.29839,"lon":5.36448,"is_reserved":false,"is_disabled":false,"rental_uris":{"android":"levelo://app?vid=ea7df389-5dc0-4c58-88fe-80a5af035925","ios":"levelo://app?vid=ea7df389-5dc0-4c58-88fe-80a5af035925"},"vehicle_type_id":"4","last_reported":1751883305,"current_range_meters":22800,"station_id":"","pricing_plan_id":"cebpf4jnsgd1na2vs0mg"},{"bike_id":"7632abff-d444-4de1-857a-1423fa8ed415","system_id":"levelo_inurba_marseille","lat":43.29516,"lon":5.375,"is_reserved":false,"is_disabled":false,"rental_uris":{"android":"levelo://app?vid=7632abff-d444-4de1-857a-1423fa8ed415","ios":"levelo://app?vid=7632abff-d444-4de1-857a-1423fa8ed415"},"vehicle_type_id":"4","last_reported":1751883305,"current_range_meters":22800,"station_id":"ce4bgkp2rcd13ifvqbmg","pricing_plan_id":"cebpf4jnsgd1na2vs0mg"},{"bike_id":"e2a31adc-3bd8-4f67-bf09-446f8bef166e","system_id":"levelo_inurba_marseille","lat":43.30534,"lon":5.36519,"is_reserved":false,"is_disabled":false,"rental_uris":{"android":"levelo://app?vid=e2a31adc-3bd8-4f67-bf09-446f8bef166e","ios":"levelo://app?vid=e2a31adc-3bd8-4f67-bf09-446f8bef166e"},"vehicle_type_id":"4","last_reported":1751883305,"current_range_meters":22800,"station_id":"ce4bgs12rcd13ifvqcag","pricing_plan_id":"cebpf4jnsgd1na2vs0mg"},{"bike_id":"f5c16f07-bc6f-4121-91a7-5ad90eec4f34","system_id":"levelo_inurba_marseille","lat":43.31239,"lon":5.37338,"is_reserved":false,"is_disabled":false,"rental_uris":{"android":"levelo://app?vid=f5c16f07-bc6f-4121-91a7-5ad90eec4f34","ios":"levelo://app?vid=f5c16f07-bc6f-4121-91a7-5ad90eec4f34"},"vehicle_type_id":"4","last_reported":1751883305,"current_range_meters":23200,"station_id":"","pricing_plan_id":"cebpf4jnsgd1na2vs0mg"},{"bike_id":"857f5c79-98f5-4eee-b2c8-dbd2fb30a0cd","system_id":"levelo_inurba_marseille","lat":43.3054,"lon":5.36697,"is_reserved":false,"is_disabled":false,"rental_uris":{"android":"levelo://app?vid=857f5c79-98f5-4eee-b2c8-dbd2fb30a0cd","ios":"levelo://app?vid=857f5c79-98f5-4eee-b2c8-dbd2fb30a0cd"},"vehicle_type_id":"4","last_reported":1751883305,"current_range_meters":23200,"station_id":"ce4bgrp2rcd13ifvqc9g","pricing_plan_id":"cebpf4jnsgd1na2vs0mg"},{"bike_id":"e4793d5e-b4cd-4c12-b9d4-446cb97752b9","system_id":"levelo_inurba_marseille","lat":43.292745,"lon":5.39054,"is_reserved":false,"is_disabled":false,"rental_uris":{"android":"levelo://app?vid=e4793d5e-b4cd-4c12-b9d4-446cb97752b9","ios":"levelo://app?vid=e4793d5e-b4cd-4c12-b9d4-446cb97752b9"},"vehicle_type_id":"4","last_reported":1751883305,"current_range_meters":24000,"station_id":"","pricing_plan_id":"cebpf4jnsgd1na2vs0mg"},{"bike_id":"d4f8798e-4c32-423a-b171-273cf06ef07b","system_id":"levelo_inurba_marseille","lat":43.28437,"lon":5.35029,"is_reserved":false,"is_disabled":false,"rental_uris":{"android":"levelo://app?vid=d4f8798e-4c32-423a-b171-273cf06ef07b","ios":"levelo://app?vid=d4f8798e-4c32-423a-b171-273cf06ef07b"},"vehicle_type_id":"4","last_reported":1751883305,"current_range_meters":24000,"station_id":"","pricing_plan_id":"cebpf4jnsgd1na2vs0mg"},{"bike_id":"c4ea03ee-c285-4e07-a7f5-02585033da23","system_id":"levelo_inurba_marseille","lat":43.29524,"lon":5.39039,"is_reserved":false,"is_disabled":false,"rental_uris":{"android":"levelo://app?vid=c4ea03ee-c285-4e07-a7f5-02585033da23","ios":"levelo://app?vid=c4ea03ee-c285-4e07-a7f5-02585033da23"},"vehicle_type_id":"4","last_reported":1751883305,"current_range_meters":24000,"station_id":"ce4bh3p2rcd13ifvqdp0","pricing_plan_id":"cebpf4jnsgd1na2vs0mg"},{"bike_id":"14d041fe-3c08-4f99-b8b9-27c8388fa5dc","system_id":"levelo_inurba_marseille","lat":43.29528,"lon":5.3904,"is_reserved":false,"is_disabled":false,"rental_uris":{"android":"levelo://app?vid=14d041fe-3c08-4f99-b8b9-27c8388fa5dc","ios":"levelo://app?vid=14d041fe-3c08-4f99-b8b9-27c8388fa5dc"},"vehicle_type_id":"4","last_reported":1751883305,"current_range_meters":24000,"station_id":"ce4bh3p2rcd13ifvqdp0","pricing_plan_id":"cebpf4jnsgd1na2vs0mg"},{"bike_id":"0c8b02f6-8a4d-4b8a-b284-57e9acfacb77","system_id":"levelo_inurba_marseille","lat":43.24413,"lon":5.36995,"is_reserved":false,"is_disabled":false,"rental_uris":{"android":"levelo://app?vid=0c8b02f6-8a4d-4b8a-b284-57e9acfacb77","ios":"levelo://app?vid=0c8b02f6-8a4d-4b8a-b284-57e9acfacb77"},"vehicle_type_id":"4","last_reported":1751883305,"current_range_meters":24000,"station_id":"ce4bhhh2rcd13ifvqfk0","pricing_plan_id":"cebpf4jnsgd1na2vs0mg"},{"bike_id":"3e4ddbfd-6fa6-4c83-8ad8-19ce4d6a58a0","system_id":"levelo_inurba_marseille","lat":43.24183,"lon":5.39731,"is_reserved":false,"is_disabled":false,"rental_uris":{"android":"levelo://app?vid=3e4ddbfd-6fa6-4c83-8ad8-19ce4d6a58a0","ios":"levelo://app?vid=3e4ddbfd-6fa6-4c83-8ad8-19ce4d6a58a0"},"vehicle_type_id":"4","last_reported":1751883305,"current_range_meters":24000,"station_id":"ce4bhn12rcd13ifvqgpg","pricing_plan_id":"cebpf4jnsgd1na2vs0mg"},{"bike_id":"d6d0ea9c-a8ce-4c5c-8cc1-bbb995dc1da8","system_id":"levelo_inurba_marseille","lat":43.21751,"lon":5.34605,"is_reserved":false,"is_disabled":false,"rental_uris":{"android":"levelo://app?vid=d6d0ea9c-a8ce-4c5c-8cc1-bbb995dc1da8","ios":"levelo://app?vid=d6d0ea9c-a8ce-4c5c-8cc1-bbb995dc1da8"},"vehicle_type_id":"4","last_reported":1751883305,"current_range_meters":24000,"station_id":"st_cvj6r9ubvosntc0bgbag","pricing_plan_id":"cebpf4jnsgd1na2vs0mg"},{"bike_id":"dd424475-1b09-4cb5-b79b-f20728299dd6","system_id":"levelo_inurba_marseille","lat":43.21193,"lon":5.35082,"is_reserved":false,"is_disabled":false,"rental_uris":{"android":"levelo://app?vid=dd424475-1b09-4cb5-b79b-f20728299dd6","ios":"levelo://app?vid=dd424475-1b09-4cb5-b79b-f20728299dd6"},"vehicle_type_id":"4","last_reported":1751883305,"current_range_meters":24000,"station_id":"st_cvj6sg6p6f1abm77japg","pricing_plan_id":"cebpf4jnsgd1na2vs0mg"},{"bike_id":"0ea43de6-855f-4f0e-b4bb-6bddf1ce96ce","system_id":"levelo_inurba_marseille","lat":43.304272,"lon":5.388894,"is_reserved":false,"is_disabled":false,"rental_uris":{"android":"levelo://app?vid=0ea43de6-855f-4f0e-b4bb-6bddf1ce96ce","ios":"levelo://app?vid=0ea43de6-855f-4f0e-b4bb-6bddf1ce96ce"},"vehicle_type_id":"4","last_reported":1751883305,"current_range_meters":24400,"station_id":"","pricing_plan_id":"cebpf4jnsgd1na2vs0mg"},{"bike_id":"06feb6af-5eb5-49ba-8d41-8d2f4dbe1ee1","system_id":"levelo_inurba_marseille","lat":43.2994,"lon":5.36562,"is_reserved":false,"is_disabled":false,"rental_uris":{"android":"levelo://app?vid=06feb6af-5eb5-49ba-8d41-8d2f4dbe1ee1","ios":"levelo://app?vid=06feb6af-5eb5-49ba-8d41-8d2f4dbe1ee1"},"vehicle_type_id":"4","last_reported":1751883305,"current_range_meters":24400,"station_id":"","pricing_plan_id":"cebpf4jnsgd1na2vs0mg"},{"bike_id":"4f1e3232-1ee2-47e2-ba9d-c9d7357bfc06","system_id":"levelo_inurba_marseille","lat":43.29904,"lon":5.38132,"is_reserved":false,"is_disabled":false,"rental_uris":{"android":"levelo://app?vid=4f1e3232-1ee2-47e2-ba9d-c9d7357bfc06","ios":"levelo://app?vid=4f1e3232-1ee2-47e2-ba9d-c9d7357bfc06"},"vehicle_type_id":"4","last_reported":1751883305,"current_range_meters":24400,"station_id":"ce4bgj12rcd13ifvqbc0","pricing_plan_id":"cebpf4jnsgd1na2vs0mg"},{"bike_id":"6e4b7be2-3c34-4270-9459-8e2e34aae67e","system_id":"levelo_inurba_marseille","lat":43.30146,"lon":5.38069,"is_reserved":false,"is_disabled":false,"rental_uris":{"android":"levelo://app?vid=6e4b7be2-3c34-4270-9459-8e2e34aae67e","ios":"levelo://app?vid=6e4b7be2-3c34-4270-9459-8e2e34aae67e"},"vehicle_type_id":"4","last_reported":1751883305,"current_range_meters":24400,"station_id":"ce4bgjp2rcd13ifvqbh0","pricing_plan_id":"cebpf4jnsgd1na2vs0mg"},{"bike_id":"7d189fb6-c2de-46be-aa41-a048bc00b4f1","system_id":"levelo_inurba_marseille","lat":43.29661,"lon":5.37346,"is_reserved":false,"is_disabled":false,"rental_uris":{"android":"levelo://app?vid=7d189fb6-c2de-46be-aa41-a048bc00b4f1","ios":"levelo://app?vid=7d189fb6-c2de-46be-aa41-a048bc00b4f1"},"vehicle_type_id":"4","last_reported":1751883305,"current_range_meters":24400,"station_id":"ce4bgk12rcd13ifvqbj0","pricing_plan_id":"cebpf4jnsgd1na2vs0mg"},{"bike_id":"c2b72fe0-bae6-4c7b-ad48-9e771b203dc8","system_id":"levelo_inurba_marseille","lat":43.31361,"lon":5.384781,"is_reserved":false,"is_disabled":false,"rental_uris":{"android":"levelo://app?vid=c2b72fe0-bae6-4c7b-ad48-9e771b203dc8","ios":"levelo://app?vid=c2b72fe0-bae6-4c7b-ad48-9e771b203dc8"},"vehicle_type_id":"4","last_reported":1751883305,"current_range_meters":24400,"station_id":"ce4bgt92rcd13ifvqcf0","pricing_plan_id":"cebpf4jnsgd1na2vs0mg"},{"bike_id":"9ced161e-3397-4ef7-87bd-1b22305f26da","system_id":"levelo_inurba_marseille","lat":43.2862,"lon":5.35097,"is_reserved":false,"is_disabled":false,"rental_uris":{"android":"levelo://app?vid=9ced161e-3397-4ef7-87bd-1b22305f26da","ios":"levelo://app?vid=9ced161e-3397-4ef7-87bd-1b22305f26da"},"vehicle_type_id":"4","last_reported":1751883305,"current_range_meters":24400,"station_id":"ce4bhch2rcd13ifvqeug","pricing_plan_id":"cebpf4jnsgd1na2vs0mg"},{"bike_id":"7fa02854-1685-483e-a23a-22dcb9c78823","system_id":"levelo_inurba_marseille","lat":43.2659,"lon":5.39119,"is_reserved":false,"is_disabled":false,"rental_uris":{"android":"levelo://app?vid=7fa02854-1685-483e-a23a-22dcb9c78823","ios":"levelo://app?vid=7fa02854-1685-483e-a23a-22dcb9c78823"},"vehicle_type_id":"4","last_reported":1751883305,"current_range_meters":24400,"station_id":"ce4bhe12rcd13ifvqf30","pricing_plan_id":"cebpf4jnsgd1na2vs0mg"},{"bike_id":"4f32d669-73d3-4ffb-861f-da9dc4accb22","system_id":"levelo_inurba_marseille","lat":43.25506,"lon":5.37665,"is_reserved":false,"is_disabled":false,"rental_uris":{"android":"levelo://app?vid=4f32d669-73d3-4ffb-861f-da9dc4accb22","ios":"levelo://app?vid=4f32d669-73d3-4ffb-861f-da9dc4accb22"},"vehicle_type_id":"4","last_reported":1751883305,"current_range_meters":24400,"station_id":"ce4bhh12rcd13ifvqff0","pricing_plan_id":"cebpf4jnsgd1na2vs0mg"},{"bike_id":"39ae33c7-725c-4a96-bf73-a2991db701cf","system_id":"levelo_inurba_marseille","lat":43.24193,"lon":5.39743,"is_reserved":false,"is_disabled":false,"rental_uris":{"android":"levelo://app?vid=39ae33c7-725c-4a96-bf73-a2991db701cf","ios":"levelo://app?vid=39ae33c7-725c-4a96-bf73-a2991db701cf"},"vehicle_type_id":"4","last_reported":1751883305,"current_range_meters":24400,"station_id":"ce4bhn12rcd13ifvqgpg","pricing_plan_id":"cebpf4jnsgd1na2vs0mg"},{"bike_id":"a6bd9634-8a28-41da-ad75-226f85e4d5fe","system_id":"levelo_inurba_marseille","lat":43.24069,"lon":5.37765,"is_reserved":false,"is_disabled":false,"rental_uris":{"android":"levelo://app?vid=a6bd9634-8a28-41da-ad75-226f85e4d5fe","ios":"levelo://app?vid=a6bd9634-8a28-41da-ad75-226f85e4d5fe"},"vehicle_type_id":"4","last_reported":1751883305,"current_range_meters":24400,"station_id":"ce4bhnp2rcd13ifvqgvg","pricing_plan_id":"cebpf4jnsgd1na2vs0mg"},{"bike_id":"56eb3fdf-ea87-4fcf-85df-3680fa66363e","system_id":"levelo_inurba_marseille","lat":43.22509,"lon":5.34782,"is_reserved":false,"is_disabled":false,"rental_uris":{"android":"levelo://app?vid=56eb3fdf-ea87-4fcf-85df-3680fa66363e","ios":"levelo://app?vid=56eb3fdf-ea87-4fcf-85df-3680fa66363e"},"vehicle_type_id":"4","last_reported":1751883305,"current_range_meters":24400,"station_id":"st_cvj5dfep6f1abm77gieg","pricing_plan_id":"cebpf4jnsgd1na2vs0mg"},{"bike_id":"1e91cee9-7d4a-458c-9805-68ef6c30eb40","system_id":"levelo_inurba_marseille","lat":43.21747,"lon":5.34614,"is_reserved":false,"is_disabled":false,"rental_uris":{"android":"levelo://app?vid=1e91cee9-7d4a-458c-9805-68ef6c30eb40","ios":"levelo://app?vid=1e91cee9-7d4a-458c-9805-68ef6c30eb40"},"vehicle_type_id":"4","last_reported":1751883305,"current_range_meters":24400,"station_id":"st_cvj6r9ubvosntc0bgbag","pricing_plan_id":"cebpf4jnsgd1na2vs0mg"},{"bike_id":"bbca0986-aa7a-4363-940e-5dd8032bf40e","system_id":"levelo_inurba_marseille","lat":43.21756,"lon":5.34599,"is_reserved":false,"is_disabled":false,"rental_uris":{"android":"levelo://app?vid=bbca0986-aa7a-4363-940e-5dd8032bf40e","ios":"levelo://app?vid=bbca0986-aa7a-4363-940e-5dd8032bf40e"},"vehicle_type_id":"4","last_reported":1751883305,"current_range_meters":24400,"station_id":"st_cvj6r9ubvosntc0bgbag","pricing_plan_id":"cebpf4jnsgd1na2vs0mg"},{"bike_id":"d0f90c24-dd03-411b-9731-55305f76b7c8","system_id":"levelo_inurba_marseille","lat":43.211943,"lon":5.350739,"is_reserved":false,"is_disabled":false,"rental_uris":{"android":"levelo://app?vid=d0f90c24-dd03-411b-9731-55305f76b7c8","ios":"levelo://app?vid=d0f90c24-dd03-411b-9731-55305f76b7c8"},"vehicle_type_id":"4","last_reported":1751883305,"current_range_meters":24400,"station_id":"st_cvj6sg6p6f1abm77japg","pricing_plan_id":"cebpf4jnsgd1na2vs0mg"},{"bike_id":"c026958a-2c62-4268-9db7-7205b4cc9322","system_id":"levelo_inurba_marseille","lat":43.21274,"lon":5.35009,"is_reserved":false,"is_disabled":false,"rental_uris":{"android":"levelo://app?vid=c026958a-2c62-4268-9db7-7205b4cc9322","ios":"levelo://app?vid=c026958a-2c62-4268-9db7-7205b4cc9322"},"vehicle_type_id":"4","last_reported":1751883305,"current_range_meters":24800,"station_id":"","pricing_plan_id":"cebpf4jnsgd1na2vs0mg"},{"bike_id":"9e4ecbd1-c292-4161-af2a-114523573d2f","system_id":"levelo_inurba_marseille","lat":43.326418,"lon":5.403279,"is_reserved":false,"is_disabled":false,"rental_uris":{"android":"levelo://app?vid=9e4ecbd1-c292-4161-af2a-114523573d2f","ios":"levelo://app?vid=9e4ecbd1-c292-4161-af2a-114523573d2f"},"vehicle_type_id":"4","last_reported":1751883305,"current_range_meters":24800,"station_id":"","pricing_plan_id":"cebpf4jnsgd1na2vs0mg"},{"bike_id":"df574868-231d-4f6b-b5a1-69fa93b58da3","system_id":"levelo_inurba_marseille","lat":43.29843,"lon":5.36257,"is_reserved":false,"is_disabled":false,"rental_uris":{"android":"levelo://app?vid=df574868-231d-4f6b-b5a1-69fa93b58da3","ios":"levelo://app?vid=df574868-231d-4f6b-b5a1-69fa93b58da3"},"vehicle_type_id":"4","last_reported":1751883305,"current_range_meters":24800,"station_id":"ce4bgpp2rcd13ifvqc3g","pricing_plan_id":"cebpf4jnsgd1na2vs0mg"},{"bike_id":"6a50911a-1cb5-49fc-8d5d-a2e4f97d8bed","system_id":"levelo_inurba_marseille","lat":43.30296,"lon":5.36906,"is_reserved":false,"is_disabled":false,"rental_uris":{"android":"levelo://app?vid=6a50911a-1cb5-49fc-8d5d-a2e4f97d8bed","ios":"levelo://app?vid=6a50911a-1cb5-49fc-8d5d-a2e4f97d8bed"},"vehicle_type_id":"4","last_reported":1751883305,"current_range_meters":24800,"station_id":"ce4bgqh2rcd13ifvqc5g","pricing_plan_id":"cebpf4jnsgd1na2vs0mg"},{"bike_id":"72e27085-cc72-45ca-871d-ef5e1c80038a","system_id":"levelo_inurba_marseille","lat":43.30563,"lon":5.36702,"is_reserved":false,"is_disabled":false,"rental_uris":{"android":"levelo://app?vid=72e27085-cc72-45ca-871d-ef5e1c80038a","ios":"levelo://app?vid=72e27085-cc72-45ca-871d-ef5e1c80038a"},"vehicle_type_id":"4","last_reported":1751883305,"current_range_meters":24800,"station_id":"ce4bgrp2rcd13ifvqc9g","pricing_plan_id":"cebpf4jnsgd1na2vs0mg"},{"bike_id":"26848243-be08-44c0-868b-dd1a5d7c87bf","system_id":"levelo_inurba_marseille","lat":43.30538,"lon":5.36547,"is_reserved":false,"is_disabled":false,"rental_uris":{"android":"levelo://app?vid=26848243-be08-44c0-868b-dd1a5d7c87bf","ios":"levelo://app?vid=26848243-be08-44c0-868b-dd1a5d7c87bf"},"vehicle_type_id":"4","last_reported":1751883305,"current_range_meters":24800,"station_id":"ce4bgs12rcd13ifvqcag","pricing_plan_id":"cebpf4jnsgd1na2vs0mg"},{"bike_id":"e9113c95-4fac-4662-9ee6-ac3fd476439d","system_id":"levelo_inurba_marseille","lat":43.31502,"lon":5.37284,"is_reserved":false,"is_disabled":false,"rental_uris":{"android":"levelo://app?vid=e9113c95-4fac-4662-9ee6-ac3fd476439d","ios":"levelo://app?vid=e9113c95-4fac-4662-9ee6-ac3fd476439d"},"vehicle_type_id":"4","last_reported":1751883305,"current_range_meters":24800,"station_id":"ce4bgt12rcd13ifvqcd0","pricing_plan_id":"cebpf4jnsgd1na2vs0mg"},{"bike_id":"4db66dfd-6868-4274-a920-9d3331a237d0","system_id":"levelo_inurba_marseille","lat":43.28488,"lon":5.38414,"is_reserved":false,"is_disabled":false,"rental_uris":{"android":"levelo://app?vid=4db66dfd-6868-4274-a920-9d3331a237d0","ios":"levelo://app?vid=4db66dfd-6868-4274-a920-9d3331a237d0"},"vehicle_type_id":"4","last_reported":1751883305,"current_range_meters":24800,"station_id":"ce4bh512rcd13ifvqe3g","pricing_plan_id":"cebpf4jnsgd1na2vs0mg"},{"bike_id":"b6d9b946-f66a-4c6f-96e5-5d23e176360c","system_id":"levelo_inurba_marseille","lat":43.31307,"lon":5.381786,"is_reserved":false,"is_disabled":false,"rental_uris":{"android":"levelo://app?vid=b6d9b946-f66a-4c6f-96e5-5d23e176360c","ios":"levelo://app?vid=b6d9b946-f66a-4c6f-96e5-5d23e176360c"},"vehicle_type_id":"4","last_reported":1751883305,"current_range_meters":25200,"station_id":"","pricing_plan_id":"cebpf4jnsgd1na2vs0mg"},{"bike_id":"b2caa530-bb19-4cc6-a6bd-61e3e1d7432e","system_id":"levelo_inurba_marseille","lat":43.33763,"lon":5.37461,"is_reserved":false,"is_disabled":false,"rental_uris":{"android":"levelo://app?vid=b2caa530-bb19-4cc6-a6bd-61e3e1d7432e","ios":"levelo://app?vid=b2caa530-bb19-4cc6-a6bd-61e3e1d7432e"},"vehicle_type_id":"4","last_reported":1751883305,"current_range_meters":25200,"station_id":"","pricing_plan_id":"cebpf4jnsgd1na2vs0mg"},{"bike_id":"b5853518-0aa5-4ea0-b139-65ee9389b1ae","system_id":"levelo_inurba_marseille","lat":43.29295,"lon":5.37468,"is_reserved":false,"is_disabled":false,"rental_uris":{"android":"levelo://app?vid=b5853518-0aa5-4ea0-b139-65ee9389b1ae","ios":"levelo://app?vid=b5853518-0aa5-4ea0-b139-65ee9389b1ae"},"vehicle_type_id":"4","last_reported":1751883305,"current_range_meters":25200,"station_id":"ce4bgi12rcd13ifvqb70","pricing_plan_id":"cebpf4jnsgd1na2vs0mg"},{"bike_id":"db694495-c8ac-4771-b2df-85b14962224a","system_id":"levelo_inurba_marseille","lat":43.27626,"lon":5.36118,"is_reserved":false,"is_disabled":false,"rental_uris":{"android":"levelo://app?vid=db694495-c8ac-4771-b2df-85b14962224a","ios":"levelo://app?vid=db694495-c8ac-4771-b2df-85b14962224a"},"vehicle_type_id":"4","last_reported":1751883305,"current_range_meters":25200,"station_id":"ce4bgj92rcd13ifvqbe0","pricing_plan_id":"cebpf4jnsgd1na2vs0mg"},{"bike_id":"6ff0c8f4-0915-4b05-9498-ea368ab96e06","system_id":"levelo_inurba_marseille","lat":43.29597,"lon":5.38092,"is_reserved":false,"is_disabled":false,"rental_uris":{"android":"levelo://app?vid=6ff0c8f4-0915-4b05-9498-ea368ab96e06","ios":"levelo://app?vid=6ff0c8f4-0915-4b05-9498-ea368ab96e06"},"vehicle_type_id":"4","last_reported":1751883305,"current_range_meters":25200,"station_id":"ce4bgl12rcd13ifvqbo0","pricing_plan_id":"cebpf4jnsgd1na2vs0mg"},{"bike_id":"9eb94878-0e42-45db-ac33-09e7e7791cd1","system_id":"levelo_inurba_marseille","lat":43.27365,"lon":5.36247,"is_reserved":false,"is_disabled":false,"rental_uris":{"android":"levelo://app?vid=9eb94878-0e42-45db-ac33-09e7e7791cd1","ios":"levelo://app?vid=9eb94878-0e42-45db-ac33-09e7e7791cd1"},"vehicle_type_id":"4","last_reported":1751883305,"current_range_meters":25200,"station_id":"ce4bhbh2rcd13ifvqeo0","pricing_plan_id":"cebpf4jnsgd1na2vs0mg"},{"bike_id":"c934260a-b3f6-4abf-88a5-9e80ed642ad6","system_id":"levelo_inurba_marseille","lat":43.29095,"lon":5.38136,"is_reserved":false,"is_disabled":false,"rental_uris":{"android":"levelo://app?vid=c934260a-b3f6-4abf-88a5-9e80ed642ad6","ios":"levelo://app?vid=c934260a-b3f6-4abf-88a5-9e80ed642ad6"},"vehicle_type_id":"4","last_reported":1751883305,"current_range_meters":25600,"station_id":"","pricing_plan_id":"cebpf4jnsgd1na2vs0mg"},{"bike_id":"320f2a33-deaa-4e0a-a3d5-c39ce8ad680a","system_id":"levelo_inurba_marseille","lat":43.31554,"lon":5.37446,"is_reserved":false,"is_disabled":false,"rental_uris":{"android":"levelo://app?vid=320f2a33-deaa-4e0a-a3d5-c39ce8ad680a","ios":"levelo://app?vid=320f2a33-deaa-4e0a-a3d5-c39ce8ad680a"},"vehicle_type_id":"4","last_reported":1751883305,"current_range_meters":25600,"station_id":"","pricing_plan_id":"cebpf4jnsgd1na2vs0mg"},{"bike_id":"44fe6777-c6dc-48ef-9a67-dd51f5bdd2ce","system_id":"levelo_inurba_marseille","lat":43.28975,"lon":5.37823,"is_reserved":false,"is_disabled":false,"rental_uris":{"android":"levelo://app?vid=44fe6777-c6dc-48ef-9a67-dd51f5bdd2ce","ios":"levelo://app?vid=44fe6777-c6dc-48ef-9a67-dd51f5bdd2ce"},"vehicle_type_id":"4","last_reported":1751883305,"current_range_meters":25600,"station_id":"ce4bh9p2rcd13ifvqed0","pricing_plan_id":"cebpf4jnsgd1na2vs0mg"},{"bike_id":"ad432de7-9523-40ba-9b6a-2a3423d37d7c","system_id":"levelo_inurba_marseille","lat":43.28612,"lon":5.351028,"is_reserved":false,"is_disabled":false,"rental_uris":{"android":"levelo://app?vid=ad432de7-9523-40ba-9b6a-2a3423d37d7c","ios":"levelo://app?vid=ad432de7-9523-40ba-9b6a-2a3423d37d7c"},"vehicle_type_id":"4","last_reported":1751883305,"current_range_meters":25600,"station_id":"ce4bhch2rcd13ifvqeug","pricing_plan_id":"cebpf4jnsgd1na2vs0mg"},{"bike_id":"7aeb63ff-0f20-454d-8019-3ae2889a14a9","system_id":"levelo_inurba_marseille","lat":43.265525,"lon":5.372852,"is_reserved":false,"is_disabled":false,"rental_uris":{"android":"levelo://app?vid=7aeb63ff-0f20-454d-8019-3ae2889a14a9","ios":"levelo://app?vid=7aeb63ff-0f20-454d-8019-3ae2889a14a9"},"vehicle_type_id":"4","last_reported":1751883305,"current_range_meters":25600,"station_id":"ce4bhg12rcd13ifvqf70","pricing_plan_id":"cebpf4jnsgd1na2vs0mg"},{"bike_id":"53f5533d-bd1f-4ff5-9d14-9d6718cba0db","system_id":"levelo_inurba_marseille","lat":43.26152,"lon":5.4047,"is_reserved":false,"is_disabled":false,"rental_uris":{"android":"levelo://app?vid=53f5533d-bd1f-4ff5-9d14-9d6718cba0db","ios":"levelo://app?vid=53f5533d-bd1f-4ff5-9d14-9d6718cba0db"},"vehicle_type_id":"4","last_reported":1751883305,"current_range_meters":25600,"station_id":"ce4bhmh2rcd13ifvqgmg","pricing_plan_id":"cebpf4jnsgd1na2vs0mg"},{"bike_id":"b28aa0a0-791c-4a08-9a16-c7bf6ea0ed5a","system_id":"levelo_inurba_marseille","lat":43.22522,"lon":5.34782,"is_reserved":false,"is_disabled":false,"rental_uris":{"android":"levelo://app?vid=b28aa0a0-791c-4a08-9a16-c7bf6ea0ed5a","ios":"levelo://app?vid=b28aa0a0-791c-4a08-9a16-c7bf6ea0ed5a"},"vehicle_type_id":"4","last_reported":1751883305,"current_range_meters":25600,"station_id":"st_cvj5dfep6f1abm77gieg","pricing_plan_id":"cebpf4jnsgd1na2vs0mg"},{"bike_id":"999f2a33-af15-4ca0-853a-d2550f2d6574","system_id":"levelo_inurba_marseille","lat":43.23447,"lon":5.3594,"is_reserved":false,"is_disabled":false,"rental_uris":{"android":"levelo://app?vid=999f2a33-af15-4ca0-853a-d2550f2d6574","ios":"levelo://app?vid=999f2a33-af15-4ca0-853a-d2550f2d6574"},"vehicle_type_id":"4","last_reported":1751883305,"current_range_meters":26000,"station_id":"","pricing_plan_id":"cebpf4jnsgd1na2vs0mg"},{"bike_id":"fd2095ad-cce6-410f-b9a7-c1db2c6b3d52","system_id":"levelo_inurba_marseille","lat":43.276277,"lon":5.365641,"is_reserved":false,"is_disabled":false,"rental_uris":{"android":"levelo://app?vid=fd2095ad-cce6-410f-b9a7-c1db2c6b3d52","ios":"levelo://app?vid=fd2095ad-cce6-410f-b9a7-c1db2c6b3d52"},"vehicle_type_id":"4","last_reported":1751883305,"current_range_meters":26000,"station_id":"","pricing_plan_id":"cebpf4jnsgd1na2vs0mg"},{"bike_id":"8614d28a-c982-461e-bc6c-12bc95e55f68","system_id":"levelo_inurba_marseille","lat":43.295726,"lon":5.374977,"is_reserved":false,"is_disabled":false,"rental_uris":{"android":"levelo://app?vid=8614d28a-c982-461e-bc6c-12bc95e55f68","ios":"levelo://app?vid=8614d28a-c982-461e-bc6c-12bc95e55f68"},"vehicle_type_id":"4","last_reported":1751883305,"current_range_meters":26000,"station_id":"ce4bgh92rcd13ifvqb50","pricing_plan_id":"cebpf4jnsgd1na2vs0mg"},