{"last_updated":1701367756,"ttl":30,"version":"2.2","data":{"bikes":[{"bike_id":"753eb512-f7a7-4908-9e63-776baef6f5be","system_id":"levelo_inurba_marseille","lat":43.309076,"lon":5.368465,"is_reserved":false,"is_disabled":false,"rental_uris":{"android":"levelo://app?vid=753eb512-f7a7-4908-9e63-776baef6f5be","ios":"levelo://app?vid=753eb512-f7a7-4908-9e63-776baef6f5be"},"vehicle_type_id":"4","last_reported":1701367756,"current_range_meters":8400,"station_id":"ce4bgn92rcd13ifvqbvg","pricing_plan_id":"free"},{"bike_id":"85ebfaaa-3017-45f3-906e-a6c2319c069c","system_id":"levelo_inurba_marseille","lat":43.308493,"lon":5.368702,"is_reserved":false,"is_disabled":false,"rental_uris":{"android":"levelo://app?vid=85ebfaaa-3017-45f3-906e-a6c2319c069c","ios":"levelo://app?vid=85ebfaaa-3017-45f3-906e-a6c2319c069c"},"vehicle_type_id":"4","last_reported":1701367756,"current_range_meters":14400,"station_id":"","pricing_plan_id":"free"},{"bike_id":"a92f9488-2bdb-4502-9df2-616bf6c29b12","system_id":"levelo_inurba_marseille","lat":43.309039,"lon":5.371797,"is_reserved":false,"is_disabled":false,"rental_uris":{"android":"levelo://app?vid=a92f9488-2bdb-4502-9df2-616bf6c29b12","ios":"levelo://app?vid=a92f9488-2bdb-4502-9df2-616bf6c29b12"},"vehicle_type_id":"4","last_reported":1701367756,"current_range_meters":12800,"station_id":"ce4bguh2rcd13ifvqckg","pricing_plan_id":"free"},{"bike_id":"dcd1bd46-6ed3-426f-bc8b-ff22b9ab77e3","system_id":"levelo_inurba_marseille","lat":43.31119,"lon":5.3776,"is_reserved":false,"is_disabled":false,"rental_uris":{"android":"levelo://app?vid=dcd1bd46-6ed3-426f-bc8b-ff22b9ab77e3","ios":"levelo://app?vid=dcd1bd46-6ed3-426f-bc8b-ff22b9ab77e3"},"vehicle_type_id":"4","last_reported":1701367756,"current_range_meters":27200,"station_id":"ce4bgt92rcd13ifvqcg0","pricing_plan_id":"free"},{"bike_id":"2ca5e784-9147-41a8-8e42-79bb256fb4cd","system_id":"levelo_inurba_marseille","lat":43.311125,"lon":5.377624,"is_reserved":false,"is_disabled":false,"rental_uris":{"android":"levelo://app?vid=2ca5e784-9147-41a8-8e42-79bb256fb4cd","ios":"levelo://app?vid=2ca5e784-9147-41a8-8e42-79bb256fb4cd"},"vehicle_type_id":"4","last_reported":1701367756,"current_range_meters":4400,"station_id":"ce4bgt92rcd13ifvqcg0","pricing_plan_id":"free"},{"bike_id":"727d231a-d425-4d8f-ad3f-99b5a47572e8","system_id":"levelo_inurba_marseille","lat":43.30439,"lon":5.36753,"is_reserved":false,"is_disabled":false,"rental_uris":{"android":"levelo://app?vid=727d231a-d425-4d8f-ad3f-99b5a47572e8","ios":"levelo://app?vid=727d231a-d425-4d8f-ad3f-99b5a47572e8"},"vehicle_type_id":"4","last_reported":1701367756,"current_range_meters":31200,"station_id":"","pricing_plan_id":"free"},{"bike_id":"f427a2c3-6e4a-446b-ae2f-9be8aa7f4122","system_id":"levelo_inurba_marseille","lat":43.31719,"lon":5.376813,"is_reserved":false,"is_disabled":false,"rental_uris":{"android":"levelo://app?vid=f427a2c3-6e4a-446b-ae2f-9be8aa7f4122","ios":"levelo://app?vid=f427a2c3-6e4a-446b-ae2f-9be8aa7f4122"},"vehicle_type_id":"4","last_reported":1701367756,"current_range_meters":4800,"station_id":"ce4bgth2rcd13ifvqch0","pricing_plan_id":"free"},{"bike_id":"e913f328-1e31-4c22-bd87-f809ea246de4","system_id":"levelo_inurba_marseille","lat":43.317168,"lon":5.376883,"is_reserved":false,"is_disabled":false,"rental_uris":{"android":"levelo://app?vid=e913f328-1e31-4c22-bd87-f809ea246de4","ios":"levelo://app?vid=e913f328-1e31-4c22-bd87-f809ea246de4"},"vehicle_type_id":"4","last_reported":1701367756,"current_range_meters":7200,"station_id":"ce4bgth2rcd13ifvqch0","pricing_plan_id":"free"},{"bike_id":"28b67163-d496-4d2f-a83c-ef6bda2c636e","system_id":"levelo_inurba_marseille","lat":43.308013,"lon":5.376723,"is_reserved":false,"is_disabled":false,"rental_uris":{"android":"levelo://app?vid=28b67163-d496-4d2f-a83c-ef6bda2c636e","ios":"levelo://app?vid=28b67163-d496-4d2f-a83c-ef6bda2c636e"},"vehicle_type_id":"4","last_reported":1701367756,"current_range_meters":4800,"station_id":"ce4bgv92rcd13ifvqcq0","pricing_plan_id":"free"},{"bike_id":"c28696e1-1620-4222-8586-b8819d3e5f2d","system_id":"levelo_inurba_marseille","lat":43.31711,"lon":5.3771,"is_reserved":false,"is_disabled":false,"rental_uris":{"android":"levelo://app?vid=c28696e1-1620-4222-8586-b8819d3e5f2d","ios":"levelo://app?vid=c28696e1-1620-4222-8586-b8819d3e5f2d"},"vehicle_type_id":"4","last_reported":1701367756,"current_range_meters":28800,"station_id":"ce4bgth2rcd13ifvqch0","pricing_plan_id":"free"},{"bike_id":"d2523c3e-c0c1-4955-92a2-21d295205252","system_id":"levelo_inurba_marseille","lat":43.317075,"lon":5.377367,"is_reserved":false,"is_disabled":false,"rental_uris":{"android":"levelo://app?vid=d2523c3e-c0c1-4955-92a2-21d295205252","ios":"levelo://app?vid=d2523c3e-c0c1-4955-92a2-21d295205252"},"vehicle_type_id":"4","last_reported":1701367756,"current_range_meters":8000,"station_id":"ce4bgth2rcd13ifvqch0","pricing_plan_id":"free"},{"bike_id":"bef3c888-e26e-4daf-a279-528d05d9f20b","system_id":"levelo_inurba_marseille","lat":43.30143,"lon":5.37413,"is_reserved":false,"is_disabled":false,"rental_uris":{"android":"levelo://app?vid=bef3c888-e26e-4daf-a279-528d05d9f20b","ios":"levelo://app?vid=bef3c888-e26e-4daf-a279-528d05d9f20b"},"vehicle_type_id":"4","last_reported":1701367756,"current_range_meters":21200,"station_id":"ce4bgs92rcd13ifvqcc0","pricing_plan_id":"free"},{"bike_id":"2463f7b7-ebde-4b1c-a89b-cdc0dd75f528","system_id":"levelo_inurba_marseille","lat":43.303046,"lon":5.368981,"is_reserved":false,"is_disabled":false,"rental_uris":{"android":"levelo://app?vid=2463f7b7-ebde-4b1c-a89b-cdc0dd75f528","ios":"levelo://app?vid=2463f7b7-ebde-4b1c-a89b-cdc0dd75f528"},"vehicle_type_id":"4","last_reported":1701367756,"current_range_meters":4800,"station_id":"ce4bgqh2rcd13ifvqc5g","pricing_plan_id":"free"},{"bike_id":"d6f1e1ec-df39-403a-8b82-2a4e3742a0dc","system_id":"levelo_inurba_marseille","lat":43.3153,"lon":5.38026,"is_reserved":false,"is_disabled":false,"rental_uris":{"android":"levelo://app?vid=d6f1e1ec-df39-403a-8b82-2a4e3742a0dc","ios":"levelo://app?vid=d6f1e1ec-df39-403a-8b82-2a4e3742a0dc"},"vehicle_type_id":"4","last_reported":1701367756,"current_range_meters":7600,"station_id":"ce4bhsp2rcd13ifvqi50","pricing_plan_id":"free"},{"bike_id":"870a5303-b21a-4260-9543-8d8e56b040d8","system_id":"levelo_inurba_marseille","lat":43.30805,"lon":5.38149,"is_reserved":false,"is_disabled":false,"rental_uris":{"android":"levelo://app?vid=870a5303-b21a-4260-9543-8d8e56b040d8","ios":"levelo://app?vid=870a5303-b21a-4260-9543-8d8e56b040d8"},"vehicle_type_id":"4","last_reported":1701367756,"current_range_meters":10800,"station_id":"ce4bgt12rcd13ifvqce0","pricing_plan_id":"free"},{"bike_id":"7337ff9e-2e2f-4ef8-a985-8767d7daa112","system_id":"levelo_inurba_marseille","lat":43.32482,"lon":5.36564,"is_reserved":false,"is_disabled":false,"rental_uris":{"android":"levelo://app?vid=7337ff9e-2e2f-4ef8-a985-8767d7daa112","ios":"levelo://app?vid=7337ff9e-2e2f-4ef8-a985-8767d7daa112"},"vehicle_type_id":"4","last_reported":1701367756,"current_range_meters":13200,"station_id":"ce4bhs12rcd13ifvqhvg","pricing_plan_id":"free"},{"bike_id":"9a8c326a-2956-42d0-9bce-9c1da7b272ea","system_id":"levelo_inurba_marseille","lat":43.319935,"lon":5.381699,"is_reserved":false,"is_disabled":false,"rental_uris":{"android":"levelo://app?vid=9a8c326a-2956-42d0-9bce-9c1da7b272ea","ios":"levelo://app?vid=9a8c326a-2956-42d0-9bce-9c1da7b272ea"},"vehicle_type_id":"4","last_reported":1701367756,"current_range_meters":22000,"station_id":"ce4bhr12rcd13ifvqhpg","pricing_plan_id":"free"},{"bike_id":"2275aca5-3158-4c2c-8022-ca5d2714bc86","system_id":"levelo_inurba_marseille","lat":43.319997,"lon":5.381594,"is_reserved":false,"is_disabled":false,"rental_uris":{"android":"levelo://app?vid=2275aca5-3158-4c2c-8022-ca5d2714bc86","ios":"levelo://app?vid=2275aca5-3158-4c2c-8022-ca5d2714bc86"},"vehicle_type_id":"4","last_reported":1701367756,"current_range_meters":22000,"station_id":"ce4bhr12rcd13ifvqhpg","pricing_plan_id":"free"},{"bike_id":"a087bbeb-d9c6-4f2b-8e28-35326904b7aa","system_id":"levelo_inurba_marseille","lat":43.313571,"lon":5.384829,"is_reserved":false,"is_disabled":false,"rental_uris":{"android":"levelo://app?vid=a087bbeb-d9c6-4f2b-8e28-35326904b7aa","ios":"levelo://app?vid=a087bbeb-d9c6-4f2b-8e28-35326904b7aa"},"vehicle_type_id":"4","last_reported":1701367756,"current_range_meters":26800,"station_id":"ce4bgt92rcd13ifvqcf0","pricing_plan_id":"free"},{"bike_id":"2984713e-9af1-4303-9945-b8fd5f4dd2f6","system_id":"levelo_inurba_marseille","lat":43.313571,"lon":5.384829,"is_reserved":false,"is_disabled":false,"rental_uris":{"android":"levelo://app?vid=2984713e-9af1-4303-9945-b8fd5f4dd2f6","ios":"levelo://app?vid=2984713e-9af1-4303-9945-b8fd5f4dd2f6"},"vehicle_type_id":"4","last_reported":1701367756,"current_range_meters":7600,"station_id":"ce4bgt92rcd13ifvqcf0","pricing_plan_id":"free"},{"bike_id":"829d34a3-8cf2-40ba-bc6f-218a71a3d071","system_id":"levelo_inurba_marseille","lat":43.299724,"lon":5.371829,"is_reserved":false,"is_disabled":false,"rental_uris":{"android":"levelo://app?vid=829d34a3-8cf2-40ba-bc6f-218a71a3d071","ios":"levelo://app?vid=829d34a3-8cf2-40ba-bc6f-218a71a3d071"},"vehicle_type_id":"4","last_reported":1701367756,"current_range_meters":13200,"station_id":"ce4bgr92rcd13ifvqc7g","pricing_plan_id":"free"},{"bike_id":"fa7bc1c1-45de-40f6-8a3c-66f0d8b26749","system_id":"levelo_inurba_marseille","lat":43.305364,"lon":5.384119,"is_reserved":false,"is_disabled":false,"rental_uris":{"android":"levelo://app?vid=fa7bc1c1-45de-40f6-8a3c-66f0d8b26749","ios":"levelo://app?vid=fa7bc1c1-45de-40f6-8a3c-66f0d8b26749"},"vehicle_type_id":"4","last_reported":1701367756,"current_range_meters":6400,"station_id":"ce4bgg92rcd13ifvqb30","pricing_plan_id":"free"},{"bike_id":"0ebd6f3d-8d61-4039-a9b1-df8e5c923ce3","system_id":"levelo_inurba_marseille","lat":43.298433,"lon":5.362774,"is_reserved":false,"is_disabled":false,"rental_uris":{"android":"levelo://app?vid=0ebd6f3d-8d61-4039-a9b1-df8e5c923ce3","ios":"levelo://app?vid=0ebd6f3d-8d61-4039-a9b1-df8e5c923ce3"},"vehicle_type_id":"4","last_reported":1701367756,"current_range_meters":16400,"station_id":"ce4bgpp2rcd13ifvqc3g","pricing_plan_id":"free"},{"bike_id":"aebb5f1f-3a1e-4323-a4f0-ae83e0b78d14","system_id":"levelo_inurba_marseille","lat":43.327603,"lon":5.36705,"is_reserved":false,"is_disabled":false,"rental_uris":{"android":"levelo://app?vid=aebb5f1f-3a1e-4323-a4f0-ae83e0b78d14","ios":"levelo://app?vid=aebb5f1f-3a1e-4323-a4f0-ae83e0b78d14"},"vehicle_type_id":"4","last_reported":1701367756,"current_range_meters":23600,"station_id":"","pricing_plan_id":"free"},{"bike_id":"a857c4c0-ebec-45a9-b9f5-ea7765299a80","system_id":"levelo_inurba_marseille","lat":43.322872,"lon":5.382756,"is_reserved":false,"is_disabled":false,"rental_uris":{"android":"levelo://app?vid=a857c4c0-ebec-45a9-b9f5-ea7765299a80","ios":"levelo://app?vid=a857c4c0-ebec-45a9-b9f5-ea7765299a80"},"vehicle_type_id":"4","last_reported":1701367756,"current_range_meters":4000,"station_id":"ce4bhr12rcd13ifvqhqg","pricing_plan_id":"free"},{"bike_id":"11fbc002-5b4d-4629-a038-bbbaf88697c2","system_id":"levelo_inurba_marseille","lat":43.322872,"lon":5.382756,"is_reserved":false,"is_disabled":false,"rental_uris":{"android":"levelo://app?vid=11fbc002-5b4d-4629-a038-bbbaf88697c2","ios":"levelo://app?vid=11fbc002-5b4d-4629-a038-bbbaf88697c2"},"vehicle_type_id":"4","last_reported":1701367756,"current_range_meters":28000,"station_id":"ce4bhr12rcd13ifvqhqg","pricing_plan_id":"free"},{"bike_id":"565d27d6-1cfe-4479-be67-7c1976909698","system_id":"levelo_inurba_marseille","lat":43.297163,"lon":5.365866,"is_reserved":false,"is_disabled":false,"rental_uris":{"android":"levelo://app?vid=565d27d6-1cfe-4479-be67-7c1976909698","ios":"levelo://app?vid=565d27d6-1cfe-4479-be67-7c1976909698"},"vehicle_type_id":"4","last_reported":1701367756,"current_range_meters":24400,"station_id":"ce4bgn12rcd13ifvqbt0","pricing_plan_id":"free"},{"bike_id":"7d646cb2-81d6-46d7-acc5-fc1545f9aa11","system_id":"levelo_inurba_marseille","lat":43.297163,"lon":5.365866,"is_reserved":false,"is_disabled":false,"rental_uris":{"android":"levelo://app?vid=7d646cb2-81d6-46d7-acc5-fc1545f9aa11","ios":"levelo://app?vid=7d646cb2-81d6-46d7-acc5-fc1545f9aa11"},"vehicle_type_id":"4","last_reported":1701367756,"current_range_meters":23200,"station_id":"ce4bgn12rcd13ifvqbt0","pricing_plan_id":"free"},{"bike_id":"29ae2ed1-22ab-4e5f-865e-248a7c975b61","system_id":"levelo_inurba_marseille","lat":43.2968,"lon":5.37291,"is_reserved":false,"is_disabled":false,"rental_uris":{"android":"levelo://app?vid=29ae2ed1-22ab-4e5f-865e-248a7c975b61","ios":"levelo://app?vid=29ae2ed1-22ab-4e5f-865e-248a7c975b61"},"vehicle_type_id":"4","last_reported":1701367756,"current_range_meters":24000,"station_id":"ce4bgk12rcd13ifvqbj0","pricing_plan_id":"free"},{"bike_id":"d068864e-3768-4cb7-8f2c-e01febcf4d60","system_id":"levelo_inurba_marseille","lat":43.2962,"lon":5.36518,"is_reserved":false,"is_disabled":false,"rental_uris":{"android":"levelo://app?vid=d068864e-3768-4cb7-8f2c-e01febcf4d60","ios":"levelo://app?vid=d068864e-3768-4cb7-8f2c-e01febcf4d60"},"vehicle_type_id":"4","last_reported":1701367756,"current_range_meters":12000,"station_id":"","pricing_plan_id":"free"},{"bike_id":"2b24c94c-382b-4740-b254-81573f20bbed","system_id":"levelo_inurba_marseille","lat":43.295978,"lon":5.367954,"is_reserved":false,"is_disabled":false,"rental_uris":{"android":"levelo://app?vid=2b24c94c-382b-4740-b254-81573f20bbed","ios":"levelo://app?vid=2b24c94c-382b-4740-b254-81573f20bbed"},"vehicle_type_id":"4","last_reported":1701367756,"current_range_meters":8000,"station_id":"","pricing_plan_id":"free"},{"bike_id":"6cdc1bae-baad-4519-91e3-3457a534d948","system_id":"levelo_inurba_marseille","lat":43.29573,"lon":5.367355,"is_reserved":false,"is_disabled":false,"rental_uris":{"android":"levelo://app?vid=6cdc1bae-baad-4519-91e3-3457a534d948","ios":"levelo://app?vid=6cdc1bae-baad-4519-91e3-3457a534d948"},"vehicle_type_id":"4","last_reported":1701367756,"current_range_meters":14000,"station_id":"ce4bgph2rcd13ifvqc2g","pricing_plan_id":"free"},{"bike_id":"3e4e6216-b2f6-44c9-adad-a619ab26c548","system_id":"levelo_inurba_marseille","lat":43.299028,"lon":5.381509,"is_reserved":false,"is_disabled":false,"rental_uris":{"android":"levelo://app?vid=3e4e6216-b2f6-44c9-adad-a619ab26c548","ios":"levelo://app?vid=3e4e6216-b2f6-44c9-adad-a619ab26c548"},"vehicle_type_id":"4","last_reported":1701367756,"current_range_meters":7200,"station_id":"ce4bgj12rcd13ifvqbc0","pricing_plan_id":"free"},{"bike_id":"c112e3be-fc5f-41e8-b9f4-0eca7e2425bc","system_id":"levelo_inurba_marseille","lat":43.299028,"lon":5.381509,"is_reserved":false,"is_disabled":false,"rental_uris":{"android":"levelo://app?vid=c112e3be-fc5f-41e8-b9f4-0eca7e2425bc","ios":"levelo://app?vid=c112e3be-fc5f-41e8-b9f4-0eca7e2425bc"},"vehicle_type_id":"4","last_reported":1701367756,"current_range_meters":31200,"station_id":"ce4bgj12rcd13ifvqbc0","pricing_plan_id":"free"},{"bike_id":"62d6693c-ec2b-45d1-b37e-d2a35a93d478","system_id":"levelo_inurba_marseille","lat":43.317557,"lon":5.390173,"is_reserved":false,"is_disabled":false,"rental_uris":{"android":"levelo://app?vid=62d6693c-ec2b-45d1-b37e-d2a35a93d478","ios":"levelo://app?vid=62d6693c-ec2b-45d1-b37e-d2a35a93d478"},"vehicle_type_id":"4","last_reported":1701367756,"current_range_meters":27200,"station_id":"ce4bhqp2rcd13ifvqhng","pricing_plan_id":"free"},{"bike_id":"466938ea-1d09-4ac1-8658-95b6e9e80d55","system_id":"levelo_inurba_marseille","lat":43.317557,"lon":5.390173,"is_reserved":false,"is_disabled":false,"rental_uris":{"android":"levelo://app?vid=466938ea-1d09-4ac1-8658-95b6e9e80d55","ios":"levelo://app?vid=466938ea-1d09-4ac1-8658-95b6e9e80d55"},"vehicle_type_id":"4","last_reported":1701367756,"current_range_meters":22400,"station_id":"ce4bhqp2rcd13ifvqhng","pricing_plan_id":"free"},{"bike_id":"f3bfefa2-7f63-48ef-ab70-262892532805","system_id":"levelo_inurba_marseille","lat":43.31756,"lon":5.3902,"is_reserved":false,"is_disabled":false,"rental_uris":{"android":"levelo://app?vid=f3bfefa2-7f63-48ef-ab70-262892532805","ios":"levelo://app?vid=f3bfefa2-7f63-48ef-ab70-262892532805"},"vehicle_type_id":"4","last_reported":1701367756,"current_range_meters":11600,"station_id":"ce4bhqp2rcd13ifvqhng","pricing_plan_id":"free"},{"bike_id":"dcff4f81-7df5-4ffa-9729-28a5b6fae6c7","system_id":"levelo_inurba_marseille","lat":43.298037,"lon":5.381066,"is_reserved":false,"is_disabled":false,"rental_uris":{"android":"levelo://app?vid=dcff4f81-7df5-4ffa-9729-28a5b6fae6c7","ios":"levelo://app?vid=dcff4f81-7df5-4ffa-9729-28a5b6fae6c7"},"vehicle_type_id":"4","last_reported":1701367756,"current_range_meters":14800,"station_id":"ce4bgip2rcd13ifvqbb0","pricing_plan_id":"free"},{"bike_id":"4e09c4bb-7e12-42e7-ae9e-3de14be6b1ac","system_id":"levelo_inurba_marseille","lat":43.32367,"lon":5.38884,"is_reserved":false,"is_disabled":false,"rental_uris":{"android":"levelo://app?vid=4e09c4bb-7e12-42e7-ae9e-3de14be6b1ac","ios":"levelo://app?vid=4e09c4bb-7e12-42e7-ae9e-3de14be6b1ac"},"vehicle_type_id":"4","last_reported":1701367756,"current_range_meters":11200,"station_id":"ce4bhqp2rcd13ifvqhog","pricing_plan_id":"free"},{"bike_id":"dfaa9e24-06b6-4d7e-9b7c-62868af30a2d","system_id":"levelo_inurba_marseille","lat":43.29601,"lon":5.381084,"is_reserved":false,"is_disabled":false,"rental_uris":{"android":"levelo://app?vid=dfaa9e24-06b6-4d7e-9b7c-62868af30a2d","ios":"levelo://app?vid=dfaa9e24-06b6-4d7e-9b7c-62868af30a2d"},"vehicle_type_id":"4","last_reported":1701367756,"current_range_meters":0,"station_id":"ce4bgl12rcd13ifvqbo0","pricing_plan_id":"free"},{"bike_id":"eaa0e7e7-2390-47fa-909b-7b240952cbef","system_id":"levelo_inurba_marseille","lat":43.31935,"lon":5.39224,"is_reserved":false,"is_disabled":false,"rental_uris":{"android":"levelo://app?vid=eaa0e7e7-2390-47fa-909b-7b240952cbef","ios":"levelo://app?vid=eaa0e7e7-2390-47fa-909b-7b240952cbef"},"vehicle_type_id":"4","last_reported":1701367756,"current_range_meters":21600,"station_id":"","pricing_plan_id":"free"},{"bike_id":"40aa5d31-3476-41ed-b690-ded4966f36fe","system_id":"levelo_inurba_marseille","lat":43.293009,"lon":5.374584,"is_reserved":false,"is_disabled":false,"rental_uris":{"android":"levelo://app?vid=40aa5d31-3476-41ed-b690-ded4966f36fe","ios":"levelo://app?vid=40aa5d31-3476-41ed-b690-ded4966f36fe"},"vehicle_type_id":"4","last_reported":1701367756,"current_range_meters":27200,"station_id":"ce4bgi12rcd13ifvqb70","pricing_plan_id":"free"},{"bike_id":"82b7d63d-c9a7-4b5a-80f2-8445d7901452","system_id":"levelo_inurba_marseille","lat":43.305994,"lon":5.393687,"is_reserved":false,"is_disabled":false,"rental_uris":{"android":"levelo://app?vid=82b7d63d-c9a7-4b5a-80f2-8445d7901452","ios":"levelo://app?vid=82b7d63d-c9a7-4b5a-80f2-8445d7901452"},"vehicle_type_id":"4","last_reported":1701367756,"current_range_meters":0,"station_id":"ce4bh0p2rcd13ifvqd80","pricing_plan_id":"free"},{"bike_id":"93dbc3bf-9b1d-47f2-a7f5-340feab01828","system_id":"levelo_inurba_marseille","lat":43.2936,"lon":5.37835,"is_reserved":false,"is_disabled":false,"rental_uris":{"android":"levelo://app?vid=93dbc3bf-9b1d-47f2-a7f5-340feab01828","ios":"levelo://app?vid=93dbc3bf-9b1d-47f2-a7f5-340feab01828"},"vehicle_type_id":"4","last_reported":1701367756,"current_range_meters":1200,"station_id":"ce4bgjh2rcd13ifvqbf0","pricing_plan_id":"free"},{"bike_id":"d8bbe742-7c9d-49f0-9a3c-525c63925d7e","system_id":"levelo_inurba_marseille","lat":43.300852,"lon":5.390859,"is_reserved":false,"is_disabled":false,"rental_uris":{"android":"levelo://app?vid=d8bbe742-7c9d-49f0-9a3c-525c63925d7e","ios":"levelo://app?vid=d8bbe742-7c9d-49f0-9a3c-525c63925d7e"},"vehicle_type_id":"4","last_reported":1701367756,"current_range_meters":6800,"station_id":"ce4bh192rcd13ifvqdb0","pricing_plan_id":"free"},{"bike_id":"a2cfa61f-ca55-4691-a952-114a2b375c63","system_id":"levelo_inurba_marseille","lat":43.292311,"lon":5.360731,"is_reserved":false,"is_disabled":false,"rental_uris":{"android":"levelo://app?vid=a2cfa61f-ca55-4691-a952-114a2b375c63","ios":"levelo://app?vid=a2cfa61f-ca55-4691-a952-114a2b375c63"},"vehicle_type_id":"4","last_reported":1701367756,"current_range_meters":10800,"station_id":"ce4bhbh2rcd13ifvqeqg","pricing_plan_id":"free"},{"bike_id":"158567ee-bedd-4281-aaa8-de6ad0f313fe","system_id":"levelo_inurba_marseille","lat":43.30085,"lon":5.390856,"is_reserved":false,"is_disabled":false,"rental_uris":{"android":"levelo://app?vid=158567ee-bedd-4281-aaa8-de6ad0f313fe","ios":"levelo://app?vid=158567ee-bedd-4281-aaa8-de6ad0f313fe"},"vehicle_type_id":"4","last_reported":1701367756,"current_range_meters":28400,"station_id":"ce4bh192rcd13ifvqdb0","pricing_plan_id":"free"},{"bike_id":"17f72cbd-edd7-497c-a7ce-8033b88215b0","system_id":"levelo_inurba_marseille","lat":43.291675,"lon":5.371583,"is_reserved":false,"is_disabled":false,"rental_uris":{"android":"levelo://app?vid=17f72cbd-edd7-497c-a7ce-8033b88215b0","ios":"levelo://app?vid=17f72cbd-edd7-497c-a7ce-8033b88215b0"},"vehicle_type_id":"4","last_reported":1701367756,"current_range_meters":7200,"station_id":"ce4bha92rcd13ifvqeh0","pricing_plan_id":"free"},{"bike_id":"b7137315-30b8-4540-92c3-08e171c1dbee","system_id":"levelo_inurba_marseille","lat":43.29863,"lon":5.38919,"is_reserved":false,"is_disabled":false,"rental_uris":{"android":"levelo://app?vid=b7137315-30b8-4540-92c3-08e171c1dbee","ios":"levelo://app?vid=b7137315-30b8-4540-92c3-08e171c1dbee"},"vehicle_type_id":"4","last_reported":1701367756,"current_range_meters":4800,"station_id":"ce4bh392rcd13ifvqdl0","pricing_plan_id":"free"},{"bike_id":"ae3382f1-bec3-42bb-81d5-4cee4b3e8094","system_id":"levelo_inurba_marseille","lat":43.31328,"lon":5.39685,"is_reserved":false,"is_disabled":false,"rental_uris":{"android":"levelo://app?vid=ae3382f1-bec3-42bb-81d5-4cee4b3e8094","ios":"levelo://app?vid=ae3382f1-bec3-42bb-81d5-4cee4b3e8094"},"vehicle_type_id":"4","last_reported":1701367756,"current_range_meters":24800,"station_id":"ce4bgvp2rcd13ifvqcu0","pricing_plan_id":"free"},{"bike_id":"12d48ece-01a5-4b11-8306-ee7c4d5e6132","system_id":"levelo_inurba_marseille","lat":43.3133,"lon":5.39693,"is_reserved":false,"is_disabled":false,"rental_uris":{"android":"levelo://app?vid=12d48ece-01a5-4b11-8306-ee7c4d5e6132","ios":"levelo://app?vid=12d48ece-01a5-4b11-8306-ee7c4d5e6132"},"vehicle_type_id":"4","last_reported":1701367756,"current_range_meters":27200,"station_id":"ce4bgvp2rcd13ifvqcu0","pricing_plan_id":"free"},{"bike_id":"003e3848-9a2d-4a03-b685-53c7efbce624","system_id":"levelo_inurba_marseille","lat":43.31335,"lon":5.39693,"is_reserved":false,"is_disabled":false,"rental_uris":{"android":"levelo://app?vid=003e3848-9a2d-4a03-b685-53c7efbce624","ios":"levelo://app?vid=003e3848-9a2d-4a03-b685-53c7efbce624"},"vehicle_type_id":"4","last_reported":1701367756,"current_range_meters":30400,"station_id":"ce4bgvp2rcd13ifvqcu0","pricing_plan_id":"free"},{"bike_id":"4a996320-c7d5-452f-b018-c2a53a464605","system_id":"levelo_inurba_marseille","lat":43.313291,"lon":5.396838,"is_reserved":false,"is_disabled":false,"rental_uris":{"android":"levelo://app?vid=4a996320-c7d5-452f-b018-c2a53a464605","ios":"levelo://app?vid=4a996320-c7d5-452f-b018-c2a53a464605"},"vehicle_type_id":"4","last_reported":1701367756,"current_range_meters":24000,"station_id":"ce4bgvp2rcd13ifvqcu0","pricing_plan_id":"free"},{"bike_id":"21a3a307-a392-458f-b5eb-3c9d3ae86dac","system_id":"levelo_inurba_marseille","lat":43.31323,"lon":5.39701,"is_reserved":false,"is_disabled":false,"rental_uris":{"android":"levelo://app?vid=21a3a307-a392-458f-b5eb-3c9d3ae86dac","ios":"levelo://app?vid=21a3a307-a392-458f-b5eb-3c9d3ae86dac"},"vehicle_type_id":"4","last_reported":1701367756,"current_range_meters":18800,"station_id":"ce4bgvp2rcd13ifvqcu0","pricing_plan_id":"free"},{"bike_id":"e4640747-17b8-4b10-9bf0-8dbc490e496f","system_id":"levelo_inurba_marseille","lat":43.31326,"lon":5.39705,"is_reserved":false,"is_disabled":false,"rental_uris":{"android":"levelo://app?vid=e4640747-17b8-4b10-9bf0-8dbc490e496f","ios":"levelo://app?vid=e4640747-17b8-4b10-9bf0-8dbc490e496f"},"vehicle_type_id":"4","last_reported":1701367756,"current_range_meters":9600,"station_id":"ce4bgvp2rcd13ifvqcu0","pricing_plan_id":"free"},{"bike_id":"b79d9cef-4e6e-427e-a6ea-914b636af485","system_id":"levelo_inurba_marseille","lat":43.289184,"lon":5.366408,"is_reserved":false,"is_disabled":false,"rental_uris":{"android":"levelo://app?vid=b79d9cef-4e6e-427e-a6ea-914b636af485","ios":"levelo://app?vid=b79d9cef-4e6e-427e-a6ea-914b636af485"},"vehicle_type_id":"4","last_reported":1701367756,"current_range_meters":22000,"station_id":"ce4bhap2rcd13ifvqek0","pricing_plan_id":"free"},{"bike_id":"25b28fc9-f50b-4d8c-ab2d-b114050a8241","system_id":"levelo_inurba_marseille","lat":43.2942,"lon":5.38628,"is_reserved":false,"is_disabled":false,"rental_uris":{"android":"levelo://app?vid=25b28fc9-f50b-4d8c-ab2d-b114050a8241","ios":"levelo://app?vid=25b28fc9-f50b-4d8c-ab2d-b114050a8241"},"vehicle_type_id":"4","last_reported":1701367756,"current_range_meters":0,"station_id":"ce4bh2h2rcd13ifvqdh0","pricing_plan_id":"free"},{"bike_id":"b1fb8e57-d78a-44c0-966c-60ae4a1d22b6","system_id":"levelo_inurba_marseille","lat":43.289559,"lon":5.363899,"is_reserved":false,"is_disabled":false,"rental_uris":{"android":"levelo://app?vid=b1fb8e57-d78a-44c0-966c-60ae4a1d22b6","ios":"levelo://app?vid=b1fb8e57-d78a-44c0-966c-60ae4a1d22b6"},"vehicle_type_id":"4","last_reported":1701367756,"current_range_meters":10800,"station_id":"","pricing_plan_id":"free"},{"bike_id":"8bbeecf2-b362-4e3a-ba00-8e1f53a250ed","system_id":"levelo_inurba_marseille","lat":43.29262,"lon":5.38448,"is_reserved":false,"is_disabled":false,"rental_uris":{"android":"levelo://app?vid=8bbeecf2-b362-4e3a-ba00-8e1f53a250ed","ios":"levelo://app?vid=8bbeecf2-b362-4e3a-ba00-8e1f53a250ed"},"vehicle_type_id":"4","last_reported":1701367756,"current_range_meters":0,"station_id":"ce4bh692rcd13ifvqea0","pricing_plan_id":"free"},{"bike_id":"9410652c-b7e4-4244-bc62-de8a82548a87","system_id":"levelo_inurba_marseille","lat":43.292644,"lon":5.384257,"is_reserved":false,"is_disabled":false,"rental_uris":{"android":"levelo://app?vid=9410652c-b7e4-4244-bc62-de8a82548a87","ios":"levelo://app?vid=9410652c-b7e4-4244-bc62-de8a82548a87"},"vehicle_type_id":"4","last_reported":1701367756,"current_range_meters":2800,"station_id":"ce4bh692rcd13ifvqea0","pricing_plan_id":"free"},{"bike_id":"433c11ae-8306-4bbf-850d-086e9b9b8b2e","system_id":"levelo_inurba_marseille","lat":43.2909,"lon":5.381212,"is_reserved":false,"is_disabled":false,"rental_uris":{"android":"levelo://app?vid=433c11ae-8306-4bbf-850d-086e9b9b8b2e","ios":"levelo://app?vid=433c11ae-8306-4bbf-850d-086e9b9b8b2e"},"vehicle_type_id":"4","last_reported":1701367756,"current_range_meters":18400,"station_id":"ce4bh512rcd13ifvqe2g","pricing_plan_id":"free"},{"bike_id":"928fc1f5-6e3b-4e10-80d4-b14a6802a763","system_id":"levelo_inurba_marseille","lat":43.289743,"lon":5.378304,"is_reserved":false,"is_disabled":false,"rental_uris":{"android":"levelo://app?vid=928fc1f5-6e3b-4e10-80d4-b14a6802a763","ios":"levelo://app?vid=928fc1f5-6e3b-4e10-80d4-b14a6802a763"},"vehicle_type_id":"4","last_reported":1701367756,"current_range_meters":4400,"station_id":"ce4bh9p2rcd13ifvqed0","pricing_plan_id":"free"},{"bike_id":"b0c0d6b6-924a-4c28-bc16-148e277904fa","system_id":"levelo_inurba_marseille","lat":43.289741,"lon":5.378306,"is_reserved":false,"is_disabled":false,"rental_uris":{"android":"levelo://app?vid=b0c0d6b6-924a-4c28-bc16-148e277904fa","ios":"levelo://app?vid=b0c0d6b6-924a-4c28-bc16-148e277904fa"},"vehicle_type_id":"4","last_reported":1701367756,"current_range_meters":0,"station_id":"ce4bh9p2rcd13ifvqed0","pricing_plan_id":"free"},{"bike_id":"890d125e-102e-4b3b-8ffb-d8149351e9f2","system_id":"levelo_inurba_marseille","lat":43.31266,"lon":5.40172,"is_reserved":false,"is_disabled":false,"rental_uris":{"android":"levelo://app?vid=890d125e-102e-4b3b-8ffb-d8149351e9f2","ios":"levelo://app?vid=890d125e-102e-4b3b-8ffb-d8149351e9f2"},"vehicle_type_id":"4","last_reported":1701367756,"current_range_meters":23600,"station_id":"ce4bh092rcd13ifvqd30","pricing_plan_id":"free"},{"bike_id":"2ae93018-1f66-4407-8727-ce3bd016a9f6","system_id":"levelo_inurba_marseille","lat":43.33757,"lon":5.37449,"is_reserved":false,"is_disabled":false,"rental_uris":{"android":"levelo://app?vid=2ae93018-1f66-4407-8727-ce3bd016a9f6","ios":"levelo://app?vid=2ae93018-1f66-4407-8727-ce3bd016a9f6"},"vehicle_type_id":"4","last_reported":1701367756,"current_range_meters":18000,"station_id":"","pricing_plan_id":"free"},{"bike_id":"1b9ac009-cff0-486d-a1ea-a93c08923e80","system_id":"levelo_inurba_marseille","lat":43.33757,"lon":5.37459,"is_reserved":false,"is_disabled":false,"rental_uris":{"android":"levelo://app?vid=1b9ac009-cff0-486d-a1ea-a93c08923e80","ios":"levelo://app?vid=1b9ac009-cff0-486d-a1ea-a93c08923e80"},"vehicle_type_id":"4","last_reported":1701367756,"current_range_meters":30000,"station_id":"","pricing_plan_id":"free"},{"bike_id":"69fc8357-fb75-4dad-a474-a03ccfa4f773","system_id":"levelo_inurba_marseille","lat":43.33759,"lon":5.37451,"is_reserved":false,"is_disabled":false,"rental_uris":{"android":"levelo://app?vid=69fc8357-fb75-4dad-a474-a03ccfa4f773","ios":"levelo://app?vid=69fc8357-fb75-4dad-a474-a03ccfa4f773"},"vehicle_type_id":"4","last_reported":1701367756,"current_range_meters":30000,"station_id":"","pricing_plan_id":"free"},{"bike_id":"33597516-4ce3-4677-a1a1-7b66a949ffb6","system_id":"levelo_inurba_marseille","lat":43.30642,"lon":5.401031,"is_reserved":false,"is_disabled":false,"rental_uris":{"android":"levelo://app?vid=33597516-4ce3-4677-a1a1-7b66a949ffb6","ios":"levelo://app?vid=33597516-4ce3-4677-a1a1-7b66a949ffb6"},"vehicle_type_id":"4","last_reported":1701367756,"current_range_meters":12000,"station_id":"ce4bh112rcd13ifvqda0","pricing_plan_id":"free"},{"bike_id":"f8006ffc-9619-46e6-b16f-c09081be7d0e","system_id":"levelo_inurba_marseille","lat":43.30642,"lon":5.401031,"is_reserved":false,"is_disabled":false,"rental_uris":{"android":"levelo://app?vid=f8006ffc-9619-46e6-b16f-c09081be7d0e","ios":"levelo://app?vid=f8006ffc-9619-46e6-b16f-c09081be7d0e"},"vehicle_type_id":"4","last_reported":1701367756,"current_range_meters":7600,"station_id":"ce4bh112rcd13ifvqda0","pricing_plan_id":"free"},{"bike_id":"6f07b1dc-d38a-4558-84f5-ffa8008e7126","system_id":"levelo_inurba_marseille","lat":43.301117,"lon":5.398795,"is_reserved":false,"is_disabled":false,"rental_uris":{"android":"levelo://app?vid=6f07b1dc-d38a-4558-84f5-ffa8008e7126","ios":"levelo://app?vid=6f07b1dc-d38a-4558-84f5-ffa8008e7126"},"vehicle_type_id":"4","last_reported":1701367756,"current_range_meters":8400,"station_id":"ce4bh0h2rcd13ifvqd40","pricing_plan_id":"free"},{"bike_id":"b930dc4e-3488-4b4b-b52b-1874865c3274","system_id":"levelo_inurba_marseille","lat":43.305233,"lon":5.400881,"is_reserved":false,"is_disabled":false,"rental_uris":{"android":"levelo://app?vid=b930dc4e-3488-4b4b-b52b-1874865c3274","ios":"levelo://app?vid=b930dc4e-3488-4b4b-b52b-1874865c3274"},"vehicle_type_id":"4","last_reported":1701367756,"current_range_meters":26400,"station_id":"","pricing_plan_id":"free"},{"bike_id":"06aeaa74-476b-4774-8e86-521af608fd36","system_id":"levelo_inurba_marseille","lat":43.28727,"lon":5.36078,"is_reserved":false,"is_disabled":false,"rental_uris":{"android":"levelo://app?vid=06aeaa74-476b-4774-8e86-521af608fd36","ios":"levelo://app?vid=06aeaa74-476b-4774-8e86-521af608fd36"},"vehicle_type_id":"4","last_reported":1701367756,"current_range_meters":18000,"station_id":"cki0cbj6b192h4jlfktg","pricing_plan_id":"free"},{"bike_id":"4e7e18a5-27a7-4660-abc6-3aba5f06c1fb","system_id":"levelo_inurba_marseille","lat":43.289307,"lon":5.38406,"is_reserved":false,"is_disabled":false,"rental_uris":{"android":"levelo://app?vid=4e7e18a5-27a7-4660-abc6-3aba5f06c1fb","ios":"levelo://app?vid=4e7e18a5-27a7-4660-abc6-3aba5f06c1fb"},"vehicle_type_id":"4","last_reported":1701367756,"current_range_meters":7200,"station_id":"ce4bh612rcd13ifvqe6g","pricing_plan_id":"free"},{"bike_id":"d739c31f-2e71-4f8d-a715-33cf4df867c9","system_id":"levelo_inurba_marseille","lat":43.290345,"lon":5.38646,"is_reserved":false,"is_disabled":false,"rental_uris":{"android":"levelo://app?vid=d739c31f-2e71-4f8d-a715-33cf4df867c9","ios":"levelo://app?vid=d739c31f-2e71-4f8d-a715-33cf4df867c9"},"vehicle_type_id":"4","last_reported":1701367756,"current_range_meters":24000,"station_id":"ce4bh4p2rcd13ifvqe0g","pricing_plan_id":"free"},{"bike_id":"d05654a2-8a7a-4377-9691-d251f1461c5f","system_id":"levelo_inurba_marseille","lat":43.295194,"lon":5.39397,"is_reserved":false,"is_disabled":false,"rental_uris":{"android":"levelo://app?vid=d05654a2-8a7a-4377-9691-d251f1461c5f","ios":"levelo://app?vid=d05654a2-8a7a-4377-9691-d251f1461c5f"},"vehicle_type_id":"4","last_reported":1701367756,"current_range_meters":31200,"station_id":"ce4bh292rcd13ifvqdf0","pricing_plan_id":"free"},{"bike_id":"ecf1ef12-533b-4936-94a8-8105855e0807","system_id":"levelo_inurba_marseille","lat":43.290345,"lon":5.38646,"is_reserved":false,"is_disabled":false,"rental_uris":{"android":"levelo://app?vid=ecf1ef12-533b-4936-94a8-8105855e0807","ios":"levelo://app?vid=ecf1ef12-533b-4936-94a8-8105855e0807"},"vehicle_type_id":"4","last_reported":1701367756,"current_range_meters":23200,"station_id":"ce4bh4p2rcd13ifvqe0g","pricing_plan_id":"free"},{"bike_id":"9f0190a8-0629-4573-90a3-d321ffe09144","system_id":"levelo_inurba_marseille","lat":43.289307,"lon":5.38406,"is_reserved":false,"is_disabled":false,"rental_uris":{"android":"levelo://app?vid=9f0190a8-0629-4573-90a3-d321ffe09144","ios":"levelo://app?vid=9f0190a8-0629-4573-90a3-d321ffe09144"},"vehicle_type_id":"4","last_reported":1701367756,"current_range_meters":10800,"station_id":"ce4bh612rcd13ifvqe6g","pricing_plan_id":"free"},{"bike_id":"9a95fb5c-2cad-466e-914f-edd9a4780189","system_id":"levelo_inurba_marseille","lat":43.289307,"lon":5.38406,"is_reserved":false,"is_disabled":false,"rental_uris":{"android":"levelo://app?vid=9a95fb5c-2cad-466e-914f-edd9a4780189","ios":"levelo://app?vid=9a95fb5c-2cad-466e-914f-edd9a4780189"},"vehicle_type_id":"4","last_reported":1701367756,"current_range_meters":28000,"station_id":"ce4bh612rcd13ifvqe6g","pricing_plan_id":"free"},{"bike_id":"20ef38f6-16d9-4ffe-8c07-5e022dee4987","system_id":"levelo_inurba_marseille","lat":43.295194,"lon":5.39397,"is_reserved":false,"is_disabled":false,"rental_uris":{"android":"levelo://app?vid=20ef38f6-16d9-4ffe-8c07-5e022dee4987","ios":"levelo://app?vid=20ef38f6-16d9-4ffe-8c07-5e022dee4987"},"vehicle_type_id":"4","last_reported":1701367756,"current_range_meters":21200,"station_id":"ce4bh292rcd13ifvqdf0","pricing_plan_id":"free"},{"bike_id":"9bc5d2c9-4a13-4ae0-bf94-6b63b80154c4","system_id":"levelo_inurba_marseille","lat":43.302759,"lon":5.400793,"is_reserved":false,"is_disabled":false,"rental_uris":{"android":"levelo://app?vid=9bc5d2c9-4a13-4ae0-bf94-6b63b80154c4","ios":"levelo://app?vid=9bc5d2c9-4a13-4ae0-bf94-6b63b80154c4"},"vehicle_type_id":"4","last_reported":1701367756,"current_range_meters":9600,"station_id":"ce4bgvh2rcd13ifvqcs0","pricing_plan_id":"free"},{"bike_id":"792e3b25-a617-4057-9b1b-aeba92b4e4c8","system_id":"levelo_inurba_marseille","lat":43.29021,"lon":5.38644,"is_reserved":false,"is_disabled":false,"rental_uris":{"android":"levelo://app?vid=792e3b25-a617-4057-9b1b-aeba92b4e4c8","ios":"levelo://app?vid=792e3b25-a617-4057-9b1b-aeba92b4e4c8"},"vehicle_type_id":"4","last_reported":1701367756,"current_range_meters":21600,"station_id":"ce4bh4p2rcd13ifvqe0g","pricing_plan_id":"free"},{"bike_id":"3ef699b0-26b6-4a3a-8b0b-c733b19e4e43","system_id":"levelo_inurba_marseille","lat":43.302487,"lon":5.40085,"is_reserved":false,"is_disabled":false,"rental_uris":{"android":"levelo://app?vid=3ef699b0-26b6-4a3a-8b0b-c733b19e4e43","ios":"levelo://app?vid=3ef699b0-26b6-4a3a-8b0b-c733b19e4e43"},"vehicle_type_id":"4","last_reported":1701367756,"current_range_meters":0,"station_id":"ce4bgvh2rcd13ifvqcs0","pricing_plan_id":"free"},{"bike_id":"55fb18d1-3a66-44a9-a318-d960e4cd31be","system_id":"levelo_inurba_marseille","lat":43.286718,"lon":5.379509,"is_reserved":false,"is_disabled":false,"rental_uris":{"android":"levelo://app?vid=55fb18d1-3a66-44a9-a318-d960e4cd31be","ios":"levelo://app?vid=55fb18d1-3a66-44a9-a318-d960e4cd31be"},"vehicle_type_id":"4","last_reported":1701367756,"current_range_meters":29600,"station_id":"","pricing_plan_id":"free"},{"bike_id":"15eb4696-3bf3-4669-999d-0a8c733ca86d","system_id":"levelo_inurba_marseille","lat":43.291994,"lon":5.392907,"is_reserved":false,"is_disabled":false,"rental_uris":{"android":"levelo://app?vid=15eb4696-3bf3-4669-999d-0a8c733ca86d","ios":"levelo://app?vid=15eb4696-3bf3-4669-999d-0a8c733ca86d"},"vehicle_type_id":"4","last_reported":1701367756,"current_range_meters":12800,"station_id":"ce4bh192rcd13ifvqdd0","pricing_plan_id":"free"},{"bike_id":"85624ef3-97ea-41a7-af5a-346af24b26a3","system_id":"levelo_inurba_marseille","lat":43.284538,"lon":5.358657,"is_reserved":false,"is_disabled":false,"rental_uris":{"android":"levelo://app?vid=85624ef3-97ea-41a7-af5a-346af24b26a3","ios":"levelo://app?vid=85624ef3-97ea-41a7-af5a-346af24b26a3"},"vehicle_type_id":"4","last_reported":1701367756,"current_range_meters":1600,"station_id":"ce4bhah2rcd13ifvqei0","pricing_plan_id":"free"},{"bike_id":"7d3aaa0a-2d14-4f51-8046-7218f41a9414","system_id":"levelo_inurba_marseille","lat":43.284538,"lon":5.358657,"is_reserved":false,"is_disabled":false,"rental_uris":{"android":"levelo://app?vid=7d3aaa0a-2d14-4f51-8046-7218f41a9414","ios":"levelo://app?vid=7d3aaa0a-2d14-4f51-8046-7218f41a9414"},"vehicle_type_id":"4","last_reported":1701367756,"current_range_meters":20400,"station_id":"ce4bhah2rcd13ifvqei0","pricing_plan_id":"free"},{"bike_id":"43242824-7ebd-48f4-ad16-b3779377ddb2","system_id":"levelo_inurba_marseille","lat":43.284534,"lon":5.358662,"is_reserved":false,"is_disabled":false,"rental_uris":{"android":"levelo://app?vid=43242824-7ebd-48f4-ad16-b3779377ddb2","ios":"levelo://app?vid=43242824-7ebd-48f4-ad16-b3779377ddb2"},"vehicle_type_id":"4","last_reported":1701367756,"current_range_meters":400,"station_id":"ce4bhah2rcd13ifvqei0","pricing_plan_id":"free"},{"bike_id":"c8b42c00-e471-47ec-af38-3833c43ba99e","system_id":"levelo_inurba_marseille","lat":43.28616,"lon":5.35106,"is_reserved":false,"is_disabled":false,"rental_uris":{"android":"levelo://app?vid=c8b42c00-e471-47ec-af38-3833c43ba99e","ios":"levelo://app?vid=c8b42c00-e471-47ec-af38-3833c43ba99e"},"vehicle_type_id":"4","last_reported":1701367756,"current_range_meters":14400,"station_id":"ce4bhch2rcd13ifvqeug","pricing_plan_id":"free"},{"bike_id":"7dc7e9d8-e77b-4ab7-9ff4-76263b73033f","system_id":"levelo_inurba_marseille","lat":43.286151,"lon":5.351032,"is_reserved":false,"is_disabled":false,"rental_uris":{"android":"levelo://app?vid=7dc7e9d8-e77b-4ab7-9ff4-76263b73033f","ios":"levelo://app?vid=7dc7e9d8-e77b-4ab7-9ff4-76263b73033f"},"vehicle_type_id":"4","last_reported":1701367756,"current_range_meters":24800,"station_id":"ce4bhch2rcd13ifvqeug","pricing_plan_id":"free"},{"bike_id":"7496c17d-3001-42e2-8c62-13006e4b26a1","system_id":"levelo_inurba_marseille","lat":43.28418,"lon":5.37522,"is_reserved":false,"is_disabled":false,"rental_uris":{"android":"levelo://app?vid=7496c17d-3001-42e2-8c62-13006e4b26a1","ios":"levelo://app?vid=7496c17d-3001-42e2-8c62-13006e4b26a1"},"vehicle_type_id":"4","last_reported":1701367756,"current_range_meters":12800,"station_id":"ce4bh412rcd13ifvqds0","pricing_plan_id":"free"},{"bike_id":"a59dec8f-607b-4151-938f-cf625546bf1a","system_id":"levelo_inurba_marseille","lat":43.284,"lon":5.37495,"is_reserved":false,"is_disabled":false,"rental_uris":{"android":"levelo://app?vid=a59dec8f-607b-4151-938f-cf625546bf1a","ios":"levelo://app?vid=a59dec8f-607b-4151-938f-cf625546bf1a"},"vehicle_type_id":"4","last_reported":1701367756,"current_range_meters":2800,"station_id":"ce4bh412rcd13ifvqds0","pricing_plan_id":"free"},{"bike_id":"b7230b2a-4369-40a6-a90d-c673aef2e41b","system_id":"levelo_inurba_marseille","lat":43.337168,"lon":5.391825,"is_reserved":false,"is_disabled":false,"rental_uris":{"android":"levelo://app?vid=b7230b2a-4369-40a6-a90d-c673aef2e41b","ios":"levelo://app?vid=b7230b2a-4369-40a6-a90d-c673aef2e41b"},"vehicle_type_id":"4","last_reported":1701367756,"current_range_meters":23600,"station_id":"ce4bhr92rcd13ifvqhsg","pricing_plan_id":"free"},{"bike_id":"84132732-d5c2-4549-b3ed-7c713f6d4431","system_id":"levelo_inurba_marseille","lat":43.323464,"lon":5.406297,"is_reserved":false,"is_disabled":false,"rental_uris":{"android":"levelo://app?vid=84132732-d5c2-4549-b3ed-7c713f6d4431","ios":"levelo://app?vid=84132732-d5c2-4549-b3ed-7c713f6d4431"},"vehicle_type_id":"4","last_reported":1701367756,"current_range_meters":26800,"station_id":"ce4bhq92rcd13ifvqhjg","pricing_plan_id":"free"},{"bike_id":"662fa6f8-2032-43e0-bf37-8abb696cda1d","system_id":"levelo_inurba_marseille","lat":43.33717,"lon":5.391857,"is_reserved":false,"is_disabled":false,"rental_uris":{"android":"levelo://app?vid=662fa6f8-2032-43e0-bf37-8abb696cda1d","ios":"levelo://app?vid=662fa6f8-2032-43e0-bf37-8abb696cda1d"},"vehicle_type_id":"4","last_reported":1701367756,"current_range_meters":27600,"station_id":"ce4bhr92rcd13ifvqhsg","pricing_plan_id":"free"},{"bike_id":"d9f685f1-bdd1-441c-8361-63cd966af8ae","system_id":"levelo_inurba_marseille","lat":43.284793,"lon":5.384113,"is_reserved":false,"is_disabled":false,"rental_uris":{"android":"levelo://app?vid=d9f685f1-bdd1-441c-8361-63cd966af8ae","ios":"levelo://app?vid=d9f685f1-bdd1-441c-8361-63cd966af8ae"},"vehicle_type_id":"4","last_reported":1701367756,"current_range_meters":16000,"station_id":"ce4bh512rcd13ifvqe3g","pricing_plan_id":"free"},{"bike_id":"b5d8793e-6b87-4b50-b935-9d8bd795e048","system_id":"levelo_inurba_marseille","lat":43.288501,"lon":5.393087,"is_reserved":false,"is_disabled":false,"rental_uris":{"android":"levelo://app?vid=b5d8793e-6b87-4b50-b935-9d8bd795e048","ios":"levelo://app?vid=b5d8793e-6b87-4b50-b935-9d8bd795e048"},"vehicle_type_id":"4","last_reported":1701367756,"current_range_meters":11200,"station_id":"ce4bh2p2rcd13ifvqdi0","pricing_plan_id":"free"},{"bike_id":"a76d3e51-bfc6-494e-b7a8-c7346eecdc35","system_id":"levelo_inurba_marseille","lat":43.288501,"lon":5.393087,"is_reserved":false,"is_disabled":false,"rental_uris":{"android":"levelo://app?vid=a76d3e51-bfc6-494e-b7a8-c7346eecdc35","ios":"levelo://app?vid=a76d3e51-bfc6-494e-b7a8-c7346eecdc35"},"vehicle_type_id":"4","last_reported":1701367756,"current_range_meters":28400,"station_id":"ce4bh2p2rcd13ifvqdi0","pricing_plan_id":"free"},{"bike_id":"79e56788-78ba-4acf-a500-16af543f4105","system_id":"levelo_inurba_marseille","lat":43.290412,"lon":5.399633,"is_reserved":false,"is_disabled":false,"rental_uris":{"android":"levelo://app?vid=79e56788-78ba-4acf-a500-16af543f4105","ios":"levelo://app?vid=79e56788-78ba-4acf-a500-16af543f4105"},"vehicle_type_id":"4","last_reported":1701367756,"current_range_meters":5200,"station_id":"ce4bh392rcd13ifvqdm0","pricing_plan_id":"free"},{"bike_id":"5b0f60b9-9584-4664-9fbf-964d12461e2a","system_id":"levelo_inurba_marseille","lat":43.296263,"lon":5.40601,"is_reserved":false,"is_disabled":false,"rental_uris":{"android":"levelo://app?vid=5b0f60b9-9584-4664-9fbf-964d12461e2a","ios":"levelo://app?vid=5b0f60b9-9584-4664-9fbf-964d12461e2a"},"vehicle_type_id":"4","last_reported":1701367756,"current_range_meters":21600,"station_id":"ce4bh0h2rcd13ifvqd60","pricing_plan_id":"free"},{"bike_id":"81064bb1-f624-4eda-857f-6f96213352ad","system_id":"levelo_inurba_marseille","lat":43.284462,"lon":5.392121,"is_reserved":false,"is_disabled":false,"rental_uris":{"android":"levelo://app?vid=81064bb1-f624-4eda-857f-6f96213352ad","ios":"levelo://app?vid=81064bb1-f624-4eda-857f-6f96213352ad"},"vehicle_type_id":"4","last_reported":1701367756,"current_range_meters":14800,"station_id":"ce4bhoh2rcd13ifvqh5g","pricing_plan_id":"free"},{"bike_id":"c5c42056-e9e3-433b-91b7-ac30da3400f8","system_id":"levelo_inurba_marseille","lat":43.284317,"lon":5.391844,"is_reserved":false,"is_disabled":false,"rental_uris":{"android":"levelo://app?vid=c5c42056-e9e3-433b-91b7-ac30da3400f8","ios":"levelo://app?vid=c5c42056-e9e3-433b-91b7-ac30da3400f8"},"vehicle_type_id":"4","last_reported":1701367756,"current_range_meters":2800,"station_id":"ce4bhoh2rcd13ifvqh5g","pricing_plan_id":"free"},{"bike_id":"6b7ef417-6657-4c19-98d8-e150659d83c2","system_id":"levelo_inurba_marseille","lat":43.304188,"lon":5.412904,"is_reserved":false,"is_disabled":false,"rental_uris":{"android":"levelo://app?vid=6b7ef417-6657-4c19-98d8-e150659d83c2","ios":"levelo://app?vid=6b7ef417-6657-4c19-98d8-e150659d83c2"},"vehicle_type_id":"4","last_reported":1701367756,"current_range_meters":20400,"station_id":"ce4bhop2rcd13ifvqh8g","pricing_plan_id":"free"},{"bike_id":"090478f9-c763-407f-bcae-33007ff245cf","system_id":"levelo_inurba_marseille","lat":43.29959,"lon":5.41328,"is_reserved":false,"is_disabled":false,"rental_uris":{"android":"levelo://app?vid=090478f9-c763-407f-bcae-33007ff245cf","ios":"levelo://app?vid=090478f9-c763-407f-bcae-33007ff245cf"},"vehicle_type_id":"4","last_reported":1701367756,"current_range_meters":23600,"station_id":"ce4bhp12rcd13ifvqh9g","pricing_plan_id":"free"},{"bike_id":"e9ded258-7e60-4c5e-bed9-6ba6158b7f65","system_id":"levelo_inurba_marseille","lat":43.325243,"lon":5.414326,"is_reserved":false,"is_disabled":false,"rental_uris":{"android":"levelo://app?vid=e9ded258-7e60-4c5e-bed9-6ba6158b7f65","ios":"levelo://app?vid=e9ded258-7e60-4c5e-bed9-6ba6158b7f65"},"vehicle_type_id":"4","last_reported":1701367756,"current_range_meters":22000,"station_id":"ce4bhq12rcd13ifvqhhg","pricing_plan_id":"free"},{"bike_id":"d3ef5705-d815-4971-8030-4ca91bf1146d","system_id":"levelo_inurba_marseille","lat":43.27618,"lon":5.361009,"is_reserved":false,"is_disabled":false,"rental_uris":{"android":"levelo://app?vid=d3ef5705-d815-4971-8030-4ca91bf1146d","ios":"levelo://app?vid=d3ef5705-d815-4971-8030-4ca91bf1146d"},"vehicle_type_id":"4","last_reported":1701367756,"current_range_meters":5600,"station_id":"ce4bgj92rcd13ifvqbe0","pricing_plan_id":"free"},{"bike_id":"367fca25-04d5-4040-9887-c0aa7c421491","system_id":"levelo_inurba_marseille","lat":43.303837,"lon":5.418724,"is_reserved":false,"is_disabled":false,"rental_uris":{"android":"levelo://app?vid=367fca25-04d5-4040-9887-c0aa7c421491","ios":"levelo://app?vid=367fca25-04d5-4040-9887-c0aa7c421491"},"vehicle_type_id":"4","last_reported":1701367756,"current_range_meters":10000,"station_id":"ce4bhop2rcd13ifvqh7g","pricing_plan_id":"free"},{"bike_id":"d6c49460-2f4c-434f-8989-cf8455912e07","system_id":"levelo_inurba_marseille","lat":43.303837,"lon":5.418724,"is_reserved":false,"is_disabled":false,"rental_uris":{"android":"levelo://app?vid=d6c49460-2f4c-434f-8989-cf8455912e07","ios":"levelo://app?vid=d6c49460-2f4c-434f-8989-cf8455912e07"},"vehicle_type_id":"4","last_reported":1701367756,"current_range_meters":12800,"station_id":"ce4bhop2rcd13ifvqh7g","pricing_plan_id":"free"},{"bike_id":"43f622c6-c8b2-4c23-8efa-542cdce50da8","system_id":"levelo_inurba_marseille","lat":43.273609,"lon":5.362708,"is_reserved":false,"is_disabled":false,"rental_uris":{"android":"levelo://app?vid=43f622c6-c8b2-4c23-8efa-542cdce50da8","ios":"levelo://app?vid=43f622c6-c8b2-4c23-8efa-542cdce50da8"},"vehicle_type_id":"4","last_reported":1701367756,"current_range_meters":18400,"station_id":"ce4bhbh2rcd13ifvqeo0","pricing_plan_id":"free"},{"bike_id":"68234c93-50fa-4eb6-ab5d-05c54968fb5c","system_id":"levelo_inurba_marseille","lat":43.279952,"lon":5.400085,"is_reserved":false,"is_disabled":false,"rental_uris":{"android":"levelo://app?vid=68234c93-50fa-4eb6-ab5d-05c54968fb5c","ios":"levelo://app?vid=68234c93-50fa-4eb6-ab5d-05c54968fb5c"},"vehicle_type_id":"4","last_reported":1701367756,"current_range_meters":31200,"station_id":"ce4bho92rcd13ifvqh4g","pricing_plan_id":"free"},{"bike_id":"78e090e3-e349-4d75-b3f2-4d776196d800","system_id":"levelo_inurba_marseille","lat":43.279975,"lon":5.40009,"is_reserved":false,"is_disabled":false,"rental_uris":{"android":"levelo://app?vid=78e090e3-e349-4d75-b3f2-4d776196d800","ios":"levelo://app?vid=78e090e3-e349-4d75-b3f2-4d776196d800"},"vehicle_type_id":"4","last_reported":1701367756,"current_range_meters":0,"station_id":"ce4bho92rcd13ifvqh4g","pricing_plan_id":"free"},{"bike_id":"d6cd08ef-c934-44a0-a330-510b886d15f8","system_id":"levelo_inurba_marseille","lat":43.310785,"lon":5.424305,"is_reserved":false,"is_disabled":false,"rental_uris":{"android":"levelo://app?vid=d6cd08ef-c934-44a0-a330-510b886d15f8","ios":"levelo://app?vid=d6cd08ef-c934-44a0-a330-510b886d15f8"},"vehicle_type_id":"4","last_reported":1701367756,"current_range_meters":28400,"station_id":"ce4bhp92rcd13ifvqhag","pricing_plan_id":"free"},{"bike_id":"275aa850-aec4-49dd-82db-cfd9b36855e0","system_id":"levelo_inurba_marseille","lat":43.273125,"lon":5.390731,"is_reserved":false,"is_disabled":false,"rental_uris":{"android":"levelo://app?vid=275aa850-aec4-49dd-82db-cfd9b36855e0","ios":"levelo://app?vid=275aa850-aec4-49dd-82db-cfd9b36855e0"},"vehicle_type_id":"4","last_reported":1701367756,"current_range_meters":12400,"station_id":"ce4bhgp2rcd13ifvqfe0","pricing_plan_id":"free"},{"bike_id":"43de7464-4f95-47a0-bb36-060cf9b582eb","system_id":"levelo_inurba_marseille","lat":43.273125,"lon":5.390731,"is_reserved":false,"is_disabled":false,"rental_uris":{"android":"levelo://app?vid=43de7464-4f95-47a0-bb36-060cf9b582eb","ios":"levelo://app?vid=43de7464-4f95-47a0-bb36-060cf9b582eb"},"vehicle_type_id":"4","last_reported":1701367756,"current_range_meters":5600,"station_id":"ce4bhgp2rcd13ifvqfe0","pricing_plan_id":"free"},{"bike_id":"d06d959d-7d65-4009-940f-47b043b6edfa","system_id":"levelo_inurba_marseille","lat":43.273129,"lon":5.390725,"is_reserved":false,"is_disabled":false,"rental_uris":{"android":"levelo://app?vid=d06d959d-7d65-4009-940f-47b043b6edfa","ios":"levelo://app?vid=d06d959d-7d65-4009-940f-47b043b6edfa"},"vehicle_type_id":"4","last_reported":1701367756,"current_range_meters":1200,"station_id":"ce4bhgp2rcd13ifvqfe0","pricing_plan_id":"free"},{"bike_id":"5734ee87-5ba0-4bb1-b35f-9a6d4a78e023","system_id":"levelo_inurba_marseille","lat":43.273129,"lon":5.390725,"is_reserved":false,"is_disabled":false,"rental_uris":{"android":"levelo://app?vid=5734ee87-5ba0-4bb1-b35f-9a6d4a78e023","ios":"levelo://app?vid=5734ee87-5ba0-4bb1-b35f-9a6d4a78e023"},"vehicle_type_id":"4","last_reported":1701367756,"current_range_meters":22000,"station_id":"ce4bhgp2rcd13ifvqfe0","pricing_plan_id":"free"},{"bike_id":"2aa15a4e-9dab-446c-88c6-581613623522","system_id":"levelo_inurba_marseille","lat":43.274099,"lon":5.394019,"is_reserved":false,"is_disabled":false,"rental_uris":{"android":"levelo://app?vid=2aa15a4e-9dab-446c-88c6-581613623522","ios":"levelo://app?vid=2aa15a4e-9dab-446c-88c6-581613623522"},"vehicle_type_id":"4","last_reported":1701367756,"current_range_meters":12400,"station_id":"ce4bhdp2rcd13ifvqf20","pricing_plan_id":"free"},{"bike_id":"d883e890-38d3-4631-8255-01cd78b093ea","system_id":"levelo_inurba_marseille","lat":43.274099,"lon":5.394019,"is_reserved":false,"is_disabled":false,"rental_uris":{"android":"levelo://app?vid=d883e890-38d3-4631-8255-01cd78b093ea","ios":"levelo://app?vid=d883e890-38d3-4631-8255-01cd78b093ea"},"vehicle_type_id":"4","last_reported":1701367756,"current_range_meters":22400,"station_id":"ce4bhdp2rcd13ifvqf20","pricing_plan_id":"free"},{"bike_id":"7335a393-cc37-4e1d-b729-82d3cd0e69fb","system_id":"levelo_inurba_marseille","lat":43.29523,"lon":5.42257,"is_reserved":false,"is_disabled":false,"rental_uris":{"android":"levelo://app?vid=7335a393-cc37-4e1d-b729-82d3cd0e69fb","ios":"levelo://app?vid=7335a393-cc37-4e1d-b729-82d3cd0e69fb"},"vehicle_type_id":"4","last_reported":1701367756,"current_range_meters":19600,"station_id":"ce4bhph2rcd13ifvqhdg","pricing_plan_id":"free"},{"bike_id":"f6d38aff-a5fe-4ea8-b323-a05c3a6bb4a7","system_id":"levelo_inurba_marseille","lat":43.295511,"lon":5.422926,"is_reserved":false,"is_disabled":false,"rental_uris":{"android":"levelo://app?vid=f6d38aff-a5fe-4ea8-b323-a05c3a6bb4a7","ios":"levelo://app?vid=f6d38aff-a5fe-4ea8-b323-a05c3a6bb4a7"},"vehicle_type_id":"4","last_reported":1701367756,"current_range_meters":10000,"station_id":"ce4bhph2rcd13ifvqhdg","pricing_plan_id":"free"},{"bike_id":"d73e7773-77ad-4caa-a32b-fa57bf5ae421","system_id":"levelo_inurba_marseille","lat":43.295511,"lon":5.422926,"is_reserved":false,"is_disabled":false,"rental_uris":{"android":"levelo://app?vid=d73e7773-77ad-4caa-a32b-fa57bf5ae421","ios":"levelo://app?vid=d73e7773-77ad-4caa-a32b-fa57bf5ae421"},"vehicle_type_id":"4","last_reported":1701367756,"current_range_meters":6800,"station_id":"ce4bhph2rcd13ifvqhdg","pricing_plan_id":"free"},{"bike_id":"10806d90-6339-4a10-87b3-57be45087c3e","system_id":"levelo_inurba_marseille","lat":43.272116,"lon":5.391763,"is_reserved":false,"is_disabled":false,"rental_uris":{"android":"levelo://app?vid=10806d90-6339-4a10-87b3-57be45087c3e","ios":"levelo://app?vid=10806d90-6339-4a10-87b3-57be45087c3e"},"vehicle_type_id":"4","last_reported":1701367756,"current_range_meters":0,"station_id":"ce4bhhp2rcd13ifvqfm0","pricing_plan_id":"free"},{"bike_id":"735b5cd4-6eb2-4725-9cb7-adb3cad7c77b","system_id":"levelo_inurba_marseille","lat":43.270457,"lon":5.388417,"is_reserved":false,"is_disabled":false,"rental_uris":{"android":"levelo://app?vid=735b5cd4-6eb2-4725-9cb7-adb3cad7c77b","ios":"levelo://app?vid=735b5cd4-6eb2-4725-9cb7-adb3cad7c77b"},"vehicle_type_id":"4","last_reported":1701367756,"current_range_meters":0,"station_id":"","pricing_plan_id":"free"},{"bike_id":"92bfe948-65f0-4178-ab7a-ac0708f4bb16","system_id":"levelo_inurba_marseille","lat":43.27809,"lon":5.40709,"is_reserved":false,"is_disabled":false,"rental_uris":{"android":"levelo://app?vid=92bfe948-65f0-4178-ab7a-ac0708f4bb16","ios":"levelo://app?vid=92bfe948-65f0-4178-ab7a-ac0708f4bb16"},"vehicle_type_id":"4","last_reported":1701367756,"current_range_meters":0,"station_id":"ce4bhnh2rcd13ifvqgtg","pricing_plan_id":"free"},{"bike_id":"04c6bfc2-6d1a-4831-9eba-5b735ff2b2a4","system_id":"levelo_inurba_marseille","lat":43.269467,"lon":5.386439,"is_reserved":false,"is_disabled":false,"rental_uris":{"android":"levelo://app?vid=04c6bfc2-6d1a-4831-9eba-5b735ff2b2a4","ios":"levelo://app?vid=04c6bfc2-6d1a-4831-9eba-5b735ff2b2a4"},"vehicle_type_id":"4","last_reported":1701367756,"current_range_meters":2000,"station_id":"ce4bhh92rcd13ifvqfh0","pricing_plan_id":"free"},{"bike_id":"363bbb41-447c-4500-8928-54e8de9f252a","system_id":"levelo_inurba_marseille","lat":43.269319,"lon":5.389397,"is_reserved":false,"is_disabled":false,"rental_uris":{"android":"levelo://app?vid=363bbb41-447c-4500-8928-54e8de9f252a","ios":"levelo://app?vid=363bbb41-447c-4500-8928-54e8de9f252a"},"vehicle_type_id":"4","last_reported":1701367756,"current_range_meters":400,"station_id":"ce4bhhh2rcd13ifvqfl0","pricing_plan_id":"free"},{"bike_id":"3a4210bc-0b97-4a2f-8943-3258679d4695","system_id":"levelo_inurba_marseille","lat":43.267966,"lon":5.393976,"is_reserved":false,"is_disabled":false,"rental_uris":{"android":"levelo://app?vid=3a4210bc-0b97-4a2f-8943-3258679d4695","ios":"levelo://app?vid=3a4210bc-0b97-4a2f-8943-3258679d4695"},"vehicle_type_id":"4","last_reported":1701367756,"current_range_meters":8000,"station_id":"ce4bhh12rcd13ifvqfg0","pricing_plan_id":"free"},{"bike_id":"f2888c50-a09a-439d-ab6a-2744a0f8ccda","system_id":"levelo_inurba_marseille","lat":43.308051,"lon":5.43527,"is_reserved":false,"is_disabled":false,"rental_uris":{"android":"levelo://app?vid=f2888c50-a09a-439d-ab6a-2744a0f8ccda","ios":"levelo://app?vid=f2888c50-a09a-439d-ab6a-2744a0f8ccda"},"vehicle_type_id":"4","last_reported":1701367756,"current_range_meters":19200,"station_id":"ce4bhph2rcd13ifvqheg","pricing_plan_id":"free"},{"bike_id":"11afddbe-24d7-4b39-85b7-7510a92e39b4","system_id":"levelo_inurba_marseille","lat":43.30805,"lon":5.4352,"is_reserved":false,"is_disabled":false,"rental_uris":{"android":"levelo://app?vid=11afddbe-24d7-4b39-85b7-7510a92e39b4","ios":"levelo://app?vid=11afddbe-24d7-4b39-85b7-7510a92e39b4"},"vehicle_type_id":"4","last_reported":1701367756,"current_range_meters":2400,"station_id":"ce4bhph2rcd13ifvqheg","pricing_plan_id":"free"},{"bike_id":"deab3550-3ed4-4c29-b804-ac3e50bc32e3","system_id":"levelo_inurba_marseille","lat":43.308051,"lon":5.43527,"is_reserved":false,"is_disabled":false,"rental_uris":{"android":"levelo://app?vid=deab3550-3ed4-4c29-b804-ac3e50bc32e3","ios":"levelo://app?vid=deab3550-3ed4-4c29-b804-ac3e50bc32e3"},"vehicle_type_id":"4","last_reported":1701367756,"current_range_meters":31600,"station_id":"ce4bhph2rcd13ifvqheg","pricing_plan_id":"free"},{"bike_id":"557dbf0e-2f28-4f97-8779-efb9e8b399df","system_id":"levelo_inurba_marseille","lat":43.308051,"lon":5.43527,"is_reserved":false,"is_disabled":false,"rental_uris":{"android":"levelo://app?vid=557dbf0e-2f28-4f97-8779-efb9e8b399df","ios":"levelo://app?vid=557dbf0e-2f28-4f97-8779-efb9e8b399df"},"vehicle_type_id":"4","last_reported":1701367756,"current_range_meters":26800,"station_id":"ce4bhph2rcd13ifvqheg","pricing_plan_id":"free"},{"bike_id":"8e8d349d-09ef-483a-8322-0fd5fbd7b38e","system_id":"levelo_inurba_marseille","lat":43.308051,"lon":5.43527,"is_reserved":false,"is_disabled":false,"rental_uris":{"android":"levelo://app?vid=8e8d349d-09ef-483a-8322-0fd5fbd7b38e","ios":"levelo://app?vid=8e8d349d-09ef-483a-8322-0fd5fbd7b38e"},"vehicle_type_id":"4","last_reported":1701367756,"current_range_meters":30800,"station_id":"ce4bhph2rcd13ifvqheg","pricing_plan_id":"free"},{"bike_id":"7ab63241-0bea-4919-80fc-6d8eef69395f","system_id":"levelo_inurba_marseille","lat":43.308051,"lon":5.43527,"is_reserved":false,"is_disabled":false,"rental_uris":{"android":"levelo://app?vid=7ab63241-0bea-4919-80fc-6d8eef69395f","ios":"levelo://app?vid=7ab63241-0bea-4919-80fc-6d8eef69395f"},"vehicle_type_id":"4","last_reported":1701367756,"current_range_meters":31200,"station_id":"ce4bhph2rcd13ifvqheg","pricing_plan_id":"free"},{"bike_id":"8aec0a8a-1090-4ee2-aae6-2b7c51fe17b0","system_id":"levelo_inurba_marseille","lat":43.265491,"lon":5.390582,"is_reserved":false,"is_disabled":false,"rental_uris":{"android":"levelo://app?vid=8aec0a8a-1090-4ee2-aae6-2b7c51fe17b0","ios":"levelo://app?vid=8aec0a8a-1090-4ee2-aae6-2b7c51fe17b0"},"vehicle_type_id":"4","last_reported":1701367756,"current_range_meters":0,"station_id":"","pricing_plan_id":"free"},{"bike_id":"781cbb53-7e5c-4741-8f19-4f5843ec2fb1","system_id":"levelo_inurba_marseille","lat":43.26943,"lon":5.40247,"is_reserved":false,"is_disabled":false,"rental_uris":{"android":"levelo://app?vid=781cbb53-7e5c-4741-8f19-4f5843ec2fb1","ios":"levelo://app?vid=781cbb53-7e5c-4741-8f19-4f5843ec2fb1"},"vehicle_type_id":"4","last_reported":1701367756,"current_range_meters":12400,"station_id":"cjm6bp8fraef2m0cb0m0","pricing_plan_id":"free"},{"bike_id":"6bdb69e9-e421-42d7-b4b6-6e1e5799bf4f","system_id":"levelo_inurba_marseille","lat":43.26949,"lon":5.40262,"is_reserved":false,"is_disabled":false,"rental_uris":{"android":"levelo://app?vid=6bdb69e9-e421-42d7-b4b6-6e1e5799bf4f","ios":"levelo://app?vid=6bdb69e9-e421-42d7-b4b6-6e1e5799bf4f"},"vehicle_type_id":"4","last_reported":1701367756,"current_range_meters":18800,"station_id":"cjm6bp8fraef2m0cb0m0","pricing_plan_id":"free"},{"bike_id":"f8ada834-5890-4eaf-bac8-3a7558a0f191","system_id":"levelo_inurba_marseille","lat":43.26936,"lon":5.40267,"is_reserved":false,"is_disabled":false,"rental_uris":{"android":"levelo://app?vid=f8ada834-5890-4eaf-bac8-3a7558a0f191","ios":"levelo://app?vid=f8ada834-5890-4eaf-bac8-3a7558a0f191"},"vehicle_type_id":"4","last_reported":1701367756,"current_range_meters":10800,"station_id":"cjm6bp8fraef2m0cb0m0","pricing_plan_id":"free"},{"bike_id":"5c12cf62-57eb-498c-a739-17c091edffec","system_id":"levelo_inurba_marseille","lat":43.261782,"lon":5.374515,"is_reserved":false,"is_disabled":false,"rental_uris":{"android":"levelo://app?vid=5c12cf62-57eb-498c-a739-17c091edffec","ios":"levelo://app?vid=5c12cf62-57eb-498c-a739-17c091edffec"},"vehicle_type_id":"4","last_reported":1701367756,"current_range_meters":17600,"station_id":"ce4bhgp2rcd13ifvqfc0","pricing_plan_id":"free"},{"bike_id":"44d51874-045e-4906-a2f9-909193d67e63","system_id":"levelo_inurba_marseille","lat":43.317104,"lon":5.436818,"is_reserved":false,"is_disabled":false,"rental_uris":{"android":"levelo://app?vid=44d51874-045e-4906-a2f9-909193d67e63","ios":"levelo://app?vid=44d51874-045e-4906-a2f9-909193d67e63"},"vehicle_type_id":"4","last_reported":1701367756,"current_range_meters":23600,"station_id":"ce4bhp92rcd13ifvqhcg","pricing_plan_id":"free"},{"bike_id":"7fe6820a-06e6-42d8-9e38-8e0428267591","system_id":"levelo_inurba_marseille","lat":43.317104,"lon":5.436818,"is_reserved":false,"is_disabled":false,"rental_uris":{"android":"levelo://app?vid=7fe6820a-06e6-42d8-9e38-8e0428267591","ios":"levelo://app?vid=7fe6820a-06e6-42d8-9e38-8e0428267591"},"vehicle_type_id":"4","last_reported":1701367756,"current_range_meters":20400,"station_id":"ce4bhp92rcd13ifvqhcg","pricing_plan_id":"free"},{"bike_id":"6d50931a-5553-495d-be31-bbcf7bdad9de","system_id":"levelo_inurba_marseille","lat":43.317104,"lon":5.436818,"is_reserved":false,"is_disabled":false,"rental_uris":{"android":"levelo://app?vid=6d50931a-5553-495d-be31-bbcf7bdad9de","ios":"levelo://app?vid=6d50931a-5553-495d-be31-bbcf7bdad9de"},"vehicle_type_id":"4","last_reported":1701367756,"current_range_meters":31200,"station_id":"ce4bhp92rcd13ifvqhcg","pricing_plan_id":"free"},{"bike_id":"0f9f8c95-5606-4a0e-8952-0b15ae0279f8","system_id":"levelo_inurba_marseille","lat":43.271368,"lon":5.40928,"is_reserved":false,"is_disabled":false,"rental_uris":{"android":"levelo://app?vid=0f9f8c95-5606-4a0e-8952-0b15ae0279f8","ios":"levelo://app?vid=0f9f8c95-5606-4a0e-8952-0b15ae0279f8"},"vehicle_type_id":"4","last_reported":1701367756,"current_range_meters":20400,"station_id":"ce4bhl12rcd13ifvqgf0","pricing_plan_id":"free"},{"bike_id":"fbbe584b-5ddf-4533-9b92-0cea8f4ab8a1","system_id":"levelo_inurba_marseille","lat":43.271388,"lon":5.409269,"is_reserved":false,"is_disabled":false,"rental_uris":{"android":"levelo://app?vid=fbbe584b-5ddf-4533-9b92-0cea8f4ab8a1","ios":"levelo://app?vid=fbbe584b-5ddf-4533-9b92-0cea8f4ab8a1"},"vehicle_type_id":"4","last_reported":1701367756,"current_range_meters":0,"station_id":"ce4bhl12rcd13ifvqgf0","pricing_plan_id":"free"},{"bike_id":"41278fd2-d7c4-43b4-8e10-1296af00a307","system_id":"levelo_inurba_marseille","lat":43.271368,"lon":5.40928,"is_reserved":false,"is_disabled":false,"rental_uris":{"android":"levelo://app?vid=41278fd2-d7c4-43b4-8e10-1296af00a307","ios":"levelo://app?vid=41278fd2-d7c4-43b4-8e10-1296af00a307"},"vehicle_type_id":"4","last_reported":1701367756,"current_range_meters":14000,"station_id":"ce4bhl12rcd13ifvqgf0","pricing_plan_id":"free"},{"bike_id":"67a84057-c975-45a1-8bfb-a936a4c9b8f5","system_id":"levelo_inurba_marseille","lat":43.267959,"lon":5.402687,"is_reserved":false,"is_disabled":false,"rental_uris":{"android":"levelo://app?vid=67a84057-c975-45a1-8bfb-a936a4c9b8f5","ios":"levelo://app?vid=67a84057-c975-45a1-8bfb-a936a4c9b8f5"},"vehicle_type_id":"4","last_reported":1701367756,"current_range_meters":12400,"station_id":"ce501612rcd8frsf0b60","pricing_plan_id":"free"},{"bike_id":"50a577ff-a244-4b1c-820b-6aaf3cca1c85","system_id":"levelo_inurba_marseille","lat":43.28156,"lon":5.42644,"is_reserved":false,"is_disabled":false,"rental_uris":{"android":"levelo://app?vid=50a577ff-a244-4b1c-820b-6aaf3cca1c85","ios":"levelo://app?vid=50a577ff-a244-4b1c-820b-6aaf3cca1c85"},"vehicle_type_id":"4","last_reported":1701367756,"current_range_meters":18400,"station_id":"ce4bhnh2rcd13ifvqgug","pricing_plan_id":"free"},{"bike_id":"747f7303-f46a-4d4c-90bd-2b25a42c54ab","system_id":"levelo_inurba_marseille","lat":43.26949,"lon":5.40262,"is_reserved":false,"is_disabled":false,"rental_uris":{"android":"levelo://app?vid=747f7303-f46a-4d4c-90bd-2b25a42c54ab","ios":"levelo://app?vid=747f7303-f46a-4d4c-90bd-2b25a42c54ab"},"vehicle_type_id":"4","last_reported":1701367756,"current_range_meters":400,"station_id":"cjm6bp8fraef2m0cb0m0","pricing_plan_id":"free"},{"bike_id":"e745a58f-1aad-4729-82a6-d783b52b7e4b","system_id":"levelo_inurba_marseille","lat":43.2607,"lon":5.393983,"is_reserved":false,"is_disabled":false,"rental_uris":{"android":"levelo://app?vid=e745a58f-1aad-4729-82a6-d783b52b7e4b","ios":"levelo://app?vid=e745a58f-1aad-4729-82a6-d783b52b7e4b"},"vehicle_type_id":"4","last_reported":1701367756,"current_range_meters":19600,"station_id":"ce4bhh92rcd13ifvqfj0","pricing_plan_id":"free"},{"bike_id":"4ea7a70b-101b-4ce7-920c-99847b5692f2","system_id":"levelo_inurba_marseille","lat":43.2607,"lon":5.393983,"is_reserved":false,"is_disabled":false,"rental_uris":{"android":"levelo://app?vid=4ea7a70b-101b-4ce7-920c-99847b5692f2","ios":"levelo://app?vid=4ea7a70b-101b-4ce7-920c-99847b5692f2"},"vehicle_type_id":"4","last_reported":1701367756,"current_range_meters":2400,"station_id":"ce4bhh92rcd13ifvqfj0","pricing_plan_id":"free"},{"bike_id":"347970e5-ea5a-450d-b449-b82992614437","system_id":"levelo_inurba_marseille","lat":43.25588,"lon":5.38224,"is_reserved":false,"is_disabled":false,"rental_uris":{"android":"levelo://app?vid=347970e5-ea5a-450d-b449-b82992614437","ios":"levelo://app?vid=347970e5-ea5a-450d-b449-b82992614437"},"vehicle_type_id":"4","last_reported":1701367756,"current_range_meters":5600,"station_id":"ce4bhih2rcd13ifvqfs0","pricing_plan_id":"free"},{"bike_id":"f74448f8-bb2b-49c5-ac6f-7b1b760e9120","system_id":"levelo_inurba_marseille","lat":43.25585,"lon":5.38228,"is_reserved":false,"is_disabled":false,"rental_uris":{"android":"levelo://app?vid=f74448f8-bb2b-49c5-ac6f-7b1b760e9120","ios":"levelo://app?vid=f74448f8-bb2b-49c5-ac6f-7b1b760e9120"},"vehicle_type_id":"4","last_reported":1701367756,"current_range_meters":18800,"station_id":"ce4bhih2rcd13ifvqfs0","pricing_plan_id":"free"},{"bike_id":"8d672d8f-89c9-4e1b-be32-37f43663744b","system_id":"levelo_inurba_marseille","lat":43.25583,"lon":5.38234,"is_reserved":false,"is_disabled":false,"rental_uris":{"android":"levelo://app?vid=8d672d8f-89c9-4e1b-be32-37f43663744b","ios":"levelo://app?vid=8d672d8f-89c9-4e1b-be32-37f43663744b"},"vehicle_type_id":"4","last_reported":1701367756,"current_range_meters":27600,"station_id":"ce4bhih2rcd13ifvqfs0","pricing_plan_id":"free"},{"bike_id":"30206ccf-e201-4c35-acf3-4bc332f769ba","system_id":"levelo_inurba_marseille","lat":43.25577,"lon":5.3823,"is_reserved":false,"is_disabled":false,"rental_uris":{"android":"levelo://app?vid=30206ccf-e201-4c35-acf3-4bc332f769ba","ios":"levelo://app?vid=30206ccf-e201-4c35-acf3-4bc332f769ba"},"vehicle_type_id":"4","last_reported":1701367756,"current_range_meters":0,"station_id":"ce4bhih2rcd13ifvqfs0","pricing_plan_id":"free"},{"bike_id":"39a41fc6-fb12-4304-b9bd-c12fd73ba948","system_id":"levelo_inurba_marseille","lat":43.270721,"lon":5.422764,"is_reserved":false,"is_disabled":false,"rental_uris":{"android":"levelo://app?vid=39a41fc6-fb12-4304-b9bd-c12fd73ba948","ios":"levelo://app?vid=39a41fc6-fb12-4304-b9bd-c12fd73ba948"},"vehicle_type_id":"4","last_reported":1701367756,"current_range_meters":26400,"station_id":"ce4bhk92rcd13ifvqgb0","pricing_plan_id":"free"},{"bike_id":"34616657-1af0-4d46-b8ea-3b8fb99cedc1","system_id":"levelo_inurba_marseille","lat":43.258658,"lon":5.398935,"is_reserved":false,"is_disabled":false,"rental_uris":{"android":"levelo://app?vid=34616657-1af0-4d46-b8ea-3b8fb99cedc1","ios":"levelo://app?vid=34616657-1af0-4d46-b8ea-3b8fb99cedc1"},"vehicle_type_id":"4","last_reported":1701367756,"current_range_meters":11200,"station_id":"ce4bhl92rcd13ifvqghg","pricing_plan_id":"free"},{"bike_id":"a2993567-9538-49ce-9fb5-691472ea25de","system_id":"levelo_inurba_marseille","lat":43.27932,"lon":5.44268,"is_reserved":false,"is_disabled":false,"rental_uris":{"android":"levelo://app?vid=a2993567-9538-49ce-9fb5-691472ea25de","ios":"levelo://app?vid=a2993567-9538-49ce-9fb5-691472ea25de"},"vehicle_type_id":"4","last_reported":1701367756,"current_range_meters":4800,"station_id":"","pricing_plan_id":"free"},{"bike_id":"ce92fad5-db92-45e2-9fd5-07b92c8faaa1","system_id":"levelo_inurba_marseille","lat":43.250009,"lon":5.389195,"is_reserved":false,"is_disabled":false,"rental_uris":{"android":"levelo://app?vid=ce92fad5-db92-45e2-9fd5-07b92c8faaa1","ios":"levelo://app?vid=ce92fad5-db92-45e2-9fd5-07b92c8faaa1"},"vehicle_type_id":"4","last_reported":1701367756,"current_range_meters":26800,"station_id":"ce4bhgp2rcd13ifvqfd0","pricing_plan_id":"free"},{"bike_id":"65600340-7582-4278-98a3-ca80bb45d5d4","system_id":"levelo_inurba_marseille","lat":43.250966,"lon":5.395186,"is_reserved":false,"is_disabled":false,"rental_uris":{"android":"levelo://app?vid=65600340-7582-4278-98a3-ca80bb45d5d4","ios":"levelo://app?vid=65600340-7582-4278-98a3-ca80bb45d5d4"},"vehicle_type_id":"4","last_reported":1701367756,"current_range_meters":30000,"station_id":"ce4bhm12rcd13ifvqgkg","pricing_plan_id":"free"},{"bike_id":"25e5f080-d01e-4a3b-bd44-21a06e041b16","system_id":"levelo_inurba_marseille","lat":43.250966,"lon":5.395186,"is_reserved":false,"is_disabled":false,"rental_uris":{"android":"levelo://app?vid=25e5f080-d01e-4a3b-bd44-21a06e041b16","ios":"levelo://app?vid=25e5f080-d01e-4a3b-bd44-21a06e041b16"},"vehicle_type_id":"4","last_reported":1701367756,"current_range_meters":31200,"station_id":"ce4bhm12rcd13ifvqgkg","pricing_plan_id":"free"},{"bike_id":"db6dd1e0-85ec-46e8-8d65-044233dc4acf","system_id":"levelo_inurba_marseille","lat":43.28121,"lon":5.446,"is_reserved":false,"is_disabled":false,"rental_uris":{"android":"levelo://app?vid=db6dd1e0-85ec-46e8-8d65-044233dc4acf","ios":"levelo://app?vid=db6dd1e0-85ec-46e8-8d65-044233dc4acf"},"vehicle_type_id":"4","last_reported":1701367756,"current_range_meters":12800,"station_id":"","pricing_plan_id":"free"},{"bike_id":"b02fb429-5479-4693-82b8-a2d55fe217d0","system_id":"levelo_inurba_marseille","lat":43.25102,"lon":5.403214,"is_reserved":false,"is_disabled":false,"rental_uris":{"android":"levelo://app?vid=b02fb429-5479-4693-82b8-a2d55fe217d0","ios":"levelo://app?vid=b02fb429-5479-4693-82b8-a2d55fe217d0"},"vehicle_type_id":"4","last_reported":1701367756,"current_range_meters":23600,"station_id":"ce4bhlh2rcd13ifvqgig","pricing_plan_id":"free"},{"bike_id":"a8744623-1c5a-4ad4-b630-30ff68ab8983","system_id":"levelo_inurba_marseille","lat":43.25102,"lon":5.403214,"is_reserved":false,"is_disabled":false,"rental_uris":{"android":"levelo://app?vid=a8744623-1c5a-4ad4-b630-30ff68ab8983","ios":"levelo://app?vid=a8744623-1c5a-4ad4-b630-30ff68ab8983"},"vehicle_type_id":"4","last_reported":1701367756,"current_range_meters":11600,"station_id":"ce4bhlh2rcd13ifvqgig","pricing_plan_id":"free"},{"bike_id":"280bfbbc-1a5e-4883-9e73-1082947b654a","system_id":"levelo_inurba_marseille","lat":43.2479,"lon":5.374457,"is_reserved":false,"is_disabled":false,"rental_uris":{"android":"levelo://app?vid=280bfbbc-1a5e-4883-9e73-1082947b654a","ios":"levelo://app?vid=280bfbbc-1a5e-4883-9e73-1082947b654a"},"vehicle_type_id":"4","last_reported":1701367756,"current_range_meters":23600,"station_id":"ce4bhgh2rcd13ifvqfb0","pricing_plan_id":"free"},{"bike_id":"f75c55f8-293b-4270-975b-4fc5a844c617","system_id":"levelo_inurba_marseille","lat":43.245581,"lon":5.395069,"is_reserved":false,"is_disabled":false,"rental_uris":{"android":"levelo://app?vid=f75c55f8-293b-4270-975b-4fc5a844c617","ios":"levelo://app?vid=f75c55f8-293b-4270-975b-4fc5a844c617"},"vehicle_type_id":"4","last_reported":1701367756,"current_range_meters":31200,"station_id":"ce4bhlp2rcd13ifvqgjg","pricing_plan_id":"free"},{"bike_id":"bd6d2b78-452c-4d24-a3b0-780134fbe566","system_id":"levelo_inurba_marseille","lat":43.245581,"lon":5.395069,"is_reserved":false,"is_disabled":false,"rental_uris":{"android":"levelo://app?vid=bd6d2b78-452c-4d24-a3b0-780134fbe566","ios":"levelo://app?vid=bd6d2b78-452c-4d24-a3b0-780134fbe566"},"vehicle_type_id":"4","last_reported":1701367756,"current_range_meters":31200,"station_id":"ce4bhlp2rcd13ifvqgjg","pricing_plan_id":"free"},{"bike_id":"cd0018b6-ee8b-489f-8af3-c1c2259160c3","system_id":"levelo_inurba_marseille","lat":43.240623,"lon":5.377642,"is_reserved":false,"is_disabled":false,"rental_uris":{"android":"levelo://app?vid=cd0018b6-ee8b-489f-8af3-c1c2259160c3","ios":"levelo://app?vid=cd0018b6-ee8b-489f-8af3-c1c2259160c3"},"vehicle_type_id":"4","last_reported":1701367756,"current_range_meters":14000,"station_id":"ce4bhnp2rcd13ifvqgvg","pricing_plan_id":"free"},{"bike_id":"f4fac1d7-6682-4527-ae48-2053e13bc7a9","system_id":"levelo_inurba_marseille","lat":43.239588,"lon":5.366238,"is_reserved":false,"is_disabled":false,"rental_uris":{"android":"levelo://app?vid=f4fac1d7-6682-4527-ae48-2053e13bc7a9","ios":"levelo://app?vid=f4fac1d7-6682-4527-ae48-2053e13bc7a9"},"vehicle_type_id":"4","last_reported":1701367756,"current_range_meters":23200,"station_id":"ce4bhi12rcd13ifvqfp0","pricing_plan_id":"free"},{"bike_id":"732f713b-f5d0-49ac-be74-465dc63caf5f","system_id":"levelo_inurba_marseille","lat":43.239588,"lon":5.366238,"is_reserved":false,"is_disabled":false,"rental_uris":{"android":"levelo://app?vid=732f713b-f5d0-49ac-be74-465dc63caf5f","ios":"levelo://app?vid=732f713b-f5d0-49ac-be74-465dc63caf5f"},"vehicle_type_id":"4","last_reported":1701367756,"current_range_meters":30000,"station_id":"ce4bhi12rcd13ifvqfp0","pricing_plan_id":"free"},{"bike_id":"a2a389f8-166c-4d0a-b6c1-e092825d88cc","system_id":"levelo_inurba_marseille","lat":43.239588,"lon":5.366238,"is_reserved":false,"is_disabled":false,"rental_uris":{"android":"levelo://app?vid=a2a389f8-166c-4d0a-b6c1-e092825d88cc","ios":"levelo://app?vid=a2a389f8-166c-4d0a-b6c1-e092825d88cc"},"vehicle_type_id":"4","last_reported":1701367756,"current_range_meters":22000,"station_id":"ce4bhi12rcd13ifvqfp0","pricing_plan_id":"free"},{"bike_id":"f73b6012-48d4-4174-90fa-22dbdfa5d171","system_id":"levelo_inurba_marseille","lat":43.239588,"lon":5.366238,"is_reserved":false,"is_disabled":false,"rental_uris":{"android":"levelo://app?vid=f73b6012-48d4-4174-90fa-22dbdfa5d171","ios":"levelo://app?vid=f73b6012-48d4-4174-90fa-22dbdfa5d171"},"vehicle_type_id":"4","last_reported":1701367756,"current_range_meters":31600,"station_id":"ce4bhi12rcd13ifvqfp0","pricing_plan_id":"free"},{"bike_id":"cf3102c4-88e0-4a41-86b7-69a76932d3e6","system_id":"levelo_inurba_marseille","lat":43.231923,"lon":5.355545,"is_reserved":false,"is_disabled":false,"rental_uris":{"android":"levelo://app?vid=cf3102c4-88e0-4a41-86b7-69a76932d3e6","ios":"levelo://app?vid=cf3102c4-88e0-4a41-86b7-69a76932d3e6"},"vehicle_type_id":"4","last_reported":1701367756,"current_range_meters":20800,"station_id":"ce4bhu92rcd13ifvqi70","pricing_plan_id":"free"},{"bike_id":"d1703505-b125-4a98-a807-11024241bc04","system_id":"levelo_inurba_marseille","lat":43.231923,"lon":5.355545,"is_reserved":false,"is_disabled":false,"rental_uris":{"android":"levelo://app?vid=d1703505-b125-4a98-a807-11024241bc04","ios":"levelo://app?vid=d1703505-b125-4a98-a807-11024241bc04"},"vehicle_type_id":"4","last_reported":1701367756,"current_range_meters":31600,"station_id":"ce4bhu92rcd13ifvqi70","pricing_plan_id":"free"},{"bike_id":"e4238cd3-66a8-491a-b9bc-f1a43eaa4222","system_id":"levelo_inurba_marseille","lat":43.231794,"lon":5.400052,"is_reserved":false,"is_disabled":false,"rental_uris":{"android":"levelo://app?vid=e4238cd3-66a8-491a-b9bc-f1a43eaa4222","ios":"levelo://app?vid=e4238cd3-66a8-491a-b9bc-f1a43eaa4222"},"vehicle_type_id":"4","last_reported":1701367756,"current_range_meters":24000,"station_id":"ce4bhn12rcd13ifvqgqg","pricing_plan_id":"free"},{"bike_id":"8eb0ca37-48be-46c0-a9a9-f5b046dc44f1","system_id":"levelo_inurba_marseille","lat":43.231794,"lon":5.400052,"is_reserved":false,"is_disabled":false,"rental_uris":{"android":"levelo://app?vid=8eb0ca37-48be-46c0-a9a9-f5b046dc44f1","ios":"levelo://app?vid=8eb0ca37-48be-46c0-a9a9-f5b046dc44f1"},"vehicle_type_id":"4","last_reported":1701367756,"current_range_meters":19200,"station_id":"ce4bhn12rcd13ifvqgqg","pricing_plan_id":"free"},{"bike_id":"6a5023e2-2488-45ca-994d-66608d985b97","system_id":"levelo_inurba_marseille","lat":43.231793,"lon":5.400044,"is_reserved":false,"is_disabled":false,"rental_uris":{"android":"levelo://app?vid=6a5023e2-2488-45ca-994d-66608d985b97","ios":"levelo://app?vid=6a5023e2-2488-45ca-994d-66608d985b97"},"vehicle_type_id":"4","last_reported":1701367756,"current_range_meters":31200,"station_id":"ce4bhn12rcd13ifvqgqg","pricing_plan_id":"free"},{"bike_id":"42335cd1-7845-453d-a240-a54527ead2ee","system_id":"levelo_inurba_marseille","lat":43.231793,"lon":5.400044,"is_reserved":false,"is_disabled":false,"rental_uris":{"android":"levelo://app?vid=42335cd1-7845-453d-a240-a54527ead2ee","ios":"levelo://app?vid=42335cd1-7845-453d-a240-a54527ead2ee"},"vehicle_type_id":"4","last_reported":1701367756,"current_range_meters":26800,"station_id":"ce4bhn12rcd13ifvqgqg","pricing_plan_id":"free"},{"bike_id":"f0e692c9-edcb-477f-a2be-0707cfced096","system_id":"levelo_inurba_marseille","lat":43.231793,"lon":5.400044,"is_reserved":false,"is_disabled":false,"rental_uris":{"android":"levelo://app?vid=f0e692c9-edcb-477f-a2be-0707cfced096","ios":"levelo://app?vid=f0e692c9-edcb-477f-a2be-0707cfced096"},"vehicle_type_id":"4","last_reported":1701367756,"current_range_meters":800,"station_id":"ce4bhn12rcd13ifvqgqg","pricing_plan_id":"free"},{"bike_id":"f3849a0f-3bf5-4260-b615-b29f9b64942e","system_id":"levelo_inurba_marseille","lat":43.231793,"lon":5.400044,"is_reserved":false,"is_disabled":false,"rental_uris":{"android":"levelo://app?vid=f3849a0f-3bf5-4260-b615-b29f9b64942e","ios":"levelo://app?vid=f3849a0f-3bf5-4260-b615-b29f9b64942e"},"vehicle_type_id":"4","last_reported":1701367756,"current_range_meters":31200,"station_id":"ce4bhn12rcd13ifvqgqg","pricing_plan_id":"free"},{"bike_id":"6581b977-a2dd-4600-a576-d75dbd21533a","system_id":"levelo_inurba_marseille","lat":43.231794,"lon":5.400052,"is_reserved":false,"is_disabled":false,"rental_uris":{"android":"levelo://app?vid=6581b977-a2dd-4600-a576-d75dbd21533a","ios":"levelo://app?vid=6581b977-a2dd-4600-a576-d75dbd21533a"},"vehicle_type_id":"4","last_reported":1701367756,"current_range_meters":26000,"station_id":"ce4bhn12rcd13ifvqgqg","pricing_plan_id":"free"},{"bike_id":"19b8acaa-dceb-455b-9ace-d1e3fb0a79ff","system_id":"levelo_inurba_marseille","lat":43.231794,"lon":5.400052,"is_reserved":false,"is_disabled":false,"rental_uris":{"android":"levelo://app?vid=19b8acaa-dceb-455b-9ace-d1e3fb0a79ff","ios":"levelo://app?vid=19b8acaa-dceb-455b-9ace-d1e3fb0a79ff"},"vehicle_type_id":"4","last_reported":1701367756,"current_range_meters":26800,"station_id":"ce4bhn12rcd13ifvqgqg","pricing_plan_id":"free"}]}}