{"last_updated":1729973362,"ttl":60,"version":"2.2","data":{"bikes":[{"bike_id":"c894f70f-2a6f-425b-ba00-c08216f3e7e3","system_id":"levelo_inurba_marseille","lat":43.29628,"lon":5.37169,"is_reserved":false,"is_disabled":false,"rental_uris":{"android":"levelo://app?vid=c894f70f-2a6f-425b-ba00-c08216f3e7e3","ios":"levelo://app?vid=c894f70f-2a6f-425b-ba00-c08216f3e7e3"},"vehicle_type_id":"4","last_reported":1729973363,"current_range_meters":40000,"station_id":"ce4bgnh2rcd13ifvqc0g","pricing_plan_id":"cebpf4jnsgd1na2vs0mg"},{"bike_id":"7ddba0c1-c137-46bb-8ecf-d884da6755c0","system_id":"levelo_inurba_marseille","lat":43.24075,"lon":5.37757,"is_reserved":false,"is_disabled":false,"rental_uris":{"android":"levelo://app?vid=7ddba0c1-c137-46bb-8ecf-d884da6755c0","ios":"levelo://app?vid=7ddba0c1-c137-46bb-8ecf-d884da6755c0"},"vehicle_type_id":"4","last_reported":1729973363,"current_range_meters":25600,"station_id":"ce4bhnp2rcd13ifvqgvg","pricing_plan_id":"cebpf4jnsgd1na2vs0mg"},{"bike_id":"69f4165a-13a2-4bd8-b4d6-abfa25614867","system_id":"levelo_inurba_marseille","lat":43.26807,"lon":5.40269,"is_reserved":false,"is_disabled":false,"rental_uris":{"android":"levelo://app?vid=69f4165a-13a2-4bd8-b4d6-abfa25614867","ios":"levelo://app?vid=69f4165a-13a2-4bd8-b4d6-abfa25614867"},"vehicle_type_id":"4","last_reported":1729973363,"current_range_meters":19600,"station_id":"ce501612rcd8frsf0b60","pricing_plan_id":"cebpf4jnsgd1na2vs0mg"},{"bike_id":"a5665962-8f9b-48f5-a5d3-fa16ab36a6ff","system_id":"levelo_inurba_marseille","lat":43.28078,"lon":5.3965,"is_reserved":false,"is_disabled":false,"rental_uris":{"android":"levelo://app?vid=a5665962-8f9b-48f5-a5d3-fa16ab36a6ff","ios":"levelo://app?vid=a5665962-8f9b-48f5-a5d3-fa16ab36a6ff"},"vehicle_type_id":"4","last_reported":1729973363,"current_range_meters":38000,"station_id":"ce4bho12rcd13ifvqh2g","pricing_plan_id":"cebpf4jnsgd1na2vs0mg"},{"bike_id":"26d518f2-e761-46eb-bc7c-d62463112389","system_id":"levelo_inurba_marseille","lat":43.29689,"lon":5.37289,"is_reserved":false,"is_disabled":false,"rental_uris":{"android":"levelo://app?vid=26d518f2-e761-46eb-bc7c-d62463112389","ios":"levelo://app?vid=26d518f2-e761-46eb-bc7c-d62463112389"},"vehicle_type_id":"4","last_reported":1729973363,"current_range_meters":40000,"station_id":"ce4bgk12rcd13ifvqbj0","pricing_plan_id":"cebpf4jnsgd1na2vs0mg"},{"bike_id":"48660d12-eacc-4f93-a06c-04c2aa9e37e4","system_id":"levelo_inurba_marseille","lat":43.268,"lon":5.40275,"is_reserved":false,"is_disabled":false,"rental_uris":{"android":"levelo://app?vid=48660d12-eacc-4f93-a06c-04c2aa9e37e4","ios":"levelo://app?vid=48660d12-eacc-4f93-a06c-04c2aa9e37e4"},"vehicle_type_id":"4","last_reported":1729973363,"current_range_meters":20800,"station_id":"ce501612rcd8frsf0b60","pricing_plan_id":"cebpf4jnsgd1na2vs0mg"},{"bike_id":"332166a0-17e4-49e8-bd99-62ae5090f294","system_id":"levelo_inurba_marseille","lat":43.29258,"lon":5.38448,"is_reserved":false,"is_disabled":false,"rental_uris":{"android":"levelo://app?vid=332166a0-17e4-49e8-bd99-62ae5090f294","ios":"levelo://app?vid=332166a0-17e4-49e8-bd99-62ae5090f294"},"vehicle_type_id":"4","last_reported":1729973363,"current_range_meters":38800,"station_id":"ce4bh692rcd13ifvqea0","pricing_plan_id":"cebpf4jnsgd1na2vs0mg"},{"bike_id":"b822f1e6-9076-43dd-aa7f-621df3cb0f71","system_id":"levelo_inurba_marseille","lat":43.29175,"lon":5.3716,"is_reserved":false,"is_disabled":false,"rental_uris":{"android":"levelo://app?vid=b822f1e6-9076-43dd-aa7f-621df3cb0f71","ios":"levelo://app?vid=b822f1e6-9076-43dd-aa7f-621df3cb0f71"},"vehicle_type_id":"4","last_reported":1729973363,"current_range_meters":38000,"station_id":"ce4bha92rcd13ifvqeh0","pricing_plan_id":"cebpf4jnsgd1na2vs0mg"},{"bike_id":"82f409f0-9c9f-4e73-930f-3ee9f785c37f","system_id":"levelo_inurba_marseille","lat":43.30216,"lon":5.3947,"is_reserved":false,"is_disabled":false,"rental_uris":{"android":"levelo://app?vid=82f409f0-9c9f-4e73-930f-3ee9f785c37f","ios":"levelo://app?vid=82f409f0-9c9f-4e73-930f-3ee9f785c37f"},"vehicle_type_id":"4","last_reported":1729973363,"current_range_meters":38800,"station_id":"ce4bh0p2rcd13ifvqd70","pricing_plan_id":"cebpf4jnsgd1na2vs0mg"},{"bike_id":"3381cd79-1316-4c50-ad86-ee5056cd0e14","system_id":"levelo_inurba_marseille","lat":43.26067,"lon":5.39398,"is_reserved":false,"is_disabled":false,"rental_uris":{"android":"levelo://app?vid=3381cd79-1316-4c50-ad86-ee5056cd0e14","ios":"levelo://app?vid=3381cd79-1316-4c50-ad86-ee5056cd0e14"},"vehicle_type_id":"4","last_reported":1729973363,"current_range_meters":35200,"station_id":"ce4bhh92rcd13ifvqfj0","pricing_plan_id":"cebpf4jnsgd1na2vs0mg"},{"bike_id":"16e9bde6-cded-4d6e-8f02-fc109b1bd1da","system_id":"levelo_inurba_marseille","lat":43.30593,"lon":5.37208,"is_reserved":false,"is_disabled":false,"rental_uris":{"android":"levelo://app?vid=16e9bde6-cded-4d6e-8f02-fc109b1bd1da","ios":"levelo://app?vid=16e9bde6-cded-4d6e-8f02-fc109b1bd1da"},"vehicle_type_id":"4","last_reported":1729973363,"current_range_meters":28800,"station_id":"ce4bgqh2rcd13ifvqc4g","pricing_plan_id":"cebpf4jnsgd1na2vs0mg"},{"bike_id":"a7c0cf59-46c7-407f-8733-488f8b043784","system_id":"levelo_inurba_marseille","lat":43.29916,"lon":5.38152,"is_reserved":false,"is_disabled":false,"rental_uris":{"android":"levelo://app?vid=a7c0cf59-46c7-407f-8733-488f8b043784","ios":"levelo://app?vid=a7c0cf59-46c7-407f-8733-488f8b043784"},"vehicle_type_id":"4","last_reported":1729973363,"current_range_meters":34000,"station_id":"ce4bgj12rcd13ifvqbc0","pricing_plan_id":"cebpf4jnsgd1na2vs0mg"},{"bike_id":"c06b1161-ab07-4aa6-abad-f4bb0905dc4e","system_id":"levelo_inurba_marseille","lat":43.2952,"lon":5.38535,"is_reserved":false,"is_disabled":false,"rental_uris":{"android":"levelo://app?vid=c06b1161-ab07-4aa6-abad-f4bb0905dc4e","ios":"levelo://app?vid=c06b1161-ab07-4aa6-abad-f4bb0905dc4e"},"vehicle_type_id":"4","last_reported":1729973363,"current_range_meters":27600,"station_id":"ce4bgih2rcd13ifvqba0","pricing_plan_id":"cebpf4jnsgd1na2vs0mg"},{"bike_id":"a15fa7ff-93f4-4c55-ad50-5f623b517d5d","system_id":"levelo_inurba_marseille","lat":43.2904,"lon":5.37562,"is_reserved":false,"is_disabled":false,"rental_uris":{"android":"levelo://app?vid=a15fa7ff-93f4-4c55-ad50-5f623b517d5d","ios":"levelo://app?vid=a15fa7ff-93f4-4c55-ad50-5f623b517d5d"},"vehicle_type_id":"4","last_reported":1729973363,"current_range_meters":38800,"station_id":"ce4bh692rcd13ifvqe90","pricing_plan_id":"cebpf4jnsgd1na2vs0mg"},{"bike_id":"47623020-0c90-41e5-bb48-79ad4b2c18cf","system_id":"levelo_inurba_marseille","lat":43.30874,"lon":5.39634,"is_reserved":false,"is_disabled":false,"rental_uris":{"android":"levelo://app?vid=47623020-0c90-41e5-bb48-79ad4b2c18cf","ios":"levelo://app?vid=47623020-0c90-41e5-bb48-79ad4b2c18cf"},"vehicle_type_id":"4","last_reported":1729973363,"current_range_meters":39200,"station_id":"ce4bh012rcd13ifvqcv0","pricing_plan_id":"cebpf4jnsgd1na2vs0mg"},{"bike_id":"e7c10702-9019-46f5-afdb-0f55cecf6380","system_id":"levelo_inurba_marseille","lat":43.31164,"lon":5.38716,"is_reserved":false,"is_disabled":false,"rental_uris":{"android":"levelo://app?vid=e7c10702-9019-46f5-afdb-0f55cecf6380","ios":"levelo://app?vid=e7c10702-9019-46f5-afdb-0f55cecf6380"},"vehicle_type_id":"4","last_reported":1729973363,"current_range_meters":20400,"station_id":"ce4bgv12rcd13ifvqcp0","pricing_plan_id":"cebpf4jnsgd1na2vs0mg"},{"bike_id":"a4418c4a-7e8f-402f-8ae8-b6f6bf553309","system_id":"levelo_inurba_marseille","lat":43.32055,"lon":5.41541,"is_reserved":false,"is_disabled":false,"rental_uris":{"android":"levelo://app?vid=a4418c4a-7e8f-402f-8ae8-b6f6bf553309","ios":"levelo://app?vid=a4418c4a-7e8f-402f-8ae8-b6f6bf553309"},"vehicle_type_id":"4","last_reported":1729973363,"current_range_meters":38400,"station_id":"ce4bhq92rcd13ifvqhkg","pricing_plan_id":"cebpf4jnsgd1na2vs0mg"},{"bike_id":"6ef9c451-07a1-433a-a702-ff7bb7c5a616","system_id":"levelo_inurba_marseille","lat":43.30446,"lon":5.39742,"is_reserved":false,"is_disabled":false,"rental_uris":{"android":"levelo://app?vid=6ef9c451-07a1-433a-a702-ff7bb7c5a616","ios":"levelo://app?vid=6ef9c451-07a1-433a-a702-ff7bb7c5a616"},"vehicle_type_id":"4","last_reported":1729973363,"current_range_meters":32400,"station_id":"ce4bh092rcd13ifvqd20","pricing_plan_id":"cebpf4jnsgd1na2vs0mg"},{"bike_id":"0487dd8b-ffb0-410d-8701-09fec5c117cf","system_id":"levelo_inurba_marseille","lat":43.32281,"lon":5.38266,"is_reserved":false,"is_disabled":false,"rental_uris":{"android":"levelo://app?vid=0487dd8b-ffb0-410d-8701-09fec5c117cf","ios":"levelo://app?vid=0487dd8b-ffb0-410d-8701-09fec5c117cf"},"vehicle_type_id":"4","last_reported":1729973363,"current_range_meters":3600,"station_id":"ce4bhr12rcd13ifvqhqg","pricing_plan_id":"cebpf4jnsgd1na2vs0mg"},{"bike_id":"8e63658c-7f26-4765-b50b-ea85d84493d9","system_id":"levelo_inurba_marseille","lat":43.32673,"lon":5.40991,"is_reserved":false,"is_disabled":false,"rental_uris":{"android":"levelo://app?vid=8e63658c-7f26-4765-b50b-ea85d84493d9","ios":"levelo://app?vid=8e63658c-7f26-4765-b50b-ea85d84493d9"},"vehicle_type_id":"4","last_reported":1729973363,"current_range_meters":8400,"station_id":"ce4bhpp2rcd13ifvqhgg","pricing_plan_id":"cebpf4jnsgd1na2vs0mg"},{"bike_id":"78fa142a-540f-4add-96b9-80802b68d17b","system_id":"levelo_inurba_marseille","lat":43.29521,"lon":5.39033,"is_reserved":false,"is_disabled":false,"rental_uris":{"android":"levelo://app?vid=78fa142a-540f-4add-96b9-80802b68d17b","ios":"levelo://app?vid=78fa142a-540f-4add-96b9-80802b68d17b"},"vehicle_type_id":"4","last_reported":1729973363,"current_range_meters":22400,"station_id":"ce4bh3p2rcd13ifvqdp0","pricing_plan_id":"cebpf4jnsgd1na2vs0mg"},{"bike_id":"569b7a8b-260c-4a91-b446-1637f95c418f","system_id":"levelo_inurba_marseille","lat":43.29791,"lon":5.38104,"is_reserved":false,"is_disabled":false,"rental_uris":{"android":"levelo://app?vid=569b7a8b-260c-4a91-b446-1637f95c418f","ios":"levelo://app?vid=569b7a8b-260c-4a91-b446-1637f95c418f"},"vehicle_type_id":"4","last_reported":1729973363,"current_range_meters":36800,"station_id":"ce4bgip2rcd13ifvqbb0","pricing_plan_id":"cebpf4jnsgd1na2vs0mg"},{"bike_id":"62549f93-d342-45bb-a02e-c59e2942f4a9","system_id":"levelo_inurba_marseille","lat":43.29585,"lon":5.36744,"is_reserved":false,"is_disabled":false,"rental_uris":{"android":"levelo://app?vid=62549f93-d342-45bb-a02e-c59e2942f4a9","ios":"levelo://app?vid=62549f93-d342-45bb-a02e-c59e2942f4a9"},"vehicle_type_id":"4","last_reported":1729973363,"current_range_meters":38800,"station_id":"ce4bgph2rcd13ifvqc2g","pricing_plan_id":"cebpf4jnsgd1na2vs0mg"},{"bike_id":"54bcc0ea-cce7-4187-9cab-1ca588f3b085","system_id":"levelo_inurba_marseille","lat":43.24653,"lon":5.38895,"is_reserved":false,"is_disabled":false,"rental_uris":{"android":"levelo://app?vid=54bcc0ea-cce7-4187-9cab-1ca588f3b085","ios":"levelo://app?vid=54bcc0ea-cce7-4187-9cab-1ca588f3b085"},"vehicle_type_id":"4","last_reported":1729973363,"current_range_meters":25600,"station_id":"ce4bhg12rcd13ifvqf60","pricing_plan_id":"cebpf4jnsgd1na2vs0mg"},{"bike_id":"e2aa58f7-d33c-4137-a1e4-dac1de2e1489","system_id":"levelo_inurba_marseille","lat":43.30534,"lon":5.3671,"is_reserved":false,"is_disabled":false,"rental_uris":{"android":"levelo://app?vid=e2aa58f7-d33c-4137-a1e4-dac1de2e1489","ios":"levelo://app?vid=e2aa58f7-d33c-4137-a1e4-dac1de2e1489"},"vehicle_type_id":"4","last_reported":1729973363,"current_range_meters":39200,"station_id":"ce4bgrp2rcd13ifvqc9g","pricing_plan_id":"cebpf4jnsgd1na2vs0mg"},{"bike_id":"348ce854-d9c3-4e5a-a4a9-1fa42d764b3e","system_id":"levelo_inurba_marseille","lat":43.27826,"lon":5.39202,"is_reserved":false,"is_disabled":false,"rental_uris":{"android":"levelo://app?vid=348ce854-d9c3-4e5a-a4a9-1fa42d764b3e","ios":"levelo://app?vid=348ce854-d9c3-4e5a-a4a9-1fa42d764b3e"},"vehicle_type_id":"4","last_reported":1729973363,"current_range_meters":30800,"station_id":"ce4bhjp2rcd13ifvqga0","pricing_plan_id":"cebpf4jnsgd1na2vs0mg"},{"bike_id":"d35e5b6c-fb08-4a71-b70f-638bcfea4cf6","system_id":"levelo_inurba_marseille","lat":43.31261,"lon":5.40175,"is_reserved":false,"is_disabled":false,"rental_uris":{"android":"levelo://app?vid=d35e5b6c-fb08-4a71-b70f-638bcfea4cf6","ios":"levelo://app?vid=d35e5b6c-fb08-4a71-b70f-638bcfea4cf6"},"vehicle_type_id":"4","last_reported":1729973363,"current_range_meters":39200,"station_id":"ce4bh092rcd13ifvqd30","pricing_plan_id":"cebpf4jnsgd1na2vs0mg"},{"bike_id":"0a07ef6f-740e-42d4-8604-c971f545392e","system_id":"levelo_inurba_marseille","lat":43.30143,"lon":5.39876,"is_reserved":false,"is_disabled":false,"rental_uris":{"android":"levelo://app?vid=0a07ef6f-740e-42d4-8604-c971f545392e","ios":"levelo://app?vid=0a07ef6f-740e-42d4-8604-c971f545392e"},"vehicle_type_id":"4","last_reported":1729973363,"current_range_meters":15200,"station_id":"ce4bh0h2rcd13ifvqd40","pricing_plan_id":"cebpf4jnsgd1na2vs0mg"},{"bike_id":"633bdd84-8a27-486c-8d5a-62bd9dd56f9f","system_id":"levelo_inurba_marseille","lat":43.2695,"lon":5.40248,"is_reserved":false,"is_disabled":false,"rental_uris":{"android":"levelo://app?vid=633bdd84-8a27-486c-8d5a-62bd9dd56f9f","ios":"levelo://app?vid=633bdd84-8a27-486c-8d5a-62bd9dd56f9f"},"vehicle_type_id":"4","last_reported":1729973363,"current_range_meters":40000,"station_id":"cjm6bp8fraef2m0cb0m0","pricing_plan_id":"cebpf4jnsgd1na2vs0mg"},{"bike_id":"365042da-fe2f-49c8-bdd1-2a0373063ba3","system_id":"levelo_inurba_marseille","lat":43.29624,"lon":5.37171,"is_reserved":false,"is_disabled":false,"rental_uris":{"android":"levelo://app?vid=365042da-fe2f-49c8-bdd1-2a0373063ba3","ios":"levelo://app?vid=365042da-fe2f-49c8-bdd1-2a0373063ba3"},"vehicle_type_id":"4","last_reported":1729973363,"current_range_meters":30000,"station_id":"ce4bgnh2rcd13ifvqc0g","pricing_plan_id":"cebpf4jnsgd1na2vs0mg"},{"bike_id":"7ad5cee9-1700-4df5-9506-106d58079bca","system_id":"levelo_inurba_marseille","lat":43.2962,"lon":5.37149,"is_reserved":false,"is_disabled":false,"rental_uris":{"android":"levelo://app?vid=7ad5cee9-1700-4df5-9506-106d58079bca","ios":"levelo://app?vid=7ad5cee9-1700-4df5-9506-106d58079bca"},"vehicle_type_id":"4","last_reported":1729973363,"current_range_meters":40000,"station_id":"ce4bgnh2rcd13ifvqc0g","pricing_plan_id":"cebpf4jnsgd1na2vs0mg"},{"bike_id":"29f66952-0970-424a-850e-2421b29f59ce","system_id":"levelo_inurba_marseille","lat":43.25119,"lon":5.40315,"is_reserved":false,"is_disabled":false,"rental_uris":{"android":"levelo://app?vid=29f66952-0970-424a-850e-2421b29f59ce","ios":"levelo://app?vid=29f66952-0970-424a-850e-2421b29f59ce"},"vehicle_type_id":"4","last_reported":1729973363,"current_range_meters":39200,"station_id":"ce4bhlh2rcd13ifvqgig","pricing_plan_id":"cebpf4jnsgd1na2vs0mg"},{"bike_id":"81d2a2b3-6398-433a-8700-06439361aee9","system_id":"levelo_inurba_marseille","lat":43.25491,"lon":5.37649,"is_reserved":false,"is_disabled":false,"rental_uris":{"android":"levelo://app?vid=81d2a2b3-6398-433a-8700-06439361aee9","ios":"levelo://app?vid=81d2a2b3-6398-433a-8700-06439361aee9"},"vehicle_type_id":"4","last_reported":1729973363,"current_range_meters":30000,"station_id":"ce4bhh12rcd13ifvqff0","pricing_plan_id":"cebpf4jnsgd1na2vs0mg"},{"bike_id":"7c18295e-37bd-4aba-ab2e-5f3a556ffc92","system_id":"levelo_inurba_marseille","lat":43.27319,"lon":5.39101,"is_reserved":false,"is_disabled":false,"rental_uris":{"android":"levelo://app?vid=7c18295e-37bd-4aba-ab2e-5f3a556ffc92","ios":"levelo://app?vid=7c18295e-37bd-4aba-ab2e-5f3a556ffc92"},"vehicle_type_id":"4","last_reported":1729973363,"current_range_meters":36400,"station_id":"ce4bhgp2rcd13ifvqfe0","pricing_plan_id":"cebpf4jnsgd1na2vs0mg"},{"bike_id":"274c5543-fc59-4065-afdf-26e3ef14b710","system_id":"levelo_inurba_marseille","lat":43.29278,"lon":5.40117,"is_reserved":false,"is_disabled":false,"rental_uris":{"android":"levelo://app?vid=274c5543-fc59-4065-afdf-26e3ef14b710","ios":"levelo://app?vid=274c5543-fc59-4065-afdf-26e3ef14b710"},"vehicle_type_id":"4","last_reported":1729973363,"current_range_meters":32000,"station_id":"ce4bh312rcd13ifvqdk0","pricing_plan_id":"cebpf4jnsgd1na2vs0mg"},{"bike_id":"85dd4ed2-22fd-4013-b128-2e451b6ac1c5","system_id":"levelo_inurba_marseille","lat":43.29264,"lon":5.3843,"is_reserved":false,"is_disabled":false,"rental_uris":{"android":"levelo://app?vid=85dd4ed2-22fd-4013-b128-2e451b6ac1c5","ios":"levelo://app?vid=85dd4ed2-22fd-4013-b128-2e451b6ac1c5"},"vehicle_type_id":"4","last_reported":1729973363,"current_range_meters":12400,"station_id":"ce4bh692rcd13ifvqea0","pricing_plan_id":"cebpf4jnsgd1na2vs0mg"},{"bike_id":"6dffe3f6-ae62-40b1-a0e8-b66a1ae742df","system_id":"levelo_inurba_marseille","lat":43.29416,"lon":5.3862,"is_reserved":false,"is_disabled":false,"rental_uris":{"android":"levelo://app?vid=6dffe3f6-ae62-40b1-a0e8-b66a1ae742df","ios":"levelo://app?vid=6dffe3f6-ae62-40b1-a0e8-b66a1ae742df"},"vehicle_type_id":"4","last_reported":1729973363,"current_range_meters":26800,"station_id":"ce4bh2h2rcd13ifvqdh0","pricing_plan_id":"cebpf4jnsgd1na2vs0mg"},{"bike_id":"c8f33dbe-8d46-4679-b0bd-686b38e43e1d","system_id":"levelo_inurba_marseille","lat":43.24545,"lon":5.39525,"is_reserved":false,"is_disabled":false,"rental_uris":{"android":"levelo://app?vid=c8f33dbe-8d46-4679-b0bd-686b38e43e1d","ios":"levelo://app?vid=c8f33dbe-8d46-4679-b0bd-686b38e43e1d"},"vehicle_type_id":"4","last_reported":1729973363,"current_range_meters":32400,"station_id":"ce4bhlp2rcd13ifvqgjg","pricing_plan_id":"cebpf4jnsgd1na2vs0mg"},{"bike_id":"a589bf84-5e5c-4ff0-819d-b09734427918","system_id":"levelo_inurba_marseille","lat":43.28727,"lon":5.37934,"is_reserved":false,"is_disabled":false,"rental_uris":{"android":"levelo://app?vid=a589bf84-5e5c-4ff0-819d-b09734427918","ios":"levelo://app?vid=a589bf84-5e5c-4ff0-819d-b09734427918"},"vehicle_type_id":"4","last_reported":1729973363,"current_range_meters":19200,"station_id":"ce4bh9p2rcd13ifvqec0","pricing_plan_id":"cebpf4jnsgd1na2vs0mg"},{"bike_id":"1d1486ac-b582-4105-8e78-b87f875c9823","system_id":"levelo_inurba_marseille","lat":43.28715,"lon":5.37938,"is_reserved":false,"is_disabled":false,"rental_uris":{"android":"levelo://app?vid=1d1486ac-b582-4105-8e78-b87f875c9823","ios":"levelo://app?vid=1d1486ac-b582-4105-8e78-b87f875c9823"},"vehicle_type_id":"4","last_reported":1729973363,"current_range_meters":33200,"station_id":"ce4bh9p2rcd13ifvqec0","pricing_plan_id":"cebpf4jnsgd1na2vs0mg"},{"bike_id":"8c0c2fa1-37f9-48f1-b246-0c1a1c47fbb2","system_id":"levelo_inurba_marseille","lat":43.26572,"lon":5.39003,"is_reserved":false,"is_disabled":false,"rental_uris":{"android":"levelo://app?vid=8c0c2fa1-37f9-48f1-b246-0c1a1c47fbb2","ios":"levelo://app?vid=8c0c2fa1-37f9-48f1-b246-0c1a1c47fbb2"},"vehicle_type_id":"4","last_reported":1729973363,"current_range_meters":8000,"station_id":"ce4bhe12rcd13ifvqf30","pricing_plan_id":"cebpf4jnsgd1na2vs0mg"},{"bike_id":"c2bfe2c3-48d8-4e71-afac-c68b85a41807","system_id":"levelo_inurba_marseille","lat":43.29189,"lon":5.35797,"is_reserved":false,"is_disabled":false,"rental_uris":{"android":"levelo://app?vid=c2bfe2c3-48d8-4e71-afac-c68b85a41807","ios":"levelo://app?vid=c2bfe2c3-48d8-4e71-afac-c68b85a41807"},"vehicle_type_id":"4","last_reported":1729973363,"current_range_meters":24400,"station_id":"ce4bhb12rcd13ifvqel0","pricing_plan_id":"cebpf4jnsgd1na2vs0mg"},{"bike_id":"8d6f4f9e-37fa-44c2-8185-2fd8141de7a2","system_id":"levelo_inurba_marseille","lat":43.29259,"lon":5.38434,"is_reserved":false,"is_disabled":false,"rental_uris":{"android":"levelo://app?vid=8d6f4f9e-37fa-44c2-8185-2fd8141de7a2","ios":"levelo://app?vid=8d6f4f9e-37fa-44c2-8185-2fd8141de7a2"},"vehicle_type_id":"4","last_reported":1729973363,"current_range_meters":37600,"station_id":"ce4bh692rcd13ifvqea0","pricing_plan_id":"cebpf4jnsgd1na2vs0mg"},{"bike_id":"ffa2a59a-9ef7-45e9-b043-0070963392db","system_id":"levelo_inurba_marseille","lat":43.29099,"lon":5.38138,"is_reserved":false,"is_disabled":false,"rental_uris":{"android":"levelo://app?vid=ffa2a59a-9ef7-45e9-b043-0070963392db","ios":"levelo://app?vid=ffa2a59a-9ef7-45e9-b043-0070963392db"},"vehicle_type_id":"4","last_reported":1729973363,"current_range_meters":39200,"station_id":"ce4bh512rcd13ifvqe2g","pricing_plan_id":"cebpf4jnsgd1na2vs0mg"},{"bike_id":"e6d3bcb8-2f97-4379-9ffc-70495f1bd10c","system_id":"levelo_inurba_marseille","lat":43.2732,"lon":5.39086,"is_reserved":false,"is_disabled":false,"rental_uris":{"android":"levelo://app?vid=e6d3bcb8-2f97-4379-9ffc-70495f1bd10c","ios":"levelo://app?vid=e6d3bcb8-2f97-4379-9ffc-70495f1bd10c"},"vehicle_type_id":"4","last_reported":1729973363,"current_range_meters":16800,"station_id":"ce4bhgp2rcd13ifvqfe0","pricing_plan_id":"cebpf4jnsgd1na2vs0mg"},{"bike_id":"3ad4bfe0-e45b-4791-a14e-a9bbe2edd8ef","system_id":"levelo_inurba_marseille","lat":43.27834,"lon":5.3921,"is_reserved":false,"is_disabled":false,"rental_uris":{"android":"levelo://app?vid=3ad4bfe0-e45b-4791-a14e-a9bbe2edd8ef","ios":"levelo://app?vid=3ad4bfe0-e45b-4791-a14e-a9bbe2edd8ef"},"vehicle_type_id":"4","last_reported":1729973363,"current_range_meters":30400,"station_id":"ce4bhjp2rcd13ifvqga0","pricing_plan_id":"cebpf4jnsgd1na2vs0mg"},{"bike_id":"bdebca23-d953-4046-be99-bf6c27ec1b5d","system_id":"levelo_inurba_marseille","lat":43.29958,"lon":5.4132,"is_reserved":false,"is_disabled":false,"rental_uris":{"android":"levelo://app?vid=bdebca23-d953-4046-be99-bf6c27ec1b5d","ios":"levelo://app?vid=bdebca23-d953-4046-be99-bf6c27ec1b5d"},"vehicle_type_id":"4","last_reported":1729973363,"current_range_meters":30800,"station_id":"ce4bhp12rcd13ifvqh9g","pricing_plan_id":"cebpf4jnsgd1na2vs0mg"},{"bike_id":"5de0a329-7698-4bce-b772-88bd5818048d","system_id":"levelo_inurba_marseille","lat":43.26065,"lon":5.39392,"is_reserved":false,"is_disabled":false,"rental_uris":{"android":"levelo://app?vid=5de0a329-7698-4bce-b772-88bd5818048d","ios":"levelo://app?vid=5de0a329-7698-4bce-b772-88bd5818048d"},"vehicle_type_id":"4","last_reported":1729973363,"current_range_meters":36800,"station_id":"ce4bhh92rcd13ifvqfj0","pricing_plan_id":"cebpf4jnsgd1na2vs0mg"},{"bike_id":"373beb12-0cb8-4203-a7f1-f364e7fa360d","system_id":"levelo_inurba_marseille","lat":43.25586,"lon":5.38235,"is_reserved":false,"is_disabled":false,"rental_uris":{"android":"levelo://app?vid=373beb12-0cb8-4203-a7f1-f364e7fa360d","ios":"levelo://app?vid=373beb12-0cb8-4203-a7f1-f364e7fa360d"},"vehicle_type_id":"4","last_reported":1729973363,"current_range_meters":40000,"station_id":"ce4bhih2rcd13ifvqfs0","pricing_plan_id":"cebpf4jnsgd1na2vs0mg"},{"bike_id":"c25d9b60-5434-4e6f-b007-7ec2e900a21f","system_id":"levelo_inurba_marseille","lat":43.293101,"lon":5.371694,"is_reserved":false,"is_disabled":false,"rental_uris":{"android":"levelo://app?vid=c25d9b60-5434-4e6f-b007-7ec2e900a21f","ios":"levelo://app?vid=c25d9b60-5434-4e6f-b007-7ec2e900a21f"},"vehicle_type_id":"4","last_reported":1729973363,"current_range_meters":38400,"station_id":"ce4bgh92rcd13ifvqb40","pricing_plan_id":"cebpf4jnsgd1na2vs0mg"},{"bike_id":"27f39214-437b-402f-ba70-e8fd46f4e41b","system_id":"levelo_inurba_marseille","lat":43.28491,"lon":5.36933,"is_reserved":false,"is_disabled":false,"rental_uris":{"android":"levelo://app?vid=27f39214-437b-402f-ba70-e8fd46f4e41b","ios":"levelo://app?vid=27f39214-437b-402f-ba70-e8fd46f4e41b"},"vehicle_type_id":"4","last_reported":1729973363,"current_range_meters":23200,"station_id":"","pricing_plan_id":"cebpf4jnsgd1na2vs0mg"},{"bike_id":"f9037bee-8f49-46b6-a280-991e84e20686","system_id":"levelo_inurba_marseille","lat":43.28714,"lon":5.37938,"is_reserved":false,"is_disabled":false,"rental_uris":{"android":"levelo://app?vid=f9037bee-8f49-46b6-a280-991e84e20686","ios":"levelo://app?vid=f9037bee-8f49-46b6-a280-991e84e20686"},"vehicle_type_id":"4","last_reported":1729973363,"current_range_meters":38800,"station_id":"ce4bh9p2rcd13ifvqec0","pricing_plan_id":"cebpf4jnsgd1na2vs0mg"},{"bike_id":"9af8ba72-6e5c-4bec-865b-57ddfca3bd51","system_id":"levelo_inurba_marseille","lat":43.2904,"lon":5.35901,"is_reserved":false,"is_disabled":false,"rental_uris":{"android":"levelo://app?vid=9af8ba72-6e5c-4bec-865b-57ddfca3bd51","ios":"levelo://app?vid=9af8ba72-6e5c-4bec-865b-57ddfca3bd51"},"vehicle_type_id":"4","last_reported":1729973363,"current_range_meters":40000,"station_id":"ce4bha92rcd13ifvqeg0","pricing_plan_id":"cebpf4jnsgd1na2vs0mg"},{"bike_id":"e7360508-6978-487a-a79b-5e2dad5d0ea3","system_id":"levelo_inurba_marseille","lat":43.22936,"lon":5.35375,"is_reserved":false,"is_disabled":false,"rental_uris":{"android":"levelo://app?vid=e7360508-6978-487a-a79b-5e2dad5d0ea3","ios":"levelo://app?vid=e7360508-6978-487a-a79b-5e2dad5d0ea3"},"vehicle_type_id":"4","last_reported":1729973363,"current_range_meters":28400,"station_id":"cpo3532slgdg3j2ikp40","pricing_plan_id":"cebpf4jnsgd1na2vs0mg"},{"bike_id":"2f192b19-8c78-44a5-a482-8b3595e4a56b","system_id":"levelo_inurba_marseille","lat":43.26207,"lon":5.37442,"is_reserved":false,"is_disabled":false,"rental_uris":{"android":"levelo://app?vid=2f192b19-8c78-44a5-a482-8b3595e4a56b","ios":"levelo://app?vid=2f192b19-8c78-44a5-a482-8b3595e4a56b"},"vehicle_type_id":"4","last_reported":1729973363,"current_range_meters":37600,"station_id":"ce4bhgp2rcd13ifvqfc0","pricing_plan_id":"cebpf4jnsgd1na2vs0mg"},{"bike_id":"697c0c8e-ccfe-4f85-8113-0e9655f941d2","system_id":"levelo_inurba_marseille","lat":43.29258,"lon":5.3844,"is_reserved":false,"is_disabled":false,"rental_uris":{"android":"levelo://app?vid=697c0c8e-ccfe-4f85-8113-0e9655f941d2","ios":"levelo://app?vid=697c0c8e-ccfe-4f85-8113-0e9655f941d2"},"vehicle_type_id":"4","last_reported":1729973363,"current_range_meters":26000,"station_id":"ce4bh692rcd13ifvqea0","pricing_plan_id":"cebpf4jnsgd1na2vs0mg"},{"bike_id":"83314e64-5360-4cb7-9d2d-94d82dca00ca","system_id":"levelo_inurba_marseille","lat":43.29908,"lon":5.3747,"is_reserved":false,"is_disabled":false,"rental_uris":{"android":"levelo://app?vid=83314e64-5360-4cb7-9d2d-94d82dca00ca","ios":"levelo://app?vid=83314e64-5360-4cb7-9d2d-94d82dca00ca"},"vehicle_type_id":"4","last_reported":1729973363,"current_range_meters":18800,"station_id":"ce4bgjh2rcd13ifvqbg0","pricing_plan_id":"cebpf4jnsgd1na2vs0mg"},{"bike_id":"caeec887-79eb-4352-9559-d89a24b290f8","system_id":"levelo_inurba_marseille","lat":43.30147,"lon":5.39857,"is_reserved":false,"is_disabled":false,"rental_uris":{"android":"levelo://app?vid=caeec887-79eb-4352-9559-d89a24b290f8","ios":"levelo://app?vid=caeec887-79eb-4352-9559-d89a24b290f8"},"vehicle_type_id":"4","last_reported":1729973363,"current_range_meters":38800,"station_id":"ce4bh0h2rcd13ifvqd40","pricing_plan_id":"cebpf4jnsgd1na2vs0mg"},{"bike_id":"3c74d177-f7d5-46aa-be7b-aa6de483a411","system_id":"levelo_inurba_marseille","lat":43.29985,"lon":5.37184,"is_reserved":false,"is_disabled":false,"rental_uris":{"android":"levelo://app?vid=3c74d177-f7d5-46aa-be7b-aa6de483a411","ios":"levelo://app?vid=3c74d177-f7d5-46aa-be7b-aa6de483a411"},"vehicle_type_id":"4","last_reported":1729973363,"current_range_meters":22400,"station_id":"ce4bgr92rcd13ifvqc7g","pricing_plan_id":"cebpf4jnsgd1na2vs0mg"},{"bike_id":"34c0b19e-e327-425b-bf09-25bec92dd9c4","system_id":"levelo_inurba_marseille","lat":43.29324,"lon":5.45468,"is_reserved":false,"is_disabled":false,"rental_uris":{"android":"levelo://app?vid=34c0b19e-e327-425b-bf09-25bec92dd9c4","ios":"levelo://app?vid=34c0b19e-e327-425b-bf09-25bec92dd9c4"},"vehicle_type_id":"4","last_reported":1729973363,"current_range_meters":12400,"station_id":"","pricing_plan_id":"cebpf4jnsgd1na2vs0mg"},{"bike_id":"ba0625f3-7924-48c0-90ab-d464284023ba","system_id":"levelo_inurba_marseille","lat":43.25117,"lon":5.40321,"is_reserved":false,"is_disabled":false,"rental_uris":{"android":"levelo://app?vid=ba0625f3-7924-48c0-90ab-d464284023ba","ios":"levelo://app?vid=ba0625f3-7924-48c0-90ab-d464284023ba"},"vehicle_type_id":"4","last_reported":1729973363,"current_range_meters":24000,"station_id":"ce4bhlh2rcd13ifvqgig","pricing_plan_id":"cebpf4jnsgd1na2vs0mg"},{"bike_id":"4e1b89e2-f965-455a-b9ce-8fa933558641","system_id":"levelo_inurba_marseille","lat":43.2465,"lon":5.38902,"is_reserved":false,"is_disabled":false,"rental_uris":{"android":"levelo://app?vid=4e1b89e2-f965-455a-b9ce-8fa933558641","ios":"levelo://app?vid=4e1b89e2-f965-455a-b9ce-8fa933558641"},"vehicle_type_id":"4","last_reported":1729973363,"current_range_meters":40000,"station_id":"ce4bhg12rcd13ifvqf60","pricing_plan_id":"cebpf4jnsgd1na2vs0mg"},{"bike_id":"f45e84ef-2dc3-4840-9e52-788831388b9c","system_id":"levelo_inurba_marseille","lat":43.2932,"lon":5.37168,"is_reserved":false,"is_disabled":false,"rental_uris":{"android":"levelo://app?vid=f45e84ef-2dc3-4840-9e52-788831388b9c","ios":"levelo://app?vid=f45e84ef-2dc3-4840-9e52-788831388b9c"},"vehicle_type_id":"4","last_reported":1729973363,"current_range_meters":24000,"station_id":"ce4bgh92rcd13ifvqb40","pricing_plan_id":"cebpf4jnsgd1na2vs0mg"},{"bike_id":"5063f4af-2df5-4a8d-971c-2e45b710db02","system_id":"levelo_inurba_marseille","lat":43.25584,"lon":5.3824,"is_reserved":false,"is_disabled":false,"rental_uris":{"android":"levelo://app?vid=5063f4af-2df5-4a8d-971c-2e45b710db02","ios":"levelo://app?vid=5063f4af-2df5-4a8d-971c-2e45b710db02"},"vehicle_type_id":"4","last_reported":1729973363,"current_range_meters":36400,"station_id":"ce4bhih2rcd13ifvqfs0","pricing_plan_id":"cebpf4jnsgd1na2vs0mg"},{"bike_id":"e16ba0fb-c8f9-4074-a1c8-ad626ad5602f","system_id":"levelo_inurba_marseille","lat":43.26942,"lon":5.40245,"is_reserved":false,"is_disabled":false,"rental_uris":{"android":"levelo://app?vid=e16ba0fb-c8f9-4074-a1c8-ad626ad5602f","ios":"levelo://app?vid=e16ba0fb-c8f9-4074-a1c8-ad626ad5602f"},"vehicle_type_id":"4","last_reported":1729973363,"current_range_meters":40000,"station_id":"cjm6bp8fraef2m0cb0m0","pricing_plan_id":"cebpf4jnsgd1na2vs0mg"},{"bike_id":"2f9b81e9-8eab-49c2-9532-99b532903ea5","system_id":"levelo_inurba_marseille","lat":43.2942,"lon":5.38628,"is_reserved":false,"is_disabled":false,"rental_uris":{"android":"levelo://app?vid=2f9b81e9-8eab-49c2-9532-99b532903ea5","ios":"levelo://app?vid=2f9b81e9-8eab-49c2-9532-99b532903ea5"},"vehicle_type_id":"4","last_reported":1729973363,"current_range_meters":27600,"station_id":"ce4bh2h2rcd13ifvqdh0","pricing_plan_id":"cebpf4jnsgd1na2vs0mg"},{"bike_id":"2edc80c9-b463-4c64-9284-a8d5b48fa5a2","system_id":"levelo_inurba_marseille","lat":43.29523,"lon":5.39045,"is_reserved":false,"is_disabled":false,"rental_uris":{"android":"levelo://app?vid=2edc80c9-b463-4c64-9284-a8d5b48fa5a2","ios":"levelo://app?vid=2edc80c9-b463-4c64-9284-a8d5b48fa5a2"},"vehicle_type_id":"4","last_reported":1729973363,"current_range_meters":25600,"station_id":"ce4bh3p2rcd13ifvqdp0","pricing_plan_id":"cebpf4jnsgd1na2vs0mg"},{"bike_id":"516d2c7e-30e2-429a-adec-fbbadb0d1d0b","system_id":"levelo_inurba_marseille","lat":43.28611,"lon":5.35101,"is_reserved":false,"is_disabled":false,"rental_uris":{"android":"levelo://app?vid=516d2c7e-30e2-429a-adec-fbbadb0d1d0b","ios":"levelo://app?vid=516d2c7e-30e2-429a-adec-fbbadb0d1d0b"},"vehicle_type_id":"4","last_reported":1729973363,"current_range_meters":38800,"station_id":"ce4bhch2rcd13ifvqeug","pricing_plan_id":"cebpf4jnsgd1na2vs0mg"},{"bike_id":"43650981-6b24-4a34-b5e2-fd816b5645ae","system_id":"levelo_inurba_marseille","lat":43.29268,"lon":5.38435,"is_reserved":false,"is_disabled":false,"rental_uris":{"android":"levelo://app?vid=43650981-6b24-4a34-b5e2-fd816b5645ae","ios":"levelo://app?vid=43650981-6b24-4a34-b5e2-fd816b5645ae"},"vehicle_type_id":"4","last_reported":1729973363,"current_range_meters":38400,"station_id":"ce4bh692rcd13ifvqea0","pricing_plan_id":"cebpf4jnsgd1na2vs0mg"},{"bike_id":"ffd5d84f-342c-4a9a-8e40-2bda9364973d","system_id":"levelo_inurba_marseille","lat":43.28433,"lon":5.39186,"is_reserved":false,"is_disabled":false,"rental_uris":{"android":"levelo://app?vid=ffd5d84f-342c-4a9a-8e40-2bda9364973d","ios":"levelo://app?vid=ffd5d84f-342c-4a9a-8e40-2bda9364973d"},"vehicle_type_id":"4","last_reported":1729973363,"current_range_meters":26800,"station_id":"ce4bhoh2rcd13ifvqh5g","pricing_plan_id":"cebpf4jnsgd1na2vs0mg"},{"bike_id":"6875a1a6-32b9-4783-93f5-84a3a0c85f67","system_id":"levelo_inurba_marseille","lat":43.23065,"lon":5.35492,"is_reserved":false,"is_disabled":false,"rental_uris":{"android":"levelo://app?vid=6875a1a6-32b9-4783-93f5-84a3a0c85f67","ios":"levelo://app?vid=6875a1a6-32b9-4783-93f5-84a3a0c85f67"},"vehicle_type_id":"4","last_reported":1729973363,"current_range_meters":28400,"station_id":"cpo3342slgdg3j2ifvpg","pricing_plan_id":"cebpf4jnsgd1na2vs0mg"},{"bike_id":"4d119be0-f244-48af-924a-f5cd3481568e","system_id":"levelo_inurba_marseille","lat":43.30151,"lon":5.37432,"is_reserved":false,"is_disabled":false,"rental_uris":{"android":"levelo://app?vid=4d119be0-f244-48af-924a-f5cd3481568e","ios":"levelo://app?vid=4d119be0-f244-48af-924a-f5cd3481568e"},"vehicle_type_id":"4","last_reported":1729973363,"current_range_meters":38800,"station_id":"ce4bgs92rcd13ifvqcc0","pricing_plan_id":"cebpf4jnsgd1na2vs0mg"},{"bike_id":"6e3ac822-40c5-4ef0-8923-ff38f3a100d2","system_id":"levelo_inurba_marseille","lat":43.29849,"lon":5.36285,"is_reserved":false,"is_disabled":false,"rental_uris":{"android":"levelo://app?vid=6e3ac822-40c5-4ef0-8923-ff38f3a100d2","ios":"levelo://app?vid=6e3ac822-40c5-4ef0-8923-ff38f3a100d2"},"vehicle_type_id":"4","last_reported":1729973363,"current_range_meters":22800,"station_id":"ce4bgpp2rcd13ifvqc3g","pricing_plan_id":"cebpf4jnsgd1na2vs0mg"},{"bike_id":"4cd417c0-58b6-4cbf-b174-1e7c7997c0be","system_id":"levelo_inurba_marseille","lat":43.28358,"lon":5.38621,"is_reserved":false,"is_disabled":false,"rental_uris":{"android":"levelo://app?vid=4cd417c0-58b6-4cbf-b174-1e7c7997c0be","ios":"levelo://app?vid=4cd417c0-58b6-4cbf-b174-1e7c7997c0be"},"vehicle_type_id":"4","last_reported":1729973363,"current_range_meters":25200,"station_id":"ce4bh492rcd13ifvqdvg","pricing_plan_id":"cebpf4jnsgd1na2vs0mg"},{"bike_id":"c0af88b4-6305-4b52-a030-29d271423e54","system_id":"levelo_inurba_marseille","lat":43.27071,"lon":5.42281,"is_reserved":false,"is_disabled":false,"rental_uris":{"android":"levelo://app?vid=c0af88b4-6305-4b52-a030-29d271423e54","ios":"levelo://app?vid=c0af88b4-6305-4b52-a030-29d271423e54"},"vehicle_type_id":"4","last_reported":1729973363,"current_range_meters":26800,"station_id":"ce4bhk92rcd13ifvqgb0","pricing_plan_id":"cebpf4jnsgd1na2vs0mg"},{"bike_id":"c448e113-adc8-4d15-ac18-267c02c0f060","system_id":"levelo_inurba_marseille","lat":43.29619,"lon":5.371599,"is_reserved":false,"is_disabled":false,"rental_uris":{"android":"levelo://app?vid=c448e113-adc8-4d15-ac18-267c02c0f060","ios":"levelo://app?vid=c448e113-adc8-4d15-ac18-267c02c0f060"},"vehicle_type_id":"4","last_reported":1729973363,"current_range_meters":28400,"station_id":"ce4bgnh2rcd13ifvqc0g","pricing_plan_id":"cebpf4jnsgd1na2vs0mg"},{"bike_id":"3a9bfb16-0c1d-4441-a397-be908d793bb9","system_id":"levelo_inurba_marseille","lat":43.2549,"lon":5.37649,"is_reserved":false,"is_disabled":false,"rental_uris":{"android":"levelo://app?vid=3a9bfb16-0c1d-4441-a397-be908d793bb9","ios":"levelo://app?vid=3a9bfb16-0c1d-4441-a397-be908d793bb9"},"vehicle_type_id":"4","last_reported":1729973363,"current_range_meters":28800,"station_id":"ce4bhh12rcd13ifvqff0","pricing_plan_id":"cebpf4jnsgd1na2vs0mg"},{"bike_id":"e7c3cdd3-4d3d-4e9b-8811-9ef2a4ce7fde","system_id":"levelo_inurba_marseille","lat":43.29251,"lon":5.38442,"is_reserved":false,"is_disabled":false,"rental_uris":{"android":"levelo://app?vid=e7c3cdd3-4d3d-4e9b-8811-9ef2a4ce7fde","ios":"levelo://app?vid=e7c3cdd3-4d3d-4e9b-8811-9ef2a4ce7fde"},"vehicle_type_id":"4","last_reported":1729973363,"current_range_meters":28800,"station_id":"ce4bh692rcd13ifvqea0","pricing_plan_id":"cebpf4jnsgd1na2vs0mg"},{"bike_id":"c4a17f65-5753-41b6-b0b5-214b06ec99a6","system_id":"levelo_inurba_marseille","lat":43.30942,"lon":5.40144,"is_reserved":false,"is_disabled":false,"rental_uris":{"android":"levelo://app?vid=c4a17f65-5753-41b6-b0b5-214b06ec99a6","ios":"levelo://app?vid=c4a17f65-5753-41b6-b0b5-214b06ec99a6"},"vehicle_type_id":"4","last_reported":1729973363,"current_range_meters":39200,"station_id":"ce4bgvp2rcd13ifvqct0","pricing_plan_id":"cebpf4jnsgd1na2vs0mg"},{"bike_id":"9a05ef16-6af9-4bc7-aa9c-fa563d6e0e66","system_id":"levelo_inurba_marseille","lat":43.32055,"lon":5.41545,"is_reserved":false,"is_disabled":false,"rental_uris":{"android":"levelo://app?vid=9a05ef16-6af9-4bc7-aa9c-fa563d6e0e66","ios":"levelo://app?vid=9a05ef16-6af9-4bc7-aa9c-fa563d6e0e66"},"vehicle_type_id":"4","last_reported":1729973363,"current_range_meters":33200,"station_id":"ce4bhq92rcd13ifvqhkg","pricing_plan_id":"cebpf4jnsgd1na2vs0mg"},{"bike_id":"22c6ef2e-877b-4547-93e4-edbdf191d353","system_id":"levelo_inurba_marseille","lat":43.24393,"lon":5.37057,"is_reserved":false,"is_disabled":false,"rental_uris":{"android":"levelo://app?vid=22c6ef2e-877b-4547-93e4-edbdf191d353","ios":"levelo://app?vid=22c6ef2e-877b-4547-93e4-edbdf191d353"},"vehicle_type_id":"4","last_reported":1729973363,"current_range_meters":12800,"station_id":"ce4bhhh2rcd13ifvqfk0","pricing_plan_id":"cebpf4jnsgd1na2vs0mg"},{"bike_id":"842e384d-725e-41da-b7d8-811178e3f628","system_id":"levelo_inurba_marseille","lat":43.31173,"lon":5.38711,"is_reserved":false,"is_disabled":false,"rental_uris":{"android":"levelo://app?vid=842e384d-725e-41da-b7d8-811178e3f628","ios":"levelo://app?vid=842e384d-725e-41da-b7d8-811178e3f628"},"vehicle_type_id":"4","last_reported":1729973363,"current_range_meters":33200,"station_id":"ce4bgv12rcd13ifvqcp0","pricing_plan_id":"cebpf4jnsgd1na2vs0mg"},{"bike_id":"272108ab-c66d-4277-b942-346fbf20d819","system_id":"levelo_inurba_marseille","lat":43.30351,"lon":5.4188,"is_reserved":false,"is_disabled":false,"rental_uris":{"android":"levelo://app?vid=272108ab-c66d-4277-b942-346fbf20d819","ios":"levelo://app?vid=272108ab-c66d-4277-b942-346fbf20d819"},"vehicle_type_id":"4","last_reported":1729973363,"current_range_meters":10800,"station_id":"ce4bhop2rcd13ifvqh7g","pricing_plan_id":"cebpf4jnsgd1na2vs0mg"},{"bike_id":"9bf2ab5d-f85c-4d9a-a1f6-70dc559d4a7f","system_id":"levelo_inurba_marseille","lat":43.26025,"lon":5.3755,"is_reserved":false,"is_disabled":false,"rental_uris":{"android":"levelo://app?vid=9bf2ab5d-f85c-4d9a-a1f6-70dc559d4a7f","ios":"levelo://app?vid=9bf2ab5d-f85c-4d9a-a1f6-70dc559d4a7f"},"vehicle_type_id":"4","last_reported":1729973363,"current_range_meters":38800,"station_id":"ce4bhgh2rcd13ifvqfa0","pricing_plan_id":"cebpf4jnsgd1na2vs0mg"},{"bike_id":"8fbb3d87-cdca-4c4a-859f-e70dea3485a5","system_id":"levelo_inurba_marseille","lat":43.27489,"lon":5.4246,"is_reserved":false,"is_disabled":false,"rental_uris":{"android":"levelo://app?vid=8fbb3d87-cdca-4c4a-859f-e70dea3485a5","ios":"levelo://app?vid=8fbb3d87-cdca-4c4a-859f-e70dea3485a5"},"vehicle_type_id":"4","last_reported":1729973363,"current_range_meters":36800,"station_id":"ce4bhn92rcd13ifvqgrg","pricing_plan_id":"cebpf4jnsgd1na2vs0mg"},{"bike_id":"d4dbb103-b4d9-4e96-8ae8-a3fef8c9dbdf","system_id":"levelo_inurba_marseille","lat":43.31751,"lon":5.38993,"is_reserved":false,"is_disabled":false,"rental_uris":{"android":"levelo://app?vid=d4dbb103-b4d9-4e96-8ae8-a3fef8c9dbdf","ios":"levelo://app?vid=d4dbb103-b4d9-4e96-8ae8-a3fef8c9dbdf"},"vehicle_type_id":"4","last_reported":1729973363,"current_range_meters":14400,"station_id":"ce4bhqp2rcd13ifvqhng","pricing_plan_id":"cebpf4jnsgd1na2vs0mg"},{"bike_id":"5e800d62-a8f1-40e3-b649-10e858fd73b8","system_id":"levelo_inurba_marseille","lat":43.28575,"lon":5.39497,"is_reserved":false,"is_disabled":false,"rental_uris":{"android":"levelo://app?vid=5e800d62-a8f1-40e3-b649-10e858fd73b8","ios":"levelo://app?vid=5e800d62-a8f1-40e3-b649-10e858fd73b8"},"vehicle_type_id":"4","last_reported":1729973363,"current_range_meters":34800,"station_id":"ce4bh292rcd13ifvqdg0","pricing_plan_id":"cebpf4jnsgd1na2vs0mg"},{"bike_id":"049e9d75-cd03-40a3-bf85-bc7599343466","system_id":"levelo_inurba_marseille","lat":43.31275,"lon":5.40165,"is_reserved":false,"is_disabled":false,"rental_uris":{"android":"levelo://app?vid=049e9d75-cd03-40a3-bf85-bc7599343466","ios":"levelo://app?vid=049e9d75-cd03-40a3-bf85-bc7599343466"},"vehicle_type_id":"4","last_reported":1729973363,"current_range_meters":37600,"station_id":"ce4bh092rcd13ifvqd30","pricing_plan_id":"cebpf4jnsgd1na2vs0mg"},{"bike_id":"03c3662f-d9b5-485a-8a89-75c166e95f18","system_id":"levelo_inurba_marseille","lat":43.30151,"lon":5.38086,"is_reserved":false,"is_disabled":false,"rental_uris":{"android":"levelo://app?vid=03c3662f-d9b5-485a-8a89-75c166e95f18","ios":"levelo://app?vid=03c3662f-d9b5-485a-8a89-75c166e95f18"},"vehicle_type_id":"4","last_reported":1729973363,"current_range_meters":26000,"station_id":"ce4bgjp2rcd13ifvqbh0","pricing_plan_id":"cebpf4jnsgd1na2vs0mg"},{"bike_id":"3035b77c-f0af-4479-9d1c-ce2eb4364541","system_id":"levelo_inurba_marseille","lat":43.25117,"lon":5.4032,"is_reserved":false,"is_disabled":false,"rental_uris":{"android":"levelo://app?vid=3035b77c-f0af-4479-9d1c-ce2eb4364541","ios":"levelo://app?vid=3035b77c-f0af-4479-9d1c-ce2eb4364541"},"vehicle_type_id":"4","last_reported":1729973363,"current_range_meters":38800,"station_id":"ce4bhlh2rcd13ifvqgig","pricing_plan_id":"cebpf4jnsgd1na2vs0mg"},{"bike_id":"12a952bf-14a4-4c54-8fe1-234a603ec496","system_id":"levelo_inurba_marseille","lat":43.31122,"lon":5.37775,"is_reserved":false,"is_disabled":false,"rental_uris":{"android":"levelo://app?vid=12a952bf-14a4-4c54-8fe1-234a603ec496","ios":"levelo://app?vid=12a952bf-14a4-4c54-8fe1-234a603ec496"},"vehicle_type_id":"4","last_reported":1729973363,"current_range_meters":30000,"station_id":"ce4bgt92rcd13ifvqcg0","pricing_plan_id":"cebpf4jnsgd1na2vs0mg"},{"bike_id":"5af9e1ec-be16-4573-a266-0bc868b78b27","system_id":"levelo_inurba_marseille","lat":43.23184,"lon":5.39982,"is_reserved":false,"is_disabled":false,"rental_uris":{"android":"levelo://app?vid=5af9e1ec-be16-4573-a266-0bc868b78b27","ios":"levelo://app?vid=5af9e1ec-be16-4573-a266-0bc868b78b27"},"vehicle_type_id":"4","last_reported":1729973363,"current_range_meters":28400,"station_id":"ce4bhn12rcd13ifvqgqg","pricing_plan_id":"cebpf4jnsgd1na2vs0mg"},{"bike_id":"18d7fdeb-bcaa-4475-861f-a4a02825482d","system_id":"levelo_inurba_marseille","lat":43.31069,"lon":5.38351,"is_reserved":false,"is_disabled":false,"rental_uris":{"android":"levelo://app?vid=18d7fdeb-bcaa-4475-861f-a4a02825482d","ios":"levelo://app?vid=18d7fdeb-bcaa-4475-861f-a4a02825482d"},"vehicle_type_id":"4","last_reported":1729973363,"current_range_meters":29600,"station_id":"ce4bgv92rcd13ifvqcr0","pricing_plan_id":"cebpf4jnsgd1na2vs0mg"},{"bike_id":"cae5512b-eeb1-4b21-8d8f-d8841b2677f3","system_id":"levelo_inurba_marseille","lat":43.24177,"lon":5.39723,"is_reserved":false,"is_disabled":false,"rental_uris":{"android":"levelo://app?vid=cae5512b-eeb1-4b21-8d8f-d8841b2677f3","ios":"levelo://app?vid=cae5512b-eeb1-4b21-8d8f-d8841b2677f3"},"vehicle_type_id":"4","last_reported":1729973363,"current_range_meters":24800,"station_id":"ce4bhn12rcd13ifvqgpg","pricing_plan_id":"cebpf4jnsgd1na2vs0mg"},{"bike_id":"d6c2fddf-368e-46be-ab21-74bf1f2e22f6","system_id":"levelo_inurba_marseille","lat":43.29099,"lon":5.38117,"is_reserved":false,"is_disabled":false,"rental_uris":{"android":"levelo://app?vid=d6c2fddf-368e-46be-ab21-74bf1f2e22f6","ios":"levelo://app?vid=d6c2fddf-368e-46be-ab21-74bf1f2e22f6"},"vehicle_type_id":"4","last_reported":1729973363,"current_range_meters":37600,"station_id":"ce4bh512rcd13ifvqe2g","pricing_plan_id":"cebpf4jnsgd1na2vs0mg"},{"bike_id":"6d3afa11-b80e-4ab8-9e50-0e64538a6272","system_id":"levelo_inurba_marseille","lat":43.29203,"lon":5.39323,"is_reserved":false,"is_disabled":false,"rental_uris":{"android":"levelo://app?vid=6d3afa11-b80e-4ab8-9e50-0e64538a6272","ios":"levelo://app?vid=6d3afa11-b80e-4ab8-9e50-0e64538a6272"},"vehicle_type_id":"4","last_reported":1729973363,"current_range_meters":32000,"station_id":"ce4bh192rcd13ifvqdd0","pricing_plan_id":"cebpf4jnsgd1na2vs0mg"},{"bike_id":"b3507332-daf4-46b8-b043-cb8c84be67ff","system_id":"levelo_inurba_marseille","lat":43.28488,"lon":5.38414,"is_reserved":false,"is_disabled":false,"rental_uris":{"android":"levelo://app?vid=b3507332-daf4-46b8-b043-cb8c84be67ff","ios":"levelo://app?vid=b3507332-daf4-46b8-b043-cb8c84be67ff"},"vehicle_type_id":"4","last_reported":1729973363,"current_range_meters":32800,"station_id":"ce4bh512rcd13ifvqe3g","pricing_plan_id":"cebpf4jnsgd1na2vs0mg"},{"bike_id":"79545944-3897-4a14-accc-cc2b52771322","system_id":"levelo_inurba_marseille","lat":43.25715,"lon":5.41119,"is_reserved":false,"is_disabled":false,"rental_uris":{"android":"levelo://app?vid=79545944-3897-4a14-accc-cc2b52771322","ios":"levelo://app?vid=79545944-3897-4a14-accc-cc2b52771322"},"vehicle_type_id":"4","last_reported":1729973363,"current_range_meters":38400,"station_id":"ce4bhkp2rcd13ifvqgd0","pricing_plan_id":"cebpf4jnsgd1na2vs0mg"},{"bike_id":"993f6912-ec6d-4095-ac5b-68328d9cced0","system_id":"levelo_inurba_marseille","lat":43.303125,"lon":5.392093,"is_reserved":false,"is_disabled":false,"rental_uris":{"android":"levelo://app?vid=993f6912-ec6d-4095-ac5b-68328d9cced0","ios":"levelo://app?vid=993f6912-ec6d-4095-ac5b-68328d9cced0"},"vehicle_type_id":"4","last_reported":1729973363,"current_range_meters":3200,"station_id":"ce4bgvp2rcd13ifvqcu0","pricing_plan_id":"cebpf4jnsgd1na2vs0mg"},{"bike_id":"ef136fa5-257b-4ee5-bd73-f0de7405e6ba","system_id":"levelo_inurba_marseille","lat":43.24536,"lon":5.39527,"is_reserved":false,"is_disabled":false,"rental_uris":{"android":"levelo://app?vid=ef136fa5-257b-4ee5-bd73-f0de7405e6ba","ios":"levelo://app?vid=ef136fa5-257b-4ee5-bd73-f0de7405e6ba"},"vehicle_type_id":"4","last_reported":1729973363,"current_range_meters":28000,"station_id":"ce4bhlp2rcd13ifvqgjg","pricing_plan_id":"cebpf4jnsgd1na2vs0mg"},{"bike_id":"10cf296e-79f7-40cc-86cc-e7320813f6d7","system_id":"levelo_inurba_marseille","lat":43.29172,"lon":5.37169,"is_reserved":false,"is_disabled":false,"rental_uris":{"android":"levelo://app?vid=10cf296e-79f7-40cc-86cc-e7320813f6d7","ios":"levelo://app?vid=10cf296e-79f7-40cc-86cc-e7320813f6d7"},"vehicle_type_id":"4","last_reported":1729973363,"current_range_meters":40000,"station_id":"ce4bha92rcd13ifvqeh0","pricing_plan_id":"cebpf4jnsgd1na2vs0mg"},{"bike_id":"78d2bb20-e78a-4a61-aa5a-2b34d78f8b19","system_id":"levelo_inurba_marseille","lat":43.29803,"lon":5.381,"is_reserved":false,"is_disabled":false,"rental_uris":{"android":"levelo://app?vid=78d2bb20-e78a-4a61-aa5a-2b34d78f8b19","ios":"levelo://app?vid=78d2bb20-e78a-4a61-aa5a-2b34d78f8b19"},"vehicle_type_id":"4","last_reported":1729973363,"current_range_meters":38400,"station_id":"ce4bgip2rcd13ifvqbb0","pricing_plan_id":"cebpf4jnsgd1na2vs0mg"},{"bike_id":"72be1e10-2c57-4123-96f2-2886715d564f","system_id":"levelo_inurba_marseille","lat":43.2718,"lon":5.41,"is_reserved":false,"is_disabled":false,"rental_uris":{"android":"levelo://app?vid=72be1e10-2c57-4123-96f2-2886715d564f","ios":"levelo://app?vid=72be1e10-2c57-4123-96f2-2886715d564f"},"vehicle_type_id":"4","last_reported":1729973363,"current_range_meters":39200,"station_id":"ce4bhl12rcd13ifvqgf0","pricing_plan_id":"cebpf4jnsgd1na2vs0mg"},{"bike_id":"9488ca84-aa5e-4311-bde9-38d634703444","system_id":"levelo_inurba_marseille","lat":43.32487,"lon":5.3656,"is_reserved":false,"is_disabled":false,"rental_uris":{"android":"levelo://app?vid=9488ca84-aa5e-4311-bde9-38d634703444","ios":"levelo://app?vid=9488ca84-aa5e-4311-bde9-38d634703444"},"vehicle_type_id":"4","last_reported":1729973363,"current_range_meters":38400,"station_id":"ce4bhs12rcd13ifvqhvg","pricing_plan_id":"cebpf4jnsgd1na2vs0mg"},{"bike_id":"e4a3a049-80a0-4aed-b2a8-36931fad107c","system_id":"levelo_inurba_marseille","lat":43.32055,"lon":5.41541,"is_reserved":false,"is_disabled":false,"rental_uris":{"android":"levelo://app?vid=e4a3a049-80a0-4aed-b2a8-36931fad107c","ios":"levelo://app?vid=e4a3a049-80a0-4aed-b2a8-36931fad107c"},"vehicle_type_id":"4","last_reported":1729973363,"current_range_meters":36800,"station_id":"ce4bhq92rcd13ifvqhkg","pricing_plan_id":"cebpf4jnsgd1na2vs0mg"},{"bike_id":"e5e817e3-05ee-42a0-97b8-792b18b2b2d7","system_id":"levelo_inurba_marseille","lat":43.32486,"lon":5.36566,"is_reserved":false,"is_disabled":false,"rental_uris":{"android":"levelo://app?vid=e5e817e3-05ee-42a0-97b8-792b18b2b2d7","ios":"levelo://app?vid=e5e817e3-05ee-42a0-97b8-792b18b2b2d7"},"vehicle_type_id":"4","last_reported":1729973363,"current_range_meters":29600,"station_id":"ce4bhs12rcd13ifvqhvg","pricing_plan_id":"cebpf4jnsgd1na2vs0mg"},{"bike_id":"5279c0c8-b853-4a4c-a456-8dc304c5b811","system_id":"levelo_inurba_marseille","lat":43.293692,"lon":5.378253,"is_reserved":false,"is_disabled":false,"rental_uris":{"android":"levelo://app?vid=5279c0c8-b853-4a4c-a456-8dc304c5b811","ios":"levelo://app?vid=5279c0c8-b853-4a4c-a456-8dc304c5b811"},"vehicle_type_id":"4","last_reported":1729973363,"current_range_meters":33200,"station_id":"ce4bgjh2rcd13ifvqbf0","pricing_plan_id":"cebpf4jnsgd1na2vs0mg"},{"bike_id":"80f76666-e73a-42ad-ae8f-0e775abdc325","system_id":"levelo_inurba_marseille","lat":43.30617,"lon":5.37228,"is_reserved":false,"is_disabled":false,"rental_uris":{"android":"levelo://app?vid=80f76666-e73a-42ad-ae8f-0e775abdc325","ios":"levelo://app?vid=80f76666-e73a-42ad-ae8f-0e775abdc325"},"vehicle_type_id":"4","last_reported":1729973363,"current_range_meters":31200,"station_id":"ce4bgqh2rcd13ifvqc4g","pricing_plan_id":"cebpf4jnsgd1na2vs0mg"},{"bike_id":"8dba1885-e6c6-4fbd-9c07-ec666e373b16","system_id":"levelo_inurba_marseille","lat":43.25721,"lon":5.41111,"is_reserved":false,"is_disabled":false,"rental_uris":{"android":"levelo://app?vid=8dba1885-e6c6-4fbd-9c07-ec666e373b16","ios":"levelo://app?vid=8dba1885-e6c6-4fbd-9c07-ec666e373b16"},"vehicle_type_id":"4","last_reported":1729973363,"current_range_meters":29600,"station_id":"ce4bhkp2rcd13ifvqgd0","pricing_plan_id":"cebpf4jnsgd1na2vs0mg"},{"bike_id":"219fe6aa-4100-4acc-ad13-c7a6986eb6b3","system_id":"levelo_inurba_marseille","lat":43.31709,"lon":5.37763,"is_reserved":false,"is_disabled":false,"rental_uris":{"android":"levelo://app?vid=219fe6aa-4100-4acc-ad13-c7a6986eb6b3","ios":"levelo://app?vid=219fe6aa-4100-4acc-ad13-c7a6986eb6b3"},"vehicle_type_id":"4","last_reported":1729973363,"current_range_meters":14800,"station_id":"ce4bgth2rcd13ifvqch0","pricing_plan_id":"cebpf4jnsgd1na2vs0mg"},{"bike_id":"601916c5-3274-4e01-863c-d96df39ce3b1","system_id":"levelo_inurba_marseille","lat":43.26566,"lon":5.39001,"is_reserved":false,"is_disabled":false,"rental_uris":{"android":"levelo://app?vid=601916c5-3274-4e01-863c-d96df39ce3b1","ios":"levelo://app?vid=601916c5-3274-4e01-863c-d96df39ce3b1"},"vehicle_type_id":"4","last_reported":1729973363,"current_range_meters":38800,"station_id":"ce4bhe12rcd13ifvqf30","pricing_plan_id":"cebpf4jnsgd1na2vs0mg"},{"bike_id":"b84d8488-7d66-4802-b9d0-4b80e20805ad","system_id":"levelo_inurba_marseille","lat":43.26575,"lon":5.38999,"is_reserved":false,"is_disabled":false,"rental_uris":{"android":"levelo://app?vid=b84d8488-7d66-4802-b9d0-4b80e20805ad","ios":"levelo://app?vid=b84d8488-7d66-4802-b9d0-4b80e20805ad"},"vehicle_type_id":"4","last_reported":1729973363,"current_range_meters":8800,"station_id":"ce4bhe12rcd13ifvqf30","pricing_plan_id":"cebpf4jnsgd1na2vs0mg"},{"bike_id":"1fafbe93-2ba4-4077-bfcf-7b3992b30a25","system_id":"levelo_inurba_marseille","lat":43.29555,"lon":5.4228,"is_reserved":false,"is_disabled":false,"rental_uris":{"android":"levelo://app?vid=1fafbe93-2ba4-4077-bfcf-7b3992b30a25","ios":"levelo://app?vid=1fafbe93-2ba4-4077-bfcf-7b3992b30a25"},"vehicle_type_id":"4","last_reported":1729973363,"current_range_meters":39200,"station_id":"ce4bhph2rcd13ifvqhdg","pricing_plan_id":"cebpf4jnsgd1na2vs0mg"},{"bike_id":"7b9bb9f6-2747-4f5c-a936-06f552492e45","system_id":"levelo_inurba_marseille","lat":43.31724,"lon":5.42405,"is_reserved":false,"is_disabled":false,"rental_uris":{"android":"levelo://app?vid=7b9bb9f6-2747-4f5c-a936-06f552492e45","ios":"levelo://app?vid=7b9bb9f6-2747-4f5c-a936-06f552492e45"},"vehicle_type_id":"4","last_reported":1729973363,"current_range_meters":39200,"station_id":"ce4bhp92rcd13ifvqhbg","pricing_plan_id":"cebpf4jnsgd1na2vs0mg"},{"bike_id":"4bafa726-86cb-40fe-9c0c-25741165ee73","system_id":"levelo_inurba_marseille","lat":43.29957,"lon":5.41319,"is_reserved":false,"is_disabled":false,"rental_uris":{"android":"levelo://app?vid=4bafa726-86cb-40fe-9c0c-25741165ee73","ios":"levelo://app?vid=4bafa726-86cb-40fe-9c0c-25741165ee73"},"vehicle_type_id":"4","last_reported":1729973363,"current_range_meters":16000,"station_id":"ce4bhp12rcd13ifvqh9g","pricing_plan_id":"cebpf4jnsgd1na2vs0mg"},{"bike_id":"8a55373d-8f54-4890-9729-5db301ba9fa0","system_id":"levelo_inurba_marseille","lat":43.25005,"lon":5.38917,"is_reserved":false,"is_disabled":false,"rental_uris":{"android":"levelo://app?vid=8a55373d-8f54-4890-9729-5db301ba9fa0","ios":"levelo://app?vid=8a55373d-8f54-4890-9729-5db301ba9fa0"},"vehicle_type_id":"4","last_reported":1729973363,"current_range_meters":36000,"station_id":"ce4bhgp2rcd13ifvqfd0","pricing_plan_id":"cebpf4jnsgd1na2vs0mg"},{"bike_id":"28f59e59-24c5-40d6-b927-cef8b2e6328d","system_id":"levelo_inurba_marseille","lat":43.29309,"lon":5.37168,"is_reserved":false,"is_disabled":false,"rental_uris":{"android":"levelo://app?vid=28f59e59-24c5-40d6-b927-cef8b2e6328d","ios":"levelo://app?vid=28f59e59-24c5-40d6-b927-cef8b2e6328d"},"vehicle_type_id":"4","last_reported":1729973363,"current_range_meters":18000,"station_id":"ce4bgh92rcd13ifvqb40","pricing_plan_id":"cebpf4jnsgd1na2vs0mg"},{"bike_id":"217b6992-770c-4501-bf46-01eca14ab494","system_id":"levelo_inurba_marseille","lat":43.29003,"lon":5.35613,"is_reserved":false,"is_disabled":false,"rental_uris":{"android":"levelo://app?vid=217b6992-770c-4501-bf46-01eca14ab494","ios":"levelo://app?vid=217b6992-770c-4501-bf46-01eca14ab494"},"vehicle_type_id":"4","last_reported":1729973363,"current_range_meters":39200,"station_id":"ce4bhb92rcd13ifvqen0","pricing_plan_id":"cebpf4jnsgd1na2vs0mg"},{"bike_id":"27c1e877-1a32-4c88-bee8-e9391ea13d39","system_id":"levelo_inurba_marseille","lat":43.31071,"lon":5.383469,"is_reserved":false,"is_disabled":false,"rental_uris":{"android":"levelo://app?vid=27c1e877-1a32-4c88-bee8-e9391ea13d39","ios":"levelo://app?vid=27c1e877-1a32-4c88-bee8-e9391ea13d39"},"vehicle_type_id":"4","last_reported":1729973363,"current_range_meters":38800,"station_id":"ce4bgv92rcd13ifvqcr0","pricing_plan_id":"cebpf4jnsgd1na2vs0mg"},{"bike_id":"b0c7ce4f-cf48-4b13-99b1-24dbbfafc315","system_id":"levelo_inurba_marseille","lat":43.27818,"lon":5.40717,"is_reserved":false,"is_disabled":false,"rental_uris":{"android":"levelo://app?vid=b0c7ce4f-cf48-4b13-99b1-24dbbfafc315","ios":"levelo://app?vid=b0c7ce4f-cf48-4b13-99b1-24dbbfafc315"},"vehicle_type_id":"4","last_reported":1729973363,"current_range_meters":31200,"station_id":"ce4bhnh2rcd13ifvqgtg","pricing_plan_id":"cebpf4jnsgd1na2vs0mg"},{"bike_id":"e113f747-4daa-44f7-a218-9e030daa2565","system_id":"levelo_inurba_marseille","lat":43.32103,"lon":5.36778,"is_reserved":false,"is_disabled":false,"rental_uris":{"android":"levelo://app?vid=e113f747-4daa-44f7-a218-9e030daa2565","ios":"levelo://app?vid=e113f747-4daa-44f7-a218-9e030daa2565"},"vehicle_type_id":"4","last_reported":1729973363,"current_range_meters":28800,"station_id":"ce4bhrh2rcd13ifvqhug","pricing_plan_id":"cebpf4jnsgd1na2vs0mg"},{"bike_id":"4f2b28b5-eb62-4c17-ac80-507bd20ce300","system_id":"levelo_inurba_marseille","lat":43.28456,"lon":5.35884,"is_reserved":false,"is_disabled":false,"rental_uris":{"android":"levelo://app?vid=4f2b28b5-eb62-4c17-ac80-507bd20ce300","ios":"levelo://app?vid=4f2b28b5-eb62-4c17-ac80-507bd20ce300"},"vehicle_type_id":"4","last_reported":1729973363,"current_range_meters":19600,"station_id":"ce4bhah2rcd13ifvqei0","pricing_plan_id":"cebpf4jnsgd1na2vs0mg"},{"bike_id":"7569b810-af8d-4c95-be87-76834cbad9fe","system_id":"levelo_inurba_marseille","lat":43.27308,"lon":5.39103,"is_reserved":false,"is_disabled":false,"rental_uris":{"android":"levelo://app?vid=7569b810-af8d-4c95-be87-76834cbad9fe","ios":"levelo://app?vid=7569b810-af8d-4c95-be87-76834cbad9fe"},"vehicle_type_id":"4","last_reported":1729973363,"current_range_meters":23200,"station_id":"ce4bhgp2rcd13ifvqfe0","pricing_plan_id":"cebpf4jnsgd1na2vs0mg"},{"bike_id":"c5342152-eaa7-4487-b5ac-2c3245f2bd54","system_id":"levelo_inurba_marseille","lat":43.28483,"lon":5.38423,"is_reserved":false,"is_disabled":false,"rental_uris":{"android":"levelo://app?vid=c5342152-eaa7-4487-b5ac-2c3245f2bd54","ios":"levelo://app?vid=c5342152-eaa7-4487-b5ac-2c3245f2bd54"},"vehicle_type_id":"4","last_reported":1729973363,"current_range_meters":16800,"station_id":"ce4bh512rcd13ifvqe3g","pricing_plan_id":"cebpf4jnsgd1na2vs0mg"},{"bike_id":"4cb54fe2-6aa3-4b51-89f9-1a40a399762b","system_id":"levelo_inurba_marseille","lat":43.29625,"lon":5.37154,"is_reserved":false,"is_disabled":false,"rental_uris":{"android":"levelo://app?vid=4cb54fe2-6aa3-4b51-89f9-1a40a399762b","ios":"levelo://app?vid=4cb54fe2-6aa3-4b51-89f9-1a40a399762b"},"vehicle_type_id":"4","last_reported":1729973363,"current_range_meters":22800,"station_id":"ce4bgnh2rcd13ifvqc0g","pricing_plan_id":"cebpf4jnsgd1na2vs0mg"},{"bike_id":"9fd56fad-5f3d-42b4-b491-7b57b76bc0cf","system_id":"levelo_inurba_marseille","lat":43.27823,"lon":5.40724,"is_reserved":false,"is_disabled":false,"rental_uris":{"android":"levelo://app?vid=9fd56fad-5f3d-42b4-b491-7b57b76bc0cf","ios":"levelo://app?vid=9fd56fad-5f3d-42b4-b491-7b57b76bc0cf"},"vehicle_type_id":"4","last_reported":1729973363,"current_range_meters":26000,"station_id":"ce4bhnh2rcd13ifvqgtg","pricing_plan_id":"cebpf4jnsgd1na2vs0mg"},{"bike_id":"bf291e7e-22e0-40c3-9fbf-804e4d125b27","system_id":"levelo_inurba_marseille","lat":43.25577,"lon":5.38227,"is_reserved":false,"is_disabled":false,"rental_uris":{"android":"levelo://app?vid=bf291e7e-22e0-40c3-9fbf-804e4d125b27","ios":"levelo://app?vid=bf291e7e-22e0-40c3-9fbf-804e4d125b27"},"vehicle_type_id":"4","last_reported":1729973363,"current_range_meters":19600,"station_id":"ce4bhih2rcd13ifvqfs0","pricing_plan_id":"cebpf4jnsgd1na2vs0mg"},{"bike_id":"704ff70b-3044-4cc0-a1b3-72bc6b15acdb","system_id":"levelo_inurba_marseille","lat":43.28492,"lon":5.38538,"is_reserved":false,"is_disabled":false,"rental_uris":{"android":"levelo://app?vid=704ff70b-3044-4cc0-a1b3-72bc6b15acdb","ios":"levelo://app?vid=704ff70b-3044-4cc0-a1b3-72bc6b15acdb"},"vehicle_type_id":"4","last_reported":1729973363,"current_range_meters":36400,"station_id":"ce4bh8p2rcd13ifvqeb0","pricing_plan_id":"cebpf4jnsgd1na2vs0mg"},{"bike_id":"cb176300-6569-4931-a7b5-26a3947ac35d","system_id":"levelo_inurba_marseille","lat":43.25007,"lon":5.38919,"is_reserved":false,"is_disabled":false,"rental_uris":{"android":"levelo://app?vid=cb176300-6569-4931-a7b5-26a3947ac35d","ios":"levelo://app?vid=cb176300-6569-4931-a7b5-26a3947ac35d"},"vehicle_type_id":"4","last_reported":1729973363,"current_range_meters":35600,"station_id":"ce4bhgp2rcd13ifvqfd0","pricing_plan_id":"cebpf4jnsgd1na2vs0mg"},{"bike_id":"5aa6733e-ab85-4872-8628-93fb3f9980b6","system_id":"levelo_inurba_marseille","lat":43.30536,"lon":5.367,"is_reserved":false,"is_disabled":false,"rental_uris":{"android":"levelo://app?vid=5aa6733e-ab85-4872-8628-93fb3f9980b6","ios":"levelo://app?vid=5aa6733e-ab85-4872-8628-93fb3f9980b6"},"vehicle_type_id":"4","last_reported":1729973363,"current_range_meters":11600,"station_id":"ce4bgrp2rcd13ifvqc9g","pricing_plan_id":"cebpf4jnsgd1na2vs0mg"},{"bike_id":"b6b081ec-485a-4913-9c54-bf6a5ea14ae2","system_id":"levelo_inurba_marseille","lat":43.30933,"lon":5.40148,"is_reserved":false,"is_disabled":false,"rental_uris":{"android":"levelo://app?vid=b6b081ec-485a-4913-9c54-bf6a5ea14ae2","ios":"levelo://app?vid=b6b081ec-485a-4913-9c54-bf6a5ea14ae2"},"vehicle_type_id":"4","last_reported":1729973363,"current_range_meters":39200,"station_id":"ce4bgvp2rcd13ifvqct0","pricing_plan_id":"cebpf4jnsgd1na2vs0mg"},{"bike_id":"fec85ac5-8b84-4326-8f6c-7942d7ab0cc0","system_id":"levelo_inurba_marseille","lat":43.29538,"lon":5.37502,"is_reserved":false,"is_disabled":false,"rental_uris":{"android":"levelo://app?vid=fec85ac5-8b84-4326-8f6c-7942d7ab0cc0","ios":"levelo://app?vid=fec85ac5-8b84-4326-8f6c-7942d7ab0cc0"},"vehicle_type_id":"4","last_reported":1729973363,"current_range_meters":39200,"station_id":"ce4bgkp2rcd13ifvqbmg","pricing_plan_id":"cebpf4jnsgd1na2vs0mg"},{"bike_id":"76655054-c5bb-403b-83de-851da69c462b","system_id":"levelo_inurba_marseille","lat":43.30422,"lon":5.41283,"is_reserved":false,"is_disabled":false,"rental_uris":{"android":"levelo://app?vid=76655054-c5bb-403b-83de-851da69c462b","ios":"levelo://app?vid=76655054-c5bb-403b-83de-851da69c462b"},"vehicle_type_id":"4","last_reported":1729973363,"current_range_meters":32000,"station_id":"ce4bhop2rcd13ifvqh8g","pricing_plan_id":"cebpf4jnsgd1na2vs0mg"},{"bike_id":"a4cdb9e2-dcee-478e-b833-1e72009d3ae3","system_id":"levelo_inurba_marseille","lat":43.30421,"lon":5.41285,"is_reserved":false,"is_disabled":false,"rental_uris":{"android":"levelo://app?vid=a4cdb9e2-dcee-478e-b833-1e72009d3ae3","ios":"levelo://app?vid=a4cdb9e2-dcee-478e-b833-1e72009d3ae3"},"vehicle_type_id":"4","last_reported":1729973363,"current_range_meters":4000,"station_id":"ce4bhop2rcd13ifvqh8g","pricing_plan_id":"cebpf4jnsgd1na2vs0mg"},{"bike_id":"bc53a2bf-7061-4c55-b364-13afaab5401f","system_id":"levelo_inurba_marseille","lat":43.29256,"lon":5.38439,"is_reserved":false,"is_disabled":false,"rental_uris":{"android":"levelo://app?vid=bc53a2bf-7061-4c55-b364-13afaab5401f","ios":"levelo://app?vid=bc53a2bf-7061-4c55-b364-13afaab5401f"},"vehicle_type_id":"4","last_reported":1729973363,"current_range_meters":36800,"station_id":"ce4bh692rcd13ifvqea0","pricing_plan_id":"cebpf4jnsgd1na2vs0mg"},{"bike_id":"05a96471-11d7-4fa1-a5f4-2d0c760f3225","system_id":"levelo_inurba_marseille","lat":43.2979,"lon":5.37106,"is_reserved":false,"is_disabled":false,"rental_uris":{"android":"levelo://app?vid=05a96471-11d7-4fa1-a5f4-2d0c760f3225","ios":"levelo://app?vid=05a96471-11d7-4fa1-a5f4-2d0c760f3225"},"vehicle_type_id":"4","last_reported":1729973363,"current_range_meters":38000,"station_id":"ce4bgop2rcd13ifvqc1g","pricing_plan_id":"cebpf4jnsgd1na2vs0mg"},{"bike_id":"c65417d6-6622-4395-b76f-feb2f4595473","system_id":"levelo_inurba_marseille","lat":43.25721,"lon":5.41108,"is_reserved":false,"is_disabled":false,"rental_uris":{"android":"levelo://app?vid=c65417d6-6622-4395-b76f-feb2f4595473","ios":"levelo://app?vid=c65417d6-6622-4395-b76f-feb2f4595473"},"vehicle_type_id":"4","last_reported":1729973363,"current_range_meters":11600,"station_id":"ce4bhkp2rcd13ifvqgd0","pricing_plan_id":"cebpf4jnsgd1na2vs0mg"},{"bike_id":"75bc418d-5fa4-4111-819c-79228dcd39de","system_id":"levelo_inurba_marseille","lat":43.2606,"lon":5.39401,"is_reserved":false,"is_disabled":false,"rental_uris":{"android":"levelo://app?vid=75bc418d-5fa4-4111-819c-79228dcd39de","ios":"levelo://app?vid=75bc418d-5fa4-4111-819c-79228dcd39de"},"vehicle_type_id":"4","last_reported":1729973363,"current_range_meters":12800,"station_id":"ce4bhh92rcd13ifvqfj0","pricing_plan_id":"cebpf4jnsgd1na2vs0mg"},{"bike_id":"d7ff7165-6d5c-4f76-865c-b2ea1a2a3c7a","system_id":"levelo_inurba_marseille","lat":43.27496,"lon":5.42452,"is_reserved":false,"is_disabled":false,"rental_uris":{"android":"levelo://app?vid=d7ff7165-6d5c-4f76-865c-b2ea1a2a3c7a","ios":"levelo://app?vid=d7ff7165-6d5c-4f76-865c-b2ea1a2a3c7a"},"vehicle_type_id":"4","last_reported":1729973363,"current_range_meters":9200,"station_id":"ce4bhn92rcd13ifvqgrg","pricing_plan_id":"cebpf4jnsgd1na2vs0mg"},{"bike_id":"3032951f-b623-4cd7-a740-e5bdb3b4d146","system_id":"levelo_inurba_marseille","lat":43.29913,"lon":5.37476,"is_reserved":false,"is_disabled":false,"rental_uris":{"android":"levelo://app?vid=3032951f-b623-4cd7-a740-e5bdb3b4d146","ios":"levelo://app?vid=3032951f-b623-4cd7-a740-e5bdb3b4d146"},"vehicle_type_id":"4","last_reported":1729973363,"current_range_meters":40000,"station_id":"ce4bgjh2rcd13ifvqbg0","pricing_plan_id":"cebpf4jnsgd1na2vs0mg"},{"bike_id":"1523497e-4d2e-4c8d-9640-3812c210f56e","system_id":"levelo_inurba_marseille","lat":43.31085,"lon":5.42434,"is_reserved":false,"is_disabled":false,"rental_uris":{"android":"levelo://app?vid=1523497e-4d2e-4c8d-9640-3812c210f56e","ios":"levelo://app?vid=1523497e-4d2e-4c8d-9640-3812c210f56e"},"vehicle_type_id":"4","last_reported":1729973363,"current_range_meters":37600,"station_id":"ce4bhp92rcd13ifvqhag","pricing_plan_id":"cebpf4jnsgd1na2vs0mg"},{"bike_id":"d13cfe8d-6bc1-49c8-b259-26c297560ecd","system_id":"levelo_inurba_marseille","lat":43.29796,"lon":5.38092,"is_reserved":false,"is_disabled":false,"rental_uris":{"android":"levelo://app?vid=d13cfe8d-6bc1-49c8-b259-26c297560ecd","ios":"levelo://app?vid=d13cfe8d-6bc1-49c8-b259-26c297560ecd"},"vehicle_type_id":"4","last_reported":1729973363,"current_range_meters":38800,"station_id":"ce4bgip2rcd13ifvqbb0","pricing_plan_id":"cebpf4jnsgd1na2vs0mg"},{"bike_id":"8001b44d-9ab0-46f5-80ea-c34d9f92effc","system_id":"levelo_inurba_marseille","lat":43.26944,"lon":5.40258,"is_reserved":false,"is_disabled":false,"rental_uris":{"android":"levelo://app?vid=8001b44d-9ab0-46f5-80ea-c34d9f92effc","ios":"levelo://app?vid=8001b44d-9ab0-46f5-80ea-c34d9f92effc"},"vehicle_type_id":"4","last_reported":1729973363,"current_range_meters":40000,"station_id":"cjm6bp8fraef2m0cb0m0","pricing_plan_id":"cebpf4jnsgd1na2vs0mg"},{"bike_id":"ec1ef2fd-0187-4063-a08a-f08e31fd67e9","system_id":"levelo_inurba_marseille","lat":43.25002,"lon":5.38916,"is_reserved":false,"is_disabled":false,"rental_uris":{"android":"levelo://app?vid=ec1ef2fd-0187-4063-a08a-f08e31fd67e9","ios":"levelo://app?vid=ec1ef2fd-0187-4063-a08a-f08e31fd67e9"},"vehicle_type_id":"4","last_reported":1729973363,"current_range_meters":34800,"station_id":"ce4bhgp2rcd13ifvqfd0","pricing_plan_id":"cebpf4jnsgd1na2vs0mg"},{"bike_id":"69fd4557-70ee-47ab-b310-1179cf5c9cc5","system_id":"levelo_inurba_marseille","lat":43.28414,"lon":5.34978,"is_reserved":false,"is_disabled":false,"rental_uris":{"android":"levelo://app?vid=69fd4557-70ee-47ab-b310-1179cf5c9cc5","ios":"levelo://app?vid=69fd4557-70ee-47ab-b310-1179cf5c9cc5"},"vehicle_type_id":"4","last_reported":1729973363,"current_range_meters":16800,"station_id":"ce4bhbh2rcd13ifvqepg","pricing_plan_id":"cebpf4jnsgd1na2vs0mg"},{"bike_id":"31554b55-47d7-43b1-ad82-9d997bccc8c1","system_id":"levelo_inurba_marseille","lat":43.30099,"lon":5.39084,"is_reserved":false,"is_disabled":false,"rental_uris":{"android":"levelo://app?vid=31554b55-47d7-43b1-ad82-9d997bccc8c1","ios":"levelo://app?vid=31554b55-47d7-43b1-ad82-9d997bccc8c1"},"vehicle_type_id":"4","last_reported":1729973363,"current_range_meters":26800,"station_id":"ce4bh192rcd13ifvqdb0","pricing_plan_id":"cebpf4jnsgd1na2vs0mg"},{"bike_id":"19928214-403a-46e9-8732-4207aee3502e","system_id":"levelo_inurba_marseille","lat":43.27963,"lon":5.38715,"is_reserved":false,"is_disabled":false,"rental_uris":{"android":"levelo://app?vid=19928214-403a-46e9-8732-4207aee3502e","ios":"levelo://app?vid=19928214-403a-46e9-8732-4207aee3502e"},"vehicle_type_id":"4","last_reported":1729973363,"current_range_meters":36800,"station_id":"ce4bhg12rcd13ifvqf80","pricing_plan_id":"cebpf4jnsgd1na2vs0mg"},{"bike_id":"a440d0bc-256a-4039-9afd-92ef8a4385b8","system_id":"levelo_inurba_marseille","lat":43.29564,"lon":5.39979,"is_reserved":false,"is_disabled":false,"rental_uris":{"android":"levelo://app?vid=a440d0bc-256a-4039-9afd-92ef8a4385b8","ios":"levelo://app?vid=a440d0bc-256a-4039-9afd-92ef8a4385b8"},"vehicle_type_id":"4","last_reported":1729973363,"current_range_meters":36400,"station_id":"ce4bh312rcd13ifvqdj0","pricing_plan_id":"cebpf4jnsgd1na2vs0mg"},{"bike_id":"3ccabff9-281a-40ae-ba03-c512e05c2828","system_id":"levelo_inurba_marseille","lat":43.2926,"lon":5.38445,"is_reserved":false,"is_disabled":false,"rental_uris":{"android":"levelo://app?vid=3ccabff9-281a-40ae-ba03-c512e05c2828","ios":"levelo://app?vid=3ccabff9-281a-40ae-ba03-c512e05c2828"},"vehicle_type_id":"4","last_reported":1729973363,"current_range_meters":21600,"station_id":"ce4bh692rcd13ifvqea0","pricing_plan_id":"cebpf4jnsgd1na2vs0mg"},{"bike_id":"17585237-30fa-45cb-a660-139c02b3595a","system_id":"levelo_inurba_marseille","lat":43.29791,"lon":5.3711,"is_reserved":false,"is_disabled":false,"rental_uris":{"android":"levelo://app?vid=17585237-30fa-45cb-a660-139c02b3595a","ios":"levelo://app?vid=17585237-30fa-45cb-a660-139c02b3595a"},"vehicle_type_id":"4","last_reported":1729973363,"current_range_meters":28400,"station_id":"ce4bgop2rcd13ifvqc1g","pricing_plan_id":"cebpf4jnsgd1na2vs0mg"},{"bike_id":"356a8e33-4ab0-42f2-95a5-274f32429f87","system_id":"levelo_inurba_marseille","lat":43.30149,"lon":5.38078,"is_reserved":false,"is_disabled":false,"rental_uris":{"android":"levelo://app?vid=356a8e33-4ab0-42f2-95a5-274f32429f87","ios":"levelo://app?vid=356a8e33-4ab0-42f2-95a5-274f32429f87"},"vehicle_type_id":"4","last_reported":1729973363,"current_range_meters":16400,"station_id":"ce4bgjp2rcd13ifvqbh0","pricing_plan_id":"cebpf4jnsgd1na2vs0mg"},{"bike_id":"f9dd0103-b045-4d3e-97f0-feaf4a2d3923","system_id":"levelo_inurba_marseille","lat":43.25007,"lon":5.38918,"is_reserved":false,"is_disabled":false,"rental_uris":{"android":"levelo://app?vid=f9dd0103-b045-4d3e-97f0-feaf4a2d3923","ios":"levelo://app?vid=f9dd0103-b045-4d3e-97f0-feaf4a2d3923"},"vehicle_type_id":"4","last_reported":1729973363,"current_range_meters":8400,"station_id":"ce4bhgp2rcd13ifvqfd0","pricing_plan_id":"cebpf4jnsgd1na2vs0mg"},{"bike_id":"5e1e831b-84d4-492a-9908-0865fcaad2d5","system_id":"levelo_inurba_marseille","lat":43.31265,"lon":5.40159,"is_reserved":false,"is_disabled":false,"rental_uris":{"android":"levelo://app?vid=5e1e831b-84d4-492a-9908-0865fcaad2d5","ios":"levelo://app?vid=5e1e831b-84d4-492a-9908-0865fcaad2d5"},"vehicle_type_id":"4","last_reported":1729973363,"current_range_meters":32400,"station_id":"ce4bh092rcd13ifvqd30","pricing_plan_id":"cebpf4jnsgd1na2vs0mg"},{"bike_id":"8143e608-d262-449d-856e-3d74048159e6","system_id":"levelo_inurba_marseille","lat":43.32331,"lon":5.40624,"is_reserved":false,"is_disabled":false,"rental_uris":{"android":"levelo://app?vid=8143e608-d262-449d-856e-3d74048159e6","ios":"levelo://app?vid=8143e608-d262-449d-856e-3d74048159e6"},"vehicle_type_id":"4","last_reported":1729973363,"current_range_meters":40000,"station_id":"ce4bhq92rcd13ifvqhjg","pricing_plan_id":"cebpf4jnsgd1na2vs0mg"},{"bike_id":"f35bff84-2694-4e18-9465-7d2a42e494d5","system_id":"levelo_inurba_marseille","lat":43.3064,"lon":5.40081,"is_reserved":false,"is_disabled":false,"rental_uris":{"android":"levelo://app?vid=f35bff84-2694-4e18-9465-7d2a42e494d5","ios":"levelo://app?vid=f35bff84-2694-4e18-9465-7d2a42e494d5"},"vehicle_type_id":"4","last_reported":1729973363,"current_range_meters":28400,"station_id":"ce4bh112rcd13ifvqda0","pricing_plan_id":"cebpf4jnsgd1na2vs0mg"},{"bike_id":"77ff59a8-6602-4c14-b363-2f0c3ded9ffb","system_id":"levelo_inurba_marseille","lat":43.29536,"lon":5.38549,"is_reserved":false,"is_disabled":false,"rental_uris":{"android":"levelo://app?vid=77ff59a8-6602-4c14-b363-2f0c3ded9ffb","ios":"levelo://app?vid=77ff59a8-6602-4c14-b363-2f0c3ded9ffb"},"vehicle_type_id":"4","last_reported":1729973363,"current_range_meters":12000,"station_id":"ce4bgih2rcd13ifvqba0","pricing_plan_id":"cebpf4jnsgd1na2vs0mg"},{"bike_id":"6ac10959-8eb2-45e6-ad18-f41cdf25e740","system_id":"levelo_inurba_marseille","lat":43.27942,"lon":5.41041,"is_reserved":false,"is_disabled":false,"rental_uris":{"android":"levelo://app?vid=6ac10959-8eb2-45e6-ad18-f41cdf25e740","ios":"levelo://app?vid=6ac10959-8eb2-45e6-ad18-f41cdf25e740"},"vehicle_type_id":"4","last_reported":1729973363,"current_range_meters":8800,"station_id":"ce4bhnp2rcd13ifvqh0g","pricing_plan_id":"cebpf4jnsgd1na2vs0mg"},{"bike_id":"c7493202-7ba4-4657-a88f-5b1ffe0cc379","system_id":"levelo_inurba_marseille","lat":43.25727,"lon":5.41103,"is_reserved":false,"is_disabled":false,"rental_uris":{"android":"levelo://app?vid=c7493202-7ba4-4657-a88f-5b1ffe0cc379","ios":"levelo://app?vid=c7493202-7ba4-4657-a88f-5b1ffe0cc379"},"vehicle_type_id":"4","last_reported":1729973363,"current_range_meters":8800,"station_id":"ce4bhkp2rcd13ifvqgd0","pricing_plan_id":"cebpf4jnsgd1na2vs0mg"},{"bike_id":"cc55c9ef-e2eb-4052-8202-9ca821beb8b4","system_id":"levelo_inurba_marseille","lat":43.28858,"lon":5.35858,"is_reserved":false,"is_disabled":false,"rental_uris":{"android":"levelo://app?vid=cc55c9ef-e2eb-4052-8202-9ca821beb8b4","ios":"levelo://app?vid=cc55c9ef-e2eb-4052-8202-9ca821beb8b4"},"vehicle_type_id":"4","last_reported":1729973363,"current_range_meters":39200,"station_id":"ce4bhb12rcd13ifvqem0","pricing_plan_id":"cebpf4jnsgd1na2vs0mg"},{"bike_id":"fbabd65a-eb4c-4079-98ce-24263a2a8430","system_id":"levelo_inurba_marseille","lat":43.24652,"lon":5.38896,"is_reserved":false,"is_disabled":false,"rental_uris":{"android":"levelo://app?vid=fbabd65a-eb4c-4079-98ce-24263a2a8430","ios":"levelo://app?vid=fbabd65a-eb4c-4079-98ce-24263a2a8430"},"vehicle_type_id":"4","last_reported":1729973363,"current_range_meters":40000,"station_id":"ce4bhg12rcd13ifvqf60","pricing_plan_id":"cebpf4jnsgd1na2vs0mg"},{"bike_id":"98e33aa4-2131-4227-b5ee-7452ffb51601","system_id":"levelo_inurba_marseille","lat":43.30314,"lon":5.36903,"is_reserved":false,"is_disabled":false,"rental_uris":{"android":"levelo://app?vid=98e33aa4-2131-4227-b5ee-7452ffb51601","ios":"levelo://app?vid=98e33aa4-2131-4227-b5ee-7452ffb51601"},"vehicle_type_id":"4","last_reported":1729973363,"current_range_meters":38400,"station_id":"ce4bgqh2rcd13ifvqc5g","pricing_plan_id":"cebpf4jnsgd1na2vs0mg"},{"bike_id":"2f24cac2-a7c2-49c5-89a6-d75355a63dde","system_id":"levelo_inurba_marseille","lat":43.31226,"lon":5.36862,"is_reserved":false,"is_disabled":false,"rental_uris":{"android":"levelo://app?vid=2f24cac2-a7c2-49c5-89a6-d75355a63dde","ios":"levelo://app?vid=2f24cac2-a7c2-49c5-89a6-d75355a63dde"},"vehicle_type_id":"4","last_reported":1729973363,"current_range_meters":38800,"station_id":"ce4bgl92rcd13ifvqbq0","pricing_plan_id":"cebpf4jnsgd1na2vs0mg"},{"bike_id":"8e05c1c9-c561-470b-83c7-44b67333075d","system_id":"levelo_inurba_marseille","lat":43.29262,"lon":5.38445,"is_reserved":false,"is_disabled":false,"rental_uris":{"android":"levelo://app?vid=8e05c1c9-c561-470b-83c7-44b67333075d","ios":"levelo://app?vid=8e05c1c9-c561-470b-83c7-44b67333075d"},"vehicle_type_id":"4","last_reported":1729973363,"current_range_meters":38800,"station_id":"ce4bh692rcd13ifvqea0","pricing_plan_id":"cebpf4jnsgd1na2vs0mg"},{"bike_id":"b3b80d53-4198-4a51-a57d-a6ff1e361e88","system_id":"levelo_inurba_marseille","lat":43.28152,"lon":5.42644,"is_reserved":false,"is_disabled":false,"rental_uris":{"android":"levelo://app?vid=b3b80d53-4198-4a51-a57d-a6ff1e361e88","ios":"levelo://app?vid=b3b80d53-4198-4a51-a57d-a6ff1e361e88"},"vehicle_type_id":"4","last_reported":1729973363,"current_range_meters":39200,"station_id":"ce4bhnh2rcd13ifvqgug","pricing_plan_id":"cebpf4jnsgd1na2vs0mg"},{"bike_id":"0ecf5e07-d4ac-4f2c-bd1b-3acf9f99ddc6","system_id":"levelo_inurba_marseille","lat":43.2602,"lon":5.37554,"is_reserved":false,"is_disabled":false,"rental_uris":{"android":"levelo://app?vid=0ecf5e07-d4ac-4f2c-bd1b-3acf9f99ddc6","ios":"levelo://app?vid=0ecf5e07-d4ac-4f2c-bd1b-3acf9f99ddc6"},"vehicle_type_id":"4","last_reported":1729973363,"current_range_meters":38400,"station_id":"ce4bhgh2rcd13ifvqfa0","pricing_plan_id":"cebpf4jnsgd1na2vs0mg"},{"bike_id":"957b322f-52e1-499d-a22e-48822d7e0212","system_id":"levelo_inurba_marseille","lat":43.24664,"lon":5.38163,"is_reserved":false,"is_disabled":false,"rental_uris":{"android":"levelo://app?vid=957b322f-52e1-499d-a22e-48822d7e0212","ios":"levelo://app?vid=957b322f-52e1-499d-a22e-48822d7e0212"},"vehicle_type_id":"4","last_reported":1729973363,"current_range_meters":25600,"station_id":"ce4bhih2rcd13ifvqfr0","pricing_plan_id":"cebpf4jnsgd1na2vs0mg"},{"bike_id":"74cde24f-8305-4324-834a-3bd8b42b2d67","system_id":"levelo_inurba_marseille","lat":43.29271,"lon":5.38444,"is_reserved":false,"is_disabled":false,"rental_uris":{"android":"levelo://app?vid=74cde24f-8305-4324-834a-3bd8b42b2d67","ios":"levelo://app?vid=74cde24f-8305-4324-834a-3bd8b42b2d67"},"vehicle_type_id":"4","last_reported":1729973363,"current_range_meters":16000,"station_id":"ce4bh692rcd13ifvqea0","pricing_plan_id":"cebpf4jnsgd1na2vs0mg"},{"bike_id":"3440d9b5-3e68-45f4-98be-6b0e41381653","system_id":"levelo_inurba_marseille","lat":43.28442,"lon":5.39187,"is_reserved":false,"is_disabled":false,"rental_uris":{"android":"levelo://app?vid=3440d9b5-3e68-45f4-98be-6b0e41381653","ios":"levelo://app?vid=3440d9b5-3e68-45f4-98be-6b0e41381653"},"vehicle_type_id":"4","last_reported":1729973363,"current_range_meters":25200,"station_id":"ce4bhoh2rcd13ifvqh5g","pricing_plan_id":"cebpf4jnsgd1na2vs0mg"},{"bike_id":"f6a5ef30-cd45-4f33-acc1-40cc262286be","system_id":"levelo_inurba_marseille","lat":43.26941,"lon":5.40254,"is_reserved":false,"is_disabled":false,"rental_uris":{"android":"levelo://app?vid=f6a5ef30-cd45-4f33-acc1-40cc262286be","ios":"levelo://app?vid=f6a5ef30-cd45-4f33-acc1-40cc262286be"},"vehicle_type_id":"4","last_reported":1729973363,"current_range_meters":39200,"station_id":"cjm6bp8fraef2m0cb0m0","pricing_plan_id":"cebpf4jnsgd1na2vs0mg"},{"bike_id":"c4f16691-f8e1-494d-b2b9-e447f16bf18a","system_id":"levelo_inurba_marseille","lat":43.25818,"lon":5.39433,"is_reserved":false,"is_disabled":false,"rental_uris":{"android":"levelo://app?vid=c4f16691-f8e1-494d-b2b9-e447f16bf18a","ios":"levelo://app?vid=c4f16691-f8e1-494d-b2b9-e447f16bf18a"},"vehicle_type_id":"4","last_reported":1729973363,"current_range_meters":24400,"station_id":"ce4bhip2rcd13ifvqft0","pricing_plan_id":"cebpf4jnsgd1na2vs0mg"},{"bike_id":"1fb78a65-e34f-4d92-85da-98df38c1c777","system_id":"levelo_inurba_marseille","lat":43.2892,"lon":5.38392,"is_reserved":false,"is_disabled":false,"rental_uris":{"android":"levelo://app?vid=1fb78a65-e34f-4d92-85da-98df38c1c777","ios":"levelo://app?vid=1fb78a65-e34f-4d92-85da-98df38c1c777"},"vehicle_type_id":"4","last_reported":1729973363,"current_range_meters":40000,"station_id":"ce4bh612rcd13ifvqe6g","pricing_plan_id":"cebpf4jnsgd1na2vs0mg"},{"bike_id":"8b04617d-cd57-4971-bd98-9652b5aed812","system_id":"levelo_inurba_marseille","lat":43.29293,"lon":5.37465,"is_reserved":false,"is_disabled":false,"rental_uris":{"android":"levelo://app?vid=8b04617d-cd57-4971-bd98-9652b5aed812","ios":"levelo://app?vid=8b04617d-cd57-4971-bd98-9652b5aed812"},"vehicle_type_id":"4","last_reported":1729973363,"current_range_meters":22800,"station_id":"ce4bgi12rcd13ifvqb70","pricing_plan_id":"cebpf4jnsgd1na2vs0mg"},{"bike_id":"9befed88-9f8c-464c-b07b-093bd97066bb","system_id":"levelo_inurba_marseille","lat":43.29805,"lon":5.37136,"is_reserved":false,"is_disabled":false,"rental_uris":{"android":"levelo://app?vid=9befed88-9f8c-464c-b07b-093bd97066bb","ios":"levelo://app?vid=9befed88-9f8c-464c-b07b-093bd97066bb"},"vehicle_type_id":"4","last_reported":1729973363,"current_range_meters":22800,"station_id":"","pricing_plan_id":"cebpf4jnsgd1na2vs0mg"},{"bike_id":"f37e3b02-a49c-4c4e-b112-f9c8c24edf90","system_id":"levelo_inurba_marseille","lat":43.23196,"lon":5.35561,"is_reserved":false,"is_disabled":false,"rental_uris":{"android":"levelo://app?vid=f37e3b02-a49c-4c4e-b112-f9c8c24edf90","ios":"levelo://app?vid=f37e3b02-a49c-4c4e-b112-f9c8c24edf90"},"vehicle_type_id":"4","last_reported":1729973363,"current_range_meters":20400,"station_id":"ce4bhu92rcd13ifvqi70","pricing_plan_id":"cebpf4jnsgd1na2vs0mg"},{"bike_id":"5fa39193-f34b-44bf-b2f1-c77993a7fee5","system_id":"levelo_inurba_marseille","lat":43.29575,"lon":5.37512,"is_reserved":false,"is_disabled":false,"rental_uris":{"android":"levelo://app?vid=5fa39193-f34b-44bf-b2f1-c77993a7fee5","ios":"levelo://app?vid=5fa39193-f34b-44bf-b2f1-c77993a7fee5"},"vehicle_type_id":"4","last_reported":1729973363,"current_range_meters":30000,"station_id":"ce4bgh92rcd13ifvqb50","pricing_plan_id":"cebpf4jnsgd1na2vs0mg"},{"bike_id":"0f73124e-5ce1-4f80-a168-22aafdc897c9","system_id":"levelo_inurba_marseille","lat":43.29418,"lon":5.38625,"is_reserved":false,"is_disabled":false,"rental_uris":{"android":"levelo://app?vid=0f73124e-5ce1-4f80-a168-22aafdc897c9","ios":"levelo://app?vid=0f73124e-5ce1-4f80-a168-22aafdc897c9"},"vehicle_type_id":"4","last_reported":1729973363,"current_range_meters":22400,"station_id":"ce4bh2h2rcd13ifvqdh0","pricing_plan_id":"cebpf4jnsgd1na2vs0mg"},{"bike_id":"72a0e481-491a-4818-bba9-fd8d3ca2bbaf","system_id":"levelo_inurba_marseille","lat":43.30215,"lon":5.39461,"is_reserved":false,"is_disabled":false,"rental_uris":{"android":"levelo://app?vid=72a0e481-491a-4818-bba9-fd8d3ca2bbaf","ios":"levelo://app?vid=72a0e481-491a-4818-bba9-fd8d3ca2bbaf"},"vehicle_type_id":"4","last_reported":1729973363,"current_range_meters":36400,"station_id":"ce4bh0p2rcd13ifvqd70","pricing_plan_id":"cebpf4jnsgd1na2vs0mg"},{"bike_id":"e8f7756b-9b3c-46b3-ab7c-fb2ca8edfd78","system_id":"levelo_inurba_marseille","lat":43.30596,"lon":5.39354,"is_reserved":false,"is_disabled":false,"rental_uris":{"android":"levelo://app?vid=e8f7756b-9b3c-46b3-ab7c-fb2ca8edfd78","ios":"levelo://app?vid=e8f7756b-9b3c-46b3-ab7c-fb2ca8edfd78"},"vehicle_type_id":"4","last_reported":1729973363,"current_range_meters":33600,"station_id":"ce4bh0p2rcd13ifvqd80","pricing_plan_id":"cebpf4jnsgd1na2vs0mg"},{"bike_id":"a4d2aac1-98f7-4ee9-bb54-2720ee698eac","system_id":"levelo_inurba_marseille","lat":43.25582,"lon":5.38241,"is_reserved":false,"is_disabled":false,"rental_uris":{"android":"levelo://app?vid=a4d2aac1-98f7-4ee9-bb54-2720ee698eac","ios":"levelo://app?vid=a4d2aac1-98f7-4ee9-bb54-2720ee698eac"},"vehicle_type_id":"4","last_reported":1729973363,"current_range_meters":34800,"station_id":"ce4bhih2rcd13ifvqfs0","pricing_plan_id":"cebpf4jnsgd1na2vs0mg"},{"bike_id":"dad2718b-ffdf-4024-8a84-70e058921ae1","system_id":"levelo_inurba_marseille","lat":43.26056,"lon":5.39395,"is_reserved":false,"is_disabled":false,"rental_uris":{"android":"levelo://app?vid=dad2718b-ffdf-4024-8a84-70e058921ae1","ios":"levelo://app?vid=dad2718b-ffdf-4024-8a84-70e058921ae1"},"vehicle_type_id":"4","last_reported":1729973363,"current_range_meters":32000,"station_id":"ce4bhh92rcd13ifvqfj0","pricing_plan_id":"cebpf4jnsgd1na2vs0mg"},{"bike_id":"5c8d47df-cace-44d5-9922-d4ea86fc841f","system_id":"levelo_inurba_marseille","lat":43.23962,"lon":5.36634,"is_reserved":false,"is_disabled":false,"rental_uris":{"android":"levelo://app?vid=5c8d47df-cace-44d5-9922-d4ea86fc841f","ios":"levelo://app?vid=5c8d47df-cace-44d5-9922-d4ea86fc841f"},"vehicle_type_id":"4","last_reported":1729973363,"current_range_meters":40000,"station_id":"ce4bhi12rcd13ifvqfp0","pricing_plan_id":"cebpf4jnsgd1na2vs0mg"},{"bike_id":"b8fbf6cb-4344-49f0-aa51-6bf07fd511fe","system_id":"levelo_inurba_marseille","lat":43.2549,"lon":5.37646,"is_reserved":false,"is_disabled":false,"rental_uris":{"android":"levelo://app?vid=b8fbf6cb-4344-49f0-aa51-6bf07fd511fe","ios":"levelo://app?vid=b8fbf6cb-4344-49f0-aa51-6bf07fd511fe"},"vehicle_type_id":"4","last_reported":1729973363,"current_range_meters":26000,"station_id":"ce4bhh12rcd13ifvqff0","pricing_plan_id":"cebpf4jnsgd1na2vs0mg"},{"bike_id":"ee6b2608-9027-41b7-a594-abeda6889556","system_id":"levelo_inurba_marseille","lat":43.27501,"lon":5.42452,"is_reserved":false,"is_disabled":false,"rental_uris":{"android":"levelo://app?vid=ee6b2608-9027-41b7-a594-abeda6889556","ios":"levelo://app?vid=ee6b2608-9027-41b7-a594-abeda6889556"},"vehicle_type_id":"4","last_reported":1729973363,"current_range_meters":28400,"station_id":"ce4bhn92rcd13ifvqgrg","pricing_plan_id":"cebpf4jnsgd1na2vs0mg"},{"bike_id":"51195846-2f5b-4a2e-a314-37864cea1b78","system_id":"levelo_inurba_marseille","lat":43.299785,"lon":5.384918,"is_reserved":false,"is_disabled":false,"rental_uris":{"android":"levelo://app?vid=51195846-2f5b-4a2e-a314-37864cea1b78","ios":"levelo://app?vid=51195846-2f5b-4a2e-a314-37864cea1b78"},"vehicle_type_id":"4","last_reported":1729973363,"current_range_meters":36800,"station_id":"ce4bgj92rcd13ifvqbd0","pricing_plan_id":"cebpf4jnsgd1na2vs0mg"},{"bike_id":"634fa0ef-e7c5-4411-ba71-8fc084888fcb","system_id":"levelo_inurba_marseille","lat":43.27494,"lon":5.42458,"is_reserved":false,"is_disabled":false,"rental_uris":{"android":"levelo://app?vid=634fa0ef-e7c5-4411-ba71-8fc084888fcb","ios":"levelo://app?vid=634fa0ef-e7c5-4411-ba71-8fc084888fcb"},"vehicle_type_id":"4","last_reported":1729973363,"current_range_meters":30000,"station_id":"ce4bhn92rcd13ifvqgrg","pricing_plan_id":"cebpf4jnsgd1na2vs0mg"},{"bike_id":"63dffe58-b321-4992-b66b-9f28a3e3e3b4","system_id":"levelo_inurba_marseille","lat":43.29964,"lon":5.41313,"is_reserved":false,"is_disabled":false,"rental_uris":{"android":"levelo://app?vid=63dffe58-b321-4992-b66b-9f28a3e3e3b4","ios":"levelo://app?vid=63dffe58-b321-4992-b66b-9f28a3e3e3b4"},"vehicle_type_id":"4","last_reported":1729973363,"current_range_meters":40000,"station_id":"ce4bhp12rcd13ifvqh9g","pricing_plan_id":"cebpf4jnsgd1na2vs0mg"},{"bike_id":"1dad2584-d047-43de-bd2d-e80dcd050063","system_id":"levelo_inurba_marseille","lat":43.2732,"lon":5.39081,"is_reserved":false,"is_disabled":false,"rental_uris":{"android":"levelo://app?vid=1dad2584-d047-43de-bd2d-e80dcd050063","ios":"levelo://app?vid=1dad2584-d047-43de-bd2d-e80dcd050063"},"vehicle_type_id":"4","last_reported":1729973363,"current_range_meters":33200,"station_id":"ce4bhgp2rcd13ifvqfe0","pricing_plan_id":"cebpf4jnsgd1na2vs0mg"},{"bike_id":"d4a063d0-710a-490f-9214-5d9a82ceb523","system_id":"levelo_inurba_marseille","lat":43.28701,"lon":5.37363,"is_reserved":false,"is_disabled":false,"rental_uris":{"android":"levelo://app?vid=d4a063d0-710a-490f-9214-5d9a82ceb523","ios":"levelo://app?vid=d4a063d0-710a-490f-9214-5d9a82ceb523"},"vehicle_type_id":"4","last_reported":1729973363,"current_range_meters":38400,"station_id":"ce4bh3p2rcd13ifvqdq0","pricing_plan_id":"cebpf4jnsgd1na2vs0mg"},{"bike_id":"aca2b33f-b66e-4b8a-ba0d-029f32887f02","system_id":"levelo_inurba_marseille","lat":43.29266,"lon":5.384388,"is_reserved":false,"is_disabled":false,"rental_uris":{"android":"levelo://app?vid=aca2b33f-b66e-4b8a-ba0d-029f32887f02","ios":"levelo://app?vid=aca2b33f-b66e-4b8a-ba0d-029f32887f02"},"vehicle_type_id":"4","last_reported":1729973363,"current_range_meters":22800,"station_id":"ce4bh692rcd13ifvqea0","pricing_plan_id":"cebpf4jnsgd1na2vs0mg"},{"bike_id":"75f3b427-9a19-499b-b03f-3a72a2bc01b2","system_id":"levelo_inurba_marseille","lat":43.30327,"lon":5.40447,"is_reserved":false,"is_disabled":false,"rental_uris":{"android":"levelo://app?vid=75f3b427-9a19-499b-b03f-3a72a2bc01b2","ios":"levelo://app?vid=75f3b427-9a19-499b-b03f-3a72a2bc01b2"},"vehicle_type_id":"4","last_reported":1729973363,"current_range_meters":32000,"station_id":"ce4bh012rcd13ifvqd10","pricing_plan_id":"cebpf4jnsgd1na2vs0mg"},{"bike_id":"c88b1700-452c-431d-b61c-02401769d4a0","system_id":"levelo_inurba_marseille","lat":43.29416,"lon":5.38624,"is_reserved":false,"is_disabled":false,"rental_uris":{"android":"levelo://app?vid=c88b1700-452c-431d-b61c-02401769d4a0","ios":"levelo://app?vid=c88b1700-452c-431d-b61c-02401769d4a0"},"vehicle_type_id":"4","last_reported":1729973363,"current_range_meters":30800,"station_id":"ce4bh2h2rcd13ifvqdh0","pricing_plan_id":"cebpf4jnsgd1na2vs0mg"},{"bike_id":"91745847-3dab-4805-a942-94c52db5b126","system_id":"levelo_inurba_marseille","lat":43.30609,"lon":5.37225,"is_reserved":false,"is_disabled":false,"rental_uris":{"android":"levelo://app?vid=91745847-3dab-4805-a942-94c52db5b126","ios":"levelo://app?vid=91745847-3dab-4805-a942-94c52db5b126"},"vehicle_type_id":"4","last_reported":1729973363,"current_range_meters":38400,"station_id":"ce4bgqh2rcd13ifvqc4g","pricing_plan_id":"cebpf4jnsgd1na2vs0mg"},{"bike_id":"31f69d6c-a076-4010-9caa-7569a7134fe2","system_id":"levelo_inurba_marseille","lat":43.31541,"lon":5.38035,"is_reserved":false,"is_disabled":false,"rental_uris":{"android":"levelo://app?vid=31f69d6c-a076-4010-9caa-7569a7134fe2","ios":"levelo://app?vid=31f69d6c-a076-4010-9caa-7569a7134fe2"},"vehicle_type_id":"4","last_reported":1729973363,"current_range_meters":38400,"station_id":"ce4bhsp2rcd13ifvqi50","pricing_plan_id":"cebpf4jnsgd1na2vs0mg"},{"bike_id":"4b4abbaa-dc31-4371-b345-c2f80e3c6bfa","system_id":"levelo_inurba_marseille","lat":43.309282,"lon":5.40144,"is_reserved":false,"is_disabled":false,"rental_uris":{"android":"levelo://app?vid=4b4abbaa-dc31-4371-b345-c2f80e3c6bfa","ios":"levelo://app?vid=4b4abbaa-dc31-4371-b345-c2f80e3c6bfa"},"vehicle_type_id":"4","last_reported":1729973363,"current_range_meters":31200,"station_id":"ce4bgvp2rcd13ifvqct0","pricing_plan_id":"cebpf4jnsgd1na2vs0mg"},{"bike_id":"b425a53a-2ca1-45d6-9375-1a007f59f76d","system_id":"levelo_inurba_marseille","lat":43.27415,"lon":5.3941,"is_reserved":false,"is_disabled":false,"rental_uris":{"android":"levelo://app?vid=b425a53a-2ca1-45d6-9375-1a007f59f76d","ios":"levelo://app?vid=b425a53a-2ca1-45d6-9375-1a007f59f76d"},"vehicle_type_id":"4","last_reported":1729973363,"current_range_meters":18000,"station_id":"ce4bhdp2rcd13ifvqf20","pricing_plan_id":"cebpf4jnsgd1na2vs0mg"},{"bike_id":"e0883e6b-197b-433d-a999-fb30718569e2","system_id":"levelo_inurba_marseille","lat":43.31694,"lon":5.37768,"is_reserved":false,"is_disabled":false,"rental_uris":{"android":"levelo://app?vid=e0883e6b-197b-433d-a999-fb30718569e2","ios":"levelo://app?vid=e0883e6b-197b-433d-a999-fb30718569e2"},"vehicle_type_id":"4","last_reported":1729973363,"current_range_meters":33200,"station_id":"ce4bgth2rcd13ifvqch0","pricing_plan_id":"cebpf4jnsgd1na2vs0mg"},{"bike_id":"d78c6e46-c5ec-463d-abb4-cc8adc32798a","system_id":"levelo_inurba_marseille","lat":43.31179,"lon":5.38706,"is_reserved":false,"is_disabled":false,"rental_uris":{"android":"levelo://app?vid=d78c6e46-c5ec-463d-abb4-cc8adc32798a","ios":"levelo://app?vid=d78c6e46-c5ec-463d-abb4-cc8adc32798a"},"vehicle_type_id":"4","last_reported":1729973363,"current_range_meters":28800,"station_id":"ce4bgv12rcd13ifvqcp0","pricing_plan_id":"cebpf4jnsgd1na2vs0mg"},{"bike_id":"cc4f98a7-65b4-4fb8-a4e1-76db513d94fa","system_id":"levelo_inurba_marseille","lat":43.29294,"lon":5.37456,"is_reserved":false,"is_disabled":false,"rental_uris":{"android":"levelo://app?vid=cc4f98a7-65b4-4fb8-a4e1-76db513d94fa","ios":"levelo://app?vid=cc4f98a7-65b4-4fb8-a4e1-76db513d94fa"},"vehicle_type_id":"4","last_reported":1729973363,"current_range_meters":36400,"station_id":"ce4bgi12rcd13ifvqb70","pricing_plan_id":"cebpf4jnsgd1na2vs0mg"},{"bike_id":"a1b80174-51e4-493d-96af-04d40eab308b","system_id":"levelo_inurba_marseille","lat":43.28078,"lon":5.39654,"is_reserved":false,"is_disabled":false,"rental_uris":{"android":"levelo://app?vid=a1b80174-51e4-493d-96af-04d40eab308b","ios":"levelo://app?vid=a1b80174-51e4-493d-96af-04d40eab308b"},"vehicle_type_id":"4","last_reported":1729973363,"current_range_meters":38000,"station_id":"ce4bho12rcd13ifvqh2g","pricing_plan_id":"cebpf4jnsgd1na2vs0mg"},{"bike_id":"2fdd8efd-807f-43c0-a5f8-acb8d352d834","system_id":"levelo_inurba_marseille","lat":43.3237,"lon":5.38873,"is_reserved":false,"is_disabled":false,"rental_uris":{"android":"levelo://app?vid=2fdd8efd-807f-43c0-a5f8-acb8d352d834","ios":"levelo://app?vid=2fdd8efd-807f-43c0-a5f8-acb8d352d834"},"vehicle_type_id":"4","last_reported":1729973363,"current_range_meters":8000,"station_id":"ce4bhqp2rcd13ifvqhog","pricing_plan_id":"cebpf4jnsgd1na2vs0mg"},{"bike_id":"cda4e669-bff4-47ce-b9f1-0b2fd51049cf","system_id":"levelo_inurba_marseille","lat":43.29582,"lon":5.36739,"is_reserved":false,"is_disabled":false,"rental_uris":{"android":"levelo://app?vid=cda4e669-bff4-47ce-b9f1-0b2fd51049cf","ios":"levelo://app?vid=cda4e669-bff4-47ce-b9f1-0b2fd51049cf"},"vehicle_type_id":"4","last_reported":1729973363,"current_range_meters":39200,"station_id":"ce4bgph2rcd13ifvqc2g","pricing_plan_id":"cebpf4jnsgd1na2vs0mg"},{"bike_id":"43df6f01-ce4c-441f-bf0c-95fe2920d7eb","system_id":"levelo_inurba_marseille","lat":43.26567,"lon":5.38997,"is_reserved":false,"is_disabled":false,"rental_uris":{"android":"levelo://app?vid=43df6f01-ce4c-441f-bf0c-95fe2920d7eb","ios":"levelo://app?vid=43df6f01-ce4c-441f-bf0c-95fe2920d7eb"},"vehicle_type_id":"4","last_reported":1729973363,"current_range_meters":31200,"station_id":"ce4bhe12rcd13ifvqf30","pricing_plan_id":"cebpf4jnsgd1na2vs0mg"},{"bike_id":"b3be71f1-cb8f-4ae1-ae1c-c6022e6f867e","system_id":"levelo_inurba_marseille","lat":43.27176,"lon":5.40987,"is_reserved":false,"is_disabled":false,"rental_uris":{"android":"levelo://app?vid=b3be71f1-cb8f-4ae1-ae1c-c6022e6f867e","ios":"levelo://app?vid=b3be71f1-cb8f-4ae1-ae1c-c6022e6f867e"},"vehicle_type_id":"4","last_reported":1729973363,"current_range_meters":40000,"station_id":"ce4bhl12rcd13ifvqgf0","pricing_plan_id":"cebpf4jnsgd1na2vs0mg"},{"bike_id":"15db73b0-1d6d-44e8-90b8-473b9bae228b","system_id":"levelo_inurba_marseille","lat":43.31367,"lon":5.38498,"is_reserved":false,"is_disabled":false,"rental_uris":{"android":"levelo://app?vid=15db73b0-1d6d-44e8-90b8-473b9bae228b","ios":"levelo://app?vid=15db73b0-1d6d-44e8-90b8-473b9bae228b"},"vehicle_type_id":"4","last_reported":1729973363,"current_range_meters":39200,"station_id":"ce4bgt92rcd13ifvqcf0","pricing_plan_id":"cebpf4jnsgd1na2vs0mg"},{"bike_id":"c3f36ed2-a58c-41e0-99c5-563ab61a37d9","system_id":"levelo_inurba_marseille","lat":43.258785,"lon":5.39898,"is_reserved":false,"is_disabled":false,"rental_uris":{"android":"levelo://app?vid=c3f36ed2-a58c-41e0-99c5-563ab61a37d9","ios":"levelo://app?vid=c3f36ed2-a58c-41e0-99c5-563ab61a37d9"},"vehicle_type_id":"4","last_reported":1729973363,"current_range_meters":27600,"station_id":"ce4bhl92rcd13ifvqghg","pricing_plan_id":"cebpf4jnsgd1na2vs0mg"},{"bike_id":"c47ee273-d152-426c-939b-6002a5dfd2a9","system_id":"levelo_inurba_marseille","lat":43.28479,"lon":5.3841,"is_reserved":false,"is_disabled":false,"rental_uris":{"android":"levelo://app?vid=c47ee273-d152-426c-939b-6002a5dfd2a9","ios":"levelo://app?vid=c47ee273-d152-426c-939b-6002a5dfd2a9"},"vehicle_type_id":"4","last_reported":1729973363,"current_range_meters":15200,"station_id":"ce4bh512rcd13ifvqe3g","pricing_plan_id":"cebpf4jnsgd1na2vs0mg"},{"bike_id":"b84fb6cc-64a5-4254-904e-23c1d21a04a8","system_id":"levelo_inurba_marseille","lat":43.29027,"lon":5.38623,"is_reserved":false,"is_disabled":false,"rental_uris":{"android":"levelo://app?vid=b84fb6cc-64a5-4254-904e-23c1d21a04a8","ios":"levelo://app?vid=b84fb6cc-64a5-4254-904e-23c1d21a04a8"},"vehicle_type_id":"4","last_reported":1729973363,"current_range_meters":32400,"station_id":"ce4bh4p2rcd13ifvqe0g","pricing_plan_id":"cebpf4jnsgd1na2vs0mg"},{"bike_id":"974b0d93-0ad3-46ab-b034-8cc818e8166a","system_id":"levelo_inurba_marseille","lat":43.29583,"lon":5.36742,"is_reserved":false,"is_disabled":false,"rental_uris":{"android":"levelo://app?vid=974b0d93-0ad3-46ab-b034-8cc818e8166a","ios":"levelo://app?vid=974b0d93-0ad3-46ab-b034-8cc818e8166a"},"vehicle_type_id":"4","last_reported":1729973363,"current_range_meters":33200,"station_id":"ce4bgph2rcd13ifvqc2g","pricing_plan_id":"cebpf4jnsgd1na2vs0mg"},{"bike_id":"f67d08b7-bf04-49ab-a611-b82d369ca098","system_id":"levelo_inurba_marseille","lat":43.28934,"lon":5.38387,"is_reserved":false,"is_disabled":false,"rental_uris":{"android":"levelo://app?vid=f67d08b7-bf04-49ab-a611-b82d369ca098","ios":"levelo://app?vid=f67d08b7-bf04-49ab-a611-b82d369ca098"},"vehicle_type_id":"4","last_reported":1729973363,"current_range_meters":38800,"station_id":"ce4bh612rcd13ifvqe6g","pricing_plan_id":"cebpf4jnsgd1na2vs0mg"},{"bike_id":"d4b0d68a-ae82-42a1-b0da-b39254ee1044","system_id":"levelo_inurba_marseille","lat":43.23192,"lon":5.35549,"is_reserved":false,"is_disabled":false,"rental_uris":{"android":"levelo://app?vid=d4b0d68a-ae82-42a1-b0da-b39254ee1044","ios":"levelo://app?vid=d4b0d68a-ae82-42a1-b0da-b39254ee1044"},"vehicle_type_id":"4","last_reported":1729973363,"current_range_meters":16000,"station_id":"ce4bhu92rcd13ifvqi70","pricing_plan_id":"cebpf4jnsgd1na2vs0mg"},{"bike_id":"5f50ed72-84a6-4dbf-bc2b-a059f5899621","system_id":"levelo_inurba_marseille","lat":43.31526,"lon":5.38027,"is_reserved":false,"is_disabled":false,"rental_uris":{"android":"levelo://app?vid=5f50ed72-84a6-4dbf-bc2b-a059f5899621","ios":"levelo://app?vid=5f50ed72-84a6-4dbf-bc2b-a059f5899621"},"vehicle_type_id":"4","last_reported":1729973363,"current_range_meters":16400,"station_id":"ce4bhsp2rcd13ifvqi50","pricing_plan_id":"cebpf4jnsgd1na2vs0mg"},{"bike_id":"b36635ec-777f-460b-8fc4-683b4e7937dc","system_id":"levelo_inurba_marseille","lat":43.23964,"lon":5.36637,"is_reserved":false,"is_disabled":false,"rental_uris":{"android":"levelo://app?vid=b36635ec-777f-460b-8fc4-683b4e7937dc","ios":"levelo://app?vid=b36635ec-777f-460b-8fc4-683b4e7937dc"},"vehicle_type_id":"4","last_reported":1729973363,"current_range_meters":20000,"station_id":"ce4bhi12rcd13ifvqfp0","pricing_plan_id":"cebpf4jnsgd1na2vs0mg"},{"bike_id":"8a4bcf96-bd17-4b6c-b318-c8da424ef947","system_id":"levelo_inurba_marseille","lat":43.31076,"lon":5.38357,"is_reserved":false,"is_disabled":false,"rental_uris":{"android":"levelo://app?vid=8a4bcf96-bd17-4b6c-b318-c8da424ef947","ios":"levelo://app?vid=8a4bcf96-bd17-4b6c-b318-c8da424ef947"},"vehicle_type_id":"4","last_reported":1729973363,"current_range_meters":30400,"station_id":"ce4bgv92rcd13ifvqcr0","pricing_plan_id":"cebpf4jnsgd1na2vs0mg"},{"bike_id":"3e1205ab-0bc6-479c-9e06-2c971082cf74","system_id":"levelo_inurba_marseille","lat":43.3204,"lon":5.41555,"is_reserved":false,"is_disabled":false,"rental_uris":{"android":"levelo://app?vid=3e1205ab-0bc6-479c-9e06-2c971082cf74","ios":"levelo://app?vid=3e1205ab-0bc6-479c-9e06-2c971082cf74"},"vehicle_type_id":"4","last_reported":1729973363,"current_range_meters":16400,"station_id":"ce4bhq92rcd13ifvqhkg","pricing_plan_id":"cebpf4jnsgd1na2vs0mg"},{"bike_id":"8a7ea3b3-7c19-4f13-a31a-07202c98e2c3","system_id":"levelo_inurba_marseille","lat":43.32486,"lon":5.36562,"is_reserved":false,"is_disabled":false,"rental_uris":{"android":"levelo://app?vid=8a7ea3b3-7c19-4f13-a31a-07202c98e2c3","ios":"levelo://app?vid=8a7ea3b3-7c19-4f13-a31a-07202c98e2c3"},"vehicle_type_id":"4","last_reported":1729973363,"current_range_meters":24800,"station_id":"ce4bhs12rcd13ifvqhvg","pricing_plan_id":"cebpf4jnsgd1na2vs0mg"},{"bike_id":"04518ea9-c53f-40a3-80da-3e58bba4a32f","system_id":"levelo_inurba_marseille","lat":43.22928,"lon":5.35376,"is_reserved":false,"is_disabled":false,"rental_uris":{"android":"levelo://app?vid=04518ea9-c53f-40a3-80da-3e58bba4a32f","ios":"levelo://app?vid=04518ea9-c53f-40a3-80da-3e58bba4a32f"},"vehicle_type_id":"4","last_reported":1729973363,"current_range_meters":30800,"station_id":"cpo3532slgdg3j2ikp40","pricing_plan_id":"cebpf4jnsgd1na2vs0mg"},{"bike_id":"3d537944-7a77-435d-8e52-b9b7b4261932","system_id":"levelo_inurba_marseille","lat":43.29622,"lon":5.37154,"is_reserved":false,"is_disabled":false,"rental_uris":{"android":"levelo://app?vid=3d537944-7a77-435d-8e52-b9b7b4261932","ios":"levelo://app?vid=3d537944-7a77-435d-8e52-b9b7b4261932"},"vehicle_type_id":"4","last_reported":1729973363,"current_range_meters":40000,"station_id":"ce4bgnh2rcd13ifvqc0g","pricing_plan_id":"cebpf4jnsgd1na2vs0mg"},{"bike_id":"d328d0f7-b32c-4f33-a39d-db6233bde0c7","system_id":"levelo_inurba_marseille","lat":43.27313,"lon":5.39076,"is_reserved":false,"is_disabled":false,"rental_uris":{"android":"levelo://app?vid=d328d0f7-b32c-4f33-a39d-db6233bde0c7","ios":"levelo://app?vid=d328d0f7-b32c-4f33-a39d-db6233bde0c7"},"vehicle_type_id":"4","last_reported":1729973363,"current_range_meters":18800,"station_id":"ce4bhgp2rcd13ifvqfe0","pricing_plan_id":"cebpf4jnsgd1na2vs0mg"},{"bike_id":"f85fbfcf-945c-45c7-91a8-0ae032705e91","system_id":"levelo_inurba_marseille","lat":43.31683,"lon":5.37777,"is_reserved":false,"is_disabled":false,"rental_uris":{"android":"levelo://app?vid=f85fbfcf-945c-45c7-91a8-0ae032705e91","ios":"levelo://app?vid=f85fbfcf-945c-45c7-91a8-0ae032705e91"},