{"last_updated":1752347246,"ttl":60,"version":"2.2","data":{"bikes":[{"bike_id":"1e4d0210-df05-4268-a154-fd029b9f22c2","system_id":"levelo_inurba_marseille","lat":43.24662,"lon":5.38166,"is_reserved":false,"is_disabled":false,"rental_uris":{"android":"levelo://app?vid=1e4d0210-df05-4268-a154-fd029b9f22c2","ios":"levelo://app?vid=1e4d0210-df05-4268-a154-fd029b9f22c2"},"vehicle_type_id":"4","last_reported":1752347246,"current_range_meters":2800,"station_id":"ce4bhih2rcd13ifvqfr0","pricing_plan_id":"cebpf4jnsgd1na2vs0mg"},{"bike_id":"733cdf2f-9344-485e-af92-546feccd0261","system_id":"levelo_inurba_marseille","lat":43.30545,"lon":5.365609,"is_reserved":false,"is_disabled":true,"rental_uris":{"android":"levelo://app?vid=733cdf2f-9344-485e-af92-546feccd0261","ios":"levelo://app?vid=733cdf2f-9344-485e-af92-546feccd0261"},"vehicle_type_id":"4","last_reported":1752347246,"current_range_meters":3200,"station_id":"ce4bgs12rcd13ifvqcag","pricing_plan_id":"cebpf4jnsgd1na2vs0mg"},{"bike_id":"0608d800-097b-4f70-a518-7bebbd73d51f","system_id":"levelo_inurba_marseille","lat":43.31365,"lon":5.38489,"is_reserved":false,"is_disabled":true,"rental_uris":{"android":"levelo://app?vid=0608d800-097b-4f70-a518-7bebbd73d51f","ios":"levelo://app?vid=0608d800-097b-4f70-a518-7bebbd73d51f"},"vehicle_type_id":"4","last_reported":1752347246,"current_range_meters":3200,"station_id":"ce4bgt92rcd13ifvqcf0","pricing_plan_id":"cebpf4jnsgd1na2vs0mg"},{"bike_id":"2346baa2-6b00-45fd-b408-226d9322baeb","system_id":"levelo_inurba_marseille","lat":43.32358,"lon":5.38864,"is_reserved":false,"is_disabled":false,"rental_uris":{"android":"levelo://app?vid=2346baa2-6b00-45fd-b408-226d9322baeb","ios":"levelo://app?vid=2346baa2-6b00-45fd-b408-226d9322baeb"},"vehicle_type_id":"4","last_reported":1752347246,"current_range_meters":3600,"station_id":"ce4bhqp2rcd13ifvqhog","pricing_plan_id":"cebpf4jnsgd1na2vs0mg"},{"bike_id":"e44f6918-b036-435f-9131-65afdd5eec91","system_id":"levelo_inurba_marseille","lat":43.26022,"lon":5.37555,"is_reserved":false,"is_disabled":false,"rental_uris":{"android":"levelo://app?vid=e44f6918-b036-435f-9131-65afdd5eec91","ios":"levelo://app?vid=e44f6918-b036-435f-9131-65afdd5eec91"},"vehicle_type_id":"4","last_reported":1752347246,"current_range_meters":3600,"station_id":"ce4bhgh2rcd13ifvqfa0","pricing_plan_id":"cebpf4jnsgd1na2vs0mg"},{"bike_id":"1d3afb7d-7c29-4139-bc1a-3f783a7c620e","system_id":"levelo_inurba_marseille","lat":43.29305,"lon":5.3718,"is_reserved":false,"is_disabled":false,"rental_uris":{"android":"levelo://app?vid=1d3afb7d-7c29-4139-bc1a-3f783a7c620e","ios":"levelo://app?vid=1d3afb7d-7c29-4139-bc1a-3f783a7c620e"},"vehicle_type_id":"4","last_reported":1752347246,"current_range_meters":3600,"station_id":"ce4bgh92rcd13ifvqb40","pricing_plan_id":"cebpf4jnsgd1na2vs0mg"},{"bike_id":"3468dea2-6748-4a5a-8e63-17ed7ea5882b","system_id":"levelo_inurba_marseille","lat":43.29785,"lon":5.38115,"is_reserved":false,"is_disabled":true,"rental_uris":{"android":"levelo://app?vid=3468dea2-6748-4a5a-8e63-17ed7ea5882b","ios":"levelo://app?vid=3468dea2-6748-4a5a-8e63-17ed7ea5882b"},"vehicle_type_id":"4","last_reported":1752347246,"current_range_meters":4000,"station_id":"ce4bgip2rcd13ifvqbb0","pricing_plan_id":"cebpf4jnsgd1na2vs0mg"},{"bike_id":"cdf9e0ba-8e2e-4dd7-8644-523740a251e2","system_id":"levelo_inurba_marseille","lat":43.29942,"lon":5.36541,"is_reserved":false,"is_disabled":false,"rental_uris":{"android":"levelo://app?vid=cdf9e0ba-8e2e-4dd7-8644-523740a251e2","ios":"levelo://app?vid=cdf9e0ba-8e2e-4dd7-8644-523740a251e2"},"vehicle_type_id":"4","last_reported":1752347246,"current_range_meters":4400,"station_id":"ce4bgm92rcd13ifvqbr0","pricing_plan_id":"cebpf4jnsgd1na2vs0mg"},{"bike_id":"04750856-24cd-4824-8646-52b7abfb8f90","system_id":"levelo_inurba_marseille","lat":43.30092,"lon":5.39074,"is_reserved":false,"is_disabled":false,"rental_uris":{"android":"levelo://app?vid=04750856-24cd-4824-8646-52b7abfb8f90","ios":"levelo://app?vid=04750856-24cd-4824-8646-52b7abfb8f90"},"vehicle_type_id":"4","last_reported":1752347246,"current_range_meters":4400,"station_id":"ce4bh192rcd13ifvqdb0","pricing_plan_id":"cebpf4jnsgd1na2vs0mg"},{"bike_id":"3b516caa-f86d-4498-a67b-b5dc4c2f0324","system_id":"levelo_inurba_marseille","lat":43.24169,"lon":5.364,"is_reserved":false,"is_disabled":false,"rental_uris":{"android":"levelo://app?vid=3b516caa-f86d-4498-a67b-b5dc4c2f0324","ios":"levelo://app?vid=3b516caa-f86d-4498-a67b-b5dc4c2f0324"},"vehicle_type_id":"4","last_reported":1752347246,"current_range_meters":4400,"station_id":"cpo36qri1sfpv3e86is0","pricing_plan_id":"cebpf4jnsgd1na2vs0mg"},{"bike_id":"183f1299-bf42-4475-803f-a25c30ec25bf","system_id":"levelo_inurba_marseille","lat":43.30943,"lon":5.39033,"is_reserved":false,"is_disabled":false,"rental_uris":{"android":"levelo://app?vid=183f1299-bf42-4475-803f-a25c30ec25bf","ios":"levelo://app?vid=183f1299-bf42-4475-803f-a25c30ec25bf"},"vehicle_type_id":"4","last_reported":1752347246,"current_range_meters":4400,"station_id":"ce4bgup2rcd13ifvqco0","pricing_plan_id":"cebpf4jnsgd1na2vs0mg"},{"bike_id":"e60a83f3-6af6-4039-bcfa-c51c7e8c6158","system_id":"levelo_inurba_marseille","lat":43.33431,"lon":5.40038,"is_reserved":false,"is_disabled":false,"rental_uris":{"android":"levelo://app?vid=e60a83f3-6af6-4039-bcfa-c51c7e8c6158","ios":"levelo://app?vid=e60a83f3-6af6-4039-bcfa-c51c7e8c6158"},"vehicle_type_id":"4","last_reported":1752347246,"current_range_meters":4800,"station_id":"","pricing_plan_id":"cebpf4jnsgd1na2vs0mg"},{"bike_id":"e227e6ce-c15c-40ef-a732-c27ca58d5c81","system_id":"levelo_inurba_marseille","lat":43.28665,"lon":5.36345,"is_reserved":false,"is_disabled":false,"rental_uris":{"android":"levelo://app?vid=e227e6ce-c15c-40ef-a732-c27ca58d5c81","ios":"levelo://app?vid=e227e6ce-c15c-40ef-a732-c27ca58d5c81"},"vehicle_type_id":"4","last_reported":1752347246,"current_range_meters":5600,"station_id":"ce4bhah2rcd13ifvqej0","pricing_plan_id":"cebpf4jnsgd1na2vs0mg"},{"bike_id":"4cbc2a95-4f78-4112-871c-e00916a37bb3","system_id":"levelo_inurba_marseille","lat":43.29255,"lon":5.40903,"is_reserved":false,"is_disabled":false,"rental_uris":{"android":"levelo://app?vid=4cbc2a95-4f78-4112-871c-e00916a37bb3","ios":"levelo://app?vid=4cbc2a95-4f78-4112-871c-e00916a37bb3"},"vehicle_type_id":"4","last_reported":1752347246,"current_range_meters":6000,"station_id":"ce4bh192rcd13ifvqdc0","pricing_plan_id":"cebpf4jnsgd1na2vs0mg"},{"bike_id":"c4cb91f3-21de-4fc5-9c62-bcf13ddf8388","system_id":"levelo_inurba_marseille","lat":43.26574,"lon":5.39003,"is_reserved":false,"is_disabled":true,"rental_uris":{"android":"levelo://app?vid=c4cb91f3-21de-4fc5-9c62-bcf13ddf8388","ios":"levelo://app?vid=c4cb91f3-21de-4fc5-9c62-bcf13ddf8388"},"vehicle_type_id":"4","last_reported":1752347246,"current_range_meters":6400,"station_id":"ce4bhe12rcd13ifvqf30","pricing_plan_id":"cebpf4jnsgd1na2vs0mg"},{"bike_id":"685de7b6-8e26-4bed-90ea-ffa905d249d6","system_id":"levelo_inurba_marseille","lat":43.29062,"lon":5.37154,"is_reserved":false,"is_disabled":false,"rental_uris":{"android":"levelo://app?vid=685de7b6-8e26-4bed-90ea-ffa905d249d6","ios":"levelo://app?vid=685de7b6-8e26-4bed-90ea-ffa905d249d6"},"vehicle_type_id":"4","last_reported":1752347246,"current_range_meters":6400,"station_id":"ce4bh5p2rcd13ifvqe4g","pricing_plan_id":"cebpf4jnsgd1na2vs0mg"},{"bike_id":"9628fc31-6936-43ec-bf4c-f53aaa82a6a9","system_id":"levelo_inurba_marseille","lat":43.33602,"lon":5.41032,"is_reserved":false,"is_disabled":false,"rental_uris":{"android":"levelo://app?vid=9628fc31-6936-43ec-bf4c-f53aaa82a6a9","ios":"levelo://app?vid=9628fc31-6936-43ec-bf4c-f53aaa82a6a9"},"vehicle_type_id":"4","last_reported":1752347246,"current_range_meters":6400,"station_id":"ce4bhqh2rcd13ifvqhmg","pricing_plan_id":"cebpf4jnsgd1na2vs0mg"},{"bike_id":"b78bace3-9a93-4057-bfd1-e47cea6ed9ef","system_id":"levelo_inurba_marseille","lat":43.262054,"lon":5.374418,"is_reserved":false,"is_disabled":false,"rental_uris":{"android":"levelo://app?vid=b78bace3-9a93-4057-bfd1-e47cea6ed9ef","ios":"levelo://app?vid=b78bace3-9a93-4057-bfd1-e47cea6ed9ef"},"vehicle_type_id":"4","last_reported":1752347246,"current_range_meters":6400,"station_id":"ce4bhgp2rcd13ifvqfc0","pricing_plan_id":"cebpf4jnsgd1na2vs0mg"},{"bike_id":"0d199b81-0d50-40b2-a053-756d2dd8ca28","system_id":"levelo_inurba_marseille","lat":43.299125,"lon":5.374604,"is_reserved":false,"is_disabled":false,"rental_uris":{"android":"levelo://app?vid=0d199b81-0d50-40b2-a053-756d2dd8ca28","ios":"levelo://app?vid=0d199b81-0d50-40b2-a053-756d2dd8ca28"},"vehicle_type_id":"4","last_reported":1752347246,"current_range_meters":6800,"station_id":"ce4bgjh2rcd13ifvqbg0","pricing_plan_id":"cebpf4jnsgd1na2vs0mg"},{"bike_id":"3756969e-c913-4463-b8d5-f958fdd0684c","system_id":"levelo_inurba_marseille","lat":43.23178,"lon":5.39985,"is_reserved":false,"is_disabled":false,"rental_uris":{"android":"levelo://app?vid=3756969e-c913-4463-b8d5-f958fdd0684c","ios":"levelo://app?vid=3756969e-c913-4463-b8d5-f958fdd0684c"},"vehicle_type_id":"4","last_reported":1752347246,"current_range_meters":6800,"station_id":"ce4bhn12rcd13ifvqgqg","pricing_plan_id":"cebpf4jnsgd1na2vs0mg"},{"bike_id":"69ea4381-7619-4d51-9e16-291e9da7dff5","system_id":"levelo_inurba_marseille","lat":43.27374,"lon":5.36259,"is_reserved":false,"is_disabled":false,"rental_uris":{"android":"levelo://app?vid=69ea4381-7619-4d51-9e16-291e9da7dff5","ios":"levelo://app?vid=69ea4381-7619-4d51-9e16-291e9da7dff5"},"vehicle_type_id":"4","last_reported":1752347246,"current_range_meters":6800,"station_id":"ce4bhbh2rcd13ifvqeo0","pricing_plan_id":"cebpf4jnsgd1na2vs0mg"},{"bike_id":"4701a18c-d6c0-4281-9efd-8c244f45f570","system_id":"levelo_inurba_marseille","lat":43.3249,"lon":5.3901,"is_reserved":false,"is_disabled":false,"rental_uris":{"android":"levelo://app?vid=4701a18c-d6c0-4281-9efd-8c244f45f570","ios":"levelo://app?vid=4701a18c-d6c0-4281-9efd-8c244f45f570"},"vehicle_type_id":"4","last_reported":1752347246,"current_range_meters":6800,"station_id":"","pricing_plan_id":"cebpf4jnsgd1na2vs0mg"},{"bike_id":"953e9af3-b00e-4189-a322-5495f458fc6d","system_id":"levelo_inurba_marseille","lat":43.29527,"lon":5.38548,"is_reserved":false,"is_disabled":false,"rental_uris":{"android":"levelo://app?vid=953e9af3-b00e-4189-a322-5495f458fc6d","ios":"levelo://app?vid=953e9af3-b00e-4189-a322-5495f458fc6d"},"vehicle_type_id":"4","last_reported":1752347246,"current_range_meters":6800,"station_id":"ce4bgih2rcd13ifvqba0","pricing_plan_id":"cebpf4jnsgd1na2vs0mg"},{"bike_id":"cb9282c9-0a04-426f-af4a-9dc494a82650","system_id":"levelo_inurba_marseille","lat":43.225037,"lon":5.347922,"is_reserved":false,"is_disabled":false,"rental_uris":{"android":"levelo://app?vid=cb9282c9-0a04-426f-af4a-9dc494a82650","ios":"levelo://app?vid=cb9282c9-0a04-426f-af4a-9dc494a82650"},"vehicle_type_id":"4","last_reported":1752347246,"current_range_meters":6800,"station_id":"","pricing_plan_id":"cebpf4jnsgd1na2vs0mg"},{"bike_id":"534ed68d-5ceb-43a8-968b-be30f01dfa74","system_id":"levelo_inurba_marseille","lat":43.282207,"lon":5.390767,"is_reserved":false,"is_disabled":false,"rental_uris":{"android":"levelo://app?vid=534ed68d-5ceb-43a8-968b-be30f01dfa74","ios":"levelo://app?vid=534ed68d-5ceb-43a8-968b-be30f01dfa74"},"vehicle_type_id":"4","last_reported":1752347246,"current_range_meters":7200,"station_id":"","pricing_plan_id":"cebpf4jnsgd1na2vs0mg"},{"bike_id":"5f6082ef-e4fa-4931-9809-c53d0a27bb00","system_id":"levelo_inurba_marseille","lat":43.28414,"lon":5.37519,"is_reserved":false,"is_disabled":true,"rental_uris":{"android":"levelo://app?vid=5f6082ef-e4fa-4931-9809-c53d0a27bb00","ios":"levelo://app?vid=5f6082ef-e4fa-4931-9809-c53d0a27bb00"},"vehicle_type_id":"4","last_reported":1752347246,"current_range_meters":7200,"station_id":"ce4bh412rcd13ifvqds0","pricing_plan_id":"cebpf4jnsgd1na2vs0mg"},{"bike_id":"bced4aa7-a628-4057-a6e6-27edc27c5e17","system_id":"levelo_inurba_marseille","lat":43.212037,"lon":5.35062,"is_reserved":false,"is_disabled":false,"rental_uris":{"android":"levelo://app?vid=bced4aa7-a628-4057-a6e6-27edc27c5e17","ios":"levelo://app?vid=bced4aa7-a628-4057-a6e6-27edc27c5e17"},"vehicle_type_id":"4","last_reported":1752347246,"current_range_meters":7200,"station_id":"st_cvj6sg6p6f1abm77japg","pricing_plan_id":"cebpf4jnsgd1na2vs0mg"},{"bike_id":"6a7f3fd1-1e04-4e84-af61-750524402007","system_id":"levelo_inurba_marseille","lat":43.2917,"lon":5.38447,"is_reserved":false,"is_disabled":false,"rental_uris":{"android":"levelo://app?vid=6a7f3fd1-1e04-4e84-af61-750524402007","ios":"levelo://app?vid=6a7f3fd1-1e04-4e84-af61-750524402007"},"vehicle_type_id":"4","last_reported":1752347246,"current_range_meters":7200,"station_id":"","pricing_plan_id":"cebpf4jnsgd1na2vs0mg"},{"bike_id":"3c4552a5-5614-4c82-b6dc-da5ec6fa86d8","system_id":"levelo_inurba_marseille","lat":43.26023,"lon":5.37552,"is_reserved":false,"is_disabled":false,"rental_uris":{"android":"levelo://app?vid=3c4552a5-5614-4c82-b6dc-da5ec6fa86d8","ios":"levelo://app?vid=3c4552a5-5614-4c82-b6dc-da5ec6fa86d8"},"vehicle_type_id":"4","last_reported":1752347246,"current_range_meters":7200,"station_id":"ce4bhgh2rcd13ifvqfa0","pricing_plan_id":"cebpf4jnsgd1na2vs0mg"},{"bike_id":"98a7cb1d-872f-4911-be61-aa155e8dbb63","system_id":"levelo_inurba_marseille","lat":43.29939,"lon":5.36527,"is_reserved":false,"is_disabled":false,"rental_uris":{"android":"levelo://app?vid=98a7cb1d-872f-4911-be61-aa155e8dbb63","ios":"levelo://app?vid=98a7cb1d-872f-4911-be61-aa155e8dbb63"},"vehicle_type_id":"4","last_reported":1752347246,"current_range_meters":8000,"station_id":"ce4bgm92rcd13ifvqbr0","pricing_plan_id":"cebpf4jnsgd1na2vs0mg"},{"bike_id":"91f89d24-d5de-4e85-bb61-d242526dd3b0","system_id":"levelo_inurba_marseille","lat":43.31121,"lon":5.37771,"is_reserved":false,"is_disabled":false,"rental_uris":{"android":"levelo://app?vid=91f89d24-d5de-4e85-bb61-d242526dd3b0","ios":"levelo://app?vid=91f89d24-d5de-4e85-bb61-d242526dd3b0"},"vehicle_type_id":"4","last_reported":1752347246,"current_range_meters":8000,"station_id":"ce4bgt92rcd13ifvqcg0","pricing_plan_id":"cebpf4jnsgd1na2vs0mg"},{"bike_id":"f5b9149d-5de1-416d-a7a4-37be9b022a2e","system_id":"levelo_inurba_marseille","lat":43.29708,"lon":5.377,"is_reserved":false,"is_disabled":false,"rental_uris":{"android":"levelo://app?vid=f5b9149d-5de1-416d-a7a4-37be9b022a2e","ios":"levelo://app?vid=f5b9149d-5de1-416d-a7a4-37be9b022a2e"},"vehicle_type_id":"4","last_reported":1752347246,"current_range_meters":8400,"station_id":"ce4bgkh2rcd13ifvqbl0","pricing_plan_id":"cebpf4jnsgd1na2vs0mg"},{"bike_id":"2f0ba75c-aff3-43f4-857b-fc7c66f4e426","system_id":"levelo_inurba_marseille","lat":43.3094,"lon":5.39004,"is_reserved":false,"is_disabled":true,"rental_uris":{"android":"levelo://app?vid=2f0ba75c-aff3-43f4-857b-fc7c66f4e426","ios":"levelo://app?vid=2f0ba75c-aff3-43f4-857b-fc7c66f4e426"},"vehicle_type_id":"4","last_reported":1752347246,"current_range_meters":8400,"station_id":"ce4bgup2rcd13ifvqco0","pricing_plan_id":"cebpf4jnsgd1na2vs0mg"},{"bike_id":"7c4cd190-8c74-4e5b-8fbc-fe653510c798","system_id":"levelo_inurba_marseille","lat":43.26021,"lon":5.37551,"is_reserved":false,"is_disabled":false,"rental_uris":{"android":"levelo://app?vid=7c4cd190-8c74-4e5b-8fbc-fe653510c798","ios":"levelo://app?vid=7c4cd190-8c74-4e5b-8fbc-fe653510c798"},"vehicle_type_id":"4","last_reported":1752347246,"current_range_meters":8400,"station_id":"ce4bhgh2rcd13ifvqfa0","pricing_plan_id":"cebpf4jnsgd1na2vs0mg"},{"bike_id":"9a721a67-800d-41fb-b2c2-3309f63164c3","system_id":"levelo_inurba_marseille","lat":43.21195,"lon":5.35068,"is_reserved":false,"is_disabled":false,"rental_uris":{"android":"levelo://app?vid=9a721a67-800d-41fb-b2c2-3309f63164c3","ios":"levelo://app?vid=9a721a67-800d-41fb-b2c2-3309f63164c3"},"vehicle_type_id":"4","last_reported":1752347246,"current_range_meters":8400,"station_id":"st_cvj6sg6p6f1abm77japg","pricing_plan_id":"cebpf4jnsgd1na2vs0mg"},{"bike_id":"a5ca7410-24c5-405f-b9ae-029576c1c975","system_id":"levelo_inurba_marseille","lat":43.31561,"lon":5.42395,"is_reserved":false,"is_disabled":false,"rental_uris":{"android":"levelo://app?vid=a5ca7410-24c5-405f-b9ae-029576c1c975","ios":"levelo://app?vid=a5ca7410-24c5-405f-b9ae-029576c1c975"},"vehicle_type_id":"4","last_reported":1752347246,"current_range_meters":8400,"station_id":"","pricing_plan_id":"cebpf4jnsgd1na2vs0mg"},{"bike_id":"737bb46a-955d-402f-9979-df5acde862e8","system_id":"levelo_inurba_marseille","lat":43.29599,"lon":5.380953,"is_reserved":false,"is_disabled":false,"rental_uris":{"android":"levelo://app?vid=737bb46a-955d-402f-9979-df5acde862e8","ios":"levelo://app?vid=737bb46a-955d-402f-9979-df5acde862e8"},"vehicle_type_id":"4","last_reported":1752347246,"current_range_meters":8800,"station_id":"ce4bhbh2rcd13ifvqepg","pricing_plan_id":"cebpf4jnsgd1na2vs0mg"},{"bike_id":"76cc2f9d-978f-46b2-bb74-158db85a4fb3","system_id":"levelo_inurba_marseille","lat":43.23181,"lon":5.3999,"is_reserved":false,"is_disabled":false,"rental_uris":{"android":"levelo://app?vid=76cc2f9d-978f-46b2-bb74-158db85a4fb3","ios":"levelo://app?vid=76cc2f9d-978f-46b2-bb74-158db85a4fb3"},"vehicle_type_id":"4","last_reported":1752347246,"current_range_meters":8800,"station_id":"ce4bhn12rcd13ifvqgqg","pricing_plan_id":"cebpf4jnsgd1na2vs0mg"},{"bike_id":"595e9351-a7ce-45de-8995-771f7d9fe86e","system_id":"levelo_inurba_marseille","lat":43.309243,"lon":5.378088,"is_reserved":false,"is_disabled":false,"rental_uris":{"android":"levelo://app?vid=595e9351-a7ce-45de-8995-771f7d9fe86e","ios":"levelo://app?vid=595e9351-a7ce-45de-8995-771f7d9fe86e"},"vehicle_type_id":"4","last_reported":1752347246,"current_range_meters":8800,"station_id":"","pricing_plan_id":"cebpf4jnsgd1na2vs0mg"},{"bike_id":"66c0b210-5a31-4db4-ba46-fcf2b399cc6f","system_id":"levelo_inurba_marseille","lat":43.30966,"lon":5.39041,"is_reserved":false,"is_disabled":false,"rental_uris":{"android":"levelo://app?vid=66c0b210-5a31-4db4-ba46-fcf2b399cc6f","ios":"levelo://app?vid=66c0b210-5a31-4db4-ba46-fcf2b399cc6f"},"vehicle_type_id":"4","last_reported":1752347246,"current_range_meters":8800,"station_id":"ce4bgup2rcd13ifvqco0","pricing_plan_id":"cebpf4jnsgd1na2vs0mg"},{"bike_id":"5e841bd5-eab2-4f49-939f-6750659ad71e","system_id":"levelo_inurba_marseille","lat":43.299223,"lon":5.374687,"is_reserved":false,"is_disabled":false,"rental_uris":{"android":"levelo://app?vid=5e841bd5-eab2-4f49-939f-6750659ad71e","ios":"levelo://app?vid=5e841bd5-eab2-4f49-939f-6750659ad71e"},"vehicle_type_id":"4","last_reported":1752347246,"current_range_meters":8800,"station_id":"ce4bgjh2rcd13ifvqbg0","pricing_plan_id":"cebpf4jnsgd1na2vs0mg"},{"bike_id":"b2b04308-0fe7-4f01-a125-74ff9f0b8980","system_id":"levelo_inurba_marseille","lat":43.29267,"lon":5.38424,"is_reserved":false,"is_disabled":false,"rental_uris":{"android":"levelo://app?vid=b2b04308-0fe7-4f01-a125-74ff9f0b8980","ios":"levelo://app?vid=b2b04308-0fe7-4f01-a125-74ff9f0b8980"},"vehicle_type_id":"4","last_reported":1752347246,"current_range_meters":8800,"station_id":"ce4bh692rcd13ifvqea0","pricing_plan_id":"cebpf4jnsgd1na2vs0mg"},{"bike_id":"e3a75ee9-c614-467b-8cc2-f813bcef2ab1","system_id":"levelo_inurba_marseille","lat":43.33743,"lon":5.3919,"is_reserved":false,"is_disabled":false,"rental_uris":{"android":"levelo://app?vid=e3a75ee9-c614-467b-8cc2-f813bcef2ab1","ios":"levelo://app?vid=e3a75ee9-c614-467b-8cc2-f813bcef2ab1"},"vehicle_type_id":"4","last_reported":1752347246,"current_range_meters":8800,"station_id":"ce4bhr92rcd13ifvqhsg","pricing_plan_id":"cebpf4jnsgd1na2vs0mg"},{"bike_id":"32ea423d-3769-48ac-97dd-1c1fd9f91d30","system_id":"levelo_inurba_marseille","lat":43.29973,"lon":5.38496,"is_reserved":false,"is_disabled":false,"rental_uris":{"android":"levelo://app?vid=32ea423d-3769-48ac-97dd-1c1fd9f91d30","ios":"levelo://app?vid=32ea423d-3769-48ac-97dd-1c1fd9f91d30"},"vehicle_type_id":"4","last_reported":1752347246,"current_range_meters":9200,"station_id":"ce4bgj92rcd13ifvqbd0","pricing_plan_id":"cebpf4jnsgd1na2vs0mg"},{"bike_id":"097106d7-0dc8-4152-8540-cae0e1de8dea","system_id":"levelo_inurba_marseille","lat":43.21183,"lon":5.35064,"is_reserved":false,"is_disabled":false,"rental_uris":{"android":"levelo://app?vid=097106d7-0dc8-4152-8540-cae0e1de8dea","ios":"levelo://app?vid=097106d7-0dc8-4152-8540-cae0e1de8dea"},"vehicle_type_id":"4","last_reported":1752347246,"current_range_meters":9200,"station_id":"st_cvj6sg6p6f1abm77japg","pricing_plan_id":"cebpf4jnsgd1na2vs0mg"},{"bike_id":"30082c6b-4a7b-4638-a4ae-66135ff7d26c","system_id":"levelo_inurba_marseille","lat":43.23198,"lon":5.35549,"is_reserved":false,"is_disabled":false,"rental_uris":{"android":"levelo://app?vid=30082c6b-4a7b-4638-a4ae-66135ff7d26c","ios":"levelo://app?vid=30082c6b-4a7b-4638-a4ae-66135ff7d26c"},"vehicle_type_id":"4","last_reported":1752347246,"current_range_meters":9200,"station_id":"ce4bhu92rcd13ifvqi70","pricing_plan_id":"cebpf4jnsgd1na2vs0mg"},{"bike_id":"8f5c29ac-6ff5-4da9-ab1e-10ada9f18167","system_id":"levelo_inurba_marseille","lat":43.29529,"lon":5.39396,"is_reserved":false,"is_disabled":false,"rental_uris":{"android":"levelo://app?vid=8f5c29ac-6ff5-4da9-ab1e-10ada9f18167","ios":"levelo://app?vid=8f5c29ac-6ff5-4da9-ab1e-10ada9f18167"},"vehicle_type_id":"4","last_reported":1752347246,"current_range_meters":9600,"station_id":"ce4bh292rcd13ifvqdf0","pricing_plan_id":"cebpf4jnsgd1na2vs0mg"},{"bike_id":"b72bbd5c-3887-4a46-a74a-6d63af9780a3","system_id":"levelo_inurba_marseille","lat":43.31067,"lon":5.38354,"is_reserved":false,"is_disabled":false,"rental_uris":{"android":"levelo://app?vid=b72bbd5c-3887-4a46-a74a-6d63af9780a3","ios":"levelo://app?vid=b72bbd5c-3887-4a46-a74a-6d63af9780a3"},"vehicle_type_id":"4","last_reported":1752347246,"current_range_meters":9600,"station_id":"ce4bgv92rcd13ifvqcr0","pricing_plan_id":"cebpf4jnsgd1na2vs0mg"},{"bike_id":"3528ad55-a957-4476-8ece-d077e2375da5","system_id":"levelo_inurba_marseille","lat":43.31478,"lon":5.37309,"is_reserved":false,"is_disabled":false,"rental_uris":{"android":"levelo://app?vid=3528ad55-a957-4476-8ece-d077e2375da5","ios":"levelo://app?vid=3528ad55-a957-4476-8ece-d077e2375da5"},"vehicle_type_id":"4","last_reported":1752347246,"current_range_meters":9600,"station_id":"ce4bgt12rcd13ifvqcd0","pricing_plan_id":"cebpf4jnsgd1na2vs0mg"},{"bike_id":"ad0a12a5-ef7a-4fc9-afd1-734e189f1655","system_id":"levelo_inurba_marseille","lat":43.28848,"lon":5.39317,"is_reserved":false,"is_disabled":false,"rental_uris":{"android":"levelo://app?vid=ad0a12a5-ef7a-4fc9-afd1-734e189f1655","ios":"levelo://app?vid=ad0a12a5-ef7a-4fc9-afd1-734e189f1655"},"vehicle_type_id":"4","last_reported":1752347246,"current_range_meters":9600,"station_id":"ce4bh2p2rcd13ifvqdi0","pricing_plan_id":"cebpf4jnsgd1na2vs0mg"},{"bike_id":"df61839a-7a72-4634-9960-e8ea0d9a8d35","system_id":"levelo_inurba_marseille","lat":43.239474,"lon":5.366089,"is_reserved":false,"is_disabled":true,"rental_uris":{"android":"levelo://app?vid=df61839a-7a72-4634-9960-e8ea0d9a8d35","ios":"levelo://app?vid=df61839a-7a72-4634-9960-e8ea0d9a8d35"},"vehicle_type_id":"4","last_reported":1752347246,"current_range_meters":9600,"station_id":"","pricing_plan_id":"cebpf4jnsgd1na2vs0mg"},{"bike_id":"3c3c92ed-5141-446c-ba99-73a670bc734d","system_id":"levelo_inurba_marseille","lat":43.25497,"lon":5.37654,"is_reserved":false,"is_disabled":false,"rental_uris":{"android":"levelo://app?vid=3c3c92ed-5141-446c-ba99-73a670bc734d","ios":"levelo://app?vid=3c3c92ed-5141-446c-ba99-73a670bc734d"},"vehicle_type_id":"4","last_reported":1752347246,"current_range_meters":9600,"station_id":"ce4bhh12rcd13ifvqff0","pricing_plan_id":"cebpf4jnsgd1na2vs0mg"},{"bike_id":"75bb1dd6-50a7-47a9-9e4b-6b29bd46237a","system_id":"levelo_inurba_marseille","lat":43.21224,"lon":5.3507,"is_reserved":false,"is_disabled":false,"rental_uris":{"android":"levelo://app?vid=75bb1dd6-50a7-47a9-9e4b-6b29bd46237a","ios":"levelo://app?vid=75bb1dd6-50a7-47a9-9e4b-6b29bd46237a"},"vehicle_type_id":"4","last_reported":1752347246,"current_range_meters":9600,"station_id":"","pricing_plan_id":"cebpf4jnsgd1na2vs0mg"},{"bike_id":"a12898cf-fe9c-4664-b76c-1742ae37830d","system_id":"levelo_inurba_marseille","lat":43.30133,"lon":5.38779,"is_reserved":false,"is_disabled":false,"rental_uris":{"android":"levelo://app?vid=a12898cf-fe9c-4664-b76c-1742ae37830d","ios":"levelo://app?vid=a12898cf-fe9c-4664-b76c-1742ae37830d"},"vehicle_type_id":"4","last_reported":1752347246,"current_range_meters":9600,"station_id":"ce4bghh2rcd13ifvqb60","pricing_plan_id":"cebpf4jnsgd1na2vs0mg"},{"bike_id":"621e3d77-a052-4190-9fa9-0c299bf51976","system_id":"levelo_inurba_marseille","lat":43.29601,"lon":5.38076,"is_reserved":false,"is_disabled":false,"rental_uris":{"android":"levelo://app?vid=621e3d77-a052-4190-9fa9-0c299bf51976","ios":"levelo://app?vid=621e3d77-a052-4190-9fa9-0c299bf51976"},"vehicle_type_id":"4","last_reported":1752347246,"current_range_meters":9600,"station_id":"ce4bgl12rcd13ifvqbo0","pricing_plan_id":"cebpf4jnsgd1na2vs0mg"},{"bike_id":"8929c1bf-fd4d-44e4-aa66-b3eb6538c998","system_id":"levelo_inurba_marseille","lat":43.28603,"lon":5.42966,"is_reserved":false,"is_disabled":false,"rental_uris":{"android":"levelo://app?vid=8929c1bf-fd4d-44e4-aa66-b3eb6538c998","ios":"levelo://app?vid=8929c1bf-fd4d-44e4-aa66-b3eb6538c998"},"vehicle_type_id":"4","last_reported":1752347246,"current_range_meters":10000,"station_id":"","pricing_plan_id":"cebpf4jnsgd1na2vs0mg"},{"bike_id":"46cacac0-84b7-4c70-a453-a1cb8250fb4d","system_id":"levelo_inurba_marseille","lat":43.337677,"lon":5.374425,"is_reserved":false,"is_disabled":false,"rental_uris":{"android":"levelo://app?vid=46cacac0-84b7-4c70-a453-a1cb8250fb4d","ios":"levelo://app?vid=46cacac0-84b7-4c70-a453-a1cb8250fb4d"},"vehicle_type_id":"4","last_reported":1752347246,"current_range_meters":10000,"station_id":"","pricing_plan_id":"cebpf4jnsgd1na2vs0mg"},{"bike_id":"051d9f17-9d29-46ab-9983-0430b271137a","system_id":"levelo_inurba_marseille","lat":43.26205,"lon":5.37443,"is_reserved":false,"is_disabled":false,"rental_uris":{"android":"levelo://app?vid=051d9f17-9d29-46ab-9983-0430b271137a","ios":"levelo://app?vid=051d9f17-9d29-46ab-9983-0430b271137a"},"vehicle_type_id":"4","last_reported":1752347246,"current_range_meters":10000,"station_id":"ce4bhgp2rcd13ifvqfc0","pricing_plan_id":"cebpf4jnsgd1na2vs0mg"},{"bike_id":"5a71ab42-51f6-4d74-8942-e5c8339f2255","system_id":"levelo_inurba_marseille","lat":43.31753,"lon":5.39021,"is_reserved":false,"is_disabled":true,"rental_uris":{"android":"levelo://app?vid=5a71ab42-51f6-4d74-8942-e5c8339f2255","ios":"levelo://app?vid=5a71ab42-51f6-4d74-8942-e5c8339f2255"},"vehicle_type_id":"4","last_reported":1752347246,"current_range_meters":10000,"station_id":"ce4bhqp2rcd13ifvqhng","pricing_plan_id":"cebpf4jnsgd1na2vs0mg"},{"bike_id":"1d5f04ae-fbe7-41ac-b4ef-23f754f2c177","system_id":"levelo_inurba_marseille","lat":43.29976,"lon":5.38486,"is_reserved":false,"is_disabled":false,"rental_uris":{"android":"levelo://app?vid=1d5f04ae-fbe7-41ac-b4ef-23f754f2c177","ios":"levelo://app?vid=1d5f04ae-fbe7-41ac-b4ef-23f754f2c177"},"vehicle_type_id":"4","last_reported":1752347246,"current_range_meters":10000,"station_id":"ce4bgj92rcd13ifvqbd0","pricing_plan_id":"cebpf4jnsgd1na2vs0mg"},{"bike_id":"4272ef37-2d5a-4a54-ae7a-f6596c0f46ed","system_id":"levelo_inurba_marseille","lat":43.31488,"lon":5.37307,"is_reserved":false,"is_disabled":false,"rental_uris":{"android":"levelo://app?vid=4272ef37-2d5a-4a54-ae7a-f6596c0f46ed","ios":"levelo://app?vid=4272ef37-2d5a-4a54-ae7a-f6596c0f46ed"},"vehicle_type_id":"4","last_reported":1752347246,"current_range_meters":10000,"station_id":"ce4bgt12rcd13ifvqcd0","pricing_plan_id":"cebpf4jnsgd1na2vs0mg"},{"bike_id":"26e33ae6-66f8-45d0-bec5-947f91d6b116","system_id":"levelo_inurba_marseille","lat":43.26195,"lon":5.3745,"is_reserved":false,"is_disabled":false,"rental_uris":{"android":"levelo://app?vid=26e33ae6-66f8-45d0-bec5-947f91d6b116","ios":"levelo://app?vid=26e33ae6-66f8-45d0-bec5-947f91d6b116"},"vehicle_type_id":"4","last_reported":1752347246,"current_range_meters":10000,"station_id":"ce4bhgp2rcd13ifvqfc0","pricing_plan_id":"cebpf4jnsgd1na2vs0mg"},{"bike_id":"b37755aa-e841-441f-8131-2c1e29ea0b23","system_id":"levelo_inurba_marseille","lat":43.30533,"lon":5.36697,"is_reserved":false,"is_disabled":false,"rental_uris":{"android":"levelo://app?vid=b37755aa-e841-441f-8131-2c1e29ea0b23","ios":"levelo://app?vid=b37755aa-e841-441f-8131-2c1e29ea0b23"},"vehicle_type_id":"4","last_reported":1752347246,"current_range_meters":10000,"station_id":"ce4bgrp2rcd13ifvqc9g","pricing_plan_id":"cebpf4jnsgd1na2vs0mg"},{"bike_id":"f9fd0586-57e2-4947-abdd-5f6ad3842b38","system_id":"levelo_inurba_marseille","lat":43.30142,"lon":5.38075,"is_reserved":false,"is_disabled":false,"rental_uris":{"android":"levelo://app?vid=f9fd0586-57e2-4947-abdd-5f6ad3842b38","ios":"levelo://app?vid=f9fd0586-57e2-4947-abdd-5f6ad3842b38"},"vehicle_type_id":"4","last_reported":1752347246,"current_range_meters":10800,"station_id":"ce4bgjp2rcd13ifvqbh0","pricing_plan_id":"cebpf4jnsgd1na2vs0mg"},{"bike_id":"c20b8034-31a5-43a6-8310-ad79a698c9a1","system_id":"levelo_inurba_marseille","lat":43.31069,"lon":5.38353,"is_reserved":false,"is_disabled":false,"rental_uris":{"android":"levelo://app?vid=c20b8034-31a5-43a6-8310-ad79a698c9a1","ios":"levelo://app?vid=c20b8034-31a5-43a6-8310-ad79a698c9a1"},"vehicle_type_id":"4","last_reported":1752347246,"current_range_meters":10800,"station_id":"ce4bgv92rcd13ifvqcr0","pricing_plan_id":"cebpf4jnsgd1na2vs0mg"},{"bike_id":"21f51f77-8b78-488b-a42e-44d2a504cf11","system_id":"levelo_inurba_marseille","lat":43.24187,"lon":5.36375,"is_reserved":false,"is_disabled":true,"rental_uris":{"android":"levelo://app?vid=21f51f77-8b78-488b-a42e-44d2a504cf11","ios":"levelo://app?vid=21f51f77-8b78-488b-a42e-44d2a504cf11"},"vehicle_type_id":"4","last_reported":1752347246,"current_range_meters":10800,"station_id":"cpo36qri1sfpv3e86is0","pricing_plan_id":"cebpf4jnsgd1na2vs0mg"},{"bike_id":"c09b4acb-d816-4cfc-94be-3685545d9977","system_id":"levelo_inurba_marseille","lat":43.255005,"lon":5.376508,"is_reserved":false,"is_disabled":false,"rental_uris":{"android":"levelo://app?vid=c09b4acb-d816-4cfc-94be-3685545d9977","ios":"levelo://app?vid=c09b4acb-d816-4cfc-94be-3685545d9977"},"vehicle_type_id":"4","last_reported":1752347246,"current_range_meters":10800,"station_id":"ce4bhh12rcd13ifvqff0","pricing_plan_id":"cebpf4jnsgd1na2vs0mg"},{"bike_id":"4e18f6a0-cf0a-4e54-823e-14d073e25d70","system_id":"levelo_inurba_marseille","lat":43.28033,"lon":5.36942,"is_reserved":false,"is_disabled":true,"rental_uris":{"android":"levelo://app?vid=4e18f6a0-cf0a-4e54-823e-14d073e25d70","ios":"levelo://app?vid=4e18f6a0-cf0a-4e54-823e-14d073e25d70"},"vehicle_type_id":"4","last_reported":1752347246,"current_range_meters":10800,"station_id":"ce4bha12rcd13ifvqef0","pricing_plan_id":"cebpf4jnsgd1na2vs0mg"},{"bike_id":"c453155a-5220-48fc-922b-600ca54f8ab5","system_id":"levelo_inurba_marseille","lat":43.2866,"lon":5.3636,"is_reserved":false,"is_disabled":true,"rental_uris":{"android":"levelo://app?vid=c453155a-5220-48fc-922b-600ca54f8ab5","ios":"levelo://app?vid=c453155a-5220-48fc-922b-600ca54f8ab5"},"vehicle_type_id":"4","last_reported":1752347246,"current_range_meters":10800,"station_id":"ce4bhah2rcd13ifvqej0","pricing_plan_id":"cebpf4jnsgd1na2vs0mg"},{"bike_id":"ef9b833b-fe43-49e4-bc28-48316742eff6","system_id":"levelo_inurba_marseille","lat":43.27808,"lon":5.40714,"is_reserved":false,"is_disabled":false,"rental_uris":{"android":"levelo://app?vid=ef9b833b-fe43-49e4-bc28-48316742eff6","ios":"levelo://app?vid=ef9b833b-fe43-49e4-bc28-48316742eff6"},"vehicle_type_id":"4","last_reported":1752347246,"current_range_meters":11200,"station_id":"ce4bhnh2rcd13ifvqgtg","pricing_plan_id":"cebpf4jnsgd1na2vs0mg"},{"bike_id":"61198919-e72c-4fce-bc96-126627987dc0","system_id":"levelo_inurba_marseille","lat":43.29588,"lon":5.37886,"is_reserved":false,"is_disabled":false,"rental_uris":{"android":"levelo://app?vid=61198919-e72c-4fce-bc96-126627987dc0","ios":"levelo://app?vid=61198919-e72c-4fce-bc96-126627987dc0"},"vehicle_type_id":"4","last_reported":1752347246,"current_range_meters":11200,"station_id":"","pricing_plan_id":"cebpf4jnsgd1na2vs0mg"},{"bike_id":"2a736229-884a-4263-9201-29e71006e1b4","system_id":"levelo_inurba_marseille","lat":43.32345,"lon":5.40606,"is_reserved":false,"is_disabled":false,"rental_uris":{"android":"levelo://app?vid=2a736229-884a-4263-9201-29e71006e1b4","ios":"levelo://app?vid=2a736229-884a-4263-9201-29e71006e1b4"},"vehicle_type_id":"4","last_reported":1752347246,"current_range_meters":11200,"station_id":"ce4bhq92rcd13ifvqhjg","pricing_plan_id":"cebpf4jnsgd1na2vs0mg"},{"bike_id":"f3f552e8-2fe8-42cc-ac51-e00cbdda749f","system_id":"levelo_inurba_marseille","lat":43.28459,"lon":5.3589,"is_reserved":false,"is_disabled":false,"rental_uris":{"android":"levelo://app?vid=f3f552e8-2fe8-42cc-ac51-e00cbdda749f","ios":"levelo://app?vid=f3f552e8-2fe8-42cc-ac51-e00cbdda749f"},"vehicle_type_id":"4","last_reported":1752347246,"current_range_meters":10800,"station_id":"ce4bhah2rcd13ifvqei0","pricing_plan_id":"cebpf4jnsgd1na2vs0mg"},{"bike_id":"cd62f5fb-6b0c-4347-b481-e570c3099ff3","system_id":"levelo_inurba_marseille","lat":43.29787,"lon":5.37097,"is_reserved":false,"is_disabled":false,"rental_uris":{"android":"levelo://app?vid=cd62f5fb-6b0c-4347-b481-e570c3099ff3","ios":"levelo://app?vid=cd62f5fb-6b0c-4347-b481-e570c3099ff3"},"vehicle_type_id":"4","last_reported":1752347246,"current_range_meters":11200,"station_id":"ce4bgop2rcd13ifvqc1g","pricing_plan_id":"cebpf4jnsgd1na2vs0mg"},{"bike_id":"dcdb7ea9-4011-446e-bfbe-4d3a44543b2b","system_id":"levelo_inurba_marseille","lat":43.299622,"lon":5.384838,"is_reserved":false,"is_disabled":false,"rental_uris":{"android":"levelo://app?vid=dcdb7ea9-4011-446e-bfbe-4d3a44543b2b","ios":"levelo://app?vid=dcdb7ea9-4011-446e-bfbe-4d3a44543b2b"},"vehicle_type_id":"4","last_reported":1752347246,"current_range_meters":11200,"station_id":"ce4bgj92rcd13ifvqbd0","pricing_plan_id":"cebpf4jnsgd1na2vs0mg"},{"bike_id":"84354819-8236-4362-9c3b-c8ac10037362","system_id":"levelo_inurba_marseille","lat":43.29966,"lon":5.38495,"is_reserved":false,"is_disabled":false,"rental_uris":{"android":"levelo://app?vid=84354819-8236-4362-9c3b-c8ac10037362","ios":"levelo://app?vid=84354819-8236-4362-9c3b-c8ac10037362"},"vehicle_type_id":"4","last_reported":1752347246,"current_range_meters":11200,"station_id":"","pricing_plan_id":"cebpf4jnsgd1na2vs0mg"},{"bike_id":"c11adfa1-b508-4fe0-ae53-980aeb066f94","system_id":"levelo_inurba_marseille","lat":43.31828,"lon":5.3903,"is_reserved":false,"is_disabled":false,"rental_uris":{"android":"levelo://app?vid=c11adfa1-b508-4fe0-ae53-980aeb066f94","ios":"levelo://app?vid=c11adfa1-b508-4fe0-ae53-980aeb066f94"},"vehicle_type_id":"4","last_reported":1752347246,"current_range_meters":11200,"station_id":"","pricing_plan_id":"cebpf4jnsgd1na2vs0mg"},{"bike_id":"dbba3321-20c7-4989-a7b5-ea9ab2c4b3e8","system_id":"levelo_inurba_marseille","lat":43.261935,"lon":5.374477,"is_reserved":false,"is_disabled":false,"rental_uris":{"android":"levelo://app?vid=dbba3321-20c7-4989-a7b5-ea9ab2c4b3e8","ios":"levelo://app?vid=dbba3321-20c7-4989-a7b5-ea9ab2c4b3e8"},"vehicle_type_id":"4","last_reported":1752347246,"current_range_meters":11200,"station_id":"ce4bhgp2rcd13ifvqfc0","pricing_plan_id":"cebpf4jnsgd1na2vs0mg"},{"bike_id":"aa3d9926-b74b-4fd6-b9e8-146905820b70","system_id":"levelo_inurba_marseille","lat":43.30979,"lon":5.39038,"is_reserved":false,"is_disabled":false,"rental_uris":{"android":"levelo://app?vid=aa3d9926-b74b-4fd6-b9e8-146905820b70","ios":"levelo://app?vid=aa3d9926-b74b-4fd6-b9e8-146905820b70"},"vehicle_type_id":"4","last_reported":1752347246,"current_range_meters":11600,"station_id":"ce4bgup2rcd13ifvqco0","pricing_plan_id":"cebpf4jnsgd1na2vs0mg"},{"bike_id":"4ab59cdc-8b57-4e43-ab39-09949ea9fe4e","system_id":"levelo_inurba_marseille","lat":43.28684,"lon":5.40003,"is_reserved":false,"is_disabled":false,"rental_uris":{"android":"levelo://app?vid=4ab59cdc-8b57-4e43-ab39-09949ea9fe4e","ios":"levelo://app?vid=4ab59cdc-8b57-4e43-ab39-09949ea9fe4e"},"vehicle_type_id":"4","last_reported":1752347246,"current_range_meters":11600,"station_id":"","pricing_plan_id":"cebpf4jnsgd1na2vs0mg"},{"bike_id":"ffe907d6-7ed9-401c-9d9c-e32dcd8dda6d","system_id":"levelo_inurba_marseille","lat":43.29271,"lon":5.38452,"is_reserved":false,"is_disabled":false,"rental_uris":{"android":"levelo://app?vid=ffe907d6-7ed9-401c-9d9c-e32dcd8dda6d","ios":"levelo://app?vid=ffe907d6-7ed9-401c-9d9c-e32dcd8dda6d"},"vehicle_type_id":"4","last_reported":1752347246,"current_range_meters":11600,"station_id":"ce4bh692rcd13ifvqea0","pricing_plan_id":"cebpf4jnsgd1na2vs0mg"},{"bike_id":"ab6cb234-c8d6-4ce4-ab4f-b14b364484d3","system_id":"levelo_inurba_marseille","lat":43.30158,"lon":5.38083,"is_reserved":false,"is_disabled":false,"rental_uris":{"android":"levelo://app?vid=ab6cb234-c8d6-4ce4-ab4f-b14b364484d3","ios":"levelo://app?vid=ab6cb234-c8d6-4ce4-ab4f-b14b364484d3"},"vehicle_type_id":"4","last_reported":1752347246,"current_range_meters":11600,"station_id":"ce4bgjp2rcd13ifvqbh0","pricing_plan_id":"cebpf4jnsgd1na2vs0mg"},{"bike_id":"6a51e4f6-137c-4529-9bff-a69868aaa73b","system_id":"levelo_inurba_marseille","lat":43.28032,"lon":5.36946,"is_reserved":false,"is_disabled":false,"rental_uris":{"android":"levelo://app?vid=6a51e4f6-137c-4529-9bff-a69868aaa73b","ios":"levelo://app?vid=6a51e4f6-137c-4529-9bff-a69868aaa73b"},"vehicle_type_id":"4","last_reported":1752347246,"current_range_meters":11600,"station_id":"ce4bha12rcd13ifvqef0","pricing_plan_id":"cebpf4jnsgd1na2vs0mg"},{"bike_id":"ea75a6a6-5203-406e-a814-f51f9b7eb0e4","system_id":"levelo_inurba_marseille","lat":43.25111,"lon":5.40322,"is_reserved":false,"is_disabled":false,"rental_uris":{"android":"levelo://app?vid=ea75a6a6-5203-406e-a814-f51f9b7eb0e4","ios":"levelo://app?vid=ea75a6a6-5203-406e-a814-f51f9b7eb0e4"},"vehicle_type_id":"4","last_reported":1752347246,"current_range_meters":11600,"station_id":"ce4bhlh2rcd13ifvqgig","pricing_plan_id":"cebpf4jnsgd1na2vs0mg"},{"bike_id":"bec36068-89b3-42c2-83a9-9e90fb975687","system_id":"levelo_inurba_marseille","lat":43.26026,"lon":5.37546,"is_reserved":false,"is_disabled":false,"rental_uris":{"android":"levelo://app?vid=bec36068-89b3-42c2-83a9-9e90fb975687","ios":"levelo://app?vid=bec36068-89b3-42c2-83a9-9e90fb975687"},"vehicle_type_id":"4","last_reported":1752347246,"current_range_meters":12000,"station_id":"ce4bhgh2rcd13ifvqfa0","pricing_plan_id":"cebpf4jnsgd1na2vs0mg"},{"bike_id":"4a420fc3-445f-4cd1-a582-c146aac401ad","system_id":"levelo_inurba_marseille","lat":43.30526,"lon":5.36723,"is_reserved":false,"is_disabled":false,"rental_uris":{"android":"levelo://app?vid=4a420fc3-445f-4cd1-a582-c146aac401ad","ios":"levelo://app?vid=4a420fc3-445f-4cd1-a582-c146aac401ad"},"vehicle_type_id":"4","last_reported":1752347246,"current_range_meters":11600,"station_id":"ce4bgrp2rcd13ifvqc9g","pricing_plan_id":"cebpf4jnsgd1na2vs0mg"},{"bike_id":"d502518b-cea4-4a93-9e26-6385d9028156","system_id":"levelo_inurba_marseille","lat":43.295349,"lon":5.385473,"is_reserved":false,"is_disabled":false,"rental_uris":{"android":"levelo://app?vid=d502518b-cea4-4a93-9e26-6385d9028156","ios":"levelo://app?vid=d502518b-cea4-4a93-9e26-6385d9028156"},"vehicle_type_id":"4","last_reported":1752347246,"current_range_meters":12000,"station_id":"ce4bhb12rcd13ifvqem0","pricing_plan_id":"cebpf4jnsgd1na2vs0mg"},{"bike_id":"aeef83a0-cd48-47ed-b123-08598ed42290","system_id":"levelo_inurba_marseille","lat":43.31063,"lon":5.38356,"is_reserved":false,"is_disabled":false,"rental_uris":{"android":"levelo://app?vid=aeef83a0-cd48-47ed-b123-08598ed42290","ios":"levelo://app?vid=aeef83a0-cd48-47ed-b123-08598ed42290"},"vehicle_type_id":"4","last_reported":1752347246,"current_range_meters":12000,"station_id":"ce4bgv92rcd13ifvqcr0","pricing_plan_id":"cebpf4jnsgd1na2vs0mg"},{"bike_id":"febec9a3-2797-423d-a424-12f3a796fcb3","system_id":"levelo_inurba_marseille","lat":43.31693,"lon":5.40444,"is_reserved":false,"is_disabled":false,"rental_uris":{"android":"levelo://app?vid=febec9a3-2797-423d-a424-12f3a796fcb3","ios":"levelo://app?vid=febec9a3-2797-423d-a424-12f3a796fcb3"},"vehicle_type_id":"4","last_reported":1752347246,"current_range_meters":12000,"station_id":"ce4bh012rcd13ifvqd00","pricing_plan_id":"cebpf4jnsgd1na2vs0mg"},{"bike_id":"f1224552-af66-4ea3-8041-8a20482d7a8e","system_id":"levelo_inurba_marseille","lat":43.29404,"lon":5.38633,"is_reserved":false,"is_disabled":false,"rental_uris":{"android":"levelo://app?vid=f1224552-af66-4ea3-8041-8a20482d7a8e","ios":"levelo://app?vid=f1224552-af66-4ea3-8041-8a20482d7a8e"},"vehicle_type_id":"4","last_reported":1752347246,"current_range_meters":12000,"station_id":"","pricing_plan_id":"cebpf4jnsgd1na2vs0mg"},{"bike_id":"5a1aa169-e8de-4c42-8232-f9cf794c57f1","system_id":"levelo_inurba_marseille","lat":43.21205,"lon":5.35068,"is_reserved":false,"is_disabled":false,"rental_uris":{"android":"levelo://app?vid=5a1aa169-e8de-4c42-8232-f9cf794c57f1","ios":"levelo://app?vid=5a1aa169-e8de-4c42-8232-f9cf794c57f1"},"vehicle_type_id":"4","last_reported":1752347246,"current_range_meters":12000,"station_id":"st_cvj6sg6p6f1abm77japg","pricing_plan_id":"cebpf4jnsgd1na2vs0mg"},{"bike_id":"30d1306a-67b4-4b4b-a6c6-45e11f279213","system_id":"levelo_inurba_marseille","lat":43.25111,"lon":5.40321,"is_reserved":false,"is_disabled":false,"rental_uris":{"android":"levelo://app?vid=30d1306a-67b4-4b4b-a6c6-45e11f279213","ios":"levelo://app?vid=30d1306a-67b4-4b4b-a6c6-45e11f279213"},"vehicle_type_id":"4","last_reported":1752347246,"current_range_meters":12000,"station_id":"ce4bhlh2rcd13ifvqgig","pricing_plan_id":"cebpf4jnsgd1na2vs0mg"},{"bike_id":"93050d28-226e-4006-a46e-06cfe9616fa1","system_id":"levelo_inurba_marseille","lat":43.25119,"lon":5.4032,"is_reserved":false,"is_disabled":false,"rental_uris":{"android":"levelo://app?vid=93050d28-226e-4006-a46e-06cfe9616fa1","ios":"levelo://app?vid=93050d28-226e-4006-a46e-06cfe9616fa1"},"vehicle_type_id":"4","last_reported":1752347246,"current_range_meters":12000,"station_id":"ce4bhlh2rcd13ifvqgig","pricing_plan_id":"cebpf4jnsgd1na2vs0mg"},{"bike_id":"cbd3cbb3-a3d9-4c52-8d8a-b0a35699f699","system_id":"levelo_inurba_marseille","lat":43.276,"lon":5.36098,"is_reserved":false,"is_disabled":false,"rental_uris":{"android":"levelo://app?vid=cbd3cbb3-a3d9-4c52-8d8a-b0a35699f699","ios":"levelo://app?vid=cbd3cbb3-a3d9-4c52-8d8a-b0a35699f699"},"vehicle_type_id":"4","last_reported":1752347246,"current_range_meters":12000,"station_id":"ce4bgj92rcd13ifvqbe0","pricing_plan_id":"cebpf4jnsgd1na2vs0mg"},{"bike_id":"c816310d-8ff0-4290-b10a-aad431dd902c","system_id":"levelo_inurba_marseille","lat":43.21749,"lon":5.34602,"is_reserved":false,"is_disabled":true,"rental_uris":{"android":"levelo://app?vid=c816310d-8ff0-4290-b10a-aad431dd902c","ios":"levelo://app?vid=c816310d-8ff0-4290-b10a-aad431dd902c"},"vehicle_type_id":"4","last_reported":1752347246,"current_range_meters":12400,"station_id":"st_cvj6r9ubvosntc0bgbag","pricing_plan_id":"cebpf4jnsgd1na2vs0mg"},{"bike_id":"6329262e-ca0f-4825-be20-36e72160cc52","system_id":"levelo_inurba_marseille","lat":43.30939,"lon":5.39052,"is_reserved":false,"is_disabled":false,"rental_uris":{"android":"levelo://app?vid=6329262e-ca0f-4825-be20-36e72160cc52","ios":"levelo://app?vid=6329262e-ca0f-4825-be20-36e72160cc52"},"vehicle_type_id":"4","last_reported":1752347246,"current_range_meters":12400,"station_id":"ce4bgup2rcd13ifvqco0","pricing_plan_id":"cebpf4jnsgd1na2vs0mg"},{"bike_id":"5ff9f322-5aeb-407f-bf01-c759ceeb6a47","system_id":"levelo_inurba_marseille","lat":43.29197,"lon":5.39328,"is_reserved":false,"is_disabled":false,"rental_uris":{"android":"levelo://app?vid=5ff9f322-5aeb-407f-bf01-c759ceeb6a47","ios":"levelo://app?vid=5ff9f322-5aeb-407f-bf01-c759ceeb6a47"},"vehicle_type_id":"4","last_reported":1752347246,"current_range_meters":12400,"station_id":"ce4bh192rcd13ifvqdd0","pricing_plan_id":"cebpf4jnsgd1na2vs0mg"},{"bike_id":"38815d2b-48df-4038-9515-127ee3516d98","system_id":"levelo_inurba_marseille","lat":43.3108,"lon":5.42432,"is_reserved":false,"is_disabled":false,"rental_uris":{"android":"levelo://app?vid=38815d2b-48df-4038-9515-127ee3516d98","ios":"levelo://app?vid=38815d2b-48df-4038-9515-127ee3516d98"},"vehicle_type_id":"4","last_reported":1752347246,"current_range_meters":12400,"station_id":"ce4bhp92rcd13ifvqhag","pricing_plan_id":"cebpf4jnsgd1na2vs0mg"},{"bike_id":"244196aa-7df4-4bfb-982e-7595659fb2e0","system_id":"levelo_inurba_marseille","lat":43.29622,"lon":5.37719,"is_reserved":false,"is_disabled":false,"rental_uris":{"android":"levelo://app?vid=244196aa-7df4-4bfb-982e-7595659fb2e0","ios":"levelo://app?vid=244196aa-7df4-4bfb-982e-7595659fb2e0"},"vehicle_type_id":"4","last_reported":1752347246,"current_range_meters":12400,"station_id":"ce4bgi92rcd13ifvqb90","pricing_plan_id":"cebpf4jnsgd1na2vs0mg"},{"bike_id":"3910ce2f-4d8e-4314-a265-b46764269439","system_id":"levelo_inurba_marseille","lat":43.29969,"lon":5.3717,"is_reserved":false,"is_disabled":false,"rental_uris":{"android":"levelo://app?vid=3910ce2f-4d8e-4314-a265-b46764269439","ios":"levelo://app?vid=3910ce2f-4d8e-4314-a265-b46764269439"},"vehicle_type_id":"4","last_reported":1752347246,"current_range_meters":12400,"station_id":"ce4bgr92rcd13ifvqc7g","pricing_plan_id":"cebpf4jnsgd1na2vs0mg"},{"bike_id":"d585936f-a801-470e-9560-ca362e39c4bc","system_id":"levelo_inurba_marseille","lat":43.30896,"lon":5.39653,"is_reserved":false,"is_disabled":false,"rental_uris":{"android":"levelo://app?vid=d585936f-a801-470e-9560-ca362e39c4bc","ios":"levelo://app?vid=d585936f-a801-470e-9560-ca362e39c4bc"},"vehicle_type_id":"4","last_reported":1752347246,"current_range_meters":12800,"station_id":"ce4bh012rcd13ifvqcv0","pricing_plan_id":"cebpf4jnsgd1na2vs0mg"},{"bike_id":"ee5338dd-18a1-4b48-a5b0-f8c72f7b1319","system_id":"levelo_inurba_marseille","lat":43.31869,"lon":5.3676,"is_reserved":false,"is_disabled":false,"rental_uris":{"android":"levelo://app?vid=ee5338dd-18a1-4b48-a5b0-f8c72f7b1319","ios":"levelo://app?vid=ee5338dd-18a1-4b48-a5b0-f8c72f7b1319"},"vehicle_type_id":"4","last_reported":1752347246,"current_range_meters":12800,"station_id":"","pricing_plan_id":"cebpf4jnsgd1na2vs0mg"},{"bike_id":"fa7fb36e-acf6-45a2-bc6d-e47d5ec8d846","system_id":"levelo_inurba_marseille","lat":43.30143,"lon":5.39871,"is_reserved":false,"is_disabled":false,"rental_uris":{"android":"levelo://app?vid=fa7fb36e-acf6-45a2-bc6d-e47d5ec8d846","ios":"levelo://app?vid=fa7fb36e-acf6-45a2-bc6d-e47d5ec8d846"},"vehicle_type_id":"4","last_reported":1752347246,"current_range_meters":12800,"station_id":"ce4bh0h2rcd13ifvqd40","pricing_plan_id":"cebpf4jnsgd1na2vs0mg"},{"bike_id":"9ddcfd2a-bb38-4cf4-bdda-488c986d0b54","system_id":"levelo_inurba_marseille","lat":43.29302,"lon":5.37448,"is_reserved":false,"is_disabled":false,"rental_uris":{"android":"levelo://app?vid=9ddcfd2a-bb38-4cf4-bdda-488c986d0b54","ios":"levelo://app?vid=9ddcfd2a-bb38-4cf4-bdda-488c986d0b54"},"vehicle_type_id":"4","last_reported":1752347246,"current_range_meters":12800,"station_id":"ce4bgi12rcd13ifvqb70","pricing_plan_id":"cebpf4jnsgd1na2vs0mg"},{"bike_id":"ad3a92a9-aac6-4694-a2f3-20c935fef2b6","system_id":"levelo_inurba_marseille","lat":43.292986,"lon":5.374656,"is_reserved":false,"is_disabled":false,"rental_uris":{"android":"levelo://app?vid=ad3a92a9-aac6-4694-a2f3-20c935fef2b6","ios":"levelo://app?vid=ad3a92a9-aac6-4694-a2f3-20c935fef2b6"},"vehicle_type_id":"4","last_reported":1752347246,"current_range_meters":12800,"station_id":"","pricing_plan_id":"cebpf4jnsgd1na2vs0mg"},{"bike_id":"fe458cb9-f635-43ef-a426-ee4b4d2db6c3","system_id":"levelo_inurba_marseille","lat":43.292694,"lon":5.384416,"is_reserved":false,"is_disabled":false,"rental_uris":{"android":"levelo://app?vid=fe458cb9-f635-43ef-a426-ee4b4d2db6c3","ios":"levelo://app?vid=fe458cb9-f635-43ef-a426-ee4b4d2db6c3"},"vehicle_type_id":"4","last_reported":1752347246,"current_range_meters":12800,"station_id":"ce4bh692rcd13ifvqea0","pricing_plan_id":"cebpf4jnsgd1na2vs0mg"},{"bike_id":"2be4fa43-a887-464c-9224-dcbb19c53896","system_id":"levelo_inurba_marseille","lat":43.26199,"lon":5.37932,"is_reserved":false,"is_disabled":false,"rental_uris":{"android":"levelo://app?vid=2be4fa43-a887-464c-9224-dcbb19c53896","ios":"levelo://app?vid=2be4fa43-a887-464c-9224-dcbb19c53896"},"vehicle_type_id":"4","last_reported":1752347246,"current_range_meters":13600,"station_id":"ce4bhjp2rcd13ifvqg90","pricing_plan_id":"cebpf4jnsgd1na2vs0mg"},{"bike_id":"7f02047d-a6cd-43f4-a617-996f2b9a8bc8","system_id":"levelo_inurba_marseille","lat":43.32371,"lon":5.36703,"is_reserved":false,"is_disabled":false,"rental_uris":{"android":"levelo://app?vid=7f02047d-a6cd-43f4-a617-996f2b9a8bc8","ios":"levelo://app?vid=7f02047d-a6cd-43f4-a617-996f2b9a8bc8"},"vehicle_type_id":"4","last_reported":1752347246,"current_range_meters":13600,"station_id":"","pricing_plan_id":"cebpf4jnsgd1na2vs0mg"},{"bike_id":"462aab80-f3b8-4ca8-a24d-4c9b0c73039d","system_id":"levelo_inurba_marseille","lat":43.22503,"lon":5.34776,"is_reserved":false,"is_disabled":false,"rental_uris":{"android":"levelo://app?vid=462aab80-f3b8-4ca8-a24d-4c9b0c73039d","ios":"levelo://app?vid=462aab80-f3b8-4ca8-a24d-4c9b0c73039d"},"vehicle_type_id":"4","last_reported":1752347246,"current_range_meters":13600,"station_id":"","pricing_plan_id":"cebpf4jnsgd1na2vs0mg"},{"bike_id":"470d1e9d-8c05-40b8-a6b2-039f183b9f6a","system_id":"levelo_inurba_marseille","lat":43.231961,"lon":5.355536,"is_reserved":false,"is_disabled":true,"rental_uris":{"android":"levelo://app?vid=470d1e9d-8c05-40b8-a6b2-039f183b9f6a","ios":"levelo://app?vid=470d1e9d-8c05-40b8-a6b2-039f183b9f6a"},"vehicle_type_id":"4","last_reported":1752347246,"current_range_meters":13600,"station_id":"ce4bhu92rcd13ifvqi70","pricing_plan_id":"cebpf4jnsgd1na2vs0mg"},{"bike_id":"9d449eba-8e76-4153-b9c0-2aee7df1d24a","system_id":"levelo_inurba_marseille","lat":43.3015,"lon":5.38088,"is_reserved":false,"is_disabled":false,"rental_uris":{"android":"levelo://app?vid=9d449eba-8e76-4153-b9c0-2aee7df1d24a","ios":"levelo://app?vid=9d449eba-8e76-4153-b9c0-2aee7df1d24a"},"vehicle_type_id":"4","last_reported":1752347246,"current_range_meters":13600,"station_id":"ce4bgjp2rcd13ifvqbh0","pricing_plan_id":"cebpf4jnsgd1na2vs0mg"},{"bike_id":"fe9985d4-07f4-44b9-9e62-b7a73a049020","system_id":"levelo_inurba_marseille","lat":43.280393,"lon":5.369395,"is_reserved":false,"is_disabled":false,"rental_uris":{"android":"levelo://app?vid=fe9985d4-07f4-44b9-9e62-b7a73a049020","ios":"levelo://app?vid=fe9985d4-07f4-44b9-9e62-b7a73a049020"},"vehicle_type_id":"4","last_reported":1752347246,"current_range_meters":14000,"station_id":"ce4bha12rcd13ifvqef0","pricing_plan_id":"cebpf4jnsgd1na2vs0mg"},{"bike_id":"916e11e7-7c72-4b4e-a8ad-659b7cc3d16d","system_id":"levelo_inurba_marseille","lat":43.32478,"lon":5.36556,"is_reserved":false,"is_disabled":false,"rental_uris":{"android":"levelo://app?vid=916e11e7-7c72-4b4e-a8ad-659b7cc3d16d","ios":"levelo://app?vid=916e11e7-7c72-4b4e-a8ad-659b7cc3d16d"},"vehicle_type_id":"4","last_reported":1752347246,"current_range_meters":14000,"station_id":"ce4bhs12rcd13ifvqhvg","pricing_plan_id":"cebpf4jnsgd1na2vs0mg"},{"bike_id":"78a80390-a489-4220-bfb2-d7d4e8d431ea","system_id":"levelo_inurba_marseille","lat":43.29627,"lon":5.37162,"is_reserved":false,"is_disabled":false,"rental_uris":{"android":"levelo://app?vid=78a80390-a489-4220-bfb2-d7d4e8d431ea","ios":"levelo://app?vid=78a80390-a489-4220-bfb2-d7d4e8d431ea"},"vehicle_type_id":"4","last_reported":1752347246,"current_range_meters":14000,"station_id":"ce4bgnh2rcd13ifvqc0g","pricing_plan_id":"cebpf4jnsgd1na2vs0mg"},{"bike_id":"383a2485-518e-4235-b1cd-0ebf65ba74a5","system_id":"levelo_inurba_marseille","lat":43.29549,"lon":5.38526,"is_reserved":false,"is_disabled":true,"rental_uris":{"android":"levelo://app?vid=383a2485-518e-4235-b1cd-0ebf65ba74a5","ios":"levelo://app?vid=383a2485-518e-4235-b1cd-0ebf65ba74a5"},"vehicle_type_id":"4","last_reported":1752347246,"current_range_meters":14000,"station_id":"ce4bgih2rcd13ifvqba0","pricing_plan_id":"cebpf4jnsgd1na2vs0mg"},{"bike_id":"7d2af647-daf2-4df0-a9d6-2b933f533798","system_id":"levelo_inurba_marseille","lat":43.23181,"lon":5.39986,"is_reserved":false,"is_disabled":false,"rental_uris":{"android":"levelo://app?vid=7d2af647-daf2-4df0-a9d6-2b933f533798","ios":"levelo://app?vid=7d2af647-daf2-4df0-a9d6-2b933f533798"},"vehicle_type_id":"4","last_reported":1752347246,"current_range_meters":13600,"station_id":"ce4bhn12rcd13ifvqgqg","pricing_plan_id":"cebpf4jnsgd1na2vs0mg"},{"bike_id":"e8ee3e53-1540-4d96-8a75-427079be8326","system_id":"levelo_inurba_marseille","lat":43.28929,"lon":5.36639,"is_reserved":false,"is_disabled":false,"rental_uris":{"android":"levelo://app?vid=e8ee3e53-1540-4d96-8a75-427079be8326","ios":"levelo://app?vid=e8ee3e53-1540-4d96-8a75-427079be8326"},"vehicle_type_id":"4","last_reported":1752347246,"current_range_meters":14000,"station_id":"ce4bhap2rcd13ifvqek0","pricing_plan_id":"cebpf4jnsgd1na2vs0mg"},{"bike_id":"806091c9-1f12-4ca0-9b76-3a92a69ca35d","system_id":"levelo_inurba_marseille","lat":43.26557,"lon":5.37285,"is_reserved":false,"is_disabled":false,"rental_uris":{"android":"levelo://app?vid=806091c9-1f12-4ca0-9b76-3a92a69ca35d","ios":"levelo://app?vid=806091c9-1f12-4ca0-9b76-3a92a69ca35d"},"vehicle_type_id":"4","last_reported":1752347246,"current_range_meters":14000,"station_id":"ce4bhg12rcd13ifvqf70","pricing_plan_id":"cebpf4jnsgd1na2vs0mg"},{"bike_id":"3f2f54ea-4770-4590-b19e-824f4e2eec26","system_id":"levelo_inurba_marseille","lat":43.26022,"lon":5.37558,"is_reserved":false,"is_disabled":false,"rental_uris":{"android":"levelo://app?vid=3f2f54ea-4770-4590-b19e-824f4e2eec26","ios":"levelo://app?vid=3f2f54ea-4770-4590-b19e-824f4e2eec26"},"vehicle_type_id":"4","last_reported":1752347246,"current_range_meters":14000,"station_id":"ce4bhgh2rcd13ifvqfa0","pricing_plan_id":"cebpf4jnsgd1na2vs0mg"},{"bike_id":"c294417d-3380-4b3f-b911-16d928306982","system_id":"levelo_inurba_marseille","lat":43.2987,"lon":5.3972,"is_reserved":false,"is_disabled":false,"rental_uris":{"android":"levelo://app?vid=c294417d-3380-4b3f-b911-16d928306982","ios":"levelo://app?vid=c294417d-3380-4b3f-b911-16d928306982"},"vehicle_type_id":"4","last_reported":1752347246,"current_range_meters":14400,"station_id":"ce4bh0h2rcd13ifvqd50","pricing_plan_id":"cebpf4jnsgd1na2vs0mg"},{"bike_id":"fbacda24-025c-4da3-b3df-def6e9ee4c00","system_id":"levelo_inurba_marseille","lat":43.28672,"lon":5.36313,"is_reserved":false,"is_disabled":false,"rental_uris":{"android":"levelo://app?vid=fbacda24-025c-4da3-b3df-def6e9ee4c00","ios":"levelo://app?vid=fbacda24-025c-4da3-b3df-def6e9ee4c00"},"vehicle_type_id":"4","last_reported":1752347246,"current_range_meters":14400,"station_id":"ce4bhah2rcd13ifvqej0","pricing_plan_id":"cebpf4jnsgd1na2vs0mg"},{"bike_id":"a2975611-c7c9-4a57-8f2a-621a7a6018a6","system_id":"levelo_inurba_marseille","lat":43.29033,"lon":5.38647,"is_reserved":false,"is_disabled":false,"rental_uris":{"android":"levelo://app?vid=a2975611-c7c9-4a57-8f2a-621a7a6018a6","ios":"levelo://app?vid=a2975611-c7c9-4a57-8f2a-621a7a6018a6"},"vehicle_type_id":"4","last_reported":1752347246,"current_range_meters":14400,"station_id":"ce4bh4p2rcd13ifvqe0g","pricing_plan_id":"cebpf4jnsgd1na2vs0mg"},{"bike_id":"737ead6f-e608-42f1-8a55-8949c954e8e3","system_id":"levelo_inurba_marseille","lat":43.21207,"lon":5.35083,"is_reserved":false,"is_disabled":false,"rental_uris":{"android":"levelo://app?vid=737ead6f-e608-42f1-8a55-8949c954e8e3","ios":"levelo://app?vid=737ead6f-e608-42f1-8a55-8949c954e8e3"},"vehicle_type_id":"4","last_reported":1752347246,"current_range_meters":14400,"station_id":"st_cvj6sg6p6f1abm77japg","pricing_plan_id":"cebpf4jnsgd1na2vs0mg"},{"bike_id":"e70c99bd-1e26-4bff-8d83-e65bd853ad43","system_id":"levelo_inurba_marseille","lat":43.2984,"lon":5.36268,"is_reserved":false,"is_disabled":false,"rental_uris":{"android":"levelo://app?vid=e70c99bd-1e26-4bff-8d83-e65bd853ad43","ios":"levelo://app?vid=e70c99bd-1e26-4bff-8d83-e65bd853ad43"},"vehicle_type_id":"4","last_reported":1752347246,"current_range_meters":14400,"station_id":"ce4bgpp2rcd13ifvqc3g","pricing_plan_id":"cebpf4jnsgd1na2vs0mg"},{"bike_id":"d7d851de-d966-47dc-9bd8-1a9ae0c433a4","system_id":"levelo_inurba_marseille","lat":43.225055,"lon":5.347843,"is_reserved":false,"is_disabled":false,"rental_uris":{"android":"levelo://app?vid=d7d851de-d966-47dc-9bd8-1a9ae0c433a4","ios":"levelo://app?vid=d7d851de-d966-47dc-9bd8-1a9ae0c433a4"},"vehicle_type_id":"4","last_reported":1752347246,"current_range_meters":14800,"station_id":"","pricing_plan_id":"cebpf4jnsgd1na2vs0mg"},{"bike_id":"51890362-46b0-4ee7-9f02-afbf036d064e","system_id":"levelo_inurba_marseille","lat":43.21188,"lon":5.35056,"is_reserved":false,"is_disabled":false,"rental_uris":{"android":"levelo://app?vid=51890362-46b0-4ee7-9f02-afbf036d064e","ios":"levelo://app?vid=51890362-46b0-4ee7-9f02-afbf036d064e"},"vehicle_type_id":"4","last_reported":1752347246,"current_range_meters":14800,"station_id":"st_cvj6sg6p6f1abm77japg","pricing_plan_id":"cebpf4jnsgd1na2vs0mg"},{"bike_id":"ff12513b-478c-4f81-9d13-9e238175c660","system_id":"levelo_inurba_marseille","lat":43.29533,"lon":5.38531,"is_reserved":false,"is_disabled":false,"rental_uris":{"android":"levelo://app?vid=ff12513b-478c-4f81-9d13-9e238175c660","ios":"levelo://app?vid=ff12513b-478c-4f81-9d13-9e238175c660"},"vehicle_type_id":"4","last_reported":1752347246,"current_range_meters":14800,"station_id":"ce4bgih2rcd13ifvqba0","pricing_plan_id":"cebpf4jnsgd1na2vs0mg"},{"bike_id":"49801dc2-618a-44b8-84ae-416cd87fdbe9","system_id":"levelo_inurba_marseille","lat":43.33775,"lon":5.37476,"is_reserved":false,"is_disabled":false,"rental_uris":{"android":"levelo://app?vid=49801dc2-618a-44b8-84ae-416cd87fdbe9","ios":"levelo://app?vid=49801dc2-618a-44b8-84ae-416cd87fdbe9"},"vehicle_type_id":"4","last_reported":1752347246,"current_range_meters":14800,"station_id":"","pricing_plan_id":"cebpf4jnsgd1na2vs0mg"},{"bike_id":"c3455266-2b79-4fd9-b0cd-450056d6b1c3","system_id":"levelo_inurba_marseille","lat":43.30946,"lon":5.39042,"is_reserved":false,"is_disabled":false,"rental_uris":{"android":"levelo://app?vid=c3455266-2b79-4fd9-b0cd-450056d6b1c3","ios":"levelo://app?vid=c3455266-2b79-4fd9-b0cd-450056d6b1c3"},"vehicle_type_id":"4","last_reported":1752347246,"current_range_meters":14800,"station_id":"ce4bgup2rcd13ifvqco0","pricing_plan_id":"cebpf4jnsgd1na2vs0mg"},{"bike_id":"a050206f-acb1-4909-8f9b-c349dd23486b","system_id":"levelo_inurba_marseille","lat":43.33588,"lon":5.41001,"is_reserved":false,"is_disabled":false,"rental_uris":{"android":"levelo://app?vid=a050206f-acb1-4909-8f9b-c349dd23486b","ios":"levelo://app?vid=a050206f-acb1-4909-8f9b-c349dd23486b"},"vehicle_type_id":"4","last_reported":1752347246,"current_range_meters":15200,"station_id":"ce4bhqh2rcd13ifvqhmg","pricing_plan_id":"cebpf4jnsgd1na2vs0mg"},{"bike_id":"01ec080a-2072-40fe-8f02-ee71150e5d55","system_id":"levelo_inurba_marseille","lat":43.29269,"lon":5.36844,"is_reserved":false,"is_disabled":false,"rental_uris":{"android":"levelo://app?vid=01ec080a-2072-40fe-8f02-ee71150e5d55","ios":"levelo://app?vid=01ec080a-2072-40fe-8f02-ee71150e5d55"},"vehicle_type_id":"4","last_reported":1752347246,"current_range_meters":15200,"station_id":"ce4bhbp2rcd13ifvqesg","pricing_plan_id":"cebpf4jnsgd1na2vs0mg"},{"bike_id":"9f4cb3f4-e6f7-4f06-9eb8-294ef0c08696","system_id":"levelo_inurba_marseille","lat":43.296021,"lon":5.380941,"is_reserved":false,"is_disabled":false,"rental_uris":{"android":"levelo://app?vid=9f4cb3f4-e6f7-4f06-9eb8-294ef0c08696","ios":"levelo://app?vid=9f4cb3f4-e6f7-4f06-9eb8-294ef0c08696"},"vehicle_type_id":"4","last_reported":1752347246,"current_range_meters":15200,"station_id":"ce4bgl12rcd13ifvqbo0","pricing_plan_id":"cebpf4jnsgd1na2vs0mg"},{"bike_id":"eecc0b04-0831-4a2d-95c9-526172545b61","system_id":"levelo_inurba_marseille","lat":43.24802,"lon":5.37456,"is_reserved":false,"is_disabled":false,"rental_uris":{"android":"levelo://app?vid=eecc0b04-0831-4a2d-95c9-526172545b61","ios":"levelo://app?vid=eecc0b04-0831-4a2d-95c9-526172545b61"},"vehicle_type_id":"4","last_reported":1752347246,"current_range_meters":15200,"station_id":"ce4bhgh2rcd13ifvqfb0","pricing_plan_id":"cebpf4jnsgd1na2vs0mg"},{"bike_id":"a0137104-c9f4-434a-a5e3-80725cd5a2b4","system_id":"levelo_inurba_marseille","lat":43.21191,"lon":5.35069,"is_reserved":false,"is_disabled":false,"rental_uris":{"android":"levelo://app?vid=a0137104-c9f4-434a-a5e3-80725cd5a2b4","ios":"levelo://app?vid=a0137104-c9f4-434a-a5e3-80725cd5a2b4"},"vehicle_type_id":"4","last_reported":1752347246,"current_range_meters":15200,"station_id":"st_cvj6sg6p6f1abm77japg","pricing_plan_id":"cebpf4jnsgd1na2vs0mg"},{"bike_id":"854d5dbd-9ed2-47cd-9380-9348e08a193d","system_id":"levelo_inurba_marseille","lat":43.29898,"lon":5.37472,"is_reserved":false,"is_disabled":false,"rental_uris":{"android":"levelo://app?vid=854d5dbd-9ed2-47cd-9380-9348e08a193d","ios":"levelo://app?vid=854d5dbd-9ed2-47cd-9380-9348e08a193d"},"vehicle_type_id":"4","last_reported":1752347246,"current_range_meters":16000,"station_id":"ce4bgjh2rcd13ifvqbg0","pricing_plan_id":"cebpf4jnsgd1na2vs0mg"},{"bike_id":"00bc0b3b-e317-4a17-a011-a3a9a29d816a","system_id":"levelo_inurba_marseille","lat":43.2121,"lon":5.35079,"is_reserved":false,"is_disabled":false,"rental_uris":{"android":"levelo://app?vid=00bc0b3b-e317-4a17-a011-a3a9a29d816a","ios":"levelo://app?vid=00bc0b3b-e317-4a17-a011-a3a9a29d816a"},"vehicle_type_id":"4","last_reported":1752347246,"current_range_meters":16000,"station_id":"st_cvj6sg6p6f1abm77japg","pricing_plan_id":"cebpf4jnsgd1na2vs0mg"},{"bike_id":"25548ffc-4576-4171-b8e0-e833fa4b2e60","system_id":"levelo_inurba_marseille","lat":43.29525,"lon":5.38529,"is_reserved":false,"is_disabled":false,"rental_uris":{"android":"levelo://app?vid=25548ffc-4576-4171-b8e0-e833fa4b2e60","ios":"levelo://app?vid=25548ffc-4576-4171-b8e0-e833fa4b2e60"},"vehicle_type_id":"4","last_reported":1752347246,"current_range_meters":16000,"station_id":"ce4bgih2rcd13ifvqba0","pricing_plan_id":"cebpf4jnsgd1na2vs0mg"},{"bike_id":"8b37f03f-f226-4bbc-8648-b109da7ba145","system_id":"levelo_inurba_marseille","lat":43.30536,"lon":5.366999,"is_reserved":false,"is_disabled":false,"rental_uris":{"android":"levelo://app?vid=8b37f03f-f226-4bbc-8648-b109da7ba145","ios":"levelo://app?vid=8b37f03f-f226-4bbc-8648-b109da7ba145"},"vehicle_type_id":"4","last_reported":1752347246,"current_range_meters":16000,"station_id":"","pricing_plan_id":"cebpf4jnsgd1na2vs0mg"},{"bike_id":"54c42649-7aa4-4934-92f3-a23a386f7d15","system_id":"levelo_inurba_marseille","lat":43.241713,"lon":5.364033,"is_reserved":false,"is_disabled":false,"rental_uris":{"android":"levelo://app?vid=54c42649-7aa4-4934-92f3-a23a386f7d15","ios":"levelo://app?vid=54c42649-7aa4-4934-92f3-a23a386f7d15"},"vehicle_type_id":"4","last_reported":1752347246,"current_range_meters":16000,"station_id":"cpo36qri1sfpv3e86is0","pricing_plan_id":"cebpf4jnsgd1na2vs0mg"},{"bike_id":"d3eb6ebc-944c-4672-ad0e-46dbd50d6295","system_id":"levelo_inurba_marseille","lat":43.2621,"lon":5.37451,"is_reserved":false,"is_disabled":false,"rental_uris":{"android":"levelo://app?vid=d3eb6ebc-944c-4672-ad0e-46dbd50d6295","ios":"levelo://app?vid=d3eb6ebc-944c-4672-ad0e-46dbd50d6295"},"vehicle_type_id":"4","last_reported":1752347246,"current_range_meters":16000,"station_id":"ce4bhgp2rcd13ifvqfc0","pricing_plan_id":"cebpf4jnsgd1na2vs0mg"},{"bike_id":"d92f2c9e-079f-4fd2-9b77-297206aa1f2d","system_id":"levelo_inurba_marseille","lat":43.292605,"lon":5.384432,"is_reserved":false,"is_disabled":false,"rental_uris":{"android":"levelo://app?vid=d92f2c9e-079f-4fd2-9b77-297206aa1f2d","ios":"levelo://app?vid=d92f2c9e-079f-4fd2-9b77-297206aa1f2d"},"vehicle_type_id":"4","last_reported":1752347246,"current_range_meters":16400,"station_id":"ce4bh692rcd13ifvqea0","pricing_plan_id":"cebpf4jnsgd1na2vs0mg"},{"bike_id":"0e32c339-e2ee-4245-a44a-bcdb4298f131","system_id":"levelo_inurba_marseille","lat":43.24072,"lon":5.37765,"is_reserved":false,"is_disabled":false,"rental_uris":{"android":"levelo://app?vid=0e32c339-e2ee-4245-a44a-bcdb4298f131","ios":"levelo://app?vid=0e32c339-e2ee-4245-a44a-bcdb4298f131"},"vehicle_type_id":"4","last_reported":1752347246,"current_range_meters":16400,"station_id":"ce4bhnp2rcd13ifvqgvg","pricing_plan_id":"cebpf4jnsgd1na2vs0mg"},{"bike_id":"b606f300-9197-4497-8d28-e9c5f1eeeac0","system_id":"levelo_inurba_marseille","lat":43.29596,"lon":5.38094,"is_reserved":false,"is_disabled":false,"rental_uris":{"android":"levelo://app?vid=b606f300-9197-4497-8d28-e9c5f1eeeac0","ios":"levelo://app?vid=b606f300-9197-4497-8d28-e9c5f1eeeac0"},"vehicle_type_id":"4","last_reported":1752347246,"current_range_meters":16400,"station_id":"ce4bgl12rcd13ifvqbo0","pricing_plan_id":"cebpf4jnsgd1na2vs0mg"},{"bike_id":"6263511e-674e-4e91-a994-3fbc8f67e587","system_id":"levelo_inurba_marseille","lat":43.28723,"lon":5.37941,"is_reserved":false,"is_disabled":false,"rental_uris":{"android":"levelo://app?vid=6263511e-674e-4e91-a994-3fbc8f67e587","ios":"levelo://app?vid=6263511e-674e-4e91-a994-3fbc8f67e587"},"vehicle_type_id":"4","last_reported":1752347246,"current_range_meters":16000,"station_id":"ce4bh9p2rcd13ifvqec0","pricing_plan_id":"cebpf4jnsgd1na2vs0mg"},{"bike_id":"57692aae-9841-41ad-bc01-254866eaf8b0","system_id":"levelo_inurba_marseille","lat":43.32342,"lon":5.40619,"is_reserved":false,"is_disabled":false,"rental_uris":{"android":"levelo://app?vid=57692aae-9841-41ad-bc01-254866eaf8b0","ios":"levelo://app?vid=57692aae-9841-41ad-bc01-254866eaf8b0"},"vehicle_type_id":"4","last_reported":1752347246,"current_range_meters":16400,"station_id":"ce4bhq92rcd13ifvqhjg","pricing_plan_id":"cebpf4jnsgd1na2vs0mg"},{"bike_id":"fd4ea8a4-19a2-471d-a213-096f14af8bf9","system_id":"levelo_inurba_marseille","lat":43.29262,"lon":5.3844,"is_reserved":false,"is_disabled":false,"rental_uris":{"android":"levelo://app?vid=fd4ea8a4-19a2-471d-a213-096f14af8bf9","ios":"levelo://app?vid=fd4ea8a4-19a2-471d-a213-096f14af8bf9"},"vehicle_type_id":"4","last_reported":1752347246,"current_range_meters":16400,"station_id":"ce4bh692rcd13ifvqea0","pricing_plan_id":"cebpf4jnsgd1na2vs0mg"},{"bike_id":"11e94177-0b84-4b18-b100-01a1c7bdf1ae","system_id":"levelo_inurba_marseille","lat":43.27376,"lon":5.36255,"is_reserved":false,"is_disabled":false,"rental_uris":{"android":"levelo://app?vid=11e94177-0b84-4b18-b100-01a1c7bdf1ae","ios":"levelo://app?vid=11e94177-0b84-4b18-b100-01a1c7bdf1ae"},"vehicle_type_id":"4","last_reported":1752347246,"current_range_meters":16400,"station_id":"ce4bhbh2rcd13ifvqeo0","pricing_plan_id":"cebpf4jnsgd1na2vs0mg"},{"bike_id":"f51b4b10-71c6-4846-93c1-c5f5d36e3469","system_id":"levelo_inurba_marseille","lat":43.26941,"lon":5.40259,"is_reserved":false,"is_disabled":false,"rental_uris":{"android":"levelo://app?vid=f51b4b10-71c6-4846-93c1-c5f5d36e3469","ios":"levelo://app?vid=f51b4b10-71c6-4846-93c1-c5f5d36e3469"},"vehicle_type_id":"4","last_reported":1752347246,"current_range_meters":16400,"station_id":"cjm6bp8fraef2m0cb0m0","pricing_plan_id":"cebpf4jnsgd1na2vs0mg"},{"bike_id":"f23760ff-ab61-4853-aa67-28aac93822c1","system_id":"levelo_inurba_marseille","lat":43.337444,"lon":5.374475,"is_reserved":false,"is_disabled":false,"rental_uris":{"android":"levelo://app?vid=f23760ff-ab61-4853-aa67-28aac93822c1","ios":"levelo://app?vid=f23760ff-ab61-4853-aa67-28aac93822c1"},"vehicle_type_id":"4","last_reported":1752347246,"current_range_meters":16400,"station_id":"","pricing_plan_id":"cebpf4jnsgd1na2vs0mg"},{"bike_id":"bd6aca16-62da-4edc-a1ce-c2ee8fb81d39","system_id":"levelo_inurba_marseille","lat":43.28847,"lon":5.39312,"is_reserved":false,"is_disabled":false,"rental_uris":{"android":"levelo://app?vid=bd6aca16-62da-4edc-a1ce-c2ee8fb81d39","ios":"levelo://app?vid=bd6aca16-62da-4edc-a1ce-c2ee8fb81d39"},"vehicle_type_id":"4","last_reported":1752347246,"current_range_meters":16400,"station_id":"ce4bh2p2rcd13ifvqdi0","pricing_plan_id":"cebpf4jnsgd1na2vs0mg"},{"bike_id":"77b71a94-f050-43b9-b53b-bb479cfa2c64","system_id":"levelo_inurba_marseille","lat":43.28151,"lon":5.42649,"is_reserved":false,"is_disabled":false,"rental_uris":{"android":"levelo://app?vid=77b71a94-f050-43b9-b53b-bb479cfa2c64","ios":"levelo://app?vid=77b71a94-f050-43b9-b53b-bb479cfa2c64"},"vehicle_type_id":"4","last_reported":1752347246,"current_range_meters":16400,"station_id":"ce4bhnh2rcd13ifvqgug","pricing_plan_id":"cebpf4jnsgd1na2vs0mg"},{"bike_id":"b105f991-1563-4fc4-9371-7364ce9b8c80","system_id":"levelo_inurba_marseille","lat":43.287285,"lon":5.395579,"is_reserved":false,"is_disabled":false,"rental_uris":{"android":"levelo://app?vid=b105f991-1563-4fc4-9371-7364ce9b8c80","ios":"levelo://app?vid=b105f991-1563-4fc4-9371-7364ce9b8c80"},"vehicle_type_id":"4","last_reported":1752347246,"current_range_meters":16400,"station_id":"","pricing_plan_id":"cebpf4jnsgd1na2vs0mg"},{"bike_id":"57de4b26-22c8-48ad-b606-857f503c18fe","system_id":"levelo_inurba_marseille","lat":43.26031,"lon":5.3755,"is_reserved":false,"is_disabled":false,"rental_uris":{"android":"levelo://app?vid=57de4b26-22c8-48ad-b606-857f503c18fe","ios":"levelo://app?vid=57de4b26-22c8-48ad-b606-857f503c18fe"},"vehicle_type_id":"4","last_reported":1752347246,"current_range_meters":16800,"station_id":"ce4bhgh2rcd13ifvqfa0","pricing_plan_id":"cebpf4jnsgd1na2vs0mg"},{"bike_id":"ebd18cd6-0ed5-44b5-8773-12d743a07cbd","system_id":"levelo_inurba_marseille","lat":43.29602,"lon":5.38097,"is_reserved":false,"is_disabled":false,"rental_uris":{"android":"levelo://app?vid=ebd18cd6-0ed5-44b5-8773-12d743a07cbd","ios":"levelo://app?vid=ebd18cd6-0ed5-44b5-8773-12d743a07cbd"},"vehicle_type_id":"4","last_reported":1752347246,"current_range_meters":16800,"station_id":"ce4bgl12rcd13ifvqbo0","pricing_plan_id":"cebpf4jnsgd1na2vs0mg"},{"bike_id":"6d3f299a-d341-49bc-a1f9-7534528d9b67","system_id":"levelo_inurba_marseille","lat":43.23202,"lon":5.35553,"is_reserved":false,"is_disabled":false,"rental_uris":{"android":"levelo://app?vid=6d3f299a-d341-49bc-a1f9-7534528d9b67","ios":"levelo://app?vid=6d3f299a-d341-49bc-a1f9-7534528d9b67"},"vehicle_type_id":"4","last_reported":1752347246,"current_range_meters":16800,"station_id":"ce4bhu92rcd13ifvqi70","pricing_plan_id":"cebpf4jnsgd1na2vs0mg"},{"bike_id":"844b44b6-4e33-4917-878d-a3c647561239","system_id":"levelo_inurba_marseille","lat":43.307649,"lon":5.424498,"is_reserved":false,"is_disabled":false,"rental_uris":{"android":"levelo://app?vid=844b44b6-4e33-4917-878d-a3c647561239","ios":"levelo://app?vid=844b44b6-4e33-4917-878d-a3c647561239"},"vehicle_type_id":"4","last_reported":1752347246,"current_range_meters":16800,"station_id":"st_cvj6ca6bvosntc0bfgr0","pricing_plan_id":"cebpf4jnsgd1na2vs0mg"},{"bike_id":"4b8da722-ee9e-48a4-a5e5-3a8a10364708","system_id":"levelo_inurba_marseille","lat":43.31269,"lon":5.37797,"is_reserved":false,"is_disabled":false,"rental_uris":{"android":"levelo://app?vid=4b8da722-ee9e-48a4-a5e5-3a8a10364708","ios":"levelo://app?vid=4b8da722-ee9e-48a4-a5e5-3a8a10364708"},"vehicle_type_id":"4","last_reported":1752347246,"current_range_meters":16800,"station_id":"","pricing_plan_id":"cebpf4jnsgd1na2vs0mg"},{"bike_id":"e2ce6e8a-ef9f-4211-8776-042780e4931d","system_id":"levelo_inurba_marseille","lat":43.28435,"lon":5.34973,"is_reserved":false,"is_disabled":true,"rental_uris":{"android":"levelo://app?vid=e2ce6e8a-ef9f-4211-8776-042780e4931d","ios":"levelo://app?vid=e2ce6e8a-ef9f-4211-8776-042780e4931d"},"vehicle_type_id":"4","last_reported":1752347246,"current_range_meters":16800,"station_id":"ce4bhbh2rcd13ifvqepg","pricing_plan_id":"cebpf4jnsgd1na2vs0mg"},{"bike_id":"e34f5d7d-0125-44e4-b2d1-8a57ed3ee9a0","system_id":"levelo_inurba_marseille","lat":43.26037,"lon":5.37545,"is_reserved":false,"is_disabled":false,"rental_uris":{"android":"levelo://app?vid=e34f5d7d-0125-44e4-b2d1-8a57ed3ee9a0","ios":"levelo://app?vid=e34f5d7d-0125-44e4-b2d1-8a57ed3ee9a0"},"vehicle_type_id":"4","last_reported":1752347246,"current_range_meters":16800,"station_id":"ce4bhgh2rcd13ifvqfa0","pricing_plan_id":"cebpf4jnsgd1na2vs0mg"},{"bike_id":"c1d0629c-eaee-41e7-8c10-68b0ec1b077d","system_id":"levelo_inurba_marseille","lat":43.32888,"lon":5.3908,"is_reserved":false,"is_disabled":false,"rental_uris":{"android":"levelo://app?vid=c1d0629c-eaee-41e7-8c10-68b0ec1b077d","ios":"levelo://app?vid=c1d0629c-eaee-41e7-8c10-68b0ec1b077d"},"vehicle_type_id":"4","last_reported":1752347246,"current_range_meters":16800,"station_id":"","pricing_plan_id":"cebpf4jnsgd1na2vs0mg"},{"bike_id":"ac0b4b6a-87f1-43d8-97bf-f440d89f3ebf","system_id":"levelo_inurba_marseille","lat":43.29271,"lon":5.38426,"is_reserved":false,"is_disabled":false,"rental_uris":{"android":"levelo://app?vid=ac0b4b6a-87f1-43d8-97bf-f440d89f3ebf","ios":"levelo://app?vid=ac0b4b6a-87f1-43d8-97bf-f440d89f3ebf"},"vehicle_type_id":"4","last_reported":1752347246,"current_range_meters":16800,"station_id":"ce4bh692rcd13ifvqea0","pricing_plan_id":"cebpf4jnsgd1na2vs0mg"},{"bike_id":"c961545c-c734-462b-b87c-84b27eee7b6a","system_id":"levelo_inurba_marseille","lat":43.29561,"lon":5.37524,"is_reserved":false,"is_disabled":false,"rental_uris":{"android":"levelo://app?vid=c961545c-c734-462b-b87c-84b27eee7b6a","ios":"levelo://app?vid=c961545c-c734-462b-b87c-84b27eee7b6a"},"vehicle_type_id":"4","last_reported":1752347246,"current_range_meters":16800,"station_id":"ce4bgh92rcd13ifvqb50","pricing_plan_id":"cebpf4jnsgd1na2vs0mg"},{"bike_id":"be5a67d7-da54-47ce-ad56-15cf558b55a4","system_id":"levelo_inurba_marseille","lat":43.25502,"lon":5.37649,"is_reserved":false,"is_disabled":false,"rental_uris":{"android":"levelo://app?vid=be5a67d7-da54-47ce-ad56-15cf558b55a4","ios":"levelo://app?vid=be5a67d7-da54-47ce-ad56-15cf558b55a4"},"vehicle_type_id":"4","last_reported":1752347246,"current_range_meters":17200,"station_id":"ce4bhh12rcd13ifvqff0","pricing_plan_id":"cebpf4jnsgd1na2vs0mg"},{"bike_id":"a44f68aa-b920-4eb6-845e-df1183944a6b","system_id":"levelo_inurba_marseille","lat":43.285663,"lon":5.35055,"is_reserved":false,"is_disabled":true,"rental_uris":{"android":"levelo://app?vid=a44f68aa-b920-4eb6-845e-df1183944a6b","ios":"levelo://app?vid=a44f68aa-b920-4eb6-845e-df1183944a6b"},"vehicle_type_id":"4","last_reported":1752347246,"current_range_meters":17200,"station_id":"","pricing_plan_id":"cebpf4jnsgd1na2vs0mg"},{"bike_id":"df40f023-f13c-49b0-b949-77aa55e16bc6","system_id":"levelo_inurba_marseille","lat":43.26204,"lon":5.3744,"is_reserved":false,"is_disabled":false,"rental_uris":{"android":"levelo://app?vid=df40f023-f13c-49b0-b949-77aa55e16bc6","ios":"levelo://app?vid=df40f023-f13c-49b0-b949-77aa55e16bc6"},"vehicle_type_id":"4","last_reported":1752347246,"current_range_meters":17200,"station_id":"ce4bhgp2rcd13ifvqfc0","pricing_plan_id":"cebpf4jnsgd1na2vs0mg"},{"bike_id":"2900d8c6-b55f-472f-a83d-26304fbf6aee","system_id":"levelo_inurba_marseille","lat":43.29613,"lon":5.38101,"is_reserved":false,"is_disabled":false,"rental_uris":{"android":"levelo://app?vid=2900d8c6-b55f-472f-a83d-26304fbf6aee","ios":"levelo://app?vid=2900d8c6-b55f-472f-a83d-26304fbf6aee"},"vehicle_type_id":"4","last_reported":1752347246,"current_range_meters":17200,"station_id":"ce4bgl12rcd13ifvqbo0","pricing_plan_id":"cebpf4jnsgd1na2vs0mg"},{"bike_id":"44497631-77a6-47c9-b29f-2094279baa49","system_id":"levelo_inurba_marseille","lat":43.30955,"lon":5.390262,"is_reserved":false,"is_disabled":false,"rental_uris":{"android":"levelo://app?vid=44497631-77a6-47c9-b29f-2094279baa49","ios":"levelo://app?vid=44497631-77a6-47c9-b29f-2094279baa49"},"vehicle_type_id":"4","last_reported":1752347246,"current_range_meters":17200,"station_id":"ce4bgup2rcd13ifvqco0","pricing_plan_id":"cebpf4jnsgd1na2vs0mg"},{"bike_id":"54398d99-4eb6-4d33-9598-00d527a15a13","system_id":"levelo_inurba_marseille","lat":43.26192,"lon":5.37477,"is_reserved":false,"is_disabled":false,"rental_uris":{"android":"levelo://app?vid=54398d99-4eb6-4d33-9598-00d527a15a13","ios":"levelo://app?vid=54398d99-4eb6-4d33-9598-00d527a15a13"},"vehicle_type_id":"4","last_reported":1752347246,"current_range_meters":17200,"station_id":"ce4bhgp2rcd13ifvqfc0","pricing_plan_id":"cebpf4jnsgd1na2vs0mg"},{"bike_id":"ccb42ea9-73de-4a73-bec9-ee41cdfdb904","system_id":"levelo_inurba_marseille","lat":43.286535,"lon":5.387062,"is_reserved":false,"is_disabled":false,"rental_uris":{"android":"levelo://app?vid=ccb42ea9-73de-4a73-bec9-ee41cdfdb904","ios":"levelo://app?vid=ccb42ea9-73de-4a73-bec9-ee41cdfdb904"},"vehicle_type_id":"4","last_reported":1752347246,"current_range_meters":17600,"station_id":"ce4bh492rcd13ifvqdug","pricing_plan_id":"cebpf4jnsgd1na2vs0mg"},{"bike_id":"f83eed2b-747d-40eb-b6a0-e0070d5edeb8","system_id":"levelo_inurba_marseille","lat":43.28956,"lon":5.36407,"is_reserved":false,"is_disabled":false,"rental_uris":{"android":"levelo://app?vid=f83eed2b-747d-40eb-b6a0-e0070d5edeb8","ios":"levelo://app?vid=f83eed2b-747d-40eb-b6a0-e0070d5edeb8"},"vehicle_type_id":"4","last_reported":1752347246,"current_range_meters":17600,"station_id":"ce4bhc92rcd13ifvqetg","pricing_plan_id":"cebpf4jnsgd1na2vs0mg"},{"bike_id":"4100bc4f-2218-4922-9dc2-ac7a30b24292","system_id":"levelo_inurba_marseille","lat":43.2953,"lon":5.38545,"is_reserved":false,"is_disabled":false,"rental_uris":{"android":"levelo://app?vid=4100bc4f-2218-4922-9dc2-ac7a30b24292","ios":"levelo://app?vid=4100bc4f-2218-4922-9dc2-ac7a30b24292"},"vehicle_type_id":"4","last_reported":1752347246,"current_range_meters":17600,"station_id":"ce4bgih2rcd13ifvqba0","pricing_plan_id":"cebpf4jnsgd1na2vs0mg"},{"bike_id":"3e8e03bf-ec25-49a9-be60-035cba3ce77e","system_id":"levelo_inurba_marseille","lat":43.29523,"lon":5.38522,"is_reserved":false,"is_disabled":false,"rental_uris":{"android":"levelo://app?vid=3e8e03bf-ec25-49a9-be60-035cba3ce77e","ios":"levelo://app?vid=3e8e03bf-ec25-49a9-be60-035cba3ce77e"},"vehicle_type_id":"4","last_reported":1752347246,"current_range_meters":17600,"station_id":"ce4bgih2rcd13ifvqba0","pricing_plan_id":"cebpf4jnsgd1na2vs0mg"},{"bike_id":"05bd9997-3c4e-49c6-a628-686076927091","system_id":"levelo_inurba_marseille","lat":43.29622,"lon":5.37162,"is_reserved":false,"is_disabled":false,"rental_uris":{"android":"levelo://app?vid=05bd9997-3c4e-49c6-a628-686076927091","ios":"levelo://app?vid=05bd9997-3c4e-49c6-a628-686076927091"},"vehicle_type_id":"4","last_reported":1752347246,"current_range_meters":17600,"station_id":"ce4bgnh2rcd13ifvqc0g","pricing_plan_id":"cebpf4jnsgd1na2vs0mg"},{"bike_id":"2afd10ce-5f23-4122-9c7a-a3416be941b2","system_id":"levelo_inurba_marseille","lat":43.26034,"lon":5.3755,"is_reserved":false,"is_disabled":true,"rental_uris":{"android":"levelo://app?vid=2afd10ce-5f23-4122-9c7a-a3416be941b2","ios":"levelo://app?vid=2afd10ce-5f23-4122-9c7a-a3416be941b2"},"vehicle_type_id":"4","last_reported":1752347246,"current_range_meters":17600,"station_id":"ce4bhgh2rcd13ifvqfa0","pricing_plan_id":"cebpf4jnsgd1na2vs0mg"},{"bike_id":"826fa7b0-d3c3-4f7b-b2e4-ca771786f4ef","system_id":"levelo_inurba_marseille","lat":43.29261,"lon":5.38429,"is_reserved":false,"is_disabled":false,"rental_uris":{"android":"levelo://app?vid=826fa7b0-d3c3-4f7b-b2e4-ca771786f4ef","ios":"levelo://app?vid=826fa7b0-d3c3-4f7b-b2e4-ca771786f4ef"},"vehicle_type_id":"4","last_reported":1752347246,"current_range_meters":17600,"station_id":"ce4bh692rcd13ifvqea0","pricing_plan_id":"cebpf4jnsgd1na2vs0mg"},{"bike_id":"07569e5d-7855-4a07-a2b5-705b3a1a9b36","system_id":"levelo_inurba_marseille","lat":43.29568,"lon":5.37526,"is_reserved":false,"is_disabled":false,"rental_uris":{"android":"levelo://app?vid=07569e5d-7855-4a07-a2b5-705b3a1a9b36","ios":"levelo://app?vid=07569e5d-7855-4a07-a2b5-705b3a1a9b36"},"vehicle_type_id":"4","last_reported":1752347246,"current_range_meters":17600,"station_id":"ce4bgh92rcd13ifvqb50","pricing_plan_id":"cebpf4jnsgd1na2vs0mg"},{"bike_id":"6f1a062e-3075-43ef-81a2-c3daf556a589","system_id":"levelo_inurba_marseille","lat":43.31363,"lon":5.38487,"is_reserved":false,"is_disabled":false,"rental_uris":{"android":"levelo://app?vid=6f1a062e-3075-43ef-81a2-c3daf556a589","ios":"levelo://app?vid=6f1a062e-3075-43ef-81a2-c3daf556a589"},"vehicle_type_id":"4","last_reported":1752347246,"current_range_meters":17600,"station_id":"ce4bgt92rcd13ifvqcf0","pricing_plan_id":"cebpf4jnsgd1na2vs0mg"},{"bike_id":"f2bc0789-b423-4281-ac6d-334972b8325a","system_id":"levelo_inurba_marseille","lat":43.29975,"lon":5.38486,"is_reserved":false,"is_disabled":false,"rental_uris":{"android":"levelo://app?vid=f2bc0789-b423-4281-ac6d-334972b8325a","ios":"levelo://app?vid=f2bc0789-b423-4281-ac6d-334972b8325a"},"vehicle_type_id":"4","last_reported":1752347246,"current_range_meters":17600,"station_id":"ce4bgj92rcd13ifvqbd0","pricing_plan_id":"cebpf4jnsgd1na2vs0mg"},{"bike_id":"5ba1306e-17d8-4dbc-acca-4fbb012874e8","system_id":"levelo_inurba_marseille","lat":43.29276,"lon":5.38414,"is_reserved":false,"is_disabled":false,"rental_uris":{"android":"levelo://app?vid=5ba1306e-17d8-4dbc-acca-4fbb012874e8","ios":"levelo://app?vid=5ba1306e-17d8-4dbc-acca-4fbb012874e8"},"vehicle_type_id":"4","last_reported":1752347246,"current_range_meters":17600,"station_id":"ce4bh692rcd13ifvqea0","pricing_plan_id":"cebpf4jnsgd1na2vs0mg"},{"bike_id":"96eab653-fff1-41cd-bcbd-417d9feda892","system_id":"levelo_inurba_marseille","lat":43.241836,"lon":5.397221,"is_reserved":false,"is_disabled":false,"rental_uris":{"android":"levelo://app?vid=96eab653-fff1-41cd-bcbd-417d9feda892","ios":"levelo://app?vid=96eab653-fff1-41cd-bcbd-417d9feda892"},"vehicle_type_id":"4","last_reported":1752347246,"current_range_meters":18000,"station_id":"ce4bhn12rcd13ifvqgpg","pricing_plan_id":"cebpf4jnsgd1na2vs0mg"},{"bike_id":"8b35647d-58c6-4f68-9c78-22b31b5970be","system_id":"levelo_inurba_marseille","lat":43.288531,"lon":5.393214,"is_reserved":false,"is_disabled":false,"rental_uris":{"android":"levelo://app?vid=8b35647d-58c6-4f68-9c78-22b31b5970be","ios":"levelo://app?vid=8b35647d-58c6-4f68-9c78-22b31b5970be"},"vehicle_type_id":"4","last_reported":1752347246,"current_range_meters":18000,"station_id":"ce4bh2p2rcd13ifvqdi0","pricing_plan_id":"cebpf4jnsgd1na2vs0mg"},{"bike_id":"09334d41-cc3f-4830-ac12-e843115d37f5","system_id":"levelo_inurba_marseille","lat":43.29535,"lon":5.38533,"is_reserved":false,"is_disabled":false,"rental_uris":{"android":"levelo://app?vid=09334d41-cc3f-4830-ac12-e843115d37f5","ios":"levelo://app?vid=09334d41-cc3f-4830-ac12-e843115d37f5"},"vehicle_type_id":"4","last_reported":1752347246,"current_range_meters":18000,"station_id":"ce4bgih2rcd13ifvqba0","pricing_plan_id":"cebpf4jnsgd1na2vs0mg"},{"bike_id":"a8830b52-7b57-46c5-8d4c-beadddaa5f60","system_id":"levelo_inurba_marseille","lat":43.26559,"lon":5.37303,"is_reserved":false,"is_disabled":false,"rental_uris":{"android":"levelo://app?vid=a8830b52-7b57-46c5-8d4c-beadddaa5f60","ios":"levelo://app?vid=a8830b52-7b57-46c5-8d4c-beadddaa5f60"},"vehicle_type_id":"4","last_reported":1752347246,"current_range_meters":18000,"station_id":"ce4bhg12rcd13ifvqf70","pricing_plan_id":"cebpf4jnsgd1na2vs0mg"},{"bike_id":"d24b005a-12c4-4b82-b8f3-41c245b98253","system_id":"levelo_inurba_marseille","lat":43.298,"lon":5.38095,"is_reserved":false,"is_disabled":false,"rental_uris":{"android":"levelo://app?vid=d24b005a-12c4-4b82-b8f3-41c245b98253","ios":"levelo://app?vid=d24b005a-12c4-4b82-b8f3-41c245b98253"},"vehicle_type_id":"4","last_reported":1752347246,"current_range_meters":18000,"station_id":"ce4bgip2rcd13ifvqbb0","pricing_plan_id":"cebpf4jnsgd1na2vs0mg"},{"bike_id":"f9924005-c8ac-4086-8e25-9a21391f65ea","system_id":"levelo_inurba_marseille","lat":43.211923,"lon":5.350749,"is_reserved":false,"is_disabled":false,"rental_uris":{"android":"levelo://app?vid=f9924005-c8ac-4086-8e25-9a21391f65ea","ios":"levelo://app?vid=f9924005-c8ac-4086-8e25-9a21391f65ea"},"vehicle_type_id":"4","last_reported":1752347246,"current_range_meters":18000,"station_id":"st_cvj6sg6p6f1abm77japg","pricing_plan_id":"cebpf4jnsgd1na2vs0mg"},{"bike_id":"62f34e28-813d-430d-8994-af64263847f0","system_id":"levelo_inurba_marseille","lat":43.284277,"lon":5.39204,"is_reserved":false,"is_disabled":false,"rental_uris":{"android":"levelo://app?vid=62f34e28-813d-430d-8994-af64263847f0","ios":"levelo://app?vid=62f34e28-813d-430d-8994-af64263847f0"},"vehicle_type_id":"4","last_reported":1752347246,"current_range_meters":18000,"station_id":"ce4bhoh2rcd13ifvqh5g","pricing_plan_id":"cebpf4jnsgd1na2vs0mg"},{"bike_id":"7048b274-bb73-4f78-bd84-2dffe4927289","system_id":"levelo_inurba_marseille","lat":43.29786,"lon":5.39352,"is_reserved":false,"is_disabled":true,"rental_uris":{"android":"levelo://app?vid=7048b274-bb73-4f78-bd84-2dffe4927289","ios":"levelo://app?vid=7048b274-bb73-4f78-bd84-2dffe4927289"},"vehicle_type_id":"4","last_reported":1752347246,"current_range_meters":18000,"station_id":"chh1huq6cuj3fo74tm60","pricing_plan_id":"cebpf4jnsgd1na2vs0mg"},{"bike_id":"9b40dc73-509b-4d2f-8a27-44696719b175","system_id":"levelo_inurba_marseille","lat":43.27069,"lon":5.42278,"is_reserved":false,"is_disabled":false,"rental_uris":{"android":"levelo://app?vid=9b40dc73-509b-4d2f-8a27-44696719b175","ios":"levelo://app?vid=9b40dc73-509b-4d2f-8a27-44696719b175"},"vehicle_type_id":"4","last_reported":1752347246,"current_range_meters":18800,"station_id":"ce4bhk92rcd13ifvqgb0","pricing_plan_id":"cebpf4jnsgd1na2vs0mg"},{"bike_id":"6db2d44d-c7ca-41ac-b814-ccca58d47fae","system_id":"levelo_inurba_marseille","lat":43.262212,"lon":5.374447,"is_reserved":false,"is_disabled":false,"rental_uris":{"android":"levelo://app?vid=6db2d44d-c7ca-41ac-b814-ccca58d47fae","ios":"levelo://app?vid=6db2d44d-c7ca-41ac-b814-ccca58d47fae"},"vehicle_type_id":"4","last_reported":1752347246,"current_range_meters":18800,"station_id":"ce4bhgp2rcd13ifvqfc0","pricing_plan_id":"cebpf4jnsgd1na2vs0mg"},{"bike_id":"718eafe4-1059-4d0b-9935-83404501b5b5","system_id":"levelo_inurba_marseille","lat":43.31706,"lon":5.3776,"is_reserved":false,"is_disabled":false,"rental_uris":{"android":"levelo://app?vid=718eafe4-1059-4d0b-9935-83404501b5b5","ios":"levelo://app?vid=718eafe4-1059-4d0b-9935-83404501b5b5"},"vehicle_type_id":"4","last_reported":1752347246,"current_range_meters":18800,"station_id":"ce4bgth2rcd13ifvqch0","pricing_plan_id":"cebpf4jnsgd1na2vs0mg"},{"bike_id":"2d8df8c0-37b9-4bcd-971f-b8fa6868731f","system_id":"levelo_inurba_marseille","lat":43.29573,"lon":5.42287,"is_reserved":false,"is_disabled":false,"rental_uris":{"android":"levelo://app?vid=2d8df8c0-37b9-4bcd-971f-b8fa6868731f","ios":"levelo://app?vid=2d8df8c0-37b9-4bcd-971f-b8fa6868731f"},"vehicle_type_id":"4","last_reported":1752347246,"current_range_meters":18800,"station_id":"ce4bhph2rcd13ifvqhdg","pricing_plan_id":"cebpf4jnsgd1na2vs0mg"},{"bike_id":"0b697ac8-09ba-40f1-aa88-f86e79cf244d","system_id":"levelo_inurba_marseille","lat":43.260146,"lon":5.375348,"is_reserved":false,"is_disabled":false,"rental_uris":{"android":"levelo://app?vid=0b697ac8-09ba-40f1-aa88-f86e79cf244d","ios":"levelo://app?vid=0b697ac8-09ba-40f1-aa88-f86e79cf244d"},"vehicle_type_id":"4","last_reported":1752347246,"current_range_meters":18800,"station_id":"","pricing_plan_id":"cebpf4jnsgd1na2vs0mg"},{"bike_id":"dbf78402-9380-4208-a15a-2558ad00150a","system_id":"levelo_inurba_marseille","lat":43.26211,"lon":5.37442,"is_reserved":false,"is_disabled":false,"rental_uris":{"android":"levelo://app?vid=dbf78402-9380-4208-a15a-2558ad00150a","ios":"levelo://app?vid=dbf78402-9380-4208-a15a-2558ad00150a"},"vehicle_type_id":"4","last_reported":1752347246,"current_range_meters":18800,"station_id":"ce4bhgp2rcd13ifvqfc0","pricing_plan_id":"cebpf4jnsgd1na2vs0mg"},{"bike_id":"6182d049-a5d8-422a-b0b9-1e868d3cc374","system_id":"levelo_inurba_marseille","lat":43.30949,"lon":5.39057,"is_reserved":false,"is_disabled":false,"rental_uris":{"android":"levelo://app?vid=6182d049-a5d8-422a-b0b9-1e868d3cc374","ios":"levelo://app?vid=6182d049-a5d8-422a-b0b9-1e868d3cc374"},"vehicle_type_id":"4","last_reported":1752347246,"current_range_meters":19200,"station_id":"ce4bgup2rcd13ifvqco0","pricing_plan_id":"cebpf4jnsgd1na2vs0mg"},{"bike_id":"21a57e85-e254-4500-a792-a97fa1cc4eaa","system_id":"levelo_inurba_marseille","lat":43.2847,"lon":5.35862,"is_reserved":false,"is_disabled":false,"rental_uris":{"android":"levelo://app?vid=21a57e85-e254-4500-a792-a97fa1cc4eaa","ios":"levelo://app?vid=21a57e85-e254-4500-a792-a97fa1cc4eaa"},"vehicle_type_id":"4","last_reported":1752347246,"current_range_meters":19200,"station_id":"ce4bhah2rcd13ifvqei0","pricing_plan_id":"cebpf4jnsgd1na2vs0mg"},{"bike_id":"9ac0406f-d24c-4cbb-96de-ba6903408475","system_id":"levelo_inurba_marseille","lat":43.29269,"lon":5.38436,"is_reserved":false,"is_disabled":false,"rental_uris":{"android":"levelo://app?vid=9ac0406f-d24c-4cbb-96de-ba6903408475","ios":"levelo://app?vid=9ac0406f-d24c-4cbb-96de-ba6903408475"},"vehicle_type_id":"4","last_reported":1752347246,"current_range_meters":19200,"station_id":"ce4bh692rcd13ifvqea0","pricing_plan_id":"cebpf4jnsgd1na2vs0mg"},{"bike_id":"cb1cc61e-2c97-4884-a03f-16bc11f5bec3","system_id":"levelo_inurba_marseille","lat":43.27371,"lon":5.36263,"is_reserved":false,"is_disabled":false,"rental_uris":{"android":"levelo://app?vid=cb1cc61e-2c97-4884-a03f-16bc11f5bec3","ios":"levelo://app?vid=cb1cc61e-2c97-4884-a03f-16bc11f5bec3"},"vehicle_type_id":"4","last_reported":1752347246,"current_range_meters":19200,"station_id":"ce4bhbh2rcd13ifvqeo0","pricing_plan_id":"cebpf4jnsgd1na2vs0mg"},{"bike_id":"de60112a-5cdf-4d86-9a61-1ddaed807604","system_id":"levelo_inurba_marseille","lat":43.30932,"lon":5.36832,"is_reserved":false,"is_disabled":false,"rental_uris":{"android":"levelo://app?vid=de60112a-5cdf-4d86-9a61-1ddaed807604","ios":"levelo://app?vid=de60112a-5cdf-4d86-9a61-1ddaed807604"},"vehicle_type_id":"4","last_reported":1752347246,"current_range_meters":19200,"station_id":"","pricing_plan_id":"cebpf4jnsgd1na2vs0mg"},{"bike_id":"f2051474-556c-4f23-86b4-a1c6ce176880","system_id":"levelo_inurba_marseille","lat":43.29765,"lon":5.37095,"is_reserved":false,"is_disabled":false,"rental_uris":{"android":"levelo://app?vid=f2051474-556c-4f23-86b4-a1c6ce176880","ios":"levelo://app?vid=f2051474-556c-4f23-86b4-a1c6ce176880"},"vehicle_type_id":"4","last_reported":1752347246,"current_range_meters":19200,"station_id":"ce4bgop2rcd13ifvqc1g","pricing_plan_id":"cebpf4jnsgd1na2vs0mg"},{"bike_id":"899f3cd4-00cc-438c-bf29-379d610fdcc2","system_id":"levelo_inurba_marseille","lat":43.26028,"lon":5.37543,"is_reserved":false,"is_disabled":false,"rental_uris":{"android":"levelo://app?vid=899f3cd4-00cc-438c-bf29-379d610fdcc2","ios":"levelo://app?vid=899f3cd4-00cc-438c-bf29-379d610fdcc2"},"vehicle_type_id":"4","last_reported":1752347246,"current_range_meters":19200,"station_id":"ce4bhgh2rcd13ifvqfa0","pricing_plan_id":"cebpf4jnsgd1na2vs0mg"},{"bike_id":"3b51d2a8-12ca-4755-9b9f-729e23ea04e1","system_id":"levelo_inurba_marseille","lat":43.29889,"lon":5.38887,"is_reserved":false,"is_disabled":false,"rental_uris":{"android":"levelo://app?vid=3b51d2a8-12ca-4755-9b9f-729e23ea04e1","ios":"levelo://app?vid=3b51d2a8-12ca-4755-9b9f-729e23ea04e1"},"vehicle_type_id":"4","last_reported":1752347246,"current_range_meters":19200,"station_id":"ce4bh392rcd13ifvqdl0","pricing_plan_id":"cebpf4jnsgd1na2vs0mg"},{"bike_id":"eaf67edf-afa5-42e2-bbf0-97699e148a26","system_id":"levelo_inurba_marseille","lat":43.29262,"lon":5.38434,"is_reserved":false,"is_disabled":false,"rental_uris":{"android":"levelo://app?vid=eaf67edf-afa5-42e2-bbf0-97699e148a26","ios":"levelo://app?vid=eaf67edf-afa5-42e2-bbf0-97699e148a26"},"vehicle_type_id":"4","last_reported":1752347246,"current_range_meters":19200,"station_id":"ce4bh692rcd13ifvqea0","pricing_plan_id":"cebpf4jnsgd1na2vs0mg"},{"bike_id":"1e8ed66f-04b8-480c-b549-fe788a716b4e","system_id":"levelo_inurba_marseille","lat":43.29167,"lon":5.37161,"is_reserved":false,"is_disabled":false,"rental_uris":{"android":"levelo://app?vid=1e8ed66f-04b8-480c-b549-fe788a716b4e","ios":"levelo://app?vid=1e8ed66f-04b8-480c-b549-fe788a716b4e"},"vehicle_type_id":"4","last_reported":1752347246,"current_range_meters":19200,"station_id":"ce4bha92rcd13ifvqeh0","pricing_plan_id":"cebpf4jnsgd1na2vs0mg"},{"bike_id":"7d9e3f53-cf37-4d56-9ff5-57d7cc79d46c","system_id":"levelo_inurba_marseille","lat":43.2955,"lon":5.38507,"is_reserved":false,"is_disabled":false,"rental_uris":{"android":"levelo://app?vid=7d9e3f53-cf37-4d56-9ff5-57d7cc79d46c","ios":"levelo://app?vid=7d9e3f53-cf37-4d56-9ff5-57d7cc79d46c"},"vehicle_type_id":"4","last_reported":1752347246,"current_range_meters":19200,"station_id":"ce4bgih2rcd13ifvqba0","pricing_plan_id":"cebpf4jnsgd1na2vs0mg"},{"bike_id":"495b833d-1a32-435d-8b44-7bd38702b6c7","system_id":"levelo_inurba_marseille","lat":43.32292,"lon":5.38272,"is_reserved":false,"is_disabled":false,"rental_uris":{"android":"levelo://app?vid=495b833d-1a32-435d-8b44-7bd38702b6c7","ios":"levelo://app?vid=495b833d-1a32-435d-8b44-7bd38702b6c7"},"vehicle_type_id":"4","last_reported":1752347246,"current_range_meters":19200,"station_id":"ce4bhr12rcd13ifvqhqg","pricing_plan_id":"cebpf4jnsgd1na2vs0mg"},{"bike_id":"51ecb449-9edf-46be-b831-6d02721e6fa2","system_id":"levelo_inurba_marseille","lat":43.30946,"lon":5.39022,"is_reserved":false,"is_disabled":false,"rental_uris":{"android":"levelo://app?vid=51ecb449-9edf-46be-b831-6d02721e6fa2","ios":"levelo://app?vid=51ecb449-9edf-46be-b831-6d02721e6fa2"},"vehicle_type_id":"4","last_reported":1752347246,"current_range_meters":19200,"station_id":"ce4bgup2rcd13ifvqco0","pricing_plan_id":"cebpf4jnsgd1na2vs0mg"},{"bike_id":"96f83f9f-600c-41f3-88ba-8bc0f4fcc554","system_id":"levelo_inurba_marseille","lat":43.291962,"lon":5.383332,"is_reserved":false,"is_disabled":false,"rental_uris":{"android":"levelo://app?vid=96f83f9f-600c-41f3-88ba-8bc0f4fcc554","ios":"levelo://app?vid=96f83f9f-600c-41f3-88ba-8bc0f4fcc554"},"vehicle_type_id":"4","last_reported":1752347246,"current_range_meters":19200,"station_id":"","pricing_plan_id":"cebpf4jnsgd1na2vs0mg"},{"bike_id":"1d93bc5a-a63e-482a-bfed-121d1b0d03d9","system_id":"levelo_inurba_marseille","lat":43.298037,"lon":5.363018,"is_reserved":false,"is_disabled":false,"rental_uris":{"android":"levelo://app?vid=1d93bc5a-a63e-482a-bfed-121d1b0d03d9","ios":"levelo://app?vid=1d93bc5a-a63e-482a-bfed-121d1b0d03d9"},"vehicle_type_id":"4","last_reported":1752347246,"current_range_meters":19200,"station_id":"ce4bgpp2rcd13ifvqc3g","pricing_plan_id":"cebpf4jnsgd1na2vs0mg"},{"bike_id":"ebaa46e3-88ae-443c-898b-6d0117aadeab","system_id":"levelo_inurba_marseille","lat":43.2953,"lon":5.38537,"is_reserved":false,"is_disabled":false,"rental_uris":{"android":"levelo://app?vid=ebaa46e3-88ae-443c-898b-6d0117aadeab","ios":"levelo://app?vid=ebaa46e3-88ae-443c-898b-6d0117aadeab"},"vehicle_type_id":"4","last_reported":1752347246,"current_range_meters":19200,"station_id":"ce4bgih2rcd13ifvqba0","pricing_plan_id":"cebpf4jnsgd1na2vs0mg"},{"bike_id":"55e6470f-2df5-43f8-8f28-e60ad2051a01","system_id":"levelo_inurba_marseille","lat":43.30911,"lon":5.36854,"is_reserved":false,"is_disabled":false,"rental_uris":{"android":"levelo://app?vid=55e6470f-2df5-43f8-8f28-e60ad2051a01","ios":"levelo://app?vid=55e6470f-2df5-43f8-8f28-e60ad2051a01"},"vehicle_type_id":"4","last_reported":1752347246,"current_range_meters":19600,"station_id":"ce4bgn92rcd13ifvqbvg","pricing_plan_id":"cebpf4jnsgd1na2vs0mg"},{"bike_id":"5584b8b5-dad5-4d91-b50c-a2b7afb61f23","system_id":"levelo_inurba_marseille","lat":43.2619,"lon":5.37437,"is_reserved":false,"is_disabled":false,"rental_uris":{"android":"levelo://app?vid=5584b8b5-dad5-4d91-b50c-a2b7afb61f23","ios":"levelo://app?vid=5584b8b5-dad5-4d91-b50c-a2b7afb61f23"},"vehicle_type_id":"4","last_reported":1752347246,"current_range_meters":19600,"station_id":"ce4bhgp2rcd13ifvqfc0","pricing_plan_id":"cebpf4jnsgd1na2vs0mg"},{"bike_id":"cca2adfb-c9f3-468e-abd2-379326b83600","system_id":"levelo_inurba_marseille","lat":43.33038,"lon":5.39039,"is_reserved":false,"is_disabled":false,"rental_uris":{"android":"levelo://app?vid=cca2adfb-c9f3-468e-abd2-379326b83600","ios":"levelo://app?vid=cca2adfb-c9f3-468e-abd2-379326b83600"},"vehicle_type_id":"4","last_reported":1752347246,"current_range_meters":19600,"station_id":"ce4bhr92rcd13ifvqhrg","pricing_plan_id":"cebpf4jnsgd1na2vs0mg"},{"bike_id":"f70d4eb7-0483-4b22-b4af-6857c0805839","system_id":"levelo_inurba_marseille","lat":43.299,"lon":5.38119,"is_reserved":false,"is_disabled":true,"rental_uris":{"android":"levelo://app?vid=f70d4eb7-0483-4b22-b4af-6857c0805839","ios":"levelo://app?vid=f70d4eb7-0483-4b22-b4af-6857c0805839"},"vehicle_type_id":"4","last_reported":1752347246,"current_range_meters":19600,"station_id":"ce4bgj12rcd13ifvqbc0","pricing_plan_id":"cebpf4jnsgd1na2vs0mg"},{"bike_id":"65927793-ffe2-49a8-b6af-4d6ec983ae78","system_id":"levelo_inurba_marseille","lat":43.28837,"lon":5.39309,"is_reserved":false,"is_disabled":false,"rental_uris":{"android":"levelo://app?vid=65927793-ffe2-49a8-b6af-4d6ec983ae78","ios":"levelo://app?vid=65927793-ffe2-49a8-b6af-4d6ec983ae78"},"vehicle_type_id":"4","last_reported":1752347246,"current_range_meters":19600,"station_id":"ce4bh2p2rcd13ifvqdi0","pricing_plan_id":"cebpf4jnsgd1na2vs0mg"},{"bike_id":"b409a0c4-3a9d-40ea-92ef-070fb277d6dd","system_id":"levelo_inurba_marseille","lat":43.29976,"lon":5.38476,"is_reserved":false,"is_disabled":false,"rental_uris":{"android":"levelo://app?vid=b409a0c4-3a9d-40ea-92ef-070fb277d6dd","ios":"levelo://app?vid=b409a0c4-3a9d-40ea-92ef-070fb277d6dd"},"vehicle_type_id":"4","last_reported":1752347246,"current_range_meters":19600,"station_id":"ce4bgj92rcd13ifvqbd0","pricing_plan_id":"cebpf4jnsgd1na2vs0mg"},{"bike_id":"56f09403-a466-410a-916d-29f260962e7d","system_id":"levelo_inurba_marseille","lat":43.29538,"lon":5.38547,"is_reserved":false,"is_disabled":false,"rental_uris":{"android":"levelo://app?vid=56f09403-a466-410a-916d-29f260962e7d","ios":"levelo://app?vid=56f09403-a466-410a-916d-29f260962e7d"},"vehicle_type_id":"4","last_reported":1752347246,"current_range_meters":19600,"station_id":"ce4bgih2rcd13ifvqba0","pricing_plan_id":"cebpf4jnsgd1na2vs0mg"},{"bike_id":"9bfc7d3d-4e60-4f8a-9c32-ef3d0e77ec5b","system_id":"levelo_inurba_marseille","lat":43.211923,"lon":5.350684,"is_reserved":false,"is_disabled":false,"rental_uris":{"android":"levelo://app?vid=9bfc7d3d-4e60-4f8a-9c32-ef3d0e77ec5b","ios":"levelo://app?vid=9bfc7d3d-4e60-4f8a-9c32-ef3d0e77ec5b"},"vehicle_type_id":"4","last_reported":1752347246,"current_range_meters":19600,"station_id":"st_cvj6sg6p6f1abm77japg","pricing_plan_id":"cebpf4jnsgd1na2vs0mg"},{"bike_id":"7a73bbee-f193-41e3-9372-9868260cb0e4","system_id":"levelo_inurba_marseille","lat":43.29264,"lon":5.38466,"is_reserved":false,"is_disabled":false,"rental_uris":{"android":"levelo://app?vid=7a73bbee-f193-41e3-9372-9868260cb0e4","ios":"levelo://app?vid=7a73bbee-f193-41e3-9372-9868260cb0e4"},"vehicle_type_id":"4","last_reported":1752347246,"current_range_meters":19600,"station_id":"ce4bh692rcd13ifvqea0","pricing_plan_id":"cebpf4jnsgd1na2vs0mg"},{"bike_id":"d0f1cdfb-a1d0-48c8-bd73-259f60d4d655","system_id":"levelo_inurba_marseille","lat":43.29271,"lon":5.38426,"is_reserved":false,"is_disabled":false,"rental_uris":{"android":"levelo://app?vid=d0f1cdfb-a1d0-48c8-bd73-259f60d4d655","ios":"levelo://app?vid=d0f1cdfb-a1d0-48c8-bd73-259f60d4d655"},"vehicle_type_id":"4","last_reported":1752347246,"current_range_meters":19600,"station_id":"ce4bh692rcd13ifvqea0","pricing_plan_id":"cebpf4jnsgd1na2vs0mg"},{"bike_id":"d89e827e-b2f2-4ba5-a976-a487e64c32a5","system_id":"levelo_inurba_marseille","lat":43.2417,"lon":5.39725,"is_reserved":false,"is_disabled":false,"rental_uris":{"android":"levelo://app?vid=d89e827e-b2f2-4ba5-a976-a487e64c32a5","ios":"levelo://app?vid=d89e827e-b2f2-4ba5-a976-a487e64c32a5"},"vehicle_type_id":"4","last_reported":1752347246,"current_range_meters":19600,"station_id":"ce4bhn12rcd13ifvqgpg","pricing_plan_id":"cebpf4jnsgd1na2vs0mg"},