{"last_updated":1693249471,"ttl":30,"version":"2.2","data":{"bikes":[{"bike_id":"dc03eea0-136c-4030-a583-1a417f3cc7b9","system_id":"levelo_inurba_marseille","lat":43.313391,"lon":5.36706,"is_reserved":false,"is_disabled":false,"rental_uris":{"android":"levelo://app?vid=dc03eea0-136c-4030-a583-1a417f3cc7b9","ios":"levelo://app?vid=dc03eea0-136c-4030-a583-1a417f3cc7b9"},"vehicle_type_id":"4","last_reported":1693249471,"current_range_meters":10400,"station_id":"ce4bgr92rcd13ifvqc6g","pricing_plan_id":"free"},{"bike_id":"36e6f5bd-5e06-4bff-b88c-f6bc557e5757","system_id":"levelo_inurba_marseille","lat":43.31213,"lon":5.36852,"is_reserved":false,"is_disabled":false,"rental_uris":{"android":"levelo://app?vid=36e6f5bd-5e06-4bff-b88c-f6bc557e5757","ios":"levelo://app?vid=36e6f5bd-5e06-4bff-b88c-f6bc557e5757"},"vehicle_type_id":"4","last_reported":1693249471,"current_range_meters":3600,"station_id":"ce4bgl92rcd13ifvqbq0","pricing_plan_id":"free"},{"bike_id":"8a43db73-9d46-4d00-b4f6-bba37f18b4e2","system_id":"levelo_inurba_marseille","lat":43.31402,"lon":5.37255,"is_reserved":false,"is_disabled":false,"rental_uris":{"android":"levelo://app?vid=8a43db73-9d46-4d00-b4f6-bba37f18b4e2","ios":"levelo://app?vid=8a43db73-9d46-4d00-b4f6-bba37f18b4e2"},"vehicle_type_id":"4","last_reported":1693249471,"current_range_meters":0,"station_id":"","pricing_plan_id":"free"},{"bike_id":"6dbb40ee-f712-406e-83a7-1d9a34e25b5e","system_id":"levelo_inurba_marseille","lat":43.30793,"lon":5.36806,"is_reserved":false,"is_disabled":false,"rental_uris":{"android":"levelo://app?vid=6dbb40ee-f712-406e-83a7-1d9a34e25b5e","ios":"levelo://app?vid=6dbb40ee-f712-406e-83a7-1d9a34e25b5e"},"vehicle_type_id":"4","last_reported":1693249471,"current_range_meters":13200,"station_id":"","pricing_plan_id":"free"},{"bike_id":"d2be997d-44d2-40a5-bb20-02aeaaf65fa5","system_id":"levelo_inurba_marseille","lat":43.314811,"lon":5.373103,"is_reserved":false,"is_disabled":false,"rental_uris":{"android":"levelo://app?vid=d2be997d-44d2-40a5-bb20-02aeaaf65fa5","ios":"levelo://app?vid=d2be997d-44d2-40a5-bb20-02aeaaf65fa5"},"vehicle_type_id":"4","last_reported":1693249471,"current_range_meters":31600,"station_id":"ce4bgt12rcd13ifvqcd0","pricing_plan_id":"free"},{"bike_id":"4aec2224-77c4-4b80-9d2a-96c38d0d68e6","system_id":"levelo_inurba_marseille","lat":43.314811,"lon":5.373103,"is_reserved":false,"is_disabled":false,"rental_uris":{"android":"levelo://app?vid=4aec2224-77c4-4b80-9d2a-96c38d0d68e6","ios":"levelo://app?vid=4aec2224-77c4-4b80-9d2a-96c38d0d68e6"},"vehicle_type_id":"4","last_reported":1693249471,"current_range_meters":25600,"station_id":"ce4bgt12rcd13ifvqcd0","pricing_plan_id":"free"},{"bike_id":"4581d85a-382b-4241-a4b9-baccbf6c0113","system_id":"levelo_inurba_marseille","lat":43.30889,"lon":5.3719,"is_reserved":false,"is_disabled":false,"rental_uris":{"android":"levelo://app?vid=4581d85a-382b-4241-a4b9-baccbf6c0113","ios":"levelo://app?vid=4581d85a-382b-4241-a4b9-baccbf6c0113"},"vehicle_type_id":"4","last_reported":1693249471,"current_range_meters":22000,"station_id":"ce4bguh2rcd13ifvqckg","pricing_plan_id":"free"},{"bike_id":"f47b32a9-4ac7-482f-ab19-aac8042a7a7b","system_id":"levelo_inurba_marseille","lat":43.309039,"lon":5.371797,"is_reserved":false,"is_disabled":false,"rental_uris":{"android":"levelo://app?vid=f47b32a9-4ac7-482f-ab19-aac8042a7a7b","ios":"levelo://app?vid=f47b32a9-4ac7-482f-ab19-aac8042a7a7b"},"vehicle_type_id":"4","last_reported":1693249471,"current_range_meters":20400,"station_id":"ce4bguh2rcd13ifvqckg","pricing_plan_id":"free"},{"bike_id":"fb0458f7-9f33-4312-afd6-8cda7180a0ff","system_id":"levelo_inurba_marseille","lat":43.30537,"lon":5.367345,"is_reserved":false,"is_disabled":false,"rental_uris":{"android":"levelo://app?vid=fb0458f7-9f33-4312-afd6-8cda7180a0ff","ios":"levelo://app?vid=fb0458f7-9f33-4312-afd6-8cda7180a0ff"},"vehicle_type_id":"4","last_reported":1693249471,"current_range_meters":5600,"station_id":"ce4bgrp2rcd13ifvqc9g","pricing_plan_id":"free"},{"bike_id":"b38f73c5-9810-415c-a84d-dcd636416a94","system_id":"levelo_inurba_marseille","lat":43.317075,"lon":5.377367,"is_reserved":false,"is_disabled":false,"rental_uris":{"android":"levelo://app?vid=b38f73c5-9810-415c-a84d-dcd636416a94","ios":"levelo://app?vid=b38f73c5-9810-415c-a84d-dcd636416a94"},"vehicle_type_id":"4","last_reported":1693249471,"current_range_meters":23200,"station_id":"ce4bgth2rcd13ifvqch0","pricing_plan_id":"free"},{"bike_id":"48ec8800-0fb8-4471-bd48-bbd6f8d58c85","system_id":"levelo_inurba_marseille","lat":43.31687,"lon":5.37735,"is_reserved":false,"is_disabled":false,"rental_uris":{"android":"levelo://app?vid=48ec8800-0fb8-4471-bd48-bbd6f8d58c85","ios":"levelo://app?vid=48ec8800-0fb8-4471-bd48-bbd6f8d58c85"},"vehicle_type_id":"4","last_reported":1693249471,"current_range_meters":28800,"station_id":"ce4bgth2rcd13ifvqch0","pricing_plan_id":"free"},{"bike_id":"bc796942-ed38-48cf-b6ab-f12ddcce3656","system_id":"levelo_inurba_marseille","lat":43.303046,"lon":5.368981,"is_reserved":false,"is_disabled":false,"rental_uris":{"android":"levelo://app?vid=bc796942-ed38-48cf-b6ab-f12ddcce3656","ios":"levelo://app?vid=bc796942-ed38-48cf-b6ab-f12ddcce3656"},"vehicle_type_id":"4","last_reported":1693249471,"current_range_meters":26400,"station_id":"ce4bgqh2rcd13ifvqc5g","pricing_plan_id":"free"},{"bike_id":"c6401da5-ef34-4e38-92e1-a68efe0668da","system_id":"levelo_inurba_marseille","lat":43.30312,"lon":5.36903,"is_reserved":false,"is_disabled":false,"rental_uris":{"android":"levelo://app?vid=c6401da5-ef34-4e38-92e1-a68efe0668da","ios":"levelo://app?vid=c6401da5-ef34-4e38-92e1-a68efe0668da"},"vehicle_type_id":"4","last_reported":1693249471,"current_range_meters":6800,"station_id":"ce4bgqh2rcd13ifvqc5g","pricing_plan_id":"free"},{"bike_id":"395521b6-0f10-4f5c-a7df-71869a7ea5a2","system_id":"levelo_inurba_marseille","lat":43.32128,"lon":5.3745,"is_reserved":false,"is_disabled":false,"rental_uris":{"android":"levelo://app?vid=395521b6-0f10-4f5c-a7df-71869a7ea5a2","ios":"levelo://app?vid=395521b6-0f10-4f5c-a7df-71869a7ea5a2"},"vehicle_type_id":"4","last_reported":1693249471,"current_range_meters":20800,"station_id":"","pricing_plan_id":"free"},{"bike_id":"a95f64da-f482-4639-89d0-0f77d0a6404a","system_id":"levelo_inurba_marseille","lat":43.301939,"lon":5.366286,"is_reserved":false,"is_disabled":false,"rental_uris":{"android":"levelo://app?vid=a95f64da-f482-4639-89d0-0f77d0a6404a","ios":"levelo://app?vid=a95f64da-f482-4639-89d0-0f77d0a6404a"},"vehicle_type_id":"4","last_reported":1693249471,"current_range_meters":30800,"station_id":"ce4bgrh2rcd13ifvqc8g","pricing_plan_id":"free"},{"bike_id":"783bc8f7-0b5b-4807-b52f-0f7ac0c3ebfb","system_id":"levelo_inurba_marseille","lat":43.301939,"lon":5.366286,"is_reserved":false,"is_disabled":false,"rental_uris":{"android":"levelo://app?vid=783bc8f7-0b5b-4807-b52f-0f7ac0c3ebfb","ios":"levelo://app?vid=783bc8f7-0b5b-4807-b52f-0f7ac0c3ebfb"},"vehicle_type_id":"4","last_reported":1693249471,"current_range_meters":18400,"station_id":"ce4bgrh2rcd13ifvqc8g","pricing_plan_id":"free"},{"bike_id":"a7075776-1bcd-4d09-8f9d-c0e7f4d3b943","system_id":"levelo_inurba_marseille","lat":43.32413,"lon":5.36993,"is_reserved":false,"is_disabled":false,"rental_uris":{"android":"levelo://app?vid=a7075776-1bcd-4d09-8f9d-c0e7f4d3b943","ios":"levelo://app?vid=a7075776-1bcd-4d09-8f9d-c0e7f4d3b943"},"vehicle_type_id":"4","last_reported":1693249471,"current_range_meters":5200,"station_id":"","pricing_plan_id":"free"},{"bike_id":"4cb13050-0153-46d8-8315-b9012ab94e15","system_id":"levelo_inurba_marseille","lat":43.30134,"lon":5.37015,"is_reserved":false,"is_disabled":false,"rental_uris":{"android":"levelo://app?vid=4cb13050-0153-46d8-8315-b9012ab94e15","ios":"levelo://app?vid=4cb13050-0153-46d8-8315-b9012ab94e15"},"vehicle_type_id":"4","last_reported":1693249471,"current_range_meters":28800,"station_id":"","pricing_plan_id":"free"},{"bike_id":"92475464-831d-4fbc-819a-fb97fe9d43a9","system_id":"levelo_inurba_marseille","lat":43.30132,"lon":5.37016,"is_reserved":false,"is_disabled":false,"rental_uris":{"android":"levelo://app?vid=92475464-831d-4fbc-819a-fb97fe9d43a9","ios":"levelo://app?vid=92475464-831d-4fbc-819a-fb97fe9d43a9"},"vehicle_type_id":"4","last_reported":1693249471,"current_range_meters":30000,"station_id":"","pricing_plan_id":"free"},{"bike_id":"61547c4c-1adc-4da5-acca-c70d0cb5b22f","system_id":"levelo_inurba_marseille","lat":43.3115,"lon":5.38296,"is_reserved":false,"is_disabled":false,"rental_uris":{"android":"levelo://app?vid=61547c4c-1adc-4da5-acca-c70d0cb5b22f","ios":"levelo://app?vid=61547c4c-1adc-4da5-acca-c70d0cb5b22f"},"vehicle_type_id":"4","last_reported":1693249471,"current_range_meters":26400,"station_id":"","pricing_plan_id":"free"},{"bike_id":"c2bf51b2-eeb8-44b8-9484-141d88ddf2b1","system_id":"levelo_inurba_marseille","lat":43.31497,"lon":5.38359,"is_reserved":false,"is_disabled":false,"rental_uris":{"android":"levelo://app?vid=c2bf51b2-eeb8-44b8-9484-141d88ddf2b1","ios":"levelo://app?vid=c2bf51b2-eeb8-44b8-9484-141d88ddf2b1"},"vehicle_type_id":"4","last_reported":1693249471,"current_range_meters":5600,"station_id":"","pricing_plan_id":"free"},{"bike_id":"9a09df39-f74d-4161-8829-837cc3c16c83","system_id":"levelo_inurba_marseille","lat":43.31626,"lon":5.38358,"is_reserved":false,"is_disabled":false,"rental_uris":{"android":"levelo://app?vid=9a09df39-f74d-4161-8829-837cc3c16c83","ios":"levelo://app?vid=9a09df39-f74d-4161-8829-837cc3c16c83"},"vehicle_type_id":"4","last_reported":1693249471,"current_range_meters":8800,"station_id":"","pricing_plan_id":"free"},{"bike_id":"93ccc168-ec2d-4bdd-b6a0-bccbd27120d9","system_id":"levelo_inurba_marseille","lat":43.30032,"lon":5.37089,"is_reserved":false,"is_disabled":false,"rental_uris":{"android":"levelo://app?vid=93ccc168-ec2d-4bdd-b6a0-bccbd27120d9","ios":"levelo://app?vid=93ccc168-ec2d-4bdd-b6a0-bccbd27120d9"},"vehicle_type_id":"4","last_reported":1693249471,"current_range_meters":29200,"station_id":"","pricing_plan_id":"free"},{"bike_id":"84b726cd-4012-4b55-9d38-7a214d830035","system_id":"levelo_inurba_marseille","lat":43.31989,"lon":5.38146,"is_reserved":false,"is_disabled":false,"rental_uris":{"android":"levelo://app?vid=84b726cd-4012-4b55-9d38-7a214d830035","ios":"levelo://app?vid=84b726cd-4012-4b55-9d38-7a214d830035"},"vehicle_type_id":"4","last_reported":1693249471,"current_range_meters":22800,"station_id":"ce4bhr12rcd13ifvqhpg","pricing_plan_id":"free"},{"bike_id":"373b9cb4-efdb-465a-8854-d0831cbff51c","system_id":"levelo_inurba_marseille","lat":43.31999,"lon":5.38169,"is_reserved":false,"is_disabled":false,"rental_uris":{"android":"levelo://app?vid=373b9cb4-efdb-465a-8854-d0831cbff51c","ios":"levelo://app?vid=373b9cb4-efdb-465a-8854-d0831cbff51c"},"vehicle_type_id":"4","last_reported":1693249471,"current_range_meters":9200,"station_id":"ce4bhr12rcd13ifvqhpg","pricing_plan_id":"free"},{"bike_id":"671b0e2c-cfd8-424b-ac24-51d3de781279","system_id":"levelo_inurba_marseille","lat":43.313571,"lon":5.384829,"is_reserved":false,"is_disabled":false,"rental_uris":{"android":"levelo://app?vid=671b0e2c-cfd8-424b-ac24-51d3de781279","ios":"levelo://app?vid=671b0e2c-cfd8-424b-ac24-51d3de781279"},"vehicle_type_id":"4","last_reported":1693249471,"current_range_meters":23200,"station_id":"ce4bgt92rcd13ifvqcf0","pricing_plan_id":"free"},{"bike_id":"ff05c722-6909-4063-a025-7b39a49554d1","system_id":"levelo_inurba_marseille","lat":43.313571,"lon":5.384829,"is_reserved":false,"is_disabled":false,"rental_uris":{"android":"levelo://app?vid=ff05c722-6909-4063-a025-7b39a49554d1","ios":"levelo://app?vid=ff05c722-6909-4063-a025-7b39a49554d1"},"vehicle_type_id":"4","last_reported":1693249471,"current_range_meters":25600,"station_id":"ce4bgt92rcd13ifvqcf0","pricing_plan_id":"free"},{"bike_id":"c720572b-e3c7-4294-81bc-c88935916ee0","system_id":"levelo_inurba_marseille","lat":43.313571,"lon":5.384829,"is_reserved":false,"is_disabled":false,"rental_uris":{"android":"levelo://app?vid=c720572b-e3c7-4294-81bc-c88935916ee0","ios":"levelo://app?vid=c720572b-e3c7-4294-81bc-c88935916ee0"},"vehicle_type_id":"4","last_reported":1693249471,"current_range_meters":31600,"station_id":"ce4bgt92rcd13ifvqcf0","pricing_plan_id":"free"},{"bike_id":"0da0b40e-6359-4390-97ec-d8bcf2490e99","system_id":"levelo_inurba_marseille","lat":43.299209,"lon":5.365547,"is_reserved":false,"is_disabled":false,"rental_uris":{"android":"levelo://app?vid=0da0b40e-6359-4390-97ec-d8bcf2490e99","ios":"levelo://app?vid=0da0b40e-6359-4390-97ec-d8bcf2490e99"},"vehicle_type_id":"4","last_reported":1693249471,"current_range_meters":31200,"station_id":"ce4bgm92rcd13ifvqbr0","pricing_plan_id":"free"},{"bike_id":"ea628102-f413-4421-a451-01c3055a1ca3","system_id":"levelo_inurba_marseille","lat":43.30536,"lon":5.38419,"is_reserved":false,"is_disabled":false,"rental_uris":{"android":"levelo://app?vid=ea628102-f413-4421-a451-01c3055a1ca3","ios":"levelo://app?vid=ea628102-f413-4421-a451-01c3055a1ca3"},"vehicle_type_id":"4","last_reported":1693249471,"current_range_meters":29600,"station_id":"ce4bgg92rcd13ifvqb30","pricing_plan_id":"free"},{"bike_id":"068a8380-6d3e-4ac6-8f5d-2ad67dbf3c9a","system_id":"levelo_inurba_marseille","lat":43.29932,"lon":5.3748,"is_reserved":false,"is_disabled":false,"rental_uris":{"android":"levelo://app?vid=068a8380-6d3e-4ac6-8f5d-2ad67dbf3c9a","ios":"levelo://app?vid=068a8380-6d3e-4ac6-8f5d-2ad67dbf3c9a"},"vehicle_type_id":"4","last_reported":1693249471,"current_range_meters":7600,"station_id":"ce4bgjh2rcd13ifvqbg0","pricing_plan_id":"free"},{"bike_id":"11d9ef82-ef11-4d54-a2fc-ca553ead3c85","system_id":"levelo_inurba_marseille","lat":43.298433,"lon":5.362774,"is_reserved":false,"is_disabled":false,"rental_uris":{"android":"levelo://app?vid=11d9ef82-ef11-4d54-a2fc-ca553ead3c85","ios":"levelo://app?vid=11d9ef82-ef11-4d54-a2fc-ca553ead3c85"},"vehicle_type_id":"4","last_reported":1693249471,"current_range_meters":4000,"station_id":"ce4bgpp2rcd13ifvqc3g","pricing_plan_id":"free"},{"bike_id":"972c9a23-cc7f-4bb5-838e-e93e047df9df","system_id":"levelo_inurba_marseille","lat":43.29921,"lon":5.37455,"is_reserved":false,"is_disabled":false,"rental_uris":{"android":"levelo://app?vid=972c9a23-cc7f-4bb5-838e-e93e047df9df","ios":"levelo://app?vid=972c9a23-cc7f-4bb5-838e-e93e047df9df"},"vehicle_type_id":"4","last_reported":1693249471,"current_range_meters":27200,"station_id":"ce4bgjh2rcd13ifvqbg0","pricing_plan_id":"free"},{"bike_id":"2f9e2def-2173-4eb4-a460-9a385f59debe","system_id":"levelo_inurba_marseille","lat":43.299243,"lon":5.37481,"is_reserved":false,"is_disabled":false,"rental_uris":{"android":"levelo://app?vid=2f9e2def-2173-4eb4-a460-9a385f59debe","ios":"levelo://app?vid=2f9e2def-2173-4eb4-a460-9a385f59debe"},"vehicle_type_id":"4","last_reported":1693249471,"current_range_meters":31200,"station_id":"ce4bgjh2rcd13ifvqbg0","pricing_plan_id":"free"},{"bike_id":"09eb1fe1-0500-4bbf-9749-148dd0605df0","system_id":"levelo_inurba_marseille","lat":43.297794,"lon":5.370888,"is_reserved":false,"is_disabled":false,"rental_uris":{"android":"levelo://app?vid=09eb1fe1-0500-4bbf-9749-148dd0605df0","ios":"levelo://app?vid=09eb1fe1-0500-4bbf-9749-148dd0605df0"},"vehicle_type_id":"4","last_reported":1693249471,"current_range_meters":14800,"station_id":"ce4bgop2rcd13ifvqc1g","pricing_plan_id":"free"},{"bike_id":"eb659de2-ec3c-4993-ab15-d0d5bd34e491","system_id":"levelo_inurba_marseille","lat":43.32828,"lon":5.36695,"is_reserved":false,"is_disabled":false,"rental_uris":{"android":"levelo://app?vid=eb659de2-ec3c-4993-ab15-d0d5bd34e491","ios":"levelo://app?vid=eb659de2-ec3c-4993-ab15-d0d5bd34e491"},"vehicle_type_id":"4","last_reported":1693249471,"current_range_meters":16400,"station_id":"ce4bhs92rcd13ifvqi0g","pricing_plan_id":"free"},{"bike_id":"dd789220-e7b5-42c1-b9dc-dc4243148021","system_id":"levelo_inurba_marseille","lat":43.297163,"lon":5.365866,"is_reserved":false,"is_disabled":false,"rental_uris":{"android":"levelo://app?vid=dd789220-e7b5-42c1-b9dc-dc4243148021","ios":"levelo://app?vid=dd789220-e7b5-42c1-b9dc-dc4243148021"},"vehicle_type_id":"4","last_reported":1693249471,"current_range_meters":32000,"station_id":"ce4bgn12rcd13ifvqbt0","pricing_plan_id":"free"},{"bike_id":"bd0bd295-6ecc-40c4-a4d0-89f645593756","system_id":"levelo_inurba_marseille","lat":43.297163,"lon":5.365866,"is_reserved":false,"is_disabled":false,"rental_uris":{"android":"levelo://app?vid=bd0bd295-6ecc-40c4-a4d0-89f645593756","ios":"levelo://app?vid=bd0bd295-6ecc-40c4-a4d0-89f645593756"},"vehicle_type_id":"4","last_reported":1693249471,"current_range_meters":21600,"station_id":"ce4bgn12rcd13ifvqbt0","pricing_plan_id":"free"},{"bike_id":"7ee05066-bcec-4bff-92b6-c145d4cf77f4","system_id":"levelo_inurba_marseille","lat":43.297163,"lon":5.365866,"is_reserved":false,"is_disabled":false,"rental_uris":{"android":"levelo://app?vid=7ee05066-bcec-4bff-92b6-c145d4cf77f4","ios":"levelo://app?vid=7ee05066-bcec-4bff-92b6-c145d4cf77f4"},"vehicle_type_id":"4","last_reported":1693249471,"current_range_meters":22000,"station_id":"ce4bgn12rcd13ifvqbt0","pricing_plan_id":"free"},{"bike_id":"2b80a4d7-1383-48e1-a32d-dacf873fe8ed","system_id":"levelo_inurba_marseille","lat":43.296921,"lon":5.376579,"is_reserved":false,"is_disabled":false,"rental_uris":{"android":"levelo://app?vid=2b80a4d7-1383-48e1-a32d-dacf873fe8ed","ios":"levelo://app?vid=2b80a4d7-1383-48e1-a32d-dacf873fe8ed"},"vehicle_type_id":"4","last_reported":1693249471,"current_range_meters":24400,"station_id":"ce4bgkh2rcd13ifvqbl0","pricing_plan_id":"free"},{"bike_id":"65d934c8-ea94-404c-b991-a012f59c0b64","system_id":"levelo_inurba_marseille","lat":43.296129,"lon":5.370777,"is_reserved":false,"is_disabled":false,"rental_uris":{"android":"levelo://app?vid=65d934c8-ea94-404c-b991-a012f59c0b64","ios":"levelo://app?vid=65d934c8-ea94-404c-b991-a012f59c0b64"},"vehicle_type_id":"4","last_reported":1693249471,"current_range_meters":25200,"station_id":"ce4bgnh2rcd13ifvqc0g","pricing_plan_id":"free"},{"bike_id":"d3139180-8ba9-4c91-b6e4-8baae3c22113","system_id":"levelo_inurba_marseille","lat":43.296129,"lon":5.370777,"is_reserved":false,"is_disabled":false,"rental_uris":{"android":"levelo://app?vid=d3139180-8ba9-4c91-b6e4-8baae3c22113","ios":"levelo://app?vid=d3139180-8ba9-4c91-b6e4-8baae3c22113"},"vehicle_type_id":"4","last_reported":1693249471,"current_range_meters":30400,"station_id":"ce4bgnh2rcd13ifvqc0g","pricing_plan_id":"free"},{"bike_id":"c99d4cf0-9b5a-4f9a-abdf-bef4ce134998","system_id":"levelo_inurba_marseille","lat":43.296935,"lon":5.376544,"is_reserved":false,"is_disabled":false,"rental_uris":{"android":"levelo://app?vid=c99d4cf0-9b5a-4f9a-abdf-bef4ce134998","ios":"levelo://app?vid=c99d4cf0-9b5a-4f9a-abdf-bef4ce134998"},"vehicle_type_id":"4","last_reported":1693249471,"current_range_meters":22000,"station_id":"ce4bgkh2rcd13ifvqbl0","pricing_plan_id":"free"},{"bike_id":"6c408587-214f-4774-97d3-b91e232fd284","system_id":"levelo_inurba_marseille","lat":43.29626,"lon":5.3603,"is_reserved":false,"is_disabled":false,"rental_uris":{"android":"levelo://app?vid=6c408587-214f-4774-97d3-b91e232fd284","ios":"levelo://app?vid=6c408587-214f-4774-97d3-b91e232fd284"},"vehicle_type_id":"4","last_reported":1693249471,"current_range_meters":28800,"station_id":"","pricing_plan_id":"free"},{"bike_id":"0fe37ba3-6d9d-4e83-9950-d07102401660","system_id":"levelo_inurba_marseille","lat":43.299028,"lon":5.381509,"is_reserved":false,"is_disabled":false,"rental_uris":{"android":"levelo://app?vid=0fe37ba3-6d9d-4e83-9950-d07102401660","ios":"levelo://app?vid=0fe37ba3-6d9d-4e83-9950-d07102401660"},"vehicle_type_id":"4","last_reported":1693249471,"current_range_meters":4400,"station_id":"ce4bgj12rcd13ifvqbc0","pricing_plan_id":"free"},{"bike_id":"381ce729-4249-4988-9f8e-9b45cf1cdd93","system_id":"levelo_inurba_marseille","lat":43.296921,"lon":5.376579,"is_reserved":false,"is_disabled":false,"rental_uris":{"android":"levelo://app?vid=381ce729-4249-4988-9f8e-9b45cf1cdd93","ios":"levelo://app?vid=381ce729-4249-4988-9f8e-9b45cf1cdd93"},"vehicle_type_id":"4","last_reported":1693249471,"current_range_meters":16000,"station_id":"ce4bgkh2rcd13ifvqbl0","pricing_plan_id":"free"},{"bike_id":"d62f9f98-b77f-4cdf-8a01-4036045f7f23","system_id":"levelo_inurba_marseille","lat":43.299028,"lon":5.381509,"is_reserved":false,"is_disabled":false,"rental_uris":{"android":"levelo://app?vid=d62f9f98-b77f-4cdf-8a01-4036045f7f23","ios":"levelo://app?vid=d62f9f98-b77f-4cdf-8a01-4036045f7f23"},"vehicle_type_id":"4","last_reported":1693249471,"current_range_meters":28000,"station_id":"ce4bgj12rcd13ifvqbc0","pricing_plan_id":"free"},{"bike_id":"c177a3aa-6504-46be-9f21-d6e014636cf1","system_id":"levelo_inurba_marseille","lat":43.299028,"lon":5.381509,"is_reserved":false,"is_disabled":false,"rental_uris":{"android":"levelo://app?vid=c177a3aa-6504-46be-9f21-d6e014636cf1","ios":"levelo://app?vid=c177a3aa-6504-46be-9f21-d6e014636cf1"},"vehicle_type_id":"4","last_reported":1693249471,"current_range_meters":9600,"station_id":"ce4bgj12rcd13ifvqbc0","pricing_plan_id":"free"},{"bike_id":"a91d7f9f-8094-4eba-aeb5-072e4aad225c","system_id":"levelo_inurba_marseille","lat":43.317557,"lon":5.390173,"is_reserved":false,"is_disabled":false,"rental_uris":{"android":"levelo://app?vid=a91d7f9f-8094-4eba-aeb5-072e4aad225c","ios":"levelo://app?vid=a91d7f9f-8094-4eba-aeb5-072e4aad225c"},"vehicle_type_id":"4","last_reported":1693249471,"current_range_meters":26800,"station_id":"ce4bhqp2rcd13ifvqhng","pricing_plan_id":"free"},{"bike_id":"4c6e440d-4878-4ceb-a1a0-8c759d12f33b","system_id":"levelo_inurba_marseille","lat":43.30958,"lon":5.39037,"is_reserved":false,"is_disabled":false,"rental_uris":{"android":"levelo://app?vid=4c6e440d-4878-4ceb-a1a0-8c759d12f33b","ios":"levelo://app?vid=4c6e440d-4878-4ceb-a1a0-8c759d12f33b"},"vehicle_type_id":"4","last_reported":1693249471,"current_range_meters":11600,"station_id":"ce4bgup2rcd13ifvqco0","pricing_plan_id":"free"},{"bike_id":"26e4d56e-e2a3-4df6-b3ca-7728c0a18af5","system_id":"levelo_inurba_marseille","lat":43.317557,"lon":5.390173,"is_reserved":false,"is_disabled":false,"rental_uris":{"android":"levelo://app?vid=26e4d56e-e2a3-4df6-b3ca-7728c0a18af5","ios":"levelo://app?vid=26e4d56e-e2a3-4df6-b3ca-7728c0a18af5"},"vehicle_type_id":"4","last_reported":1693249471,"current_range_meters":2400,"station_id":"ce4bhqp2rcd13ifvqhng","pricing_plan_id":"free"},{"bike_id":"146e0502-5871-4c43-a6af-3ce985b490f3","system_id":"levelo_inurba_marseille","lat":43.29847,"lon":5.3809,"is_reserved":false,"is_disabled":false,"rental_uris":{"android":"levelo://app?vid=146e0502-5871-4c43-a6af-3ce985b490f3","ios":"levelo://app?vid=146e0502-5871-4c43-a6af-3ce985b490f3"},"vehicle_type_id":"4","last_reported":1693249471,"current_range_meters":9600,"station_id":"ce4bgip2rcd13ifvqbb0","pricing_plan_id":"free"},{"bike_id":"1a4092ab-a67d-4c9d-93eb-5ec308430832","system_id":"levelo_inurba_marseille","lat":43.317557,"lon":5.390173,"is_reserved":false,"is_disabled":false,"rental_uris":{"android":"levelo://app?vid=1a4092ab-a67d-4c9d-93eb-5ec308430832","ios":"levelo://app?vid=1a4092ab-a67d-4c9d-93eb-5ec308430832"},"vehicle_type_id":"4","last_reported":1693249471,"current_range_meters":22000,"station_id":"ce4bhqp2rcd13ifvqhng","pricing_plan_id":"free"},{"bike_id":"2c93ce6f-c5e1-4ec9-9941-ebb7469bb8f2","system_id":"levelo_inurba_marseille","lat":43.317557,"lon":5.390173,"is_reserved":false,"is_disabled":false,"rental_uris":{"android":"levelo://app?vid=2c93ce6f-c5e1-4ec9-9941-ebb7469bb8f2","ios":"levelo://app?vid=2c93ce6f-c5e1-4ec9-9941-ebb7469bb8f2"},"vehicle_type_id":"4","last_reported":1693249471,"current_range_meters":31200,"station_id":"ce4bhqp2rcd13ifvqhng","pricing_plan_id":"free"},{"bike_id":"7e214b6c-fa6f-4d27-a61b-9ba51ff9484c","system_id":"levelo_inurba_marseille","lat":43.317557,"lon":5.390173,"is_reserved":false,"is_disabled":false,"rental_uris":{"android":"levelo://app?vid=7e214b6c-fa6f-4d27-a61b-9ba51ff9484c","ios":"levelo://app?vid=7e214b6c-fa6f-4d27-a61b-9ba51ff9484c"},"vehicle_type_id":"4","last_reported":1693249471,"current_range_meters":26000,"station_id":"ce4bhqp2rcd13ifvqhng","pricing_plan_id":"free"},{"bike_id":"b12fcb0f-aa7d-4992-80cc-bc7a787c758a","system_id":"levelo_inurba_marseille","lat":43.317557,"lon":5.390173,"is_reserved":false,"is_disabled":false,"rental_uris":{"android":"levelo://app?vid=b12fcb0f-aa7d-4992-80cc-bc7a787c758a","ios":"levelo://app?vid=b12fcb0f-aa7d-4992-80cc-bc7a787c758a"},"vehicle_type_id":"4","last_reported":1693249471,"current_range_meters":31600,"station_id":"ce4bhqp2rcd13ifvqhng","pricing_plan_id":"free"},{"bike_id":"a08d3576-4be2-428d-9a7f-ba2ae669abec","system_id":"levelo_inurba_marseille","lat":43.317557,"lon":5.390173,"is_reserved":false,"is_disabled":false,"rental_uris":{"android":"levelo://app?vid=a08d3576-4be2-428d-9a7f-ba2ae669abec","ios":"levelo://app?vid=a08d3576-4be2-428d-9a7f-ba2ae669abec"},"vehicle_type_id":"4","last_reported":1693249471,"current_range_meters":30400,"station_id":"ce4bhqp2rcd13ifvqhng","pricing_plan_id":"free"},{"bike_id":"a06848ef-740f-40b4-aa73-bffe9f77e579","system_id":"levelo_inurba_marseille","lat":43.31758,"lon":5.39019,"is_reserved":false,"is_disabled":false,"rental_uris":{"android":"levelo://app?vid=a06848ef-740f-40b4-aa73-bffe9f77e579","ios":"levelo://app?vid=a06848ef-740f-40b4-aa73-bffe9f77e579"},"vehicle_type_id":"4","last_reported":1693249471,"current_range_meters":24000,"station_id":"ce4bhqp2rcd13ifvqhng","pricing_plan_id":"free"},{"bike_id":"67ca3e18-78be-4690-873d-4aa7dc066c0b","system_id":"levelo_inurba_marseille","lat":43.298037,"lon":5.381066,"is_reserved":false,"is_disabled":false,"rental_uris":{"android":"levelo://app?vid=67ca3e18-78be-4690-873d-4aa7dc066c0b","ios":"levelo://app?vid=67ca3e18-78be-4690-873d-4aa7dc066c0b"},"vehicle_type_id":"4","last_reported":1693249471,"current_range_meters":14000,"station_id":"ce4bgip2rcd13ifvqbb0","pricing_plan_id":"free"},{"bike_id":"b5953211-9af8-4b93-a8fa-7c69df9279db","system_id":"levelo_inurba_marseille","lat":43.298037,"lon":5.381066,"is_reserved":false,"is_disabled":false,"rental_uris":{"android":"levelo://app?vid=b5953211-9af8-4b93-a8fa-7c69df9279db","ios":"levelo://app?vid=b5953211-9af8-4b93-a8fa-7c69df9279db"},"vehicle_type_id":"4","last_reported":1693249471,"current_range_meters":0,"station_id":"ce4bgip2rcd13ifvqbb0","pricing_plan_id":"free"},{"bike_id":"a58394fc-60ed-4d66-92d3-c0a5d5b92af7","system_id":"levelo_inurba_marseille","lat":43.30439,"lon":5.38901,"is_reserved":false,"is_disabled":false,"rental_uris":{"android":"levelo://app?vid=a58394fc-60ed-4d66-92d3-c0a5d5b92af7","ios":"levelo://app?vid=a58394fc-60ed-4d66-92d3-c0a5d5b92af7"},"vehicle_type_id":"4","last_reported":1693249471,"current_range_meters":25600,"station_id":"ce4bgk12rcd13ifvqbi0","pricing_plan_id":"free"},{"bike_id":"e48afe2e-7f44-4b57-a400-b0c9d731b232","system_id":"levelo_inurba_marseille","lat":43.29619,"lon":5.37708,"is_reserved":false,"is_disabled":false,"rental_uris":{"android":"levelo://app?vid=e48afe2e-7f44-4b57-a400-b0c9d731b232","ios":"levelo://app?vid=e48afe2e-7f44-4b57-a400-b0c9d731b232"},"vehicle_type_id":"4","last_reported":1693249471,"current_range_meters":12000,"station_id":"ce4bgi92rcd13ifvqb90","pricing_plan_id":"free"},{"bike_id":"952a19e7-6602-41c3-942f-79cfb514366f","system_id":"levelo_inurba_marseille","lat":43.296263,"lon":5.377094,"is_reserved":false,"is_disabled":false,"rental_uris":{"android":"levelo://app?vid=952a19e7-6602-41c3-942f-79cfb514366f","ios":"levelo://app?vid=952a19e7-6602-41c3-942f-79cfb514366f"},"vehicle_type_id":"4","last_reported":1693249471,"current_range_meters":30800,"station_id":"ce4bgi92rcd13ifvqb90","pricing_plan_id":"free"},{"bike_id":"d3f90e44-ab78-4110-8d45-6503eef48ca8","system_id":"levelo_inurba_marseille","lat":43.30428,"lon":5.38897,"is_reserved":false,"is_disabled":false,"rental_uris":{"android":"levelo://app?vid=d3f90e44-ab78-4110-8d45-6503eef48ca8","ios":"levelo://app?vid=d3f90e44-ab78-4110-8d45-6503eef48ca8"},"vehicle_type_id":"4","last_reported":1693249471,"current_range_meters":0,"station_id":"ce4bgk12rcd13ifvqbi0","pricing_plan_id":"free"},{"bike_id":"0d201d8e-3e25-40b4-9627-d830fa7e88a5","system_id":"levelo_inurba_marseille","lat":43.296263,"lon":5.377094,"is_reserved":false,"is_disabled":false,"rental_uris":{"android":"levelo://app?vid=0d201d8e-3e25-40b4-9627-d830fa7e88a5","ios":"levelo://app?vid=0d201d8e-3e25-40b4-9627-d830fa7e88a5"},"vehicle_type_id":"4","last_reported":1693249471,"current_range_meters":18400,"station_id":"ce4bgi92rcd13ifvqb90","pricing_plan_id":"free"},{"bike_id":"1d42e9f0-deec-4955-ad4c-b3bd2e4cabe8","system_id":"levelo_inurba_marseille","lat":43.296277,"lon":5.377108,"is_reserved":false,"is_disabled":false,"rental_uris":{"android":"levelo://app?vid=1d42e9f0-deec-4955-ad4c-b3bd2e4cabe8","ios":"levelo://app?vid=1d42e9f0-deec-4955-ad4c-b3bd2e4cabe8"},"vehicle_type_id":"4","last_reported":1693249471,"current_range_meters":2000,"station_id":"ce4bgi92rcd13ifvqb90","pricing_plan_id":"free"},{"bike_id":"9e0d5f74-6696-424c-94a2-46b8b9af5056","system_id":"levelo_inurba_marseille","lat":43.296263,"lon":5.377094,"is_reserved":false,"is_disabled":false,"rental_uris":{"android":"levelo://app?vid=9e0d5f74-6696-424c-94a2-46b8b9af5056","ios":"levelo://app?vid=9e0d5f74-6696-424c-94a2-46b8b9af5056"},"vehicle_type_id":"4","last_reported":1693249471,"current_range_meters":5200,"station_id":"ce4bgi92rcd13ifvqb90","pricing_plan_id":"free"},{"bike_id":"6b0a683c-466b-4b38-b1cb-0e7003804c19","system_id":"levelo_inurba_marseille","lat":43.296277,"lon":5.377108,"is_reserved":false,"is_disabled":false,"rental_uris":{"android":"levelo://app?vid=6b0a683c-466b-4b38-b1cb-0e7003804c19","ios":"levelo://app?vid=6b0a683c-466b-4b38-b1cb-0e7003804c19"},"vehicle_type_id":"4","last_reported":1693249471,"current_range_meters":11200,"station_id":"ce4bgi92rcd13ifvqb90","pricing_plan_id":"free"},{"bike_id":"6a82ffac-f8a8-47a2-bea7-c6a2ebbd7be8","system_id":"levelo_inurba_marseille","lat":43.296263,"lon":5.377094,"is_reserved":false,"is_disabled":false,"rental_uris":{"android":"levelo://app?vid=6a82ffac-f8a8-47a2-bea7-c6a2ebbd7be8","ios":"levelo://app?vid=6a82ffac-f8a8-47a2-bea7-c6a2ebbd7be8"},"vehicle_type_id":"4","last_reported":1693249471,"current_range_meters":20800,"station_id":"ce4bgi92rcd13ifvqb90","pricing_plan_id":"free"},{"bike_id":"0b788026-473c-4ffe-8bed-4ae1780cbcf6","system_id":"levelo_inurba_marseille","lat":43.296277,"lon":5.377108,"is_reserved":false,"is_disabled":false,"rental_uris":{"android":"levelo://app?vid=0b788026-473c-4ffe-8bed-4ae1780cbcf6","ios":"levelo://app?vid=0b788026-473c-4ffe-8bed-4ae1780cbcf6"},"vehicle_type_id":"4","last_reported":1693249471,"current_range_meters":0,"station_id":"ce4bgi92rcd13ifvqb90","pricing_plan_id":"free"},{"bike_id":"39981b60-04ff-47f1-b66c-956cff759aeb","system_id":"levelo_inurba_marseille","lat":43.299707,"lon":5.384859,"is_reserved":false,"is_disabled":false,"rental_uris":{"android":"levelo://app?vid=39981b60-04ff-47f1-b66c-956cff759aeb","ios":"levelo://app?vid=39981b60-04ff-47f1-b66c-956cff759aeb"},"vehicle_type_id":"4","last_reported":1693249471,"current_range_meters":17200,"station_id":"ce4bgj92rcd13ifvqbd0","pricing_plan_id":"free"},{"bike_id":"8a8446d5-0634-4b76-b84b-a091c8abe172","system_id":"levelo_inurba_marseille","lat":43.299707,"lon":5.384859,"is_reserved":false,"is_disabled":false,"rental_uris":{"android":"levelo://app?vid=8a8446d5-0634-4b76-b84b-a091c8abe172","ios":"levelo://app?vid=8a8446d5-0634-4b76-b84b-a091c8abe172"},"vehicle_type_id":"4","last_reported":1693249471,"current_range_meters":14400,"station_id":"ce4bgj92rcd13ifvqbd0","pricing_plan_id":"free"},{"bike_id":"f328cc3d-1f6d-4b4e-becf-b19f168d3396","system_id":"levelo_inurba_marseille","lat":43.299707,"lon":5.384859,"is_reserved":false,"is_disabled":false,"rental_uris":{"android":"levelo://app?vid=f328cc3d-1f6d-4b4e-becf-b19f168d3396","ios":"levelo://app?vid=f328cc3d-1f6d-4b4e-becf-b19f168d3396"},"vehicle_type_id":"4","last_reported":1693249471,"current_range_meters":23200,"station_id":"ce4bgj92rcd13ifvqbd0","pricing_plan_id":"free"},{"bike_id":"8704a26f-9bd1-4c04-a63f-29e7ade43f17","system_id":"levelo_inurba_marseille","lat":43.299707,"lon":5.384859,"is_reserved":false,"is_disabled":false,"rental_uris":{"android":"levelo://app?vid=8704a26f-9bd1-4c04-a63f-29e7ade43f17","ios":"levelo://app?vid=8704a26f-9bd1-4c04-a63f-29e7ade43f17"},"vehicle_type_id":"4","last_reported":1693249471,"current_range_meters":400,"station_id":"ce4bgj92rcd13ifvqbd0","pricing_plan_id":"free"},{"bike_id":"eb445614-38f7-4a32-876f-0050195cfb9c","system_id":"levelo_inurba_marseille","lat":43.299707,"lon":5.384859,"is_reserved":false,"is_disabled":false,"rental_uris":{"android":"levelo://app?vid=eb445614-38f7-4a32-876f-0050195cfb9c","ios":"levelo://app?vid=eb445614-38f7-4a32-876f-0050195cfb9c"},"vehicle_type_id":"4","last_reported":1693249471,"current_range_meters":30400,"station_id":"ce4bgj92rcd13ifvqbd0","pricing_plan_id":"free"},{"bike_id":"2cd28d04-01ea-47eb-a834-751446e0317a","system_id":"levelo_inurba_marseille","lat":43.299724,"lon":5.384848,"is_reserved":false,"is_disabled":false,"rental_uris":{"android":"levelo://app?vid=2cd28d04-01ea-47eb-a834-751446e0317a","ios":"levelo://app?vid=2cd28d04-01ea-47eb-a834-751446e0317a"},"vehicle_type_id":"4","last_reported":1693249471,"current_range_meters":28400,"station_id":"ce4bgj92rcd13ifvqbd0","pricing_plan_id":"free"},{"bike_id":"a39a0b05-3e01-44f2-8dad-50f8a7eea39d","system_id":"levelo_inurba_marseille","lat":43.29491,"lon":5.37389,"is_reserved":false,"is_disabled":false,"rental_uris":{"android":"levelo://app?vid=a39a0b05-3e01-44f2-8dad-50f8a7eea39d","ios":"levelo://app?vid=a39a0b05-3e01-44f2-8dad-50f8a7eea39d"},"vehicle_type_id":"4","last_reported":1693249471,"current_range_meters":31600,"station_id":"","pricing_plan_id":"free"},{"bike_id":"d4e3556c-5b02-439e-aade-803b11839d34","system_id":"levelo_inurba_marseille","lat":43.29459,"lon":5.37432,"is_reserved":false,"is_disabled":false,"rental_uris":{"android":"levelo://app?vid=d4e3556c-5b02-439e-aade-803b11839d34","ios":"levelo://app?vid=d4e3556c-5b02-439e-aade-803b11839d34"},"vehicle_type_id":"4","last_reported":1693249471,"current_range_meters":12000,"station_id":"","pricing_plan_id":"free"},{"bike_id":"da9b975d-dc7c-456b-a260-6bb7d4a6ae42","system_id":"levelo_inurba_marseille","lat":43.29454,"lon":5.37429,"is_reserved":false,"is_disabled":false,"rental_uris":{"android":"levelo://app?vid=da9b975d-dc7c-456b-a260-6bb7d4a6ae42","ios":"levelo://app?vid=da9b975d-dc7c-456b-a260-6bb7d4a6ae42"},"vehicle_type_id":"4","last_reported":1693249471,"current_range_meters":28800,"station_id":"","pricing_plan_id":"free"},{"bike_id":"d10f6085-d9d4-4d40-982e-5f1719439f11","system_id":"levelo_inurba_marseille","lat":43.32367,"lon":5.38879,"is_reserved":false,"is_disabled":false,"rental_uris":{"android":"levelo://app?vid=d10f6085-d9d4-4d40-982e-5f1719439f11","ios":"levelo://app?vid=d10f6085-d9d4-4d40-982e-5f1719439f11"},"vehicle_type_id":"4","last_reported":1693249471,"current_range_meters":20800,"station_id":"ce4bhqp2rcd13ifvqhog","pricing_plan_id":"free"},{"bike_id":"3b4f653b-4021-48da-b026-db084df22585","system_id":"levelo_inurba_marseille","lat":43.32367,"lon":5.38884,"is_reserved":false,"is_disabled":false,"rental_uris":{"android":"levelo://app?vid=3b4f653b-4021-48da-b026-db084df22585","ios":"levelo://app?vid=3b4f653b-4021-48da-b026-db084df22585"},"vehicle_type_id":"4","last_reported":1693249471,"current_range_meters":31200,"station_id":"ce4bhqp2rcd13ifvqhog","pricing_plan_id":"free"},{"bike_id":"fc80ba1c-e49a-440d-a706-9575a99a5694","system_id":"levelo_inurba_marseille","lat":43.32367,"lon":5.388836,"is_reserved":false,"is_disabled":false,"rental_uris":{"android":"levelo://app?vid=fc80ba1c-e49a-440d-a706-9575a99a5694","ios":"levelo://app?vid=fc80ba1c-e49a-440d-a706-9575a99a5694"},"vehicle_type_id":"4","last_reported":1693249471,"current_range_meters":30800,"station_id":"ce4bhqp2rcd13ifvqhog","pricing_plan_id":"free"},{"bike_id":"55d8053a-ba73-4d7e-a2c9-7ac9e874288c","system_id":"levelo_inurba_marseille","lat":43.29601,"lon":5.381084,"is_reserved":false,"is_disabled":false,"rental_uris":{"android":"levelo://app?vid=55d8053a-ba73-4d7e-a2c9-7ac9e874288c","ios":"levelo://app?vid=55d8053a-ba73-4d7e-a2c9-7ac9e874288c"},"vehicle_type_id":"4","last_reported":1693249471,"current_range_meters":14400,"station_id":"ce4bgl12rcd13ifvqbo0","pricing_plan_id":"free"},{"bike_id":"2e709d16-021e-432c-805b-e0d12be59dca","system_id":"levelo_inurba_marseille","lat":43.29602,"lon":5.381084,"is_reserved":false,"is_disabled":false,"rental_uris":{"android":"levelo://app?vid=2e709d16-021e-432c-805b-e0d12be59dca","ios":"levelo://app?vid=2e709d16-021e-432c-805b-e0d12be59dca"},"vehicle_type_id":"4","last_reported":1693249471,"current_range_meters":4000,"station_id":"ce4bgl12rcd13ifvqbo0","pricing_plan_id":"free"},{"bike_id":"08086cf4-48ba-400b-8fd1-93a58a0f122b","system_id":"levelo_inurba_marseille","lat":43.29602,"lon":5.381084,"is_reserved":false,"is_disabled":false,"rental_uris":{"android":"levelo://app?vid=08086cf4-48ba-400b-8fd1-93a58a0f122b","ios":"levelo://app?vid=08086cf4-48ba-400b-8fd1-93a58a0f122b"},"vehicle_type_id":"4","last_reported":1693249471,"current_range_meters":8800,"station_id":"ce4bgl12rcd13ifvqbo0","pricing_plan_id":"free"},{"bike_id":"a52152f5-62f8-48b4-8e0a-19bbb021badf","system_id":"levelo_inurba_marseille","lat":43.29601,"lon":5.381084,"is_reserved":false,"is_disabled":false,"rental_uris":{"android":"levelo://app?vid=a52152f5-62f8-48b4-8e0a-19bbb021badf","ios":"levelo://app?vid=a52152f5-62f8-48b4-8e0a-19bbb021badf"},"vehicle_type_id":"4","last_reported":1693249471,"current_range_meters":7200,"station_id":"ce4bgl12rcd13ifvqbo0","pricing_plan_id":"free"},{"bike_id":"32f09140-7926-4278-9917-87e0ffc79b90","system_id":"levelo_inurba_marseille","lat":43.29602,"lon":5.381084,"is_reserved":false,"is_disabled":false,"rental_uris":{"android":"levelo://app?vid=32f09140-7926-4278-9917-87e0ffc79b90","ios":"levelo://app?vid=32f09140-7926-4278-9917-87e0ffc79b90"},"vehicle_type_id":"4","last_reported":1693249471,"current_range_meters":28400,"station_id":"ce4bgl12rcd13ifvqbo0","pricing_plan_id":"free"},{"bike_id":"64fd5c77-3c65-44c1-af6a-88e2a450041b","system_id":"levelo_inurba_marseille","lat":43.29601,"lon":5.381084,"is_reserved":false,"is_disabled":false,"rental_uris":{"android":"levelo://app?vid=64fd5c77-3c65-44c1-af6a-88e2a450041b","ios":"levelo://app?vid=64fd5c77-3c65-44c1-af6a-88e2a450041b"},"vehicle_type_id":"4","last_reported":1693249471,"current_range_meters":17600,"station_id":"ce4bgl12rcd13ifvqbo0","pricing_plan_id":"free"},{"bike_id":"492a2456-a6e9-4324-b9b3-b95aca15394a","system_id":"levelo_inurba_marseille","lat":43.29596,"lon":5.38093,"is_reserved":false,"is_disabled":false,"rental_uris":{"android":"levelo://app?vid=492a2456-a6e9-4324-b9b3-b95aca15394a","ios":"levelo://app?vid=492a2456-a6e9-4324-b9b3-b95aca15394a"},"vehicle_type_id":"4","last_reported":1693249471,"current_range_meters":16800,"station_id":"ce4bgl12rcd13ifvqbo0","pricing_plan_id":"free"},{"bike_id":"c08c0c2a-381a-42f6-9c75-ab2592cb4ea0","system_id":"levelo_inurba_marseille","lat":43.29602,"lon":5.381084,"is_reserved":false,"is_disabled":false,"rental_uris":{"android":"levelo://app?vid=c08c0c2a-381a-42f6-9c75-ab2592cb4ea0","ios":"levelo://app?vid=c08c0c2a-381a-42f6-9c75-ab2592cb4ea0"},"vehicle_type_id":"4","last_reported":1693249471,"current_range_meters":30800,"station_id":"ce4bgl12rcd13ifvqbo0","pricing_plan_id":"free"},{"bike_id":"8182599b-2d61-402c-bd70-3c52d4e9ce78","system_id":"levelo_inurba_marseille","lat":43.29602,"lon":5.381084,"is_reserved":false,"is_disabled":false,"rental_uris":{"android":"levelo://app?vid=8182599b-2d61-402c-bd70-3c52d4e9ce78","ios":"levelo://app?vid=8182599b-2d61-402c-bd70-3c52d4e9ce78"},"vehicle_type_id":"4","last_reported":1693249471,"current_range_meters":26400,"station_id":"ce4bgl12rcd13ifvqbo0","pricing_plan_id":"free"},{"bike_id":"281dee21-8107-460b-b458-0b0a2b4ce150","system_id":"levelo_inurba_marseille","lat":43.29308,"lon":5.37159,"is_reserved":false,"is_disabled":false,"rental_uris":{"android":"levelo://app?vid=281dee21-8107-460b-b458-0b0a2b4ce150","ios":"levelo://app?vid=281dee21-8107-460b-b458-0b0a2b4ce150"},"vehicle_type_id":"4","last_reported":1693249471,"current_range_meters":7200,"station_id":"ce4bgh92rcd13ifvqb40","pricing_plan_id":"free"},{"bike_id":"434ea1a7-a887-40eb-9489-12fd0cc99f3a","system_id":"levelo_inurba_marseille","lat":43.29307,"lon":5.37164,"is_reserved":false,"is_disabled":false,"rental_uris":{"android":"levelo://app?vid=434ea1a7-a887-40eb-9489-12fd0cc99f3a","ios":"levelo://app?vid=434ea1a7-a887-40eb-9489-12fd0cc99f3a"},"vehicle_type_id":"4","last_reported":1693249471,"current_range_meters":26400,"station_id":"ce4bgh92rcd13ifvqb40","pricing_plan_id":"free"},{"bike_id":"bf324f9d-4bb3-4713-a406-93624329f348","system_id":"levelo_inurba_marseille","lat":43.293249,"lon":5.371578,"is_reserved":false,"is_disabled":false,"rental_uris":{"android":"levelo://app?vid=bf324f9d-4bb3-4713-a406-93624329f348","ios":"levelo://app?vid=bf324f9d-4bb3-4713-a406-93624329f348"},"vehicle_type_id":"4","last_reported":1693249471,"current_range_meters":18400,"station_id":"ce4bgh92rcd13ifvqb40","pricing_plan_id":"free"},{"bike_id":"97e8fc9b-66f2-472b-80dc-7f3b9516dce2","system_id":"levelo_inurba_marseille","lat":43.29305,"lon":5.37173,"is_reserved":false,"is_disabled":false,"rental_uris":{"android":"levelo://app?vid=97e8fc9b-66f2-472b-80dc-7f3b9516dce2","ios":"levelo://app?vid=97e8fc9b-66f2-472b-80dc-7f3b9516dce2"},"vehicle_type_id":"4","last_reported":1693249471,"current_range_meters":24800,"station_id":"ce4bgh92rcd13ifvqb40","pricing_plan_id":"free"},{"bike_id":"5a0567ab-0217-4c44-9d47-5216eb2c74f4","system_id":"levelo_inurba_marseille","lat":43.29308,"lon":5.37442,"is_reserved":false,"is_disabled":false,"rental_uris":{"android":"levelo://app?vid=5a0567ab-0217-4c44-9d47-5216eb2c74f4","ios":"levelo://app?vid=5a0567ab-0217-4c44-9d47-5216eb2c74f4"},"vehicle_type_id":"4","last_reported":1693249471,"current_range_meters":18800,"station_id":"ce4bgi12rcd13ifvqb70","pricing_plan_id":"free"},{"bike_id":"38fef587-7cc5-4800-b069-87b8f296a10a","system_id":"levelo_inurba_marseille","lat":43.293009,"lon":5.374584,"is_reserved":false,"is_disabled":false,"rental_uris":{"android":"levelo://app?vid=38fef587-7cc5-4800-b069-87b8f296a10a","ios":"levelo://app?vid=38fef587-7cc5-4800-b069-87b8f296a10a"},"vehicle_type_id":"4","last_reported":1693249471,"current_range_meters":31200,"station_id":"ce4bgi12rcd13ifvqb70","pricing_plan_id":"free"},{"bike_id":"6533c646-1091-4458-9ef2-bc9d36dce22d","system_id":"levelo_inurba_marseille","lat":43.293009,"lon":5.374584,"is_reserved":false,"is_disabled":false,"rental_uris":{"android":"levelo://app?vid=6533c646-1091-4458-9ef2-bc9d36dce22d","ios":"levelo://app?vid=6533c646-1091-4458-9ef2-bc9d36dce22d"},"vehicle_type_id":"4","last_reported":1693249471,"current_range_meters":32000,"station_id":"ce4bgi12rcd13ifvqb70","pricing_plan_id":"free"},{"bike_id":"9f06f46a-ded4-41ff-90af-22e7210a4c2a","system_id":"levelo_inurba_marseille","lat":43.305994,"lon":5.393687,"is_reserved":false,"is_disabled":false,"rental_uris":{"android":"levelo://app?vid=9f06f46a-ded4-41ff-90af-22e7210a4c2a","ios":"levelo://app?vid=9f06f46a-ded4-41ff-90af-22e7210a4c2a"},"vehicle_type_id":"4","last_reported":1693249471,"current_range_meters":13600,"station_id":"ce4bh0p2rcd13ifvqd80","pricing_plan_id":"free"},{"bike_id":"610b6971-5f78-4920-abe7-1e84f2edf0ca","system_id":"levelo_inurba_marseille","lat":43.293009,"lon":5.374584,"is_reserved":false,"is_disabled":false,"rental_uris":{"android":"levelo://app?vid=610b6971-5f78-4920-abe7-1e84f2edf0ca","ios":"levelo://app?vid=610b6971-5f78-4920-abe7-1e84f2edf0ca"},"vehicle_type_id":"4","last_reported":1693249471,"current_range_meters":0,"station_id":"ce4bgi12rcd13ifvqb70","pricing_plan_id":"free"},{"bike_id":"258ee883-b6df-4089-bcfd-ba3639bb3a00","system_id":"levelo_inurba_marseille","lat":43.30312,"lon":5.39202,"is_reserved":false,"is_disabled":false,"rental_uris":{"android":"levelo://app?vid=258ee883-b6df-4089-bcfd-ba3639bb3a00","ios":"levelo://app?vid=258ee883-b6df-4089-bcfd-ba3639bb3a00"},"vehicle_type_id":"4","last_reported":1693249471,"current_range_meters":31200,"station_id":"ce4bgkh2rcd13ifvqbk0","pricing_plan_id":"free"},{"bike_id":"2b972f26-9f9d-4e38-9f11-2d81a250581e","system_id":"levelo_inurba_marseille","lat":43.30309,"lon":5.39204,"is_reserved":false,"is_disabled":false,"rental_uris":{"android":"levelo://app?vid=2b972f26-9f9d-4e38-9f11-2d81a250581e","ios":"levelo://app?vid=2b972f26-9f9d-4e38-9f11-2d81a250581e"},"vehicle_type_id":"4","last_reported":1693249471,"current_range_meters":30400,"station_id":"ce4bgkh2rcd13ifvqbk0","pricing_plan_id":"free"},{"bike_id":"0724f352-a262-45b7-9b71-9a09ff17d945","system_id":"levelo_inurba_marseille","lat":43.30312,"lon":5.39208,"is_reserved":false,"is_disabled":false,"rental_uris":{"android":"levelo://app?vid=0724f352-a262-45b7-9b71-9a09ff17d945","ios":"levelo://app?vid=0724f352-a262-45b7-9b71-9a09ff17d945"},"vehicle_type_id":"4","last_reported":1693249471,"current_range_meters":22800,"station_id":"ce4bgkh2rcd13ifvqbk0","pricing_plan_id":"free"},{"bike_id":"ff3d9069-3334-47fd-b0a4-1daa17f77b26","system_id":"levelo_inurba_marseille","lat":43.303002,"lon":5.392142,"is_reserved":false,"is_disabled":false,"rental_uris":{"android":"levelo://app?vid=ff3d9069-3334-47fd-b0a4-1daa17f77b26","ios":"levelo://app?vid=ff3d9069-3334-47fd-b0a4-1daa17f77b26"},"vehicle_type_id":"4","last_reported":1693249471,"current_range_meters":24400,"station_id":"ce4bgkh2rcd13ifvqbk0","pricing_plan_id":"free"},{"bike_id":"2fdc880b-e54d-408a-88e6-b88c02df5459","system_id":"levelo_inurba_marseille","lat":43.303002,"lon":5.392142,"is_reserved":false,"is_disabled":false,"rental_uris":{"android":"levelo://app?vid=2fdc880b-e54d-408a-88e6-b88c02df5459","ios":"levelo://app?vid=2fdc880b-e54d-408a-88e6-b88c02df5459"},"vehicle_type_id":"4","last_reported":1693249471,"current_range_meters":3200,"station_id":"ce4bgkh2rcd13ifvqbk0","pricing_plan_id":"free"},{"bike_id":"6fbc564c-d0af-443a-9ae5-fb45e57da69f","system_id":"levelo_inurba_marseille","lat":43.2936,"lon":5.37835,"is_reserved":false,"is_disabled":false,"rental_uris":{"android":"levelo://app?vid=6fbc564c-d0af-443a-9ae5-fb45e57da69f","ios":"levelo://app?vid=6fbc564c-d0af-443a-9ae5-fb45e57da69f"},"vehicle_type_id":"4","last_reported":1693249471,"current_range_meters":6400,"station_id":"ce4bgjh2rcd13ifvqbf0","pricing_plan_id":"free"},{"bike_id":"59d4a7cc-c4d8-47e1-a63f-2e26b5d209c3","system_id":"levelo_inurba_marseille","lat":43.2936,"lon":5.37835,"is_reserved":false,"is_disabled":false,"rental_uris":{"android":"levelo://app?vid=59d4a7cc-c4d8-47e1-a63f-2e26b5d209c3","ios":"levelo://app?vid=59d4a7cc-c4d8-47e1-a63f-2e26b5d209c3"},"vehicle_type_id":"4","last_reported":1693249471,"current_range_meters":29600,"station_id":"ce4bgjh2rcd13ifvqbf0","pricing_plan_id":"free"},{"bike_id":"afb0668c-2cba-42ed-88e6-ef143b0df4f6","system_id":"levelo_inurba_marseille","lat":43.2936,"lon":5.37835,"is_reserved":false,"is_disabled":false,"rental_uris":{"android":"levelo://app?vid=afb0668c-2cba-42ed-88e6-ef143b0df4f6","ios":"levelo://app?vid=afb0668c-2cba-42ed-88e6-ef143b0df4f6"},"vehicle_type_id":"4","last_reported":1693249471,"current_range_meters":27200,"station_id":"ce4bgjh2rcd13ifvqbf0","pricing_plan_id":"free"},{"bike_id":"36c383de-6748-48fe-b591-a325adebf8ff","system_id":"levelo_inurba_marseille","lat":43.292326,"lon":5.3604,"is_reserved":false,"is_disabled":false,"rental_uris":{"android":"levelo://app?vid=36c383de-6748-48fe-b591-a325adebf8ff","ios":"levelo://app?vid=36c383de-6748-48fe-b591-a325adebf8ff"},"vehicle_type_id":"4","last_reported":1693249471,"current_range_meters":28800,"station_id":"ce4bhbh2rcd13ifvqeqg","pricing_plan_id":"free"},{"bike_id":"fa9fe9d5-ecd8-48b4-a413-ace87470fabf","system_id":"levelo_inurba_marseille","lat":43.292311,"lon":5.360731,"is_reserved":false,"is_disabled":false,"rental_uris":{"android":"levelo://app?vid=fa9fe9d5-ecd8-48b4-a413-ace87470fabf","ios":"levelo://app?vid=fa9fe9d5-ecd8-48b4-a413-ace87470fabf"},"vehicle_type_id":"4","last_reported":1693249471,"current_range_meters":0,"station_id":"ce4bhbh2rcd13ifvqeqg","pricing_plan_id":"free"},{"bike_id":"79e33348-3d8d-4e69-af55-a1ebd94007c9","system_id":"levelo_inurba_marseille","lat":43.292311,"lon":5.360731,"is_reserved":false,"is_disabled":false,"rental_uris":{"android":"levelo://app?vid=79e33348-3d8d-4e69-af55-a1ebd94007c9","ios":"levelo://app?vid=79e33348-3d8d-4e69-af55-a1ebd94007c9"},"vehicle_type_id":"4","last_reported":1693249471,"current_range_meters":26000,"station_id":"ce4bhbh2rcd13ifvqeqg","pricing_plan_id":"free"},{"bike_id":"82768c0c-716d-479e-92fa-f42f92adb2e1","system_id":"levelo_inurba_marseille","lat":43.300852,"lon":5.390859,"is_reserved":false,"is_disabled":false,"rental_uris":{"android":"levelo://app?vid=82768c0c-716d-479e-92fa-f42f92adb2e1","ios":"levelo://app?vid=82768c0c-716d-479e-92fa-f42f92adb2e1"},"vehicle_type_id":"4","last_reported":1693249471,"current_range_meters":16800,"station_id":"ce4bh192rcd13ifvqdb0","pricing_plan_id":"free"},{"bike_id":"3feff221-be67-4f8a-8cef-2d9d2aaecffe","system_id":"levelo_inurba_marseille","lat":43.29222,"lon":5.36056,"is_reserved":false,"is_disabled":false,"rental_uris":{"android":"levelo://app?vid=3feff221-be67-4f8a-8cef-2d9d2aaecffe","ios":"levelo://app?vid=3feff221-be67-4f8a-8cef-2d9d2aaecffe"},"vehicle_type_id":"4","last_reported":1693249471,"current_range_meters":31200,"station_id":"ce4bhbh2rcd13ifvqeqg","pricing_plan_id":"free"},{"bike_id":"ed46e554-2476-4d4e-a1a8-f9adae6f6df2","system_id":"levelo_inurba_marseille","lat":43.29222,"lon":5.36046,"is_reserved":false,"is_disabled":false,"rental_uris":{"android":"levelo://app?vid=ed46e554-2476-4d4e-a1a8-f9adae6f6df2","ios":"levelo://app?vid=ed46e554-2476-4d4e-a1a8-f9adae6f6df2"},"vehicle_type_id":"4","last_reported":1693249471,"current_range_meters":31200,"station_id":"ce4bhbh2rcd13ifvqeqg","pricing_plan_id":"free"},{"bike_id":"be17df90-0270-4cea-9f34-5a1d6f18bdf2","system_id":"levelo_inurba_marseille","lat":43.29218,"lon":5.36047,"is_reserved":false,"is_disabled":false,"rental_uris":{"android":"levelo://app?vid=be17df90-0270-4cea-9f34-5a1d6f18bdf2","ios":"levelo://app?vid=be17df90-0270-4cea-9f34-5a1d6f18bdf2"},"vehicle_type_id":"4","last_reported":1693249471,"current_range_meters":30800,"station_id":"ce4bhbh2rcd13ifvqeqg","pricing_plan_id":"free"},{"bike_id":"91f87ac4-ed52-4f52-88ca-c0e1a76cfc58","system_id":"levelo_inurba_marseille","lat":43.298764,"lon":5.388973,"is_reserved":false,"is_disabled":false,"rental_uris":{"android":"levelo://app?vid=91f87ac4-ed52-4f52-88ca-c0e1a76cfc58","ios":"levelo://app?vid=91f87ac4-ed52-4f52-88ca-c0e1a76cfc58"},"vehicle_type_id":"4","last_reported":1693249471,"current_range_meters":31600,"station_id":"ce4bh392rcd13ifvqdl0","pricing_plan_id":"free"},{"bike_id":"42966a92-1765-48ea-9228-beba9c0d1316","system_id":"levelo_inurba_marseille","lat":43.298764,"lon":5.388973,"is_reserved":false,"is_disabled":false,"rental_uris":{"android":"levelo://app?vid=42966a92-1765-48ea-9228-beba9c0d1316","ios":"levelo://app?vid=42966a92-1765-48ea-9228-beba9c0d1316"},"vehicle_type_id":"4","last_reported":1693249471,"current_range_meters":8000,"station_id":"ce4bh392rcd13ifvqdl0","pricing_plan_id":"free"},{"bike_id":"c0ffdfd4-a138-415d-8222-447d4ba13c04","system_id":"levelo_inurba_marseille","lat":43.291675,"lon":5.371583,"is_reserved":false,"is_disabled":false,"rental_uris":{"android":"levelo://app?vid=c0ffdfd4-a138-415d-8222-447d4ba13c04","ios":"levelo://app?vid=c0ffdfd4-a138-415d-8222-447d4ba13c04"},"vehicle_type_id":"4","last_reported":1693249471,"current_range_meters":1200,"station_id":"ce4bha92rcd13ifvqeh0","pricing_plan_id":"free"},{"bike_id":"82529373-085b-4f2a-91a3-0c7df897a111","system_id":"levelo_inurba_marseille","lat":43.291675,"lon":5.371583,"is_reserved":false,"is_disabled":false,"rental_uris":{"android":"levelo://app?vid=82529373-085b-4f2a-91a3-0c7df897a111","ios":"levelo://app?vid=82529373-085b-4f2a-91a3-0c7df897a111"},"vehicle_type_id":"4","last_reported":1693249471,"current_range_meters":31600,"station_id":"ce4bha92rcd13ifvqeh0","pricing_plan_id":"free"},{"bike_id":"606b769e-5300-4519-b929-03e4071bb5a0","system_id":"levelo_inurba_marseille","lat":43.298764,"lon":5.388973,"is_reserved":false,"is_disabled":false,"rental_uris":{"android":"levelo://app?vid=606b769e-5300-4519-b929-03e4071bb5a0","ios":"levelo://app?vid=606b769e-5300-4519-b929-03e4071bb5a0"},"vehicle_type_id":"4","last_reported":1693249471,"current_range_meters":23600,"station_id":"ce4bh392rcd13ifvqdl0","pricing_plan_id":"free"},{"bike_id":"876ec205-25d0-4952-8b54-4d37aeb0a9f3","system_id":"levelo_inurba_marseille","lat":43.29171,"lon":5.37153,"is_reserved":false,"is_disabled":false,"rental_uris":{"android":"levelo://app?vid=876ec205-25d0-4952-8b54-4d37aeb0a9f3","ios":"levelo://app?vid=876ec205-25d0-4952-8b54-4d37aeb0a9f3"},"vehicle_type_id":"4","last_reported":1693249471,"current_range_meters":31200,"station_id":"ce4bha92rcd13ifvqeh0","pricing_plan_id":"free"},{"bike_id":"53aefbc2-7c0f-4cc5-be95-f92f23ff8028","system_id":"levelo_inurba_marseille","lat":43.298764,"lon":5.388973,"is_reserved":false,"is_disabled":false,"rental_uris":{"android":"levelo://app?vid=53aefbc2-7c0f-4cc5-be95-f92f23ff8028","ios":"levelo://app?vid=53aefbc2-7c0f-4cc5-be95-f92f23ff8028"},"vehicle_type_id":"4","last_reported":1693249471,"current_range_meters":31600,"station_id":"ce4bh392rcd13ifvqdl0","pricing_plan_id":"free"},{"bike_id":"8cf404b9-6787-46af-b753-2684f3b9d30a","system_id":"levelo_inurba_marseille","lat":43.298764,"lon":5.388973,"is_reserved":false,"is_disabled":false,"rental_uris":{"android":"levelo://app?vid=8cf404b9-6787-46af-b753-2684f3b9d30a","ios":"levelo://app?vid=8cf404b9-6787-46af-b753-2684f3b9d30a"},"vehicle_type_id":"4","last_reported":1693249471,"current_range_meters":27200,"station_id":"ce4bh392rcd13ifvqdl0","pricing_plan_id":"free"},{"bike_id":"5f825218-3ec6-4669-8005-26bceddba6c1","system_id":"levelo_inurba_marseille","lat":43.29882,"lon":5.38912,"is_reserved":false,"is_disabled":false,"rental_uris":{"android":"levelo://app?vid=5f825218-3ec6-4669-8005-26bceddba6c1","ios":"levelo://app?vid=5f825218-3ec6-4669-8005-26bceddba6c1"},"vehicle_type_id":"4","last_reported":1693249471,"current_range_meters":20800,"station_id":"ce4bh392rcd13ifvqdl0","pricing_plan_id":"free"},{"bike_id":"3386852d-0e67-485c-903f-648e51b07043","system_id":"levelo_inurba_marseille","lat":43.291675,"lon":5.371583,"is_reserved":false,"is_disabled":false,"rental_uris":{"android":"levelo://app?vid=3386852d-0e67-485c-903f-648e51b07043","ios":"levelo://app?vid=3386852d-0e67-485c-903f-648e51b07043"},"vehicle_type_id":"4","last_reported":1693249471,"current_range_meters":9200,"station_id":"ce4bha92rcd13ifvqeh0","pricing_plan_id":"free"},{"bike_id":"70574fe5-288f-4f50-9e7c-dab2df8d97f1","system_id":"levelo_inurba_marseille","lat":43.291675,"lon":5.371583,"is_reserved":false,"is_disabled":false,"rental_uris":{"android":"levelo://app?vid=70574fe5-288f-4f50-9e7c-dab2df8d97f1","ios":"levelo://app?vid=70574fe5-288f-4f50-9e7c-dab2df8d97f1"},"vehicle_type_id":"4","last_reported":1693249471,"current_range_meters":14400,"station_id":"ce4bha92rcd13ifvqeh0","pricing_plan_id":"free"},{"bike_id":"e3cc9056-d5d5-4025-a550-47d063175be2","system_id":"levelo_inurba_marseille","lat":43.291367,"lon":5.370161,"is_reserved":false,"is_disabled":false,"rental_uris":{"android":"levelo://app?vid=e3cc9056-d5d5-4025-a550-47d063175be2","ios":"levelo://app?vid=e3cc9056-d5d5-4025-a550-47d063175be2"},"vehicle_type_id":"4","last_reported":1693249471,"current_range_meters":20400,"station_id":"","pricing_plan_id":"free"},{"bike_id":"f289e0bc-01c2-4256-b4aa-01f481ada5fa","system_id":"levelo_inurba_marseille","lat":43.29103,"lon":5.36854,"is_reserved":false,"is_disabled":false,"rental_uris":{"android":"levelo://app?vid=f289e0bc-01c2-4256-b4aa-01f481ada5fa","ios":"levelo://app?vid=f289e0bc-01c2-4256-b4aa-01f481ada5fa"},"vehicle_type_id":"4","last_reported":1693249471,"current_range_meters":11600,"station_id":"","pricing_plan_id":"free"},{"bike_id":"935b5517-c4c6-415c-932b-f6fe0a3e87af","system_id":"levelo_inurba_marseille","lat":43.30886,"lon":5.39635,"is_reserved":false,"is_disabled":false,"rental_uris":{"android":"levelo://app?vid=935b5517-c4c6-415c-932b-f6fe0a3e87af","ios":"levelo://app?vid=935b5517-c4c6-415c-932b-f6fe0a3e87af"},"vehicle_type_id":"4","last_reported":1693249471,"current_range_meters":23200,"station_id":"ce4bh012rcd13ifvqcv0","pricing_plan_id":"free"},{"bike_id":"73c2e0c0-a939-4bc3-943a-e52094180bff","system_id":"levelo_inurba_marseille","lat":43.291994,"lon":5.357886,"is_reserved":false,"is_disabled":false,"rental_uris":{"android":"levelo://app?vid=73c2e0c0-a939-4bc3-943a-e52094180bff","ios":"levelo://app?vid=73c2e0c0-a939-4bc3-943a-e52094180bff"},"vehicle_type_id":"4","last_reported":1693249471,"current_range_meters":19600,"station_id":"ce4bhb12rcd13ifvqel0","pricing_plan_id":"free"},{"bike_id":"90b784df-5be1-4d6d-8a55-8010d77e1fba","system_id":"levelo_inurba_marseille","lat":43.29195,"lon":5.35803,"is_reserved":false,"is_disabled":false,"rental_uris":{"android":"levelo://app?vid=90b784df-5be1-4d6d-8a55-8010d77e1fba","ios":"levelo://app?vid=90b784df-5be1-4d6d-8a55-8010d77e1fba"},"vehicle_type_id":"4","last_reported":1693249471,"current_range_meters":400,"station_id":"ce4bhb12rcd13ifvqel0","pricing_plan_id":"free"},{"bike_id":"d1bdacf3-b6e2-4037-9913-9d14c667bd4e","system_id":"levelo_inurba_marseille","lat":43.313289,"lon":5.396883,"is_reserved":false,"is_disabled":false,"rental_uris":{"android":"levelo://app?vid=d1bdacf3-b6e2-4037-9913-9d14c667bd4e","ios":"levelo://app?vid=d1bdacf3-b6e2-4037-9913-9d14c667bd4e"},"vehicle_type_id":"4","last_reported":1693249471,"current_range_meters":15200,"station_id":"ce4bgvp2rcd13ifvqcu0","pricing_plan_id":"free"},{"bike_id":"207b9659-5f6a-46d8-bf9c-46c1c1a18301","system_id":"levelo_inurba_marseille","lat":43.30884,"lon":5.39648,"is_reserved":false,"is_disabled":false,"rental_uris":{"android":"levelo://app?vid=207b9659-5f6a-46d8-bf9c-46c1c1a18301","ios":"levelo://app?vid=207b9659-5f6a-46d8-bf9c-46c1c1a18301"},"vehicle_type_id":"4","last_reported":1693249471,"current_range_meters":18400,"station_id":"ce4bh012rcd13ifvqcv0","pricing_plan_id":"free"},{"bike_id":"9cb0e1d7-da71-4945-9bd2-1833c134d8de","system_id":"levelo_inurba_marseille","lat":43.31329,"lon":5.397,"is_reserved":false,"is_disabled":false,"rental_uris":{"android":"levelo://app?vid=9cb0e1d7-da71-4945-9bd2-1833c134d8de","ios":"levelo://app?vid=9cb0e1d7-da71-4945-9bd2-1833c134d8de"},"vehicle_type_id":"4","last_reported":1693249471,"current_range_meters":26400,"station_id":"ce4bgvp2rcd13ifvqcu0","pricing_plan_id":"free"},{"bike_id":"cd6ebff8-fe47-41e4-bde0-703b22c10cc2","system_id":"levelo_inurba_marseille","lat":43.29529,"lon":5.385581,"is_reserved":false,"is_disabled":false,"rental_uris":{"android":"levelo://app?vid=cd6ebff8-fe47-41e4-bde0-703b22c10cc2","ios":"levelo://app?vid=cd6ebff8-fe47-41e4-bde0-703b22c10cc2"},"vehicle_type_id":"4","last_reported":1693249471,"current_range_meters":4000,"station_id":"ce4bgih2rcd13ifvqba0","pricing_plan_id":"free"},{"bike_id":"93579d44-e182-487d-9a5a-c5d3f1173341","system_id":"levelo_inurba_marseille","lat":43.30881,"lon":5.39664,"is_reserved":false,"is_disabled":false,"rental_uris":{"android":"levelo://app?vid=93579d44-e182-487d-9a5a-c5d3f1173341","ios":"levelo://app?vid=93579d44-e182-487d-9a5a-c5d3f1173341"},"vehicle_type_id":"4","last_reported":1693249471,"current_range_meters":10800,"station_id":"ce4bh012rcd13ifvqcv0","pricing_plan_id":"free"},{"bike_id":"adb40cce-65e9-4ab6-8426-d0d77cc04130","system_id":"levelo_inurba_marseille","lat":43.29537,"lon":5.38545,"is_reserved":false,"is_disabled":false,"rental_uris":{"android":"levelo://app?vid=adb40cce-65e9-4ab6-8426-d0d77cc04130","ios":"levelo://app?vid=adb40cce-65e9-4ab6-8426-d0d77cc04130"},"vehicle_type_id":"4","last_reported":1693249471,"current_range_meters":8400,"station_id":"ce4bgih2rcd13ifvqba0","pricing_plan_id":"free"},{"bike_id":"ee387d14-9cdc-49d0-9a46-c9bb655d0dde","system_id":"levelo_inurba_marseille","lat":43.29529,"lon":5.385581,"is_reserved":false,"is_disabled":false,"rental_uris":{"android":"levelo://app?vid=ee387d14-9cdc-49d0-9a46-c9bb655d0dde","ios":"levelo://app?vid=ee387d14-9cdc-49d0-9a46-c9bb655d0dde"},"vehicle_type_id":"4","last_reported":1693249471,"current_range_meters":13200,"station_id":"ce4bgih2rcd13ifvqba0","pricing_plan_id":"free"},{"bike_id":"e0cb8577-0998-409c-bc7b-488ee9979d9b","system_id":"levelo_inurba_marseille","lat":43.29529,"lon":5.385581,"is_reserved":false,"is_disabled":false,"rental_uris":{"android":"levelo://app?vid=e0cb8577-0998-409c-bc7b-488ee9979d9b","ios":"levelo://app?vid=e0cb8577-0998-409c-bc7b-488ee9979d9b"},"vehicle_type_id":"4","last_reported":1693249471,"current_range_meters":6800,"station_id":"ce4bgih2rcd13ifvqba0","pricing_plan_id":"free"},{"bike_id":"0cb9fe47-de48-4d64-a5a5-d6c1b8b7fde5","system_id":"levelo_inurba_marseille","lat":43.29529,"lon":5.385581,"is_reserved":false,"is_disabled":false,"rental_uris":{"android":"levelo://app?vid=0cb9fe47-de48-4d64-a5a5-d6c1b8b7fde5","ios":"levelo://app?vid=0cb9fe47-de48-4d64-a5a5-d6c1b8b7fde5"},"vehicle_type_id":"4","last_reported":1693249471,"current_range_meters":2400,"station_id":"ce4bgih2rcd13ifvqba0","pricing_plan_id":"free"},{"bike_id":"8ccd624e-1dfe-42fb-a5e3-cbbc046c8a43","system_id":"levelo_inurba_marseille","lat":43.29529,"lon":5.385581,"is_reserved":false,"is_disabled":false,"rental_uris":{"android":"levelo://app?vid=8ccd624e-1dfe-42fb-a5e3-cbbc046c8a43","ios":"levelo://app?vid=8ccd624e-1dfe-42fb-a5e3-cbbc046c8a43"},"vehicle_type_id":"4","last_reported":1693249471,"current_range_meters":28400,"station_id":"ce4bgih2rcd13ifvqba0","pricing_plan_id":"free"},{"bike_id":"f80cc9d6-00a2-41e6-aeca-2c850957c59e","system_id":"levelo_inurba_marseille","lat":43.290779,"lon":5.371482,"is_reserved":false,"is_disabled":false,"rental_uris":{"android":"levelo://app?vid=f80cc9d6-00a2-41e6-aeca-2c850957c59e","ios":"levelo://app?vid=f80cc9d6-00a2-41e6-aeca-2c850957c59e"},"vehicle_type_id":"4","last_reported":1693249471,"current_range_meters":29200,"station_id":"ce4bh5p2rcd13ifvqe4g","pricing_plan_id":"free"},{"bike_id":"0433d255-8e6b-460b-a6ff-d0e9fc669441","system_id":"levelo_inurba_marseille","lat":43.29069,"lon":5.37162,"is_reserved":false,"is_disabled":false,"rental_uris":{"android":"levelo://app?vid=0433d255-8e6b-460b-a6ff-d0e9fc669441","ios":"levelo://app?vid=0433d255-8e6b-460b-a6ff-d0e9fc669441"},"vehicle_type_id":"4","last_reported":1693249471,"current_range_meters":18400,"station_id":"ce4bh5p2rcd13ifvqe4g","pricing_plan_id":"free"},{"bike_id":"393c0cfc-f92b-49ac-b84f-fb04f0135a75","system_id":"levelo_inurba_marseille","lat":43.2906,"lon":5.37159,"is_reserved":false,"is_disabled":false,"rental_uris":{"android":"levelo://app?vid=393c0cfc-f92b-49ac-b84f-fb04f0135a75","ios":"levelo://app?vid=393c0cfc-f92b-49ac-b84f-fb04f0135a75"},"vehicle_type_id":"4","last_reported":1693249471,"current_range_meters":17600,"station_id":"ce4bh5p2rcd13ifvqe4g","pricing_plan_id":"free"},{"bike_id":"e40453b6-ea74-4e19-9d7a-556603792ae2","system_id":"levelo_inurba_marseille","lat":43.302008,"lon":5.394694,"is_reserved":false,"is_disabled":false,"rental_uris":{"android":"levelo://app?vid=e40453b6-ea74-4e19-9d7a-556603792ae2","ios":"levelo://app?vid=e40453b6-ea74-4e19-9d7a-556603792ae2"},"vehicle_type_id":"4","last_reported":1693249471,"current_range_meters":28800,"station_id":"ce4bh0p2rcd13ifvqd70","pricing_plan_id":"free"},{"bike_id":"2b7aa5f6-a9c9-44f9-bd62-978e18e5468f","system_id":"levelo_inurba_marseille","lat":43.302008,"lon":5.394694,"is_reserved":false,"is_disabled":false,"rental_uris":{"android":"levelo://app?vid=2b7aa5f6-a9c9-44f9-bd62-978e18e5468f","ios":"levelo://app?vid=2b7aa5f6-a9c9-44f9-bd62-978e18e5468f"},"vehicle_type_id":"4","last_reported":1693249471,"current_range_meters":31600,"station_id":"ce4bh0p2rcd13ifvqd70","pricing_plan_id":"free"},{"bike_id":"54c5c7df-5a0b-486a-826c-510ab8218284","system_id":"levelo_inurba_marseille","lat":43.290327,"lon":5.375711,"is_reserved":false,"is_disabled":false,"rental_uris":{"android":"levelo://app?vid=54c5c7df-5a0b-486a-826c-510ab8218284","ios":"levelo://app?vid=54c5c7df-5a0b-486a-826c-510ab8218284"},"vehicle_type_id":"4","last_reported":1693249471,"current_range_meters":10400,"station_id":"ce4bh692rcd13ifvqe90","pricing_plan_id":"free"},{"bike_id":"e75e2683-5607-4a65-81b0-b18d90b2f612","system_id":"levelo_inurba_marseille","lat":43.29418,"lon":5.38615,"is_reserved":false,"is_disabled":false,"rental_uris":{"android":"levelo://app?vid=e75e2683-5607-4a65-81b0-b18d90b2f612","ios":"levelo://app?vid=e75e2683-5607-4a65-81b0-b18d90b2f612"},"vehicle_type_id":"4","last_reported":1693249471,"current_range_meters":19200,"station_id":"ce4bh2h2rcd13ifvqdh0","pricing_plan_id":"free"},{"bike_id":"9da991ab-7605-4e79-a552-2c828e8b21fa","system_id":"levelo_inurba_marseille","lat":43.294153,"lon":5.386305,"is_reserved":false,"is_disabled":false,"rental_uris":{"android":"levelo://app?vid=9da991ab-7605-4e79-a552-2c828e8b21fa","ios":"levelo://app?vid=9da991ab-7605-4e79-a552-2c828e8b21fa"},"vehicle_type_id":"4","last_reported":1693249471,"current_range_meters":0,"station_id":"ce4bh2h2rcd13ifvqdh0","pricing_plan_id":"free"},{"bike_id":"74709565-dcdc-4517-99ef-a0a7e4d1a080","system_id":"levelo_inurba_marseille","lat":43.29419,"lon":5.38621,"is_reserved":false,"is_disabled":false,"rental_uris":{"android":"levelo://app?vid=74709565-dcdc-4517-99ef-a0a7e4d1a080","ios":"levelo://app?vid=74709565-dcdc-4517-99ef-a0a7e4d1a080"},"vehicle_type_id":"4","last_reported":1693249471,"current_range_meters":7200,"station_id":"ce4bh2h2rcd13ifvqdh0","pricing_plan_id":"free"},{"bike_id":"802e3664-cb69-4fb0-ae10-235592c245a4","system_id":"levelo_inurba_marseille","lat":43.294153,"lon":5.386305,"is_reserved":false,"is_disabled":false,"rental_uris":{"android":"levelo://app?vid=802e3664-cb69-4fb0-ae10-235592c245a4","ios":"levelo://app?vid=802e3664-cb69-4fb0-ae10-235592c245a4"},"vehicle_type_id":"4","last_reported":1693249471,"current_range_meters":1200,"station_id":"ce4bh2h2rcd13ifvqdh0","pricing_plan_id":"free"},{"bike_id":"46b6fb85-2c1c-4287-98ac-cddc3274d700","system_id":"levelo_inurba_marseille","lat":43.29419,"lon":5.38625,"is_reserved":false,"is_disabled":false,"rental_uris":{"android":"levelo://app?vid=46b6fb85-2c1c-4287-98ac-cddc3274d700","ios":"levelo://app?vid=46b6fb85-2c1c-4287-98ac-cddc3274d700"},"vehicle_type_id":"4","last_reported":1693249471,"current_range_meters":8800,"station_id":"ce4bh2h2rcd13ifvqdh0","pricing_plan_id":"free"},{"bike_id":"d4697e2b-2a4f-4ce1-8e6a-8d4cdaa901e9","system_id":"levelo_inurba_marseille","lat":43.294165,"lon":5.386275,"is_reserved":false,"is_disabled":false,"rental_uris":{"android":"levelo://app?vid=d4697e2b-2a4f-4ce1-8e6a-8d4cdaa901e9","ios":"levelo://app?vid=d4697e2b-2a4f-4ce1-8e6a-8d4cdaa901e9"},"vehicle_type_id":"4","last_reported":1693249471,"current_range_meters":19200,"station_id":"ce4bh2h2rcd13ifvqdh0","pricing_plan_id":"free"},{"bike_id":"a0faf3e0-0126-47d6-8cfb-babb71596414","system_id":"levelo_inurba_marseille","lat":43.289184,"lon":5.366408,"is_reserved":false,"is_disabled":false,"rental_uris":{"android":"levelo://app?vid=a0faf3e0-0126-47d6-8cfb-babb71596414","ios":"levelo://app?vid=a0faf3e0-0126-47d6-8cfb-babb71596414"},"vehicle_type_id":"4","last_reported":1693249471,"current_range_meters":0,"station_id":"ce4bhap2rcd13ifvqek0","pricing_plan_id":"free"},{"bike_id":"6d3a4816-0515-4431-8777-4175c062349d","system_id":"levelo_inurba_marseille","lat":43.28939,"lon":5.36641,"is_reserved":false,"is_disabled":false,"rental_uris":{"android":"levelo://app?vid=6d3a4816-0515-4431-8777-4175c062349d","ios":"levelo://app?vid=6d3a4816-0515-4431-8777-4175c062349d"},"vehicle_type_id":"4","last_reported":1693249471,"current_range_meters":29200,"station_id":"ce4bhap2rcd13ifvqek0","pricing_plan_id":"free"},{"bike_id":"4e631560-3c54-4ffe-80ba-d62ce6049e9d","system_id":"levelo_inurba_marseille","lat":43.28939,"lon":5.36641,"is_reserved":false,"is_disabled":false,"rental_uris":{"android":"levelo://app?vid=4e631560-3c54-4ffe-80ba-d62ce6049e9d","ios":"levelo://app?vid=4e631560-3c54-4ffe-80ba-d62ce6049e9d"},"vehicle_type_id":"4","last_reported":1693249471,"current_range_meters":16800,"station_id":"ce4bhap2rcd13ifvqek0","pricing_plan_id":"free"},{"bike_id":"badcbc32-f6cd-4b39-a009-af35a526e3ed","system_id":"levelo_inurba_marseille","lat":43.28938,"lon":5.36629,"is_reserved":false,"is_disabled":false,"rental_uris":{"android":"levelo://app?vid=badcbc32-f6cd-4b39-a009-af35a526e3ed","ios":"levelo://app?vid=badcbc32-f6cd-4b39-a009-af35a526e3ed"},"vehicle_type_id":"4","last_reported":1693249471,"current_range_meters":2000,"station_id":"ce4bhap2rcd13ifvqek0","pricing_plan_id":"free"},{"bike_id":"aa1e4ad7-04a4-4cf9-9e7b-c19e039a6848","system_id":"levelo_inurba_marseille","lat":43.28937,"lon":5.3664,"is_reserved":false,"is_disabled":false,"rental_uris":{"android":"levelo://app?vid=aa1e4ad7-04a4-4cf9-9e7b-c19e039a6848","ios":"levelo://app?vid=aa1e4ad7-04a4-4cf9-9e7b-c19e039a6848"},"vehicle_type_id":"4","last_reported":1693249471,"current_range_meters":24000,"station_id":"ce4bhap2rcd13ifvqek0","pricing_plan_id":"free"},{"bike_id":"54c822a5-c39f-4dde-aba1-8307123429fb","system_id":"levelo_inurba_marseille","lat":43.28937,"lon":5.36637,"is_reserved":false,"is_disabled":false,"rental_uris":{"android":"levelo://app?vid=54c822a5-c39f-4dde-aba1-8307123429fb","ios":"levelo://app?vid=54c822a5-c39f-4dde-aba1-8307123429fb"},"vehicle_type_id":"4","last_reported":1693249471,"current_range_meters":3200,"station_id":"ce4bhap2rcd13ifvqek0","pricing_plan_id":"free"},{"bike_id":"2f93318d-a393-4e93-88c9-60d3ec241b0e","system_id":"levelo_inurba_marseille","lat":43.28933,"lon":5.36631,"is_reserved":false,"is_disabled":false,"rental_uris":{"android":"levelo://app?vid=2f93318d-a393-4e93-88c9-60d3ec241b0e","ios":"levelo://app?vid=2f93318d-a393-4e93-88c9-60d3ec241b0e"},"vehicle_type_id":"4","last_reported":1693249471,"current_range_meters":31200,"station_id":"ce4bhap2rcd13ifvqek0","pricing_plan_id":"free"},{"bike_id":"1d93164e-8cd2-423f-aef3-6380c1123a7e","system_id":"levelo_inurba_marseille","lat":43.289468,"lon":5.363719,"is_reserved":false,"is_disabled":false,"rental_uris":{"android":"levelo://app?vid=1d93164e-8cd2-423f-aef3-6380c1123a7e","ios":"levelo://app?vid=1d93164e-8cd2-423f-aef3-6380c1123a7e"},"vehicle_type_id":"4","last_reported":1693249471,"current_range_meters":31200,"station_id":"ce4bhc92rcd13ifvqetg","pricing_plan_id":"free"},{"bike_id":"9f16ae3d-b562-49b2-bff5-ab86e0f4f6ed","system_id":"levelo_inurba_marseille","lat":43.289468,"lon":5.363719,"is_reserved":false,"is_disabled":false,"rental_uris":{"android":"levelo://app?vid=9f16ae3d-b562-49b2-bff5-ab86e0f4f6ed","ios":"levelo://app?vid=9f16ae3d-b562-49b2-bff5-ab86e0f4f6ed"},"vehicle_type_id":"4","last_reported":1693249471,"current_range_meters":31200,"station_id":"ce4bhc92rcd13ifvqetg","pricing_plan_id":"free"},{"bike_id":"534d0ef9-850d-4eda-b4d4-d4ebf2bb0a48","system_id":"levelo_inurba_marseille","lat":43.28933,"lon":5.36379,"is_reserved":false,"is_disabled":false,"rental_uris":{"android":"levelo://app?vid=534d0ef9-850d-4eda-b4d4-d4ebf2bb0a48","ios":"levelo://app?vid=534d0ef9-850d-4eda-b4d4-d4ebf2bb0a48"},"vehicle_type_id":"4","last_reported":1693249471,"current_range_meters":30400,"station_id":"ce4bhc92rcd13ifvqetg","pricing_plan_id":"free"},{"bike_id":"076b90a4-5fa2-4813-8cae-64c2ce3c429c","system_id":"levelo_inurba_marseille","lat":43.289468,"lon":5.363719,"is_reserved":false,"is_disabled":false,"rental_uris":{"android":"levelo://app?vid=076b90a4-5fa2-4813-8cae-64c2ce3c429c","ios":"levelo://app?vid=076b90a4-5fa2-4813-8cae-64c2ce3c429c"},"vehicle_type_id":"4","last_reported":1693249471,"current_range_meters":14000,"station_id":"ce4bhc92rcd13ifvqetg","pricing_plan_id":"free"},{"bike_id":"b12bb1ee-9f69-4dbe-9818-78d2d1b31bac","system_id":"levelo_inurba_marseille","lat":43.292644,"lon":5.384257,"is_reserved":false,"is_disabled":false,"rental_uris":{"android":"levelo://app?vid=b12bb1ee-9f69-4dbe-9818-78d2d1b31bac","ios":"levelo://app?vid=b12bb1ee-9f69-4dbe-9818-78d2d1b31bac"},"vehicle_type_id":"4","last_reported":1693249471,"current_range_meters":17200,"station_id":"ce4bh692rcd13ifvqea0","pricing_plan_id":"free"},{"bike_id":"f9cda1cd-c7b9-4695-8add-1f641fcc7c32","system_id":"levelo_inurba_marseille","lat":43.292642,"lon":5.384254,"is_reserved":false,"is_disabled":false,"rental_uris":{"android":"levelo://app?vid=f9cda1cd-c7b9-4695-8add-1f641fcc7c32","ios":"levelo://app?vid=f9cda1cd-c7b9-4695-8add-1f641fcc7c32"},"vehicle_type_id":"4","last_reported":1693249471,"current_range_meters":28800,"station_id":"ce4bh692rcd13ifvqea0","pricing_plan_id":"free"},{"bike_id":"444cb701-95bb-4de7-b408-c807c59c9d00","system_id":"levelo_inurba_marseille","lat":43.292642,"lon":5.384254,"is_reserved":false,"is_disabled":false,"rental_uris":{"android":"levelo://app?vid=444cb701-95bb-4de7-b408-c807c59c9d00","ios":"levelo://app?vid=444cb701-95bb-4de7-b408-c807c59c9d00"},"vehicle_type_id":"4","last_reported":1693249471,"current_range_meters":21200,"station_id":"ce4bh692rcd13ifvqea0","pricing_plan_id":"free"},{"bike_id":"5f58b2c7-3b65-466e-bfb8-8fe8d7d16bdb","system_id":"levelo_inurba_marseille","lat":43.292642,"lon":5.384254,"is_reserved":false,"is_disabled":false,"rental_uris":{"android":"levelo://app?vid=5f58b2c7-3b65-466e-bfb8-8fe8d7d16bdb","ios":"levelo://app?vid=5f58b2c7-3b65-466e-bfb8-8fe8d7d16bdb"},"vehicle_type_id":"4","last_reported":1693249471,"current_range_meters":18800,"station_id":"ce4bh692rcd13ifvqea0","pricing_plan_id":"free"},{"bike_id":"cd31569f-3b11-4ca1-8912-705fda14a86f","system_id":"levelo_inurba_marseille","lat":43.292644,"lon":5.384257,"is_reserved":false,"is_disabled":false,"rental_uris":{"android":"levelo://app?vid=cd31569f-3b11-4ca1-8912-705fda14a86f","ios":"levelo://app?vid=cd31569f-3b11-4ca1-8912-705fda14a86f"},"vehicle_type_id":"4","last_reported":1693249471,"current_range_meters":14000,"station_id":"ce4bh692rcd13ifvqea0","pricing_plan_id":"free"},{"bike_id":"f8c94f28-0cd7-4fbe-a1e3-4c0ad125fa88","system_id":"levelo_inurba_marseille","lat":43.292644,"lon":5.384257,"is_reserved":false,"is_disabled":false,"rental_uris":{"android":"levelo://app?vid=f8c94f28-0cd7-4fbe-a1e3-4c0ad125fa88","ios":"levelo://app?vid=f8c94f28-0cd7-4fbe-a1e3-4c0ad125fa88"},"vehicle_type_id":"4","last_reported":1693249471,"current_range_meters":22000,"station_id":"ce4bh692rcd13ifvqea0","pricing_plan_id":"free"},{"bike_id":"dc821335-79be-4dfc-8dd8-8e50f48b888e","system_id":"levelo_inurba_marseille","lat":43.292642,"lon":5.384254,"is_reserved":false,"is_disabled":false,"rental_uris":{"android":"levelo://app?vid=dc821335-79be-4dfc-8dd8-8e50f48b888e","ios":"levelo://app?vid=dc821335-79be-4dfc-8dd8-8e50f48b888e"},"vehicle_type_id":"4","last_reported":1693249471,"current_range_meters":19200,"station_id":"ce4bh692rcd13ifvqea0","pricing_plan_id":"free"},{"bike_id":"0739f11c-f125-415d-ab38-e87a81b51d55","system_id":"levelo_inurba_marseille","lat":43.292644,"lon":5.384257,"is_reserved":false,"is_disabled":false,"rental_uris":{"android":"levelo://app?vid=0739f11c-f125-415d-ab38-e87a81b51d55","ios":"levelo://app?vid=0739f11c-f125-415d-ab38-e87a81b51d55"},"vehicle_type_id":"4","last_reported":1693249471,"current_range_meters":2800,"station_id":"ce4bh692rcd13ifvqea0","pricing_plan_id":"free"},{"bike_id":"0a705d42-5962-4a4d-b865-97d336910760","system_id":"levelo_inurba_marseille","lat":43.292644,"lon":5.384257,"is_reserved":false,"is_disabled":false,"rental_uris":{"android":"levelo://app?vid=0a705d42-5962-4a4d-b865-97d336910760","ios":"levelo://app?vid=0a705d42-5962-4a4d-b865-97d336910760"},"vehicle_type_id":"4","last_reported":1693249471,"current_range_meters":4000,"station_id":"ce4bh692rcd13ifvqea0","pricing_plan_id":"free"},{"bike_id":"d9e83115-044a-4186-9112-8a4f0ff34e12","system_id":"levelo_inurba_marseille","lat":43.292642,"lon":5.384254,"is_reserved":false,"is_disabled":false,"rental_uris":{"android":"levelo://app?vid=d9e83115-044a-4186-9112-8a4f0ff34e12","ios":"levelo://app?vid=d9e83115-044a-4186-9112-8a4f0ff34e12"},"vehicle_type_id":"4","last_reported":1693249471,"current_range_meters":0,"station_id":"ce4bh692rcd13ifvqea0","pricing_plan_id":"free"},{"bike_id":"f9026374-ae1b-4b33-86c0-60c88bb7351f","system_id":"levelo_inurba_marseille","lat":43.292644,"lon":5.384257,"is_reserved":false,"is_disabled":false,"rental_uris":{"android":"levelo://app?vid=f9026374-ae1b-4b33-86c0-60c88bb7351f","ios":"levelo://app?vid=f9026374-ae1b-4b33-86c0-60c88bb7351f"},"vehicle_type_id":"4","last_reported":1693249471,"current_range_meters":17600,"station_id":"ce4bh692rcd13ifvqea0","pricing_plan_id":"free"},{"bike_id":"368c20c0-600a-4dc0-bbed-7a400b79f912","system_id":"levelo_inurba_marseille","lat":43.292642,"lon":5.384254,"is_reserved":false,"is_disabled":false,"rental_uris":{"android":"levelo://app?vid=368c20c0-600a-4dc0-bbed-7a400b79f912","ios":"levelo://app?vid=368c20c0-600a-4dc0-bbed-7a400b79f912"},"vehicle_type_id":"4","last_reported":1693249471,"current_range_meters":28000,"station_id":"ce4bh692rcd13ifvqea0","pricing_plan_id":"free"},{"bike_id":"46d9d6de-a125-4d0c-896a-af199d894b8d","system_id":"levelo_inurba_marseille","lat":43.292642,"lon":5.384254,"is_reserved":false,"is_disabled":false,"rental_uris":{"android":"levelo://app?vid=46d9d6de-a125-4d0c-896a-af199d894b8d","ios":"levelo://app?vid=46d9d6de-a125-4d0c-896a-af199d894b8d"},"vehicle_type_id":"4","last_reported":1693249471,"current_range_meters":18800,"station_id":"ce4bh692rcd13ifvqea0","pricing_plan_id":"free"},{"bike_id":"ff858340-936d-40f1-852d-c811a2b4dfb7","system_id":"levelo_inurba_marseille","lat":43.292644,"lon":5.384257,"is_reserved":false,"is_disabled":false,"rental_uris":{"android":"levelo://app?vid=ff858340-936d-40f1-852d-c811a2b4dfb7","ios":"levelo://app?vid=ff858340-936d-40f1-852d-c811a2b4dfb7"},"vehicle_type_id":"4","last_reported":1693249471,"current_range_meters":0,"station_id":"ce4bh692rcd13ifvqea0","pricing_plan_id":"free"},{"bike_id":"2f433e22-2771-4736-a903-9c2b3d45cce9","system_id":"levelo_inurba_marseille","lat":43.292642,"lon":5.384254,"is_reserved":false,"is_disabled":false,"rental_uris":{"android":"levelo://app?vid=2f433e22-2771-4736-a903-9c2b3d45cce9","ios":"levelo://app?vid=2f433e22-2771-4736-a903-9c2b3d45cce9"},"vehicle_type_id":"4","last_reported":1693249471,"current_range_meters":27200,"station_id":"ce4bh692rcd13ifvqea0","pricing_plan_id":"free"},{"bike_id":"f97182dd-360a-4801-b322-36de65fa2568","system_id":"levelo_inurba_marseille","lat":43.30424,"lon":5.39753,"is_reserved":false,"is_disabled":false,"rental_uris":{"android":"levelo://app?vid=f97182dd-360a-4801-b322-36de65fa2568","ios":"levelo://app?vid=f97182dd-360a-4801-b322-36de65fa2568"},"vehicle_type_id":"4","last_reported":1693249471,"current_range_meters":28000,"station_id":"ce4bh092rcd13ifvqd20","pricing_plan_id":"free"},{"bike_id":"fe16944e-9122-45ac-8405-fe99692f50d0","system_id":"levelo_inurba_marseille","lat":43.292644,"lon":5.384257,"is_reserved":false,"is_disabled":false,"rental_uris":{"android":"levelo://app?vid=fe16944e-9122-45ac-8405-fe99692f50d0","ios":"levelo://app?vid=fe16944e-9122-45ac-8405-fe99692f50d0"},"vehicle_type_id":"4","last_reported":1693249471,"current_range_meters":32000,"station_id":"ce4bh692rcd13ifvqea0","pricing_plan_id":"free"},{"bike_id":"c8e2ae31-a90a-466e-bd98-d10e629bb246","system_id":"levelo_inurba_marseille","lat":43.292644,"lon":5.384257,"is_reserved":false,"is_disabled":false,"rental_uris":{"android":"levelo://app?vid=c8e2ae31-a90a-466e-bd98-d10e629bb246","ios":"levelo://app?vid=c8e2ae31-a90a-466e-bd98-d10e629bb246"},"vehicle_type_id":"4","last_reported":1693249471,"current_range_meters":20800,"station_id":"ce4bh692rcd13ifvqea0","pricing_plan_id":"free"},{"bike_id":"0aff8a55-f6ba-4558-ae4d-2324051d0be9","system_id":"levelo_inurba_marseille","lat":43.33039,"lon":5.38929,"is_reserved":false,"is_disabled":false,"rental_uris":{"android":"levelo://app?vid=0aff8a55-f6ba-4558-ae4d-2324051d0be9","ios":"levelo://app?vid=0aff8a55-f6ba-4558-ae4d-2324051d0be9"},"vehicle_type_id":"4","last_reported":1693249471,"current_range_meters":22400,"station_id":"ce4bhr92rcd13ifvqhrg","pricing_plan_id":"free"},{"bike_id":"ce0d672d-41d7-48a9-aa2a-e3968dee5358","system_id":"levelo_inurba_marseille","lat":43.330463,"lon":5.389217,"is_reserved":false,"is_disabled":false,"rental_uris":{"android":"levelo://app?vid=ce0d672d-41d7-48a9-aa2a-e3968dee5358","ios":"levelo://app?vid=ce0d672d-41d7-48a9-aa2a-e3968dee5358"},"vehicle_type_id":"4","last_reported":1693249471,"current_range_meters":29600,"station_id":"ce4bhr92rcd13ifvqhrg","pricing_plan_id":"free"},{"bike_id":"1895038e-acdb-4d35-aa35-e1291f23a30a","system_id":"levelo_inurba_marseille","lat":43.290104,"lon":5.356111,"is_reserved":false,"is_disabled":false,"rental_uris":{"android":"levelo://app?vid=1895038e-acdb-4d35-aa35-e1291f23a30a","ios":"levelo://app?vid=1895038e-acdb-4d35-aa35-e1291f23a30a"},"vehicle_type_id":"4","last_reported":1693249471,"current_range_meters":31200,"station_id":"ce4bhb92rcd13ifvqen0","pricing_plan_id":"free"},{"bike_id":"020ff840-f501-4022-acb9-29c0fbda6fb8","system_id":"levelo_inurba_marseille","lat":43.290995,"lon":5.381361,"is_reserved":false,"is_disabled":false,"rental_uris":{"android":"levelo://app?vid=020ff840-f501-4022-acb9-29c0fbda6fb8","ios":"levelo://app?vid=020ff840-f501-4022-acb9-29c0fbda6fb8"},"vehicle_type_id":"4","last_reported":1693249471,"current_range_meters":3600,"station_id":"ce4bh512rcd13ifvqe2g","pricing_plan_id":"free"},{"bike_id":"028b16b4-c861-455c-93e2-214442c48086","system_id":"levelo_inurba_marseille","lat":43.290103,"lon":5.356114,"is_reserved":false,"is_disabled":false,"rental_uris":{"android":"levelo://app?vid=028b16b4-c861-455c-93e2-214442c48086","ios":"levelo://app?vid=028b16b4-c861-455c-93e2-214442c48086"},"vehicle_type_id":"4","last_reported":1693249471,"current_range_meters":31200,"station_id":"ce4bhb92rcd13ifvqen0","pricing_plan_id":"free"},{"bike_id":"ebdd008a-f64b-49e7-bbe1-205077bcdea0","system_id":"levelo_inurba_marseille","lat":43.290995,"lon":5.381361,"is_reserved":false,"is_disabled":false,"rental_uris":{"android":"levelo://app?vid=ebdd008a-f64b-49e7-bbe1-205077bcdea0","ios":"levelo://app?vid=ebdd008a-f64b-49e7-bbe1-205077bcdea0"},"vehicle_type_id":"4","last_reported":1693249471,"current_range_meters":29600,"station_id":"ce4bh512rcd13ifvqe2g","pricing_plan_id":"free"},{"bike_id":"6b2e4544-97a3-438d-856b-a0cb2f7d157b","system_id":"levelo_inurba_marseille","lat":43.290995,"lon":5.381361,"is_reserved":false,"is_disabled":false,"rental_uris":{"android":"levelo://app?vid=6b2e4544-97a3-438d-856b-a0cb2f7d157b","ios":"levelo://app?vid=6b2e4544-97a3-438d-856b-a0cb2f7d157b"},"vehicle_type_id":"4","last_reported":1693249471,"current_range_meters":11200,"station_id":"ce4bh512rcd13ifvqe2g","pricing_plan_id":"free"},{"bike_id":"18fb6099-d984-4b35-8533-12bb40c51e90","system_id":"levelo_inurba_marseille","lat":43.29096,"lon":5.38125,"is_reserved":false,"is_disabled":false,"rental_uris":{"android":"levelo://app?vid=18fb6099-d984-4b35-8533-12bb40c51e90","ios":"levelo://app?vid=18fb6099-d984-4b35-8533-12bb40c51e90"},"vehicle_type_id":"4","last_reported":1693249471,"current_range_meters":22000,"station_id":"","pricing_plan_id":"free"},{"bike_id":"9c23f7ab-183c-4f8c-ad63-8a1a4b420940","system_id":"levelo_inurba_marseille","lat":43.290995,"lon":5.381361,"is_reserved":false,"is_disabled":false,"rental_uris":{"android":"levelo://app?vid=9c23f7ab-183c-4f8c-ad63-8a1a4b420940","ios":"levelo://app?vid=9c23f7ab-183c-4f8c-ad63-8a1a4b420940"},"vehicle_type_id":"4","last_reported":1693249471,"current_range_meters":28800,"station_id":"ce4bh512rcd13ifvqe2g","pricing_plan_id":"free"},{"bike_id":"3906cd94-3863-4402-a486-d42509ae9676","system_id":"levelo_inurba_marseille","lat":43.290995,"lon":5.381361,"is_reserved":false,"is_disabled":false,"rental_uris":{"android":"levelo://app?vid=3906cd94-3863-4402-a486-d42509ae9676","ios":"levelo://app?vid=3906cd94-3863-4402-a486-d42509ae9676"},"vehicle_type_id":"4","last_reported":1693249471,"current_range_meters":4400,"station_id":"ce4bh512rcd13ifvqe2g","pricing_plan_id":"free"},{"bike_id":"22aa6a4e-a049-4733-8e1b-c80964639fea","system_id":"levelo_inurba_marseille","lat":43.29791,"lon":5.39337,"is_reserved":false,"is_disabled":false,"rental_uris":{"android":"levelo://app?vid=22aa6a4e-a049-4733-8e1b-c80964639fea","ios":"levelo://app?vid=22aa6a4e-a049-4733-8e1b-c80964639fea"},"vehicle_type_id":"4","last_reported":1693249471,"current_range_meters":6800,"station_id":"chh1huq6cuj3fo74tm60","pricing_plan_id":"free"},{"bike_id":"6b68d70e-9a7c-4e8c-8cca-0d5f08cdae39","system_id":"levelo_inurba_marseille","lat":43.295169,"lon":5.390426,"is_reserved":false,"is_disabled":false,"rental_uris":{"android":"levelo://app?vid=6b68d70e-9a7c-4e8c-8cca-0d5f08cdae39","ios":"levelo://app?vid=6b68d70e-9a7c-4e8c-8cca-0d5f08cdae39"},"vehicle_type_id":"4","last_reported":1693249471,"current_range_meters":20800,"station_id":"ce4bh3p2rcd13ifvqdp0","pricing_plan_id":"free"},{"bike_id":"0c88a87b-6d42-4474-9d0b-bfdd1a8e2fff","system_id":"levelo_inurba_marseille","lat":43.295169,"lon":5.390426,"is_reserved":false,"is_disabled":false,"rental_uris":{"android":"levelo://app?vid=0c88a87b-6d42-4474-9d0b-bfdd1a8e2fff","ios":"levelo://app?vid=0c88a87b-6d42-4474-9d0b-bfdd1a8e2fff"},"vehicle_type_id":"4","last_reported":1693249471,"current_range_meters":29200,"station_id":"ce4bh3p2rcd13ifvqdp0","pricing_plan_id":"free"},{"bike_id":"106742ec-0875-4bf7-8863-2469a04f6869","system_id":"levelo_inurba_marseille","lat":43.295169,"lon":5.390426,"is_reserved":false,"is_disabled":false,"rental_uris":{"android":"levelo://app?vid=106742ec-0875-4bf7-8863-2469a04f6869","ios":"levelo://app?vid=106742ec-0875-4bf7-8863-2469a04f6869"},"vehicle_type_id":"4","last_reported":1693249471,"current_range_meters":29600,"station_id":"ce4bh3p2rcd13ifvqdp0","pricing_plan_id":"free"},{"bike_id":"f5767d51-8426-46c6-b320-777bd5904544","system_id":"levelo_inurba_marseille","lat":43.29776,"lon":5.39344,"is_reserved":false,"is_disabled":false,"rental_uris":{"android":"levelo://app?vid=f5767d51-8426-46c6-b320-777bd5904544","ios":"levelo://app?vid=f5767d51-8426-46c6-b320-777bd5904544"},"vehicle_type_id":"4","last_reported":1693249471,"current_range_meters":22800,"station_id":"chh1huq6cuj3fo74tm60","pricing_plan_id":"free"},{"bike_id":"c1983ffc-2fd1-4bf8-b353-b501452e129b","system_id":"levelo_inurba_marseille","lat":43.295169,"lon":5.390426,"is_reserved":false,"is_disabled":false,"rental_uris":{"android":"levelo://app?vid=c1983ffc-2fd1-4bf8-b353-b501452e129b","ios":"levelo://app?vid=c1983ffc-2fd1-4bf8-b353-b501452e129b"},"vehicle_type_id":"4","last_reported":1693249471,"current_range_meters":13200,"station_id":"ce4bh3p2rcd13ifvqdp0","pricing_plan_id":"free"},{"bike_id":"90617c28-141f-4523-bdab-c67182dd7654","system_id":"levelo_inurba_marseille","lat":43.295169,"lon":5.390426,"is_reserved":false,"is_disabled":false,"rental_uris":{"android":"levelo://app?vid=90617c28-141f-4523-bdab-c67182dd7654","ios":"levelo://app?vid=90617c28-141f-4523-bdab-c67182dd7654"},"vehicle_type_id":"4","last_reported":1693249471,"current_range_meters":9200,"station_id":"ce4bh3p2rcd13ifvqdp0","pricing_plan_id":"free"},{"bike_id":"0d171b9b-790a-4fe7-83f1-8697cb452c82","system_id":"levelo_inurba_marseille","lat":43.295169,"lon":5.390426,"is_reserved":false,"is_disabled":false,"rental_uris":{"android":"levelo://app?vid=0d171b9b-790a-4fe7-83f1-8697cb452c82","ios":"levelo://app?vid=0d171b9b-790a-4fe7-83f1-8697cb452c82"},"vehicle_type_id":"4","last_reported":1693249471,"current_range_meters":10800,"station_id":"ce4bh3p2rcd13ifvqdp0","pricing_plan_id":"free"},{"bike_id":"b5bab7c7-d0e9-4202-9dc0-a4da81c7ae0a","system_id":"levelo_inurba_marseille","lat":43.295169,"lon":5.390426,"is_reserved":false,"is_disabled":false,"rental_uris":{"android":"levelo://app?vid=b5bab7c7-d0e9-4202-9dc0-a4da81c7ae0a","ios":"levelo://app?vid=b5bab7c7-d0e9-4202-9dc0-a4da81c7ae0a"},"vehicle_type_id":"4","last_reported":1693249471,"current_range_meters":6800,"station_id":"ce4bh3p2rcd13ifvqdp0","pricing_plan_id":"free"},{"bike_id":"3bdade70-8508-451c-b512-269405952c09","system_id":"levelo_inurba_marseille","lat":43.295169,"lon":5.390426,"is_reserved":false,"is_disabled":false,"rental_uris":{"android":"levelo://app?vid=3bdade70-8508-451c-b512-269405952c09","ios":"levelo://app?vid=3bdade70-8508-451c-b512-269405952c09"},"vehicle_type_id":"4","last_reported":1693249471,"current_range_meters":25200,"station_id":"ce4bh3p2rcd13ifvqdp0","pricing_plan_id":"free"},{"bike_id":"a0fed3cd-664d-405b-b62f-8f764cd77a0b","system_id":"levelo_inurba_marseille","lat":43.295169,"lon":5.390426,"is_reserved":false,"is_disabled":false,"rental_uris":{"android":"levelo://app?vid=a0fed3cd-664d-405b-b62f-8f764cd77a0b","ios":"levelo://app?vid=a0fed3cd-664d-405b-b62f-8f764cd77a0b"},"vehicle_type_id":"4","last_reported":1693249471,"current_range_meters":31600,"station_id":"ce4bh3p2rcd13ifvqdp0","pricing_plan_id":"free"},{"bike_id":"c2189fc2-1149-4105-8519-751abd5fc7f3","system_id":"levelo_inurba_marseille","lat":43.295169,"lon":5.390426,"is_reserved":false,"is_disabled":false,"rental_uris":{"android":"levelo://app?vid=c2189fc2-1149-4105-8519-751abd5fc7f3","ios":"levelo://app?vid=c2189fc2-1149-4105-8519-751abd5fc7f3"},"vehicle_type_id":"4","last_reported":1693249471,"current_range_meters":31200,"station_id":"ce4bh3p2rcd13ifvqdp0","pricing_plan_id":"free"},{"bike_id":"576a1a9c-b482-472d-a8cd-ea78e9bcb55d","system_id":"levelo_inurba_marseille","lat":43.295169,"lon":5.390426,"is_reserved":false,"is_disabled":false,"rental_uris":{"android":"levelo://app?vid=576a1a9c-b482-472d-a8cd-ea78e9bcb55d","ios":"levelo://app?vid=576a1a9c-b482-472d-a8cd-ea78e9bcb55d"},"vehicle_type_id":"4","last_reported":1693249471,"current_range_meters":31600,"station_id":"ce4bh3p2rcd13ifvqdp0","pricing_plan_id":"free"},{"bike_id":"74f364dd-1c4c-4195-8da9-ec28829fedd8","system_id":"levelo_inurba_marseille","lat":43.295169,"lon":5.390426,"is_reserved":false,"is_disabled":false,"rental_uris":{"android":"levelo://app?vid=74f364dd-1c4c-4195-8da9-ec28829fedd8","ios":"levelo://app?vid=74f364dd-1c4c-4195-8da9-ec28829fedd8"},"vehicle_type_id":"4","last_reported":1693249471,"current_range_meters":20800,"station_id":"ce4bh3p2rcd13ifvqdp0","pricing_plan_id":"free"},{"bike_id":"d4118eb1-a750-4dde-8932-b0a0ff9eeadb","system_id":"levelo_inurba_marseille","lat":43.29027,"lon":5.38134,"is_reserved":false,"is_disabled":false,"rental_uris":{"android":"levelo://app?vid=d4118eb1-a750-4dde-8932-b0a0ff9eeadb","ios":"levelo://app?vid=d4118eb1-a750-4dde-8932-b0a0ff9eeadb"},"vehicle_type_id":"4","last_reported":1693249471,"current_range_meters":26400,"station_id":"ce4bh4p2rcd13ifvqe1g","pricing_plan_id":"free"},{"bike_id":"032b7f23-18f0-4725-a824-eb6ca9f8a76e","system_id":"levelo_inurba_marseille","lat":43.29026,"lon":5.38136,"is_reserved":false,"is_disabled":false,"rental_uris":{"android":"levelo://app?vid=032b7f23-18f0-4725-a824-eb6ca9f8a76e","ios":"levelo://app?vid=032b7f23-18f0-4725-a824-eb6ca9f8a76e"},"vehicle_type_id":"4","last_reported":1693249471,"current_range_meters":4400,"station_id":"ce4bh4p2rcd13ifvqe1g","pricing_plan_id":"free"},{"bike_id":"6f877501-a877-4a02-9ac9-d14556bb4a50","system_id":"levelo_inurba_marseille","lat":43.29026,"lon":5.3814,"is_reserved":false,"is_disabled":false,"rental_uris":{"android":"levelo://app?vid=6f877501-a877-4a02-9ac9-d14556bb4a50","ios":"levelo://app?vid=6f877501-a877-4a02-9ac9-d14556bb4a50"},"vehicle_type_id":"4","last_reported":1693249471,"current_range_meters":22800,"station_id":"ce4bh4p2rcd13ifvqe1g","pricing_plan_id":"free"},{"bike_id":"7bdab530-b210-406e-9abc-ac2562a0f974","system_id":"levelo_inurba_marseille","lat":43.2902,"lon":5.38132,"is_reserved":false,"is_disabled":false,"rental_uris":{"android":"levelo://app?vid=7bdab530-b210-406e-9abc-ac2562a0f974","ios":"levelo://app?vid=7bdab530-b210-406e-9abc-ac2562a0f974"},"vehicle_type_id":"4","last_reported":1693249471,"current_range_meters":4400,"station_id":"ce4bh4p2rcd13ifvqe1g","pricing_plan_id":"free"},{"bike_id":"57abbbc5-6b8e-4a53-9a7e-fb59d7eb3718","system_id":"levelo_inurba_marseille","lat":43.29017,"lon":5.38125,"is_reserved":false,"is_disabled":false,"rental_uris":{"android":"levelo://app?vid=57abbbc5-6b8e-4a53-9a7e-fb59d7eb3718","ios":"levelo://app?vid=57abbbc5-6b8e-4a53-9a7e-fb59d7eb3718"},"vehicle_type_id":"4","last_reported":1693249471,"current_range_meters":13200,"station_id":"ce4bh4p2rcd13ifvqe1g","pricing_plan_id":"free"},{"bike_id":"1f4a7eb6-6766-42e8-9792-c3b4ee09a7e4","system_id":"levelo_inurba_marseille","lat":43.29017,"lon":5.38126,"is_reserved":false,"is_disabled":false,"rental_uris":{"android":"levelo://app?vid=1f4a7eb6-6766-42e8-9792-c3b4ee09a7e4","ios":"levelo://app?vid=1f4a7eb6-6766-42e8-9792-c3b4ee09a7e4"},"vehicle_type_id":"4","last_reported":1693249471,"current_range_meters":25600,"station_id":"ce4bh4p2rcd13ifvqe1g","pricing_plan_id":"free"},{"bike_id":"9d3a9c38-b8f1-40ab-8ba2-713e81423563","system_id":"levelo_inurba_marseille","lat":43.29019,"lon":5.38133,"is_reserved":false,"is_disabled":false,"rental_uris":{"android":"levelo://app?vid=9d3a9c38-b8f1-40ab-8ba2-713e81423563","ios":"levelo://app?vid=9d3a9c38-b8f1-40ab-8ba2-713e81423563"},"vehicle_type_id":"4","last_reported":1693249471,"current_range_meters":21600,"station_id":"ce4bh4p2rcd13ifvqe1g","pricing_plan_id":"free"},{"bike_id":"13807914-2509-423c-b279-efe1688a93c0","system_id":"levelo_inurba_marseille","lat":43.29013,"lon":5.38124,"is_reserved":false,"is_disabled":false,"rental_uris":{"android":"levelo://app?vid=13807914-2509-423c-b279-efe1688a93c0","ios":"levelo://app?vid=13807914-2509-423c-b279-efe1688a93c0"},"vehicle_type_id":"4","last_reported":1693249471,"current_range_meters":25200,"station_id":"ce4bh4p2rcd13ifvqe1g","pricing_plan_id":"free"},{"bike_id":"168e9308-6c8e-4ff4-a1fb-a9749a20d690","system_id":"levelo_inurba_marseille","lat":43.28856,"lon":5.358371,"is_reserved":false,"is_disabled":false,"rental_uris":{"android":"levelo://app?vid=168e9308-6c8e-4ff4-a1fb-a9749a20d690","ios":"levelo://app?vid=168e9308-6c8e-4ff4-a1fb-a9749a20d690"},"vehicle_type_id":"4","last_reported":1693249471,"current_range_meters":28400,"station_id":"ce4bhb12rcd13ifvqem0","pricing_plan_id":"free"},{"bike_id":"616da765-f630-40d3-8a4a-bb74c42be17b","system_id":"levelo_inurba_marseille","lat":43.28856,"lon":5.358371,"is_reserved":false,"is_disabled":false,"rental_uris":{"android":"levelo://app?vid=616da765-f630-40d3-8a4a-bb74c42be17b","ios":"levelo://app?vid=616da765-f630-40d3-8a4a-bb74c42be17b"},"vehicle_type_id":"4","last_reported":1693249471,"current_range_meters":26000,"station_id":"ce4bhb12rcd13ifvqem0","pricing_plan_id":"free"},{"bike_id":"4f2cc023-ea31-4dd4-a117-545de3a66686","system_id":"levelo_inurba_marseille","lat":43.31273,"lon":5.40167,"is_reserved":false,"is_disabled":false,"rental_uris":{"android":"levelo://app?vid=4f2cc023-ea31-4dd4-a117-545de3a66686","ios":"levelo://app?vid=4f2cc023-ea31-4dd4-a117-545de3a66686"},"vehicle_type_id":"4","last_reported":1693249471,"current_range_meters":19600,"station_id":"ce4bh092rcd13ifvqd30","pricing_plan_id":"free"},{"bike_id":"66be20ac-6fdf-45c3-8883-24d95e340dae","system_id":"levelo_inurba_marseille","lat":43.30639,"lon":5.40062,"is_reserved":false,"is_disabled":false,"rental_uris":{"android":"levelo://app?vid=66be20ac-6fdf-45c3-8883-24d95e340dae","ios":"levelo://app?vid=66be20ac-6fdf-45c3-8883-24d95e340dae"},"vehicle_type_id":"4","last_reported":1693249471,"current_range_meters":18800,"station_id":"ce4bh112rcd13ifvqda0","pricing_plan_id":"free"},{"bike_id":"b41b8751-423c-4433-9804-1b9d8dab0637","system_id":"levelo_inurba_marseille","lat":43.30642,"lon":5.401031,"is_reserved":false,"is_disabled":false,"rental_uris":{"android":"levelo://app?vid=b41b8751-423c-4433-9804-1b9d8dab0637","ios":"levelo://app?vid=b41b8751-423c-4433-9804-1b9d8dab0637"},"vehicle_type_id":"4","last_reported":1693249471,"current_range_meters":24000,"station_id":"ce4bh112rcd13ifvqda0","pricing_plan_id":"free"},{"bike_id":"e279e1d3-8827-43f7-b54e-d69269bfa8ae","system_id":"levelo_inurba_marseille","lat":43.30642,"lon":5.401031,"is_reserved":false,"is_disabled":false,"rental_uris":{"android":"levelo://app?vid=e279e1d3-8827-43f7-b54e-d69269bfa8ae","ios":"levelo://app?vid=e279e1d3-8827-43f7-b54e-d69269bfa8ae"},"vehicle_type_id":"4","last_reported":1693249471,"current_range_meters":16400,"station_id":"ce4bh112rcd13ifvqda0","pricing_plan_id":"free"},{"bike_id":"6cb3bbb3-c67b-48d0-aa1e-19874d322c6d","system_id":"levelo_inurba_marseille","lat":43.30642,"lon":5.401031,"is_reserved":false,"is_disabled":false,"rental_uris":{"android":"levelo://app?vid=6cb3bbb3-c67b-48d0-aa1e-19874d322c6d","ios":"levelo://app?vid=6cb3bbb3-c67b-48d0-aa1e-19874d322c6d"},"vehicle_type_id":"4","last_reported":1693249471,"current_range_meters":4400,"station_id":"ce4bh112rcd13ifvqda0","pricing_plan_id":"free"},{"bike_id":"23fae7e0-e602-4628-882f-4f9f3be23f49","system_id":"levelo_inurba_marseille","lat":43.30652,"lon":5.40074,"is_reserved":false,"is_disabled":false,"rental_uris":{"android":"levelo://app?vid=23fae7e0-e602-4628-882f-4f9f3be23f49","ios":"levelo://app?vid=23fae7e0-e602-4628-882f-4f9f3be23f49"},"vehicle_type_id":"4","last_reported":1693249471,"current_range_meters":8000,"station_id":"ce4bh112rcd13ifvqda0","pricing_plan_id":"free"},{"bike_id":"fcb57706-b64c-465e-ab6e-a5f528efb87f","system_id":"levelo_inurba_marseille","lat":43.30653,"lon":5.40077,"is_reserved":false,"is_disabled":false,"rental_uris":{"android":"levelo://app?vid=fcb57706-b64c-465e-ab6e-a5f528efb87f","ios":"levelo://app?vid=fcb57706-b64c-465e-ab6e-a5f528efb87f"},"vehicle_type_id":"4","last_reported":1693249471,"current_range_meters":27600,"station_id":"ce4bh112rcd13ifvqda0","pricing_plan_id":"free"},{"bike_id":"31ec8191-54f5-4ca9-ba82-9546bcce612e","system_id":"levelo_inurba_marseille","lat":43.30642,"lon":5.40083,"is_reserved":false,"is_disabled":false,"rental_uris":{"android":"levelo://app?vid=31ec8191-54f5-4ca9-ba82-9546bcce612e","ios":"levelo://app?vid=31ec8191-54f5-4ca9-ba82-9546bcce612e"},"vehicle_type_id":"4","last_reported":1693249471,"current_range_meters":17600,"station_id":"ce4bh112rcd13ifvqda0","pricing_plan_id":"free"},{"bike_id":"109c254e-03f8-4891-b268-6a801679cf47","system_id":"levelo_inurba_marseille","lat":43.3065,"lon":5.40097,"is_reserved":false,"is_disabled":false,"rental_uris":{"android":"levelo://app?vid=109c254e-03f8-4891-b268-6a801679cf47","ios":"levelo://app?vid=109c254e-03f8-4891-b268-6a801679cf47"},"vehicle_type_id":"4","last_reported":1693249471,"current_range_meters":22400,"station_id":"ce4bh112rcd13ifvqda0","pricing_plan_id":"free"},{"bike_id":"41294752-03e7-4e49-8d01-62a194cc1ca9","system_id":"levelo_inurba_marseille","lat":43.30642,"lon":5.401031,"is_reserved":false,"is_disabled":false,"rental_uris":{"android":"levelo://app?vid=41294752-03e7-4e49-8d01-62a194cc1ca9","ios":"levelo://app?vid=41294752-03e7-4e49-8d01-62a194cc1ca9"},"vehicle_type_id":"4","last_reported":1693249471,"current_range_meters":28400,"station_id":"ce4bh112rcd13ifvqda0","pricing_plan_id":"free"},{"bike_id":"fab1c84a-a2db-4a8c-99ab-0e0cea778b39","system_id":"levelo_inurba_marseille","lat":43.30648,"lon":5.40101,"is_reserved":false,"is_disabled":false,"rental_uris":{"android":"levelo://app?vid=fab1c84a-a2db-4a8c-99ab-0e0cea778b39","ios":"levelo://app?vid=fab1c84a-a2db-4a8c-99ab-0e0cea778b39"},"vehicle_type_id":"4","last_reported":1693249471,"current_range_meters":17200,"station_id":"ce4bh112rcd13ifvqda0","pricing_plan_id":"free"},