{"last_updated":1691838240,"ttl":30,"version":"2.2","data":{"bikes":[{"bike_id":"35b22226-e998-4886-9d16-39d71f31a617","system_id":"levelo_inurba_marseille","lat":43.314811,"lon":5.373104,"is_reserved":false,"is_disabled":false,"rental_uris":{"android":"levelo://app?vid=35b22226-e998-4886-9d16-39d71f31a617","ios":"levelo://app?vid=35b22226-e998-4886-9d16-39d71f31a617"},"vehicle_type_id":"4","last_reported":1691838240,"current_range_meters":7600,"station_id":"ce4bgt12rcd13ifvqcd0","pricing_plan_id":"free"},{"bike_id":"3359b531-cc1e-4986-aae1-e7dfa3278393","system_id":"levelo_inurba_marseille","lat":43.305712,"lon":5.365641,"is_reserved":false,"is_disabled":false,"rental_uris":{"android":"levelo://app?vid=3359b531-cc1e-4986-aae1-e7dfa3278393","ios":"levelo://app?vid=3359b531-cc1e-4986-aae1-e7dfa3278393"},"vehicle_type_id":"4","last_reported":1691838240,"current_range_meters":13200,"station_id":"ce4bgs12rcd13ifvqcag","pricing_plan_id":"free"},{"bike_id":"d713bc84-0106-4b73-997c-35219c5b3dd5","system_id":"levelo_inurba_marseille","lat":43.30542,"lon":5.36694,"is_reserved":false,"is_disabled":false,"rental_uris":{"android":"levelo://app?vid=d713bc84-0106-4b73-997c-35219c5b3dd5","ios":"levelo://app?vid=d713bc84-0106-4b73-997c-35219c5b3dd5"},"vehicle_type_id":"4","last_reported":1691838240,"current_range_meters":30800,"station_id":"ce4bgrp2rcd13ifvqc9g","pricing_plan_id":"free"},{"bike_id":"29475efc-183f-450d-bfee-85408c6c704c","system_id":"levelo_inurba_marseille","lat":43.3055,"lon":5.36536,"is_reserved":false,"is_disabled":false,"rental_uris":{"android":"levelo://app?vid=29475efc-183f-450d-bfee-85408c6c704c","ios":"levelo://app?vid=29475efc-183f-450d-bfee-85408c6c704c"},"vehicle_type_id":"4","last_reported":1691838240,"current_range_meters":31200,"station_id":"ce4bgs12rcd13ifvqcag","pricing_plan_id":"free"},{"bike_id":"c861be8f-1cae-4af1-8f77-ce99af8b7c3f","system_id":"levelo_inurba_marseille","lat":43.305368,"lon":5.367343,"is_reserved":false,"is_disabled":false,"rental_uris":{"android":"levelo://app?vid=c861be8f-1cae-4af1-8f77-ce99af8b7c3f","ios":"levelo://app?vid=c861be8f-1cae-4af1-8f77-ce99af8b7c3f"},"vehicle_type_id":"4","last_reported":1691838240,"current_range_meters":30400,"station_id":"ce4bgrp2rcd13ifvqc9g","pricing_plan_id":"free"},{"bike_id":"8a3553a5-7800-4bb4-90f1-5ced7f3ece33","system_id":"levelo_inurba_marseille","lat":43.305368,"lon":5.367343,"is_reserved":false,"is_disabled":false,"rental_uris":{"android":"levelo://app?vid=8a3553a5-7800-4bb4-90f1-5ced7f3ece33","ios":"levelo://app?vid=8a3553a5-7800-4bb4-90f1-5ced7f3ece33"},"vehicle_type_id":"4","last_reported":1691838240,"current_range_meters":3200,"station_id":"ce4bgrp2rcd13ifvqc9g","pricing_plan_id":"free"},{"bike_id":"ae3e460f-1cba-4e8a-b412-c10c7e6bfd1f","system_id":"levelo_inurba_marseille","lat":43.3054,"lon":5.36531,"is_reserved":false,"is_disabled":false,"rental_uris":{"android":"levelo://app?vid=ae3e460f-1cba-4e8a-b412-c10c7e6bfd1f","ios":"levelo://app?vid=ae3e460f-1cba-4e8a-b412-c10c7e6bfd1f"},"vehicle_type_id":"4","last_reported":1691838240,"current_range_meters":27600,"station_id":"ce4bgs12rcd13ifvqcag","pricing_plan_id":"free"},{"bike_id":"bff8f362-4c2e-4a7f-a663-456de0859ed0","system_id":"levelo_inurba_marseille","lat":43.305368,"lon":5.367343,"is_reserved":false,"is_disabled":false,"rental_uris":{"android":"levelo://app?vid=bff8f362-4c2e-4a7f-a663-456de0859ed0","ios":"levelo://app?vid=bff8f362-4c2e-4a7f-a663-456de0859ed0"},"vehicle_type_id":"4","last_reported":1691838240,"current_range_meters":22400,"station_id":"ce4bgrp2rcd13ifvqc9g","pricing_plan_id":"free"},{"bike_id":"56d03479-89a5-4c0f-8156-b1aaa2d5f286","system_id":"levelo_inurba_marseille","lat":43.305706,"lon":5.365654,"is_reserved":false,"is_disabled":false,"rental_uris":{"android":"levelo://app?vid=56d03479-89a5-4c0f-8156-b1aaa2d5f286","ios":"levelo://app?vid=56d03479-89a5-4c0f-8156-b1aaa2d5f286"},"vehicle_type_id":"4","last_reported":1691838240,"current_range_meters":12800,"station_id":"ce4bgs12rcd13ifvqcag","pricing_plan_id":"free"},{"bike_id":"bf19707d-7d5b-483e-9e21-4c5d68c17834","system_id":"levelo_inurba_marseille","lat":43.305706,"lon":5.365654,"is_reserved":false,"is_disabled":false,"rental_uris":{"android":"levelo://app?vid=bf19707d-7d5b-483e-9e21-4c5d68c17834","ios":"levelo://app?vid=bf19707d-7d5b-483e-9e21-4c5d68c17834"},"vehicle_type_id":"4","last_reported":1691838240,"current_range_meters":31200,"station_id":"ce4bgs12rcd13ifvqcag","pricing_plan_id":"free"},{"bike_id":"d0ee7b62-1b44-4f7c-89b4-c038ad7cac27","system_id":"levelo_inurba_marseille","lat":43.30528,"lon":5.36533,"is_reserved":false,"is_disabled":false,"rental_uris":{"android":"levelo://app?vid=d0ee7b62-1b44-4f7c-89b4-c038ad7cac27","ios":"levelo://app?vid=d0ee7b62-1b44-4f7c-89b4-c038ad7cac27"},"vehicle_type_id":"4","last_reported":1691838240,"current_range_meters":25200,"station_id":"ce4bgs12rcd13ifvqcag","pricing_plan_id":"free"},{"bike_id":"0efab063-7a34-4d4f-aace-949d4992ded7","system_id":"levelo_inurba_marseille","lat":43.305706,"lon":5.365654,"is_reserved":false,"is_disabled":false,"rental_uris":{"android":"levelo://app?vid=0efab063-7a34-4d4f-aace-949d4992ded7","ios":"levelo://app?vid=0efab063-7a34-4d4f-aace-949d4992ded7"},"vehicle_type_id":"4","last_reported":1691838240,"current_range_meters":9600,"station_id":"ce4bgs12rcd13ifvqcag","pricing_plan_id":"free"},{"bike_id":"5389d929-582b-4bb7-919e-e2cf548d33e4","system_id":"levelo_inurba_marseille","lat":43.305706,"lon":5.365654,"is_reserved":false,"is_disabled":false,"rental_uris":{"android":"levelo://app?vid=5389d929-582b-4bb7-919e-e2cf548d33e4","ios":"levelo://app?vid=5389d929-582b-4bb7-919e-e2cf548d33e4"},"vehicle_type_id":"4","last_reported":1691838240,"current_range_meters":28400,"station_id":"ce4bgs12rcd13ifvqcag","pricing_plan_id":"free"},{"bike_id":"d44fd967-da8c-4dc9-9373-468a403065d7","system_id":"levelo_inurba_marseille","lat":43.307945,"lon":5.376487,"is_reserved":false,"is_disabled":false,"rental_uris":{"android":"levelo://app?vid=d44fd967-da8c-4dc9-9373-468a403065d7","ios":"levelo://app?vid=d44fd967-da8c-4dc9-9373-468a403065d7"},"vehicle_type_id":"4","last_reported":1691838240,"current_range_meters":20400,"station_id":"ce4bgv92rcd13ifvqcq0","pricing_plan_id":"free"},{"bike_id":"01b80d0b-744c-477f-a63c-7b09657e0ec7","system_id":"levelo_inurba_marseille","lat":43.317075,"lon":5.377367,"is_reserved":false,"is_disabled":false,"rental_uris":{"android":"levelo://app?vid=01b80d0b-744c-477f-a63c-7b09657e0ec7","ios":"levelo://app?vid=01b80d0b-744c-477f-a63c-7b09657e0ec7"},"vehicle_type_id":"4","last_reported":1691838240,"current_range_meters":10800,"station_id":"ce4bgth2rcd13ifvqch0","pricing_plan_id":"free"},{"bike_id":"33ee35ed-e071-4764-a761-ba154972f9b6","system_id":"levelo_inurba_marseille","lat":43.317075,"lon":5.377367,"is_reserved":false,"is_disabled":false,"rental_uris":{"android":"levelo://app?vid=33ee35ed-e071-4764-a761-ba154972f9b6","ios":"levelo://app?vid=33ee35ed-e071-4764-a761-ba154972f9b6"},"vehicle_type_id":"4","last_reported":1691838240,"current_range_meters":4800,"station_id":"ce4bgth2rcd13ifvqch0","pricing_plan_id":"free"},{"bike_id":"64fa3d57-5414-45bc-9d21-6fcf439a4a6e","system_id":"levelo_inurba_marseille","lat":43.303046,"lon":5.368981,"is_reserved":false,"is_disabled":false,"rental_uris":{"android":"levelo://app?vid=64fa3d57-5414-45bc-9d21-6fcf439a4a6e","ios":"levelo://app?vid=64fa3d57-5414-45bc-9d21-6fcf439a4a6e"},"vehicle_type_id":"4","last_reported":1691838240,"current_range_meters":22000,"station_id":"ce4bgqh2rcd13ifvqc5g","pricing_plan_id":"free"},{"bike_id":"f4070728-9e00-4439-acca-3997651365c5","system_id":"levelo_inurba_marseille","lat":43.303046,"lon":5.368981,"is_reserved":false,"is_disabled":false,"rental_uris":{"android":"levelo://app?vid=f4070728-9e00-4439-acca-3997651365c5","ios":"levelo://app?vid=f4070728-9e00-4439-acca-3997651365c5"},"vehicle_type_id":"4","last_reported":1691838240,"current_range_meters":0,"station_id":"ce4bgqh2rcd13ifvqc5g","pricing_plan_id":"free"},{"bike_id":"3d7b89e5-e67a-4a87-bb99-f9e03d33164d","system_id":"levelo_inurba_marseille","lat":43.303046,"lon":5.368981,"is_reserved":false,"is_disabled":false,"rental_uris":{"android":"levelo://app?vid=3d7b89e5-e67a-4a87-bb99-f9e03d33164d","ios":"levelo://app?vid=3d7b89e5-e67a-4a87-bb99-f9e03d33164d"},"vehicle_type_id":"4","last_reported":1691838240,"current_range_meters":11600,"station_id":"ce4bgqh2rcd13ifvqc5g","pricing_plan_id":"free"},{"bike_id":"36791adb-1a37-4159-94ed-24e8a364a997","system_id":"levelo_inurba_marseille","lat":43.30795,"lon":5.38174,"is_reserved":false,"is_disabled":false,"rental_uris":{"android":"levelo://app?vid=36791adb-1a37-4159-94ed-24e8a364a997","ios":"levelo://app?vid=36791adb-1a37-4159-94ed-24e8a364a997"},"vehicle_type_id":"4","last_reported":1691838240,"current_range_meters":18000,"station_id":"ce4bgt12rcd13ifvqce0","pricing_plan_id":"free"},{"bike_id":"85f7a35a-6638-4a88-993d-c970152844a0","system_id":"levelo_inurba_marseille","lat":43.30475,"lon":5.37895,"is_reserved":false,"is_disabled":false,"rental_uris":{"android":"levelo://app?vid=85f7a35a-6638-4a88-993d-c970152844a0","ios":"levelo://app?vid=85f7a35a-6638-4a88-993d-c970152844a0"},"vehicle_type_id":"4","last_reported":1691838240,"current_range_meters":31200,"station_id":"ce4bgup2rcd13ifvqcn0","pricing_plan_id":"free"},{"bike_id":"d4cabd5f-d02b-44f3-b2c2-11d133876f95","system_id":"levelo_inurba_marseille","lat":43.30474,"lon":5.37898,"is_reserved":false,"is_disabled":false,"rental_uris":{"android":"levelo://app?vid=d4cabd5f-d02b-44f3-b2c2-11d133876f95","ios":"levelo://app?vid=d4cabd5f-d02b-44f3-b2c2-11d133876f95"},"vehicle_type_id":"4","last_reported":1691838240,"current_range_meters":31200,"station_id":"ce4bgup2rcd13ifvqcn0","pricing_plan_id":"free"},{"bike_id":"c8e01ff3-3b8b-424a-8dc4-2bf8b873aefc","system_id":"levelo_inurba_marseille","lat":43.304606,"lon":5.379026,"is_reserved":false,"is_disabled":false,"rental_uris":{"android":"levelo://app?vid=c8e01ff3-3b8b-424a-8dc4-2bf8b873aefc","ios":"levelo://app?vid=c8e01ff3-3b8b-424a-8dc4-2bf8b873aefc"},"vehicle_type_id":"4","last_reported":1691838240,"current_range_meters":20800,"station_id":"ce4bgup2rcd13ifvqcn0","pricing_plan_id":"free"},{"bike_id":"19dc74d5-d8f8-4a65-aae2-a120f79b7ba7","system_id":"levelo_inurba_marseille","lat":43.304606,"lon":5.379026,"is_reserved":false,"is_disabled":false,"rental_uris":{"android":"levelo://app?vid=19dc74d5-d8f8-4a65-aae2-a120f79b7ba7","ios":"levelo://app?vid=19dc74d5-d8f8-4a65-aae2-a120f79b7ba7"},"vehicle_type_id":"4","last_reported":1691838240,"current_range_meters":31200,"station_id":"ce4bgup2rcd13ifvqcn0","pricing_plan_id":"free"},{"bike_id":"969adf6a-38c7-4f9d-b092-a3898827df41","system_id":"levelo_inurba_marseille","lat":43.30473,"lon":5.37904,"is_reserved":false,"is_disabled":false,"rental_uris":{"android":"levelo://app?vid=969adf6a-38c7-4f9d-b092-a3898827df41","ios":"levelo://app?vid=969adf6a-38c7-4f9d-b092-a3898827df41"},"vehicle_type_id":"4","last_reported":1691838240,"current_range_meters":31200,"station_id":"ce4bgup2rcd13ifvqcn0","pricing_plan_id":"free"},{"bike_id":"a0279078-f49a-4d0c-88d9-362c9f885ec5","system_id":"levelo_inurba_marseille","lat":43.30468,"lon":5.37902,"is_reserved":false,"is_disabled":false,"rental_uris":{"android":"levelo://app?vid=a0279078-f49a-4d0c-88d9-362c9f885ec5","ios":"levelo://app?vid=a0279078-f49a-4d0c-88d9-362c9f885ec5"},"vehicle_type_id":"4","last_reported":1691838240,"current_range_meters":24400,"station_id":"","pricing_plan_id":"free"},{"bike_id":"29d67348-b13a-4ca5-b542-f76727b796fb","system_id":"levelo_inurba_marseille","lat":43.304606,"lon":5.379026,"is_reserved":false,"is_disabled":false,"rental_uris":{"android":"levelo://app?vid=29d67348-b13a-4ca5-b542-f76727b796fb","ios":"levelo://app?vid=29d67348-b13a-4ca5-b542-f76727b796fb"},"vehicle_type_id":"4","last_reported":1691838240,"current_range_meters":16400,"station_id":"ce4bgup2rcd13ifvqcn0","pricing_plan_id":"free"},{"bike_id":"27b365d4-675b-49bb-82f6-abe188316ef6","system_id":"levelo_inurba_marseille","lat":43.304606,"lon":5.379026,"is_reserved":false,"is_disabled":false,"rental_uris":{"android":"levelo://app?vid=27b365d4-675b-49bb-82f6-abe188316ef6","ios":"levelo://app?vid=27b365d4-675b-49bb-82f6-abe188316ef6"},"vehicle_type_id":"4","last_reported":1691838240,"current_range_meters":28800,"station_id":"ce4bgup2rcd13ifvqcn0","pricing_plan_id":"free"},{"bike_id":"91a4ca5a-bdb8-469d-b2a3-b0a9a44f0979","system_id":"levelo_inurba_marseille","lat":43.304606,"lon":5.379026,"is_reserved":false,"is_disabled":false,"rental_uris":{"android":"levelo://app?vid=91a4ca5a-bdb8-469d-b2a3-b0a9a44f0979","ios":"levelo://app?vid=91a4ca5a-bdb8-469d-b2a3-b0a9a44f0979"},"vehicle_type_id":"4","last_reported":1691838240,"current_range_meters":19200,"station_id":"ce4bgup2rcd13ifvqcn0","pricing_plan_id":"free"},{"bike_id":"06ad34b7-2b64-4347-bd88-afdc7cb8062b","system_id":"levelo_inurba_marseille","lat":43.30463,"lon":5.37901,"is_reserved":false,"is_disabled":false,"rental_uris":{"android":"levelo://app?vid=06ad34b7-2b64-4347-bd88-afdc7cb8062b","ios":"levelo://app?vid=06ad34b7-2b64-4347-bd88-afdc7cb8062b"},"vehicle_type_id":"4","last_reported":1691838240,"current_range_meters":4400,"station_id":"ce4bgup2rcd13ifvqcn0","pricing_plan_id":"free"},{"bike_id":"97120e39-1269-4e24-beaa-e09e4705196e","system_id":"levelo_inurba_marseille","lat":43.304606,"lon":5.379026,"is_reserved":false,"is_disabled":false,"rental_uris":{"android":"levelo://app?vid=97120e39-1269-4e24-beaa-e09e4705196e","ios":"levelo://app?vid=97120e39-1269-4e24-beaa-e09e4705196e"},"vehicle_type_id":"4","last_reported":1691838240,"current_range_meters":26800,"station_id":"ce4bgup2rcd13ifvqcn0","pricing_plan_id":"free"},{"bike_id":"8fcb7237-d8ba-4c3c-9593-335510447dfa","system_id":"levelo_inurba_marseille","lat":43.304606,"lon":5.379026,"is_reserved":false,"is_disabled":false,"rental_uris":{"android":"levelo://app?vid=8fcb7237-d8ba-4c3c-9593-335510447dfa","ios":"levelo://app?vid=8fcb7237-d8ba-4c3c-9593-335510447dfa"},"vehicle_type_id":"4","last_reported":1691838240,"current_range_meters":24400,"station_id":"ce4bgup2rcd13ifvqcn0","pricing_plan_id":"free"},{"bike_id":"03229958-a14d-442a-9b2f-1d4ba778acc2","system_id":"levelo_inurba_marseille","lat":43.304606,"lon":5.379026,"is_reserved":false,"is_disabled":false,"rental_uris":{"android":"levelo://app?vid=03229958-a14d-442a-9b2f-1d4ba778acc2","ios":"levelo://app?vid=03229958-a14d-442a-9b2f-1d4ba778acc2"},"vehicle_type_id":"4","last_reported":1691838240,"current_range_meters":31200,"station_id":"ce4bgup2rcd13ifvqcn0","pricing_plan_id":"free"},{"bike_id":"6458a99b-a74e-43d3-8fe2-55e4e591033a","system_id":"levelo_inurba_marseille","lat":43.30462,"lon":5.37902,"is_reserved":false,"is_disabled":false,"rental_uris":{"android":"levelo://app?vid=6458a99b-a74e-43d3-8fe2-55e4e591033a","ios":"levelo://app?vid=6458a99b-a74e-43d3-8fe2-55e4e591033a"},"vehicle_type_id":"4","last_reported":1691838240,"current_range_meters":12400,"station_id":"ce4bgup2rcd13ifvqcn0","pricing_plan_id":"free"},{"bike_id":"3ff3c4b2-91f1-4155-846c-f907ebd153cc","system_id":"levelo_inurba_marseille","lat":43.30462,"lon":5.37903,"is_reserved":false,"is_disabled":false,"rental_uris":{"android":"levelo://app?vid=3ff3c4b2-91f1-4155-846c-f907ebd153cc","ios":"levelo://app?vid=3ff3c4b2-91f1-4155-846c-f907ebd153cc"},"vehicle_type_id":"4","last_reported":1691838240,"current_range_meters":14400,"station_id":"ce4bgup2rcd13ifvqcn0","pricing_plan_id":"free"},{"bike_id":"dc3d6251-6ff6-4685-9ab0-14dac1b63176","system_id":"levelo_inurba_marseille","lat":43.304606,"lon":5.379026,"is_reserved":false,"is_disabled":false,"rental_uris":{"android":"levelo://app?vid=dc3d6251-6ff6-4685-9ab0-14dac1b63176","ios":"levelo://app?vid=dc3d6251-6ff6-4685-9ab0-14dac1b63176"},"vehicle_type_id":"4","last_reported":1691838240,"current_range_meters":22000,"station_id":"ce4bgup2rcd13ifvqcn0","pricing_plan_id":"free"},{"bike_id":"b4d1bf35-b3f2-4a73-8e33-9062f872e477","system_id":"levelo_inurba_marseille","lat":43.304606,"lon":5.379026,"is_reserved":false,"is_disabled":false,"rental_uris":{"android":"levelo://app?vid=b4d1bf35-b3f2-4a73-8e33-9062f872e477","ios":"levelo://app?vid=b4d1bf35-b3f2-4a73-8e33-9062f872e477"},"vehicle_type_id":"4","last_reported":1691838240,"current_range_meters":31200,"station_id":"ce4bgup2rcd13ifvqcn0","pricing_plan_id":"free"},{"bike_id":"991588ae-d3e3-46fa-a75e-bce583edbfd5","system_id":"levelo_inurba_marseille","lat":43.304606,"lon":5.379026,"is_reserved":false,"is_disabled":false,"rental_uris":{"android":"levelo://app?vid=991588ae-d3e3-46fa-a75e-bce583edbfd5","ios":"levelo://app?vid=991588ae-d3e3-46fa-a75e-bce583edbfd5"},"vehicle_type_id":"4","last_reported":1691838240,"current_range_meters":7200,"station_id":"ce4bgup2rcd13ifvqcn0","pricing_plan_id":"free"},{"bike_id":"9ffbc3ef-3632-4bfe-9b85-105bfcf99996","system_id":"levelo_inurba_marseille","lat":43.30455,"lon":5.37902,"is_reserved":false,"is_disabled":false,"rental_uris":{"android":"levelo://app?vid=9ffbc3ef-3632-4bfe-9b85-105bfcf99996","ios":"levelo://app?vid=9ffbc3ef-3632-4bfe-9b85-105bfcf99996"},"vehicle_type_id":"4","last_reported":1691838240,"current_range_meters":24800,"station_id":"ce4bgup2rcd13ifvqcn0","pricing_plan_id":"free"},{"bike_id":"c2f0465f-cdd8-4af6-8c43-cbde28b03d75","system_id":"levelo_inurba_marseille","lat":43.304606,"lon":5.379026,"is_reserved":false,"is_disabled":false,"rental_uris":{"android":"levelo://app?vid=c2f0465f-cdd8-4af6-8c43-cbde28b03d75","ios":"levelo://app?vid=c2f0465f-cdd8-4af6-8c43-cbde28b03d75"},"vehicle_type_id":"4","last_reported":1691838240,"current_range_meters":31200,"station_id":"ce4bgup2rcd13ifvqcn0","pricing_plan_id":"free"},{"bike_id":"9bb09813-cd80-4773-8579-38e9eea7d37e","system_id":"levelo_inurba_marseille","lat":43.30456,"lon":5.37905,"is_reserved":false,"is_disabled":false,"rental_uris":{"android":"levelo://app?vid=9bb09813-cd80-4773-8579-38e9eea7d37e","ios":"levelo://app?vid=9bb09813-cd80-4773-8579-38e9eea7d37e"},"vehicle_type_id":"4","last_reported":1691838240,"current_range_meters":23200,"station_id":"ce4bgup2rcd13ifvqcn0","pricing_plan_id":"free"},{"bike_id":"5bfd66a1-434f-4991-bb7b-33570387ae5d","system_id":"levelo_inurba_marseille","lat":43.30454,"lon":5.37906,"is_reserved":false,"is_disabled":false,"rental_uris":{"android":"levelo://app?vid=5bfd66a1-434f-4991-bb7b-33570387ae5d","ios":"levelo://app?vid=5bfd66a1-434f-4991-bb7b-33570387ae5d"},"vehicle_type_id":"4","last_reported":1691838240,"current_range_meters":4000,"station_id":"ce4bgup2rcd13ifvqcn0","pricing_plan_id":"free"},{"bike_id":"5d72280b-d210-4399-856b-9186c2399480","system_id":"levelo_inurba_marseille","lat":43.304606,"lon":5.379026,"is_reserved":false,"is_disabled":false,"rental_uris":{"android":"levelo://app?vid=5d72280b-d210-4399-856b-9186c2399480","ios":"levelo://app?vid=5d72280b-d210-4399-856b-9186c2399480"},"vehicle_type_id":"4","last_reported":1691838240,"current_range_meters":31600,"station_id":"ce4bgup2rcd13ifvqcn0","pricing_plan_id":"free"},{"bike_id":"eda2dd1e-5c86-4c13-8bde-d850e92c2108","system_id":"levelo_inurba_marseille","lat":43.30292,"lon":5.37697,"is_reserved":false,"is_disabled":false,"rental_uris":{"android":"levelo://app?vid=eda2dd1e-5c86-4c13-8bde-d850e92c2108","ios":"levelo://app?vid=eda2dd1e-5c86-4c13-8bde-d850e92c2108"},"vehicle_type_id":"4","last_reported":1691838240,"current_range_meters":27600,"station_id":"ce4bguh2rcd13ifvqcj0","pricing_plan_id":"free"},{"bike_id":"30e1bf33-b8ca-4a03-bb15-356b38712ff2","system_id":"levelo_inurba_marseille","lat":43.302784,"lon":5.377158,"is_reserved":false,"is_disabled":false,"rental_uris":{"android":"levelo://app?vid=30e1bf33-b8ca-4a03-bb15-356b38712ff2","ios":"levelo://app?vid=30e1bf33-b8ca-4a03-bb15-356b38712ff2"},"vehicle_type_id":"4","last_reported":1691838240,"current_range_meters":25200,"station_id":"ce4bguh2rcd13ifvqcj0","pricing_plan_id":"free"},{"bike_id":"6735dfb7-cc01-42e9-bfe7-7befdd45bcb4","system_id":"levelo_inurba_marseille","lat":43.30143,"lon":5.37425,"is_reserved":false,"is_disabled":false,"rental_uris":{"android":"levelo://app?vid=6735dfb7-cc01-42e9-bfe7-7befdd45bcb4","ios":"levelo://app?vid=6735dfb7-cc01-42e9-bfe7-7befdd45bcb4"},"vehicle_type_id":"4","last_reported":1691838240,"current_range_meters":1600,"station_id":"ce4bgs92rcd13ifvqcc0","pricing_plan_id":"free"},{"bike_id":"32710e18-fe50-4c47-8585-237e6372a29a","system_id":"levelo_inurba_marseille","lat":43.302784,"lon":5.377158,"is_reserved":false,"is_disabled":false,"rental_uris":{"android":"levelo://app?vid=32710e18-fe50-4c47-8585-237e6372a29a","ios":"levelo://app?vid=32710e18-fe50-4c47-8585-237e6372a29a"},"vehicle_type_id":"4","last_reported":1691838240,"current_range_meters":18400,"station_id":"ce4bguh2rcd13ifvqcj0","pricing_plan_id":"free"},{"bike_id":"ca47b605-71ef-45b7-8a77-eef69c7a450b","system_id":"levelo_inurba_marseille","lat":43.30138,"lon":5.3742,"is_reserved":false,"is_disabled":false,"rental_uris":{"android":"levelo://app?vid=ca47b605-71ef-45b7-8a77-eef69c7a450b","ios":"levelo://app?vid=ca47b605-71ef-45b7-8a77-eef69c7a450b"},"vehicle_type_id":"4","last_reported":1691838240,"current_range_meters":24800,"station_id":"ce4bgs92rcd13ifvqcc0","pricing_plan_id":"free"},{"bike_id":"bad9f1d5-222b-4ff0-a768-b2ef57f2fb9a","system_id":"levelo_inurba_marseille","lat":43.31998,"lon":5.38143,"is_reserved":false,"is_disabled":false,"rental_uris":{"android":"levelo://app?vid=bad9f1d5-222b-4ff0-a768-b2ef57f2fb9a","ios":"levelo://app?vid=bad9f1d5-222b-4ff0-a768-b2ef57f2fb9a"},"vehicle_type_id":"4","last_reported":1691838240,"current_range_meters":19600,"station_id":"ce4bhr12rcd13ifvqhpg","pricing_plan_id":"free"},{"bike_id":"dd5badbc-d2ec-4bac-80e2-4c3030682c0e","system_id":"levelo_inurba_marseille","lat":43.29942,"lon":5.36543,"is_reserved":false,"is_disabled":false,"rental_uris":{"android":"levelo://app?vid=dd5badbc-d2ec-4bac-80e2-4c3030682c0e","ios":"levelo://app?vid=dd5badbc-d2ec-4bac-80e2-4c3030682c0e"},"vehicle_type_id":"4","last_reported":1691838240,"current_range_meters":21200,"station_id":"ce4bgm92rcd13ifvqbr0","pricing_plan_id":"free"},{"bike_id":"69e8bac1-4545-4447-87ef-3cf1cfee683e","system_id":"levelo_inurba_marseille","lat":43.29966,"lon":5.37178,"is_reserved":false,"is_disabled":false,"rental_uris":{"android":"levelo://app?vid=69e8bac1-4545-4447-87ef-3cf1cfee683e","ios":"levelo://app?vid=69e8bac1-4545-4447-87ef-3cf1cfee683e"},"vehicle_type_id":"4","last_reported":1691838240,"current_range_meters":19200,"station_id":"ce4bgr92rcd13ifvqc7g","pricing_plan_id":"free"},{"bike_id":"7e9890c0-e930-4db7-bbfb-3d58db9895f0","system_id":"levelo_inurba_marseille","lat":43.298433,"lon":5.362774,"is_reserved":false,"is_disabled":false,"rental_uris":{"android":"levelo://app?vid=7e9890c0-e930-4db7-bbfb-3d58db9895f0","ios":"levelo://app?vid=7e9890c0-e930-4db7-bbfb-3d58db9895f0"},"vehicle_type_id":"4","last_reported":1691838240,"current_range_meters":30800,"station_id":"ce4bgpp2rcd13ifvqc3g","pricing_plan_id":"free"},{"bike_id":"4d5c778e-6afb-49c8-90aa-5054c1d4e479","system_id":"levelo_inurba_marseille","lat":43.298433,"lon":5.362774,"is_reserved":false,"is_disabled":false,"rental_uris":{"android":"levelo://app?vid=4d5c778e-6afb-49c8-90aa-5054c1d4e479","ios":"levelo://app?vid=4d5c778e-6afb-49c8-90aa-5054c1d4e479"},"vehicle_type_id":"4","last_reported":1691838240,"current_range_meters":29600,"station_id":"ce4bgpp2rcd13ifvqc3g","pricing_plan_id":"free"},{"bike_id":"024f01de-9897-460c-9b8a-f94b6468fb08","system_id":"levelo_inurba_marseille","lat":43.30546,"lon":5.38423,"is_reserved":false,"is_disabled":false,"rental_uris":{"android":"levelo://app?vid=024f01de-9897-460c-9b8a-f94b6468fb08","ios":"levelo://app?vid=024f01de-9897-460c-9b8a-f94b6468fb08"},"vehicle_type_id":"4","last_reported":1691838240,"current_range_meters":27600,"station_id":"ce4bgg92rcd13ifvqb30","pricing_plan_id":"free"},{"bike_id":"2b6cb501-1c89-41fe-8915-52e49eb76f94","system_id":"levelo_inurba_marseille","lat":43.298433,"lon":5.362774,"is_reserved":false,"is_disabled":false,"rental_uris":{"android":"levelo://app?vid=2b6cb501-1c89-41fe-8915-52e49eb76f94","ios":"levelo://app?vid=2b6cb501-1c89-41fe-8915-52e49eb76f94"},"vehicle_type_id":"4","last_reported":1691838240,"current_range_meters":29600,"station_id":"ce4bgpp2rcd13ifvqc3g","pricing_plan_id":"free"},{"bike_id":"062746d7-53f5-43bd-963d-ecb8b9df9966","system_id":"levelo_inurba_marseille","lat":43.3054,"lon":5.38422,"is_reserved":false,"is_disabled":false,"rental_uris":{"android":"levelo://app?vid=062746d7-53f5-43bd-963d-ecb8b9df9966","ios":"levelo://app?vid=062746d7-53f5-43bd-963d-ecb8b9df9966"},"vehicle_type_id":"4","last_reported":1691838240,"current_range_meters":23200,"station_id":"ce4bgg92rcd13ifvqb30","pricing_plan_id":"free"},{"bike_id":"871d8120-0a9a-44a7-988c-3e5e96eb14c3","system_id":"levelo_inurba_marseille","lat":43.298433,"lon":5.362774,"is_reserved":false,"is_disabled":false,"rental_uris":{"android":"levelo://app?vid=871d8120-0a9a-44a7-988c-3e5e96eb14c3","ios":"levelo://app?vid=871d8120-0a9a-44a7-988c-3e5e96eb14c3"},"vehicle_type_id":"4","last_reported":1691838240,"current_range_meters":22800,"station_id":"ce4bgpp2rcd13ifvqc3g","pricing_plan_id":"free"},{"bike_id":"8ad6fd8c-2fae-4e80-bc79-b5c4f5712763","system_id":"levelo_inurba_marseille","lat":43.298433,"lon":5.362774,"is_reserved":false,"is_disabled":false,"rental_uris":{"android":"levelo://app?vid=8ad6fd8c-2fae-4e80-bc79-b5c4f5712763","ios":"levelo://app?vid=8ad6fd8c-2fae-4e80-bc79-b5c4f5712763"},"vehicle_type_id":"4","last_reported":1691838240,"current_range_meters":12000,"station_id":"ce4bgpp2rcd13ifvqc3g","pricing_plan_id":"free"},{"bike_id":"66582868-578c-44b1-a460-f15ce7c402d6","system_id":"levelo_inurba_marseille","lat":43.298433,"lon":5.362774,"is_reserved":false,"is_disabled":false,"rental_uris":{"android":"levelo://app?vid=66582868-578c-44b1-a460-f15ce7c402d6","ios":"levelo://app?vid=66582868-578c-44b1-a460-f15ce7c402d6"},"vehicle_type_id":"4","last_reported":1691838240,"current_range_meters":20400,"station_id":"ce4bgpp2rcd13ifvqc3g","pricing_plan_id":"free"},{"bike_id":"faa871fa-69fb-4f67-ab4e-ce61bbfbdd0a","system_id":"levelo_inurba_marseille","lat":43.298433,"lon":5.362774,"is_reserved":false,"is_disabled":false,"rental_uris":{"android":"levelo://app?vid=faa871fa-69fb-4f67-ab4e-ce61bbfbdd0a","ios":"levelo://app?vid=faa871fa-69fb-4f67-ab4e-ce61bbfbdd0a"},"vehicle_type_id":"4","last_reported":1691838240,"current_range_meters":30400,"station_id":"ce4bgpp2rcd13ifvqc3g","pricing_plan_id":"free"},{"bike_id":"948f8ce4-9d37-4450-9ea3-45adfd1a0339","system_id":"levelo_inurba_marseille","lat":43.298433,"lon":5.362774,"is_reserved":false,"is_disabled":false,"rental_uris":{"android":"levelo://app?vid=948f8ce4-9d37-4450-9ea3-45adfd1a0339","ios":"levelo://app?vid=948f8ce4-9d37-4450-9ea3-45adfd1a0339"},"vehicle_type_id":"4","last_reported":1691838240,"current_range_meters":6800,"station_id":"ce4bgpp2rcd13ifvqc3g","pricing_plan_id":"free"},{"bike_id":"d87b9260-8bdc-4779-b3e9-cf3efa38c5fe","system_id":"levelo_inurba_marseille","lat":43.298433,"lon":5.362774,"is_reserved":false,"is_disabled":false,"rental_uris":{"android":"levelo://app?vid=d87b9260-8bdc-4779-b3e9-cf3efa38c5fe","ios":"levelo://app?vid=d87b9260-8bdc-4779-b3e9-cf3efa38c5fe"},"vehicle_type_id":"4","last_reported":1691838240,"current_range_meters":25200,"station_id":"ce4bgpp2rcd13ifvqc3g","pricing_plan_id":"free"},{"bike_id":"909c2aec-0a45-4d23-96ba-aa1231051069","system_id":"levelo_inurba_marseille","lat":43.298433,"lon":5.362774,"is_reserved":false,"is_disabled":false,"rental_uris":{"android":"levelo://app?vid=909c2aec-0a45-4d23-96ba-aa1231051069","ios":"levelo://app?vid=909c2aec-0a45-4d23-96ba-aa1231051069"},"vehicle_type_id":"4","last_reported":1691838240,"current_range_meters":31200,"station_id":"ce4bgpp2rcd13ifvqc3g","pricing_plan_id":"free"},{"bike_id":"1a8767a6-ec5a-4bd4-a875-a0f6b6966795","system_id":"levelo_inurba_marseille","lat":43.299243,"lon":5.37481,"is_reserved":false,"is_disabled":false,"rental_uris":{"android":"levelo://app?vid=1a8767a6-ec5a-4bd4-a875-a0f6b6966795","ios":"levelo://app?vid=1a8767a6-ec5a-4bd4-a875-a0f6b6966795"},"vehicle_type_id":"4","last_reported":1691838240,"current_range_meters":29200,"station_id":"ce4bgjh2rcd13ifvqbg0","pricing_plan_id":"free"},{"bike_id":"72921d33-2e00-4878-b6e5-898e44fa9867","system_id":"levelo_inurba_marseille","lat":43.311722,"lon":5.387247,"is_reserved":false,"is_disabled":false,"rental_uris":{"android":"levelo://app?vid=72921d33-2e00-4878-b6e5-898e44fa9867","ios":"levelo://app?vid=72921d33-2e00-4878-b6e5-898e44fa9867"},"vehicle_type_id":"4","last_reported":1691838240,"current_range_meters":22000,"station_id":"ce4bgv12rcd13ifvqcp0","pricing_plan_id":"free"},{"bike_id":"32fdeb1c-cbf2-430f-be2c-7619cbf565a2","system_id":"levelo_inurba_marseille","lat":43.297774,"lon":5.370875,"is_reserved":false,"is_disabled":false,"rental_uris":{"android":"levelo://app?vid=32fdeb1c-cbf2-430f-be2c-7619cbf565a2","ios":"levelo://app?vid=32fdeb1c-cbf2-430f-be2c-7619cbf565a2"},"vehicle_type_id":"4","last_reported":1691838240,"current_range_meters":20000,"station_id":"ce4bgop2rcd13ifvqc1g","pricing_plan_id":"free"},{"bike_id":"026ee3db-f828-4ad6-9e78-43e60a812318","system_id":"levelo_inurba_marseille","lat":43.3228,"lon":5.38255,"is_reserved":false,"is_disabled":false,"rental_uris":{"android":"levelo://app?vid=026ee3db-f828-4ad6-9e78-43e60a812318","ios":"levelo://app?vid=026ee3db-f828-4ad6-9e78-43e60a812318"},"vehicle_type_id":"4","last_reported":1691838240,"current_range_meters":20800,"station_id":"ce4bhr12rcd13ifvqhqg","pricing_plan_id":"free"},{"bike_id":"2d8b582c-257e-499a-bf47-d8a138636f8d","system_id":"levelo_inurba_marseille","lat":43.297774,"lon":5.370875,"is_reserved":false,"is_disabled":false,"rental_uris":{"android":"levelo://app?vid=2d8b582c-257e-499a-bf47-d8a138636f8d","ios":"levelo://app?vid=2d8b582c-257e-499a-bf47-d8a138636f8d"},"vehicle_type_id":"4","last_reported":1691838240,"current_range_meters":29200,"station_id":"ce4bgop2rcd13ifvqc1g","pricing_plan_id":"free"},{"bike_id":"a51337fa-1479-447f-8281-2eee00f3a90f","system_id":"levelo_inurba_marseille","lat":43.297774,"lon":5.370875,"is_reserved":false,"is_disabled":false,"rental_uris":{"android":"levelo://app?vid=a51337fa-1479-447f-8281-2eee00f3a90f","ios":"levelo://app?vid=a51337fa-1479-447f-8281-2eee00f3a90f"},"vehicle_type_id":"4","last_reported":1691838240,"current_range_meters":18400,"station_id":"ce4bgop2rcd13ifvqc1g","pricing_plan_id":"free"},{"bike_id":"bf4471b4-3dbc-4a36-a42b-f59b719ff505","system_id":"levelo_inurba_marseille","lat":43.297774,"lon":5.370875,"is_reserved":false,"is_disabled":false,"rental_uris":{"android":"levelo://app?vid=bf4471b4-3dbc-4a36-a42b-f59b719ff505","ios":"levelo://app?vid=bf4471b4-3dbc-4a36-a42b-f59b719ff505"},"vehicle_type_id":"4","last_reported":1691838240,"current_range_meters":30000,"station_id":"ce4bgop2rcd13ifvqc1g","pricing_plan_id":"free"},{"bike_id":"2e341b8a-19ca-467a-9062-4e524deac17d","system_id":"levelo_inurba_marseille","lat":43.32281,"lon":5.3826,"is_reserved":false,"is_disabled":false,"rental_uris":{"android":"levelo://app?vid=2e341b8a-19ca-467a-9062-4e524deac17d","ios":"levelo://app?vid=2e341b8a-19ca-467a-9062-4e524deac17d"},"vehicle_type_id":"4","last_reported":1691838240,"current_range_meters":28800,"station_id":"ce4bhr12rcd13ifvqhqg","pricing_plan_id":"free"},{"bike_id":"9975e671-4f4e-4442-b7f7-108ef950e1d7","system_id":"levelo_inurba_marseille","lat":43.297163,"lon":5.365866,"is_reserved":false,"is_disabled":false,"rental_uris":{"android":"levelo://app?vid=9975e671-4f4e-4442-b7f7-108ef950e1d7","ios":"levelo://app?vid=9975e671-4f4e-4442-b7f7-108ef950e1d7"},"vehicle_type_id":"4","last_reported":1691838240,"current_range_meters":12800,"station_id":"ce4bgn12rcd13ifvqbt0","pricing_plan_id":"free"},{"bike_id":"6ce43bea-3ac3-40af-80d6-da4ea9b6418f","system_id":"levelo_inurba_marseille","lat":43.297774,"lon":5.370875,"is_reserved":false,"is_disabled":false,"rental_uris":{"android":"levelo://app?vid=6ce43bea-3ac3-40af-80d6-da4ea9b6418f","ios":"levelo://app?vid=6ce43bea-3ac3-40af-80d6-da4ea9b6418f"},"vehicle_type_id":"4","last_reported":1691838240,"current_range_meters":25600,"station_id":"ce4bgop2rcd13ifvqc1g","pricing_plan_id":"free"},{"bike_id":"13ae175a-0609-4f70-9fab-6ba23bad8636","system_id":"levelo_inurba_marseille","lat":43.32287,"lon":5.3826,"is_reserved":false,"is_disabled":false,"rental_uris":{"android":"levelo://app?vid=13ae175a-0609-4f70-9fab-6ba23bad8636","ios":"levelo://app?vid=13ae175a-0609-4f70-9fab-6ba23bad8636"},"vehicle_type_id":"4","last_reported":1691838240,"current_range_meters":22800,"station_id":"ce4bhr12rcd13ifvqhqg","pricing_plan_id":"free"},{"bike_id":"1b203c54-0be7-49b8-a54f-17ca79a8f7f4","system_id":"levelo_inurba_marseille","lat":43.32292,"lon":5.38262,"is_reserved":false,"is_disabled":false,"rental_uris":{"android":"levelo://app?vid=1b203c54-0be7-49b8-a54f-17ca79a8f7f4","ios":"levelo://app?vid=1b203c54-0be7-49b8-a54f-17ca79a8f7f4"},"vehicle_type_id":"4","last_reported":1691838240,"current_range_meters":21600,"station_id":"ce4bhr12rcd13ifvqhqg","pricing_plan_id":"free"},{"bike_id":"34544adb-53d3-44b1-86f1-bb8bc7dbf546","system_id":"levelo_inurba_marseille","lat":43.32291,"lon":5.38265,"is_reserved":false,"is_disabled":false,"rental_uris":{"android":"levelo://app?vid=34544adb-53d3-44b1-86f1-bb8bc7dbf546","ios":"levelo://app?vid=34544adb-53d3-44b1-86f1-bb8bc7dbf546"},"vehicle_type_id":"4","last_reported":1691838240,"current_range_meters":25600,"station_id":"ce4bhr12rcd13ifvqhqg","pricing_plan_id":"free"},{"bike_id":"ccde4fab-a619-4b85-80d1-631ae22c1186","system_id":"levelo_inurba_marseille","lat":43.32289,"lon":5.38269,"is_reserved":false,"is_disabled":false,"rental_uris":{"android":"levelo://app?vid=ccde4fab-a619-4b85-80d1-631ae22c1186","ios":"levelo://app?vid=ccde4fab-a619-4b85-80d1-631ae22c1186"},"vehicle_type_id":"4","last_reported":1691838240,"current_range_meters":19600,"station_id":"ce4bhr12rcd13ifvqhqg","pricing_plan_id":"free"},{"bike_id":"daf1c66e-67e4-446b-ab69-51ad2a5f2181","system_id":"levelo_inurba_marseille","lat":43.32287,"lon":5.38273,"is_reserved":false,"is_disabled":false,"rental_uris":{"android":"levelo://app?vid=daf1c66e-67e4-446b-ab69-51ad2a5f2181","ios":"levelo://app?vid=daf1c66e-67e4-446b-ab69-51ad2a5f2181"},"vehicle_type_id":"4","last_reported":1691838240,"current_range_meters":27200,"station_id":"ce4bhr12rcd13ifvqhqg","pricing_plan_id":"free"},{"bike_id":"4c0051b2-93b8-4cc5-a80a-2595421ac1f5","system_id":"levelo_inurba_marseille","lat":43.322872,"lon":5.382756,"is_reserved":false,"is_disabled":false,"rental_uris":{"android":"levelo://app?vid=4c0051b2-93b8-4cc5-a80a-2595421ac1f5","ios":"levelo://app?vid=4c0051b2-93b8-4cc5-a80a-2595421ac1f5"},"vehicle_type_id":"4","last_reported":1691838240,"current_range_meters":26000,"station_id":"ce4bhr12rcd13ifvqhqg","pricing_plan_id":"free"},{"bike_id":"2a877c10-47b3-4336-884b-4186f2d4f096","system_id":"levelo_inurba_marseille","lat":43.32288,"lon":5.38274,"is_reserved":false,"is_disabled":false,"rental_uris":{"android":"levelo://app?vid=2a877c10-47b3-4336-884b-4186f2d4f096","ios":"levelo://app?vid=2a877c10-47b3-4336-884b-4186f2d4f096"},"vehicle_type_id":"4","last_reported":1691838240,"current_range_meters":15600,"station_id":"ce4bhr12rcd13ifvqhqg","pricing_plan_id":"free"},{"bike_id":"cbdb1e2e-23aa-4305-8e8f-f1f9efca0a4f","system_id":"levelo_inurba_marseille","lat":43.322872,"lon":5.382756,"is_reserved":false,"is_disabled":false,"rental_uris":{"android":"levelo://app?vid=cbdb1e2e-23aa-4305-8e8f-f1f9efca0a4f","ios":"levelo://app?vid=cbdb1e2e-23aa-4305-8e8f-f1f9efca0a4f"},"vehicle_type_id":"4","last_reported":1691838240,"current_range_meters":23600,"station_id":"ce4bhr12rcd13ifvqhqg","pricing_plan_id":"free"},{"bike_id":"3d75ec31-9bc5-447c-81ba-d21539df621f","system_id":"levelo_inurba_marseille","lat":43.3229,"lon":5.38278,"is_reserved":false,"is_disabled":false,"rental_uris":{"android":"levelo://app?vid=3d75ec31-9bc5-447c-81ba-d21539df621f","ios":"levelo://app?vid=3d75ec31-9bc5-447c-81ba-d21539df621f"},"vehicle_type_id":"4","last_reported":1691838240,"current_range_meters":11200,"station_id":"ce4bhr12rcd13ifvqhqg","pricing_plan_id":"free"},{"bike_id":"5cef4262-f054-4974-9121-fc3d341ebbb0","system_id":"levelo_inurba_marseille","lat":43.32297,"lon":5.38272,"is_reserved":false,"is_disabled":false,"rental_uris":{"android":"levelo://app?vid=5cef4262-f054-4974-9121-fc3d341ebbb0","ios":"levelo://app?vid=5cef4262-f054-4974-9121-fc3d341ebbb0"},"vehicle_type_id":"4","last_reported":1691838240,"current_range_meters":14000,"station_id":"ce4bhr12rcd13ifvqhqg","pricing_plan_id":"free"},{"bike_id":"63b63e6c-c5a9-49f5-8d21-3106e36d3542","system_id":"levelo_inurba_marseille","lat":43.322872,"lon":5.382756,"is_reserved":false,"is_disabled":false,"rental_uris":{"android":"levelo://app?vid=63b63e6c-c5a9-49f5-8d21-3106e36d3542","ios":"levelo://app?vid=63b63e6c-c5a9-49f5-8d21-3106e36d3542"},"vehicle_type_id":"4","last_reported":1691838240,"current_range_meters":26000,"station_id":"ce4bhr12rcd13ifvqhqg","pricing_plan_id":"free"},{"bike_id":"454e4186-321d-4414-91ad-51d1deee69be","system_id":"levelo_inurba_marseille","lat":43.32295,"lon":5.38282,"is_reserved":false,"is_disabled":false,"rental_uris":{"android":"levelo://app?vid=454e4186-321d-4414-91ad-51d1deee69be","ios":"levelo://app?vid=454e4186-321d-4414-91ad-51d1deee69be"},"vehicle_type_id":"4","last_reported":1691838240,"current_range_meters":30000,"station_id":"ce4bhr12rcd13ifvqhqg","pricing_plan_id":"free"},{"bike_id":"422b9631-37da-4846-8b0d-9b68720b030e","system_id":"levelo_inurba_marseille","lat":43.328371,"lon":5.366909,"is_reserved":false,"is_disabled":false,"rental_uris":{"android":"levelo://app?vid=422b9631-37da-4846-8b0d-9b68720b030e","ios":"levelo://app?vid=422b9631-37da-4846-8b0d-9b68720b030e"},"vehicle_type_id":"4","last_reported":1691838240,"current_range_meters":12400,"station_id":"ce4bhs92rcd13ifvqi0g","pricing_plan_id":"free"},{"bike_id":"4c5c4962-d88d-4f7a-80e6-8df1c7397aa2","system_id":"levelo_inurba_marseille","lat":43.297163,"lon":5.365866,"is_reserved":false,"is_disabled":false,"rental_uris":{"android":"levelo://app?vid=4c5c4962-d88d-4f7a-80e6-8df1c7397aa2","ios":"levelo://app?vid=4c5c4962-d88d-4f7a-80e6-8df1c7397aa2"},"vehicle_type_id":"4","last_reported":1691838240,"current_range_meters":31200,"station_id":"ce4bgn12rcd13ifvqbt0","pricing_plan_id":"free"},{"bike_id":"a493960b-60ec-4462-ab2e-61a3b7e03e0b","system_id":"levelo_inurba_marseille","lat":43.297163,"lon":5.365866,"is_reserved":false,"is_disabled":false,"rental_uris":{"android":"levelo://app?vid=a493960b-60ec-4462-ab2e-61a3b7e03e0b","ios":"levelo://app?vid=a493960b-60ec-4462-ab2e-61a3b7e03e0b"},"vehicle_type_id":"4","last_reported":1691838240,"current_range_meters":29200,"station_id":"ce4bgn12rcd13ifvqbt0","pricing_plan_id":"free"},{"bike_id":"db9d9e4f-cd69-4fd6-9692-c179b7ed11db","system_id":"levelo_inurba_marseille","lat":43.297163,"lon":5.365866,"is_reserved":false,"is_disabled":false,"rental_uris":{"android":"levelo://app?vid=db9d9e4f-cd69-4fd6-9692-c179b7ed11db","ios":"levelo://app?vid=db9d9e4f-cd69-4fd6-9692-c179b7ed11db"},"vehicle_type_id":"4","last_reported":1691838240,"current_range_meters":15200,"station_id":"ce4bgn12rcd13ifvqbt0","pricing_plan_id":"free"},{"bike_id":"6f09d763-1d24-48e6-a6b3-1ea22cc5af16","system_id":"levelo_inurba_marseille","lat":43.297163,"lon":5.365866,"is_reserved":false,"is_disabled":false,"rental_uris":{"android":"levelo://app?vid=6f09d763-1d24-48e6-a6b3-1ea22cc5af16","ios":"levelo://app?vid=6f09d763-1d24-48e6-a6b3-1ea22cc5af16"},"vehicle_type_id":"4","last_reported":1691838240,"current_range_meters":25600,"station_id":"ce4bgn12rcd13ifvqbt0","pricing_plan_id":"free"},{"bike_id":"adf5f5b5-dc76-462d-826a-5dc6c289c831","system_id":"levelo_inurba_marseille","lat":43.297163,"lon":5.365866,"is_reserved":false,"is_disabled":false,"rental_uris":{"android":"levelo://app?vid=adf5f5b5-dc76-462d-826a-5dc6c289c831","ios":"levelo://app?vid=adf5f5b5-dc76-462d-826a-5dc6c289c831"},"vehicle_type_id":"4","last_reported":1691838240,"current_range_meters":28400,"station_id":"ce4bgn12rcd13ifvqbt0","pricing_plan_id":"free"},{"bike_id":"dd789220-e7b5-42c1-b9dc-dc4243148021","system_id":"levelo_inurba_marseille","lat":43.297163,"lon":5.365866,"is_reserved":false,"is_disabled":false,"rental_uris":{"android":"levelo://app?vid=dd789220-e7b5-42c1-b9dc-dc4243148021","ios":"levelo://app?vid=dd789220-e7b5-42c1-b9dc-dc4243148021"},"vehicle_type_id":"4","last_reported":1691838240,"current_range_meters":31600,"station_id":"ce4bgn12rcd13ifvqbt0","pricing_plan_id":"free"},{"bike_id":"2e89e9c3-3ace-4182-9ced-8eff1ec170e0","system_id":"levelo_inurba_marseille","lat":43.297163,"lon":5.365866,"is_reserved":false,"is_disabled":false,"rental_uris":{"android":"levelo://app?vid=2e89e9c3-3ace-4182-9ced-8eff1ec170e0","ios":"levelo://app?vid=2e89e9c3-3ace-4182-9ced-8eff1ec170e0"},"vehicle_type_id":"4","last_reported":1691838240,"current_range_meters":20000,"station_id":"ce4bgn12rcd13ifvqbt0","pricing_plan_id":"free"},{"bike_id":"b428ddc8-83c6-453c-b5dd-cb14751b674f","system_id":"levelo_inurba_marseille","lat":43.29692,"lon":5.36949,"is_reserved":false,"is_disabled":false,"rental_uris":{"android":"levelo://app?vid=b428ddc8-83c6-453c-b5dd-cb14751b674f","ios":"levelo://app?vid=b428ddc8-83c6-453c-b5dd-cb14751b674f"},"vehicle_type_id":"4","last_reported":1691838240,"current_range_meters":1200,"station_id":"","pricing_plan_id":"free"},{"bike_id":"4546f8c1-0a9e-45be-b4bd-18c11f686c5c","system_id":"levelo_inurba_marseille","lat":43.29681,"lon":5.36557,"is_reserved":false,"is_disabled":false,"rental_uris":{"android":"levelo://app?vid=4546f8c1-0a9e-45be-b4bd-18c11f686c5c","ios":"levelo://app?vid=4546f8c1-0a9e-45be-b4bd-18c11f686c5c"},"vehicle_type_id":"4","last_reported":1691838240,"current_range_meters":4000,"station_id":"ce4bgn12rcd13ifvqbt0","pricing_plan_id":"free"},{"bike_id":"b04bf73a-e760-4c9f-8693-e770a3f8b7a1","system_id":"levelo_inurba_marseille","lat":43.2968,"lon":5.37291,"is_reserved":false,"is_disabled":false,"rental_uris":{"android":"levelo://app?vid=b04bf73a-e760-4c9f-8693-e770a3f8b7a1","ios":"levelo://app?vid=b04bf73a-e760-4c9f-8693-e770a3f8b7a1"},"vehicle_type_id":"4","last_reported":1691838240,"current_range_meters":31200,"station_id":"ce4bgk12rcd13ifvqbj0","pricing_plan_id":"free"},{"bike_id":"d4b174c0-7f16-45ee-88d8-e5ba73395d66","system_id":"levelo_inurba_marseille","lat":43.2968,"lon":5.37291,"is_reserved":false,"is_disabled":false,"rental_uris":{"android":"levelo://app?vid=d4b174c0-7f16-45ee-88d8-e5ba73395d66","ios":"levelo://app?vid=d4b174c0-7f16-45ee-88d8-e5ba73395d66"},"vehicle_type_id":"4","last_reported":1691838240,"current_range_meters":30800,"station_id":"ce4bgk12rcd13ifvqbj0","pricing_plan_id":"free"},{"bike_id":"6bc76ae5-33d9-4995-b0fb-b5bf1a728aae","system_id":"levelo_inurba_marseille","lat":43.2968,"lon":5.37291,"is_reserved":false,"is_disabled":false,"rental_uris":{"android":"levelo://app?vid=6bc76ae5-33d9-4995-b0fb-b5bf1a728aae","ios":"levelo://app?vid=6bc76ae5-33d9-4995-b0fb-b5bf1a728aae"},"vehicle_type_id":"4","last_reported":1691838240,"current_range_meters":30800,"station_id":"ce4bgk12rcd13ifvqbj0","pricing_plan_id":"free"},{"bike_id":"229311ef-fba8-4e89-ae9a-8ef6f7af72ac","system_id":"levelo_inurba_marseille","lat":43.2968,"lon":5.37291,"is_reserved":false,"is_disabled":false,"rental_uris":{"android":"levelo://app?vid=229311ef-fba8-4e89-ae9a-8ef6f7af72ac","ios":"levelo://app?vid=229311ef-fba8-4e89-ae9a-8ef6f7af72ac"},"vehicle_type_id":"4","last_reported":1691838240,"current_range_meters":31200,"station_id":"ce4bgk12rcd13ifvqbj0","pricing_plan_id":"free"},{"bike_id":"6f2fa02b-c871-4260-a8ea-5dd6e35608a8","system_id":"levelo_inurba_marseille","lat":43.2968,"lon":5.37291,"is_reserved":false,"is_disabled":false,"rental_uris":{"android":"levelo://app?vid=6f2fa02b-c871-4260-a8ea-5dd6e35608a8","ios":"levelo://app?vid=6f2fa02b-c871-4260-a8ea-5dd6e35608a8"},"vehicle_type_id":"4","last_reported":1691838240,"current_range_meters":30400,"station_id":"ce4bgk12rcd13ifvqbj0","pricing_plan_id":"free"},{"bike_id":"afab7a54-4c8d-4f7f-b8d7-3245b4cb69a8","system_id":"levelo_inurba_marseille","lat":43.2968,"lon":5.37291,"is_reserved":false,"is_disabled":false,"rental_uris":{"android":"levelo://app?vid=afab7a54-4c8d-4f7f-b8d7-3245b4cb69a8","ios":"levelo://app?vid=afab7a54-4c8d-4f7f-b8d7-3245b4cb69a8"},"vehicle_type_id":"4","last_reported":1691838240,"current_range_meters":8800,"station_id":"ce4bgk12rcd13ifvqbj0","pricing_plan_id":"free"},{"bike_id":"721e2df0-27b6-41b1-8789-05ab2c723e3a","system_id":"levelo_inurba_marseille","lat":43.296131,"lon":5.370791,"is_reserved":false,"is_disabled":false,"rental_uris":{"android":"levelo://app?vid=721e2df0-27b6-41b1-8789-05ab2c723e3a","ios":"levelo://app?vid=721e2df0-27b6-41b1-8789-05ab2c723e3a"},"vehicle_type_id":"4","last_reported":1691838240,"current_range_meters":31200,"station_id":"ce4bgnh2rcd13ifvqc0g","pricing_plan_id":"free"},{"bike_id":"16effb08-ca91-4db4-9a0d-f7bfe32382ee","system_id":"levelo_inurba_marseille","lat":43.296131,"lon":5.370791,"is_reserved":false,"is_disabled":false,"rental_uris":{"android":"levelo://app?vid=16effb08-ca91-4db4-9a0d-f7bfe32382ee","ios":"levelo://app?vid=16effb08-ca91-4db4-9a0d-f7bfe32382ee"},"vehicle_type_id":"4","last_reported":1691838240,"current_range_meters":31600,"station_id":"ce4bgnh2rcd13ifvqc0g","pricing_plan_id":"free"},{"bike_id":"2d192db2-2d2d-4464-9b49-1ca5b787c4d0","system_id":"levelo_inurba_marseille","lat":43.296131,"lon":5.370791,"is_reserved":false,"is_disabled":false,"rental_uris":{"android":"levelo://app?vid=2d192db2-2d2d-4464-9b49-1ca5b787c4d0","ios":"levelo://app?vid=2d192db2-2d2d-4464-9b49-1ca5b787c4d0"},"vehicle_type_id":"4","last_reported":1691838240,"current_range_meters":20800,"station_id":"ce4bgnh2rcd13ifvqc0g","pricing_plan_id":"free"},{"bike_id":"f4ba569a-fce2-4501-9710-72d63179c617","system_id":"levelo_inurba_marseille","lat":43.29588,"lon":5.36748,"is_reserved":false,"is_disabled":false,"rental_uris":{"android":"levelo://app?vid=f4ba569a-fce2-4501-9710-72d63179c617","ios":"levelo://app?vid=f4ba569a-fce2-4501-9710-72d63179c617"},"vehicle_type_id":"4","last_reported":1691838240,"current_range_meters":14400,"station_id":"ce4bgph2rcd13ifvqc2g","pricing_plan_id":"free"},{"bike_id":"dd60348f-7e7c-47ef-ac85-dec8259d457c","system_id":"levelo_inurba_marseille","lat":43.296131,"lon":5.370791,"is_reserved":false,"is_disabled":false,"rental_uris":{"android":"levelo://app?vid=dd60348f-7e7c-47ef-ac85-dec8259d457c","ios":"levelo://app?vid=dd60348f-7e7c-47ef-ac85-dec8259d457c"},"vehicle_type_id":"4","last_reported":1691838240,"current_range_meters":31600,"station_id":"ce4bgnh2rcd13ifvqc0g","pricing_plan_id":"free"},{"bike_id":"ec961057-5b4c-463f-84ee-d18ce9d84eaa","system_id":"levelo_inurba_marseille","lat":43.296131,"lon":5.370791,"is_reserved":false,"is_disabled":false,"rental_uris":{"android":"levelo://app?vid=ec961057-5b4c-463f-84ee-d18ce9d84eaa","ios":"levelo://app?vid=ec961057-5b4c-463f-84ee-d18ce9d84eaa"},"vehicle_type_id":"4","last_reported":1691838240,"current_range_meters":31600,"station_id":"ce4bgnh2rcd13ifvqc0g","pricing_plan_id":"free"},{"bike_id":"0e9f3cc2-2dfd-462a-b342-d65a669136e6","system_id":"levelo_inurba_marseille","lat":43.29573,"lon":5.367355,"is_reserved":false,"is_disabled":false,"rental_uris":{"android":"levelo://app?vid=0e9f3cc2-2dfd-462a-b342-d65a669136e6","ios":"levelo://app?vid=0e9f3cc2-2dfd-462a-b342-d65a669136e6"},"vehicle_type_id":"4","last_reported":1691838240,"current_range_meters":23600,"station_id":"ce4bgph2rcd13ifvqc2g","pricing_plan_id":"free"},{"bike_id":"20a53af9-9d97-4695-b3ab-944e827b6c56","system_id":"levelo_inurba_marseille","lat":43.29583,"lon":5.36743,"is_reserved":false,"is_disabled":false,"rental_uris":{"android":"levelo://app?vid=20a53af9-9d97-4695-b3ab-944e827b6c56","ios":"levelo://app?vid=20a53af9-9d97-4695-b3ab-944e827b6c56"},"vehicle_type_id":"4","last_reported":1691838240,"current_range_meters":28800,"station_id":"ce4bgph2rcd13ifvqc2g","pricing_plan_id":"free"},{"bike_id":"0ae03b24-3add-48d3-a1e7-72b5689466b2","system_id":"levelo_inurba_marseille","lat":43.29582,"lon":5.3674,"is_reserved":false,"is_disabled":false,"rental_uris":{"android":"levelo://app?vid=0ae03b24-3add-48d3-a1e7-72b5689466b2","ios":"levelo://app?vid=0ae03b24-3add-48d3-a1e7-72b5689466b2"},"vehicle_type_id":"4","last_reported":1691838240,"current_range_meters":30000,"station_id":"ce4bgph2rcd13ifvqc2g","pricing_plan_id":"free"},{"bike_id":"a80a8932-a4e8-4b82-97db-83c345314e73","system_id":"levelo_inurba_marseille","lat":43.29573,"lon":5.367355,"is_reserved":false,"is_disabled":false,"rental_uris":{"android":"levelo://app?vid=a80a8932-a4e8-4b82-97db-83c345314e73","ios":"levelo://app?vid=a80a8932-a4e8-4b82-97db-83c345314e73"},"vehicle_type_id":"4","last_reported":1691838240,"current_range_meters":30400,"station_id":"ce4bgph2rcd13ifvqc2g","pricing_plan_id":"free"},{"bike_id":"c5f507f2-9484-472e-972d-3cdb963cfc17","system_id":"levelo_inurba_marseille","lat":43.29573,"lon":5.367355,"is_reserved":false,"is_disabled":false,"rental_uris":{"android":"levelo://app?vid=c5f507f2-9484-472e-972d-3cdb963cfc17","ios":"levelo://app?vid=c5f507f2-9484-472e-972d-3cdb963cfc17"},"vehicle_type_id":"4","last_reported":1691838240,"current_range_meters":16800,"station_id":"ce4bgph2rcd13ifvqc2g","pricing_plan_id":"free"},{"bike_id":"12fca121-73e1-4e56-aae1-0ddc593f3192","system_id":"levelo_inurba_marseille","lat":43.29573,"lon":5.367355,"is_reserved":false,"is_disabled":false,"rental_uris":{"android":"levelo://app?vid=12fca121-73e1-4e56-aae1-0ddc593f3192","ios":"levelo://app?vid=12fca121-73e1-4e56-aae1-0ddc593f3192"},"vehicle_type_id":"4","last_reported":1691838240,"current_range_meters":25200,"station_id":"ce4bgph2rcd13ifvqc2g","pricing_plan_id":"free"},{"bike_id":"32d21aa4-d2b6-47cd-a1b7-da588bad5e29","system_id":"levelo_inurba_marseille","lat":43.299028,"lon":5.381509,"is_reserved":false,"is_disabled":false,"rental_uris":{"android":"levelo://app?vid=32d21aa4-d2b6-47cd-a1b7-da588bad5e29","ios":"levelo://app?vid=32d21aa4-d2b6-47cd-a1b7-da588bad5e29"},"vehicle_type_id":"4","last_reported":1691838240,"current_range_meters":30400,"station_id":"ce4bgj12rcd13ifvqbc0","pricing_plan_id":"free"},{"bike_id":"b705385e-42d2-40c7-b07d-dd22f7d0f219","system_id":"levelo_inurba_marseille","lat":43.30958,"lon":5.39027,"is_reserved":false,"is_disabled":false,"rental_uris":{"android":"levelo://app?vid=b705385e-42d2-40c7-b07d-dd22f7d0f219","ios":"levelo://app?vid=b705385e-42d2-40c7-b07d-dd22f7d0f219"},"vehicle_type_id":"4","last_reported":1691838240,"current_range_meters":21600,"station_id":"ce4bgup2rcd13ifvqco0","pricing_plan_id":"free"},{"bike_id":"e513f26e-415d-4150-9ded-039ddc3aea29","system_id":"levelo_inurba_marseille","lat":43.309589,"lon":5.390258,"is_reserved":false,"is_disabled":false,"rental_uris":{"android":"levelo://app?vid=e513f26e-415d-4150-9ded-039ddc3aea29","ios":"levelo://app?vid=e513f26e-415d-4150-9ded-039ddc3aea29"},"vehicle_type_id":"4","last_reported":1691838240,"current_range_meters":31200,"station_id":"ce4bgup2rcd13ifvqco0","pricing_plan_id":"free"},{"bike_id":"347caec0-ad4b-47f8-851a-685542ff20d7","system_id":"levelo_inurba_marseille","lat":43.296921,"lon":5.376579,"is_reserved":false,"is_disabled":false,"rental_uris":{"android":"levelo://app?vid=347caec0-ad4b-47f8-851a-685542ff20d7","ios":"levelo://app?vid=347caec0-ad4b-47f8-851a-685542ff20d7"},"vehicle_type_id":"4","last_reported":1691838240,"current_range_meters":30000,"station_id":"ce4bgkh2rcd13ifvqbl0","pricing_plan_id":"free"},{"bike_id":"bbcbcac3-9bf3-4bb3-80c6-5731c6b15540","system_id":"levelo_inurba_marseille","lat":43.30956,"lon":5.39039,"is_reserved":false,"is_disabled":false,"rental_uris":{"android":"levelo://app?vid=bbcbcac3-9bf3-4bb3-80c6-5731c6b15540","ios":"levelo://app?vid=bbcbcac3-9bf3-4bb3-80c6-5731c6b15540"},"vehicle_type_id":"4","last_reported":1691838240,"current_range_meters":22400,"station_id":"ce4bgup2rcd13ifvqco0","pricing_plan_id":"free"},{"bike_id":"69822f6c-803f-4b06-b861-0df3407f6868","system_id":"levelo_inurba_marseille","lat":43.29638,"lon":5.37494,"is_reserved":false,"is_disabled":false,"rental_uris":{"android":"levelo://app?vid=69822f6c-803f-4b06-b861-0df3407f6868","ios":"levelo://app?vid=69822f6c-803f-4b06-b861-0df3407f6868"},"vehicle_type_id":"4","last_reported":1691838240,"current_range_meters":1200,"station_id":"","pricing_plan_id":"free"},{"bike_id":"c3bd3e16-8a16-4e4f-aba7-7745abf80012","system_id":"levelo_inurba_marseille","lat":43.317557,"lon":5.390173,"is_reserved":false,"is_disabled":false,"rental_uris":{"android":"levelo://app?vid=c3bd3e16-8a16-4e4f-aba7-7745abf80012","ios":"levelo://app?vid=c3bd3e16-8a16-4e4f-aba7-7745abf80012"},"vehicle_type_id":"4","last_reported":1691838240,"current_range_meters":31200,"station_id":"ce4bhqp2rcd13ifvqhng","pricing_plan_id":"free"},{"bike_id":"46023004-3940-4319-83ac-9851137ce136","system_id":"levelo_inurba_marseille","lat":43.317557,"lon":5.390173,"is_reserved":false,"is_disabled":false,"rental_uris":{"android":"levelo://app?vid=46023004-3940-4319-83ac-9851137ce136","ios":"levelo://app?vid=46023004-3940-4319-83ac-9851137ce136"},"vehicle_type_id":"4","last_reported":1691838240,"current_range_meters":30000,"station_id":"ce4bhqp2rcd13ifvqhng","pricing_plan_id":"free"},{"bike_id":"b71b4e1a-5dd4-4c5a-88e4-d5cfd2dee645","system_id":"levelo_inurba_marseille","lat":43.317557,"lon":5.390173,"is_reserved":false,"is_disabled":false,"rental_uris":{"android":"levelo://app?vid=b71b4e1a-5dd4-4c5a-88e4-d5cfd2dee645","ios":"levelo://app?vid=b71b4e1a-5dd4-4c5a-88e4-d5cfd2dee645"},"vehicle_type_id":"4","last_reported":1691838240,"current_range_meters":31200,"station_id":"ce4bhqp2rcd13ifvqhng","pricing_plan_id":"free"},{"bike_id":"76ff3b14-d346-4134-b772-5805eda4f7f2","system_id":"levelo_inurba_marseille","lat":43.31757,"lon":5.39023,"is_reserved":false,"is_disabled":false,"rental_uris":{"android":"levelo://app?vid=76ff3b14-d346-4134-b772-5805eda4f7f2","ios":"levelo://app?vid=76ff3b14-d346-4134-b772-5805eda4f7f2"},"vehicle_type_id":"4","last_reported":1691838240,"current_range_meters":28800,"station_id":"ce4bhqp2rcd13ifvqhng","pricing_plan_id":"free"},{"bike_id":"8342d642-f339-4e60-9b79-767ab319c573","system_id":"levelo_inurba_marseille","lat":43.29583,"lon":5.37491,"is_reserved":false,"is_disabled":false,"rental_uris":{"android":"levelo://app?vid=8342d642-f339-4e60-9b79-767ab319c573","ios":"levelo://app?vid=8342d642-f339-4e60-9b79-767ab319c573"},"vehicle_type_id":"4","last_reported":1691838240,"current_range_meters":27600,"station_id":"ce4bgh92rcd13ifvqb50","pricing_plan_id":"free"},{"bike_id":"af4d9454-b750-4948-b593-f39d7c87bc61","system_id":"levelo_inurba_marseille","lat":43.298037,"lon":5.381066,"is_reserved":false,"is_disabled":false,"rental_uris":{"android":"levelo://app?vid=af4d9454-b750-4948-b593-f39d7c87bc61","ios":"levelo://app?vid=af4d9454-b750-4948-b593-f39d7c87bc61"},"vehicle_type_id":"4","last_reported":1691838240,"current_range_meters":16000,"station_id":"ce4bgip2rcd13ifvqbb0","pricing_plan_id":"free"},{"bike_id":"07e95b34-0c63-48cd-82b4-5992e272461c","system_id":"levelo_inurba_marseille","lat":43.298037,"lon":5.381066,"is_reserved":false,"is_disabled":false,"rental_uris":{"android":"levelo://app?vid=07e95b34-0c63-48cd-82b4-5992e272461c","ios":"levelo://app?vid=07e95b34-0c63-48cd-82b4-5992e272461c"},"vehicle_type_id":"4","last_reported":1691838240,"current_range_meters":16000,"station_id":"ce4bgip2rcd13ifvqbb0","pricing_plan_id":"free"},{"bike_id":"67b3a264-f627-46d2-a4bc-47c7f40d0c41","system_id":"levelo_inurba_marseille","lat":43.29578,"lon":5.37507,"is_reserved":false,"is_disabled":false,"rental_uris":{"android":"levelo://app?vid=67b3a264-f627-46d2-a4bc-47c7f40d0c41","ios":"levelo://app?vid=67b3a264-f627-46d2-a4bc-47c7f40d0c41"},"vehicle_type_id":"4","last_reported":1691838240,"current_range_meters":30000,"station_id":"ce4bgh92rcd13ifvqb50","pricing_plan_id":"free"},{"bike_id":"78830115-cbb6-4580-91d5-e009fac90f03","system_id":"levelo_inurba_marseille","lat":43.295748,"lon":5.37522,"is_reserved":false,"is_disabled":false,"rental_uris":{"android":"levelo://app?vid=78830115-cbb6-4580-91d5-e009fac90f03","ios":"levelo://app?vid=78830115-cbb6-4580-91d5-e009fac90f03"},"vehicle_type_id":"4","last_reported":1691838240,"current_range_meters":26000,"station_id":"ce4bgh92rcd13ifvqb50","pricing_plan_id":"free"},{"bike_id":"5cca3613-605c-4fee-bca5-d2e3168f10a8","system_id":"levelo_inurba_marseille","lat":43.29575,"lon":5.37516,"is_reserved":false,"is_disabled":false,"rental_uris":{"android":"levelo://app?vid=5cca3613-605c-4fee-bca5-d2e3168f10a8","ios":"levelo://app?vid=5cca3613-605c-4fee-bca5-d2e3168f10a8"},"vehicle_type_id":"4","last_reported":1691838240,"current_range_meters":21200,"station_id":"ce4bgh92rcd13ifvqb50","pricing_plan_id":"free"},{"bike_id":"4650a009-7c06-4b39-a33c-77d55e298c9c","system_id":"levelo_inurba_marseille","lat":43.29574,"lon":5.37514,"is_reserved":false,"is_disabled":false,"rental_uris":{"android":"levelo://app?vid=4650a009-7c06-4b39-a33c-77d55e298c9c","ios":"levelo://app?vid=4650a009-7c06-4b39-a33c-77d55e298c9c"},"vehicle_type_id":"4","last_reported":1691838240,"current_range_meters":2400,"station_id":"ce4bgh92rcd13ifvqb50","pricing_plan_id":"free"},{"bike_id":"fb838682-0cd1-4178-a41b-87650e1e56fc","system_id":"levelo_inurba_marseille","lat":43.295748,"lon":5.37522,"is_reserved":false,"is_disabled":false,"rental_uris":{"android":"levelo://app?vid=fb838682-0cd1-4178-a41b-87650e1e56fc","ios":"levelo://app?vid=fb838682-0cd1-4178-a41b-87650e1e56fc"},"vehicle_type_id":"4","last_reported":1691838240,"current_range_meters":31200,"station_id":"ce4bgh92rcd13ifvqb50","pricing_plan_id":"free"},{"bike_id":"be8ffa18-a8cb-4c1a-b15d-0a7b4da245af","system_id":"levelo_inurba_marseille","lat":43.296277,"lon":5.377108,"is_reserved":false,"is_disabled":false,"rental_uris":{"android":"levelo://app?vid=be8ffa18-a8cb-4c1a-b15d-0a7b4da245af","ios":"levelo://app?vid=be8ffa18-a8cb-4c1a-b15d-0a7b4da245af"},"vehicle_type_id":"4","last_reported":1691838240,"current_range_meters":24000,"station_id":"ce4bgi92rcd13ifvqb90","pricing_plan_id":"free"},{"bike_id":"ab62bb22-f17d-45b7-9562-49eb38d10431","system_id":"levelo_inurba_marseille","lat":43.29571,"lon":5.37525,"is_reserved":false,"is_disabled":false,"rental_uris":{"android":"levelo://app?vid=ab62bb22-f17d-45b7-9562-49eb38d10431","ios":"levelo://app?vid=ab62bb22-f17d-45b7-9562-49eb38d10431"},"vehicle_type_id":"4","last_reported":1691838240,"current_range_meters":22800,"station_id":"ce4bgh92rcd13ifvqb50","pricing_plan_id":"free"},{"bike_id":"a1c3a2b7-2c65-48df-9871-194368977047","system_id":"levelo_inurba_marseille","lat":43.29568,"lon":5.37517,"is_reserved":false,"is_disabled":false,"rental_uris":{"android":"levelo://app?vid=a1c3a2b7-2c65-48df-9871-194368977047","ios":"levelo://app?vid=a1c3a2b7-2c65-48df-9871-194368977047"},"vehicle_type_id":"4","last_reported":1691838240,"current_range_meters":27600,"station_id":"ce4bgh92rcd13ifvqb50","pricing_plan_id":"free"},{"bike_id":"fa2b2935-1fb2-4679-ae9b-6c6ff9b64cf4","system_id":"levelo_inurba_marseille","lat":43.29563,"lon":5.37515,"is_reserved":false,"is_disabled":false,"rental_uris":{"android":"levelo://app?vid=fa2b2935-1fb2-4679-ae9b-6c6ff9b64cf4","ios":"levelo://app?vid=fa2b2935-1fb2-4679-ae9b-6c6ff9b64cf4"},"vehicle_type_id":"4","last_reported":1691838240,"current_range_meters":20000,"station_id":"ce4bgh92rcd13ifvqb50","pricing_plan_id":"free"},{"bike_id":"a4df99ce-0488-49dd-a888-94686f562e88","system_id":"levelo_inurba_marseille","lat":43.295748,"lon":5.37522,"is_reserved":false,"is_disabled":false,"rental_uris":{"android":"levelo://app?vid=a4df99ce-0488-49dd-a888-94686f562e88","ios":"levelo://app?vid=a4df99ce-0488-49dd-a888-94686f562e88"},"vehicle_type_id":"4","last_reported":1691838240,"current_range_meters":30000,"station_id":"ce4bgh92rcd13ifvqb50","pricing_plan_id":"free"},{"bike_id":"3b9fdad6-79f9-48ea-bc03-54c67373af2d","system_id":"levelo_inurba_marseille","lat":43.29563,"lon":5.37525,"is_reserved":false,"is_disabled":false,"rental_uris":{"android":"levelo://app?vid=3b9fdad6-79f9-48ea-bc03-54c67373af2d","ios":"levelo://app?vid=3b9fdad6-79f9-48ea-bc03-54c67373af2d"},"vehicle_type_id":"4","last_reported":1691838240,"current_range_meters":17600,"station_id":"ce4bgh92rcd13ifvqb50","pricing_plan_id":"free"},{"bike_id":"a91bb534-1e44-4607-91c5-4814e0a406a7","system_id":"levelo_inurba_marseille","lat":43.296277,"lon":5.377108,"is_reserved":false,"is_disabled":false,"rental_uris":{"android":"levelo://app?vid=a91bb534-1e44-4607-91c5-4814e0a406a7","ios":"levelo://app?vid=a91bb534-1e44-4607-91c5-4814e0a406a7"},"vehicle_type_id":"4","last_reported":1691838240,"current_range_meters":28400,"station_id":"ce4bgi92rcd13ifvqb90","pricing_plan_id":"free"},{"bike_id":"16c1ade3-3851-45ee-b1d1-9752bc064cd7","system_id":"levelo_inurba_marseille","lat":43.296263,"lon":5.377094,"is_reserved":false,"is_disabled":false,"rental_uris":{"android":"levelo://app?vid=16c1ade3-3851-45ee-b1d1-9752bc064cd7","ios":"levelo://app?vid=16c1ade3-3851-45ee-b1d1-9752bc064cd7"},"vehicle_type_id":"4","last_reported":1691838240,"current_range_meters":13200,"station_id":"ce4bgi92rcd13ifvqb90","pricing_plan_id":"free"},{"bike_id":"ff21772d-bd88-4474-888a-332a43b5849f","system_id":"levelo_inurba_marseille","lat":43.2961,"lon":5.37724,"is_reserved":false,"is_disabled":false,"rental_uris":{"android":"levelo://app?vid=ff21772d-bd88-4474-888a-332a43b5849f","ios":"levelo://app?vid=ff21772d-bd88-4474-888a-332a43b5849f"},"vehicle_type_id":"4","last_reported":1691838240,"current_range_meters":19200,"station_id":"ce4bgi92rcd13ifvqb90","pricing_plan_id":"free"},{"bike_id":"a8f7bcfe-eaae-4cab-9619-8ffb447649d5","system_id":"levelo_inurba_marseille","lat":43.29608,"lon":5.37722,"is_reserved":false,"is_disabled":false,"rental_uris":{"android":"levelo://app?vid=a8f7bcfe-eaae-4cab-9619-8ffb447649d5","ios":"levelo://app?vid=a8f7bcfe-eaae-4cab-9619-8ffb447649d5"},"vehicle_type_id":"4","last_reported":1691838240,"current_range_meters":15600,"station_id":"ce4bgi92rcd13ifvqb90","pricing_plan_id":"free"},{"bike_id":"4b503028-2d30-4ba1-953d-2b82178385cd","system_id":"levelo_inurba_marseille","lat":43.295279,"lon":5.375048,"is_reserved":false,"is_disabled":false,"rental_uris":{"android":"levelo://app?vid=4b503028-2d30-4ba1-953d-2b82178385cd","ios":"levelo://app?vid=4b503028-2d30-4ba1-953d-2b82178385cd"},"vehicle_type_id":"4","last_reported":1691838240,"current_range_meters":15600,"station_id":"ce4bgkp2rcd13ifvqbmg","pricing_plan_id":"free"},{"bike_id":"267b53d2-c45b-493f-98c9-0d46b5dce284","system_id":"levelo_inurba_marseille","lat":43.295279,"lon":5.375048,"is_reserved":false,"is_disabled":false,"rental_uris":{"android":"levelo://app?vid=267b53d2-c45b-493f-98c9-0d46b5dce284","ios":"levelo://app?vid=267b53d2-c45b-493f-98c9-0d46b5dce284"},"vehicle_type_id":"4","last_reported":1691838240,"current_range_meters":31200,"station_id":"ce4bgkp2rcd13ifvqbmg","pricing_plan_id":"free"},{"bike_id":"656ca9ee-2794-4395-94c3-4e0cd05ccdd8","system_id":"levelo_inurba_marseille","lat":43.299717,"lon":5.384845,"is_reserved":false,"is_disabled":false,"rental_uris":{"android":"levelo://app?vid=656ca9ee-2794-4395-94c3-4e0cd05ccdd8","ios":"levelo://app?vid=656ca9ee-2794-4395-94c3-4e0cd05ccdd8"},"vehicle_type_id":"4","last_reported":1691838240,"current_range_meters":28000,"station_id":"ce4bgj92rcd13ifvqbd0","pricing_plan_id":"free"},{"bike_id":"0164ba9c-e791-455f-842f-2a7544c1fe08","system_id":"levelo_inurba_marseille","lat":43.29519,"lon":5.37487,"is_reserved":false,"is_disabled":false,"rental_uris":{"android":"levelo://app?vid=0164ba9c-e791-455f-842f-2a7544c1fe08","ios":"levelo://app?vid=0164ba9c-e791-455f-842f-2a7544c1fe08"},"vehicle_type_id":"4","last_reported":1691838240,"current_range_meters":30000,"station_id":"ce4bgkp2rcd13ifvqbmg","pricing_plan_id":"free"},{"bike_id":"fbe51afe-e58e-4401-bce8-142438eb5f97","system_id":"levelo_inurba_marseille","lat":43.3236,"lon":5.38875,"is_reserved":false,"is_disabled":false,"rental_uris":{"android":"levelo://app?vid=fbe51afe-e58e-4401-bce8-142438eb5f97","ios":"levelo://app?vid=fbe51afe-e58e-4401-bce8-142438eb5f97"},"vehicle_type_id":"4","last_reported":1691838240,"current_range_meters":30400,"station_id":"ce4bhqp2rcd13ifvqhog","pricing_plan_id":"free"},{"bike_id":"d7b453b3-5883-4f31-a8d1-65d180f3c13b","system_id":"levelo_inurba_marseille","lat":43.32357,"lon":5.38887,"is_reserved":false,"is_disabled":false,"rental_uris":{"android":"levelo://app?vid=d7b453b3-5883-4f31-a8d1-65d180f3c13b","ios":"levelo://app?vid=d7b453b3-5883-4f31-a8d1-65d180f3c13b"},"vehicle_type_id":"4","last_reported":1691838240,"current_range_meters":30400,"station_id":"ce4bhqp2rcd13ifvqhog","pricing_plan_id":"free"},{"bike_id":"0aa4abac-dd3c-446a-b986-ff96ec672a99","system_id":"levelo_inurba_marseille","lat":43.32365,"lon":5.38882,"is_reserved":false,"is_disabled":false,"rental_uris":{"android":"levelo://app?vid=0aa4abac-dd3c-446a-b986-ff96ec672a99","ios":"levelo://app?vid=0aa4abac-dd3c-446a-b986-ff96ec672a99"},"vehicle_type_id":"4","last_reported":1691838240,"current_range_meters":29200,"station_id":"ce4bhqp2rcd13ifvqhog","pricing_plan_id":"free"},{"bike_id":"7a5ccebc-5cd7-411d-b3c4-f349eba70b98","system_id":"levelo_inurba_marseille","lat":43.32359,"lon":5.38888,"is_reserved":false,"is_disabled":false,"rental_uris":{"android":"levelo://app?vid=7a5ccebc-5cd7-411d-b3c4-f349eba70b98","ios":"levelo://app?vid=7a5ccebc-5cd7-411d-b3c4-f349eba70b98"},"vehicle_type_id":"4","last_reported":1691838240,"current_range_meters":15600,"station_id":"ce4bhqp2rcd13ifvqhog","pricing_plan_id":"free"},{"bike_id":"b8cfcb5c-1fe2-48ab-b86a-5cc900079f22","system_id":"levelo_inurba_marseille","lat":43.32367,"lon":5.388836,"is_reserved":false,"is_disabled":false,"rental_uris":{"android":"levelo://app?vid=b8cfcb5c-1fe2-48ab-b86a-5cc900079f22","ios":"levelo://app?vid=b8cfcb5c-1fe2-48ab-b86a-5cc900079f22"},"vehicle_type_id":"4","last_reported":1691838240,"current_range_meters":14800,"station_id":"ce4bhqp2rcd13ifvqhog","pricing_plan_id":"free"},{"bike_id":"0337c164-8b0b-4f0b-b7b3-6790b2e9f25d","system_id":"levelo_inurba_marseille","lat":43.32366,"lon":5.38885,"is_reserved":false,"is_disabled":false,"rental_uris":{"android":"levelo://app?vid=0337c164-8b0b-4f0b-b7b3-6790b2e9f25d","ios":"levelo://app?vid=0337c164-8b0b-4f0b-b7b3-6790b2e9f25d"},"vehicle_type_id":"4","last_reported":1691838240,"current_range_meters":22800,"station_id":"ce4bhqp2rcd13ifvqhog","pricing_plan_id":"free"},{"bike_id":"a7758e93-92f2-4ba1-8882-417901e6037c","system_id":"levelo_inurba_marseille","lat":43.32367,"lon":5.388836,"is_reserved":false,"is_disabled":false,"rental_uris":{"android":"levelo://app?vid=a7758e93-92f2-4ba1-8882-417901e6037c","ios":"levelo://app?vid=a7758e93-92f2-4ba1-8882-417901e6037c"},"vehicle_type_id":"4","last_reported":1691838240,"current_range_meters":10400,"station_id":"ce4bhqp2rcd13ifvqhog","pricing_plan_id":"free"},{"bike_id":"ca878683-6c48-40c5-a57b-a57665b4ddf7","system_id":"levelo_inurba_marseille","lat":43.32364,"lon":5.38887,"is_reserved":false,"is_disabled":false,"rental_uris":{"android":"levelo://app?vid=ca878683-6c48-40c5-a57b-a57665b4ddf7","ios":"levelo://app?vid=ca878683-6c48-40c5-a57b-a57665b4ddf7"},"vehicle_type_id":"4","last_reported":1691838240,"current_range_meters":23600,"station_id":"ce4bhqp2rcd13ifvqhog","pricing_plan_id":"free"},{"bike_id":"01e11d4e-126c-4d60-a749-b4934349307d","system_id":"levelo_inurba_marseille","lat":43.32367,"lon":5.388836,"is_reserved":false,"is_disabled":false,"rental_uris":{"android":"levelo://app?vid=01e11d4e-126c-4d60-a749-b4934349307d","ios":"levelo://app?vid=01e11d4e-126c-4d60-a749-b4934349307d"},"vehicle_type_id":"4","last_reported":1691838240,"current_range_meters":23200,"station_id":"ce4bhqp2rcd13ifvqhog","pricing_plan_id":"free"},{"bike_id":"b6adb90e-9efd-4170-8253-825de9137b61","system_id":"levelo_inurba_marseille","lat":43.32361,"lon":5.38891,"is_reserved":false,"is_disabled":false,"rental_uris":{"android":"levelo://app?vid=b6adb90e-9efd-4170-8253-825de9137b61","ios":"levelo://app?vid=b6adb90e-9efd-4170-8253-825de9137b61"},"vehicle_type_id":"4","last_reported":1691838240,"current_range_meters":28800,"station_id":"ce4bhqp2rcd13ifvqhog","pricing_plan_id":"free"},{"bike_id":"c8da6d9b-0c83-4b91-8db8-b713484f24c0","system_id":"levelo_inurba_marseille","lat":43.29601,"lon":5.38105,"is_reserved":false,"is_disabled":false,"rental_uris":{"android":"levelo://app?vid=c8da6d9b-0c83-4b91-8db8-b713484f24c0","ios":"levelo://app?vid=c8da6d9b-0c83-4b91-8db8-b713484f24c0"},"vehicle_type_id":"4","last_reported":1691838240,"current_range_meters":20000,"station_id":"ce4bgl12rcd13ifvqbo0","pricing_plan_id":"free"},{"bike_id":"54d1b4ed-bdd8-4c39-8d66-0d1e1cac7453","system_id":"levelo_inurba_marseille","lat":43.29307,"lon":5.37173,"is_reserved":false,"is_disabled":false,"rental_uris":{"android":"levelo://app?vid=54d1b4ed-bdd8-4c39-8d66-0d1e1cac7453","ios":"levelo://app?vid=54d1b4ed-bdd8-4c39-8d66-0d1e1cac7453"},"vehicle_type_id":"4","last_reported":1691838240,"current_range_meters":17200,"station_id":"ce4bgh92rcd13ifvqb40","pricing_plan_id":"free"},{"bike_id":"dcae2b85-f810-49dd-a9da-27b69996dfac","system_id":"levelo_inurba_marseille","lat":43.29278,"lon":5.36841,"is_reserved":false,"is_disabled":false,"rental_uris":{"android":"levelo://app?vid=dcae2b85-f810-49dd-a9da-27b69996dfac","ios":"levelo://app?vid=dcae2b85-f810-49dd-a9da-27b69996dfac"},"vehicle_type_id":"4","last_reported":1691838240,"current_range_meters":27600,"station_id":"ce4bhbp2rcd13ifvqesg","pricing_plan_id":"free"},{"bike_id":"300f3d77-3065-4258-b977-e23ce3da8b49","system_id":"levelo_inurba_marseille","lat":43.29278,"lon":5.36843,"is_reserved":false,"is_disabled":false,"rental_uris":{"android":"levelo://app?vid=300f3d77-3065-4258-b977-e23ce3da8b49","ios":"levelo://app?vid=300f3d77-3065-4258-b977-e23ce3da8b49"},"vehicle_type_id":"4","last_reported":1691838240,"current_range_meters":31200,"station_id":"ce4bhbp2rcd13ifvqesg","pricing_plan_id":"free"},{"bike_id":"73caf4ba-5c4e-4b0b-801d-cd1b30fdbbb2","system_id":"levelo_inurba_marseille","lat":43.29275,"lon":5.36844,"is_reserved":false,"is_disabled":false,"rental_uris":{"android":"levelo://app?vid=73caf4ba-5c4e-4b0b-801d-cd1b30fdbbb2","ios":"levelo://app?vid=73caf4ba-5c4e-4b0b-801d-cd1b30fdbbb2"},"vehicle_type_id":"4","last_reported":1691838240,"current_range_meters":6000,"station_id":"ce4bhbp2rcd13ifvqesg","pricing_plan_id":"free"},{"bike_id":"dbe406a0-e31d-4174-932b-0d8d584d17c2","system_id":"levelo_inurba_marseille","lat":43.292749,"lon":5.368398,"is_reserved":false,"is_disabled":false,"rental_uris":{"android":"levelo://app?vid=dbe406a0-e31d-4174-932b-0d8d584d17c2","ios":"levelo://app?vid=dbe406a0-e31d-4174-932b-0d8d584d17c2"},"vehicle_type_id":"4","last_reported":1691838240,"current_range_meters":31200,"station_id":"ce4bhbp2rcd13ifvqesg","pricing_plan_id":"free"},{"bike_id":"bfdbb204-4871-474f-8b7d-19c6b52f037c","system_id":"levelo_inurba_marseille","lat":43.292749,"lon":5.368398,"is_reserved":false,"is_disabled":false,"rental_uris":{"android":"levelo://app?vid=bfdbb204-4871-474f-8b7d-19c6b52f037c","ios":"levelo://app?vid=bfdbb204-4871-474f-8b7d-19c6b52f037c"},"vehicle_type_id":"4","last_reported":1691838240,"current_range_meters":29600,"station_id":"ce4bhbp2rcd13ifvqesg","pricing_plan_id":"free"},{"bike_id":"0e5a2ac3-a69d-40fb-bc93-515906f4edf2","system_id":"levelo_inurba_marseille","lat":43.293009,"lon":5.374584,"is_reserved":false,"is_disabled":false,"rental_uris":{"android":"levelo://app?vid=0e5a2ac3-a69d-40fb-bc93-515906f4edf2","ios":"levelo://app?vid=0e5a2ac3-a69d-40fb-bc93-515906f4edf2"},"vehicle_type_id":"4","last_reported":1691838240,"current_range_meters":24000,"station_id":"ce4bgi12rcd13ifvqb70","pricing_plan_id":"free"},{"bike_id":"326aec68-bda0-45b9-b405-8f076b06a09a","system_id":"levelo_inurba_marseille","lat":43.305994,"lon":5.393687,"is_reserved":false,"is_disabled":false,"rental_uris":{"android":"levelo://app?vid=326aec68-bda0-45b9-b405-8f076b06a09a","ios":"levelo://app?vid=326aec68-bda0-45b9-b405-8f076b06a09a"},"vehicle_type_id":"4","last_reported":1691838240,"current_range_meters":26800,"station_id":"ce4bh0p2rcd13ifvqd80","pricing_plan_id":"free"},{"bike_id":"abf6797d-7a24-4bbb-a823-14dc8f6c1ad0","system_id":"levelo_inurba_marseille","lat":43.293009,"lon":5.374584,"is_reserved":false,"is_disabled":false,"rental_uris":{"android":"levelo://app?vid=abf6797d-7a24-4bbb-a823-14dc8f6c1ad0","ios":"levelo://app?vid=abf6797d-7a24-4bbb-a823-14dc8f6c1ad0"},"vehicle_type_id":"4","last_reported":1691838240,"current_range_meters":20800,"station_id":"ce4bgi12rcd13ifvqb70","pricing_plan_id":"free"},{"bike_id":"b22d3b22-f324-4743-89ba-8c8933be1773","system_id":"levelo_inurba_marseille","lat":43.29372,"lon":5.37861,"is_reserved":false,"is_disabled":false,"rental_uris":{"android":"levelo://app?vid=b22d3b22-f324-4743-89ba-8c8933be1773","ios":"levelo://app?vid=b22d3b22-f324-4743-89ba-8c8933be1773"},"vehicle_type_id":"4","last_reported":1691838240,"current_range_meters":25200,"station_id":"ce4bgjh2rcd13ifvqbf0","pricing_plan_id":"free"},{"bike_id":"2c79bf40-f416-4777-bc03-e8d41bd70e37","system_id":"levelo_inurba_marseille","lat":43.2936,"lon":5.37835,"is_reserved":false,"is_disabled":false,"rental_uris":{"android":"levelo://app?vid=2c79bf40-f416-4777-bc03-e8d41bd70e37","ios":"levelo://app?vid=2c79bf40-f416-4777-bc03-e8d41bd70e37"},"vehicle_type_id":"4","last_reported":1691838240,"current_range_meters":31200,"station_id":"ce4bgjh2rcd13ifvqbf0","pricing_plan_id":"free"},{"bike_id":"c68e7b7e-c299-450b-b3b0-84483f7d7321","system_id":"levelo_inurba_marseille","lat":43.29361,"lon":5.37844,"is_reserved":false,"is_disabled":false,"rental_uris":{"android":"levelo://app?vid=c68e7b7e-c299-450b-b3b0-84483f7d7321","ios":"levelo://app?vid=c68e7b7e-c299-450b-b3b0-84483f7d7321"},"vehicle_type_id":"4","last_reported":1691838240,"current_range_meters":28400,"station_id":"ce4bgjh2rcd13ifvqbf0","pricing_plan_id":"free"},{"bike_id":"cd5a9308-e544-4c6f-b219-f19bd4638ffe","system_id":"levelo_inurba_marseille","lat":43.292311,"lon":5.360731,"is_reserved":false,"is_disabled":false,"rental_uris":{"android":"levelo://app?vid=cd5a9308-e544-4c6f-b219-f19bd4638ffe","ios":"levelo://app?vid=cd5a9308-e544-4c6f-b219-f19bd4638ffe"},"vehicle_type_id":"4","last_reported":1691838240,"current_range_meters":18400,"station_id":"ce4bhbh2rcd13ifvqeqg","pricing_plan_id":"free"},{"bike_id":"78744c46-4083-41d7-a9b9-d0ecd55ef9ca","system_id":"levelo_inurba_marseille","lat":43.29218,"lon":5.36052,"is_reserved":false,"is_disabled":false,"rental_uris":{"android":"levelo://app?vid=78744c46-4083-41d7-a9b9-d0ecd55ef9ca","ios":"levelo://app?vid=78744c46-4083-41d7-a9b9-d0ecd55ef9ca"},"vehicle_type_id":"4","last_reported":1691838240,"current_range_meters":400,"station_id":"ce4bhbh2rcd13ifvqeqg","pricing_plan_id":"free"},{"bike_id":"d8a7c963-3b1f-445f-be3a-94042ad070e2","system_id":"levelo_inurba_marseille","lat":43.292663,"lon":5.376389,"is_reserved":false,"is_disabled":false,"rental_uris":{"android":"levelo://app?vid=d8a7c963-3b1f-445f-be3a-94042ad070e2","ios":"levelo://app?vid=d8a7c963-3b1f-445f-be3a-94042ad070e2"},"vehicle_type_id":"4","last_reported":1691838240,"current_range_meters":28400,"station_id":"ce4bgi12rcd13ifvqb80","pricing_plan_id":"free"},{"bike_id":"4a82b7c8-b095-41c2-bbf0-db65ea1f6abb","system_id":"levelo_inurba_marseille","lat":43.292663,"lon":5.376389,"is_reserved":false,"is_disabled":false,"rental_uris":{"android":"levelo://app?vid=4a82b7c8-b095-41c2-bbf0-db65ea1f6abb","ios":"levelo://app?vid=4a82b7c8-b095-41c2-bbf0-db65ea1f6abb"},"vehicle_type_id":"4","last_reported":1691838240,"current_range_meters":18800,"station_id":"ce4bgi12rcd13ifvqb80","pricing_plan_id":"free"},{"bike_id":"f9e7f4ae-1564-4a4b-a285-720f9fe61f26","system_id":"levelo_inurba_marseille","lat":43.309038,"lon":5.396546,"is_reserved":false,"is_disabled":false,"rental_uris":{"android":"levelo://app?vid=f9e7f4ae-1564-4a4b-a285-720f9fe61f26","ios":"levelo://app?vid=f9e7f4ae-1564-4a4b-a285-720f9fe61f26"},"vehicle_type_id":"4","last_reported":1691838240,"current_range_meters":8800,"station_id":"ce4bh012rcd13ifvqcv0","pricing_plan_id":"free"},{"bike_id":"c20f8ab5-bc9a-410a-9a78-1cd3990d1b0f","system_id":"levelo_inurba_marseille","lat":43.29196,"lon":5.35807,"is_reserved":false,"is_disabled":false,"rental_uris":{"android":"levelo://app?vid=c20f8ab5-bc9a-410a-9a78-1cd3990d1b0f","ios":"levelo://app?vid=c20f8ab5-bc9a-410a-9a78-1cd3990d1b0f"},"vehicle_type_id":"4","last_reported":1691838240,"current_range_meters":17200,"station_id":"ce4bhb12rcd13ifvqel0","pricing_plan_id":"free"},{"bike_id":"0d4c0bc8-4a8d-42e5-8882-ddae0894ec10","system_id":"levelo_inurba_marseille","lat":43.29195,"lon":5.35799,"is_reserved":false,"is_disabled":false,"rental_uris":{"android":"levelo://app?vid=0d4c0bc8-4a8d-42e5-8882-ddae0894ec10","ios":"levelo://app?vid=0d4c0bc8-4a8d-42e5-8882-ddae0894ec10"},"vehicle_type_id":"4","last_reported":1691838240,"current_range_meters":13200,"station_id":"ce4bhb12rcd13ifvqel0","pricing_plan_id":"free"},{"bike_id":"712983da-0bdb-4d82-bb2d-99d4bec423f6","system_id":"levelo_inurba_marseille","lat":43.30883,"lon":5.39639,"is_reserved":false,"is_disabled":false,"rental_uris":{"android":"levelo://app?vid=712983da-0bdb-4d82-bb2d-99d4bec423f6","ios":"levelo://app?vid=712983da-0bdb-4d82-bb2d-99d4bec423f6"},"vehicle_type_id":"4","last_reported":1691838240,"current_range_meters":24000,"station_id":"ce4bh012rcd13ifvqcv0","pricing_plan_id":"free"},{"bike_id":"6f4dd07a-a2fb-4274-a2be-4eef471c9329","system_id":"levelo_inurba_marseille","lat":43.31326,"lon":5.39694,"is_reserved":false,"is_disabled":false,"rental_uris":{"android":"levelo://app?vid=6f4dd07a-a2fb-4274-a2be-4eef471c9329","ios":"levelo://app?vid=6f4dd07a-a2fb-4274-a2be-4eef471c9329"},"vehicle_type_id":"4","last_reported":1691838240,"current_range_meters":27600,"station_id":"ce4bgvp2rcd13ifvqcu0","pricing_plan_id":"free"},{"bike_id":"86a2e2e8-1412-4704-a93f-867b8ac93656","system_id":"levelo_inurba_marseille","lat":43.2953,"lon":5.38539,"is_reserved":false,"is_disabled":false,"rental_uris":{"android":"levelo://app?vid=86a2e2e8-1412-4704-a93f-867b8ac93656","ios":"levelo://app?vid=86a2e2e8-1412-4704-a93f-867b8ac93656"},"vehicle_type_id":"4","last_reported":1691838240,"current_range_meters":8800,"station_id":"ce4bgih2rcd13ifvqba0","pricing_plan_id":"free"},{"bike_id":"5c4fa356-c1a0-4d64-860b-1770a6945a9a","system_id":"levelo_inurba_marseille","lat":43.290779,"lon":5.371482,"is_reserved":false,"is_disabled":false,"rental_uris":{"android":"levelo://app?vid=5c4fa356-c1a0-4d64-860b-1770a6945a9a","ios":"levelo://app?vid=5c4fa356-c1a0-4d64-860b-1770a6945a9a"},"vehicle_type_id":"4","last_reported":1691838240,"current_range_meters":3600,"station_id":"ce4bh5p2rcd13ifvqe4g","pricing_plan_id":"free"},{"bike_id":"195c7be2-9864-4e69-8454-a2f6e17eaa7e","system_id":"levelo_inurba_marseille","lat":43.290779,"lon":5.371482,"is_reserved":false,"is_disabled":false,"rental_uris":{"android":"levelo://app?vid=195c7be2-9864-4e69-8454-a2f6e17eaa7e","ios":"levelo://app?vid=195c7be2-9864-4e69-8454-a2f6e17eaa7e"},"vehicle_type_id":"4","last_reported":1691838240,"current_range_meters":17600,"station_id":"ce4bh5p2rcd13ifvqe4g","pricing_plan_id":"free"},{"bike_id":"370d104b-685b-4b47-985f-0bbb3ad5b8bf","system_id":"levelo_inurba_marseille","lat":43.290779,"lon":5.371482,"is_reserved":false,"is_disabled":false,"rental_uris":{"android":"levelo://app?vid=370d104b-685b-4b47-985f-0bbb3ad5b8bf","ios":"levelo://app?vid=370d104b-685b-4b47-985f-0bbb3ad5b8bf"},"vehicle_type_id":"4","last_reported":1691838240,"current_range_meters":1200,"station_id":"ce4bh5p2rcd13ifvqe4g","pricing_plan_id":"free"},{"bike_id":"b50ca771-e0c9-4a5e-9294-502ec8a87287","system_id":"levelo_inurba_marseille","lat":43.290624,"lon":5.359245,"is_reserved":false,"is_disabled":false,"rental_uris":{"android":"levelo://app?vid=b50ca771-e0c9-4a5e-9294-502ec8a87287","ios":"levelo://app?vid=b50ca771-e0c9-4a5e-9294-502ec8a87287"},"vehicle_type_id":"4","last_reported":1691838240,"current_range_meters":29600,"station_id":"ce4bha92rcd13ifvqeg0","pricing_plan_id":"free"},{"bike_id":"b15a43e0-4f1e-438f-9275-711bb5d1803f","system_id":"levelo_inurba_marseille","lat":43.290624,"lon":5.359245,"is_reserved":false,"is_disabled":false,"rental_uris":{"android":"levelo://app?vid=b15a43e0-4f1e-438f-9275-711bb5d1803f","ios":"levelo://app?vid=b15a43e0-4f1e-438f-9275-711bb5d1803f"},"vehicle_type_id":"4","last_reported":1691838240,"current_range_meters":25600,"station_id":"ce4bha92rcd13ifvqeg0","pricing_plan_id":"free"},{"bike_id":"372ece0e-67bd-47da-afc8-46282aa85415","system_id":"levelo_inurba_marseille","lat":43.290624,"lon":5.359245,"is_reserved":false,"is_disabled":false,"rental_uris":{"android":"levelo://app?vid=372ece0e-67bd-47da-afc8-46282aa85415","ios":"levelo://app?vid=372ece0e-67bd-47da-afc8-46282aa85415"},"vehicle_type_id":"4","last_reported":1691838240,"current_range_meters":2800,"station_id":"ce4bha92rcd13ifvqeg0","pricing_plan_id":"free"},{"bike_id":"59efc36e-efc5-414f-a314-188cbcb86a10","system_id":"levelo_inurba_marseille","lat":43.290624,"lon":5.359245,"is_reserved":false,"is_disabled":false,"rental_uris":{"android":"levelo://app?vid=59efc36e-efc5-414f-a314-188cbcb86a10","ios":"levelo://app?vid=59efc36e-efc5-414f-a314-188cbcb86a10"},"vehicle_type_id":"4","last_reported":1691838240,"current_range_meters":22400,"station_id":"ce4bha92rcd13ifvqeg0","pricing_plan_id":"free"},{"bike_id":"623adeda-2c74-4593-bf55-959ce6560861","system_id":"levelo_inurba_marseille","lat":43.28949,"lon":5.36631,"is_reserved":false,"is_disabled":false,"rental_uris":{"android":"levelo://app?vid=623adeda-2c74-4593-bf55-959ce6560861","ios":"levelo://app?vid=623adeda-2c74-4593-bf55-959ce6560861"},"vehicle_type_id":"4","last_reported":1691838240,"current_range_meters":24000,"station_id":"ce4bhap2rcd13ifvqek0","pricing_plan_id":"free"},{"bike_id":"52905d18-3996-4af8-9a21-a3b0f18fc169","system_id":"levelo_inurba_marseille","lat":43.29417,"lon":5.38624,"is_reserved":false,"is_disabled":false,"rental_uris":{"android":"levelo://app?vid=52905d18-3996-4af8-9a21-a3b0f18fc169","ios":"levelo://app?vid=52905d18-3996-4af8-9a21-a3b0f18fc169"},"vehicle_type_id":"4","last_reported":1691838240,"current_range_meters":0,"station_id":"ce4bh2h2rcd13ifvqdh0","pricing_plan_id":"free"},{"bike_id":"4b8ce305-ac14-4478-ac2b-5300516eb7dd","system_id":"levelo_inurba_marseille","lat":43.289184,"lon":5.366408,"is_reserved":false,"is_disabled":false,"rental_uris":{"android":"levelo://app?vid=4b8ce305-ac14-4478-ac2b-5300516eb7dd","ios":"levelo://app?vid=4b8ce305-ac14-4478-ac2b-5300516eb7dd"},"vehicle_type_id":"4","last_reported":1691838240,"current_range_meters":19600,"station_id":"ce4bhap2rcd13ifvqek0","pricing_plan_id":"free"},{"bike_id":"d9bb0a74-045b-4280-a8b5-51c882fafe1b","system_id":"levelo_inurba_marseille","lat":43.289468,"lon":5.363719,"is_reserved":false,"is_disabled":false,"rental_uris":{"android":"levelo://app?vid=d9bb0a74-045b-4280-a8b5-51c882fafe1b","ios":"levelo://app?vid=d9bb0a74-045b-4280-a8b5-51c882fafe1b"},"vehicle_type_id":"4","last_reported":1691838240,"current_range_meters":18400,"station_id":"ce4bhc92rcd13ifvqetg","pricing_plan_id":"free"},{"bike_id":"257494e3-3b12-45f3-b9f1-9d3633c8fb94","system_id":"levelo_inurba_marseille","lat":43.30428,"lon":5.39749,"is_reserved":false,"is_disabled":false,"rental_uris":{"android":"levelo://app?vid=257494e3-3b12-45f3-b9f1-9d3633c8fb94","ios":"levelo://app?vid=257494e3-3b12-45f3-b9f1-9d3633c8fb94"},"vehicle_type_id":"4","last_reported":1691838240,"current_range_meters":0,"station_id":"ce4bh092rcd13ifvqd20","pricing_plan_id":"free"},{"bike_id":"dc7bf2da-6a2a-419d-87d7-56a994f13754","system_id":"levelo_inurba_marseille","lat":43.29257,"lon":5.3844,"is_reserved":false,"is_disabled":false,"rental_uris":{"android":"levelo://app?vid=dc7bf2da-6a2a-419d-87d7-56a994f13754","ios":"levelo://app?vid=dc7bf2da-6a2a-419d-87d7-56a994f13754"},"vehicle_type_id":"4","last_reported":1691838240,"current_range_meters":800,"station_id":"ce4bh692rcd13ifvqea0","pricing_plan_id":"free"},{"bike_id":"69c23820-b8c4-4b33-a6c2-28beb4ed1d2a","system_id":"levelo_inurba_marseille","lat":43.330357,"lon":5.38912,"is_reserved":false,"is_disabled":false,"rental_uris":{"android":"levelo://app?vid=69c23820-b8c4-4b33-a6c2-28beb4ed1d2a","ios":"levelo://app?vid=69c23820-b8c4-4b33-a6c2-28beb4ed1d2a"},"vehicle_type_id":"4","last_reported":1691838240,"current_range_meters":13600,"station_id":"","pricing_plan_id":"free"},{"bike_id":"758c9bc4-b82c-409c-ae40-4b82d6853b50","system_id":"levelo_inurba_marseille","lat":43.290103,"lon":5.356114,"is_reserved":false,"is_disabled":false,"rental_uris":{"android":"levelo://app?vid=758c9bc4-b82c-409c-ae40-4b82d6853b50","ios":"levelo://app?vid=758c9bc4-b82c-409c-ae40-4b82d6853b50"},"vehicle_type_id":"4","last_reported":1691838240,"current_range_meters":14000,"station_id":"ce4bhb92rcd13ifvqen0","pricing_plan_id":"free"},{"bike_id":"e195eef1-5a02-4b02-b19d-cf9c1a60a160","system_id":"levelo_inurba_marseille","lat":43.29008,"lon":5.3562,"is_reserved":false,"is_disabled":false,"rental_uris":{"android":"levelo://app?vid=e195eef1-5a02-4b02-b19d-cf9c1a60a160","ios":"levelo://app?vid=e195eef1-5a02-4b02-b19d-cf9c1a60a160"},"vehicle_type_id":"4","last_reported":1691838240,"current_range_meters":28400,"station_id":"ce4bhb92rcd13ifvqen0","pricing_plan_id":"free"},{"bike_id":"3120d3dd-8627-408b-ab0f-d5757dc2c8c7","system_id":"levelo_inurba_marseille","lat":43.290103,"lon":5.356114,"is_reserved":false,"is_disabled":false,"rental_uris":{"android":"levelo://app?vid=3120d3dd-8627-408b-ab0f-d5757dc2c8c7","ios":"levelo://app?vid=3120d3dd-8627-408b-ab0f-d5757dc2c8c7"},"vehicle_type_id":"4","last_reported":1691838240,"current_range_meters":23200,"station_id":"ce4bhb92rcd13ifvqen0","pricing_plan_id":"free"},{"bike_id":"916fd31e-1971-4d47-8b60-c7f99528ac83","system_id":"levelo_inurba_marseille","lat":43.33046,"lon":5.38913,"is_reserved":false,"is_disabled":false,"rental_uris":{"android":"levelo://app?vid=916fd31e-1971-4d47-8b60-c7f99528ac83","ios":"levelo://app?vid=916fd31e-1971-4d47-8b60-c7f99528ac83"},"vehicle_type_id":"4","last_reported":1691838240,"current_range_meters":23200,"station_id":"ce4bhr92rcd13ifvqhrg","pricing_plan_id":"free"},{"bike_id":"ed1258d6-4ffc-46f5-954c-b99954eafa44","system_id":"levelo_inurba_marseille","lat":43.29006,"lon":5.35622,"is_reserved":false,"is_disabled":false,"rental_uris":{"android":"levelo://app?vid=ed1258d6-4ffc-46f5-954c-b99954eafa44","ios":"levelo://app?vid=ed1258d6-4ffc-46f5-954c-b99954eafa44"},"vehicle_type_id":"4","last_reported":1691838240,"current_range_meters":12000,"station_id":"ce4bhb92rcd13ifvqen0","pricing_plan_id":"free"},{"bike_id":"e670912e-4d64-418d-a115-4ee484695e56","system_id":"levelo_inurba_marseille","lat":43.33048,"lon":5.38911,"is_reserved":false,"is_disabled":false,"rental_uris":{"android":"levelo://app?vid=e670912e-4d64-418d-a115-4ee484695e56","ios":"levelo://app?vid=e670912e-4d64-418d-a115-4ee484695e56"},"vehicle_type_id":"4","last_reported":1691838240,"current_range_meters":14800,"station_id":"ce4bhr92rcd13ifvqhrg","pricing_plan_id":"free"},{"bike_id":"b85048dc-02f0-4b4d-9a31-dc69b5a08eba","system_id":"levelo_inurba_marseille","lat":43.33041,"lon":5.38922,"is_reserved":false,"is_disabled":false,"rental_uris":{"android":"levelo://app?vid=b85048dc-02f0-4b4d-9a31-dc69b5a08eba","ios":"levelo://app?vid=b85048dc-02f0-4b4d-9a31-dc69b5a08eba"},"vehicle_type_id":"4","last_reported":1691838240,"current_range_meters":31200,"station_id":"ce4bhr92rcd13ifvqhrg","pricing_plan_id":"free"},{"bike_id":"5359e639-b9a2-4606-b521-46f66d2820c7","system_id":"levelo_inurba_marseille","lat":43.33046,"lon":5.38915,"is_reserved":false,"is_disabled":false,"rental_uris":{"android":"levelo://app?vid=5359e639-b9a2-4606-b521-46f66d2820c7","ios":"levelo://app?vid=5359e639-b9a2-4606-b521-46f66d2820c7"},"vehicle_type_id":"4","last_reported":1691838240,"current_range_meters":30000,"station_id":"ce4bhr92rcd13ifvqhrg","pricing_plan_id":"free"},{"bike_id":"97d4156f-5db6-4edb-b007-9bb7f9496df8","system_id":"levelo_inurba_marseille","lat":43.33046,"lon":5.38916,"is_reserved":false,"is_disabled":false,"rental_uris":{"android":"levelo://app?vid=97d4156f-5db6-4edb-b007-9bb7f9496df8","ios":"levelo://app?vid=97d4156f-5db6-4edb-b007-9bb7f9496df8"},"vehicle_type_id":"4","last_reported":1691838240,"current_range_meters":23600,"station_id":"ce4bhr92rcd13ifvqhrg","pricing_plan_id":"free"},{"bike_id":"455260f5-201e-45ac-8473-9f69d25d2f7d","system_id":"levelo_inurba_marseille","lat":43.33045,"lon":5.38918,"is_reserved":false,"is_disabled":false,"rental_uris":{"android":"levelo://app?vid=455260f5-201e-45ac-8473-9f69d25d2f7d","ios":"levelo://app?vid=455260f5-201e-45ac-8473-9f69d25d2f7d"},"vehicle_type_id":"4","last_reported":1691838240,"current_range_meters":12400,"station_id":"ce4bhr92rcd13ifvqhrg","pricing_plan_id":"free"},{"bike_id":"215cd5d0-3557-44be-b7d5-5093e416edd2","system_id":"levelo_inurba_marseille","lat":43.29008,"lon":5.35606,"is_reserved":false,"is_disabled":false,"rental_uris":{"android":"levelo://app?vid=215cd5d0-3557-44be-b7d5-5093e416edd2","ios":"levelo://app?vid=215cd5d0-3557-44be-b7d5-5093e416edd2"},"vehicle_type_id":"4","last_reported":1691838240,"current_range_meters":27200,"station_id":"ce4bhb92rcd13ifvqen0","pricing_plan_id":"free"},{"bike_id":"8fede235-a3fa-4085-b5fb-515c17a98fa1","system_id":"levelo_inurba_marseille","lat":43.33045,"lon":5.3892,"is_reserved":false,"is_disabled":false,"rental_uris":{"android":"levelo://app?vid=8fede235-a3fa-4085-b5fb-515c17a98fa1","ios":"levelo://app?vid=8fede235-a3fa-4085-b5fb-515c17a98fa1"},"vehicle_type_id":"4","last_reported":1691838240,"current_range_meters":18400,"station_id":"ce4bhr92rcd13ifvqhrg","pricing_plan_id":"free"},{"bike_id":"6d7c8abe-0944-4695-8208-04a7e55dfaa2","system_id":"levelo_inurba_marseille","lat":43.29004,"lon":5.35606,"is_reserved":false,"is_disabled":false,"rental_uris":{"android":"levelo://app?vid=6d7c8abe-0944-4695-8208-04a7e55dfaa2","ios":"levelo://app?vid=6d7c8abe-0944-4695-8208-04a7e55dfaa2"},"vehicle_type_id":"4","last_reported":1691838240,"current_range_meters":31200,"station_id":"ce4bhb92rcd13ifvqen0","pricing_plan_id":"free"},{"bike_id":"b8146dba-e6dd-466a-a842-d5ab8e413baf","system_id":"levelo_inurba_marseille","lat":43.290103,"lon":5.356114,"is_reserved":false,"is_disabled":false,"rental_uris":{"android":"levelo://app?vid=b8146dba-e6dd-466a-a842-d5ab8e413baf","ios":"levelo://app?vid=b8146dba-e6dd-466a-a842-d5ab8e413baf"},"vehicle_type_id":"4","last_reported":1691838240,"current_range_meters":30000,"station_id":"ce4bhb92rcd13ifvqen0","pricing_plan_id":"free"},{"bike_id":"892867ae-c845-473e-87fc-2b3f5701ecf4","system_id":"levelo_inurba_marseille","lat":43.29003,"lon":5.35605,"is_reserved":false,"is_disabled":false,"rental_uris":{"android":"levelo://app?vid=892867ae-c845-473e-87fc-2b3f5701ecf4","ios":"levelo://app?vid=892867ae-c845-473e-87fc-2b3f5701ecf4"},"vehicle_type_id":"4","last_reported":1691838240,"current_range_meters":20000,"station_id":"ce4bhb92rcd13ifvqen0","pricing_plan_id":"free"},{"bike_id":"d92191b5-3897-428d-989c-4b986c7a7e64","system_id":"levelo_inurba_marseille","lat":43.29002,"lon":5.356,"is_reserved":false,"is_disabled":false,"rental_uris":{"android":"levelo://app?vid=d92191b5-3897-428d-989c-4b986c7a7e64","ios":"levelo://app?vid=d92191b5-3897-428d-989c-4b986c7a7e64"},"vehicle_type_id":"4","last_reported":1691838240,"current_range_meters":19600,"station_id":"ce4bhb92rcd13ifvqen0","pricing_plan_id":"free"},{"bike_id":"792d0d37-23ba-42bb-8cc0-51aa6d1e24b1","system_id":"levelo_inurba_marseille","lat":43.290995,"lon":5.381361,"is_reserved":false,"is_disabled":false,"rental_uris":{"android":"levelo://app?vid=792d0d37-23ba-42bb-8cc0-51aa6d1e24b1","ios":"levelo://app?vid=792d0d37-23ba-42bb-8cc0-51aa6d1e24b1"},"vehicle_type_id":"4","last_reported":1691838240,"current_range_meters":24000,"station_id":"ce4bh512rcd13ifvqe2g","pricing_plan_id":"free"},{"bike_id":"169939a0-ca77-462f-ba84-7c2817852b5e","system_id":"levelo_inurba_marseille","lat":43.297815,"lon":5.393548,"is_reserved":false,"is_disabled":false,"rental_uris":{"android":"levelo://app?vid=169939a0-ca77-462f-ba84-7c2817852b5e","ios":"levelo://app?vid=169939a0-ca77-462f-ba84-7c2817852b5e"},"vehicle_type_id":"4","last_reported":1691838240,"current_range_meters":27600,"station_id":"chh1huq6cuj3fo74tm60","pricing_plan_id":"free"},{"bike_id":"79079b08-d48a-446c-914c-67cef73f6b5c","system_id":"levelo_inurba_marseille","lat":43.29785,"lon":5.3935,"is_reserved":false,"is_disabled":false,"rental_uris":{"android":"levelo://app?vid=79079b08-d48a-446c-914c-67cef73f6b5c","ios":"levelo://app?vid=79079b08-d48a-446c-914c-67cef73f6b5c"},"vehicle_type_id":"4","last_reported":1691838240,"current_range_meters":5600,"station_id":"chh1huq6cuj3fo74tm60","pricing_plan_id":"free"},{"bike_id":"4e07c1b9-6a34-471a-a991-f0a1073d8419","system_id":"levelo_inurba_marseille","lat":43.2901,"lon":5.381269,"is_reserved":false,"is_disabled":false,"rental_uris":{"android":"levelo://app?vid=4e07c1b9-6a34-471a-a991-f0a1073d8419","ios":"levelo://app?vid=4e07c1b9-6a34-471a-a991-f0a1073d8419"},"vehicle_type_id":"4","last_reported":1691838240,"current_range_meters":22800,"station_id":"ce4bh4p2rcd13ifvqe1g","pricing_plan_id":"free"},{"bike_id":"c4b0aa63-7248-4c69-80eb-f0aa4c35dc39","system_id":"levelo_inurba_marseille","lat":43.33036,"lon":5.39103,"is_reserved":false,"is_disabled":false,"rental_uris":{"android":"levelo://app?vid=c4b0aa63-7248-4c69-80eb-f0aa4c35dc39","ios":"levelo://app?vid=c4b0aa63-7248-4c69-80eb-f0aa4c35dc39"},"vehicle_type_id":"4","last_reported":1691838240,"current_range_meters":7600,"station_id":"","pricing_plan_id":"free"},{"bike_id":"697fa617-3b1d-4ee6-8d77-4a365000d572","system_id":"levelo_inurba_marseille","lat":43.28856,"lon":5.358371,"is_reserved":false,"is_disabled":false,"rental_uris":{"android":"levelo://app?vid=697fa617-3b1d-4ee6-8d77-4a365000d572","ios":"levelo://app?vid=697fa617-3b1d-4ee6-8d77-4a365000d572"},"vehicle_type_id":"4","last_reported":1691838240,"current_range_meters":24000,"station_id":"ce4bhb12rcd13ifvqem0","pricing_plan_id":"free"},{"bike_id":"da8d6aac-47a9-473c-af7c-f1c3cbe84547","system_id":"levelo_inurba_marseille","lat":43.28856,"lon":5.358371,"is_reserved":false,"is_disabled":false,"rental_uris":{"android":"levelo://app?vid=da8d6aac-47a9-473c-af7c-f1c3cbe84547","ios":"levelo://app?vid=da8d6aac-47a9-473c-af7c-f1c3cbe84547"},"vehicle_type_id":"4","last_reported":1691838240,"current_range_meters":25600,"station_id":"ce4bhb12rcd13ifvqem0","pricing_plan_id":"free"},{"bike_id":"68038e06-4e6a-4151-9a52-1e322111514b","system_id":"levelo_inurba_marseille","lat":43.31274,"lon":5.40174,"is_reserved":false,"is_disabled":false,"rental_uris":{"android":"levelo://app?vid=68038e06-4e6a-4151-9a52-1e322111514b","ios":"levelo://app?vid=68038e06-4e6a-4151-9a52-1e322111514b"},"vehicle_type_id":"4","last_reported":1691838240,"current_range_meters":26000,"station_id":"ce4bh092rcd13ifvqd30","pricing_plan_id":"free"},{"bike_id":"54ef0d20-5588-48c8-8143-05109cd689d3","system_id":"levelo_inurba_marseille","lat":43.31265,"lon":5.40175,"is_reserved":false,"is_disabled":false,"rental_uris":{"android":"levelo://app?vid=54ef0d20-5588-48c8-8143-05109cd689d3","ios":"levelo://app?vid=54ef0d20-5588-48c8-8143-05109cd689d3"},"vehicle_type_id":"4","last_reported":1691838240,"current_range_meters":30400,"station_id":"ce4bh092rcd13ifvqd30","pricing_plan_id":"free"},{"bike_id":"d7f2b451-3e47-4758-ab2f-e29601c6e12c","system_id":"levelo_inurba_marseille","lat":43.31276,"lon":5.40177,"is_reserved":false,"is_disabled":false,"rental_uris":{"android":"levelo://app?vid=d7f2b451-3e47-4758-ab2f-e29601c6e12c","ios":"levelo://app?vid=d7f2b451-3e47-4758-ab2f-e29601c6e12c"},"vehicle_type_id":"4","last_reported":1691838240,"current_range_meters":21200,"station_id":"ce4bh092rcd13ifvqd30","pricing_plan_id":"free"},{"bike_id":"52b88303-40d8-474c-b650-da4e58122310","system_id":"levelo_inurba_marseille","lat":43.31279,"lon":5.40184,"is_reserved":false,"is_disabled":false,"rental_uris":{"android":"levelo://app?vid=52b88303-40d8-474c-b650-da4e58122310","ios":"levelo://app?vid=52b88303-40d8-474c-b650-da4e58122310"},"vehicle_type_id":"4","last_reported":1691838240,"current_range_meters":16000,"station_id":"ce4bh092rcd13ifvqd30","pricing_plan_id":"free"},{"bike_id":"882d2839-28fb-45a9-8365-fc904fd4e75a","system_id":"levelo_inurba_marseille","lat":43.30935,"lon":5.40155,"is_reserved":false,"is_disabled":false,"rental_uris":{"android":"levelo://app?vid=882d2839-28fb-45a9-8365-fc904fd4e75a","ios":"levelo://app?vid=882d2839-28fb-45a9-8365-fc904fd4e75a"},"vehicle_type_id":"4","last_reported":1691838240,"current_range_meters":30000,"station_id":"ce4bgvp2rcd13ifvqct0","pricing_plan_id":"free"},{"bike_id":"610eb55d-13d4-46d0-a987-7740ca7f106b","system_id":"levelo_inurba_marseille","lat":43.30644,"lon":5.40084,"is_reserved":false,"is_disabled":false,"rental_uris":{"android":"levelo://app?vid=610eb55d-13d4-46d0-a987-7740ca7f106b","ios":"levelo://app?vid=610eb55d-13d4-46d0-a987-7740ca7f106b"},"vehicle_type_id":"4","last_reported":1691838240,"current_range_meters":21200,"station_id":"ce4bh112rcd13ifvqda0","pricing_plan_id":"free"},{"bike_id":"518f5331-fdfd-4602-aa21-1324fbfbf337","system_id":"levelo_inurba_marseille","lat":43.286961,"lon":5.373785,"is_reserved":false,"is_disabled":false,"rental_uris":{"android":"levelo://app?vid=518f5331-fdfd-4602-aa21-1324fbfbf337","ios":"levelo://app?vid=518f5331-fdfd-4602-aa21-1324fbfbf337"},"vehicle_type_id":"4","last_reported":1691838240,"current_range_meters":31200,"station_id":"ce4bh3p2rcd13ifvqdq0","pricing_plan_id":"free"},{"bike_id":"d88b6f5b-6cab-481c-8e3a-7c4e5b8596b6","system_id":"levelo_inurba_marseille","lat":43.286591,"lon":5.363346,"is_reserved":false,"is_disabled":false,"rental_uris":{"android":"levelo://app?vid=d88b6f5b-6cab-481c-8e3a-7c4e5b8596b6","ios":"levelo://app?vid=d88b6f5b-6cab-481c-8e3a-7c4e5b8596b6"},"vehicle_type_id":"4","last_reported":1691838240,"current_range_meters":27200,"station_id":"ce4bhah2rcd13ifvqej0","pricing_plan_id":"free"},{"bike_id":"eb808b51-0c23-449a-bdc8-491537028335","system_id":"levelo_inurba_marseille","lat":43.286593,"lon":5.363346,"is_reserved":false,"is_disabled":false,"rental_uris":{"android":"levelo://app?vid=eb808b51-0c23-449a-bdc8-491537028335","ios":"levelo://app?vid=eb808b51-0c23-449a-bdc8-491537028335"},"vehicle_type_id":"4","last_reported":1691838240,"current_range_meters":30000,"station_id":"ce4bhah2rcd13ifvqej0","pricing_plan_id":"free"},{"bike_id":"915f802e-f31b-4c71-8de0-2a5fc39e5970","system_id":"levelo_inurba_marseille","lat":43.32994,"lon":5.39403,"is_reserved":false,"is_disabled":false,"rental_uris":{"android":"levelo://app?vid=915f802e-f31b-4c71-8de0-2a5fc39e5970","ios":"levelo://app?vid=915f802e-f31b-4c71-8de0-2a5fc39e5970"},"vehicle_type_id":"4","last_reported":1691838240,"current_range_meters":3600,"station_id":"","pricing_plan_id":"free"},{"bike_id":"53d0b9da-6152-4608-8d44-f6d8d8bdd0b9","system_id":"levelo_inurba_marseille","lat":43.286591,"lon":5.363346,"is_reserved":false,"is_disabled":false,"rental_uris":{"android":"levelo://app?vid=53d0b9da-6152-4608-8d44-f6d8d8bdd0b9","ios":"levelo://app?vid=53d0b9da-6152-4608-8d44-f6d8d8bdd0b9"},"vehicle_type_id":"4","last_reported":1691838240,"current_range_meters":24000,"station_id":"ce4bhah2rcd13ifvqej0","pricing_plan_id":"free"},