{"last_updated":1744002667,"ttl":60,"version":"2.2","data":{"bikes":[{"bike_id":"d5f50458-f9fb-403e-a7f2-d91d7d7dd8c7","system_id":"levelo_inurba_marseille","lat":43.2512,"lon":5.403261,"is_reserved":false,"is_disabled":false,"rental_uris":{"android":"levelo://app?vid=d5f50458-f9fb-403e-a7f2-d91d7d7dd8c7","ios":"levelo://app?vid=d5f50458-f9fb-403e-a7f2-d91d7d7dd8c7"},"vehicle_type_id":"4","last_reported":1744002667,"current_range_meters":2800,"station_id":"ce4bhlh2rcd13ifvqgig","pricing_plan_id":"cebpf4jnsgd1na2vs0mg"},{"bike_id":"54411457-6d42-4e7a-8e73-e0c809420316","system_id":"levelo_inurba_marseille","lat":43.30451,"lon":5.38893,"is_reserved":false,"is_disabled":false,"rental_uris":{"android":"levelo://app?vid=54411457-6d42-4e7a-8e73-e0c809420316","ios":"levelo://app?vid=54411457-6d42-4e7a-8e73-e0c809420316"},"vehicle_type_id":"4","last_reported":1744002667,"current_range_meters":2800,"station_id":"ce4bgk12rcd13ifvqbi0","pricing_plan_id":"cebpf4jnsgd1na2vs0mg"},{"bike_id":"4b9440a6-5a9c-430f-b300-f1951012ffab","system_id":"levelo_inurba_marseille","lat":43.31352,"lon":5.385,"is_reserved":false,"is_disabled":false,"rental_uris":{"android":"levelo://app?vid=4b9440a6-5a9c-430f-b300-f1951012ffab","ios":"levelo://app?vid=4b9440a6-5a9c-430f-b300-f1951012ffab"},"vehicle_type_id":"4","last_reported":1744002667,"current_range_meters":2800,"station_id":"ce4bgt92rcd13ifvqcf0","pricing_plan_id":"cebpf4jnsgd1na2vs0mg"},{"bike_id":"a682add7-90f6-4f21-a237-5c2e46b6894b","system_id":"levelo_inurba_marseille","lat":43.301345,"lon":5.387911,"is_reserved":false,"is_disabled":false,"rental_uris":{"android":"levelo://app?vid=a682add7-90f6-4f21-a237-5c2e46b6894b","ios":"levelo://app?vid=a682add7-90f6-4f21-a237-5c2e46b6894b"},"vehicle_type_id":"4","last_reported":1744002667,"current_range_meters":2800,"station_id":"ce4bghh2rcd13ifvqb60","pricing_plan_id":"cebpf4jnsgd1na2vs0mg"},{"bike_id":"abf828e0-bebc-4654-bc93-1d92f449deee","system_id":"levelo_inurba_marseille","lat":43.32367,"lon":5.367573,"is_reserved":false,"is_disabled":true,"rental_uris":{"android":"levelo://app?vid=abf828e0-bebc-4654-bc93-1d92f449deee","ios":"levelo://app?vid=abf828e0-bebc-4654-bc93-1d92f449deee"},"vehicle_type_id":"4","last_reported":1744002667,"current_range_meters":2800,"station_id":"ce4bhsh2rcd13ifvqi2g","pricing_plan_id":"cebpf4jnsgd1na2vs0mg"},{"bike_id":"8e8105ce-63e2-4441-9ebe-d6a09a08a22e","system_id":"levelo_inurba_marseille","lat":43.29668,"lon":5.36204,"is_reserved":false,"is_disabled":false,"rental_uris":{"android":"levelo://app?vid=8e8105ce-63e2-4441-9ebe-d6a09a08a22e","ios":"levelo://app?vid=8e8105ce-63e2-4441-9ebe-d6a09a08a22e"},"vehicle_type_id":"4","last_reported":1744002667,"current_range_meters":2800,"station_id":"","pricing_plan_id":"cebpf4jnsgd1na2vs0mg"},{"bike_id":"6d70e492-394e-44f3-96aa-c37ef18b968b","system_id":"levelo_inurba_marseille","lat":43.250819,"lon":5.395112,"is_reserved":false,"is_disabled":false,"rental_uris":{"android":"levelo://app?vid=6d70e492-394e-44f3-96aa-c37ef18b968b","ios":"levelo://app?vid=6d70e492-394e-44f3-96aa-c37ef18b968b"},"vehicle_type_id":"4","last_reported":1744002667,"current_range_meters":2800,"station_id":"ce4bhm12rcd13ifvqgkg","pricing_plan_id":"cebpf4jnsgd1na2vs0mg"},{"bike_id":"1c8f9443-fa95-4995-992b-86c893c09786","system_id":"levelo_inurba_marseille","lat":43.25058,"lon":5.39551,"is_reserved":false,"is_disabled":false,"rental_uris":{"android":"levelo://app?vid=1c8f9443-fa95-4995-992b-86c893c09786","ios":"levelo://app?vid=1c8f9443-fa95-4995-992b-86c893c09786"},"vehicle_type_id":"4","last_reported":1744002667,"current_range_meters":3200,"station_id":"ce4bhm12rcd13ifvqgkg","pricing_plan_id":"cebpf4jnsgd1na2vs0mg"},{"bike_id":"92affbd9-9b42-4d6e-a05b-a1f9abac8fa1","system_id":"levelo_inurba_marseille","lat":43.31318,"lon":5.39723,"is_reserved":false,"is_disabled":false,"rental_uris":{"android":"levelo://app?vid=92affbd9-9b42-4d6e-a05b-a1f9abac8fa1","ios":"levelo://app?vid=92affbd9-9b42-4d6e-a05b-a1f9abac8fa1"},"vehicle_type_id":"4","last_reported":1744002667,"current_range_meters":3200,"station_id":"ce4bgvp2rcd13ifvqcu0","pricing_plan_id":"cebpf4jnsgd1na2vs0mg"},{"bike_id":"afc4af91-148e-40f5-95b9-c3ce20f31821","system_id":"levelo_inurba_marseille","lat":43.24067,"lon":5.37782,"is_reserved":false,"is_disabled":false,"rental_uris":{"android":"levelo://app?vid=afc4af91-148e-40f5-95b9-c3ce20f31821","ios":"levelo://app?vid=afc4af91-148e-40f5-95b9-c3ce20f31821"},"vehicle_type_id":"4","last_reported":1744002667,"current_range_meters":3200,"station_id":"ce4bhnp2rcd13ifvqgvg","pricing_plan_id":"cebpf4jnsgd1na2vs0mg"},{"bike_id":"fe5a8fe2-2dca-4c58-ac7b-e61e0bced93c","system_id":"levelo_inurba_marseille","lat":43.281671,"lon":5.426338,"is_reserved":false,"is_disabled":false,"rental_uris":{"android":"levelo://app?vid=fe5a8fe2-2dca-4c58-ac7b-e61e0bced93c","ios":"levelo://app?vid=fe5a8fe2-2dca-4c58-ac7b-e61e0bced93c"},"vehicle_type_id":"4","last_reported":1744002667,"current_range_meters":3600,"station_id":"ce4bhnh2rcd13ifvqgug","pricing_plan_id":"cebpf4jnsgd1na2vs0mg"},{"bike_id":"69f27ac7-c201-4d7b-a41a-066249700815","system_id":"levelo_inurba_marseille","lat":43.241683,"lon":5.363968,"is_reserved":false,"is_disabled":true,"rental_uris":{"android":"levelo://app?vid=69f27ac7-c201-4d7b-a41a-066249700815","ios":"levelo://app?vid=69f27ac7-c201-4d7b-a41a-066249700815"},"vehicle_type_id":"4","last_reported":1744002667,"current_range_meters":4000,"station_id":"ce4bh412rcd13ifvqdr0","pricing_plan_id":"cebpf4jnsgd1na2vs0mg"},{"bike_id":"14372806-dbaf-42a6-80e2-a045e7992d20","system_id":"levelo_inurba_marseille","lat":43.25003,"lon":5.38919,"is_reserved":false,"is_disabled":false,"rental_uris":{"android":"levelo://app?vid=14372806-dbaf-42a6-80e2-a045e7992d20","ios":"levelo://app?vid=14372806-dbaf-42a6-80e2-a045e7992d20"},"vehicle_type_id":"4","last_reported":1744002667,"current_range_meters":4000,"station_id":"ce4bhgp2rcd13ifvqfd0","pricing_plan_id":"cebpf4jnsgd1na2vs0mg"},{"bike_id":"69f8a740-a0ff-4635-87ad-9b7d7d0db53e","system_id":"levelo_inurba_marseille","lat":43.24641,"lon":5.38887,"is_reserved":false,"is_disabled":true,"rental_uris":{"android":"levelo://app?vid=69f8a740-a0ff-4635-87ad-9b7d7d0db53e","ios":"levelo://app?vid=69f8a740-a0ff-4635-87ad-9b7d7d0db53e"},"vehicle_type_id":"4","last_reported":1744002667,"current_range_meters":4400,"station_id":"ce4bhg12rcd13ifvqf60","pricing_plan_id":"cebpf4jnsgd1na2vs0mg"},{"bike_id":"96295522-bdc3-4468-aff3-6cca04e9bdb4","system_id":"levelo_inurba_marseille","lat":43.240746,"lon":5.377556,"is_reserved":false,"is_disabled":false,"rental_uris":{"android":"levelo://app?vid=96295522-bdc3-4468-aff3-6cca04e9bdb4","ios":"levelo://app?vid=96295522-bdc3-4468-aff3-6cca04e9bdb4"},"vehicle_type_id":"4","last_reported":1744002667,"current_range_meters":4400,"station_id":"ce4bhnp2rcd13ifvqgvg","pricing_plan_id":"cebpf4jnsgd1na2vs0mg"},{"bike_id":"99a96c47-72c4-4673-94d3-34ca15de3de7","system_id":"levelo_inurba_marseille","lat":43.298,"lon":5.40415,"is_reserved":false,"is_disabled":false,"rental_uris":{"android":"levelo://app?vid=99a96c47-72c4-4673-94d3-34ca15de3de7","ios":"levelo://app?vid=99a96c47-72c4-4673-94d3-34ca15de3de7"},"vehicle_type_id":"4","last_reported":1744002667,"current_range_meters":4400,"station_id":"ce4bh112rcd13ifvqd90","pricing_plan_id":"cebpf4jnsgd1na2vs0mg"},{"bike_id":"28da97e0-65a4-47aa-8f0c-03516882906d","system_id":"levelo_inurba_marseille","lat":43.23187,"lon":5.39985,"is_reserved":false,"is_disabled":false,"rental_uris":{"android":"levelo://app?vid=28da97e0-65a4-47aa-8f0c-03516882906d","ios":"levelo://app?vid=28da97e0-65a4-47aa-8f0c-03516882906d"},"vehicle_type_id":"4","last_reported":1744002667,"current_range_meters":4400,"station_id":"ce4bhn12rcd13ifvqgqg","pricing_plan_id":"cebpf4jnsgd1na2vs0mg"},{"bike_id":"9378cab7-1ef7-47d6-af28-c6473192be1a","system_id":"levelo_inurba_marseille","lat":43.311828,"lon":5.407736,"is_reserved":false,"is_disabled":false,"rental_uris":{"android":"levelo://app?vid=9378cab7-1ef7-47d6-af28-c6473192be1a","ios":"levelo://app?vid=9378cab7-1ef7-47d6-af28-c6473192be1a"},"vehicle_type_id":"4","last_reported":1744002667,"current_range_meters":4800,"station_id":"","pricing_plan_id":"cebpf4jnsgd1na2vs0mg"},{"bike_id":"e96b8976-457c-417d-8113-212bbb68740b","system_id":"levelo_inurba_marseille","lat":43.30154,"lon":5.380905,"is_reserved":false,"is_disabled":false,"rental_uris":{"android":"levelo://app?vid=e96b8976-457c-417d-8113-212bbb68740b","ios":"levelo://app?vid=e96b8976-457c-417d-8113-212bbb68740b"},"vehicle_type_id":"4","last_reported":1744002667,"current_range_meters":4800,"station_id":"ce4bgjp2rcd13ifvqbh0","pricing_plan_id":"cebpf4jnsgd1na2vs0mg"},{"bike_id":"6023584e-870f-454d-88b0-bf3dc0e21fbe","system_id":"levelo_inurba_marseille","lat":43.24391,"lon":5.37074,"is_reserved":false,"is_disabled":true,"rental_uris":{"android":"levelo://app?vid=6023584e-870f-454d-88b0-bf3dc0e21fbe","ios":"levelo://app?vid=6023584e-870f-454d-88b0-bf3dc0e21fbe"},"vehicle_type_id":"4","last_reported":1744002667,"current_range_meters":4800,"station_id":"ce4bhhh2rcd13ifvqfk0","pricing_plan_id":"cebpf4jnsgd1na2vs0mg"},{"bike_id":"eb79d1f9-7c91-4ea2-b5f8-796189743e1a","system_id":"levelo_inurba_marseille","lat":43.3426,"lon":5.3812,"is_reserved":false,"is_disabled":false,"rental_uris":{"android":"levelo://app?vid=eb79d1f9-7c91-4ea2-b5f8-796189743e1a","ios":"levelo://app?vid=eb79d1f9-7c91-4ea2-b5f8-796189743e1a"},"vehicle_type_id":"4","last_reported":1744002667,"current_range_meters":5600,"station_id":"","pricing_plan_id":"cebpf4jnsgd1na2vs0mg"},{"bike_id":"10e87617-4fdc-405e-9a34-19a9b8be05ea","system_id":"levelo_inurba_marseille","lat":43.303196,"lon":5.404374,"is_reserved":false,"is_disabled":false,"rental_uris":{"android":"levelo://app?vid=10e87617-4fdc-405e-9a34-19a9b8be05ea","ios":"levelo://app?vid=10e87617-4fdc-405e-9a34-19a9b8be05ea"},"vehicle_type_id":"4","last_reported":1744002667,"current_range_meters":5600,"station_id":"ce4bh012rcd13ifvqd10","pricing_plan_id":"cebpf4jnsgd1na2vs0mg"},{"bike_id":"dcb43350-57ad-4a91-81e9-5f82132aaee5","system_id":"levelo_inurba_marseille","lat":43.29445,"lon":5.39746,"is_reserved":false,"is_disabled":false,"rental_uris":{"android":"levelo://app?vid=dcb43350-57ad-4a91-81e9-5f82132aaee5","ios":"levelo://app?vid=dcb43350-57ad-4a91-81e9-5f82132aaee5"},"vehicle_type_id":"4","last_reported":1744002667,"current_range_meters":5600,"station_id":"","pricing_plan_id":"cebpf4jnsgd1na2vs0mg"},{"bike_id":"e3c5f122-d61d-4b7a-b30e-709a3dbe5e46","system_id":"levelo_inurba_marseille","lat":43.324,"lon":5.39014,"is_reserved":false,"is_disabled":false,"rental_uris":{"android":"levelo://app?vid=e3c5f122-d61d-4b7a-b30e-709a3dbe5e46","ios":"levelo://app?vid=e3c5f122-d61d-4b7a-b30e-709a3dbe5e46"},"vehicle_type_id":"4","last_reported":1744002667,"current_range_meters":6000,"station_id":"","pricing_plan_id":"cebpf4jnsgd1na2vs0mg"},{"bike_id":"46aaf249-f504-46ae-93ce-7245839b78b5","system_id":"levelo_inurba_marseille","lat":43.257564,"lon":5.386388,"is_reserved":false,"is_disabled":true,"rental_uris":{"android":"levelo://app?vid=46aaf249-f504-46ae-93ce-7245839b78b5","ios":"levelo://app?vid=46aaf249-f504-46ae-93ce-7245839b78b5"},"vehicle_type_id":"4","last_reported":1744002667,"current_range_meters":6000,"station_id":"","pricing_plan_id":"cebpf4jnsgd1na2vs0mg"},{"bike_id":"694a7586-f602-4016-b8b3-0e6d68879fbd","system_id":"levelo_inurba_marseille","lat":43.31335,"lon":5.36711,"is_reserved":false,"is_disabled":false,"rental_uris":{"android":"levelo://app?vid=694a7586-f602-4016-b8b3-0e6d68879fbd","ios":"levelo://app?vid=694a7586-f602-4016-b8b3-0e6d68879fbd"},"vehicle_type_id":"4","last_reported":1744002667,"current_range_meters":6000,"station_id":"ce4bgr92rcd13ifvqc6g","pricing_plan_id":"cebpf4jnsgd1na2vs0mg"},{"bike_id":"1ac79fd9-07fd-4cfc-9be1-3e86d9136471","system_id":"levelo_inurba_marseille","lat":43.30151,"lon":5.38086,"is_reserved":false,"is_disabled":false,"rental_uris":{"android":"levelo://app?vid=1ac79fd9-07fd-4cfc-9be1-3e86d9136471","ios":"levelo://app?vid=1ac79fd9-07fd-4cfc-9be1-3e86d9136471"},"vehicle_type_id":"4","last_reported":1744002667,"current_range_meters":6000,"station_id":"ce4bgjp2rcd13ifvqbh0","pricing_plan_id":"cebpf4jnsgd1na2vs0mg"},{"bike_id":"620b9284-a283-4a50-82ff-ec39b41f1a89","system_id":"levelo_inurba_marseille","lat":43.30412,"lon":5.37859,"is_reserved":false,"is_disabled":false,"rental_uris":{"android":"levelo://app?vid=620b9284-a283-4a50-82ff-ec39b41f1a89","ios":"levelo://app?vid=620b9284-a283-4a50-82ff-ec39b41f1a89"},"vehicle_type_id":"4","last_reported":1744002667,"current_range_meters":6000,"station_id":"","pricing_plan_id":"cebpf4jnsgd1na2vs0mg"},{"bike_id":"d0f9e713-d1ab-4ae0-8eaf-c9d53ab6e408","system_id":"levelo_inurba_marseille","lat":43.30235,"lon":5.40058,"is_reserved":false,"is_disabled":false,"rental_uris":{"android":"levelo://app?vid=d0f9e713-d1ab-4ae0-8eaf-c9d53ab6e408","ios":"levelo://app?vid=d0f9e713-d1ab-4ae0-8eaf-c9d53ab6e408"},"vehicle_type_id":"4","last_reported":1744002667,"current_range_meters":6000,"station_id":"ce4bgvh2rcd13ifvqcs0","pricing_plan_id":"cebpf4jnsgd1na2vs0mg"},{"bike_id":"42d65106-1644-442f-af68-71ceaa24b7dd","system_id":"levelo_inurba_marseille","lat":43.30229,"lon":5.40064,"is_reserved":false,"is_disabled":false,"rental_uris":{"android":"levelo://app?vid=42d65106-1644-442f-af68-71ceaa24b7dd","ios":"levelo://app?vid=42d65106-1644-442f-af68-71ceaa24b7dd"},"vehicle_type_id":"4","last_reported":1744002667,"current_range_meters":6400,"station_id":"","pricing_plan_id":"cebpf4jnsgd1na2vs0mg"},{"bike_id":"a64078f3-54e7-4eb1-af30-3a1bf886de70","system_id":"levelo_inurba_marseille","lat":43.27808,"lon":5.40708,"is_reserved":false,"is_disabled":false,"rental_uris":{"android":"levelo://app?vid=a64078f3-54e7-4eb1-af30-3a1bf886de70","ios":"levelo://app?vid=a64078f3-54e7-4eb1-af30-3a1bf886de70"},"vehicle_type_id":"4","last_reported":1744002667,"current_range_meters":6400,"station_id":"ce4bhnh2rcd13ifvqgtg","pricing_plan_id":"cebpf4jnsgd1na2vs0mg"},{"bike_id":"1f079019-0e48-41f1-a95e-55d193284b22","system_id":"levelo_inurba_marseille","lat":43.25108,"lon":5.40344,"is_reserved":false,"is_disabled":false,"rental_uris":{"android":"levelo://app?vid=1f079019-0e48-41f1-a95e-55d193284b22","ios":"levelo://app?vid=1f079019-0e48-41f1-a95e-55d193284b22"},"vehicle_type_id":"4","last_reported":1744002667,"current_range_meters":6400,"station_id":"ce4bhlh2rcd13ifvqgig","pricing_plan_id":"cebpf4jnsgd1na2vs0mg"},{"bike_id":"4815b711-7def-4ca4-828f-f82d5b3e3191","system_id":"levelo_inurba_marseille","lat":43.2311,"lon":5.43755,"is_reserved":false,"is_disabled":false,"rental_uris":{"android":"levelo://app?vid=4815b711-7def-4ca4-828f-f82d5b3e3191","ios":"levelo://app?vid=4815b711-7def-4ca4-828f-f82d5b3e3191"},"vehicle_type_id":"4","last_reported":1744002667,"current_range_meters":6400,"station_id":"ce4bhmp2rcd13ifvqgog","pricing_plan_id":"cebpf4jnsgd1na2vs0mg"},{"bike_id":"dfb58d92-0764-4b57-89cb-6d1565f14344","system_id":"levelo_inurba_marseille","lat":43.3092,"lon":5.40161,"is_reserved":false,"is_disabled":true,"rental_uris":{"android":"levelo://app?vid=dfb58d92-0764-4b57-89cb-6d1565f14344","ios":"levelo://app?vid=dfb58d92-0764-4b57-89cb-6d1565f14344"},"vehicle_type_id":"4","last_reported":1744002667,"current_range_meters":6400,"station_id":"ce4bgvp2rcd13ifvqct0","pricing_plan_id":"cebpf4jnsgd1na2vs0mg"},{"bike_id":"09764cee-8724-44c1-b501-307abe5b537a","system_id":"levelo_inurba_marseille","lat":43.320981,"lon":5.367823,"is_reserved":false,"is_disabled":false,"rental_uris":{"android":"levelo://app?vid=09764cee-8724-44c1-b501-307abe5b537a","ios":"levelo://app?vid=09764cee-8724-44c1-b501-307abe5b537a"},"vehicle_type_id":"4","last_reported":1744002667,"current_range_meters":6800,"station_id":"ce4bhrh2rcd13ifvqhug","pricing_plan_id":"cebpf4jnsgd1na2vs0mg"},{"bike_id":"823e71e5-488a-42c8-b7df-9256c147647c","system_id":"levelo_inurba_marseille","lat":43.31261,"lon":5.40171,"is_reserved":false,"is_disabled":false,"rental_uris":{"android":"levelo://app?vid=823e71e5-488a-42c8-b7df-9256c147647c","ios":"levelo://app?vid=823e71e5-488a-42c8-b7df-9256c147647c"},"vehicle_type_id":"4","last_reported":1744002667,"current_range_meters":6800,"station_id":"ce4bh092rcd13ifvqd30","pricing_plan_id":"cebpf4jnsgd1na2vs0mg"},{"bike_id":"1c548c0b-5f25-4e05-ab01-8710b28458ee","system_id":"levelo_inurba_marseille","lat":43.30141,"lon":5.38076,"is_reserved":false,"is_disabled":false,"rental_uris":{"android":"levelo://app?vid=1c548c0b-5f25-4e05-ab01-8710b28458ee","ios":"levelo://app?vid=1c548c0b-5f25-4e05-ab01-8710b28458ee"},"vehicle_type_id":"4","last_reported":1744002667,"current_range_meters":6800,"station_id":"ce4bgjp2rcd13ifvqbh0","pricing_plan_id":"cebpf4jnsgd1na2vs0mg"},{"bike_id":"e2338ca7-448d-47f9-8823-72554d024c69","system_id":"levelo_inurba_marseille","lat":43.28927,"lon":5.36635,"is_reserved":false,"is_disabled":false,"rental_uris":{"android":"levelo://app?vid=e2338ca7-448d-47f9-8823-72554d024c69","ios":"levelo://app?vid=e2338ca7-448d-47f9-8823-72554d024c69"},"vehicle_type_id":"4","last_reported":1744002667,"current_range_meters":6800,"station_id":"ce4bhap2rcd13ifvqek0","pricing_plan_id":"cebpf4jnsgd1na2vs0mg"},{"bike_id":"8a2b7e90-b473-4636-883d-6ecc77c1926c","system_id":"levelo_inurba_marseille","lat":43.30318,"lon":5.36881,"is_reserved":false,"is_disabled":false,"rental_uris":{"android":"levelo://app?vid=8a2b7e90-b473-4636-883d-6ecc77c1926c","ios":"levelo://app?vid=8a2b7e90-b473-4636-883d-6ecc77c1926c"},"vehicle_type_id":"4","last_reported":1744002667,"current_range_meters":6800,"station_id":"ce4bgqh2rcd13ifvqc5g","pricing_plan_id":"cebpf4jnsgd1na2vs0mg"},{"bike_id":"660d99f1-cadb-413d-82ad-e49e35dc1993","system_id":"levelo_inurba_marseille","lat":43.309544,"lon":5.390277,"is_reserved":false,"is_disabled":false,"rental_uris":{"android":"levelo://app?vid=660d99f1-cadb-413d-82ad-e49e35dc1993","ios":"levelo://app?vid=660d99f1-cadb-413d-82ad-e49e35dc1993"},"vehicle_type_id":"4","last_reported":1744002667,"current_range_meters":7200,"station_id":"ce4bgup2rcd13ifvqco0","pricing_plan_id":"cebpf4jnsgd1na2vs0mg"},{"bike_id":"17f01dc5-126d-4aa0-a1d5-e1e7697bb6b1","system_id":"levelo_inurba_marseille","lat":43.29564,"lon":5.39998,"is_reserved":false,"is_disabled":false,"rental_uris":{"android":"levelo://app?vid=17f01dc5-126d-4aa0-a1d5-e1e7697bb6b1","ios":"levelo://app?vid=17f01dc5-126d-4aa0-a1d5-e1e7697bb6b1"},"vehicle_type_id":"4","last_reported":1744002667,"current_range_meters":7200,"station_id":"ce4bh312rcd13ifvqdj0","pricing_plan_id":"cebpf4jnsgd1na2vs0mg"},{"bike_id":"c603aa72-bdd7-43f2-923e-48dc30824a41","system_id":"levelo_inurba_marseille","lat":43.292509,"lon":5.409007,"is_reserved":false,"is_disabled":false,"rental_uris":{"android":"levelo://app?vid=c603aa72-bdd7-43f2-923e-48dc30824a41","ios":"levelo://app?vid=c603aa72-bdd7-43f2-923e-48dc30824a41"},"vehicle_type_id":"4","last_reported":1744002667,"current_range_meters":7200,"station_id":"ce4bh192rcd13ifvqdc0","pricing_plan_id":"cebpf4jnsgd1na2vs0mg"},{"bike_id":"3c631ac8-7678-4ebd-9955-e31ccbfecf77","system_id":"levelo_inurba_marseille","lat":43.287116,"lon":5.379435,"is_reserved":false,"is_disabled":false,"rental_uris":{"android":"levelo://app?vid=3c631ac8-7678-4ebd-9955-e31ccbfecf77","ios":"levelo://app?vid=3c631ac8-7678-4ebd-9955-e31ccbfecf77"},"vehicle_type_id":"4","last_reported":1744002667,"current_range_meters":6800,"station_id":"ce4bgt12rcd13ifvqcd0","pricing_plan_id":"cebpf4jnsgd1na2vs0mg"},{"bike_id":"607bc019-83aa-4c5f-9a00-7697e5e1f6b5","system_id":"levelo_inurba_marseille","lat":43.31261,"lon":5.40183,"is_reserved":false,"is_disabled":false,"rental_uris":{"android":"levelo://app?vid=607bc019-83aa-4c5f-9a00-7697e5e1f6b5","ios":"levelo://app?vid=607bc019-83aa-4c5f-9a00-7697e5e1f6b5"},"vehicle_type_id":"4","last_reported":1744002667,"current_range_meters":7200,"station_id":"ce4bh092rcd13ifvqd30","pricing_plan_id":"cebpf4jnsgd1na2vs0mg"},{"bike_id":"084f6ccc-590d-4452-9786-d8e5edb81906","system_id":"levelo_inurba_marseille","lat":43.29809,"lon":5.40408,"is_reserved":false,"is_disabled":false,"rental_uris":{"android":"levelo://app?vid=084f6ccc-590d-4452-9786-d8e5edb81906","ios":"levelo://app?vid=084f6ccc-590d-4452-9786-d8e5edb81906"},"vehicle_type_id":"4","last_reported":1744002667,"current_range_meters":7200,"station_id":"ce4bh112rcd13ifvqd90","pricing_plan_id":"cebpf4jnsgd1na2vs0mg"},{"bike_id":"879c15b8-249d-4ac3-837b-467979be949e","system_id":"levelo_inurba_marseille","lat":43.233165,"lon":5.361639,"is_reserved":false,"is_disabled":false,"rental_uris":{"android":"levelo://app?vid=879c15b8-249d-4ac3-837b-467979be949e","ios":"levelo://app?vid=879c15b8-249d-4ac3-837b-467979be949e"},"vehicle_type_id":"4","last_reported":1744002667,"current_range_meters":7200,"station_id":"","pricing_plan_id":"cebpf4jnsgd1na2vs0mg"},{"bike_id":"bc4ee155-ba8e-4e1c-94df-304e7b042fb6","system_id":"levelo_inurba_marseille","lat":43.309299,"lon":5.401404,"is_reserved":false,"is_disabled":false,"rental_uris":{"android":"levelo://app?vid=bc4ee155-ba8e-4e1c-94df-304e7b042fb6","ios":"levelo://app?vid=bc4ee155-ba8e-4e1c-94df-304e7b042fb6"},"vehicle_type_id":"4","last_reported":1744002667,"current_range_meters":7200,"station_id":"ce4bgvp2rcd13ifvqct0","pricing_plan_id":"cebpf4jnsgd1na2vs0mg"},{"bike_id":"1d6f3057-f8f7-4009-89c3-a3edbfb45073","system_id":"levelo_inurba_marseille","lat":43.28133,"lon":5.42666,"is_reserved":false,"is_disabled":false,"rental_uris":{"android":"levelo://app?vid=1d6f3057-f8f7-4009-89c3-a3edbfb45073","ios":"levelo://app?vid=1d6f3057-f8f7-4009-89c3-a3edbfb45073"},"vehicle_type_id":"4","last_reported":1744002667,"current_range_meters":8000,"station_id":"ce4bhnh2rcd13ifvqgug","pricing_plan_id":"cebpf4jnsgd1na2vs0mg"},{"bike_id":"5e96b480-0943-41ff-bc95-79d78b1301a2","system_id":"levelo_inurba_marseille","lat":43.27534,"lon":5.423978,"is_reserved":false,"is_disabled":false,"rental_uris":{"android":"levelo://app?vid=5e96b480-0943-41ff-bc95-79d78b1301a2","ios":"levelo://app?vid=5e96b480-0943-41ff-bc95-79d78b1301a2"},"vehicle_type_id":"4","last_reported":1744002667,"current_range_meters":8000,"station_id":"","pricing_plan_id":"cebpf4jnsgd1na2vs0mg"},{"bike_id":"d8bdc8d0-20f1-47c4-a031-27adc62c6ede","system_id":"levelo_inurba_marseille","lat":43.30933,"lon":5.40143,"is_reserved":false,"is_disabled":false,"rental_uris":{"android":"levelo://app?vid=d8bdc8d0-20f1-47c4-a031-27adc62c6ede","ios":"levelo://app?vid=d8bdc8d0-20f1-47c4-a031-27adc62c6ede"},"vehicle_type_id":"4","last_reported":1744002667,"current_range_meters":8000,"station_id":"ce4bgvp2rcd13ifvqct0","pricing_plan_id":"cebpf4jnsgd1na2vs0mg"},{"bike_id":"7ce27535-6fbc-46aa-a0ea-9f11d62c8d01","system_id":"levelo_inurba_marseille","lat":43.31323,"lon":5.39715,"is_reserved":false,"is_disabled":false,"rental_uris":{"android":"levelo://app?vid=7ce27535-6fbc-46aa-a0ea-9f11d62c8d01","ios":"levelo://app?vid=7ce27535-6fbc-46aa-a0ea-9f11d62c8d01"},"vehicle_type_id":"4","last_reported":1744002667,"current_range_meters":8000,"station_id":"ce4bgvp2rcd13ifvqcu0","pricing_plan_id":"cebpf4jnsgd1na2vs0mg"},{"bike_id":"63e6c75d-bf0d-423b-8ef8-45d8dde23055","system_id":"levelo_inurba_marseille","lat":43.28682,"lon":5.37423,"is_reserved":false,"is_disabled":false,"rental_uris":{"android":"levelo://app?vid=63e6c75d-bf0d-423b-8ef8-45d8dde23055","ios":"levelo://app?vid=63e6c75d-bf0d-423b-8ef8-45d8dde23055"},"vehicle_type_id":"4","last_reported":1744002667,"current_range_meters":8000,"station_id":"ce4bh3p2rcd13ifvqdq0","pricing_plan_id":"cebpf4jnsgd1na2vs0mg"},{"bike_id":"9d767d1c-06f2-4390-870c-ab9be12a011f","system_id":"levelo_inurba_marseille","lat":43.30258,"lon":5.40115,"is_reserved":false,"is_disabled":false,"rental_uris":{"android":"levelo://app?vid=9d767d1c-06f2-4390-870c-ab9be12a011f","ios":"levelo://app?vid=9d767d1c-06f2-4390-870c-ab9be12a011f"},"vehicle_type_id":"4","last_reported":1744002667,"current_range_meters":8000,"station_id":"ce4bgvh2rcd13ifvqcs0","pricing_plan_id":"cebpf4jnsgd1na2vs0mg"},{"bike_id":"9f29a6c0-c118-47c7-ac7b-18952a20af3f","system_id":"levelo_inurba_marseille","lat":43.306086,"lon":5.393453,"is_reserved":false,"is_disabled":false,"rental_uris":{"android":"levelo://app?vid=9f29a6c0-c118-47c7-ac7b-18952a20af3f","ios":"levelo://app?vid=9f29a6c0-c118-47c7-ac7b-18952a20af3f"},"vehicle_type_id":"4","last_reported":1744002667,"current_range_meters":8400,"station_id":"ce4bh0p2rcd13ifvqd80","pricing_plan_id":"cebpf4jnsgd1na2vs0mg"},{"bike_id":"d408c9dd-eb34-4ee2-8457-e973282fef82","system_id":"levelo_inurba_marseille","lat":43.30923,"lon":5.40183,"is_reserved":false,"is_disabled":false,"rental_uris":{"android":"levelo://app?vid=d408c9dd-eb34-4ee2-8457-e973282fef82","ios":"levelo://app?vid=d408c9dd-eb34-4ee2-8457-e973282fef82"},"vehicle_type_id":"4","last_reported":1744002667,"current_range_meters":8400,"station_id":"ce4bgvp2rcd13ifvqct0","pricing_plan_id":"cebpf4jnsgd1na2vs0mg"},{"bike_id":"abde5d83-9b30-4b2f-8a88-f914ca452329","system_id":"levelo_inurba_marseille","lat":43.31211,"lon":5.38722,"is_reserved":false,"is_disabled":false,"rental_uris":{"android":"levelo://app?vid=abde5d83-9b30-4b2f-8a88-f914ca452329","ios":"levelo://app?vid=abde5d83-9b30-4b2f-8a88-f914ca452329"},"vehicle_type_id":"4","last_reported":1744002667,"current_range_meters":8400,"station_id":"ce4bgv12rcd13ifvqcp0","pricing_plan_id":"cebpf4jnsgd1na2vs0mg"},{"bike_id":"a3f88b92-3d02-4fed-8b12-0e7732d8ba6f","system_id":"levelo_inurba_marseille","lat":43.30303,"lon":5.36905,"is_reserved":false,"is_disabled":false,"rental_uris":{"android":"levelo://app?vid=a3f88b92-3d02-4fed-8b12-0e7732d8ba6f","ios":"levelo://app?vid=a3f88b92-3d02-4fed-8b12-0e7732d8ba6f"},"vehicle_type_id":"4","last_reported":1744002667,"current_range_meters":8400,"station_id":"ce4bgqh2rcd13ifvqc5g","pricing_plan_id":"cebpf4jnsgd1na2vs0mg"},{"bike_id":"7e114504-c80e-42c2-8dfc-3f805a80c893","system_id":"levelo_inurba_marseille","lat":43.28946,"lon":5.36388,"is_reserved":false,"is_disabled":false,"rental_uris":{"android":"levelo://app?vid=7e114504-c80e-42c2-8dfc-3f805a80c893","ios":"levelo://app?vid=7e114504-c80e-42c2-8dfc-3f805a80c893"},"vehicle_type_id":"4","last_reported":1744002667,"current_range_meters":8400,"station_id":"ce4bhc92rcd13ifvqetg","pricing_plan_id":"cebpf4jnsgd1na2vs0mg"},{"bike_id":"b9c4efe0-3fe2-4437-81f3-7f0134fcf4a5","system_id":"levelo_inurba_marseille","lat":43.246501,"lon":5.389055,"is_reserved":false,"is_disabled":false,"rental_uris":{"android":"levelo://app?vid=b9c4efe0-3fe2-4437-81f3-7f0134fcf4a5","ios":"levelo://app?vid=b9c4efe0-3fe2-4437-81f3-7f0134fcf4a5"},"vehicle_type_id":"4","last_reported":1744002667,"current_range_meters":8400,"station_id":"ce4bhg12rcd13ifvqf60","pricing_plan_id":"cebpf4jnsgd1na2vs0mg"},{"bike_id":"00393ee2-317d-4e98-a30d-fd25773ef49f","system_id":"levelo_inurba_marseille","lat":43.35222,"lon":5.35786,"is_reserved":false,"is_disabled":false,"rental_uris":{"android":"levelo://app?vid=00393ee2-317d-4e98-a30d-fd25773ef49f","ios":"levelo://app?vid=00393ee2-317d-4e98-a30d-fd25773ef49f"},"vehicle_type_id":"4","last_reported":1744002667,"current_range_meters":8400,"station_id":"","pricing_plan_id":"cebpf4jnsgd1na2vs0mg"},{"bike_id":"007107bd-ce1d-49b7-ad24-fc160971ed8b","system_id":"levelo_inurba_marseille","lat":43.31711,"lon":5.37757,"is_reserved":false,"is_disabled":false,"rental_uris":{"android":"levelo://app?vid=007107bd-ce1d-49b7-ad24-fc160971ed8b","ios":"levelo://app?vid=007107bd-ce1d-49b7-ad24-fc160971ed8b"},"vehicle_type_id":"4","last_reported":1744002667,"current_range_meters":8400,"station_id":"ce4bgth2rcd13ifvqch0","pricing_plan_id":"cebpf4jnsgd1na2vs0mg"},{"bike_id":"aba5e844-f429-4fca-8fbd-34616f5265a2","system_id":"levelo_inurba_marseille","lat":43.28149,"lon":5.42656,"is_reserved":false,"is_disabled":false,"rental_uris":{"android":"levelo://app?vid=aba5e844-f429-4fca-8fbd-34616f5265a2","ios":"levelo://app?vid=aba5e844-f429-4fca-8fbd-34616f5265a2"},"vehicle_type_id":"4","last_reported":1744002667,"current_range_meters":8400,"station_id":"ce4bhnh2rcd13ifvqgug","pricing_plan_id":"cebpf4jnsgd1na2vs0mg"},{"bike_id":"093019e0-55e5-42b1-9c23-9d41c3c990a6","system_id":"levelo_inurba_marseille","lat":43.31991,"lon":5.3816,"is_reserved":false,"is_disabled":false,"rental_uris":{"android":"levelo://app?vid=093019e0-55e5-42b1-9c23-9d41c3c990a6","ios":"levelo://app?vid=093019e0-55e5-42b1-9c23-9d41c3c990a6"},"vehicle_type_id":"4","last_reported":1744002667,"current_range_meters":8400,"station_id":"ce4bhr12rcd13ifvqhpg","pricing_plan_id":"cebpf4jnsgd1na2vs0mg"},{"bike_id":"f56fa8c2-6991-4db5-9b1b-225fe2c50caf","system_id":"levelo_inurba_marseille","lat":43.28099,"lon":5.427,"is_reserved":false,"is_disabled":false,"rental_uris":{"android":"levelo://app?vid=f56fa8c2-6991-4db5-9b1b-225fe2c50caf","ios":"levelo://app?vid=f56fa8c2-6991-4db5-9b1b-225fe2c50caf"},"vehicle_type_id":"4","last_reported":1744002667,"current_range_meters":8400,"station_id":"","pricing_plan_id":"cebpf4jnsgd1na2vs0mg"},{"bike_id":"7e998a0c-eed3-46de-aa53-8ecfbd4eddbb","system_id":"levelo_inurba_marseille","lat":43.23181,"lon":5.35572,"is_reserved":false,"is_disabled":true,"rental_uris":{"android":"levelo://app?vid=7e998a0c-eed3-46de-aa53-8ecfbd4eddbb","ios":"levelo://app?vid=7e998a0c-eed3-46de-aa53-8ecfbd4eddbb"},"vehicle_type_id":"4","last_reported":1744002667,"current_range_meters":8400,"station_id":"ce4bhu92rcd13ifvqi70","pricing_plan_id":"cebpf4jnsgd1na2vs0mg"},{"bike_id":"aa2c1d8e-94ab-4e7a-825c-945a570d060b","system_id":"levelo_inurba_marseille","lat":43.2866,"lon":5.36355,"is_reserved":false,"is_disabled":false,"rental_uris":{"android":"levelo://app?vid=aa2c1d8e-94ab-4e7a-825c-945a570d060b","ios":"levelo://app?vid=aa2c1d8e-94ab-4e7a-825c-945a570d060b"},"vehicle_type_id":"4","last_reported":1744002667,"current_range_meters":8400,"station_id":"ce4bhah2rcd13ifvqej0","pricing_plan_id":"cebpf4jnsgd1na2vs0mg"},{"bike_id":"79b7c0f6-c959-495f-a1fe-a74b7e28fd61","system_id":"levelo_inurba_marseille","lat":43.26789,"lon":5.39409,"is_reserved":false,"is_disabled":false,"rental_uris":{"android":"levelo://app?vid=79b7c0f6-c959-495f-a1fe-a74b7e28fd61","ios":"levelo://app?vid=79b7c0f6-c959-495f-a1fe-a74b7e28fd61"},"vehicle_type_id":"4","last_reported":1744002667,"current_range_meters":8400,"station_id":"ce4bhh12rcd13ifvqfg0","pricing_plan_id":"cebpf4jnsgd1na2vs0mg"},{"bike_id":"d66890eb-a849-4361-8afb-8574c3836f73","system_id":"levelo_inurba_marseille","lat":43.260691,"lon":5.387244,"is_reserved":false,"is_disabled":false,"rental_uris":{"android":"levelo://app?vid=d66890eb-a849-4361-8afb-8574c3836f73","ios":"levelo://app?vid=d66890eb-a849-4361-8afb-8574c3836f73"},"vehicle_type_id":"4","last_reported":1744002667,"current_range_meters":8400,"station_id":"","pricing_plan_id":"cebpf4jnsgd1na2vs0mg"},{"bike_id":"7fd0635d-68ad-4ce6-a52b-daef56987b4b","system_id":"levelo_inurba_marseille","lat":43.30848,"lon":5.38596,"is_reserved":false,"is_disabled":false,"rental_uris":{"android":"levelo://app?vid=7fd0635d-68ad-4ce6-a52b-daef56987b4b","ios":"levelo://app?vid=7fd0635d-68ad-4ce6-a52b-daef56987b4b"},"vehicle_type_id":"4","last_reported":1744002667,"current_range_meters":8400,"station_id":"","pricing_plan_id":"cebpf4jnsgd1na2vs0mg"},{"bike_id":"dfe033e5-eb50-4610-85ee-430cd4939587","system_id":"levelo_inurba_marseille","lat":43.27591,"lon":5.36151,"is_reserved":false,"is_disabled":true,"rental_uris":{"android":"levelo://app?vid=dfe033e5-eb50-4610-85ee-430cd4939587","ios":"levelo://app?vid=dfe033e5-eb50-4610-85ee-430cd4939587"},"vehicle_type_id":"4","last_reported":1744002667,"current_range_meters":8400,"station_id":"","pricing_plan_id":"cebpf4jnsgd1na2vs0mg"},{"bike_id":"a8bc2d90-d783-495f-9d68-cb57170b401a","system_id":"levelo_inurba_marseille","lat":43.2797,"lon":5.38727,"is_reserved":false,"is_disabled":false,"rental_uris":{"android":"levelo://app?vid=a8bc2d90-d783-495f-9d68-cb57170b401a","ios":"levelo://app?vid=a8bc2d90-d783-495f-9d68-cb57170b401a"},"vehicle_type_id":"4","last_reported":1744002667,"current_range_meters":8400,"station_id":"ce4bhg12rcd13ifvqf80","pricing_plan_id":"cebpf4jnsgd1na2vs0mg"},{"bike_id":"136b6e45-ee21-453e-aa22-e07947db9071","system_id":"levelo_inurba_marseille","lat":43.23154,"lon":5.43684,"is_reserved":false,"is_disabled":true,"rental_uris":{"android":"levelo://app?vid=136b6e45-ee21-453e-aa22-e07947db9071","ios":"levelo://app?vid=136b6e45-ee21-453e-aa22-e07947db9071"},"vehicle_type_id":"4","last_reported":1744002667,"current_range_meters":8400,"station_id":"ce4bhmp2rcd13ifvqgog","pricing_plan_id":"cebpf4jnsgd1na2vs0mg"},{"bike_id":"e1a3b99f-1191-4a8b-a2a6-2090c643760f","system_id":"levelo_inurba_marseille","lat":43.31266,"lon":5.40185,"is_reserved":false,"is_disabled":false,"rental_uris":{"android":"levelo://app?vid=e1a3b99f-1191-4a8b-a2a6-2090c643760f","ios":"levelo://app?vid=e1a3b99f-1191-4a8b-a2a6-2090c643760f"},"vehicle_type_id":"4","last_reported":1744002667,"current_range_meters":8800,"station_id":"ce4bh092rcd13ifvqd30","pricing_plan_id":"cebpf4jnsgd1na2vs0mg"},{"bike_id":"1266949c-9467-4ff8-bfa0-e172d7be7f64","system_id":"levelo_inurba_marseille","lat":43.3104,"lon":5.36603,"is_reserved":false,"is_disabled":true,"rental_uris":{"android":"levelo://app?vid=1266949c-9467-4ff8-bfa0-e172d7be7f64","ios":"levelo://app?vid=1266949c-9467-4ff8-bfa0-e172d7be7f64"},"vehicle_type_id":"4","last_reported":1744002667,"current_range_meters":8800,"station_id":"","pricing_plan_id":"cebpf4jnsgd1na2vs0mg"},{"bike_id":"72543552-8188-4373-8db0-bd2f24c14e7b","system_id":"levelo_inurba_marseille","lat":43.32275,"lon":5.37674,"is_reserved":false,"is_disabled":false,"rental_uris":{"android":"levelo://app?vid=72543552-8188-4373-8db0-bd2f24c14e7b","ios":"levelo://app?vid=72543552-8188-4373-8db0-bd2f24c14e7b"},"vehicle_type_id":"4","last_reported":1744002667,"current_range_meters":8800,"station_id":"","pricing_plan_id":"cebpf4jnsgd1na2vs0mg"},{"bike_id":"590bd0e2-9f1d-4e6f-9e37-05bb0e5ae5dc","system_id":"levelo_inurba_marseille","lat":43.29878,"lon":5.36403,"is_reserved":false,"is_disabled":false,"rental_uris":{"android":"levelo://app?vid=590bd0e2-9f1d-4e6f-9e37-05bb0e5ae5dc","ios":"levelo://app?vid=590bd0e2-9f1d-4e6f-9e37-05bb0e5ae5dc"},"vehicle_type_id":"4","last_reported":1744002667,"current_range_meters":8800,"station_id":"","pricing_plan_id":"cebpf4jnsgd1na2vs0mg"},{"bike_id":"2cd7ef9b-a726-4134-9830-a54c0abc7b06","system_id":"levelo_inurba_marseille","lat":43.24174,"lon":5.3973,"is_reserved":false,"is_disabled":false,"rental_uris":{"android":"levelo://app?vid=2cd7ef9b-a726-4134-9830-a54c0abc7b06","ios":"levelo://app?vid=2cd7ef9b-a726-4134-9830-a54c0abc7b06"},"vehicle_type_id":"4","last_reported":1744002667,"current_range_meters":8800,"station_id":"ce4bhn12rcd13ifvqgpg","pricing_plan_id":"cebpf4jnsgd1na2vs0mg"},{"bike_id":"edaccf97-dc5b-4501-9f95-e0fff4b79492","system_id":"levelo_inurba_marseille","lat":43.28003,"lon":5.41678,"is_reserved":false,"is_disabled":false,"rental_uris":{"android":"levelo://app?vid=edaccf97-dc5b-4501-9f95-e0fff4b79492","ios":"levelo://app?vid=edaccf97-dc5b-4501-9f95-e0fff4b79492"},"vehicle_type_id":"4","last_reported":1744002667,"current_range_meters":8800,"station_id":"ce4bho12rcd13ifvqh1g","pricing_plan_id":"cebpf4jnsgd1na2vs0mg"},{"bike_id":"7cd7124c-f6f9-4747-8e0d-27da608c61f7","system_id":"levelo_inurba_marseille","lat":43.30931,"lon":5.4016,"is_reserved":false,"is_disabled":false,"rental_uris":{"android":"levelo://app?vid=7cd7124c-f6f9-4747-8e0d-27da608c61f7","ios":"levelo://app?vid=7cd7124c-f6f9-4747-8e0d-27da608c61f7"},"vehicle_type_id":"4","last_reported":1744002667,"current_range_meters":8800,"station_id":"ce4bgvp2rcd13ifvqct0","pricing_plan_id":"cebpf4jnsgd1na2vs0mg"},{"bike_id":"989c95ad-174b-4d11-bf71-7e1e26e27127","system_id":"levelo_inurba_marseille","lat":43.2481,"lon":5.37461,"is_reserved":false,"is_disabled":false,"rental_uris":{"android":"levelo://app?vid=989c95ad-174b-4d11-bf71-7e1e26e27127","ios":"levelo://app?vid=989c95ad-174b-4d11-bf71-7e1e26e27127"},"vehicle_type_id":"4","last_reported":1744002667,"current_range_meters":8800,"station_id":"ce4bhgh2rcd13ifvqfb0","pricing_plan_id":"cebpf4jnsgd1na2vs0mg"},{"bike_id":"351b921a-1463-4cf6-859d-ca5bd51a6e76","system_id":"levelo_inurba_marseille","lat":43.31645,"lon":5.36279,"is_reserved":false,"is_disabled":false,"rental_uris":{"android":"levelo://app?vid=351b921a-1463-4cf6-859d-ca5bd51a6e76","ios":"levelo://app?vid=351b921a-1463-4cf6-859d-ca5bd51a6e76"},"vehicle_type_id":"4","last_reported":1744002667,"current_range_meters":8800,"station_id":"","pricing_plan_id":"cebpf4jnsgd1na2vs0mg"},{"bike_id":"9595b62d-9676-42e9-9df3-e2e6b968d082","system_id":"levelo_inurba_marseille","lat":43.24798,"lon":5.37499,"is_reserved":false,"is_disabled":false,"rental_uris":{"android":"levelo://app?vid=9595b62d-9676-42e9-9df3-e2e6b968d082","ios":"levelo://app?vid=9595b62d-9676-42e9-9df3-e2e6b968d082"},"vehicle_type_id":"4","last_reported":1744002667,"current_range_meters":8800,"station_id":"ce4bhgh2rcd13ifvqfb0","pricing_plan_id":"cebpf4jnsgd1na2vs0mg"},{"bike_id":"4e72b6cc-2f74-49e5-88e7-5f974f79cda9","system_id":"levelo_inurba_marseille","lat":43.30322,"lon":5.40434,"is_reserved":false,"is_disabled":false,"rental_uris":{"android":"levelo://app?vid=4e72b6cc-2f74-49e5-88e7-5f974f79cda9","ios":"levelo://app?vid=4e72b6cc-2f74-49e5-88e7-5f974f79cda9"},"vehicle_type_id":"4","last_reported":1744002667,"current_range_meters":8800,"station_id":"ce4bh012rcd13ifvqd10","pricing_plan_id":"cebpf4jnsgd1na2vs0mg"},{"bike_id":"8f057e49-068b-4a62-9017-111903bcea6c","system_id":"levelo_inurba_marseille","lat":43.30553,"lon":5.38441,"is_reserved":false,"is_disabled":false,"rental_uris":{"android":"levelo://app?vid=8f057e49-068b-4a62-9017-111903bcea6c","ios":"levelo://app?vid=8f057e49-068b-4a62-9017-111903bcea6c"},"vehicle_type_id":"4","last_reported":1744002667,"current_range_meters":9200,"station_id":"ce4bgg92rcd13ifvqb30","pricing_plan_id":"cebpf4jnsgd1na2vs0mg"},{"bike_id":"1caa313b-bb8f-48c3-ad86-14dfa98d6a62","system_id":"levelo_inurba_marseille","lat":43.25575,"lon":5.38242,"is_reserved":false,"is_disabled":true,"rental_uris":{"android":"levelo://app?vid=1caa313b-bb8f-48c3-ad86-14dfa98d6a62","ios":"levelo://app?vid=1caa313b-bb8f-48c3-ad86-14dfa98d6a62"},"vehicle_type_id":"4","last_reported":1744002667,"current_range_meters":9200,"station_id":"ce4bhih2rcd13ifvqfs0","pricing_plan_id":"cebpf4jnsgd1na2vs0mg"},{"bike_id":"b6157195-912e-49c8-9251-05971a804456","system_id":"levelo_inurba_marseille","lat":43.24663,"lon":5.40101,"is_reserved":false,"is_disabled":false,"rental_uris":{"android":"levelo://app?vid=b6157195-912e-49c8-9251-05971a804456","ios":"levelo://app?vid=b6157195-912e-49c8-9251-05971a804456"},"vehicle_type_id":"4","last_reported":1744002667,"current_range_meters":9200,"station_id":"","pricing_plan_id":"cebpf4jnsgd1na2vs0mg"},{"bike_id":"f29aecaa-ade0-467c-986a-b65b06d523f4","system_id":"levelo_inurba_marseille","lat":43.28848,"lon":5.39359,"is_reserved":false,"is_disabled":true,"rental_uris":{"android":"levelo://app?vid=f29aecaa-ade0-467c-986a-b65b06d523f4","ios":"levelo://app?vid=f29aecaa-ade0-467c-986a-b65b06d523f4"},"vehicle_type_id":"4","last_reported":1744002667,"current_range_meters":9200,"station_id":"ce4bh2p2rcd13ifvqdi0","pricing_plan_id":"cebpf4jnsgd1na2vs0mg"},{"bike_id":"c3e6d442-6282-4c88-9f90-93d85aff9e76","system_id":"levelo_inurba_marseille","lat":43.281593,"lon":5.426439,"is_reserved":false,"is_disabled":false,"rental_uris":{"android":"levelo://app?vid=c3e6d442-6282-4c88-9f90-93d85aff9e76","ios":"levelo://app?vid=c3e6d442-6282-4c88-9f90-93d85aff9e76"},"vehicle_type_id":"4","last_reported":1744002667,"current_range_meters":9200,"station_id":"ce4bhnh2rcd13ifvqgug","pricing_plan_id":"cebpf4jnsgd1na2vs0mg"},{"bike_id":"a1913776-e0d9-47a2-9906-ec745965407d","system_id":"levelo_inurba_marseille","lat":43.3128,"lon":5.40186,"is_reserved":false,"is_disabled":false,"rental_uris":{"android":"levelo://app?vid=a1913776-e0d9-47a2-9906-ec745965407d","ios":"levelo://app?vid=a1913776-e0d9-47a2-9906-ec745965407d"},"vehicle_type_id":"4","last_reported":1744002667,"current_range_meters":9200,"station_id":"ce4bh092rcd13ifvqd30","pricing_plan_id":"cebpf4jnsgd1na2vs0mg"},{"bike_id":"cbad6c8e-1bed-4520-9cd1-8ebc39890389","system_id":"levelo_inurba_marseille","lat":43.2856,"lon":5.39532,"is_reserved":false,"is_disabled":false,"rental_uris":{"android":"levelo://app?vid=cbad6c8e-1bed-4520-9cd1-8ebc39890389","ios":"levelo://app?vid=cbad6c8e-1bed-4520-9cd1-8ebc39890389"},"vehicle_type_id":"4","last_reported":1744002667,"current_range_meters":9200,"station_id":"ce4bh292rcd13ifvqdg0","pricing_plan_id":"cebpf4jnsgd1na2vs0mg"},{"bike_id":"2934e2cb-a24e-4858-b0c5-41a565edaee7","system_id":"levelo_inurba_marseille","lat":43.27941,"lon":5.40858,"is_reserved":false,"is_disabled":false,"rental_uris":{"android":"levelo://app?vid=2934e2cb-a24e-4858-b0c5-41a565edaee7","ios":"levelo://app?vid=2934e2cb-a24e-4858-b0c5-41a565edaee7"},"vehicle_type_id":"4","last_reported":1744002667,"current_range_meters":9200,"station_id":"","pricing_plan_id":"cebpf4jnsgd1na2vs0mg"},{"bike_id":"45656cd8-d332-4461-af1d-d61ecbca0668","system_id":"levelo_inurba_marseille","lat":43.32078,"lon":5.36821,"is_reserved":false,"is_disabled":false,"rental_uris":{"android":"levelo://app?vid=45656cd8-d332-4461-af1d-d61ecbca0668","ios":"levelo://app?vid=45656cd8-d332-4461-af1d-d61ecbca0668"},"vehicle_type_id":"4","last_reported":1744002667,"current_range_meters":9200,"station_id":"ce4bhrh2rcd13ifvqhug","pricing_plan_id":"cebpf4jnsgd1na2vs0mg"},{"bike_id":"3e9a35d1-de44-4a45-84e7-a27ce0a23b8b","system_id":"levelo_inurba_marseille","lat":43.27978,"lon":5.4166,"is_reserved":false,"is_disabled":false,"rental_uris":{"android":"levelo://app?vid=3e9a35d1-de44-4a45-84e7-a27ce0a23b8b","ios":"levelo://app?vid=3e9a35d1-de44-4a45-84e7-a27ce0a23b8b"},"vehicle_type_id":"4","last_reported":1744002667,"current_range_meters":9200,"station_id":"ce4bho12rcd13ifvqh1g","pricing_plan_id":"cebpf4jnsgd1na2vs0mg"},{"bike_id":"606675f6-9cae-427a-83c9-8a064752327b","system_id":"levelo_inurba_marseille","lat":43.323654,"lon":5.367609,"is_reserved":false,"is_disabled":false,"rental_uris":{"android":"levelo://app?vid=606675f6-9cae-427a-83c9-8a064752327b","ios":"levelo://app?vid=606675f6-9cae-427a-83c9-8a064752327b"},"vehicle_type_id":"4","last_reported":1744002667,"current_range_meters":9200,"station_id":"ce4bhsh2rcd13ifvqi2g","pricing_plan_id":"cebpf4jnsgd1na2vs0mg"},{"bike_id":"19379d7b-b3b4-46ff-9af1-6370bf06ecc3","system_id":"levelo_inurba_marseille","lat":43.289968,"lon":5.356076,"is_reserved":false,"is_disabled":true,"rental_uris":{"android":"levelo://app?vid=19379d7b-b3b4-46ff-9af1-6370bf06ecc3","ios":"levelo://app?vid=19379d7b-b3b4-46ff-9af1-6370bf06ecc3"},"vehicle_type_id":"4","last_reported":1744002667,"current_range_meters":9200,"station_id":"ce4bhb92rcd13ifvqen0","pricing_plan_id":"cebpf4jnsgd1na2vs0mg"},{"bike_id":"0daff3ae-02b8-46f4-8ce0-7a502e94985c","system_id":"levelo_inurba_marseille","lat":43.31271,"lon":5.4018,"is_reserved":false,"is_disabled":false,"rental_uris":{"android":"levelo://app?vid=0daff3ae-02b8-46f4-8ce0-7a502e94985c","ios":"levelo://app?vid=0daff3ae-02b8-46f4-8ce0-7a502e94985c"},"vehicle_type_id":"4","last_reported":1744002667,"current_range_meters":9600,"station_id":"ce4bh092rcd13ifvqd30","pricing_plan_id":"cebpf4jnsgd1na2vs0mg"},{"bike_id":"90205e48-dc47-484e-9b19-84fe4bcb3fb7","system_id":"levelo_inurba_marseille","lat":43.258246,"lon":5.394316,"is_reserved":false,"is_disabled":false,"rental_uris":{"android":"levelo://app?vid=90205e48-dc47-484e-9b19-84fe4bcb3fb7","ios":"levelo://app?vid=90205e48-dc47-484e-9b19-84fe4bcb3fb7"},"vehicle_type_id":"4","last_reported":1744002667,"current_range_meters":9600,"station_id":"ce4bhip2rcd13ifvqft0","pricing_plan_id":"cebpf4jnsgd1na2vs0mg"},{"bike_id":"8a38320c-a733-4cf5-8c8e-152497fe8f8f","system_id":"levelo_inurba_marseille","lat":43.28151,"lon":5.42638,"is_reserved":false,"is_disabled":false,"rental_uris":{"android":"levelo://app?vid=8a38320c-a733-4cf5-8c8e-152497fe8f8f","ios":"levelo://app?vid=8a38320c-a733-4cf5-8c8e-152497fe8f8f"},"vehicle_type_id":"4","last_reported":1744002667,"current_range_meters":9600,"station_id":"ce4bhnh2rcd13ifvqgug","pricing_plan_id":"cebpf4jnsgd1na2vs0mg"},{"bike_id":"63e1d95c-79be-4b82-a868-e312bf827ceb","system_id":"levelo_inurba_marseille","lat":43.290278,"lon":5.386568,"is_reserved":false,"is_disabled":true,"rental_uris":{"android":"levelo://app?vid=63e1d95c-79be-4b82-a868-e312bf827ceb","ios":"levelo://app?vid=63e1d95c-79be-4b82-a868-e312bf827ceb"},"vehicle_type_id":"4","last_reported":1744002667,"current_range_meters":9600,"station_id":"ce4bh4p2rcd13ifvqe0g","pricing_plan_id":"cebpf4jnsgd1na2vs0mg"},{"bike_id":"f72a0969-fb19-4d3a-90e9-19756f509dbb","system_id":"levelo_inurba_marseille","lat":43.31278,"lon":5.40187,"is_reserved":false,"is_disabled":false,"rental_uris":{"android":"levelo://app?vid=f72a0969-fb19-4d3a-90e9-19756f509dbb","ios":"levelo://app?vid=f72a0969-fb19-4d3a-90e9-19756f509dbb"},"vehicle_type_id":"4","last_reported":1744002667,"current_range_meters":9600,"station_id":"ce4bh092rcd13ifvqd30","pricing_plan_id":"cebpf4jnsgd1na2vs0mg"},{"bike_id":"97872a21-1a99-4c02-91d9-bd084f9f2ebd","system_id":"levelo_inurba_marseille","lat":43.28147,"lon":5.42661,"is_reserved":false,"is_disabled":false,"rental_uris":{"android":"levelo://app?vid=97872a21-1a99-4c02-91d9-bd084f9f2ebd","ios":"levelo://app?vid=97872a21-1a99-4c02-91d9-bd084f9f2ebd"},"vehicle_type_id":"4","last_reported":1744002667,"current_range_meters":9600,"station_id":"ce4bhnh2rcd13ifvqgug","pricing_plan_id":"cebpf4jnsgd1na2vs0mg"},{"bike_id":"33448e42-2dee-4e4d-933a-57b94ec14f0c","system_id":"levelo_inurba_marseille","lat":43.291774,"lon":5.35594,"is_reserved":false,"is_disabled":true,"rental_uris":{"android":"levelo://app?vid=33448e42-2dee-4e4d-933a-57b94ec14f0c","ios":"levelo://app?vid=33448e42-2dee-4e4d-933a-57b94ec14f0c"},"vehicle_type_id":"4","last_reported":1744002667,"current_range_meters":9600,"station_id":"","pricing_plan_id":"cebpf4jnsgd1na2vs0mg"},{"bike_id":"aa9b59b6-65cb-49e0-b211-3fb1aecd03a8","system_id":"levelo_inurba_marseille","lat":43.29182,"lon":5.36137,"is_reserved":false,"is_disabled":true,"rental_uris":{"android":"levelo://app?vid=aa9b59b6-65cb-49e0-b211-3fb1aecd03a8","ios":"levelo://app?vid=aa9b59b6-65cb-49e0-b211-3fb1aecd03a8"},"vehicle_type_id":"4","last_reported":1744002667,"current_range_meters":9600,"station_id":"","pricing_plan_id":"cebpf4jnsgd1na2vs0mg"},{"bike_id":"0971d1a0-e3a6-4af8-b88d-ece3b09a0692","system_id":"levelo_inurba_marseille","lat":43.258264,"lon":5.394291,"is_reserved":false,"is_disabled":false,"rental_uris":{"android":"levelo://app?vid=0971d1a0-e3a6-4af8-b88d-ece3b09a0692","ios":"levelo://app?vid=0971d1a0-e3a6-4af8-b88d-ece3b09a0692"},"vehicle_type_id":"4","last_reported":1744002667,"current_range_meters":9600,"station_id":"ce4bhip2rcd13ifvqft0","pricing_plan_id":"cebpf4jnsgd1na2vs0mg"},{"bike_id":"813087b9-e346-426a-aba8-c71cbb800ab3","system_id":"levelo_inurba_marseille","lat":43.3015,"lon":5.38085,"is_reserved":false,"is_disabled":false,"rental_uris":{"android":"levelo://app?vid=813087b9-e346-426a-aba8-c71cbb800ab3","ios":"levelo://app?vid=813087b9-e346-426a-aba8-c71cbb800ab3"},"vehicle_type_id":"4","last_reported":1744002667,"current_range_meters":9600,"station_id":"ce4bgjp2rcd13ifvqbh0","pricing_plan_id":"cebpf4jnsgd1na2vs0mg"},{"bike_id":"8539495d-a8db-48e8-999c-a0eec7f95200","system_id":"levelo_inurba_marseille","lat":43.254869,"lon":5.376509,"is_reserved":false,"is_disabled":true,"rental_uris":{"android":"levelo://app?vid=8539495d-a8db-48e8-999c-a0eec7f95200","ios":"levelo://app?vid=8539495d-a8db-48e8-999c-a0eec7f95200"},"vehicle_type_id":"4","last_reported":1744002667,"current_range_meters":9600,"station_id":"ce4bhh12rcd13ifvqff0","pricing_plan_id":"cebpf4jnsgd1na2vs0mg"},{"bike_id":"9a285eae-2bf6-4f79-93ba-664911f7d286","system_id":"levelo_inurba_marseille","lat":43.29609,"lon":5.37177,"is_reserved":false,"is_disabled":false,"rental_uris":{"android":"levelo://app?vid=9a285eae-2bf6-4f79-93ba-664911f7d286","ios":"levelo://app?vid=9a285eae-2bf6-4f79-93ba-664911f7d286"},"vehicle_type_id":"4","last_reported":1744002667,"current_range_meters":10000,"station_id":"ce4bgnh2rcd13ifvqc0g","pricing_plan_id":"cebpf4jnsgd1na2vs0mg"},{"bike_id":"a9a04a88-3dd0-4538-9e7a-6a8fc3b64a05","system_id":"levelo_inurba_marseille","lat":43.305934,"lon":5.393546,"is_reserved":false,"is_disabled":false,"rental_uris":{"android":"levelo://app?vid=a9a04a88-3dd0-4538-9e7a-6a8fc3b64a05","ios":"levelo://app?vid=a9a04a88-3dd0-4538-9e7a-6a8fc3b64a05"},"vehicle_type_id":"4","last_reported":1744002667,"current_range_meters":10000,"station_id":"ce4bh0p2rcd13ifvqd80","pricing_plan_id":"cebpf4jnsgd1na2vs0mg"},{"bike_id":"a409c3f0-8991-4228-afb5-57b19bb06658","system_id":"levelo_inurba_marseille","lat":43.32401,"lon":5.38997,"is_reserved":false,"is_disabled":false,"rental_uris":{"android":"levelo://app?vid=a409c3f0-8991-4228-afb5-57b19bb06658","ios":"levelo://app?vid=a409c3f0-8991-4228-afb5-57b19bb06658"},"vehicle_type_id":"4","last_reported":1744002667,"current_range_meters":10000,"station_id":"","pricing_plan_id":"cebpf4jnsgd1na2vs0mg"},{"bike_id":"3a131c82-d16e-4cb7-8973-9592b60ab886","system_id":"levelo_inurba_marseille","lat":43.25076,"lon":5.39512,"is_reserved":false,"is_disabled":false,"rental_uris":{"android":"levelo://app?vid=3a131c82-d16e-4cb7-8973-9592b60ab886","ios":"levelo://app?vid=3a131c82-d16e-4cb7-8973-9592b60ab886"},"vehicle_type_id":"4","last_reported":1744002667,"current_range_meters":10000,"station_id":"ce4bhm12rcd13ifvqgkg","pricing_plan_id":"cebpf4jnsgd1na2vs0mg"},{"bike_id":"a959694d-18ce-4d80-917f-23c91ed81065","system_id":"levelo_inurba_marseille","lat":43.29906,"lon":5.43663,"is_reserved":false,"is_disabled":false,"rental_uris":{"android":"levelo://app?vid=a959694d-18ce-4d80-917f-23c91ed81065","ios":"levelo://app?vid=a959694d-18ce-4d80-917f-23c91ed81065"},"vehicle_type_id":"4","last_reported":1744002667,"current_range_meters":10000,"station_id":"ce4bhpp2rcd13ifvqhfg","pricing_plan_id":"cebpf4jnsgd1na2vs0mg"},{"bike_id":"a5bd5abf-e64b-49fb-9823-db9745ea97e7","system_id":"levelo_inurba_marseille","lat":43.28937,"lon":5.36652,"is_reserved":false,"is_disabled":true,"rental_uris":{"android":"levelo://app?vid=a5bd5abf-e64b-49fb-9823-db9745ea97e7","ios":"levelo://app?vid=a5bd5abf-e64b-49fb-9823-db9745ea97e7"},"vehicle_type_id":"4","last_reported":1744002667,"current_range_meters":10000,"station_id":"ce4bhap2rcd13ifvqek0","pricing_plan_id":"cebpf4jnsgd1na2vs0mg"},{"bike_id":"e4d4dc7a-abcd-4c1d-8017-887f937d011f","system_id":"levelo_inurba_marseille","lat":43.29569,"lon":5.39967,"is_reserved":false,"is_disabled":true,"rental_uris":{"android":"levelo://app?vid=e4d4dc7a-abcd-4c1d-8017-887f937d011f","ios":"levelo://app?vid=e4d4dc7a-abcd-4c1d-8017-887f937d011f"},"vehicle_type_id":"4","last_reported":1744002667,"current_range_meters":10000,"station_id":"ce4bh312rcd13ifvqdj0","pricing_plan_id":"cebpf4jnsgd1na2vs0mg"},{"bike_id":"01a1c797-c37c-417f-b77f-42306edd9074","system_id":"levelo_inurba_marseille","lat":43.30601,"lon":5.39364,"is_reserved":false,"is_disabled":false,"rental_uris":{"android":"levelo://app?vid=01a1c797-c37c-417f-b77f-42306edd9074","ios":"levelo://app?vid=01a1c797-c37c-417f-b77f-42306edd9074"},"vehicle_type_id":"4","last_reported":1744002667,"current_range_meters":10000,"station_id":"ce4bh0p2rcd13ifvqd80","pricing_plan_id":"cebpf4jnsgd1na2vs0mg"},{"bike_id":"03459487-5609-45d6-8672-77ad1a4c94a5","system_id":"levelo_inurba_marseille","lat":43.23113,"lon":5.43749,"is_reserved":false,"is_disabled":false,"rental_uris":{"android":"levelo://app?vid=03459487-5609-45d6-8672-77ad1a4c94a5","ios":"levelo://app?vid=03459487-5609-45d6-8672-77ad1a4c94a5"},"vehicle_type_id":"4","last_reported":1744002667,"current_range_meters":10800,"station_id":"ce4bhmp2rcd13ifvqgog","pricing_plan_id":"cebpf4jnsgd1na2vs0mg"},{"bike_id":"d6c3d7f4-760c-422c-8667-25e15a7934b3","system_id":"levelo_inurba_marseille","lat":43.30797,"lon":5.374,"is_reserved":false,"is_disabled":false,"rental_uris":{"android":"levelo://app?vid=d6c3d7f4-760c-422c-8667-25e15a7934b3","ios":"levelo://app?vid=d6c3d7f4-760c-422c-8667-25e15a7934b3"},"vehicle_type_id":"4","last_reported":1744002667,"current_range_meters":10800,"station_id":"","pricing_plan_id":"cebpf4jnsgd1na2vs0mg"},{"bike_id":"133627c3-b16a-434f-8fd9-9df56255a0b6","system_id":"levelo_inurba_marseille","lat":43.246764,"lon":5.381603,"is_reserved":false,"is_disabled":false,"rental_uris":{"android":"levelo://app?vid=133627c3-b16a-434f-8fd9-9df56255a0b6","ios":"levelo://app?vid=133627c3-b16a-434f-8fd9-9df56255a0b6"},"vehicle_type_id":"4","last_reported":1744002667,"current_range_meters":10800,"station_id":"ce4bhih2rcd13ifvqfr0","pricing_plan_id":"cebpf4jnsgd1na2vs0mg"},{"bike_id":"beb79017-286c-4e11-a539-af1cb953b0ac","system_id":"levelo_inurba_marseille","lat":43.303,"lon":5.40493,"is_reserved":false,"is_disabled":false,"rental_uris":{"android":"levelo://app?vid=beb79017-286c-4e11-a539-af1cb953b0ac","ios":"levelo://app?vid=beb79017-286c-4e11-a539-af1cb953b0ac"},"vehicle_type_id":"4","last_reported":1744002667,"current_range_meters":10800,"station_id":"","pricing_plan_id":"cebpf4jnsgd1na2vs0mg"},{"bike_id":"1e81c4d2-6637-42bf-8d6d-5d37c0fe2360","system_id":"levelo_inurba_marseille","lat":43.32093,"lon":5.36807,"is_reserved":false,"is_disabled":false,"rental_uris":{"android":"levelo://app?vid=1e81c4d2-6637-42bf-8d6d-5d37c0fe2360","ios":"levelo://app?vid=1e81c4d2-6637-42bf-8d6d-5d37c0fe2360"},"vehicle_type_id":"4","last_reported":1744002667,"current_range_meters":10800,"station_id":"ce4bhrh2rcd13ifvqhug","pricing_plan_id":"cebpf4jnsgd1na2vs0mg"},{"bike_id":"87bda883-ac94-49fc-94c2-3a86e52b4f97","system_id":"levelo_inurba_marseille","lat":43.30726,"lon":5.383363,"is_reserved":false,"is_disabled":false,"rental_uris":{"android":"levelo://app?vid=87bda883-ac94-49fc-94c2-3a86e52b4f97","ios":"levelo://app?vid=87bda883-ac94-49fc-94c2-3a86e52b4f97"},"vehicle_type_id":"4","last_reported":1744002667,"current_range_meters":10800,"station_id":"","pricing_plan_id":"cebpf4jnsgd1na2vs0mg"},{"bike_id":"cdf6e462-4f33-442e-b4e5-8123fd21a045","system_id":"levelo_inurba_marseille","lat":43.31069,"lon":5.383526,"is_reserved":false,"is_disabled":false,"rental_uris":{"android":"levelo://app?vid=cdf6e462-4f33-442e-b4e5-8123fd21a045","ios":"levelo://app?vid=cdf6e462-4f33-442e-b4e5-8123fd21a045"},"vehicle_type_id":"4","last_reported":1744002667,"current_range_meters":10800,"station_id":"ce4bgv92rcd13ifvqcr0","pricing_plan_id":"cebpf4jnsgd1na2vs0mg"},{"bike_id":"d893a78a-9318-483a-996e-9bec91fd98dc","system_id":"levelo_inurba_marseille","lat":43.31698,"lon":5.43727,"is_reserved":false,"is_disabled":false,"rental_uris":{"android":"levelo://app?vid=d893a78a-9318-483a-996e-9bec91fd98dc","ios":"levelo://app?vid=d893a78a-9318-483a-996e-9bec91fd98dc"},"vehicle_type_id":"4","last_reported":1744002667,"current_range_meters":10800,"station_id":"ce4bhp92rcd13ifvqhcg","pricing_plan_id":"cebpf4jnsgd1na2vs0mg"},{"bike_id":"01b7085e-f4b2-4524-8e40-c9fe4de69333","system_id":"levelo_inurba_marseille","lat":43.23148,"lon":5.4372,"is_reserved":false,"is_disabled":false,"rental_uris":{"android":"levelo://app?vid=01b7085e-f4b2-4524-8e40-c9fe4de69333","ios":"levelo://app?vid=01b7085e-f4b2-4524-8e40-c9fe4de69333"},"vehicle_type_id":"4","last_reported":1744002667,"current_range_meters":10800,"station_id":"ce4bhmp2rcd13ifvqgog","pricing_plan_id":"cebpf4jnsgd1na2vs0mg"},{"bike_id":"aad492d5-fde3-44ed-a544-706eaf9ac80e","system_id":"levelo_inurba_marseille","lat":43.273818,"lon":5.362581,"is_reserved":false,"is_disabled":false,"rental_uris":{"android":"levelo://app?vid=aad492d5-fde3-44ed-a544-706eaf9ac80e","ios":"levelo://app?vid=aad492d5-fde3-44ed-a544-706eaf9ac80e"},"vehicle_type_id":"4","last_reported":1744002667,"current_range_meters":10800,"station_id":"ce4bhbh2rcd13ifvqeo0","pricing_plan_id":"cebpf4jnsgd1na2vs0mg"},{"bike_id":"891f1f09-6759-480b-9d4f-0756d59abf11","system_id":"levelo_inurba_marseille","lat":43.22496,"lon":5.348,"is_reserved":false,"is_disabled":false,"rental_uris":{"android":"levelo://app?vid=891f1f09-6759-480b-9d4f-0756d59abf11","ios":"levelo://app?vid=891f1f09-6759-480b-9d4f-0756d59abf11"},"vehicle_type_id":"4","last_reported":1744002667,"current_range_meters":10800,"station_id":"ce4bh612rcd13ifvqe6g","pricing_plan_id":"cebpf4jnsgd1na2vs0mg"},{"bike_id":"765e037f-a609-4749-a28d-035ad3247e74","system_id":"levelo_inurba_marseille","lat":43.31232,"lon":5.36866,"is_reserved":false,"is_disabled":false,"rental_uris":{"android":"levelo://app?vid=765e037f-a609-4749-a28d-035ad3247e74","ios":"levelo://app?vid=765e037f-a609-4749-a28d-035ad3247e74"},"vehicle_type_id":"4","last_reported":1744002667,"current_range_meters":11200,"station_id":"ce4bgl92rcd13ifvqbq0","pricing_plan_id":"cebpf4jnsgd1na2vs0mg"},{"bike_id":"3a6cf4dd-4a04-48a6-bbfb-6b1ea18759b5","system_id":"levelo_inurba_marseille","lat":43.32391,"lon":5.36728,"is_reserved":false,"is_disabled":false,"rental_uris":{"android":"levelo://app?vid=3a6cf4dd-4a04-48a6-bbfb-6b1ea18759b5","ios":"levelo://app?vid=3a6cf4dd-4a04-48a6-bbfb-6b1ea18759b5"},"vehicle_type_id":"4","last_reported":1744002667,"current_range_meters":11200,"station_id":"ce4bhsh2rcd13ifvqi2g","pricing_plan_id":"cebpf4jnsgd1na2vs0mg"},{"bike_id":"e53b9e9b-ac51-4f70-ad60-ed3149b8c178","system_id":"levelo_inurba_marseille","lat":43.31305,"lon":5.37344,"is_reserved":false,"is_disabled":false,"rental_uris":{"android":"levelo://app?vid=e53b9e9b-ac51-4f70-ad60-ed3149b8c178","ios":"levelo://app?vid=e53b9e9b-ac51-4f70-ad60-ed3149b8c178"},"vehicle_type_id":"4","last_reported":1744002667,"current_range_meters":11200,"station_id":"","pricing_plan_id":"cebpf4jnsgd1na2vs0mg"},{"bike_id":"dad243de-db16-468b-a7ed-718dc0fbcbbd","system_id":"levelo_inurba_marseille","lat":43.301489,"lon":5.380621,"is_reserved":false,"is_disabled":false,"rental_uris":{"android":"levelo://app?vid=dad243de-db16-468b-a7ed-718dc0fbcbbd","ios":"levelo://app?vid=dad243de-db16-468b-a7ed-718dc0fbcbbd"},"vehicle_type_id":"4","last_reported":1744002667,"current_range_meters":11200,"station_id":"ce4bgjp2rcd13ifvqbh0","pricing_plan_id":"cebpf4jnsgd1na2vs0mg"},{"bike_id":"222e1e00-578b-4512-8bd3-f56c6fa61730","system_id":"levelo_inurba_marseille","lat":43.2396,"lon":5.36636,"is_reserved":false,"is_disabled":true,"rental_uris":{"android":"levelo://app?vid=222e1e00-578b-4512-8bd3-f56c6fa61730","ios":"levelo://app?vid=222e1e00-578b-4512-8bd3-f56c6fa61730"},"vehicle_type_id":"4","last_reported":1744002667,"current_range_meters":11200,"station_id":"ce4bhi12rcd13ifvqfp0","pricing_plan_id":"cebpf4jnsgd1na2vs0mg"},{"bike_id":"84fd32e4-3845-43ac-915c-34f8cee585d3","system_id":"levelo_inurba_marseille","lat":43.23961,"lon":5.36642,"is_reserved":false,"is_disabled":false,"rental_uris":{"android":"levelo://app?vid=84fd32e4-3845-43ac-915c-34f8cee585d3","ios":"levelo://app?vid=84fd32e4-3845-43ac-915c-34f8cee585d3"},"vehicle_type_id":"4","last_reported":1744002667,"current_range_meters":11600,"station_id":"ce4bhi12rcd13ifvqfp0","pricing_plan_id":"cebpf4jnsgd1na2vs0mg"},{"bike_id":"935587bd-e327-433f-b68c-6a9a15057f6f","system_id":"levelo_inurba_marseille","lat":43.31429,"lon":5.40168,"is_reserved":false,"is_disabled":false,"rental_uris":{"android":"levelo://app?vid=935587bd-e327-433f-b68c-6a9a15057f6f","ios":"levelo://app?vid=935587bd-e327-433f-b68c-6a9a15057f6f"},"vehicle_type_id":"4","last_reported":1744002667,"current_range_meters":11600,"station_id":"","pricing_plan_id":"cebpf4jnsgd1na2vs0mg"},{"bike_id":"4a73e01b-db1a-4e60-be32-7f936f46f606","system_id":"levelo_inurba_marseille","lat":43.307955,"lon":5.381547,"is_reserved":false,"is_disabled":false,"rental_uris":{"android":"levelo://app?vid=4a73e01b-db1a-4e60-be32-7f936f46f606","ios":"levelo://app?vid=4a73e01b-db1a-4e60-be32-7f936f46f606"},"vehicle_type_id":"4","last_reported":1744002667,"current_range_meters":11200,"station_id":"ce4bgt12rcd13ifvqce0","pricing_plan_id":"cebpf4jnsgd1na2vs0mg"},{"bike_id":"bfe57f62-0f9e-4cdc-82b0-8d00041fbc63","system_id":"levelo_inurba_marseille","lat":43.25,"lon":5.38956,"is_reserved":false,"is_disabled":false,"rental_uris":{"android":"levelo://app?vid=bfe57f62-0f9e-4cdc-82b0-8d00041fbc63","ios":"levelo://app?vid=bfe57f62-0f9e-4cdc-82b0-8d00041fbc63"},"vehicle_type_id":"4","last_reported":1744002667,"current_range_meters":11600,"station_id":"ce4bhgp2rcd13ifvqfd0","pricing_plan_id":"cebpf4jnsgd1na2vs0mg"},{"bike_id":"703d13d1-fc59-4c26-b63b-e6c0176b0e32","system_id":"levelo_inurba_marseille","lat":43.30518,"lon":5.38451,"is_reserved":false,"is_disabled":false,"rental_uris":{"android":"levelo://app?vid=703d13d1-fc59-4c26-b63b-e6c0176b0e32","ios":"levelo://app?vid=703d13d1-fc59-4c26-b63b-e6c0176b0e32"},"vehicle_type_id":"4","last_reported":1744002667,"current_range_meters":12000,"station_id":"ce4bgg92rcd13ifvqb30","pricing_plan_id":"cebpf4jnsgd1na2vs0mg"},{"bike_id":"e9747bb7-e880-415e-9b3f-996a32cf6231","system_id":"levelo_inurba_marseille","lat":43.30583,"lon":5.39381,"is_reserved":false,"is_disabled":false,"rental_uris":{"android":"levelo://app?vid=e9747bb7-e880-415e-9b3f-996a32cf6231","ios":"levelo://app?vid=e9747bb7-e880-415e-9b3f-996a32cf6231"},"vehicle_type_id":"4","last_reported":1744002667,"current_range_meters":12000,"station_id":"ce4bh0p2rcd13ifvqd80","pricing_plan_id":"cebpf4jnsgd1na2vs0mg"},{"bike_id":"c97fab7c-4ae4-47f0-85e8-497cc634a15e","system_id":"levelo_inurba_marseille","lat":43.29443,"lon":5.39761,"is_reserved":false,"is_disabled":false,"rental_uris":{"android":"levelo://app?vid=c97fab7c-4ae4-47f0-85e8-497cc634a15e","ios":"levelo://app?vid=c97fab7c-4ae4-47f0-85e8-497cc634a15e"},"vehicle_type_id":"4","last_reported":1744002667,"current_range_meters":12000,"station_id":"ce4bh3h2rcd13ifvqdo0","pricing_plan_id":"cebpf4jnsgd1na2vs0mg"},{"bike_id":"d19affee-a7e5-482c-b631-ffb68f6b53b9","system_id":"levelo_inurba_marseille","lat":43.23194,"lon":5.39981,"is_reserved":false,"is_disabled":false,"rental_uris":{"android":"levelo://app?vid=d19affee-a7e5-482c-b631-ffb68f6b53b9","ios":"levelo://app?vid=d19affee-a7e5-482c-b631-ffb68f6b53b9"},"vehicle_type_id":"4","last_reported":1744002667,"current_range_meters":12000,"station_id":"ce4bhn12rcd13ifvqgqg","pricing_plan_id":"cebpf4jnsgd1na2vs0mg"},{"bike_id":"baa461e7-b163-4792-90ce-3daa1f7984a7","system_id":"levelo_inurba_marseille","lat":43.30256,"lon":5.40074,"is_reserved":false,"is_disabled":false,"rental_uris":{"android":"levelo://app?vid=baa461e7-b163-4792-90ce-3daa1f7984a7","ios":"levelo://app?vid=baa461e7-b163-4792-90ce-3daa1f7984a7"},"vehicle_type_id":"4","last_reported":1744002667,"current_range_meters":12000,"station_id":"ce4bgvh2rcd13ifvqcs0","pricing_plan_id":"cebpf4jnsgd1na2vs0mg"},{"bike_id":"ed8fc941-f91b-4ac4-b638-8ae395bbc5c7","system_id":"levelo_inurba_marseille","lat":43.2922,"lon":5.36067,"is_reserved":false,"is_disabled":true,"rental_uris":{"android":"levelo://app?vid=ed8fc941-f91b-4ac4-b638-8ae395bbc5c7","ios":"levelo://app?vid=ed8fc941-f91b-4ac4-b638-8ae395bbc5c7"},"vehicle_type_id":"4","last_reported":1744002667,"current_range_meters":12000,"station_id":"ce4bhbh2rcd13ifvqeqg","pricing_plan_id":"cebpf4jnsgd1na2vs0mg"},{"bike_id":"a7ed2b15-c9ec-4171-9c58-70b036ffc8d4","system_id":"levelo_inurba_marseille","lat":43.28691,"lon":5.37429,"is_reserved":false,"is_disabled":false,"rental_uris":{"android":"levelo://app?vid=a7ed2b15-c9ec-4171-9c58-70b036ffc8d4","ios":"levelo://app?vid=a7ed2b15-c9ec-4171-9c58-70b036ffc8d4"},"vehicle_type_id":"4","last_reported":1744002667,"current_range_meters":12000,"station_id":"ce4bh3p2rcd13ifvqdq0","pricing_plan_id":"cebpf4jnsgd1na2vs0mg"},{"bike_id":"543e8a52-25b8-474c-a2e7-31d0c99c8646","system_id":"levelo_inurba_marseille","lat":43.241764,"lon":5.397238,"is_reserved":false,"is_disabled":false,"rental_uris":{"android":"levelo://app?vid=543e8a52-25b8-474c-a2e7-31d0c99c8646","ios":"levelo://app?vid=543e8a52-25b8-474c-a2e7-31d0c99c8646"},"vehicle_type_id":"4","last_reported":1744002667,"current_range_meters":12000,"station_id":"ce4bhn12rcd13ifvqgpg","pricing_plan_id":"cebpf4jnsgd1na2vs0mg"},{"bike_id":"bf096564-9706-4c3b-8885-b9e5d2f390b8","system_id":"levelo_inurba_marseille","lat":43.30469,"lon":5.3791,"is_reserved":false,"is_disabled":false,"rental_uris":{"android":"levelo://app?vid=bf096564-9706-4c3b-8885-b9e5d2f390b8","ios":"levelo://app?vid=bf096564-9706-4c3b-8885-b9e5d2f390b8"},"vehicle_type_id":"4","last_reported":1744002667,"current_range_meters":12400,"station_id":"ce4bgup2rcd13ifvqcn0","pricing_plan_id":"cebpf4jnsgd1na2vs0mg"},{"bike_id":"3af5c914-3bce-47f8-a27a-481840a2a6c0","system_id":"levelo_inurba_marseille","lat":43.26201,"lon":5.40458,"is_reserved":false,"is_disabled":false,"rental_uris":{"android":"levelo://app?vid=3af5c914-3bce-47f8-a27a-481840a2a6c0","ios":"levelo://app?vid=3af5c914-3bce-47f8-a27a-481840a2a6c0"},"vehicle_type_id":"4","last_reported":1744002667,"current_range_meters":12400,"station_id":"ce4bhmh2rcd13ifvqgmg","pricing_plan_id":"cebpf4jnsgd1na2vs0mg"},{"bike_id":"0fd453bc-2d6e-4482-8ae4-2c4cd0a51bc1","system_id":"levelo_inurba_marseille","lat":43.30784,"lon":5.37992,"is_reserved":false,"is_disabled":false,"rental_uris":{"android":"levelo://app?vid=0fd453bc-2d6e-4482-8ae4-2c4cd0a51bc1","ios":"levelo://app?vid=0fd453bc-2d6e-4482-8ae4-2c4cd0a51bc1"},"vehicle_type_id":"4","last_reported":1744002667,"current_range_meters":12400,"station_id":"","pricing_plan_id":"cebpf4jnsgd1na2vs0mg"},{"bike_id":"750bc9c2-8244-4f27-a571-77c62d7d6b92","system_id":"levelo_inurba_marseille","lat":43.31271,"lon":5.37767,"is_reserved":false,"is_disabled":false,"rental_uris":{"android":"levelo://app?vid=750bc9c2-8244-4f27-a571-77c62d7d6b92","ios":"levelo://app?vid=750bc9c2-8244-4f27-a571-77c62d7d6b92"},"vehicle_type_id":"4","last_reported":1744002667,"current_range_meters":12400,"station_id":"","pricing_plan_id":"cebpf4jnsgd1na2vs0mg"},{"bike_id":"7956d4b7-f9df-4616-bd52-832d0af74ae0","system_id":"levelo_inurba_marseille","lat":43.2571,"lon":5.41091,"is_reserved":false,"is_disabled":false,"rental_uris":{"android":"levelo://app?vid=7956d4b7-f9df-4616-bd52-832d0af74ae0","ios":"levelo://app?vid=7956d4b7-f9df-4616-bd52-832d0af74ae0"},"vehicle_type_id":"4","last_reported":1744002667,"current_range_meters":12400,"station_id":"ce4bhkp2rcd13ifvqgd0","pricing_plan_id":"cebpf4jnsgd1na2vs0mg"},{"bike_id":"e926ae44-9c36-4909-aca0-768b34034fa9","system_id":"levelo_inurba_marseille","lat":43.319976,"lon":5.381512,"is_reserved":false,"is_disabled":true,"rental_uris":{"android":"levelo://app?vid=e926ae44-9c36-4909-aca0-768b34034fa9","ios":"levelo://app?vid=e926ae44-9c36-4909-aca0-768b34034fa9"},"vehicle_type_id":"4","last_reported":1744002667,"current_range_meters":12400,"station_id":"ce4bhr12rcd13ifvqhpg","pricing_plan_id":"cebpf4jnsgd1na2vs0mg"},{"bike_id":"f4832abd-f35c-481e-82f2-2bb40a89ba44","system_id":"levelo_inurba_marseille","lat":43.30589,"lon":5.3936,"is_reserved":false,"is_disabled":false,"rental_uris":{"android":"levelo://app?vid=f4832abd-f35c-481e-82f2-2bb40a89ba44","ios":"levelo://app?vid=f4832abd-f35c-481e-82f2-2bb40a89ba44"},"vehicle_type_id":"4","last_reported":1744002667,"current_range_meters":12400,"station_id":"ce4bh0p2rcd13ifvqd80","pricing_plan_id":"cebpf4jnsgd1na2vs0mg"},{"bike_id":"8f6f72ad-7fb5-49c2-9330-180a477888ea","system_id":"levelo_inurba_marseille","lat":43.30322,"lon":5.40441,"is_reserved":false,"is_disabled":false,"rental_uris":{"android":"levelo://app?vid=8f6f72ad-7fb5-49c2-9330-180a477888ea","ios":"levelo://app?vid=8f6f72ad-7fb5-49c2-9330-180a477888ea"},"vehicle_type_id":"4","last_reported":1744002667,"current_range_meters":12400,"station_id":"ce4bh012rcd13ifvqd10","pricing_plan_id":"cebpf4jnsgd1na2vs0mg"},{"bike_id":"205585cb-3459-4014-8ea0-a5ac37bad034","system_id":"levelo_inurba_marseille","lat":43.28358,"lon":5.38096,"is_reserved":false,"is_disabled":false,"rental_uris":{"android":"levelo://app?vid=205585cb-3459-4014-8ea0-a5ac37bad034","ios":"levelo://app?vid=205585cb-3459-4014-8ea0-a5ac37bad034"},"vehicle_type_id":"4","last_reported":1744002667,"current_range_meters":12000,"station_id":"ce4bh412rcd13ifvqdr0","pricing_plan_id":"cebpf4jnsgd1na2vs0mg"},{"bike_id":"b61101bd-8973-4011-98c2-b27795b1e2ff","system_id":"levelo_inurba_marseille","lat":43.289449,"lon":5.363883,"is_reserved":false,"is_disabled":false,"rental_uris":{"android":"levelo://app?vid=b61101bd-8973-4011-98c2-b27795b1e2ff","ios":"levelo://app?vid=b61101bd-8973-4011-98c2-b27795b1e2ff"},"vehicle_type_id":"4","last_reported":1744002667,"current_range_meters":12400,"station_id":"ce4bgjp2rcd13ifvqbh0","pricing_plan_id":"cebpf4jnsgd1na2vs0mg"},{"bike_id":"8c0277e1-e4c4-40a5-98df-41fe842b8a42","system_id":"levelo_inurba_marseille","lat":43.25825,"lon":5.394375,"is_reserved":false,"is_disabled":true,"rental_uris":{"android":"levelo://app?vid=8c0277e1-e4c4-40a5-98df-41fe842b8a42","ios":"levelo://app?vid=8c0277e1-e4c4-40a5-98df-41fe842b8a42"},"vehicle_type_id":"4","last_reported":1744002667,"current_range_meters":12400,"station_id":"ce4bhip2rcd13ifvqft0","pricing_plan_id":"cebpf4jnsgd1na2vs0mg"},{"bike_id":"d3398a9d-8182-4669-8042-b7dc0d8d1823","system_id":"levelo_inurba_marseille","lat":43.29894,"lon":5.4365,"is_reserved":false,"is_disabled":false,"rental_uris":{"android":"levelo://app?vid=d3398a9d-8182-4669-8042-b7dc0d8d1823","ios":"levelo://app?vid=d3398a9d-8182-4669-8042-b7dc0d8d1823"},"vehicle_type_id":"4","last_reported":1744002667,"current_range_meters":12800,"station_id":"ce4bhpp2rcd13ifvqhfg","pricing_plan_id":"cebpf4jnsgd1na2vs0mg"},{"bike_id":"34f62bea-f2eb-412e-8f55-bf9283ccb2a7","system_id":"levelo_inurba_marseille","lat":43.28355,"lon":5.38111,"is_reserved":false,"is_disabled":false,"rental_uris":{"android":"levelo://app?vid=34f62bea-f2eb-412e-8f55-bf9283ccb2a7","ios":"levelo://app?vid=34f62bea-f2eb-412e-8f55-bf9283ccb2a7"},"vehicle_type_id":"4","last_reported":1744002667,"current_range_meters":12800,"station_id":"ce4bh412rcd13ifvqdr0","pricing_plan_id":"cebpf4jnsgd1na2vs0mg"},{"bike_id":"f5a135ae-6da6-43f5-944c-2fcefb4a89ef","system_id":"levelo_inurba_marseille","lat":43.30926,"lon":5.40158,"is_reserved":false,"is_disabled":false,"rental_uris":{"android":"levelo://app?vid=f5a135ae-6da6-43f5-944c-2fcefb4a89ef","ios":"levelo://app?vid=f5a135ae-6da6-43f5-944c-2fcefb4a89ef"},"vehicle_type_id":"4","last_reported":1744002667,"current_range_meters":12800,"station_id":"ce4bgvp2rcd13ifvqct0","pricing_plan_id":"cebpf4jnsgd1na2vs0mg"},{"bike_id":"31680a03-0208-48c5-8f58-55f2ae922a13","system_id":"levelo_inurba_marseille","lat":43.25937,"lon":5.40905,"is_reserved":false,"is_disabled":false,"rental_uris":{"android":"levelo://app?vid=31680a03-0208-48c5-8f58-55f2ae922a13","ios":"levelo://app?vid=31680a03-0208-48c5-8f58-55f2ae922a13"},"vehicle_type_id":"4","last_reported":1744002667,"current_range_meters":12800,"station_id":"ce4bhm92rcd13ifvqglg","pricing_plan_id":"cebpf4jnsgd1na2vs0mg"},{"bike_id":"b3955141-b4e4-46ef-9f72-2d6ddb89ac2c","system_id":"levelo_inurba_marseille","lat":43.23147,"lon":5.437239,"is_reserved":false,"is_disabled":false,"rental_uris":{"android":"levelo://app?vid=b3955141-b4e4-46ef-9f72-2d6ddb89ac2c","ios":"levelo://app?vid=b3955141-b4e4-46ef-9f72-2d6ddb89ac2c"},"vehicle_type_id":"4","last_reported":1744002667,"current_range_meters":12800,"station_id":"ce4bhmp2rcd13ifvqgog","pricing_plan_id":"cebpf4jnsgd1na2vs0mg"},{"bike_id":"b5f969de-f00c-4527-8db7-b0bfd727b190","system_id":"levelo_inurba_marseille","lat":43.28039,"lon":5.37836,"is_reserved":false,"is_disabled":false,"rental_uris":{"android":"levelo://app?vid=b5f969de-f00c-4527-8db7-b0bfd727b190","ios":"levelo://app?vid=b5f969de-f00c-4527-8db7-b0bfd727b190"},"vehicle_type_id":"4","last_reported":1744002667,"current_range_meters":12800,"station_id":"","pricing_plan_id":"cebpf4jnsgd1na2vs0mg"},{"bike_id":"03888cd5-4741-4687-b539-7d95c10e592b","system_id":"levelo_inurba_marseille","lat":43.251179,"lon":5.403161,"is_reserved":false,"is_disabled":false,"rental_uris":{"android":"levelo://app?vid=03888cd5-4741-4687-b539-7d95c10e592b","ios":"levelo://app?vid=03888cd5-4741-4687-b539-7d95c10e592b"},"vehicle_type_id":"4","last_reported":1744002667,"current_range_meters":13600,"station_id":"ce4bhlh2rcd13ifvqgig","pricing_plan_id":"cebpf4jnsgd1na2vs0mg"},{"bike_id":"3574d125-d41c-453d-b848-638c8baed259","system_id":"levelo_inurba_marseille","lat":43.336033,"lon":5.410269,"is_reserved":false,"is_disabled":false,"rental_uris":{"android":"levelo://app?vid=3574d125-d41c-453d-b848-638c8baed259","ios":"levelo://app?vid=3574d125-d41c-453d-b848-638c8baed259"},"vehicle_type_id":"4","last_reported":1744002667,"current_range_meters":13600,"station_id":"ce4bhqh2rcd13ifvqhmg","pricing_plan_id":"cebpf4jnsgd1na2vs0mg"},{"bike_id":"73272853-088e-4b39-8e6e-94fe10fc353c","system_id":"levelo_inurba_marseille","lat":43.33767,"lon":5.37485,"is_reserved":false,"is_disabled":false,"rental_uris":{"android":"levelo://app?vid=73272853-088e-4b39-8e6e-94fe10fc353c","ios":"levelo://app?vid=73272853-088e-4b39-8e6e-94fe10fc353c"},"vehicle_type_id":"4","last_reported":1744002667,"current_range_meters":13600,"station_id":"","pricing_plan_id":"cebpf4jnsgd1na2vs0mg"},{"bike_id":"d3940f6d-6c26-4ccb-aa36-1b12f0ca6ef4","system_id":"levelo_inurba_marseille","lat":43.32096,"lon":5.38524,"is_reserved":false,"is_disabled":false,"rental_uris":{"android":"levelo://app?vid=d3940f6d-6c26-4ccb-aa36-1b12f0ca6ef4","ios":"levelo://app?vid=d3940f6d-6c26-4ccb-aa36-1b12f0ca6ef4"},"vehicle_type_id":"4","last_reported":1744002667,"current_range_meters":13600,"station_id":"","pricing_plan_id":"cebpf4jnsgd1na2vs0mg"},{"bike_id":"8daa3e29-a6dc-495f-b0f9-540d9e71c557","system_id":"levelo_inurba_marseille","lat":43.26198,"lon":5.37455,"is_reserved":false,"is_disabled":true,"rental_uris":{"android":"levelo://app?vid=8daa3e29-a6dc-495f-b0f9-540d9e71c557","ios":"levelo://app?vid=8daa3e29-a6dc-495f-b0f9-540d9e71c557"},"vehicle_type_id":"4","last_reported":1744002667,"current_range_meters":14000,"station_id":"ce4bhgp2rcd13ifvqfc0","pricing_plan_id":"cebpf4jnsgd1na2vs0mg"},{"bike_id":"69e211d6-fc22-4255-a18c-932c281fd1f9","system_id":"levelo_inurba_marseille","lat":43.26949,"lon":5.38634,"is_reserved":false,"is_disabled":false,"rental_uris":{"android":"levelo://app?vid=69e211d6-fc22-4255-a18c-932c281fd1f9","ios":"levelo://app?vid=69e211d6-fc22-4255-a18c-932c281fd1f9"},"vehicle_type_id":"4","last_reported":1744002667,"current_range_meters":13600,"station_id":"ce4bhh92rcd13ifvqfh0","pricing_plan_id":"cebpf4jnsgd1na2vs0mg"},{"bike_id":"af69ddaf-3c35-451f-90e1-22db18d9f81c","system_id":"levelo_inurba_marseille","lat":43.307964,"lon":5.435179,"is_reserved":false,"is_disabled":false,"rental_uris":{"android":"levelo://app?vid=af69ddaf-3c35-451f-90e1-22db18d9f81c","ios":"levelo://app?vid=af69ddaf-3c35-451f-90e1-22db18d9f81c"},"vehicle_type_id":"4","last_reported":1744002667,"current_range_meters":14000,"station_id":"ce4bhph2rcd13ifvqheg","pricing_plan_id":"cebpf4jnsgd1na2vs0mg"},{"bike_id":"adb4ee41-a46b-4f37-a518-a2b370471489","system_id":"levelo_inurba_marseille","lat":43.27317,"lon":5.41136,"is_reserved":false,"is_disabled":false,"rental_uris":{"android":"levelo://app?vid=adb4ee41-a46b-4f37-a518-a2b370471489","ios":"levelo://app?vid=adb4ee41-a46b-4f37-a518-a2b370471489"},"vehicle_type_id":"4","last_reported":1744002667,"current_range_meters":14000,"station_id":"","pricing_plan_id":"cebpf4jnsgd1na2vs0mg"},{"bike_id":"d2c0f1ed-7cb7-410c-aa2f-6defec26c88a","system_id":"levelo_inurba_marseille","lat":43.279968,"lon":5.416762,"is_reserved":false,"is_disabled":false,"rental_uris":{"android":"levelo://app?vid=d2c0f1ed-7cb7-410c-aa2f-6defec26c88a","ios":"levelo://app?vid=d2c0f1ed-7cb7-410c-aa2f-6defec26c88a"},"vehicle_type_id":"4","last_reported":1744002667,"current_range_meters":14400,"station_id":"ce4bho12rcd13ifvqh1g","pricing_plan_id":"cebpf4jnsgd1na2vs0mg"},{"bike_id":"038ce4b8-1c93-4513-8acf-d07cce02d849","system_id":"levelo_inurba_marseille","lat":43.28477,"lon":5.38449,"is_reserved":false,"is_disabled":false,"rental_uris":{"android":"levelo://app?vid=038ce4b8-1c93-4513-8acf-d07cce02d849","ios":"levelo://app?vid=038ce4b8-1c93-4513-8acf-d07cce02d849"},"vehicle_type_id":"4","last_reported":1744002667,"current_range_meters":14400,"station_id":"ce4bh512rcd13ifvqe3g","pricing_plan_id":"cebpf4jnsgd1na2vs0mg"},{"bike_id":"0a221c3b-7675-47f5-9c85-65d6ae27007b","system_id":"levelo_inurba_marseille","lat":43.30145,"lon":5.38097,"is_reserved":false,"is_disabled":false,"rental_uris":{"android":"levelo://app?vid=0a221c3b-7675-47f5-9c85-65d6ae27007b","ios":"levelo://app?vid=0a221c3b-7675-47f5-9c85-65d6ae27007b"},"vehicle_type_id":"4","last_reported":1744002667,"current_range_meters":14400,"station_id":"ce4bgjp2rcd13ifvqbh0","pricing_plan_id":"cebpf4jnsgd1na2vs0mg"},{"bike_id":"3038e27a-3c15-4e20-acfa-201ea6a731ec","system_id":"levelo_inurba_marseille","lat":43.258261,"lon":5.394311,"is_reserved":false,"is_disabled":false,"rental_uris":{"android":"levelo://app?vid=3038e27a-3c15-4e20-acfa-201ea6a731ec","ios":"levelo://app?vid=3038e27a-3c15-4e20-acfa-201ea6a731ec"},"vehicle_type_id":"4","last_reported":1744002667,"current_range_meters":14400,"station_id":"ce4bhip2rcd13ifvqft0","pricing_plan_id":"cebpf4jnsgd1na2vs0mg"},{"bike_id":"d59d94e9-9758-4e70-8f6d-f720ca0e403c","system_id":"levelo_inurba_marseille","lat":43.27606,"lon":5.3612,"is_reserved":false,"is_disabled":true,"rental_uris":{"android":"levelo://app?vid=d59d94e9-9758-4e70-8f6d-f720ca0e403c","ios":"levelo://app?vid=d59d94e9-9758-4e70-8f6d-f720ca0e403c"},"vehicle_type_id":"4","last_reported":1744002667,"current_range_meters":14400,"station_id":"ce4bgj92rcd13ifvqbe0","pricing_plan_id":"cebpf4jnsgd1na2vs0mg"},{"bike_id":"8127a379-abcb-448e-b192-b2b588a12b57","system_id":"levelo_inurba_marseille","lat":43.25717,"lon":5.41116,"is_reserved":false,"is_disabled":false,"rental_uris":{"android":"levelo://app?vid=8127a379-abcb-448e-b192-b2b588a12b57","ios":"levelo://app?vid=8127a379-abcb-448e-b192-b2b588a12b57"},"vehicle_type_id":"4","last_reported":1744002667,"current_range_meters":14400,"station_id":"ce4bhkp2rcd13ifvqgd0","pricing_plan_id":"cebpf4jnsgd1na2vs0mg"},{"bike_id":"8965bf98-8f66-4546-8506-96c84a192f9d","system_id":"levelo_inurba_marseille","lat":43.30526,"lon":5.3655,"is_reserved":false,"is_disabled":false,"rental_uris":{"android":"levelo://app?vid=8965bf98-8f66-4546-8506-96c84a192f9d","ios":"levelo://app?vid=8965bf98-8f66-4546-8506-96c84a192f9d"},"vehicle_type_id":"4","last_reported":1744002667,"current_range_meters":14400,"station_id":"ce4bgs12rcd13ifvqcag","pricing_plan_id":"cebpf4jnsgd1na2vs0mg"},{"bike_id":"36bad958-5b66-40dd-af90-e706d63444a6","system_id":"levelo_inurba_marseille","lat":43.31995,"lon":5.38166,"is_reserved":false,"is_disabled":false,"rental_uris":{"android":"levelo://app?vid=36bad958-5b66-40dd-af90-e706d63444a6","ios":"levelo://app?vid=36bad958-5b66-40dd-af90-e706d63444a6"},"vehicle_type_id":"4","last_reported":1744002667,"current_range_meters":14400,"station_id":"ce4bhr12rcd13ifvqhpg","pricing_plan_id":"cebpf4jnsgd1na2vs0mg"},{"bike_id":"940d416a-3d1a-45ff-8a21-cd1a7ca66435","system_id":"levelo_inurba_marseille","lat":43.24394,"lon":5.37075,"is_reserved":false,"is_disabled":true,"rental_uris":{"android":"levelo://app?vid=940d416a-3d1a-45ff-8a21-cd1a7ca66435","ios":"levelo://app?vid=940d416a-3d1a-45ff-8a21-cd1a7ca66435"},"vehicle_type_id":"4","last_reported":1744002667,"current_range_meters":14800,"station_id":"ce4bhhh2rcd13ifvqfk0","pricing_plan_id":"cebpf4jnsgd1na2vs0mg"},{"bike_id":"a4b8b112-970f-4449-b799-b8ed8ffe1072","system_id":"levelo_inurba_marseille","lat":43.286195,"lon":5.350993,"is_reserved":false,"is_disabled":false,"rental_uris":{"android":"levelo://app?vid=a4b8b112-970f-4449-b799-b8ed8ffe1072","ios":"levelo://app?vid=a4b8b112-970f-4449-b799-b8ed8ffe1072"},"vehicle_type_id":"4","last_reported":1744002667,"current_range_meters":14800,"station_id":"ce4bhch2rcd13ifvqeug","pricing_plan_id":"cebpf4jnsgd1na2vs0mg"},{"bike_id":"00a7e663-4b56-4cdc-be9a-13ab0452a793","system_id":"levelo_inurba_marseille","lat":43.23949,"lon":5.36654,"is_reserved":false,"is_disabled":false,"rental_uris":{"android":"levelo://app?vid=00a7e663-4b56-4cdc-be9a-13ab0452a793","ios":"levelo://app?vid=00a7e663-4b56-4cdc-be9a-13ab0452a793"},"vehicle_type_id":"4","last_reported":1744002667,"current_range_meters":14800,"station_id":"ce4bhi12rcd13ifvqfp0","pricing_plan_id":"cebpf4jnsgd1na2vs0mg"},{"bike_id":"965debe4-081f-4ce1-a884-fcf3ae2cc3a4","system_id":"levelo_inurba_marseille","lat":43.23142,"lon":5.4372,"is_reserved":false,"is_disabled":false,"rental_uris":{"android":"levelo://app?vid=965debe4-081f-4ce1-a884-fcf3ae2cc3a4","ios":"levelo://app?vid=965debe4-081f-4ce1-a884-fcf3ae2cc3a4"},"vehicle_type_id":"4","last_reported":1744002667,"current_range_meters":14800,"station_id":"ce4bhmp2rcd13ifvqgog","pricing_plan_id":"cebpf4jnsgd1na2vs0mg"},{"bike_id":"8ca8d5be-29df-4312-9381-63fe1db0a38b","system_id":"levelo_inurba_marseille","lat":43.311778,"lon":5.387194,"is_reserved":false,"is_disabled":false,"rental_uris":{"android":"levelo://app?vid=8ca8d5be-29df-4312-9381-63fe1db0a38b","ios":"levelo://app?vid=8ca8d5be-29df-4312-9381-63fe1db0a38b"},"vehicle_type_id":"4","last_reported":1744002667,"current_range_meters":15200,"station_id":"ce4bgv12rcd13ifvqcp0","pricing_plan_id":"cebpf4jnsgd1na2vs0mg"},{"bike_id":"7e68812f-f97b-4e36-9c60-ea450212fc32","system_id":"levelo_inurba_marseille","lat":43.28155,"lon":5.42641,"is_reserved":false,"is_disabled":false,"rental_uris":{"android":"levelo://app?vid=7e68812f-f97b-4e36-9c60-ea450212fc32","ios":"levelo://app?vid=7e68812f-f97b-4e36-9c60-ea450212fc32"},"vehicle_type_id":"4","last_reported":1744002667,"current_range_meters":15200,"station_id":"ce4bhnh2rcd13ifvqgug","pricing_plan_id":"cebpf4jnsgd1na2vs0mg"},{"bike_id":"9579ab0a-24b4-4490-a442-2b612dd0dfd9","system_id":"levelo_inurba_marseille","lat":43.26195,"lon":5.37464,"is_reserved":false,"is_disabled":false,"rental_uris":{"android":"levelo://app?vid=9579ab0a-24b4-4490-a442-2b612dd0dfd9","ios":"levelo://app?vid=9579ab0a-24b4-4490-a442-2b612dd0dfd9"},"vehicle_type_id":"4","last_reported":1744002667,"current_range_meters":15200,"station_id":"ce4bhgp2rcd13ifvqfc0","pricing_plan_id":"cebpf4jnsgd1na2vs0mg"},{"bike_id":"4f93d616-274a-49b1-9e6e-e5e1b8328f3a","system_id":"levelo_inurba_marseille","lat":43.303182,"lon":5.404361,"is_reserved":false,"is_disabled":false,"rental_uris":{"android":"levelo://app?vid=4f93d616-274a-49b1-9e6e-e5e1b8328f3a","ios":"levelo://app?vid=4f93d616-274a-49b1-9e6e-e5e1b8328f3a"},"vehicle_type_id":"4","last_reported":1744002667,"current_range_meters":15200,"station_id":"ce4bh012rcd13ifvqd10","pricing_plan_id":"cebpf4jnsgd1na2vs0mg"},{"bike_id":"0c196d5c-cbe4-412e-a5f9-3843b1eb1276","system_id":"levelo_inurba_marseille","lat":43.25079,"lon":5.39528,"is_reserved":false,"is_disabled":false,"rental_uris":{"android":"levelo://app?vid=0c196d5c-cbe4-412e-a5f9-3843b1eb1276","ios":"levelo://app?vid=0c196d5c-cbe4-412e-a5f9-3843b1eb1276"},"vehicle_type_id":"4","last_reported":1744002667,"current_range_meters":15200,"station_id":"ce4bhm12rcd13ifvqgkg","pricing_plan_id":"cebpf4jnsgd1na2vs0mg"},{"bike_id":"37823676-6983-4c6b-857c-cf94b572aa24","system_id":"levelo_inurba_marseille","lat":43.27476,"lon":5.42479,"is_reserved":false,"is_disabled":false,"rental_uris":{"android":"levelo://app?vid=37823676-6983-4c6b-857c-cf94b572aa24","ios":"levelo://app?vid=37823676-6983-4c6b-857c-cf94b572aa24"},"vehicle_type_id":"4","last_reported":1744002667,"current_range_meters":15200,"station_id":"ce4bhn92rcd13ifvqgrg","pricing_plan_id":"cebpf4jnsgd1na2vs0mg"},{"bike_id":"4749626e-93ed-4ff6-b79f-fb4a384afa4e","system_id":"levelo_inurba_marseille","lat":43.284191,"lon":5.349933,"is_reserved":false,"is_disabled":false,"rental_uris":{"android":"levelo://app?vid=4749626e-93ed-4ff6-b79f-fb4a384afa4e","ios":"levelo://app?vid=4749626e-93ed-4ff6-b79f-fb4a384afa4e"},"vehicle_type_id":"4","last_reported":1744002667,"current_range_meters":15200,"station_id":"ce4bhbh2rcd13ifvqepg","pricing_plan_id":"cebpf4jnsgd1na2vs0mg"},{"bike_id":"d6a21fce-f5cc-4d1d-bb03-60d74f851a63","system_id":"levelo_inurba_marseille","lat":43.29237,"lon":5.40916,"is_reserved":false,"is_disabled":false,"rental_uris":{"android":"levelo://app?vid=d6a21fce-f5cc-4d1d-bb03-60d74f851a63","ios":"levelo://app?vid=d6a21fce-f5cc-4d1d-bb03-60d74f851a63"},"vehicle_type_id":"4","last_reported":1744002667,"current_range_meters":15200,"station_id":"ce4bh192rcd13ifvqdc0","pricing_plan_id":"cebpf4jnsgd1na2vs0mg"},{"bike_id":"79a19832-bd5e-4b52-958a-9cc99d5f789b","system_id":"levelo_inurba_marseille","lat":43.28375,"lon":5.3758,"is_reserved":false,"is_disabled":false,"rental_uris":{"android":"levelo://app?vid=79a19832-bd5e-4b52-958a-9cc99d5f789b","ios":"levelo://app?vid=79a19832-bd5e-4b52-958a-9cc99d5f789b"},"vehicle_type_id":"4","last_reported":1744002667,"current_range_meters":16000,"station_id":"","pricing_plan_id":"cebpf4jnsgd1na2vs0mg"},{"bike_id":"c1873dea-0be8-4a49-aaeb-db6238d3d175","system_id":"levelo_inurba_marseille","lat":43.26193,"lon":5.374486,"is_reserved":false,"is_disabled":false,"rental_uris":{"android":"levelo://app?vid=c1873dea-0be8-4a49-aaeb-db6238d3d175","ios":"levelo://app?vid=c1873dea-0be8-4a49-aaeb-db6238d3d175"},"vehicle_type_id":"4","last_reported":1744002667,"current_range_meters":16000,"station_id":"ce4bhgp2rcd13ifvqfc0","pricing_plan_id":"cebpf4jnsgd1na2vs0mg"},{"bike_id":"82f28cf6-556c-431d-a12b-bd3ce5fc2f28","system_id":"levelo_inurba_marseille","lat":43.27509,"lon":5.37748,"is_reserved":false,"is_disabled":false,"rental_uris":{"android":"levelo://app?vid=82f28cf6-556c-431d-a12b-bd3ce5fc2f28","ios":"levelo://app?vid=82f28cf6-556c-431d-a12b-bd3ce5fc2f28"},"vehicle_type_id":"4","last_reported":1744002667,"current_range_meters":16000,"station_id":"","pricing_plan_id":"cebpf4jnsgd1na2vs0mg"},{"bike_id":"d6dbfe9e-9903-4413-9e50-72b4480926a4","system_id":"levelo_inurba_marseille","lat":43.31283,"lon":5.40194,"is_reserved":false,"is_disabled":false,"rental_uris":{"android":"levelo://app?vid=d6dbfe9e-9903-4413-9e50-72b4480926a4","ios":"levelo://app?vid=d6dbfe9e-9903-4413-9e50-72b4480926a4"},"vehicle_type_id":"4","last_reported":1744002667,"current_range_meters":16000,"station_id":"ce4bh092rcd13ifvqd30","pricing_plan_id":"cebpf4jnsgd1na2vs0mg"},{"bike_id":"4662f2c9-aa99-4430-b56d-3b091c848158","system_id":"levelo_inurba_marseille","lat":43.262058,"lon":5.374398,"is_reserved":false,"is_disabled":false,"rental_uris":{"android":"levelo://app?vid=4662f2c9-aa99-4430-b56d-3b091c848158","ios":"levelo://app?vid=4662f2c9-aa99-4430-b56d-3b091c848158"},"vehicle_type_id":"4","last_reported":1744002667,"current_range_meters":16000,"station_id":"ce4bhgp2rcd13ifvqfc0","pricing_plan_id":"cebpf4jnsgd1na2vs0mg"},{"bike_id":"3576b946-70b3-456f-a60a-d98e227f015c","system_id":"levelo_inurba_marseille","lat":43.30085,"lon":5.38252,"is_reserved":false,"is_disabled":false,"rental_uris":{"android":"levelo://app?vid=3576b946-70b3-456f-a60a-d98e227f015c","ios":"levelo://app?vid=3576b946-70b3-456f-a60a-d98e227f015c"},"vehicle_type_id":"4","last_reported":1744002667,"current_range_meters":16000,"station_id":"ce4bgup2rcd13ifvqcn0","pricing_plan_id":"cebpf4jnsgd1na2vs0mg"},{"bike_id":"077e96e8-f9e6-4b8d-9fc0-de6cf9949ffe","system_id":"levelo_inurba_marseille","lat":43.30542,"lon":5.38443,"is_reserved":false,"is_disabled":true,"rental_uris":{"android":"levelo://app?vid=077e96e8-f9e6-4b8d-9fc0-de6cf9949ffe","ios":"levelo://app?vid=077e96e8-f9e6-4b8d-9fc0-de6cf9949ffe"},"vehicle_type_id":"4","last_reported":1744002667,"current_range_meters":16000,"station_id":"ce4bgg92rcd13ifvqb30","pricing_plan_id":"cebpf4jnsgd1na2vs0mg"},{"bike_id":"4b9dfe05-0e60-423c-af4b-3ef6e8cad4ce","system_id":"levelo_inurba_marseille","lat":43.25102,"lon":5.40333,"is_reserved":false,"is_disabled":true,"rental_uris":{"android":"levelo://app?vid=4b9dfe05-0e60-423c-af4b-3ef6e8cad4ce","ios":"levelo://app?vid=4b9dfe05-0e60-423c-af4b-3ef6e8cad4ce"},"vehicle_type_id":"4","last_reported":1744002667,"current_range_meters":16000,"station_id":"ce4bhlh2rcd13ifvqgig","pricing_plan_id":"cebpf4jnsgd1na2vs0mg"},{"bike_id":"66e3c87b-665f-4453-bb43-5df54ef1ab5e","system_id":"levelo_inurba_marseille","lat":43.27205,"lon":5.39215,"is_reserved":false,"is_disabled":true,"rental_uris":{"android":"levelo://app?vid=66e3c87b-665f-4453-bb43-5df54ef1ab5e","ios":"levelo://app?vid=66e3c87b-665f-4453-bb43-5df54ef1ab5e"},"vehicle_type_id":"4","last_reported":1744002667,"current_range_meters":16000,"station_id":"ce4bhhp2rcd13ifvqfm0","pricing_plan_id":"cebpf4jnsgd1na2vs0mg"},{"bike_id":"60392a77-faa5-43ad-a980-0ec91bc8be0f","system_id":"levelo_inurba_marseille","lat":43.24811,"lon":5.374648,"is_reserved":false,"is_disabled":false,"rental_uris":{"android":"levelo://app?vid=60392a77-faa5-43ad-a980-0ec91bc8be0f","ios":"levelo://app?vid=60392a77-faa5-43ad-a980-0ec91bc8be0f"},"vehicle_type_id":"4","last_reported":1744002667,"current_range_meters":16000,"station_id":"ce4bhgh2rcd13ifvqfb0","pricing_plan_id":"cebpf4jnsgd1na2vs0mg"},{"bike_id":"bc4d0000-9eb7-4abd-bd75-7b14c9afa73e","system_id":"levelo_inurba_marseille","lat":43.28565,"lon":5.39511,"is_reserved":false,"is_disabled":false,"rental_uris":{"android":"levelo://app?vid=bc4d0000-9eb7-4abd-bd75-7b14c9afa73e","ios":"levelo://app?vid=bc4d0000-9eb7-4abd-bd75-7b14c9afa73e"},"vehicle_type_id":"4","last_reported":1744002667,"current_range_meters":16000,"station_id":"ce4bh292rcd13ifvqdg0","pricing_plan_id":"cebpf4jnsgd1na2vs0mg"},{"bike_id":"f17ce36f-e80a-4732-89e2-7a7dfab19d87","system_id":"levelo_inurba_marseille","lat":43.29889,"lon":5.43653,"is_reserved":false,"is_disabled":false,"rental_uris":{"android":"levelo://app?vid=f17ce36f-e80a-4732-89e2-7a7dfab19d87","ios":"levelo://app?vid=f17ce36f-e80a-4732-89e2-7a7dfab19d87"},"vehicle_type_id":"4","last_reported":1744002667,"current_range_meters":16400,"station_id":"ce4bhpp2rcd13ifvqhfg","pricing_plan_id":"cebpf4jnsgd1na2vs0mg"},{"bike_id":"b6718462-a8cf-4ef3-9c9f-8fc06260fbda","system_id":"levelo_inurba_marseille","lat":43.24796,"lon":5.37478,"is_reserved":false,"is_disabled":true,"rental_uris":{"android":"levelo://app?vid=b6718462-a8cf-4ef3-9c9f-8fc06260fbda","ios":"levelo://app?vid=b6718462-a8cf-4ef3-9c9f-8fc06260fbda"},"vehicle_type_id":"4","last_reported":1744002667,"current_range_meters":16400,"station_id":"ce4bhgh2rcd13ifvqfb0","pricing_plan_id":"cebpf4jnsgd1na2vs0mg"},{"bike_id":"88b9da84-22bf-4f47-96e8-eddfe88dcbda","system_id":"levelo_inurba_marseille","lat":43.246688,"lon":5.381522,"is_reserved":false,"is_disabled":false,"rental_uris":{"android":"levelo://app?vid=88b9da84-22bf-4f47-96e8-eddfe88dcbda","ios":"levelo://app?vid=88b9da84-22bf-4f47-96e8-eddfe88dcbda"},"vehicle_type_id":"4","last_reported":1744002667,"current_range_meters":16400,"station_id":"ce4bhih2rcd13ifvqfr0","pricing_plan_id":"cebpf4jnsgd1na2vs0mg"},{"bike_id":"4ad895e5-cc1e-41c8-a950-0ef55a290fb0","system_id":"levelo_inurba_marseille","lat":43.24997,"lon":5.38953,"is_reserved":false,"is_disabled":false,"rental_uris":{"android":"levelo://app?vid=4ad895e5-cc1e-41c8-a950-0ef55a290fb0","ios":"levelo://app?vid=4ad895e5-cc1e-41c8-a950-0ef55a290fb0"},"vehicle_type_id":"4","last_reported":1744002667,"current_range_meters":16400,"station_id":"ce4bhgp2rcd13ifvqfd0","pricing_plan_id":"cebpf4jnsgd1na2vs0mg"},{"bike_id":"aa407b8d-a6af-4ca4-895d-e6f9044d54a5","system_id":"levelo_inurba_marseille","lat":43.30877,"lon":5.36888,"is_reserved":false,"is_disabled":true,"rental_uris":{"android":"levelo://app?vid=aa407b8d-a6af-4ca4-895d-e6f9044d54a5","ios":"levelo://app?vid=aa407b8d-a6af-4ca4-895d-e6f9044d54a5"},"vehicle_type_id":"4","last_reported":1744002667,"current_range_meters":16400,"station_id":"ce4bgn92rcd13ifvqbvg","pricing_plan_id":"cebpf4jnsgd1na2vs0mg"},{"bike_id":"db6e6f09-ab19-45bd-a1b9-8553d0074295","system_id":"levelo_inurba_marseille","lat":43.272,"lon":5.39193,"is_reserved":false,"is_disabled":true,"rental_uris":{"android":"levelo://app?vid=db6e6f09-ab19-45bd-a1b9-8553d0074295","ios":"levelo://app?vid=db6e6f09-ab19-45bd-a1b9-8553d0074295"},"vehicle_type_id":"4","last_reported":1744002667,"current_range_meters":16400,"station_id":"ce4bhhp2rcd13ifvqfm0","pricing_plan_id":"cebpf4jnsgd1na2vs0mg"},{"bike_id":"8461f967-5487-41c6-a6ca-20de6751e156","system_id":"levelo_inurba_marseille","lat":43.250763,"lon":5.395161,"is_reserved":false,"is_disabled":false,"rental_uris":{"android":"levelo://app?vid=8461f967-5487-41c6-a6ca-20de6751e156","ios":"levelo://app?vid=8461f967-5487-41c6-a6ca-20de6751e156"},"vehicle_type_id":"4","last_reported":1744002667,"current_range_meters":16400,"station_id":"ce4bhm12rcd13ifvqgkg","pricing_plan_id":"cebpf4jnsgd1na2vs0mg"},{"bike_id":"c26c6f86-4d25-4491-a5c2-5ab113d13f88","system_id":"levelo_inurba_marseille","lat":43.28442,"lon":5.39191,"is_reserved":false,"is_disabled":false,"rental_uris":{"android":"levelo://app?vid=c26c6f86-4d25-4491-a5c2-5ab113d13f88","ios":"levelo://app?vid=c26c6f86-4d25-4491-a5c2-5ab113d13f88"},"vehicle_type_id":"4","last_reported":1744002667,"current_range_meters":16400,"station_id":"ce4bhoh2rcd13ifvqh5g","pricing_plan_id":"cebpf4jnsgd1na2vs0mg"},{"bike_id":"e82f323d-3db0-4b2d-ac8f-a575d4e26738","system_id":"levelo_inurba_marseille","lat":43.29014,"lon":5.38639,"is_reserved":false,"is_disabled":false,"rental_uris":{"android":"levelo://app?vid=e82f323d-3db0-4b2d-ac8f-a575d4e26738","ios":"levelo://app?vid=e82f323d-3db0-4b2d-ac8f-a575d4e26738"},"vehicle_type_id":"4","last_reported":1744002667,"current_range_meters":16400,"station_id":"ce4bh4p2rcd13ifvqe0g","pricing_plan_id":"cebpf4jnsgd1na2vs0mg"},{"bike_id":"dc49c8f8-e5e5-4cce-86cd-a31576657cbd","system_id":"levelo_inurba_marseille","lat":43.23198,"lon":5.39966,"is_reserved":false,"is_disabled":false,"rental_uris":{"android":"levelo://app?vid=dc49c8f8-e5e5-4cce-86cd-a31576657cbd","ios":"levelo://app?vid=dc49c8f8-e5e5-4cce-86cd-a31576657cbd"},"vehicle_type_id":"4","last_reported":1744002667,"current_range_meters":16400,"station_id":"ce4bhn12rcd13ifvqgqg","pricing_plan_id":"cebpf4jnsgd1na2vs0mg"},{"bike_id":"5b0678a9-980e-4c41-adb8-234786771da9","system_id":"levelo_inurba_marseille","lat":43.30471,"lon":5.37919,"is_reserved":false,"is_disabled":false,"rental_uris":{"android":"levelo://app?vid=5b0678a9-980e-4c41-adb8-234786771da9","ios":"levelo://app?vid=5b0678a9-980e-4c41-adb8-234786771da9"},"vehicle_type_id":"4","last_reported":1744002667,"current_range_meters":16000,"station_id":"ce4bgup2rcd13ifvqcn0","pricing_plan_id":"cebpf4jnsgd1na2vs0mg"},{"bike_id":"018e8e99-63f3-4ddd-8c43-119a8d01c677","system_id":"levelo_inurba_marseille","lat":43.231812,"lon":5.399828,"is_reserved":false,"is_disabled":false,"rental_uris":{"android":"levelo://app?vid=018e8e99-63f3-4ddd-8c43-119a8d01c677","ios":"levelo://app?vid=018e8e99-63f3-4ddd-8c43-119a8d01c677"},"vehicle_type_id":"4","last_reported":1744002667,"current_range_meters":16400,"station_id":"ce4bhn12rcd13ifvqgqg","pricing_plan_id":"cebpf4jnsgd1na2vs0mg"},{"bike_id":"02809ace-ef7d-495d-b83f-73211ae7c022","system_id":"levelo_inurba_marseille","lat":43.33604,"lon":5.41042,"is_reserved":false,"is_disabled":false,"rental_uris":{"android":"levelo://app?vid=02809ace-ef7d-495d-b83f-73211ae7c022","ios":"levelo://app?vid=02809ace-ef7d-495d-b83f-73211ae7c022"},"vehicle_type_id":"4","last_reported":1744002667,"current_range_meters":16800,"station_id":"ce4bhqh2rcd13ifvqhmg","pricing_plan_id":"cebpf4jnsgd1na2vs0mg"},{"bike_id":"df5912f5-b3dd-4793-b9d2-90d160a7a564","system_id":"levelo_inurba_marseille","lat":43.24166,"lon":5.39737,"is_reserved":false,"is_disabled":false,"rental_uris":{"android":"levelo://app?vid=df5912f5-b3dd-4793-b9d2-90d160a7a564","ios":"levelo://app?vid=df5912f5-b3dd-4793-b9d2-90d160a7a564"},"vehicle_type_id":"4","last_reported":1744002667,"current_range_meters":16800,"station_id":"ce4bhn12rcd13ifvqgpg","pricing_plan_id":"cebpf4jnsgd1na2vs0mg"},{"bike_id":"6e713124-0905-4fb2-8899-2981cf94335e","system_id":"levelo_inurba_marseille","lat":43.26171,"lon":5.3748,"is_reserved":false,"is_disabled":false,"rental_uris":{"android":"levelo://app?vid=6e713124-0905-4fb2-8899-2981cf94335e","ios":"levelo://app?vid=6e713124-0905-4fb2-8899-2981cf94335e"},"vehicle_type_id":"4","last_reported":1744002667,"current_range_meters":16800,"station_id":"ce4bhgp2rcd13ifvqfc0","pricing_plan_id":"cebpf4jnsgd1na2vs0mg"},{"bike_id":"b754ea99-f784-4b16-879e-698a68d4e400","system_id":"levelo_inurba_marseille","lat":43.3093,"lon":5.40162,"is_reserved":false,"is_disabled":false,"rental_uris":{"android":"levelo://app?vid=b754ea99-f784-4b16-879e-698a68d4e400","ios":"levelo://app?vid=b754ea99-f784-4b16-879e-698a68d4e400"},"vehicle_type_id":"4","last_reported":1744002667,"current_range_meters":16800,"station_id":"ce4bgvp2rcd13ifvqct0","pricing_plan_id":"cebpf4jnsgd1na2vs0mg"},{"bike_id":"7ced0eab-c890-42cc-ba81-2c658b34dd74","system_id":"levelo_inurba_marseille","lat":43.31272,"lon":5.40185,"is_reserved":false,"is_disabled":false,"rental_uris":{"android":"levelo://app?vid=7ced0eab-c890-42cc-ba81-2c658b34dd74","ios":"levelo://app?vid=7ced0eab-c890-42cc-ba81-2c658b34dd74"},"vehicle_type_id":"4","last_reported":1744002667,"current_range_meters":16800,"station_id":"ce4bh092rcd13ifvqd30","pricing_plan_id":"cebpf4jnsgd1na2vs0mg"},{"bike_id":"3b38e354-3b13-4769-b7bf-fbf117452bbe","system_id":"levelo_inurba_marseille","lat":43.28154,"lon":5.42634,"is_reserved":false,"is_disabled":false,"rental_uris":{"android":"levelo://app?vid=3b38e354-3b13-4769-b7bf-fbf117452bbe","ios":"levelo://app?vid=3b38e354-3b13-4769-b7bf-fbf117452bbe"},"vehicle_type_id":"4","last_reported":1744002667,"current_range_meters":16800,"station_id":"ce4bhnh2rcd13ifvqgug","pricing_plan_id":"cebpf4jnsgd1na2vs0mg"},{"bike_id":"19224d95-e048-4cbb-8884-43e0e6b3db9b","system_id":"levelo_inurba_marseille","lat":43.29893,"lon":5.39751,"is_reserved":false,"is_disabled":true,"rental_uris":{"android":"levelo://app?vid=19224d95-e048-4cbb-8884-43e0e6b3db9b","ios":"levelo://app?vid=19224d95-e048-4cbb-8884-43e0e6b3db9b"},"vehicle_type_id":"4","last_reported":1744002667,"current_range_meters":16800,"station_id":"ce4bh0h2rcd13ifvqd50","pricing_plan_id":"cebpf4jnsgd1na2vs0mg"},{"bike_id":"85d3c540-0974-4ee0-b870-97ea68028ea1","system_id":"levelo_inurba_marseille","lat":43.28565,"lon":5.39515,"is_reserved":false,"is_disabled":false,"rental_uris":{"android":"levelo://app?vid=85d3c540-0974-4ee0-b870-97ea68028ea1","ios":"levelo://app?vid=85d3c540-0974-4ee0-b870-97ea68028ea1"},"vehicle_type_id":"4","last_reported":1744002667,"current_range_meters":16800,"station_id":"ce4bh292rcd13ifvqdg0","pricing_plan_id":"cebpf4jnsgd1na2vs0mg"},{"bike_id":"9f0fb668-bc7a-448d-833e-3020dab4800c","system_id":"levelo_inurba_marseille","lat":43.31067,"lon":5.38368,"is_reserved":false,"is_disabled":false,"rental_uris":{"android":"levelo://app?vid=9f0fb668-bc7a-448d-833e-3020dab4800c","ios":"levelo://app?vid=9f0fb668-bc7a-448d-833e-3020dab4800c"},"vehicle_type_id":"4","last_reported":1744002667,"current_range_meters":16800,"station_id":"ce4bgv92rcd13ifvqcr0","pricing_plan_id":"cebpf4jnsgd1na2vs0mg"},{"bike_id":"ec69ed26-c9c4-41c6-9498-aab6d519e861","system_id":"levelo_inurba_marseille","lat":43.231858,"lon":5.399864,"is_reserved":false,"is_disabled":false,"rental_uris":{"android":"levelo://app?vid=ec69ed26-c9c4-41c6-9498-aab6d519e861","ios":"levelo://app?vid=ec69ed26-c9c4-41c6-9498-aab6d519e861"},"vehicle_type_id":"4","last_reported":1744002667,"current_range_meters":16800,"station_id":"ce4bhn12rcd13ifvqgqg","pricing_plan_id":"cebpf4jnsgd1na2vs0mg"},