{"last_updated":1770219138,"ttl":60,"version":"2.2","data":{"bikes":[{"bike_id":"151047fe-b117-41cf-9416-4f91d0d3c1a9","system_id":"levelo_inurba_marseille","lat":43.31856,"lon":5.36908,"is_reserved":false,"is_disabled":false,"rental_uris":{"android":"levelo://app?vid=151047fe-b117-41cf-9416-4f91d0d3c1a9","ios":"levelo://app?vid=151047fe-b117-41cf-9416-4f91d0d3c1a9"},"vehicle_type_id":"4","last_reported":1770219139,"current_range_meters":2800,"station_id":"","pricing_plan_id":"cebpf4jnsgd1na2vs0mg"},{"bike_id":"dcaa4a8f-eeeb-4a65-b90b-db85565e00da","system_id":"levelo_inurba_marseille","lat":43.24166,"lon":5.36402,"is_reserved":false,"is_disabled":false,"rental_uris":{"android":"levelo://app?vid=dcaa4a8f-eeeb-4a65-b90b-db85565e00da","ios":"levelo://app?vid=dcaa4a8f-eeeb-4a65-b90b-db85565e00da"},"vehicle_type_id":"4","last_reported":1770219139,"current_range_meters":2800,"station_id":"cpo36qri1sfpv3e86is0","pricing_plan_id":"cebpf4jnsgd1na2vs0mg"},{"bike_id":"c50368f1-c2d3-40ff-852b-b3f54ea1d22b","system_id":"levelo_inurba_marseille","lat":43.28869,"lon":5.42517,"is_reserved":false,"is_disabled":false,"rental_uris":{"android":"levelo://app?vid=c50368f1-c2d3-40ff-852b-b3f54ea1d22b","ios":"levelo://app?vid=c50368f1-c2d3-40ff-852b-b3f54ea1d22b"},"vehicle_type_id":"4","last_reported":1770219139,"current_range_meters":2800,"station_id":"st_d3b462108ojc7389ooeg","pricing_plan_id":"cebpf4jnsgd1na2vs0mg"},{"bike_id":"1b876b25-6b22-4962-82d4-862e433d9f63","system_id":"levelo_inurba_marseille","lat":43.28125,"lon":5.38906,"is_reserved":false,"is_disabled":false,"rental_uris":{"android":"levelo://app?vid=1b876b25-6b22-4962-82d4-862e433d9f63","ios":"levelo://app?vid=1b876b25-6b22-4962-82d4-862e433d9f63"},"vehicle_type_id":"4","last_reported":1770219139,"current_range_meters":2800,"station_id":"","pricing_plan_id":"cebpf4jnsgd1na2vs0mg"},{"bike_id":"27dea1ae-7fec-494d-ad3e-27f10de6e20e","system_id":"levelo_inurba_marseille","lat":43.29549,"lon":5.42291,"is_reserved":false,"is_disabled":false,"rental_uris":{"android":"levelo://app?vid=27dea1ae-7fec-494d-ad3e-27f10de6e20e","ios":"levelo://app?vid=27dea1ae-7fec-494d-ad3e-27f10de6e20e"},"vehicle_type_id":"4","last_reported":1770219139,"current_range_meters":2800,"station_id":"ce4bhph2rcd13ifvqhdg","pricing_plan_id":"cebpf4jnsgd1na2vs0mg"},{"bike_id":"2bf19671-0061-46e9-83e3-55d71bb70148","system_id":"levelo_inurba_marseille","lat":43.22931,"lon":5.35388,"is_reserved":false,"is_disabled":false,"rental_uris":{"android":"levelo://app?vid=2bf19671-0061-46e9-83e3-55d71bb70148","ios":"levelo://app?vid=2bf19671-0061-46e9-83e3-55d71bb70148"},"vehicle_type_id":"4","last_reported":1770219139,"current_range_meters":3200,"station_id":"cpo3532slgdg3j2ikp40","pricing_plan_id":"cebpf4jnsgd1na2vs0mg"},{"bike_id":"7f77f6a6-911c-44cf-97f5-71224b3633e0","system_id":"levelo_inurba_marseille","lat":43.25243,"lon":5.38035,"is_reserved":false,"is_disabled":false,"rental_uris":{"android":"levelo://app?vid=7f77f6a6-911c-44cf-97f5-71224b3633e0","ios":"levelo://app?vid=7f77f6a6-911c-44cf-97f5-71224b3633e0"},"vehicle_type_id":"4","last_reported":1770219139,"current_range_meters":3200,"station_id":"","pricing_plan_id":"cebpf4jnsgd1na2vs0mg"},{"bike_id":"de8bb1b1-68b5-432a-8270-80a8b925ef6a","system_id":"levelo_inurba_marseille","lat":43.32498,"lon":5.38286,"is_reserved":false,"is_disabled":false,"rental_uris":{"android":"levelo://app?vid=de8bb1b1-68b5-432a-8270-80a8b925ef6a","ios":"levelo://app?vid=de8bb1b1-68b5-432a-8270-80a8b925ef6a"},"vehicle_type_id":"4","last_reported":1770219139,"current_range_meters":3200,"station_id":"st_d4asgbiv49dc73anf9m0","pricing_plan_id":"cebpf4jnsgd1na2vs0mg"},{"bike_id":"bcbaa8a6-886f-4091-ae26-8ec7b68ef274","system_id":"levelo_inurba_marseille","lat":43.23787,"lon":5.36628,"is_reserved":false,"is_disabled":false,"rental_uris":{"android":"levelo://app?vid=bcbaa8a6-886f-4091-ae26-8ec7b68ef274","ios":"levelo://app?vid=bcbaa8a6-886f-4091-ae26-8ec7b68ef274"},"vehicle_type_id":"4","last_reported":1770219139,"current_range_meters":3200,"station_id":"st_d3nk18o9ro0c73en2l3g","pricing_plan_id":"cebpf4jnsgd1na2vs0mg"},{"bike_id":"40954e61-dd73-4b29-8cc4-cc138532c8aa","system_id":"levelo_inurba_marseille","lat":43.29228,"lon":5.42519,"is_reserved":false,"is_disabled":false,"rental_uris":{"android":"levelo://app?vid=40954e61-dd73-4b29-8cc4-cc138532c8aa","ios":"levelo://app?vid=40954e61-dd73-4b29-8cc4-cc138532c8aa"},"vehicle_type_id":"4","last_reported":1770219139,"current_range_meters":3200,"station_id":"","pricing_plan_id":"cebpf4jnsgd1na2vs0mg"},{"bike_id":"5396fda1-c3a0-4d51-8ba0-cfe497a166d7","system_id":"levelo_inurba_marseille","lat":43.26557,"lon":5.38986,"is_reserved":false,"is_disabled":false,"rental_uris":{"android":"levelo://app?vid=5396fda1-c3a0-4d51-8ba0-cfe497a166d7","ios":"levelo://app?vid=5396fda1-c3a0-4d51-8ba0-cfe497a166d7"},"vehicle_type_id":"4","last_reported":1770219139,"current_range_meters":3200,"station_id":"ce4bhe12rcd13ifvqf30","pricing_plan_id":"cebpf4jnsgd1na2vs0mg"},{"bike_id":"95648f98-f685-4cd2-91a0-d120472b20a3","system_id":"levelo_inurba_marseille","lat":43.30537,"lon":5.3656,"is_reserved":false,"is_disabled":false,"rental_uris":{"android":"levelo://app?vid=95648f98-f685-4cd2-91a0-d120472b20a3","ios":"levelo://app?vid=95648f98-f685-4cd2-91a0-d120472b20a3"},"vehicle_type_id":"4","last_reported":1770219139,"current_range_meters":3200,"station_id":"ce4bgs12rcd13ifvqcag","pricing_plan_id":"cebpf4jnsgd1na2vs0mg"},{"bike_id":"9e057795-08d0-428c-a4d6-14e223435515","system_id":"levelo_inurba_marseille","lat":43.24587,"lon":5.37365,"is_reserved":false,"is_disabled":false,"rental_uris":{"android":"levelo://app?vid=9e057795-08d0-428c-a4d6-14e223435515","ios":"levelo://app?vid=9e057795-08d0-428c-a4d6-14e223435515"},"vehicle_type_id":"4","last_reported":1770219139,"current_range_meters":3600,"station_id":"","pricing_plan_id":"cebpf4jnsgd1na2vs0mg"},{"bike_id":"ce24aee7-35fa-4a11-bc8f-4e8ab67f92b4","system_id":"levelo_inurba_marseille","lat":43.31503,"lon":5.37298,"is_reserved":false,"is_disabled":false,"rental_uris":{"android":"levelo://app?vid=ce24aee7-35fa-4a11-bc8f-4e8ab67f92b4","ios":"levelo://app?vid=ce24aee7-35fa-4a11-bc8f-4e8ab67f92b4"},"vehicle_type_id":"4","last_reported":1770219139,"current_range_meters":3600,"station_id":"ce4bgt12rcd13ifvqcd0","pricing_plan_id":"cebpf4jnsgd1na2vs0mg"},{"bike_id":"c6e323e3-4052-4940-8ba6-87e1847b0dcf","system_id":"levelo_inurba_marseille","lat":43.25956,"lon":5.40909,"is_reserved":false,"is_disabled":false,"rental_uris":{"android":"levelo://app?vid=c6e323e3-4052-4940-8ba6-87e1847b0dcf","ios":"levelo://app?vid=c6e323e3-4052-4940-8ba6-87e1847b0dcf"},"vehicle_type_id":"4","last_reported":1770219139,"current_range_meters":3600,"station_id":"ce4bhm92rcd13ifvqglg","pricing_plan_id":"cebpf4jnsgd1na2vs0mg"},{"bike_id":"5b3811ef-5681-4c18-aac4-a62920f9a85c","system_id":"levelo_inurba_marseille","lat":43.28506,"lon":5.51443,"is_reserved":false,"is_disabled":false,"rental_uris":{"android":"levelo://app?vid=5b3811ef-5681-4c18-aac4-a62920f9a85c","ios":"levelo://app?vid=5b3811ef-5681-4c18-aac4-a62920f9a85c"},"vehicle_type_id":"4","last_reported":1770219139,"current_range_meters":3600,"station_id":"","pricing_plan_id":"cebpf4jnsgd1na2vs0mg"},{"bike_id":"aa895fce-457d-4aea-baaa-649ddfc7c869","system_id":"levelo_inurba_marseille","lat":43.27815,"lon":5.40697,"is_reserved":false,"is_disabled":false,"rental_uris":{"android":"levelo://app?vid=aa895fce-457d-4aea-baaa-649ddfc7c869","ios":"levelo://app?vid=aa895fce-457d-4aea-baaa-649ddfc7c869"},"vehicle_type_id":"4","last_reported":1770219139,"current_range_meters":3600,"station_id":"ce4bhnh2rcd13ifvqgtg","pricing_plan_id":"cebpf4jnsgd1na2vs0mg"},{"bike_id":"0e7ab3ac-42d0-478e-8dbe-484f7db5103e","system_id":"levelo_inurba_marseille","lat":43.24416,"lon":5.36988,"is_reserved":false,"is_disabled":false,"rental_uris":{"android":"levelo://app?vid=0e7ab3ac-42d0-478e-8dbe-484f7db5103e","ios":"levelo://app?vid=0e7ab3ac-42d0-478e-8dbe-484f7db5103e"},"vehicle_type_id":"4","last_reported":1770219139,"current_range_meters":4000,"station_id":"","pricing_plan_id":"cebpf4jnsgd1na2vs0mg"},{"bike_id":"34c06850-2ad0-4d44-9dd0-0bd0f5785763","system_id":"levelo_inurba_marseille","lat":43.28565,"lon":5.39492,"is_reserved":false,"is_disabled":false,"rental_uris":{"android":"levelo://app?vid=34c06850-2ad0-4d44-9dd0-0bd0f5785763","ios":"levelo://app?vid=34c06850-2ad0-4d44-9dd0-0bd0f5785763"},"vehicle_type_id":"4","last_reported":1770219139,"current_range_meters":4000,"station_id":"ce4bh292rcd13ifvqdg0","pricing_plan_id":"cebpf4jnsgd1na2vs0mg"},{"bike_id":"559b5206-6df1-4271-b6d7-d118a330a35f","system_id":"levelo_inurba_marseille","lat":43.30788,"lon":5.37644,"is_reserved":false,"is_disabled":false,"rental_uris":{"android":"levelo://app?vid=559b5206-6df1-4271-b6d7-d118a330a35f","ios":"levelo://app?vid=559b5206-6df1-4271-b6d7-d118a330a35f"},"vehicle_type_id":"4","last_reported":1770219139,"current_range_meters":4000,"station_id":"ce4bgv92rcd13ifvqcq0","pricing_plan_id":"cebpf4jnsgd1na2vs0mg"},{"bike_id":"5db40262-c973-4b13-b2a9-ee1639ccf6b3","system_id":"levelo_inurba_marseille","lat":43.24815,"lon":5.37448,"is_reserved":false,"is_disabled":false,"rental_uris":{"android":"levelo://app?vid=5db40262-c973-4b13-b2a9-ee1639ccf6b3","ios":"levelo://app?vid=5db40262-c973-4b13-b2a9-ee1639ccf6b3"},"vehicle_type_id":"4","last_reported":1770219139,"current_range_meters":4400,"station_id":"ce4bhgh2rcd13ifvqfb0","pricing_plan_id":"cebpf4jnsgd1na2vs0mg"},{"bike_id":"b4501c2a-bcd8-493d-926a-e861a0c02352","system_id":"levelo_inurba_marseille","lat":43.28418,"lon":5.349829,"is_reserved":false,"is_disabled":false,"rental_uris":{"android":"levelo://app?vid=b4501c2a-bcd8-493d-926a-e861a0c02352","ios":"levelo://app?vid=b4501c2a-bcd8-493d-926a-e861a0c02352"},"vehicle_type_id":"4","last_reported":1770219139,"current_range_meters":4400,"station_id":"ce4bhbh2rcd13ifvqepg","pricing_plan_id":"cebpf4jnsgd1na2vs0mg"},{"bike_id":"74807731-b25d-43fa-9f71-a0cb3c2a1691","system_id":"levelo_inurba_marseille","lat":43.25582,"lon":5.3824,"is_reserved":false,"is_disabled":false,"rental_uris":{"android":"levelo://app?vid=74807731-b25d-43fa-9f71-a0cb3c2a1691","ios":"levelo://app?vid=74807731-b25d-43fa-9f71-a0cb3c2a1691"},"vehicle_type_id":"4","last_reported":1770219139,"current_range_meters":4400,"station_id":"ce4bhih2rcd13ifvqfs0","pricing_plan_id":"cebpf4jnsgd1na2vs0mg"},{"bike_id":"41ca42ba-dc95-43b8-bdd4-37f439e3c100","system_id":"levelo_inurba_marseille","lat":43.2903,"lon":5.37568,"is_reserved":false,"is_disabled":false,"rental_uris":{"android":"levelo://app?vid=41ca42ba-dc95-43b8-bdd4-37f439e3c100","ios":"levelo://app?vid=41ca42ba-dc95-43b8-bdd4-37f439e3c100"},"vehicle_type_id":"4","last_reported":1770219139,"current_range_meters":4400,"station_id":"ce4bh692rcd13ifvqe90","pricing_plan_id":"cebpf4jnsgd1na2vs0mg"},{"bike_id":"42055a6f-a27c-491d-af18-a1993239f678","system_id":"levelo_inurba_marseille","lat":43.24648,"lon":5.38156,"is_reserved":false,"is_disabled":false,"rental_uris":{"android":"levelo://app?vid=42055a6f-a27c-491d-af18-a1993239f678","ios":"levelo://app?vid=42055a6f-a27c-491d-af18-a1993239f678"},"vehicle_type_id":"4","last_reported":1770219139,"current_range_meters":4400,"station_id":"ce4bhih2rcd13ifvqfr0","pricing_plan_id":"cebpf4jnsgd1na2vs0mg"},{"bike_id":"b4a2ae19-0151-403d-8263-c34165b4939a","system_id":"levelo_inurba_marseille","lat":43.29046,"lon":5.39964,"is_reserved":false,"is_disabled":false,"rental_uris":{"android":"levelo://app?vid=b4a2ae19-0151-403d-8263-c34165b4939a","ios":"levelo://app?vid=b4a2ae19-0151-403d-8263-c34165b4939a"},"vehicle_type_id":"4","last_reported":1770219139,"current_range_meters":4400,"station_id":"ce4bh392rcd13ifvqdm0","pricing_plan_id":"cebpf4jnsgd1na2vs0mg"},{"bike_id":"3348eb1f-b918-4721-af12-49260516bddd","system_id":"levelo_inurba_marseille","lat":43.3021,"lon":5.39459,"is_reserved":false,"is_disabled":false,"rental_uris":{"android":"levelo://app?vid=3348eb1f-b918-4721-af12-49260516bddd","ios":"levelo://app?vid=3348eb1f-b918-4721-af12-49260516bddd"},"vehicle_type_id":"4","last_reported":1770219139,"current_range_meters":4400,"station_id":"ce4bh0p2rcd13ifvqd70","pricing_plan_id":"cebpf4jnsgd1na2vs0mg"},{"bike_id":"f57600aa-3553-4c5b-8eb9-2131032f6811","system_id":"levelo_inurba_marseille","lat":43.28218,"lon":5.39064,"is_reserved":false,"is_disabled":false,"rental_uris":{"android":"levelo://app?vid=f57600aa-3553-4c5b-8eb9-2131032f6811","ios":"levelo://app?vid=f57600aa-3553-4c5b-8eb9-2131032f6811"},"vehicle_type_id":"4","last_reported":1770219139,"current_range_meters":4400,"station_id":"ce4bhn92rcd13ifvqgsg","pricing_plan_id":"cebpf4jnsgd1na2vs0mg"},{"bike_id":"8e312380-e745-433d-90b9-ff07a309073d","system_id":"levelo_inurba_marseille","lat":43.248022,"lon":5.374442,"is_reserved":false,"is_disabled":false,"rental_uris":{"android":"levelo://app?vid=8e312380-e745-433d-90b9-ff07a309073d","ios":"levelo://app?vid=8e312380-e745-433d-90b9-ff07a309073d"},"vehicle_type_id":"4","last_reported":1770219139,"current_range_meters":4800,"station_id":"ce4bhgh2rcd13ifvqfb0","pricing_plan_id":"cebpf4jnsgd1na2vs0mg"},{"bike_id":"c056efdd-bfd4-4d90-a2c4-30f136ba140c","system_id":"levelo_inurba_marseille","lat":43.335,"lon":5.37481,"is_reserved":false,"is_disabled":false,"rental_uris":{"android":"levelo://app?vid=c056efdd-bfd4-4d90-a2c4-30f136ba140c","ios":"levelo://app?vid=c056efdd-bfd4-4d90-a2c4-30f136ba140c"},"vehicle_type_id":"4","last_reported":1770219139,"current_range_meters":4800,"station_id":"","pricing_plan_id":"cebpf4jnsgd1na2vs0mg"},{"bike_id":"cb8f0f82-b90a-4411-998b-f5a752fde35c","system_id":"levelo_inurba_marseille","lat":43.27204,"lon":5.39185,"is_reserved":false,"is_disabled":false,"rental_uris":{"android":"levelo://app?vid=cb8f0f82-b90a-4411-998b-f5a752fde35c","ios":"levelo://app?vid=cb8f0f82-b90a-4411-998b-f5a752fde35c"},"vehicle_type_id":"4","last_reported":1770219139,"current_range_meters":4800,"station_id":"ce4bhhp2rcd13ifvqfm0","pricing_plan_id":"cebpf4jnsgd1na2vs0mg"},{"bike_id":"ce6a297c-e38e-414b-9f51-17f2d75159f8","system_id":"levelo_inurba_marseille","lat":43.28723,"lon":5.37932,"is_reserved":false,"is_disabled":false,"rental_uris":{"android":"levelo://app?vid=ce6a297c-e38e-414b-9f51-17f2d75159f8","ios":"levelo://app?vid=ce6a297c-e38e-414b-9f51-17f2d75159f8"},"vehicle_type_id":"4","last_reported":1770219139,"current_range_meters":4800,"station_id":"ce4bh9p2rcd13ifvqec0","pricing_plan_id":"cebpf4jnsgd1na2vs0mg"},{"bike_id":"9720d5e4-ed41-4298-8285-6674df107b18","system_id":"levelo_inurba_marseille","lat":43.283691,"lon":5.386384,"is_reserved":false,"is_disabled":false,"rental_uris":{"android":"levelo://app?vid=9720d5e4-ed41-4298-8285-6674df107b18","ios":"levelo://app?vid=9720d5e4-ed41-4298-8285-6674df107b18"},"vehicle_type_id":"4","last_reported":1770219139,"current_range_meters":4800,"station_id":"ce4bh492rcd13ifvqdvg","pricing_plan_id":"cebpf4jnsgd1na2vs0mg"},{"bike_id":"ba3390f5-14ed-4160-abcf-8bea19885613","system_id":"levelo_inurba_marseille","lat":43.28486,"lon":5.48395,"is_reserved":false,"is_disabled":false,"rental_uris":{"android":"levelo://app?vid=ba3390f5-14ed-4160-abcf-8bea19885613","ios":"levelo://app?vid=ba3390f5-14ed-4160-abcf-8bea19885613"},"vehicle_type_id":"4","last_reported":1770219139,"current_range_meters":4800,"station_id":"","pricing_plan_id":"cebpf4jnsgd1na2vs0mg"},{"bike_id":"191a99ed-49ff-4737-8f82-7264bf56cc6c","system_id":"levelo_inurba_marseille","lat":43.25004,"lon":5.3892,"is_reserved":false,"is_disabled":false,"rental_uris":{"android":"levelo://app?vid=191a99ed-49ff-4737-8f82-7264bf56cc6c","ios":"levelo://app?vid=191a99ed-49ff-4737-8f82-7264bf56cc6c"},"vehicle_type_id":"4","last_reported":1770219139,"current_range_meters":4800,"station_id":"ce4bhgp2rcd13ifvqfd0","pricing_plan_id":"cebpf4jnsgd1na2vs0mg"},{"bike_id":"33877ffc-1165-4955-b02f-d2a3bfd8054b","system_id":"levelo_inurba_marseille","lat":43.2827,"lon":5.35061,"is_reserved":false,"is_disabled":false,"rental_uris":{"android":"levelo://app?vid=33877ffc-1165-4955-b02f-d2a3bfd8054b","ios":"levelo://app?vid=33877ffc-1165-4955-b02f-d2a3bfd8054b"},"vehicle_type_id":"4","last_reported":1770219139,"current_range_meters":4800,"station_id":"ce4bhbp2rcd13ifvqerg","pricing_plan_id":"cebpf4jnsgd1na2vs0mg"},{"bike_id":"e1352ab9-941b-4648-8975-c50d5564767a","system_id":"levelo_inurba_marseille","lat":43.29971,"lon":5.41321,"is_reserved":false,"is_disabled":false,"rental_uris":{"android":"levelo://app?vid=e1352ab9-941b-4648-8975-c50d5564767a","ios":"levelo://app?vid=e1352ab9-941b-4648-8975-c50d5564767a"},"vehicle_type_id":"4","last_reported":1770219139,"current_range_meters":4800,"station_id":"ce4bhp12rcd13ifvqh9g","pricing_plan_id":"cebpf4jnsgd1na2vs0mg"},{"bike_id":"d863964b-1765-40d1-8b0c-d4f383cfb831","system_id":"levelo_inurba_marseille","lat":43.29947,"lon":5.36551,"is_reserved":false,"is_disabled":false,"rental_uris":{"android":"levelo://app?vid=d863964b-1765-40d1-8b0c-d4f383cfb831","ios":"levelo://app?vid=d863964b-1765-40d1-8b0c-d4f383cfb831"},"vehicle_type_id":"4","last_reported":1770219139,"current_range_meters":4800,"station_id":"ce4bgm92rcd13ifvqbr0","pricing_plan_id":"cebpf4jnsgd1na2vs0mg"},{"bike_id":"ccad5bb8-727e-4e27-b0cc-7b2f496ea109","system_id":"levelo_inurba_marseille","lat":43.29557,"lon":5.42287,"is_reserved":false,"is_disabled":false,"rental_uris":{"android":"levelo://app?vid=ccad5bb8-727e-4e27-b0cc-7b2f496ea109","ios":"levelo://app?vid=ccad5bb8-727e-4e27-b0cc-7b2f496ea109"},"vehicle_type_id":"4","last_reported":1770219139,"current_range_meters":4800,"station_id":"ce4bhph2rcd13ifvqhdg","pricing_plan_id":"cebpf4jnsgd1na2vs0mg"},{"bike_id":"3e572845-fd7b-4b44-a90b-deb0044f3f60","system_id":"levelo_inurba_marseille","lat":43.29784,"lon":5.39343,"is_reserved":false,"is_disabled":false,"rental_uris":{"android":"levelo://app?vid=3e572845-fd7b-4b44-a90b-deb0044f3f60","ios":"levelo://app?vid=3e572845-fd7b-4b44-a90b-deb0044f3f60"},"vehicle_type_id":"4","last_reported":1770219139,"current_range_meters":5600,"station_id":"chh1huq6cuj3fo74tm60","pricing_plan_id":"cebpf4jnsgd1na2vs0mg"},{"bike_id":"a0dac713-2dba-4e6f-87ab-5eb43b252ad4","system_id":"levelo_inurba_marseille","lat":43.31171,"lon":5.38709,"is_reserved":false,"is_disabled":false,"rental_uris":{"android":"levelo://app?vid=a0dac713-2dba-4e6f-87ab-5eb43b252ad4","ios":"levelo://app?vid=a0dac713-2dba-4e6f-87ab-5eb43b252ad4"},"vehicle_type_id":"4","last_reported":1770219139,"current_range_meters":5600,"station_id":"ce4bgv12rcd13ifvqcp0","pricing_plan_id":"cebpf4jnsgd1na2vs0mg"},{"bike_id":"3335ea9f-1944-46df-9cbf-48c87d3c290b","system_id":"levelo_inurba_marseille","lat":43.2417,"lon":5.39723,"is_reserved":false,"is_disabled":false,"rental_uris":{"android":"levelo://app?vid=3335ea9f-1944-46df-9cbf-48c87d3c290b","ios":"levelo://app?vid=3335ea9f-1944-46df-9cbf-48c87d3c290b"},"vehicle_type_id":"4","last_reported":1770219139,"current_range_meters":5600,"station_id":"ce4bhn12rcd13ifvqgpg","pricing_plan_id":"cebpf4jnsgd1na2vs0mg"},{"bike_id":"242256f5-f0bd-4204-9565-2087ceacdda5","system_id":"levelo_inurba_marseille","lat":43.2256,"lon":5.41632,"is_reserved":false,"is_disabled":false,"rental_uris":{"android":"levelo://app?vid=242256f5-f0bd-4204-9565-2087ceacdda5","ios":"levelo://app?vid=242256f5-f0bd-4204-9565-2087ceacdda5"},"vehicle_type_id":"4","last_reported":1770219139,"current_range_meters":5600,"station_id":"st_d2o4gvlbi1j2169b742g","pricing_plan_id":"cebpf4jnsgd1na2vs0mg"},{"bike_id":"985b780c-639f-45e3-813d-a0ec315e5f33","system_id":"levelo_inurba_marseille","lat":43.26792,"lon":5.3939,"is_reserved":false,"is_disabled":false,"rental_uris":{"android":"levelo://app?vid=985b780c-639f-45e3-813d-a0ec315e5f33","ios":"levelo://app?vid=985b780c-639f-45e3-813d-a0ec315e5f33"},"vehicle_type_id":"4","last_reported":1770219139,"current_range_meters":5600,"station_id":"ce4bhh12rcd13ifvqfg0","pricing_plan_id":"cebpf4jnsgd1na2vs0mg"},{"bike_id":"c214f81c-e58b-4475-ad7c-a9d63d7d79c5","system_id":"levelo_inurba_marseille","lat":43.2955,"lon":5.42291,"is_reserved":false,"is_disabled":false,"rental_uris":{"android":"levelo://app?vid=c214f81c-e58b-4475-ad7c-a9d63d7d79c5","ios":"levelo://app?vid=c214f81c-e58b-4475-ad7c-a9d63d7d79c5"},"vehicle_type_id":"4","last_reported":1770219139,"current_range_meters":5600,"station_id":"ce4bhph2rcd13ifvqhdg","pricing_plan_id":"cebpf4jnsgd1na2vs0mg"},{"bike_id":"fdc74734-8708-4513-9519-5478f60a2254","system_id":"levelo_inurba_marseille","lat":43.24818,"lon":5.37456,"is_reserved":false,"is_disabled":false,"rental_uris":{"android":"levelo://app?vid=fdc74734-8708-4513-9519-5478f60a2254","ios":"levelo://app?vid=fdc74734-8708-4513-9519-5478f60a2254"},"vehicle_type_id":"4","last_reported":1770219139,"current_range_meters":5600,"station_id":"ce4bhgh2rcd13ifvqfb0","pricing_plan_id":"cebpf4jnsgd1na2vs0mg"},{"bike_id":"692d5410-7bea-4ca1-910c-e9224d4fa1ea","system_id":"levelo_inurba_marseille","lat":43.28622,"lon":5.35091,"is_reserved":false,"is_disabled":false,"rental_uris":{"android":"levelo://app?vid=692d5410-7bea-4ca1-910c-e9224d4fa1ea","ios":"levelo://app?vid=692d5410-7bea-4ca1-910c-e9224d4fa1ea"},"vehicle_type_id":"4","last_reported":1770219139,"current_range_meters":5600,"station_id":"","pricing_plan_id":"cebpf4jnsgd1na2vs0mg"},{"bike_id":"a1d40264-31fa-4368-a92c-3f50c8a64b96","system_id":"levelo_inurba_marseille","lat":43.23138,"lon":5.43721,"is_reserved":false,"is_disabled":false,"rental_uris":{"android":"levelo://app?vid=a1d40264-31fa-4368-a92c-3f50c8a64b96","ios":"levelo://app?vid=a1d40264-31fa-4368-a92c-3f50c8a64b96"},"vehicle_type_id":"4","last_reported":1770219139,"current_range_meters":5600,"station_id":"ce4bhmp2rcd13ifvqgog","pricing_plan_id":"cebpf4jnsgd1na2vs0mg"},{"bike_id":"13792967-e84d-49d8-a084-62f8e2603bbd","system_id":"levelo_inurba_marseille","lat":43.24651,"lon":5.38892,"is_reserved":false,"is_disabled":false,"rental_uris":{"android":"levelo://app?vid=13792967-e84d-49d8-a084-62f8e2603bbd","ios":"levelo://app?vid=13792967-e84d-49d8-a084-62f8e2603bbd"},"vehicle_type_id":"4","last_reported":1770219139,"current_range_meters":5600,"station_id":"ce4bhg12rcd13ifvqf60","pricing_plan_id":"cebpf4jnsgd1na2vs0mg"},{"bike_id":"988afa8e-d306-4003-baf9-728102144f56","system_id":"levelo_inurba_marseille","lat":43.26768,"lon":5.38301,"is_reserved":false,"is_disabled":false,"rental_uris":{"android":"levelo://app?vid=988afa8e-d306-4003-baf9-728102144f56","ios":"levelo://app?vid=988afa8e-d306-4003-baf9-728102144f56"},"vehicle_type_id":"4","last_reported":1770219139,"current_range_meters":6000,"station_id":"","pricing_plan_id":"cebpf4jnsgd1na2vs0mg"},{"bike_id":"93f4d712-ad08-479a-b0bf-bd98e32fd86e","system_id":"levelo_inurba_marseille","lat":43.30259,"lon":5.37181,"is_reserved":false,"is_disabled":false,"rental_uris":{"android":"levelo://app?vid=93f4d712-ad08-479a-b0bf-bd98e32fd86e","ios":"levelo://app?vid=93f4d712-ad08-479a-b0bf-bd98e32fd86e"},"vehicle_type_id":"4","last_reported":1770219139,"current_range_meters":6000,"station_id":"","pricing_plan_id":"cebpf4jnsgd1na2vs0mg"},{"bike_id":"8faf73c2-426f-406c-b2e7-3c864be78133","system_id":"levelo_inurba_marseille","lat":43.302754,"lon":5.36885,"is_reserved":false,"is_disabled":false,"rental_uris":{"android":"levelo://app?vid=8faf73c2-426f-406c-b2e7-3c864be78133","ios":"levelo://app?vid=8faf73c2-426f-406c-b2e7-3c864be78133"},"vehicle_type_id":"4","last_reported":1770219139,"current_range_meters":6000,"station_id":"ce4bgqh2rcd13ifvqc5g","pricing_plan_id":"cebpf4jnsgd1na2vs0mg"},{"bike_id":"259049c5-0af7-428e-a74d-890070eaa74c","system_id":"levelo_inurba_marseille","lat":43.26957,"lon":5.38662,"is_reserved":false,"is_disabled":false,"rental_uris":{"android":"levelo://app?vid=259049c5-0af7-428e-a74d-890070eaa74c","ios":"levelo://app?vid=259049c5-0af7-428e-a74d-890070eaa74c"},"vehicle_type_id":"4","last_reported":1770219139,"current_range_meters":6000,"station_id":"ce4bhh92rcd13ifvqfh0","pricing_plan_id":"cebpf4jnsgd1na2vs0mg"},{"bike_id":"45ad8ef7-34e4-40d9-9057-5dae4609a19a","system_id":"levelo_inurba_marseille","lat":43.30591,"lon":5.37185,"is_reserved":false,"is_disabled":false,"rental_uris":{"android":"levelo://app?vid=45ad8ef7-34e4-40d9-9057-5dae4609a19a","ios":"levelo://app?vid=45ad8ef7-34e4-40d9-9057-5dae4609a19a"},"vehicle_type_id":"4","last_reported":1770219139,"current_range_meters":6000,"station_id":"ce4bgqh2rcd13ifvqc4g","pricing_plan_id":"cebpf4jnsgd1na2vs0mg"},{"bike_id":"e9fae1a1-52ee-4751-bbd4-1441429c87a5","system_id":"levelo_inurba_marseille","lat":43.23151,"lon":5.43698,"is_reserved":false,"is_disabled":false,"rental_uris":{"android":"levelo://app?vid=e9fae1a1-52ee-4751-bbd4-1441429c87a5","ios":"levelo://app?vid=e9fae1a1-52ee-4751-bbd4-1441429c87a5"},"vehicle_type_id":"4","last_reported":1770219139,"current_range_meters":6000,"station_id":"ce4bhmp2rcd13ifvqgog","pricing_plan_id":"cebpf4jnsgd1na2vs0mg"},{"bike_id":"9d79ec10-3ed1-4035-8609-ff591e4f54d3","system_id":"levelo_inurba_marseille","lat":43.25579,"lon":5.3822,"is_reserved":false,"is_disabled":false,"rental_uris":{"android":"levelo://app?vid=9d79ec10-3ed1-4035-8609-ff591e4f54d3","ios":"levelo://app?vid=9d79ec10-3ed1-4035-8609-ff591e4f54d3"},"vehicle_type_id":"4","last_reported":1770219139,"current_range_meters":6000,"station_id":"ce4bhih2rcd13ifvqfs0","pricing_plan_id":"cebpf4jnsgd1na2vs0mg"},{"bike_id":"9a41c992-8ec6-4c5f-9787-da9fbb815a48","system_id":"levelo_inurba_marseille","lat":43.255723,"lon":5.382361,"is_reserved":false,"is_disabled":false,"rental_uris":{"android":"levelo://app?vid=9a41c992-8ec6-4c5f-9787-da9fbb815a48","ios":"levelo://app?vid=9a41c992-8ec6-4c5f-9787-da9fbb815a48"},"vehicle_type_id":"4","last_reported":1770219139,"current_range_meters":6000,"station_id":"ce4bhih2rcd13ifvqfs0","pricing_plan_id":"cebpf4jnsgd1na2vs0mg"},{"bike_id":"9b56e182-4134-4f9f-b48f-caf7dd28724d","system_id":"levelo_inurba_marseille","lat":43.28536,"lon":5.44088,"is_reserved":false,"is_disabled":false,"rental_uris":{"android":"levelo://app?vid=9b56e182-4134-4f9f-b48f-caf7dd28724d","ios":"levelo://app?vid=9b56e182-4134-4f9f-b48f-caf7dd28724d"},"vehicle_type_id":"4","last_reported":1770219139,"current_range_meters":6000,"station_id":"st_d3j3df2ikq2c7380ej80","pricing_plan_id":"cebpf4jnsgd1na2vs0mg"},{"bike_id":"ad0a9b73-79c6-46e9-8612-f7d363be0c07","system_id":"levelo_inurba_marseille","lat":43.29315,"lon":5.371548,"is_reserved":false,"is_disabled":false,"rental_uris":{"android":"levelo://app?vid=ad0a9b73-79c6-46e9-8612-f7d363be0c07","ios":"levelo://app?vid=ad0a9b73-79c6-46e9-8612-f7d363be0c07"},"vehicle_type_id":"4","last_reported":1770219139,"current_range_meters":6000,"station_id":"ce4bgh92rcd13ifvqb40","pricing_plan_id":"cebpf4jnsgd1na2vs0mg"},{"bike_id":"6af9c093-c8f8-4e82-9b76-84ead01f4f13","system_id":"levelo_inurba_marseille","lat":43.2656,"lon":5.40331,"is_reserved":false,"is_disabled":false,"rental_uris":{"android":"levelo://app?vid=6af9c093-c8f8-4e82-9b76-84ead01f4f13","ios":"levelo://app?vid=6af9c093-c8f8-4e82-9b76-84ead01f4f13"},"vehicle_type_id":"4","last_reported":1770219139,"current_range_meters":6000,"station_id":"ce4bhmp2rcd13ifvqgng","pricing_plan_id":"cebpf4jnsgd1na2vs0mg"},{"bike_id":"0c0204e9-2e2c-4854-9498-c261c0135345","system_id":"levelo_inurba_marseille","lat":43.23788,"lon":5.36636,"is_reserved":false,"is_disabled":false,"rental_uris":{"android":"levelo://app?vid=0c0204e9-2e2c-4854-9498-c261c0135345","ios":"levelo://app?vid=0c0204e9-2e2c-4854-9498-c261c0135345"},"vehicle_type_id":"4","last_reported":1770219139,"current_range_meters":6000,"station_id":"st_d3nk18o9ro0c73en2l3g","pricing_plan_id":"cebpf4jnsgd1na2vs0mg"},{"bike_id":"efea85db-b1c8-46f7-b3e0-9fa246910aa6","system_id":"levelo_inurba_marseille","lat":43.23193,"lon":5.39983,"is_reserved":false,"is_disabled":false,"rental_uris":{"android":"levelo://app?vid=efea85db-b1c8-46f7-b3e0-9fa246910aa6","ios":"levelo://app?vid=efea85db-b1c8-46f7-b3e0-9fa246910aa6"},"vehicle_type_id":"4","last_reported":1770219139,"current_range_meters":6000,"station_id":"ce4bhn12rcd13ifvqgqg","pricing_plan_id":"cebpf4jnsgd1na2vs0mg"},{"bike_id":"d5d98457-3377-411c-bbd5-111f6add1380","system_id":"levelo_inurba_marseille","lat":43.25904,"lon":5.39433,"is_reserved":false,"is_disabled":false,"rental_uris":{"android":"levelo://app?vid=d5d98457-3377-411c-bbd5-111f6add1380","ios":"levelo://app?vid=d5d98457-3377-411c-bbd5-111f6add1380"},"vehicle_type_id":"4","last_reported":1770219139,"current_range_meters":6000,"station_id":"","pricing_plan_id":"cebpf4jnsgd1na2vs0mg"},{"bike_id":"f54f7d74-409f-410d-95c8-a65e90d900f5","system_id":"levelo_inurba_marseille","lat":43.2465,"lon":5.43136,"is_reserved":false,"is_disabled":false,"rental_uris":{"android":"levelo://app?vid=f54f7d74-409f-410d-95c8-a65e90d900f5","ios":"levelo://app?vid=f54f7d74-409f-410d-95c8-a65e90d900f5"},"vehicle_type_id":"4","last_reported":1770219139,"current_range_meters":6400,"station_id":"st_d2m6c4gdas8pm72e190g","pricing_plan_id":"cebpf4jnsgd1na2vs0mg"},{"bike_id":"c143c7c9-0924-48dc-a1e7-7eac6ac1a2c4","system_id":"levelo_inurba_marseille","lat":43.32655,"lon":5.40995,"is_reserved":false,"is_disabled":false,"rental_uris":{"android":"levelo://app?vid=c143c7c9-0924-48dc-a1e7-7eac6ac1a2c4","ios":"levelo://app?vid=c143c7c9-0924-48dc-a1e7-7eac6ac1a2c4"},"vehicle_type_id":"4","last_reported":1770219139,"current_range_meters":6400,"station_id":"ce4bhpp2rcd13ifvqhgg","pricing_plan_id":"cebpf4jnsgd1na2vs0mg"},{"bike_id":"71d627f4-7ec8-449a-a29d-435264410d26","system_id":"levelo_inurba_marseille","lat":43.2907,"lon":5.37144,"is_reserved":false,"is_disabled":false,"rental_uris":{"android":"levelo://app?vid=71d627f4-7ec8-449a-a29d-435264410d26","ios":"levelo://app?vid=71d627f4-7ec8-449a-a29d-435264410d26"},"vehicle_type_id":"4","last_reported":1770219139,"current_range_meters":6400,"station_id":"ce4bh5p2rcd13ifvqe4g","pricing_plan_id":"cebpf4jnsgd1na2vs0mg"},{"bike_id":"7b2df10f-d97d-4068-9983-8f53d0a78517","system_id":"levelo_inurba_marseille","lat":43.28884,"lon":5.42527,"is_reserved":false,"is_disabled":false,"rental_uris":{"android":"levelo://app?vid=7b2df10f-d97d-4068-9983-8f53d0a78517","ios":"levelo://app?vid=7b2df10f-d97d-4068-9983-8f53d0a78517"},"vehicle_type_id":"4","last_reported":1770219139,"current_range_meters":6400,"station_id":"st_d3b462108ojc7389ooeg","pricing_plan_id":"cebpf4jnsgd1na2vs0mg"},{"bike_id":"a8c22487-8662-4b4c-ad3e-edccba99e631","system_id":"levelo_inurba_marseille","lat":43.31361,"lon":5.38502,"is_reserved":false,"is_disabled":false,"rental_uris":{"android":"levelo://app?vid=a8c22487-8662-4b4c-ad3e-edccba99e631","ios":"levelo://app?vid=a8c22487-8662-4b4c-ad3e-edccba99e631"},"vehicle_type_id":"4","last_reported":1770219139,"current_range_meters":6400,"station_id":"ce4bgt92rcd13ifvqcf0","pricing_plan_id":"cebpf4jnsgd1na2vs0mg"},{"bike_id":"8fb4838b-c5bd-4cb2-8c92-fceeea48a889","system_id":"levelo_inurba_marseille","lat":43.29565,"lon":5.42282,"is_reserved":false,"is_disabled":false,"rental_uris":{"android":"levelo://app?vid=8fb4838b-c5bd-4cb2-8c92-fceeea48a889","ios":"levelo://app?vid=8fb4838b-c5bd-4cb2-8c92-fceeea48a889"},"vehicle_type_id":"4","last_reported":1770219139,"current_range_meters":6400,"station_id":"ce4bhph2rcd13ifvqhdg","pricing_plan_id":"cebpf4jnsgd1na2vs0mg"},{"bike_id":"dbeef5c7-4028-4d99-a76c-21cebff9483e","system_id":"levelo_inurba_marseille","lat":43.33535,"lon":5.37463,"is_reserved":false,"is_disabled":false,"rental_uris":{"android":"levelo://app?vid=dbeef5c7-4028-4d99-a76c-21cebff9483e","ios":"levelo://app?vid=dbeef5c7-4028-4d99-a76c-21cebff9483e"},"vehicle_type_id":"4","last_reported":1770219139,"current_range_meters":6400,"station_id":"st_d46tts09ee8s73dlu43g","pricing_plan_id":"cebpf4jnsgd1na2vs0mg"},{"bike_id":"c3e77f90-af9b-4ac4-9b36-0c3e90510873","system_id":"levelo_inurba_marseille","lat":43.25766,"lon":5.41063,"is_reserved":false,"is_disabled":false,"rental_uris":{"android":"levelo://app?vid=c3e77f90-af9b-4ac4-9b36-0c3e90510873","ios":"levelo://app?vid=c3e77f90-af9b-4ac4-9b36-0c3e90510873"},"vehicle_type_id":"4","last_reported":1770219139,"current_range_meters":6400,"station_id":"","pricing_plan_id":"cebpf4jnsgd1na2vs0mg"},{"bike_id":"b9ac18e3-1a8d-4453-8593-c096d2e104c0","system_id":"levelo_inurba_marseille","lat":43.31274,"lon":5.40175,"is_reserved":false,"is_disabled":false,"rental_uris":{"android":"levelo://app?vid=b9ac18e3-1a8d-4453-8593-c096d2e104c0","ios":"levelo://app?vid=b9ac18e3-1a8d-4453-8593-c096d2e104c0"},"vehicle_type_id":"4","last_reported":1770219139,"current_range_meters":6400,"station_id":"ce4bh092rcd13ifvqd30","pricing_plan_id":"cebpf4jnsgd1na2vs0mg"},{"bike_id":"046e7757-7125-4638-959f-a98bf271f615","system_id":"levelo_inurba_marseille","lat":43.26202,"lon":5.37448,"is_reserved":false,"is_disabled":false,"rental_uris":{"android":"levelo://app?vid=046e7757-7125-4638-959f-a98bf271f615","ios":"levelo://app?vid=046e7757-7125-4638-959f-a98bf271f615"},"vehicle_type_id":"4","last_reported":1770219139,"current_range_meters":6400,"station_id":"ce4bhgp2rcd13ifvqfc0","pricing_plan_id":"cebpf4jnsgd1na2vs0mg"},{"bike_id":"ad450168-32bc-48e5-981d-10198d96911f","system_id":"levelo_inurba_marseille","lat":43.2417,"lon":5.36391,"is_reserved":false,"is_disabled":false,"rental_uris":{"android":"levelo://app?vid=ad450168-32bc-48e5-981d-10198d96911f","ios":"levelo://app?vid=ad450168-32bc-48e5-981d-10198d96911f"},"vehicle_type_id":"4","last_reported":1770219139,"current_range_meters":6400,"station_id":"cpo36qri1sfpv3e86is0","pricing_plan_id":"cebpf4jnsgd1na2vs0mg"},{"bike_id":"76ff6ff4-d3e9-41f6-a13b-1b0fbbc6e536","system_id":"levelo_inurba_marseille","lat":43.29277,"lon":5.36849,"is_reserved":false,"is_disabled":false,"rental_uris":{"android":"levelo://app?vid=76ff6ff4-d3e9-41f6-a13b-1b0fbbc6e536","ios":"levelo://app?vid=76ff6ff4-d3e9-41f6-a13b-1b0fbbc6e536"},"vehicle_type_id":"4","last_reported":1770219139,"current_range_meters":6400,"station_id":"ce4bhbp2rcd13ifvqesg","pricing_plan_id":"cebpf4jnsgd1na2vs0mg"},{"bike_id":"91d43c03-d29a-4e8f-8922-7150679c0de2","system_id":"levelo_inurba_marseille","lat":43.26806,"lon":5.40269,"is_reserved":false,"is_disabled":false,"rental_uris":{"android":"levelo://app?vid=91d43c03-d29a-4e8f-8922-7150679c0de2","ios":"levelo://app?vid=91d43c03-d29a-4e8f-8922-7150679c0de2"},"vehicle_type_id":"4","last_reported":1770219139,"current_range_meters":6400,"station_id":"ce501612rcd8frsf0b60","pricing_plan_id":"cebpf4jnsgd1na2vs0mg"},{"bike_id":"f3318fc5-517b-4379-ab99-0b3b1be2500a","system_id":"levelo_inurba_marseille","lat":43.23381,"lon":5.41242,"is_reserved":false,"is_disabled":false,"rental_uris":{"android":"levelo://app?vid=f3318fc5-517b-4379-ab99-0b3b1be2500a","ios":"levelo://app?vid=f3318fc5-517b-4379-ab99-0b3b1be2500a"},"vehicle_type_id":"4","last_reported":1770219139,"current_range_meters":6400,"station_id":"","pricing_plan_id":"cebpf4jnsgd1na2vs0mg"},{"bike_id":"458b1d5f-d114-467e-9088-6f35cf923bb2","system_id":"levelo_inurba_marseille","lat":43.29779,"lon":5.38114,"is_reserved":false,"is_disabled":true,"rental_uris":{"android":"levelo://app?vid=458b1d5f-d114-467e-9088-6f35cf923bb2","ios":"levelo://app?vid=458b1d5f-d114-467e-9088-6f35cf923bb2"},"vehicle_type_id":"4","last_reported":1770219139,"current_range_meters":6400,"station_id":"ce4bgip2rcd13ifvqbb0","pricing_plan_id":"cebpf4jnsgd1na2vs0mg"},{"bike_id":"2e5ecc25-77a5-480b-9b59-990ada3aef80","system_id":"levelo_inurba_marseille","lat":43.31383,"lon":5.36706,"is_reserved":false,"is_disabled":false,"rental_uris":{"android":"levelo://app?vid=2e5ecc25-77a5-480b-9b59-990ada3aef80","ios":"levelo://app?vid=2e5ecc25-77a5-480b-9b59-990ada3aef80"},"vehicle_type_id":"4","last_reported":1770219139,"current_range_meters":6800,"station_id":"ce4bgr92rcd13ifvqc6g","pricing_plan_id":"cebpf4jnsgd1na2vs0mg"},{"bike_id":"0421d7ea-5489-4199-a385-3ab425d86243","system_id":"levelo_inurba_marseille","lat":43.29305,"lon":5.35722,"is_reserved":false,"is_disabled":false,"rental_uris":{"android":"levelo://app?vid=0421d7ea-5489-4199-a385-3ab425d86243","ios":"levelo://app?vid=0421d7ea-5489-4199-a385-3ab425d86243"},"vehicle_type_id":"4","last_reported":1770219139,"current_range_meters":6800,"station_id":"","pricing_plan_id":"cebpf4jnsgd1na2vs0mg"},{"bike_id":"73b6626a-125d-4b63-8d66-3e6a9851d390","system_id":"levelo_inurba_marseille","lat":43.22565,"lon":5.4163,"is_reserved":false,"is_disabled":false,"rental_uris":{"android":"levelo://app?vid=73b6626a-125d-4b63-8d66-3e6a9851d390","ios":"levelo://app?vid=73b6626a-125d-4b63-8d66-3e6a9851d390"},"vehicle_type_id":"4","last_reported":1770219139,"current_range_meters":6800,"station_id":"st_d2o4gvlbi1j2169b742g","pricing_plan_id":"cebpf4jnsgd1na2vs0mg"},{"bike_id":"7ab80b7e-a203-442c-b352-62055b06df4d","system_id":"levelo_inurba_marseille","lat":43.31032,"lon":5.37182,"is_reserved":false,"is_disabled":false,"rental_uris":{"android":"levelo://app?vid=7ab80b7e-a203-442c-b352-62055b06df4d","ios":"levelo://app?vid=7ab80b7e-a203-442c-b352-62055b06df4d"},"vehicle_type_id":"4","last_reported":1770219139,"current_range_meters":6800,"station_id":"st_d4kl2rp97mjs73e7tdfg","pricing_plan_id":"cebpf4jnsgd1na2vs0mg"},{"bike_id":"70af0e08-5167-4211-903d-9675276dae0f","system_id":"levelo_inurba_marseille","lat":43.27563,"lon":5.38415,"is_reserved":false,"is_disabled":false,"rental_uris":{"android":"levelo://app?vid=70af0e08-5167-4211-903d-9675276dae0f","ios":"levelo://app?vid=70af0e08-5167-4211-903d-9675276dae0f"},"vehicle_type_id":"4","last_reported":1770219139,"current_range_meters":6800,"station_id":"ce4bhh92rcd13ifvqfi0","pricing_plan_id":"cebpf4jnsgd1na2vs0mg"},{"bike_id":"40876c26-127d-407e-adb0-83b88074f4ef","system_id":"levelo_inurba_marseille","lat":43.2928,"lon":5.37998,"is_reserved":false,"is_disabled":false,"rental_uris":{"android":"levelo://app?vid=40876c26-127d-407e-adb0-83b88074f4ef","ios":"levelo://app?vid=40876c26-127d-407e-adb0-83b88074f4ef"},"vehicle_type_id":"4","last_reported":1770219139,"current_range_meters":6800,"station_id":"","pricing_plan_id":"cebpf4jnsgd1na2vs0mg"},{"bike_id":"261d39cf-836d-4e3b-8140-d504536ebe1c","system_id":"levelo_inurba_marseille","lat":43.246696,"lon":5.393649,"is_reserved":false,"is_disabled":false,"rental_uris":{"android":"levelo://app?vid=261d39cf-836d-4e3b-8140-d504536ebe1c","ios":"levelo://app?vid=261d39cf-836d-4e3b-8140-d504536ebe1c"},"vehicle_type_id":"4","last_reported":1770219139,"current_range_meters":6800,"station_id":"","pricing_plan_id":"cebpf4jnsgd1na2vs0mg"},{"bike_id":"52ca9a31-6feb-4c8a-a69c-578844bd46ac","system_id":"levelo_inurba_marseille","lat":43.27822,"lon":5.40702,"is_reserved":false,"is_disabled":false,"rental_uris":{"android":"levelo://app?vid=52ca9a31-6feb-4c8a-a69c-578844bd46ac","ios":"levelo://app?vid=52ca9a31-6feb-4c8a-a69c-578844bd46ac"},"vehicle_type_id":"4","last_reported":1770219139,"current_range_meters":6800,"station_id":"ce4bhnh2rcd13ifvqgtg","pricing_plan_id":"cebpf4jnsgd1na2vs0mg"},{"bike_id":"2d334d5c-0886-4db9-83b0-7ae06d91ac1c","system_id":"levelo_inurba_marseille","lat":43.212,"lon":5.35074,"is_reserved":false,"is_disabled":false,"rental_uris":{"android":"levelo://app?vid=2d334d5c-0886-4db9-83b0-7ae06d91ac1c","ios":"levelo://app?vid=2d334d5c-0886-4db9-83b0-7ae06d91ac1c"},"vehicle_type_id":"4","last_reported":1770219139,"current_range_meters":6800,"station_id":"st_cvj6sg6p6f1abm77japg","pricing_plan_id":"cebpf4jnsgd1na2vs0mg"},{"bike_id":"46cf6dc3-4640-4c8c-bd7e-071c0be2a21c","system_id":"levelo_inurba_marseille","lat":43.2621,"lon":5.37928,"is_reserved":false,"is_disabled":false,"rental_uris":{"android":"levelo://app?vid=46cf6dc3-4640-4c8c-bd7e-071c0be2a21c","ios":"levelo://app?vid=46cf6dc3-4640-4c8c-bd7e-071c0be2a21c"},"vehicle_type_id":"4","last_reported":1770219139,"current_range_meters":6800,"station_id":"ce4bhjp2rcd13ifvqg90","pricing_plan_id":"cebpf4jnsgd1na2vs0mg"},{"bike_id":"54c3f246-f2ba-43d6-a39a-f70edfa6074e","system_id":"levelo_inurba_marseille","lat":43.29185,"lon":5.38595,"is_reserved":false,"is_disabled":false,"rental_uris":{"android":"levelo://app?vid=54c3f246-f2ba-43d6-a39a-f70edfa6074e","ios":"levelo://app?vid=54c3f246-f2ba-43d6-a39a-f70edfa6074e"},"vehicle_type_id":"4","last_reported":1770219139,"current_range_meters":6800,"station_id":"","pricing_plan_id":"cebpf4jnsgd1na2vs0mg"},{"bike_id":"c269eff6-7414-4fb8-b35a-8132e5c63b79","system_id":"levelo_inurba_marseille","lat":43.25026,"lon":5.38902,"is_reserved":false,"is_disabled":false,"rental_uris":{"android":"levelo://app?vid=c269eff6-7414-4fb8-b35a-8132e5c63b79","ios":"levelo://app?vid=c269eff6-7414-4fb8-b35a-8132e5c63b79"},"vehicle_type_id":"4","last_reported":1770219139,"current_range_meters":6800,"station_id":"ce4bhgp2rcd13ifvqfd0","pricing_plan_id":"cebpf4jnsgd1na2vs0mg"},{"bike_id":"5ffc162c-3876-4a49-af02-3661f44effbb","system_id":"levelo_inurba_marseille","lat":43.28481,"lon":5.48381,"is_reserved":false,"is_disabled":false,"rental_uris":{"android":"levelo://app?vid=5ffc162c-3876-4a49-af02-3661f44effbb","ios":"levelo://app?vid=5ffc162c-3876-4a49-af02-3661f44effbb"},"vehicle_type_id":"4","last_reported":1770219139,"current_range_meters":6800,"station_id":"st_d3svhcjqgbts73a3dn0g","pricing_plan_id":"cebpf4jnsgd1na2vs0mg"},{"bike_id":"fed499d8-5df5-4cf5-ac13-84aa0aaeb00e","system_id":"levelo_inurba_marseille","lat":43.30948,"lon":5.37917,"is_reserved":false,"is_disabled":false,"rental_uris":{"android":"levelo://app?vid=fed499d8-5df5-4cf5-ac13-84aa0aaeb00e","ios":"levelo://app?vid=fed499d8-5df5-4cf5-ac13-84aa0aaeb00e"},"vehicle_type_id":"4","last_reported":1770219139,"current_range_meters":6800,"station_id":"","pricing_plan_id":"cebpf4jnsgd1na2vs0mg"},{"bike_id":"e6e58918-784d-4937-ad58-d434a1e12b03","system_id":"levelo_inurba_marseille","lat":43.28701,"lon":5.37394,"is_reserved":false,"is_disabled":false,"rental_uris":{"android":"levelo://app?vid=e6e58918-784d-4937-ad58-d434a1e12b03","ios":"levelo://app?vid=e6e58918-784d-4937-ad58-d434a1e12b03"},"vehicle_type_id":"4","last_reported":1770219139,"current_range_meters":6800,"station_id":"ce4bh3p2rcd13ifvqdq0","pricing_plan_id":"cebpf4jnsgd1na2vs0mg"},{"bike_id":"626974d3-ace9-41dd-9dbe-f4621ca953aa","system_id":"levelo_inurba_marseille","lat":43.29471,"lon":5.4096,"is_reserved":false,"is_disabled":false,"rental_uris":{"android":"levelo://app?vid=626974d3-ace9-41dd-9dbe-f4621ca953aa","ios":"levelo://app?vid=626974d3-ace9-41dd-9dbe-f4621ca953aa"},"vehicle_type_id":"4","last_reported":1770219139,"current_range_meters":7200,"station_id":"","pricing_plan_id":"cebpf4jnsgd1na2vs0mg"},{"bike_id":"d94e6c0c-d482-4ce0-af37-49bee4e61853","system_id":"levelo_inurba_marseille","lat":43.23163,"lon":5.4372,"is_reserved":false,"is_disabled":false,"rental_uris":{"android":"levelo://app?vid=d94e6c0c-d482-4ce0-af37-49bee4e61853","ios":"levelo://app?vid=d94e6c0c-d482-4ce0-af37-49bee4e61853"},"vehicle_type_id":"4","last_reported":1770219139,"current_range_meters":7200,"station_id":"ce4bhmp2rcd13ifvqgog","pricing_plan_id":"cebpf4jnsgd1na2vs0mg"},{"bike_id":"83031ca8-9a01-425b-992d-e4dc7237fe73","system_id":"levelo_inurba_marseille","lat":43.22936,"lon":5.35378,"is_reserved":false,"is_disabled":false,"rental_uris":{"android":"levelo://app?vid=83031ca8-9a01-425b-992d-e4dc7237fe73","ios":"levelo://app?vid=83031ca8-9a01-425b-992d-e4dc7237fe73"},"vehicle_type_id":"4","last_reported":1770219139,"current_range_meters":7200,"station_id":"cpo3532slgdg3j2ikp40","pricing_plan_id":"cebpf4jnsgd1na2vs0mg"},{"bike_id":"91c21601-5efe-4644-9a24-675b91c6816e","system_id":"levelo_inurba_marseille","lat":43.24659,"lon":5.3888,"is_reserved":false,"is_disabled":false,"rental_uris":{"android":"levelo://app?vid=91c21601-5efe-4644-9a24-675b91c6816e","ios":"levelo://app?vid=91c21601-5efe-4644-9a24-675b91c6816e"},"vehicle_type_id":"4","last_reported":1770219139,"current_range_meters":7200,"station_id":"ce4bhg12rcd13ifvqf60","pricing_plan_id":"cebpf4jnsgd1na2vs0mg"},{"bike_id":"88bcc8d4-b65c-4ccd-93e1-ede8ba6d7b6c","system_id":"levelo_inurba_marseille","lat":43.30186,"lon":5.38053,"is_reserved":false,"is_disabled":false,"rental_uris":{"android":"levelo://app?vid=88bcc8d4-b65c-4ccd-93e1-ede8ba6d7b6c","ios":"levelo://app?vid=88bcc8d4-b65c-4ccd-93e1-ede8ba6d7b6c"},"vehicle_type_id":"4","last_reported":1770219139,"current_range_meters":7200,"station_id":"","pricing_plan_id":"cebpf4jnsgd1na2vs0mg"},{"bike_id":"6aa9af2c-fa9c-45cb-b850-d11be87e3636","system_id":"levelo_inurba_marseille","lat":43.32058,"lon":5.4155,"is_reserved":false,"is_disabled":false,"rental_uris":{"android":"levelo://app?vid=6aa9af2c-fa9c-45cb-b850-d11be87e3636","ios":"levelo://app?vid=6aa9af2c-fa9c-45cb-b850-d11be87e3636"},"vehicle_type_id":"4","last_reported":1770219139,"current_range_meters":7200,"station_id":"ce4bhq92rcd13ifvqhkg","pricing_plan_id":"cebpf4jnsgd1na2vs0mg"},{"bike_id":"522d748c-7700-4a9e-9665-197613ae3ea1","system_id":"levelo_inurba_marseille","lat":43.22563,"lon":5.41625,"is_reserved":false,"is_disabled":false,"rental_uris":{"android":"levelo://app?vid=522d748c-7700-4a9e-9665-197613ae3ea1","ios":"levelo://app?vid=522d748c-7700-4a9e-9665-197613ae3ea1"},"vehicle_type_id":"4","last_reported":1770219139,"current_range_meters":7200,"station_id":"st_d2o4gvlbi1j2169b742g","pricing_plan_id":"cebpf4jnsgd1na2vs0mg"},{"bike_id":"bc11b645-4a28-43a9-a15e-e34b2b942d16","system_id":"levelo_inurba_marseille","lat":43.29649,"lon":5.37953,"is_reserved":false,"is_disabled":false,"rental_uris":{"android":"levelo://app?vid=bc11b645-4a28-43a9-a15e-e34b2b942d16","ios":"levelo://app?vid=bc11b645-4a28-43a9-a15e-e34b2b942d16"},"vehicle_type_id":"4","last_reported":1770219139,"current_range_meters":7200,"station_id":"ce4bgl12rcd13ifvqbo0","pricing_plan_id":"cebpf4jnsgd1na2vs0mg"},{"bike_id":"c5865077-a791-448c-a4f2-89d4a660c723","system_id":"levelo_inurba_marseille","lat":43.30214,"lon":5.39471,"is_reserved":false,"is_disabled":false,"rental_uris":{"android":"levelo://app?vid=c5865077-a791-448c-a4f2-89d4a660c723","ios":"levelo://app?vid=c5865077-a791-448c-a4f2-89d4a660c723"},"vehicle_type_id":"4","last_reported":1770219139,"current_range_meters":7200,"station_id":"ce4bh0p2rcd13ifvqd70","pricing_plan_id":"cebpf4jnsgd1na2vs0mg"},{"bike_id":"605a645e-761d-4a85-acd6-fe955761eefa","system_id":"levelo_inurba_marseille","lat":43.295982,"lon":5.383446,"is_reserved":false,"is_disabled":false,"rental_uris":{"android":"levelo://app?vid=605a645e-761d-4a85-acd6-fe955761eefa","ios":"levelo://app?vid=605a645e-761d-4a85-acd6-fe955761eefa"},"vehicle_type_id":"4","last_reported":1770219139,"current_range_meters":7200,"station_id":"","pricing_plan_id":"cebpf4jnsgd1na2vs0mg"},{"bike_id":"16c34f42-9a66-4fd5-8689-2fc8478b1531","system_id":"levelo_inurba_marseille","lat":43.22938,"lon":5.35384,"is_reserved":false,"is_disabled":false,"rental_uris":{"android":"levelo://app?vid=16c34f42-9a66-4fd5-8689-2fc8478b1531","ios":"levelo://app?vid=16c34f42-9a66-4fd5-8689-2fc8478b1531"},"vehicle_type_id":"4","last_reported":1770219139,"current_range_meters":7200,"station_id":"cpo3532slgdg3j2ikp40","pricing_plan_id":"cebpf4jnsgd1na2vs0mg"},{"bike_id":"c7fd0cc4-a197-46ca-aee1-7cb94bc0ffc0","system_id":"levelo_inurba_marseille","lat":43.2338,"lon":5.41232,"is_reserved":false,"is_disabled":false,"rental_uris":{"android":"levelo://app?vid=c7fd0cc4-a197-46ca-aee1-7cb94bc0ffc0","ios":"levelo://app?vid=c7fd0cc4-a197-46ca-aee1-7cb94bc0ffc0"},"vehicle_type_id":"4","last_reported":1770219139,"current_range_meters":7200,"station_id":"","pricing_plan_id":"cebpf4jnsgd1na2vs0mg"},{"bike_id":"97259061-f08f-497c-ad93-5a24dc67386d","system_id":"levelo_inurba_marseille","lat":43.29938,"lon":5.36541,"is_reserved":false,"is_disabled":false,"rental_uris":{"android":"levelo://app?vid=97259061-f08f-497c-ad93-5a24dc67386d","ios":"levelo://app?vid=97259061-f08f-497c-ad93-5a24dc67386d"},"vehicle_type_id":"4","last_reported":1770219139,"current_range_meters":7200,"station_id":"ce4bgm92rcd13ifvqbr0","pricing_plan_id":"cebpf4jnsgd1na2vs0mg"},{"bike_id":"a5c1703c-0b2d-4e6b-b820-25e716f1e211","system_id":"levelo_inurba_marseille","lat":43.28509,"lon":5.48369,"is_reserved":false,"is_disabled":false,"rental_uris":{"android":"levelo://app?vid=a5c1703c-0b2d-4e6b-b820-25e716f1e211","ios":"levelo://app?vid=a5c1703c-0b2d-4e6b-b820-25e716f1e211"},"vehicle_type_id":"4","last_reported":1770219139,"current_range_meters":7200,"station_id":"st_d3svhcjqgbts73a3dn0g","pricing_plan_id":"cebpf4jnsgd1na2vs0mg"},{"bike_id":"2e72cd96-81ae-4799-ba47-cd0bc02f00e2","system_id":"levelo_inurba_marseille","lat":43.23146,"lon":5.43711,"is_reserved":false,"is_disabled":false,"rental_uris":{"android":"levelo://app?vid=2e72cd96-81ae-4799-ba47-cd0bc02f00e2","ios":"levelo://app?vid=2e72cd96-81ae-4799-ba47-cd0bc02f00e2"},"vehicle_type_id":"4","last_reported":1770219139,"current_range_meters":7200,"station_id":"ce4bhmp2rcd13ifvqgog","pricing_plan_id":"cebpf4jnsgd1na2vs0mg"},{"bike_id":"1a3dfa2f-394e-4239-b5b8-b0a6ee365a37","system_id":"levelo_inurba_marseille","lat":43.28696,"lon":5.37392,"is_reserved":false,"is_disabled":false,"rental_uris":{"android":"levelo://app?vid=1a3dfa2f-394e-4239-b5b8-b0a6ee365a37","ios":"levelo://app?vid=1a3dfa2f-394e-4239-b5b8-b0a6ee365a37"},"vehicle_type_id":"4","last_reported":1770219139,"current_range_meters":7200,"station_id":"ce4bh3p2rcd13ifvqdq0","pricing_plan_id":"cebpf4jnsgd1na2vs0mg"},{"bike_id":"ef64cb18-c8a8-4251-87f8-703e259c4330","system_id":"levelo_inurba_marseille","lat":43.47654,"lon":5.48969,"is_reserved":false,"is_disabled":false,"rental_uris":{"android":"levelo://app?vid=ef64cb18-c8a8-4251-87f8-703e259c4330","ios":"levelo://app?vid=ef64cb18-c8a8-4251-87f8-703e259c4330"},"vehicle_type_id":"4","last_reported":1770219139,"current_range_meters":7200,"station_id":"","pricing_plan_id":"cebpf4jnsgd1na2vs0mg"},{"bike_id":"c5cff992-53ec-4d00-9c16-443240fd0d04","system_id":"levelo_inurba_marseille","lat":43.25583,"lon":5.38225,"is_reserved":false,"is_disabled":false,"rental_uris":{"android":"levelo://app?vid=c5cff992-53ec-4d00-9c16-443240fd0d04","ios":"levelo://app?vid=c5cff992-53ec-4d00-9c16-443240fd0d04"},"vehicle_type_id":"4","last_reported":1770219139,"current_range_meters":8000,"station_id":"ce4bhih2rcd13ifvqfs0","pricing_plan_id":"cebpf4jnsgd1na2vs0mg"},{"bike_id":"8e443969-89bd-46f6-a10f-2e1233840320","system_id":"levelo_inurba_marseille","lat":43.24661,"lon":5.38176,"is_reserved":false,"is_disabled":false,"rental_uris":{"android":"levelo://app?vid=8e443969-89bd-46f6-a10f-2e1233840320","ios":"levelo://app?vid=8e443969-89bd-46f6-a10f-2e1233840320"},"vehicle_type_id":"4","last_reported":1770219139,"current_range_meters":8000,"station_id":"ce4bhih2rcd13ifvqfr0","pricing_plan_id":"cebpf4jnsgd1na2vs0mg"},{"bike_id":"8e7f7dcc-7fc1-4fa3-8f7a-9b4596de5459","system_id":"levelo_inurba_marseille","lat":43.28473,"lon":5.35879,"is_reserved":false,"is_disabled":true,"rental_uris":{"android":"levelo://app?vid=8e7f7dcc-7fc1-4fa3-8f7a-9b4596de5459","ios":"levelo://app?vid=8e7f7dcc-7fc1-4fa3-8f7a-9b4596de5459"},"vehicle_type_id":"4","last_reported":1770219139,"current_range_meters":8000,"station_id":"ce4bhah2rcd13ifvqei0","pricing_plan_id":"cebpf4jnsgd1na2vs0mg"},{"bike_id":"941d0b03-9ae1-4106-9296-775ca1406222","system_id":"levelo_inurba_marseille","lat":43.28301,"lon":5.424233,"is_reserved":false,"is_disabled":false,"rental_uris":{"android":"levelo://app?vid=941d0b03-9ae1-4106-9296-775ca1406222","ios":"levelo://app?vid=941d0b03-9ae1-4106-9296-775ca1406222"},"vehicle_type_id":"4","last_reported":1770219139,"current_range_meters":8000,"station_id":"","pricing_plan_id":"cebpf4jnsgd1na2vs0mg"},{"bike_id":"df818b63-7648-41d3-aafa-acbf575354e7","system_id":"levelo_inurba_marseille","lat":43.289794,"lon":5.378366,"is_reserved":false,"is_disabled":false,"rental_uris":{"android":"levelo://app?vid=df818b63-7648-41d3-aafa-acbf575354e7","ios":"levelo://app?vid=df818b63-7648-41d3-aafa-acbf575354e7"},"vehicle_type_id":"4","last_reported":1770219139,"current_range_meters":8000,"station_id":"ce4bh9p2rcd13ifvqed0","pricing_plan_id":"cebpf4jnsgd1na2vs0mg"},{"bike_id":"61c4cbe2-eed4-41e6-a6ff-be907a5d72ed","system_id":"levelo_inurba_marseille","lat":43.25016,"lon":5.38933,"is_reserved":false,"is_disabled":false,"rental_uris":{"android":"levelo://app?vid=61c4cbe2-eed4-41e6-a6ff-be907a5d72ed","ios":"levelo://app?vid=61c4cbe2-eed4-41e6-a6ff-be907a5d72ed"},"vehicle_type_id":"4","last_reported":1770219139,"current_range_meters":8000,"station_id":"ce4bhgp2rcd13ifvqfd0","pricing_plan_id":"cebpf4jnsgd1na2vs0mg"},{"bike_id":"d72c8d0b-6864-4eb2-b074-4484e5b3c2c1","system_id":"levelo_inurba_marseille","lat":43.28477,"lon":5.48382,"is_reserved":false,"is_disabled":false,"rental_uris":{"android":"levelo://app?vid=d72c8d0b-6864-4eb2-b074-4484e5b3c2c1","ios":"levelo://app?vid=d72c8d0b-6864-4eb2-b074-4484e5b3c2c1"},"vehicle_type_id":"4","last_reported":1770219139,"current_range_meters":8000,"station_id":"st_d3svhcjqgbts73a3dn0g","pricing_plan_id":"cebpf4jnsgd1na2vs0mg"},{"bike_id":"936c281e-a30f-4824-89f2-bc31d859ce18","system_id":"levelo_inurba_marseille","lat":43.30277,"lon":5.36983,"is_reserved":false,"is_disabled":false,"rental_uris":{"android":"levelo://app?vid=936c281e-a30f-4824-89f2-bc31d859ce18","ios":"levelo://app?vid=936c281e-a30f-4824-89f2-bc31d859ce18"},"vehicle_type_id":"4","last_reported":1770219139,"current_range_meters":8000,"station_id":"","pricing_plan_id":"cebpf4jnsgd1na2vs0mg"},{"bike_id":"708d8107-a502-4715-8ee8-97e259938ef7","system_id":"levelo_inurba_marseille","lat":43.24166,"lon":5.36395,"is_reserved":false,"is_disabled":false,"rental_uris":{"android":"levelo://app?vid=708d8107-a502-4715-8ee8-97e259938ef7","ios":"levelo://app?vid=708d8107-a502-4715-8ee8-97e259938ef7"},"vehicle_type_id":"4","last_reported":1770219139,"current_range_meters":8000,"station_id":"cpo36qri1sfpv3e86is0","pricing_plan_id":"cebpf4jnsgd1na2vs0mg"},{"bike_id":"ce4bc8cb-8dfb-4c32-9767-9ee3791934a7","system_id":"levelo_inurba_marseille","lat":43.29797,"lon":5.38101,"is_reserved":false,"is_disabled":false,"rental_uris":{"android":"levelo://app?vid=ce4bc8cb-8dfb-4c32-9767-9ee3791934a7","ios":"levelo://app?vid=ce4bc8cb-8dfb-4c32-9767-9ee3791934a7"},"vehicle_type_id":"4","last_reported":1770219139,"current_range_meters":8000,"station_id":"ce4bgip2rcd13ifvqbb0","pricing_plan_id":"cebpf4jnsgd1na2vs0mg"},{"bike_id":"efea97cf-ff85-47aa-a6fd-26dd39fdf16c","system_id":"levelo_inurba_marseille","lat":43.30542,"lon":5.36712,"is_reserved":false,"is_disabled":false,"rental_uris":{"android":"levelo://app?vid=efea97cf-ff85-47aa-a6fd-26dd39fdf16c","ios":"levelo://app?vid=efea97cf-ff85-47aa-a6fd-26dd39fdf16c"},"vehicle_type_id":"4","last_reported":1770219139,"current_range_meters":8000,"station_id":"ce4bgrp2rcd13ifvqc9g","pricing_plan_id":"cebpf4jnsgd1na2vs0mg"},{"bike_id":"0ea29824-ad31-4b2f-8732-8df7a85d07cc","system_id":"levelo_inurba_marseille","lat":43.29895,"lon":5.37862,"is_reserved":false,"is_disabled":false,"rental_uris":{"android":"levelo://app?vid=0ea29824-ad31-4b2f-8732-8df7a85d07cc","ios":"levelo://app?vid=0ea29824-ad31-4b2f-8732-8df7a85d07cc"},"vehicle_type_id":"4","last_reported":1770219139,"current_range_meters":8000,"station_id":"","pricing_plan_id":"cebpf4jnsgd1na2vs0mg"},{"bike_id":"da4d19a5-63fa-471e-bc87-bb23db14643b","system_id":"levelo_inurba_marseille","lat":43.29546,"lon":5.42567,"is_reserved":false,"is_disabled":false,"rental_uris":{"android":"levelo://app?vid=da4d19a5-63fa-471e-bc87-bb23db14643b","ios":"levelo://app?vid=da4d19a5-63fa-471e-bc87-bb23db14643b"},"vehicle_type_id":"4","last_reported":1770219139,"current_range_meters":8000,"station_id":"","pricing_plan_id":"cebpf4jnsgd1na2vs0mg"},{"bike_id":"ae31df1c-c3f6-4879-abd7-99d899c9ca05","system_id":"levelo_inurba_marseille","lat":43.31083,"lon":5.38444,"is_reserved":false,"is_disabled":false,"rental_uris":{"android":"levelo://app?vid=ae31df1c-c3f6-4879-abd7-99d899c9ca05","ios":"levelo://app?vid=ae31df1c-c3f6-4879-abd7-99d899c9ca05"},"vehicle_type_id":"4","last_reported":1770219139,"current_range_meters":8000,"station_id":"","pricing_plan_id":"cebpf4jnsgd1na2vs0mg"},{"bike_id":"809dfd22-afa1-4754-8327-1cac66519aa2","system_id":"levelo_inurba_marseille","lat":43.28274,"lon":5.35065,"is_reserved":false,"is_disabled":false,"rental_uris":{"android":"levelo://app?vid=809dfd22-afa1-4754-8327-1cac66519aa2","ios":"levelo://app?vid=809dfd22-afa1-4754-8327-1cac66519aa2"},"vehicle_type_id":"4","last_reported":1770219139,"current_range_meters":8000,"station_id":"ce4bhbp2rcd13ifvqerg","pricing_plan_id":"cebpf4jnsgd1na2vs0mg"},{"bike_id":"e55375b7-3afd-47f8-a340-f83f485617be","system_id":"levelo_inurba_marseille","lat":43.29936,"lon":5.36515,"is_reserved":false,"is_disabled":false,"rental_uris":{"android":"levelo://app?vid=e55375b7-3afd-47f8-a340-f83f485617be","ios":"levelo://app?vid=e55375b7-3afd-47f8-a340-f83f485617be"},"vehicle_type_id":"4","last_reported":1770219139,"current_range_meters":8000,"station_id":"ce4bgm92rcd13ifvqbr0","pricing_plan_id":"cebpf4jnsgd1na2vs0mg"},{"bike_id":"99a66080-122e-4423-acbd-d9f279044375","system_id":"levelo_inurba_marseille","lat":43.24392,"lon":5.37053,"is_reserved":false,"is_disabled":false,"rental_uris":{"android":"levelo://app?vid=99a66080-122e-4423-acbd-d9f279044375","ios":"levelo://app?vid=99a66080-122e-4423-acbd-d9f279044375"},"vehicle_type_id":"4","last_reported":1770219139,"current_range_meters":8000,"station_id":"ce4bhhh2rcd13ifvqfk0","pricing_plan_id":"cebpf4jnsgd1na2vs0mg"},{"bike_id":"b77e51a5-a5aa-41ce-98a9-04ca605b47ff","system_id":"levelo_inurba_marseille","lat":43.29277,"lon":5.36857,"is_reserved":false,"is_disabled":false,"rental_uris":{"android":"levelo://app?vid=b77e51a5-a5aa-41ce-98a9-04ca605b47ff","ios":"levelo://app?vid=b77e51a5-a5aa-41ce-98a9-04ca605b47ff"},"vehicle_type_id":"4","last_reported":1770219139,"current_range_meters":8400,"station_id":"ce4bhbp2rcd13ifvqesg","pricing_plan_id":"cebpf4jnsgd1na2vs0mg"},{"bike_id":"9ca1bf35-aa7c-451d-8205-e13fc5cec33e","system_id":"levelo_inurba_marseille","lat":43.30549,"lon":5.36556,"is_reserved":false,"is_disabled":false,"rental_uris":{"android":"levelo://app?vid=9ca1bf35-aa7c-451d-8205-e13fc5cec33e","ios":"levelo://app?vid=9ca1bf35-aa7c-451d-8205-e13fc5cec33e"},"vehicle_type_id":"4","last_reported":1770219139,"current_range_meters":8400,"station_id":"ce4bgs12rcd13ifvqcag","pricing_plan_id":"cebpf4jnsgd1na2vs0mg"},{"bike_id":"6b048488-fc75-44d3-98b7-f849cb862bd4","system_id":"levelo_inurba_marseille","lat":43.24664,"lon":5.38874,"is_reserved":false,"is_disabled":false,"rental_uris":{"android":"levelo://app?vid=6b048488-fc75-44d3-98b7-f849cb862bd4","ios":"levelo://app?vid=6b048488-fc75-44d3-98b7-f849cb862bd4"},"vehicle_type_id":"4","last_reported":1770219139,"current_range_meters":8400,"station_id":"ce4bhg12rcd13ifvqf60","pricing_plan_id":"cebpf4jnsgd1na2vs0mg"},{"bike_id":"8f653595-9151-4b69-b16e-b8cf8e418a1b","system_id":"levelo_inurba_marseille","lat":43.337444,"lon":5.374475,"is_reserved":false,"is_disabled":false,"rental_uris":{"android":"levelo://app?vid=8f653595-9151-4b69-b16e-b8cf8e418a1b","ios":"levelo://app?vid=8f653595-9151-4b69-b16e-b8cf8e418a1b"},"vehicle_type_id":"4","last_reported":1770219139,"current_range_meters":8400,"station_id":"ce4bhq12rcd13ifvqhig","pricing_plan_id":"cebpf4jnsgd1na2vs0mg"},{"bike_id":"5e15d943-7bbd-4b8a-85f0-272ccafedcb7","system_id":"levelo_inurba_marseille","lat":43.25577,"lon":5.38223,"is_reserved":false,"is_disabled":false,"rental_uris":{"android":"levelo://app?vid=5e15d943-7bbd-4b8a-85f0-272ccafedcb7","ios":"levelo://app?vid=5e15d943-7bbd-4b8a-85f0-272ccafedcb7"},"vehicle_type_id":"4","last_reported":1770219139,"current_range_meters":8400,"station_id":"ce4bhih2rcd13ifvqfs0","pricing_plan_id":"cebpf4jnsgd1na2vs0mg"},{"bike_id":"95d176b3-5d77-410e-bb83-f76c3a2c66f6","system_id":"levelo_inurba_marseille","lat":43.30594,"lon":5.36661,"is_reserved":false,"is_disabled":false,"rental_uris":{"android":"levelo://app?vid=95d176b3-5d77-410e-bb83-f76c3a2c66f6","ios":"levelo://app?vid=95d176b3-5d77-410e-bb83-f76c3a2c66f6"},"vehicle_type_id":"4","last_reported":1770219139,"current_range_meters":8400,"station_id":"","pricing_plan_id":"cebpf4jnsgd1na2vs0mg"},{"bike_id":"88769ecf-9b66-4c19-91d3-0990c3039e9d","system_id":"levelo_inurba_marseille","lat":43.28217,"lon":5.39042,"is_reserved":false,"is_disabled":false,"rental_uris":{"android":"levelo://app?vid=88769ecf-9b66-4c19-91d3-0990c3039e9d","ios":"levelo://app?vid=88769ecf-9b66-4c19-91d3-0990c3039e9d"},"vehicle_type_id":"4","last_reported":1770219139,"current_range_meters":8400,"station_id":"ce4bhn92rcd13ifvqgsg","pricing_plan_id":"cebpf4jnsgd1na2vs0mg"},{"bike_id":"3d127137-edff-42e6-95b6-27c9d9d09fcb","system_id":"levelo_inurba_marseille","lat":43.290487,"lon":5.3995,"is_reserved":false,"is_disabled":false,"rental_uris":{"android":"levelo://app?vid=3d127137-edff-42e6-95b6-27c9d9d09fcb","ios":"levelo://app?vid=3d127137-edff-42e6-95b6-27c9d9d09fcb"},"vehicle_type_id":"4","last_reported":1770219139,"current_range_meters":8400,"station_id":"ce4bh392rcd13ifvqdm0","pricing_plan_id":"cebpf4jnsgd1na2vs0mg"},{"bike_id":"52c5e029-0e2a-4e71-8973-674c07954cbb","system_id":"levelo_inurba_marseille","lat":43.29043,"lon":5.36979,"is_reserved":false,"is_disabled":false,"rental_uris":{"android":"levelo://app?vid=52c5e029-0e2a-4e71-8973-674c07954cbb","ios":"levelo://app?vid=52c5e029-0e2a-4e71-8973-674c07954cbb"},"vehicle_type_id":"4","last_reported":1770219139,"current_range_meters":8400,"station_id":"","pricing_plan_id":"cebpf4jnsgd1na2vs0mg"},{"bike_id":"ae9e6eb5-b58b-4eee-b5c1-4ce893811d8d","system_id":"levelo_inurba_marseille","lat":43.24176,"lon":5.39732,"is_reserved":false,"is_disabled":false,"rental_uris":{"android":"levelo://app?vid=ae9e6eb5-b58b-4eee-b5c1-4ce893811d8d","ios":"levelo://app?vid=ae9e6eb5-b58b-4eee-b5c1-4ce893811d8d"},"vehicle_type_id":"4","last_reported":1770219139,"current_range_meters":8400,"station_id":"ce4bhn12rcd13ifvqgpg","pricing_plan_id":"cebpf4jnsgd1na2vs0mg"},{"bike_id":"292dce5f-101f-447e-9f4c-1e028c5fb7f1","system_id":"levelo_inurba_marseille","lat":43.31757,"lon":5.39017,"is_reserved":false,"is_disabled":false,"rental_uris":{"android":"levelo://app?vid=292dce5f-101f-447e-9f4c-1e028c5fb7f1","ios":"levelo://app?vid=292dce5f-101f-447e-9f4c-1e028c5fb7f1"},"vehicle_type_id":"4","last_reported":1770219139,"current_range_meters":8400,"station_id":"ce4bhqp2rcd13ifvqhng","pricing_plan_id":"cebpf4jnsgd1na2vs0mg"},{"bike_id":"64cd587c-d75e-4247-a0fa-5c97e50acdc6","system_id":"levelo_inurba_marseille","lat":43.32046,"lon":5.41557,"is_reserved":false,"is_disabled":false,"rental_uris":{"android":"levelo://app?vid=64cd587c-d75e-4247-a0fa-5c97e50acdc6","ios":"levelo://app?vid=64cd587c-d75e-4247-a0fa-5c97e50acdc6"},"vehicle_type_id":"4","last_reported":1770219139,"current_range_meters":8400,"station_id":"ce4bhq92rcd13ifvqhkg","pricing_plan_id":"cebpf4jnsgd1na2vs0mg"},{"bike_id":"0d59add4-4b56-4ced-b456-94533a67403b","system_id":"levelo_inurba_marseille","lat":43.23206,"lon":5.3556,"is_reserved":false,"is_disabled":false,"rental_uris":{"android":"levelo://app?vid=0d59add4-4b56-4ced-b456-94533a67403b","ios":"levelo://app?vid=0d59add4-4b56-4ced-b456-94533a67403b"},"vehicle_type_id":"4","last_reported":1770219139,"current_range_meters":8800,"station_id":"ce4bhu92rcd13ifvqi70","pricing_plan_id":"cebpf4jnsgd1na2vs0mg"},{"bike_id":"6b2f8803-9c28-4df8-a226-517617e199e5","system_id":"levelo_inurba_marseille","lat":43.28002,"lon":5.41666,"is_reserved":false,"is_disabled":false,"rental_uris":{"android":"levelo://app?vid=6b2f8803-9c28-4df8-a226-517617e199e5","ios":"levelo://app?vid=6b2f8803-9c28-4df8-a226-517617e199e5"},"vehicle_type_id":"4","last_reported":1770219139,"current_range_meters":8800,"station_id":"ce4bho12rcd13ifvqh1g","pricing_plan_id":"cebpf4jnsgd1na2vs0mg"},{"bike_id":"1794fc4b-f1e9-4439-acd6-7a3c137a2b38","system_id":"levelo_inurba_marseille","lat":43.23815,"lon":5.36557,"is_reserved":false,"is_disabled":false,"rental_uris":{"android":"levelo://app?vid=1794fc4b-f1e9-4439-acd6-7a3c137a2b38","ios":"levelo://app?vid=1794fc4b-f1e9-4439-acd6-7a3c137a2b38"},"vehicle_type_id":"4","last_reported":1770219139,"current_range_meters":8800,"station_id":"st_d3nk18o9ro0c73en2l3g","pricing_plan_id":"cebpf4jnsgd1na2vs0mg"},{"bike_id":"b1427b24-6b11-4fd2-8c00-a854c244ac08","system_id":"levelo_inurba_marseille","lat":43.33538,"lon":5.3747,"is_reserved":false,"is_disabled":false,"rental_uris":{"android":"levelo://app?vid=b1427b24-6b11-4fd2-8c00-a854c244ac08","ios":"levelo://app?vid=b1427b24-6b11-4fd2-8c00-a854c244ac08"},"vehicle_type_id":"4","last_reported":1770219139,"current_range_meters":8800,"station_id":"st_d46tts09ee8s73dlu43g","pricing_plan_id":"cebpf4jnsgd1na2vs0mg"},{"bike_id":"3a4b7fad-d353-4ccb-8488-6ee8991487ab","system_id":"levelo_inurba_marseille","lat":43.23196,"lon":5.35549,"is_reserved":false,"is_disabled":false,"rental_uris":{"android":"levelo://app?vid=3a4b7fad-d353-4ccb-8488-6ee8991487ab","ios":"levelo://app?vid=3a4b7fad-d353-4ccb-8488-6ee8991487ab"},"vehicle_type_id":"4","last_reported":1770219139,"current_range_meters":8800,"station_id":"ce4bhu92rcd13ifvqi70","pricing_plan_id":"cebpf4jnsgd1na2vs0mg"},{"bike_id":"c9cf1bda-a378-4513-8aed-b2dba30c86f7","system_id":"levelo_inurba_marseille","lat":43.29552,"lon":5.42286,"is_reserved":false,"is_disabled":false,"rental_uris":{"android":"levelo://app?vid=c9cf1bda-a378-4513-8aed-b2dba30c86f7","ios":"levelo://app?vid=c9cf1bda-a378-4513-8aed-b2dba30c86f7"},"vehicle_type_id":"4","last_reported":1770219139,"current_range_meters":8800,"station_id":"ce4bhph2rcd13ifvqhdg","pricing_plan_id":"cebpf4jnsgd1na2vs0mg"},{"bike_id":"38712b4b-754b-41b9-9f4d-8f2f4069c5f1","system_id":"levelo_inurba_marseille","lat":43.29933,"lon":5.37457,"is_reserved":false,"is_disabled":false,"rental_uris":{"android":"levelo://app?vid=38712b4b-754b-41b9-9f4d-8f2f4069c5f1","ios":"levelo://app?vid=38712b4b-754b-41b9-9f4d-8f2f4069c5f1"},"vehicle_type_id":"4","last_reported":1770219139,"current_range_meters":8800,"station_id":"ce4bgjh2rcd13ifvqbg0","pricing_plan_id":"cebpf4jnsgd1na2vs0mg"},{"bike_id":"0c979525-85d0-408b-ab55-925246a787cc","system_id":"levelo_inurba_marseille","lat":43.23141,"lon":5.43727,"is_reserved":false,"is_disabled":false,"rental_uris":{"android":"levelo://app?vid=0c979525-85d0-408b-ab55-925246a787cc","ios":"levelo://app?vid=0c979525-85d0-408b-ab55-925246a787cc"},"vehicle_type_id":"4","last_reported":1770219139,"current_range_meters":8800,"station_id":"ce4bhmp2rcd13ifvqgog","pricing_plan_id":"cebpf4jnsgd1na2vs0mg"},{"bike_id":"a3bfa0eb-eda7-49b7-ab25-b9c4130a73e5","system_id":"levelo_inurba_marseille","lat":43.27815,"lon":5.40723,"is_reserved":false,"is_disabled":true,"rental_uris":{"android":"levelo://app?vid=a3bfa0eb-eda7-49b7-ab25-b9c4130a73e5","ios":"levelo://app?vid=a3bfa0eb-eda7-49b7-ab25-b9c4130a73e5"},"vehicle_type_id":"4","last_reported":1770219139,"current_range_meters":8800,"station_id":"ce4bhnh2rcd13ifvqgtg","pricing_plan_id":"cebpf4jnsgd1na2vs0mg"},{"bike_id":"d2a7dfba-86f8-4261-8e6e-383074957fc7","system_id":"levelo_inurba_marseille","lat":43.2495,"lon":5.40478,"is_reserved":false,"is_disabled":false,"rental_uris":{"android":"levelo://app?vid=d2a7dfba-86f8-4261-8e6e-383074957fc7","ios":"levelo://app?vid=d2a7dfba-86f8-4261-8e6e-383074957fc7"},"vehicle_type_id":"4","last_reported":1770219139,"current_range_meters":8800,"station_id":"st_d2ngiaodas8pm72gd1h0","pricing_plan_id":"cebpf4jnsgd1na2vs0mg"},{"bike_id":"9c97ed08-c8de-49a9-b037-9c50c2f5044c","system_id":"levelo_inurba_marseille","lat":43.29418,"lon":5.4133,"is_reserved":false,"is_disabled":false,"rental_uris":{"android":"levelo://app?vid=9c97ed08-c8de-49a9-b037-9c50c2f5044c","ios":"levelo://app?vid=9c97ed08-c8de-49a9-b037-9c50c2f5044c"},"vehicle_type_id":"4","last_reported":1770219139,"current_range_meters":8800,"station_id":"","pricing_plan_id":"cebpf4jnsgd1na2vs0mg"},{"bike_id":"b277d0b6-99b4-4f0e-bfaa-33f3dae6a108","system_id":"levelo_inurba_marseille","lat":43.29572,"lon":5.37387,"is_reserved":false,"is_disabled":false,"rental_uris":{"android":"levelo://app?vid=b277d0b6-99b4-4f0e-bfaa-33f3dae6a108","ios":"levelo://app?vid=b277d0b6-99b4-4f0e-bfaa-33f3dae6a108"},"vehicle_type_id":"4","last_reported":1770219139,"current_range_meters":8800,"station_id":"","pricing_plan_id":"cebpf4jnsgd1na2vs0mg"},{"bike_id":"99727a05-398f-43fe-b852-52a7afd5cf39","system_id":"levelo_inurba_marseille","lat":43.259172,"lon":5.409029,"is_reserved":false,"is_disabled":false,"rental_uris":{"android":"levelo://app?vid=99727a05-398f-43fe-b852-52a7afd5cf39","ios":"levelo://app?vid=99727a05-398f-43fe-b852-52a7afd5cf39"},"vehicle_type_id":"4","last_reported":1770219139,"current_range_meters":8800,"station_id":"ce4bhm92rcd13ifvqglg","pricing_plan_id":"cebpf4jnsgd1na2vs0mg"},{"bike_id":"975d126b-89e4-4613-9114-c70ad14b4ed6","system_id":"levelo_inurba_marseille","lat":43.22565,"lon":5.41623,"is_reserved":false,"is_disabled":false,"rental_uris":{"android":"levelo://app?vid=975d126b-89e4-4613-9114-c70ad14b4ed6","ios":"levelo://app?vid=975d126b-89e4-4613-9114-c70ad14b4ed6"},"vehicle_type_id":"4","last_reported":1770219139,"current_range_meters":8800,"station_id":"st_d2o4gvlbi1j2169b742g","pricing_plan_id":"cebpf4jnsgd1na2vs0mg"},{"bike_id":"8d3e7d7f-fadb-4171-a139-ea9d29aba2b7","system_id":"levelo_inurba_marseille","lat":43.283952,"lon":5.434844,"is_reserved":false,"is_disabled":false,"rental_uris":{"android":"levelo://app?vid=8d3e7d7f-fadb-4171-a139-ea9d29aba2b7","ios":"levelo://app?vid=8d3e7d7f-fadb-4171-a139-ea9d29aba2b7"},"vehicle_type_id":"4","last_reported":1770219139,"current_range_meters":9200,"station_id":"","pricing_plan_id":"cebpf4jnsgd1na2vs0mg"},{"bike_id":"fb65a596-60d7-4cda-a71c-6e0e8dd27289","system_id":"levelo_inurba_marseille","lat":43.31058,"lon":5.37176,"is_reserved":false,"is_disabled":false,"rental_uris":{"android":"levelo://app?vid=fb65a596-60d7-4cda-a71c-6e0e8dd27289","ios":"levelo://app?vid=fb65a596-60d7-4cda-a71c-6e0e8dd27289"},"vehicle_type_id":"4","last_reported":1770219139,"current_range_meters":9200,"station_id":"st_d4kl2rp97mjs73e7tdfg","pricing_plan_id":"cebpf4jnsgd1na2vs0mg"},{"bike_id":"3376af0a-2c8a-4f7e-ab86-0856914ff72b","system_id":"levelo_inurba_marseille","lat":43.29528,"lon":5.38536,"is_reserved":false,"is_disabled":false,"rental_uris":{"android":"levelo://app?vid=3376af0a-2c8a-4f7e-ab86-0856914ff72b","ios":"levelo://app?vid=3376af0a-2c8a-4f7e-ab86-0856914ff72b"},"vehicle_type_id":"4","last_reported":1770219139,"current_range_meters":9200,"station_id":"ce4bgih2rcd13ifvqba0","pricing_plan_id":"cebpf4jnsgd1na2vs0mg"},{"bike_id":"b55cf58b-0b2d-45d8-b9da-9cab3935aa03","system_id":"levelo_inurba_marseille","lat":43.23057,"lon":5.35492,"is_reserved":false,"is_disabled":false,"rental_uris":{"android":"levelo://app?vid=b55cf58b-0b2d-45d8-b9da-9cab3935aa03","ios":"levelo://app?vid=b55cf58b-0b2d-45d8-b9da-9cab3935aa03"},"vehicle_type_id":"4","last_reported":1770219139,"current_range_meters":9200,"station_id":"cpo3342slgdg3j2ifvpg","pricing_plan_id":"cebpf4jnsgd1na2vs0mg"},{"bike_id":"27b91125-8725-4db7-bbdb-0b7821e21970","system_id":"levelo_inurba_marseille","lat":43.233831,"lon":5.412498,"is_reserved":false,"is_disabled":false,"rental_uris":{"android":"levelo://app?vid=27b91125-8725-4db7-bbdb-0b7821e21970","ios":"levelo://app?vid=27b91125-8725-4db7-bbdb-0b7821e21970"},"vehicle_type_id":"4","last_reported":1770219139,"current_range_meters":9200,"station_id":"","pricing_plan_id":"cebpf4jnsgd1na2vs0mg"},{"bike_id":"9a7bfa9b-59a7-479f-9353-d73803ebe331","system_id":"levelo_inurba_marseille","lat":43.23148,"lon":5.43721,"is_reserved":false,"is_disabled":false,"rental_uris":{"android":"levelo://app?vid=9a7bfa9b-59a7-479f-9353-d73803ebe331","ios":"levelo://app?vid=9a7bfa9b-59a7-479f-9353-d73803ebe331"},"vehicle_type_id":"4","last_reported":1770219139,"current_range_meters":9200,"station_id":"ce4bhmp2rcd13ifvqgog","pricing_plan_id":"cebpf4jnsgd1na2vs0mg"},{"bike_id":"f73bf0ee-9df1-47ae-be36-5758f33adaf5","system_id":"levelo_inurba_marseille","lat":43.33384,"lon":5.41055,"is_reserved":false,"is_disabled":false,"rental_uris":{"android":"levelo://app?vid=f73bf0ee-9df1-47ae-be36-5758f33adaf5","ios":"levelo://app?vid=f73bf0ee-9df1-47ae-be36-5758f33adaf5"},"vehicle_type_id":"4","last_reported":1770219139,"current_range_meters":9200,"station_id":"","pricing_plan_id":"cebpf4jnsgd1na2vs0mg"},{"bike_id":"f7d0906b-23c2-4d3f-bf41-7c900c058085","system_id":"levelo_inurba_marseille","lat":43.28028,"lon":5.42199,"is_reserved":false,"is_disabled":false,"rental_uris":{"android":"levelo://app?vid=f7d0906b-23c2-4d3f-bf41-7c900c058085","ios":"levelo://app?vid=f7d0906b-23c2-4d3f-bf41-7c900c058085"},"vehicle_type_id":"4","last_reported":1770219139,"current_range_meters":9200,"station_id":"","pricing_plan_id":"cebpf4jnsgd1na2vs0mg"},{"bike_id":"9df72779-080e-440f-a5f5-74667115769a","system_id":"levelo_inurba_marseille","lat":43.31364,"lon":5.36697,"is_reserved":false,"is_disabled":false,"rental_uris":{"android":"levelo://app?vid=9df72779-080e-440f-a5f5-74667115769a","ios":"levelo://app?vid=9df72779-080e-440f-a5f5-74667115769a"},"vehicle_type_id":"4","last_reported":1770219139,"current_range_meters":9200,"station_id":"ce4bgr92rcd13ifvqc6g","pricing_plan_id":"cebpf4jnsgd1na2vs0mg"},{"bike_id":"d39ab8f7-bcfe-409a-bbee-96d328f843fb","system_id":"levelo_inurba_marseille","lat":43.29026,"lon":5.39964,"is_reserved":false,"is_disabled":false,"rental_uris":{"android":"levelo://app?vid=d39ab8f7-bcfe-409a-bbee-96d328f843fb","ios":"levelo://app?vid=d39ab8f7-bcfe-409a-bbee-96d328f843fb"},"vehicle_type_id":"4","last_reported":1770219139,"current_range_meters":9200,"station_id":"ce4bh392rcd13ifvqdm0","pricing_plan_id":"cebpf4jnsgd1na2vs0mg"},{"bike_id":"9f694826-fc95-4f6a-8601-fad7ebd925ce","system_id":"levelo_inurba_marseille","lat":43.2282,"lon":5.43489,"is_reserved":false,"is_disabled":false,"rental_uris":{"android":"levelo://app?vid=9f694826-fc95-4f6a-8601-fad7ebd925ce","ios":"levelo://app?vid=9f694826-fc95-4f6a-8601-fad7ebd925ce"},"vehicle_type_id":"4","last_reported":1770219139,"current_range_meters":9200,"station_id":"","pricing_plan_id":"cebpf4jnsgd1na2vs0mg"},{"bike_id":"f3167490-58e3-40d5-a3fc-66fda72a9cbb","system_id":"levelo_inurba_marseille","lat":43.30158,"lon":5.38098,"is_reserved":false,"is_disabled":false,"rental_uris":{"android":"levelo://app?vid=f3167490-58e3-40d5-a3fc-66fda72a9cbb","ios":"levelo://app?vid=f3167490-58e3-40d5-a3fc-66fda72a9cbb"},"vehicle_type_id":"4","last_reported":1770219139,"current_range_meters":9200,"station_id":"ce4bgjp2rcd13ifvqbh0","pricing_plan_id":"cebpf4jnsgd1na2vs0mg"},{"bike_id":"a03a0587-26a0-4743-94df-85cf192becc0","system_id":"levelo_inurba_marseille","lat":43.33531,"lon":5.37487,"is_reserved":false,"is_disabled":false,"rental_uris":{"android":"levelo://app?vid=a03a0587-26a0-4743-94df-85cf192becc0","ios":"levelo://app?vid=a03a0587-26a0-4743-94df-85cf192becc0"},"vehicle_type_id":"4","last_reported":1770219139,"current_range_meters":9200,"station_id":"st_d46tts09ee8s73dlu43g","pricing_plan_id":"cebpf4jnsgd1na2vs0mg"},{"bike_id":"a23e3dba-00fa-45fd-9901-1531646f19d1","system_id":"levelo_inurba_marseille","lat":43.24398,"lon":5.3707,"is_reserved":false,"is_disabled":false,"rental_uris":{"android":"levelo://app?vid=a23e3dba-00fa-45fd-9901-1531646f19d1","ios":"levelo://app?vid=a23e3dba-00fa-45fd-9901-1531646f19d1"},"vehicle_type_id":"4","last_reported":1770219139,"current_range_meters":9200,"station_id":"ce4bhhh2rcd13ifvqfk0","pricing_plan_id":"cebpf4jnsgd1na2vs0mg"},{"bike_id":"2bad7435-1509-4568-8f25-74ede322dde6","system_id":"levelo_inurba_marseille","lat":43.30565,"lon":5.36705,"is_reserved":false,"is_disabled":false,"rental_uris":{"android":"levelo://app?vid=2bad7435-1509-4568-8f25-74ede322dde6","ios":"levelo://app?vid=2bad7435-1509-4568-8f25-74ede322dde6"},"vehicle_type_id":"4","last_reported":1770219139,"current_range_meters":9200,"station_id":"ce4bgrp2rcd13ifvqc9g","pricing_plan_id":"cebpf4jnsgd1na2vs0mg"},{"bike_id":"ee9290fc-a4a2-4264-8940-e4c11395d8b3","system_id":"levelo_inurba_marseille","lat":43.32636,"lon":5.37459,"is_reserved":false,"is_disabled":false,"rental_uris":{"android":"levelo://app?vid=ee9290fc-a4a2-4264-8940-e4c11395d8b3","ios":"levelo://app?vid=ee9290fc-a4a2-4264-8940-e4c11395d8b3"},"vehicle_type_id":"4","last_reported":1770219139,"current_range_meters":9200,"station_id":"","pricing_plan_id":"cebpf4jnsgd1na2vs0mg"},{"bike_id":"49bc0ac4-ec4c-46b4-bcba-c5b87d948aa1","system_id":"levelo_inurba_marseille","lat":43.23967,"lon":5.36611,"is_reserved":false,"is_disabled":false,"rental_uris":{"android":"levelo://app?vid=49bc0ac4-ec4c-46b4-bcba-c5b87d948aa1","ios":"levelo://app?vid=49bc0ac4-ec4c-46b4-bcba-c5b87d948aa1"},"vehicle_type_id":"4","last_reported":1770219139,"current_range_meters":9600,"station_id":"ce4bhi12rcd13ifvqfp0","pricing_plan_id":"cebpf4jnsgd1na2vs0mg"},{"bike_id":"b868f8f3-3ac8-4e78-97da-6e13304a46b2","system_id":"levelo_inurba_marseille","lat":43.25082,"lon":5.39511,"is_reserved":false,"is_disabled":false,"rental_uris":{"android":"levelo://app?vid=b868f8f3-3ac8-4e78-97da-6e13304a46b2","ios":"levelo://app?vid=b868f8f3-3ac8-4e78-97da-6e13304a46b2"},"vehicle_type_id":"4","last_reported":1770219139,"current_range_meters":9600,"station_id":"ce4bhm12rcd13ifvqgkg","pricing_plan_id":"cebpf4jnsgd1na2vs0mg"},{"bike_id":"4761248e-2b34-4fb3-9fed-0e7cfe8140e8","system_id":"levelo_inurba_marseille","lat":43.25512,"lon":5.37657,"is_reserved":false,"is_disabled":false,"rental_uris":{"android":"levelo://app?vid=4761248e-2b34-4fb3-9fed-0e7cfe8140e8","ios":"levelo://app?vid=4761248e-2b34-4fb3-9fed-0e7cfe8140e8"},"vehicle_type_id":"4","last_reported":1770219139,"current_range_meters":9600,"station_id":"ce4bhh12rcd13ifvqff0","pricing_plan_id":"cebpf4jnsgd1na2vs0mg"},{"bike_id":"c54292e3-065f-4936-9d5e-2b6c416dceb3","system_id":"levelo_inurba_marseille","lat":43.23175,"lon":5.43668,"is_reserved":false,"is_disabled":false,"rental_uris":{"android":"levelo://app?vid=c54292e3-065f-4936-9d5e-2b6c416dceb3","ios":"levelo://app?vid=c54292e3-065f-4936-9d5e-2b6c416dceb3"},"vehicle_type_id":"4","last_reported":1770219139,"current_range_meters":9600,"station_id":"ce4bhmp2rcd13ifvqgog","pricing_plan_id":"cebpf4jnsgd1na2vs0mg"},{"bike_id":"c26de9f0-aea6-437d-a752-448502a27f69","system_id":"levelo_inurba_marseille","lat":43.25936,"lon":5.40903,"is_reserved":false,"is_disabled":false,"rental_uris":{"android":"levelo://app?vid=c26de9f0-aea6-437d-a752-448502a27f69","ios":"levelo://app?vid=c26de9f0-aea6-437d-a752-448502a27f69"},"vehicle_type_id":"4","last_reported":1770219139,"current_range_meters":9600,"station_id":"ce4bhm92rcd13ifvqglg","pricing_plan_id":"cebpf4jnsgd1na2vs0mg"},{"bike_id":"81843b81-dc05-4822-ac46-ea3aebd24a78","system_id":"levelo_inurba_marseille","lat":43.32359,"lon":5.36738,"is_reserved":false,"is_disabled":false,"rental_uris":{"android":"levelo://app?vid=81843b81-dc05-4822-ac46-ea3aebd24a78","ios":"levelo://app?vid=81843b81-dc05-4822-ac46-ea3aebd24a78"},"vehicle_type_id":"4","last_reported":1770219139,"current_range_meters":9600,"station_id":"ce4bhsh2rcd13ifvqi2g","pricing_plan_id":"cebpf4jnsgd1na2vs0mg"},{"bike_id":"14d29e34-9030-4ebb-b26b-b9968049d1ce","system_id":"levelo_inurba_marseille","lat":43.2417,"lon":5.36409,"is_reserved":false,"is_disabled":false,"rental_uris":{"android":"levelo://app?vid=14d29e34-9030-4ebb-b26b-b9968049d1ce","ios":"levelo://app?vid=14d29e34-9030-4ebb-b26b-b9968049d1ce"},"vehicle_type_id":"4","last_reported":1770219139,"current_range_meters":9600,"station_id":"cpo36qri1sfpv3e86is0","pricing_plan_id":"cebpf4jnsgd1na2vs0mg"},{"bike_id":"82026f6c-9d07-4663-9912-25f5d62833ed","system_id":"levelo_inurba_marseille","lat":43.26188,"lon":5.37448,"is_reserved":false,"is_disabled":false,"rental_uris":{"android":"levelo://app?vid=82026f6c-9d07-4663-9912-25f5d62833ed","ios":"levelo://app?vid=82026f6c-9d07-4663-9912-25f5d62833ed"},"vehicle_type_id":"4","last_reported":1770219139,"current_range_meters":9600,"station_id":"ce4bhgp2rcd13ifvqfc0","pricing_plan_id":"cebpf4jnsgd1na2vs0mg"},{"bike_id":"be971979-ee7b-4bf3-8801-e0d3c024223c","system_id":"levelo_inurba_marseille","lat":43.27625,"lon":5.36112,"is_reserved":false,"is_disabled":false,"rental_uris":{"android":"levelo://app?vid=be971979-ee7b-4bf3-8801-e0d3c024223c","ios":"levelo://app?vid=be971979-ee7b-4bf3-8801-e0d3c024223c"},"vehicle_type_id":"4","last_reported":1770219139,"current_range_meters":9600,"station_id":"ce4bgj92rcd13ifvqbe0","pricing_plan_id":"cebpf4jnsgd1na2vs0mg"},{"bike_id":"b48ed2cb-2c8f-487c-8d2e-8948202f478f","system_id":"levelo_inurba_marseille","lat":43.28103,"lon":5.38937,"is_reserved":false,"is_disabled":false,"rental_uris":{"android":"levelo://app?vid=b48ed2cb-2c8f-487c-8d2e-8948202f478f","ios":"levelo://app?vid=b48ed2cb-2c8f-487c-8d2e-8948202f478f"},"vehicle_type_id":"4","last_reported":1770219139,"current_range_meters":9600,"station_id":"","pricing_plan_id":"cebpf4jnsgd1na2vs0mg"},{"bike_id":"f16dc8a3-c081-4cc7-a6fb-fd31f1a24104","system_id":"levelo_inurba_marseille","lat":43.32656,"lon":5.40992,"is_reserved":false,"is_disabled":false,"rental_uris":{"android":"levelo://app?vid=f16dc8a3-c081-4cc7-a6fb-fd31f1a24104","ios":"levelo://app?vid=f16dc8a3-c081-4cc7-a6fb-fd31f1a24104"},"vehicle_type_id":"4","last_reported":1770219139,"current_range_meters":9600,"station_id":"ce4bhpp2rcd13ifvqhgg","pricing_plan_id":"cebpf4jnsgd1na2vs0mg"},{"bike_id":"11c6296e-a3df-4055-a0f0-bf74e81177a5","system_id":"levelo_inurba_marseille","lat":43.284574,"lon":5.38809,"is_reserved":false,"is_disabled":false,"rental_uris":{"android":"levelo://app?vid=11c6296e-a3df-4055-a0f0-bf74e81177a5","ios":"levelo://app?vid=11c6296e-a3df-4055-a0f0-bf74e81177a5"},"vehicle_type_id":"4","last_reported":1770219139,"current_range_meters":9600,"station_id":"","pricing_plan_id":"cebpf4jnsgd1na2vs0mg"},{"bike_id":"dc624731-cdb9-4aad-9796-da5748b8ae4b","system_id":"levelo_inurba_marseille","lat":43.27577,"lon":5.38448,"is_reserved":false,"is_disabled":false,"rental_uris":{"android":"levelo://app?vid=dc624731-cdb9-4aad-9796-da5748b8ae4b","ios":"levelo://app?vid=dc624731-cdb9-4aad-9796-da5748b8ae4b"},"vehicle_type_id":"4","last_reported":1770219139,"current_range_meters":9600,"station_id":"ce4bhh92rcd13ifvqfi0","pricing_plan_id":"cebpf4jnsgd1na2vs0mg"},{"bike_id":"e89b42f3-9ad9-40cd-a65c-98400cb11139","system_id":"levelo_inurba_marseille","lat":43.23139,"lon":5.43709,"is_reserved":false,"is_disabled":false,"rental_uris":{"android":"levelo://app?vid=e89b42f3-9ad9-40cd-a65c-98400cb11139","ios":"levelo://app?vid=e89b42f3-9ad9-40cd-a65c-98400cb11139"},"vehicle_type_id":"4","last_reported":1770219139,"current_range_meters":9600,"station_id":"ce4bhmp2rcd13ifvqgog","pricing_plan_id":"cebpf4jnsgd1na2vs0mg"},{"bike_id":"64702ca7-8099-4191-8b80-03d9c36ca872","system_id":"levelo_inurba_marseille","lat":43.29637,"lon":5.406,"is_reserved":false,"is_disabled":false,"rental_uris":{"android":"levelo://app?vid=64702ca7-8099-4191-8b80-03d9c36ca872","ios":"levelo://app?vid=64702ca7-8099-4191-8b80-03d9c36ca872"},"vehicle_type_id":"4","last_reported":1770219139,"current_range_meters":9600,"station_id":"ce4bh0h2rcd13ifvqd60","pricing_plan_id":"cebpf4jnsgd1na2vs0mg"},{"bike_id":"063f2c68-dee1-48bf-b16a-277ba9e23cac","system_id":"levelo_inurba_marseille","lat":43.25942,"lon":5.409,"is_reserved":false,"is_disabled":false,"rental_uris":{"android":"levelo://app?vid=063f2c68-dee1-48bf-b16a-277ba9e23cac","ios":"levelo://app?vid=063f2c68-dee1-48bf-b16a-277ba9e23cac"},"vehicle_type_id":"4","last_reported":1770219139,"current_range_meters":9600,"station_id":"ce4bhm92rcd13ifvqglg","pricing_plan_id":"cebpf4jnsgd1na2vs0mg"},{"bike_id":"c6738f60-f964-49ea-bf2c-3bacd4ce0d33","system_id":"levelo_inurba_marseille","lat":43.33609,"lon":5.4104,"is_reserved":false,"is_disabled":false,"rental_uris":{"android":"levelo://app?vid=c6738f60-f964-49ea-bf2c-3bacd4ce0d33","ios":"levelo://app?vid=c6738f60-f964-49ea-bf2c-3bacd4ce0d33"},"vehicle_type_id":"4","last_reported":1770219139,"current_range_meters":10000,"station_id":"ce4bhqh2rcd13ifvqhmg","pricing_plan_id":"cebpf4jnsgd1na2vs0mg"},{"bike_id":"34654d40-d9c4-4861-9a25-3c2d379d8dbe","system_id":"levelo_inurba_marseille","lat":43.24076,"lon":5.37744,"is_reserved":false,"is_disabled":false,"rental_uris":{"android":"levelo://app?vid=34654d40-d9c4-4861-9a25-3c2d379d8dbe","ios":"levelo://app?vid=34654d40-d9c4-4861-9a25-3c2d379d8dbe"},"vehicle_type_id":"4","last_reported":1770219139,"current_range_meters":10000,"station_id":"ce4bhnp2rcd13ifvqgvg","pricing_plan_id":"cebpf4jnsgd1na2vs0mg"},{"bike_id":"b8a50ea7-d715-4e3d-a781-e5a31b47fd95","system_id":"levelo_inurba_marseille","lat":43.31057,"lon":5.37203,"is_reserved":false,"is_disabled":false,"rental_uris":{"android":"levelo://app?vid=b8a50ea7-d715-4e3d-a781-e5a31b47fd95","ios":"levelo://app?vid=b8a50ea7-d715-4e3d-a781-e5a31b47fd95"},"vehicle_type_id":"4","last_reported":1770219139,"current_range_meters":10000,"station_id":"st_d4kl2rp97mjs73e7tdfg","pricing_plan_id":"cebpf4jnsgd1na2vs0mg"},{"bike_id":"c1141524-5343-4555-9ca5-2692a3456421","system_id":"levelo_inurba_marseille","lat":43.22945,"lon":5.35337,"is_reserved":false,"is_disabled":false,"rental_uris":{"android":"levelo://app?vid=c1141524-5343-4555-9ca5-2692a3456421","ios":"levelo://app?vid=c1141524-5343-4555-9ca5-2692a3456421"},"vehicle_type_id":"4","last_reported":1770219139,"current_range_meters":10000,"station_id":"cpo3532slgdg3j2ikp40","pricing_plan_id":"cebpf4jnsgd1na2vs0mg"},{"bike_id":"85ea35d2-3956-47f8-af2a-f5d40ff2980c","system_id":"levelo_inurba_marseille","lat":43.28475,"lon":5.48402,"is_reserved":false,"is_disabled":false,"rental_uris":{"android":"levelo://app?vid=85ea35d2-3956-47f8-af2a-f5d40ff2980c","ios":"levelo://app?vid=85ea35d2-3956-47f8-af2a-f5d40ff2980c"},"vehicle_type_id":"4","last_reported":1770219139,"current_range_meters":10000,"station_id":"st_d3svhcjqgbts73a3dn0g","pricing_plan_id":"cebpf4jnsgd1na2vs0mg"},{"bike_id":"d3d63c27-06f0-4b77-9ac5-a9069aedd324","system_id":"levelo_inurba_marseille","lat":43.24079,"lon":5.37738,"is_reserved":false,"is_disabled":false,"rental_uris":{"android":"levelo://app?vid=d3d63c27-06f0-4b77-9ac5-a9069aedd324","ios":"levelo://app?vid=d3d63c27-06f0-4b77-9ac5-a9069aedd324"},"vehicle_type_id":"4","last_reported":1770219139,"current_range_meters":10000,"station_id":"ce4bhnp2rcd13ifvqgvg","pricing_plan_id":"cebpf4jnsgd1na2vs0mg"},{"bike_id":"d2c14433-6ee8-4acf-8c27-13116ae17eed","system_id":"levelo_inurba_marseille","lat":43.22933,"lon":5.35387,"is_reserved":false,"is_disabled":false,"rental_uris":{"android":"levelo://app?vid=d2c14433-6ee8-4acf-8c27-13116ae17eed","ios":"levelo://app?vid=d2c14433-6ee8-4acf-8c27-13116ae17eed"},"vehicle_type_id":"4","last_reported":1770219139,"current_range_meters":10000,"station_id":"cpo3532slgdg3j2ikp40","pricing_plan_id":"cebpf4jnsgd1na2vs0mg"},{"bike_id":"4855e835-72b8-481d-8fa8-62bee39a103b","system_id":"levelo_inurba_marseille","lat":43.29604,"lon":5.37726,"is_reserved":false,"is_disabled":false,"rental_uris":{"android":"levelo://app?vid=4855e835-72b8-481d-8fa8-62bee39a103b","ios":"levelo://app?vid=4855e835-72b8-481d-8fa8-62bee39a103b"},"vehicle_type_id":"4","last_reported":1770219139,"current_range_meters":10000,"station_id":"ce4bgi92rcd13ifvqb90","pricing_plan_id":"cebpf4jnsgd1na2vs0mg"},{"bike_id":"6b57bf3b-8c0e-4c20-ac17-97c4a9b3eefe","system_id":"levelo_inurba_marseille","lat":43.23159,"lon":5.43718,"is_reserved":false,"is_disabled":false,"rental_uris":{"android":"levelo://app?vid=6b57bf3b-8c0e-4c20-ac17-97c4a9b3eefe","ios":"levelo://app?vid=6b57bf3b-8c0e-4c20-ac17-97c4a9b3eefe"},"vehicle_type_id":"4","last_reported":1770219139,"current_range_meters":10000,"station_id":"ce4bhmp2rcd13ifvqgog","pricing_plan_id":"cebpf4jnsgd1na2vs0mg"},{"bike_id":"6655b68c-34d5-4976-9b6b-2354fa7ac20f","system_id":"levelo_inurba_marseille","lat":43.28868,"lon":5.4253,"is_reserved":false,"is_disabled":false,"rental_uris":{"android":"levelo://app?vid=6655b68c-34d5-4976-9b6b-2354fa7ac20f","ios":"levelo://app?vid=6655b68c-34d5-4976-9b6b-2354fa7ac20f"},"vehicle_type_id":"4","last_reported":1770219139,"current_range_meters":10800,"station_id":"st_d3b462108ojc7389ooeg","pricing_plan_id":"cebpf4jnsgd1na2vs0mg"},{"bike_id":"b7fceb7d-5c94-4236-913d-205150a917a2","system_id":"levelo_inurba_marseille","lat":43.24506,"lon":5.42568,"is_reserved":false,"is_disabled":false,"rental_uris":{"android":"levelo://app?vid=b7fceb7d-5c94-4236-913d-205150a917a2","ios":"levelo://app?vid=b7fceb7d-5c94-4236-913d-205150a917a2"},"vehicle_type_id":"4","last_reported":1770219139,"current_range_meters":10800,"station_id":"st_d4a3vfp97mjs738cd8kg","pricing_plan_id":"cebpf4jnsgd1na2vs0mg"},{"bike_id":"eced8b49-c3dd-4d83-9415-34a1eb319e54","system_id":"levelo_inurba_marseille","lat":43.28619,"lon":5.35103,"is_reserved":false,"is_disabled":false,"rental_uris":{"android":"levelo://app?vid=eced8b49-c3dd-4d83-9415-34a1eb319e54","ios":"levelo://app?vid=eced8b49-c3dd-4d83-9415-34a1eb319e54"},"vehicle_type_id":"4","last_reported":1770219139,"current_range_meters":10800,"station_id":"ce4bhch2rcd13ifvqeug","pricing_plan_id":"cebpf4jnsgd1na2vs0mg"},{"bike_id":"c1e23706-b5c7-4d8a-8806-4510eaf5a695","system_id":"levelo_inurba_marseille","lat":43.30142,"lon":5.37419,"is_reserved":false,"is_disabled":true,"rental_uris":{"android":"levelo://app?vid=c1e23706-b5c7-4d8a-8806-4510eaf5a695","ios":"levelo://app?vid=c1e23706-b5c7-4d8a-8806-4510eaf5a695"},"vehicle_type_id":"4","last_reported":1770219139,"current_range_meters":10800,"station_id":"ce4bgs92rcd13ifvqcc0","pricing_plan_id":"cebpf4jnsgd1na2vs0mg"},{"bike_id":"67908a89-a944-49da-adf3-be636b873c94","system_id":"levelo_inurba_marseille","lat":43.3016,"lon":5.38097,"is_reserved":false,"is_disabled":false,"rental_uris":{"android":"levelo://app?vid=67908a89-a944-49da-adf3-be636b873c94","ios":"levelo://app?vid=67908a89-a944-49da-adf3-be636b873c94"},"vehicle_type_id":"4","last_reported":1770219139,"current_range_meters":10800,"station_id":"ce4bgjp2rcd13ifvqbh0","pricing_plan_id":"cebpf4jnsgd1na2vs0mg"},{"bike_id":"68afddb3-b79a-4c91-87cf-e4c3c88502c1","system_id":"levelo_inurba_marseille","lat":43.3055,"lon":5.3843,"is_reserved":false,"is_disabled":false,"rental_uris":{"android":"levelo://app?vid=68afddb3-b79a-4c91-87cf-e4c3c88502c1","ios":"levelo://app?vid=68afddb3-b79a-4c91-87cf-e4c3c88502c1"},"vehicle_type_id":"4","last_reported":1770219139,"current_range_meters":10800,"station_id":"ce4bgg92rcd13ifvqb30","pricing_plan_id":"cebpf4jnsgd1na2vs0mg"},{"bike_id":"ac551100-dc22-4913-9a52-4829a5f95f35","system_id":"levelo_inurba_marseille","lat":43.28631,"lon":5.39845,"is_reserved":false,"is_disabled":true,"rental_uris":{"android":"levelo://app?vid=ac551100-dc22-4913-9a52-4829a5f95f35","ios":"levelo://app?vid=ac551100-dc22-4913-9a52-4829a5f95f35"},"vehicle_type_id":"4","last_reported":1770219139,"current_range_meters":10800,"station_id":"st_d4a7ka997mjs738ck50g","pricing_plan_id":"cebpf4jnsgd1na2vs0mg"},{"bike_id":"f1b2e5b7-5c9b-42f8-845f-ee6f7b95cc90","system_id":"levelo_inurba_marseille","lat":43.24683,"lon":5.38163,"is_reserved":false,"is_disabled":false,"rental_uris":{"android":"levelo://app?vid=f1b2e5b7-5c9b-42f8-845f-ee6f7b95cc90","ios":"levelo://app?vid=f1b2e5b7-5c9b-42f8-845f-ee6f7b95cc90"},"vehicle_type_id":"4","last_reported":1770219139,"current_range_meters":10800,"station_id":"ce4bhih2rcd13ifvqfr0","pricing_plan_id":"cebpf4jnsgd1na2vs0mg"},{"bike_id":"13305f2b-460c-49e5-b9ce-079e8e15a51f","system_id":"levelo_inurba_marseille","lat":43.25122,"lon":5.40316,"is_reserved":false,"is_disabled":false,"rental_uris":{"android":"levelo://app?vid=13305f2b-460c-49e5-b9ce-079e8e15a51f","ios":"levelo://app?vid=13305f2b-460c-49e5-b9ce-079e8e15a51f"},"vehicle_type_id":"4","last_reported":1770219139,"current_range_meters":10800,"station_id":"ce4bhlh2rcd13ifvqgig","pricing_plan_id":"cebpf4jnsgd1na2vs0mg"},{"bike_id":"a274440f-016e-44dc-945b-23db4ffa94bc","system_id":"levelo_inurba_marseille","lat":43.30191,"lon":5.36639,"is_reserved":false,"is_disabled":false,"rental_uris":{"android":"levelo://app?vid=a274440f-016e-44dc-945b-23db4ffa94bc","ios":"levelo://app?vid=a274440f-016e-44dc-945b-23db4ffa94bc"},"vehicle_type_id":"4","last_reported":1770219139,"current_range_meters":10800,"station_id":"ce4bgrh2rcd13ifvqc8g","pricing_plan_id":"cebpf4jnsgd1na2vs0mg"},{"bike_id":"522d13f9-4f38-4274-96c0-15194addacc6","system_id":"levelo_inurba_marseille","lat":43.23794,"lon":5.36622,"is_reserved":false,"is_disabled":false,"rental_uris":{"android":"levelo://app?vid=522d13f9-4f38-4274-96c0-15194addacc6","ios":"levelo://app?vid=522d13f9-4f38-4274-96c0-15194addacc6"},"vehicle_type_id":"4","last_reported":1770219139,"current_range_meters":10800,"station_id":"st_d3nk18o9ro0c73en2l3g","pricing_plan_id":"cebpf4jnsgd1na2vs0mg"},{"bike_id":"156c0f1a-2c3d-4ed0-a6da-4b41609ddf19","system_id":"levelo_inurba_marseille","lat":43.2991,"lon":5.38139,"is_reserved":false,"is_disabled":false,"rental_uris":{"android":"levelo://app?vid=156c0f1a-2c3d-4ed0-a6da-4b41609ddf19","ios":"levelo://app?vid=156c0f1a-2c3d-4ed0-a6da-4b41609ddf19"},"vehicle_type_id":"4","last_reported":1770219139,"current_range_meters":10800,"station_id":"ce4bgj12rcd13ifvqbc0","pricing_plan_id":"cebpf4jnsgd1na2vs0mg"},{"bike_id":"1be79b39-519d-4004-8fc8-79c55282c459","system_id":"levelo_inurba_marseille","lat":43.24185,"lon":5.36375,"is_reserved":false,"is_disabled":false,"rental_uris":{"android":"levelo://app?vid=1be79b39-519d-4004-8fc8-79c55282c459","ios":"levelo://app?vid=1be79b39-519d-4004-8fc8-79c55282c459"},"vehicle_type_id":"4","last_reported":1770219139,"current_range_meters":10800,"station_id":"cpo36qri1sfpv3e86is0","pricing_plan_id":"cebpf4jnsgd1na2vs0mg"},{"bike_id":"c59be42f-0772-451e-a452-b56e08719067","system_id":"levelo_inurba_marseille","lat":43.23956,"lon":5.36599,"is_reserved":false,"is_disabled":false,"rental_uris":{"android":"levelo://app?vid=c59be42f-0772-451e-a452-b56e08719067","ios":"levelo://app?vid=c59be42f-0772-451e-a452-b56e08719067"},"vehicle_type_id":"4","last_reported":1770219139,"current_range_meters":10800,"station_id":"ce4bhi12rcd13ifvqfp0","pricing_plan_id":"cebpf4jnsgd1na2vs0mg"},{"bike_id":"453579d7-6663-41ac-8c92-337a0b82bafa","system_id":"levelo_inurba_marseille","lat":43.25024,"lon":5.38934,"is_reserved":false,"is_disabled":false,"rental_uris":{"android":"levelo://app?vid=453579d7-6663-41ac-8c92-337a0b82bafa","ios":"levelo://app?vid=453579d7-6663-41ac-8c92-337a0b82bafa"},"vehicle_type_id":"4","last_reported":1770219139,"current_range_meters":10800,"station_id":"ce4bhgp2rcd13ifvqfd0","pricing_plan_id":"cebpf4jnsgd1na2vs0mg"},{"bike_id":"45553782-e3fb-4f23-a295-ea301b8a7525","system_id":"levelo_inurba_marseille","lat":43.31174,"lon":5.38709,"is_reserved":false,"is_disabled":false,"rental_uris":{"android":"levelo://app?vid=45553782-e3fb-4f23-a295-ea301b8a7525","ios":"levelo://app?vid=45553782-e3fb-4f23-a295-ea301b8a7525"},"vehicle_type_id":"4","last_reported":1770219139,"current_range_meters":11200,"station_id":"ce4bgv12rcd13ifvqcp0","pricing_plan_id":"cebpf4jnsgd1na2vs0mg"},{"bike_id":"de5cab93-369b-4778-8439-c851fd422534","system_id":"levelo_inurba_marseille","lat":43.216357,"lon":5.346536,"is_reserved":false,"is_disabled":false,"rental_uris":{"android":"levelo://app?vid=de5cab93-369b-4778-8439-c851fd422534","ios":"levelo://app?vid=de5cab93-369b-4778-8439-c851fd422534"},"vehicle_type_id":"4","last_reported":1770219139,"current_range_meters":11200,"station_id":"","pricing_plan_id":"cebpf4jnsgd1na2vs0mg"},{"bike_id":"39edbfee-cde8-4c48-a388-2f80a53dac00","system_id":"levelo_inurba_marseille","lat":43.24954,"lon":5.40486,"is_reserved":false,"is_disabled":false,"rental_uris":{"android":"levelo://app?vid=39edbfee-cde8-4c48-a388-2f80a53dac00","ios":"levelo://app?vid=39edbfee-cde8-4c48-a388-2f80a53dac00"},"vehicle_type_id":"4","last_reported":1770219139,"current_range_meters":11200,"station_id":"st_d2ngiaodas8pm72gd1h0","pricing_plan_id":"cebpf4jnsgd1na2vs0mg"},{"bike_id":"ef79007e-ef6d-4e7f-a3ae-3ed5ead69e87","system_id":"levelo_inurba_marseille","lat":43.23211,"lon":5.35556,"is_reserved":false,"is_disabled":false,"rental_uris":{"android":"levelo://app?vid=ef79007e-ef6d-4e7f-a3ae-3ed5ead69e87","ios":"levelo://app?vid=ef79007e-ef6d-4e7f-a3ae-3ed5ead69e87"},"vehicle_type_id":"4","last_reported":1770219139,"current_range_meters":11200,"station_id":"ce4bhu92rcd13ifvqi70","pricing_plan_id":"cebpf4jnsgd1na2vs0mg"},{"bike_id":"89e4ab3d-1408-4d9b-9ebc-e7cb420fad6f","system_id":"levelo_inurba_marseille","lat":43.31063,"lon":5.38347,"is_reserved":false,"is_disabled":false,"rental_uris":{"android":"levelo://app?vid=89e4ab3d-1408-4d9b-9ebc-e7cb420fad6f","ios":"levelo://app?vid=89e4ab3d-1408-4d9b-9ebc-e7cb420fad6f"},"vehicle_type_id":"4","last_reported":1770219139,"current_range_meters":11200,"station_id":"ce4bgv92rcd13ifvqcr0","pricing_plan_id":"cebpf4jnsgd1na2vs0mg"},{"bike_id":"6c706595-1835-4ddf-8d94-5e35d4a0f5cb","system_id":"levelo_inurba_marseille","lat":43.31171,"lon":5.36839,"is_reserved":false,"is_disabled":false,"rental_uris":{"android":"levelo://app?vid=6c706595-1835-4ddf-8d94-5e35d4a0f5cb","ios":"levelo://app?vid=6c706595-1835-4ddf-8d94-5e35d4a0f5cb"},"vehicle_type_id":"4","last_reported":1770219139,"current_range_meters":11200,"station_id":"","pricing_plan_id":"cebpf4jnsgd1na2vs0mg"},{"bike_id":"a5c6f692-2243-4f1e-aaae-2556a830d717","system_id":"levelo_inurba_marseille","lat":43.266895,"lon":5.382722,"is_reserved":false,"is_disabled":false,"rental_uris":{"android":"levelo://app?vid=a5c6f692-2243-4f1e-aaae-2556a830d717","ios":"levelo://app?vid=a5c6f692-2243-4f1e-aaae-2556a830d717"},"vehicle_type_id":"4","last_reported":1770219139,"current_range_meters":11200,"station_id":"ce4bhg92rcd13ifvqf90","pricing_plan_id":"cebpf4jnsgd1na2vs0mg"},{"bike_id":"d54d1be8-869f-4c63-b314-8eb80f9babad","system_id":"levelo_inurba_marseille","lat":43.22947,"lon":5.35358,"is_reserved":false,"is_disabled":false,"rental_uris":{"android":"levelo://app?vid=d54d1be8-869f-4c63-b314-8eb80f9babad","ios":"levelo://app?vid=d54d1be8-869f-4c63-b314-8eb80f9babad"},"vehicle_type_id":"4","last_reported":1770219139,"current_range_meters":11200,"station_id":"cpo3532slgdg3j2ikp40","pricing_plan_id":"cebpf4jnsgd1na2vs0mg"},{"bike_id":"daf39bf8-14f1-4ad9-9906-ec91a853506c","system_id":"levelo_inurba_marseille","lat":43.30429,"lon":5.39731,"is_reserved":false,"is_disabled":false,"rental_uris":{"android":"levelo://app?vid=daf39bf8-14f1-4ad9-9906-ec91a853506c","ios":"levelo://app?vid=daf39bf8-14f1-4ad9-9906-ec91a853506c"},"vehicle_type_id":"4","last_reported":1770219139,"current_range_meters":11200,"station_id":"ce4bh092rcd13ifvqd20","pricing_plan_id":"cebpf4jnsgd1na2vs0mg"},{"bike_id":"4e2515c5-55c1-4565-8b2e-5370f62ab857","system_id":"levelo_inurba_marseille","lat":43.30942,"lon":5.39634,"is_reserved":false,"is_disabled":false,"rental_uris":{"android":"levelo://app?vid=4e2515c5-55c1-4565-8b2e-5370f62ab857","ios":"levelo://app?vid=4e2515c5-55c1-4565-8b2e-5370f62ab857"},"vehicle_type_id":"4","last_reported":1770219139,"current_range_meters":11200,"station_id":"ce4bh012rcd13ifvqcv0","pricing_plan_id":"cebpf4jnsgd1na2vs0mg"},{"bike_id":"4e050dc2-18d1-48d2-bd3b-afdb4aa018e8","system_id":"levelo_inurba_marseille","lat":43.30306,"lon":5.37693,"is_reserved":false,"is_disabled":false,"rental_uris":{"android":"levelo://app?vid=4e050dc2-18d1-48d2-bd3b-afdb4aa018e8","ios":"levelo://app?vid=4e050dc2-18d1-48d2-bd3b-afdb4aa018e8"},"vehicle_type_id":"4","last_reported":1770219139,"current_range_meters":11200,"station_id":"ce4bguh2rcd13ifvqcj0","pricing_plan_id":"cebpf4jnsgd1na2vs0mg"},{"bike_id":"55a8821a-aad2-49d0-a57b-6fe6d01b124c","system_id":"levelo_inurba_marseille","lat":43.30143,"lon":5.37466,"is_reserved":false,"is_disabled":false,"rental_uris":{"android":"levelo://app?vid=55a8821a-aad2-49d0-a57b-6fe6d01b124c","ios":"levelo://app?vid=55a8821a-aad2-49d0-a57b-6fe6d01b124c"},