{"last_updated":1742468925,"ttl":60,"version":"2.2","data":{"bikes":[{"bike_id":"d03a197e-93f5-4cd0-a1c7-6628ffad47a5","system_id":"levelo_inurba_marseille","lat":43.30151,"lon":5.3808,"is_reserved":false,"is_disabled":false,"rental_uris":{"android":"levelo://app?vid=d03a197e-93f5-4cd0-a1c7-6628ffad47a5","ios":"levelo://app?vid=d03a197e-93f5-4cd0-a1c7-6628ffad47a5"},"vehicle_type_id":"4","last_reported":1742468925,"current_range_meters":2800,"station_id":"ce4bgjp2rcd13ifvqbh0","pricing_plan_id":"cebpf4jnsgd1na2vs0mg"},{"bike_id":"ca1c0a28-8faf-435f-9d8b-370c3a07ff34","system_id":"levelo_inurba_marseille","lat":43.2418,"lon":5.36435,"is_reserved":false,"is_disabled":false,"rental_uris":{"android":"levelo://app?vid=ca1c0a28-8faf-435f-9d8b-370c3a07ff34","ios":"levelo://app?vid=ca1c0a28-8faf-435f-9d8b-370c3a07ff34"},"vehicle_type_id":"4","last_reported":1742468925,"current_range_meters":2800,"station_id":"cpo36qri1sfpv3e86is0","pricing_plan_id":"cebpf4jnsgd1na2vs0mg"},{"bike_id":"20544ca3-8152-4c99-9e77-fbd3f04b156f","system_id":"levelo_inurba_marseille","lat":43.28416,"lon":5.3498,"is_reserved":false,"is_disabled":false,"rental_uris":{"android":"levelo://app?vid=20544ca3-8152-4c99-9e77-fbd3f04b156f","ios":"levelo://app?vid=20544ca3-8152-4c99-9e77-fbd3f04b156f"},"vehicle_type_id":"4","last_reported":1742468925,"current_range_meters":2800,"station_id":"ce4bhbh2rcd13ifvqepg","pricing_plan_id":"cebpf4jnsgd1na2vs0mg"},{"bike_id":"a28abf16-b269-4dd6-8a6b-7405838384a7","system_id":"levelo_inurba_marseille","lat":43.32499,"lon":5.36565,"is_reserved":false,"is_disabled":false,"rental_uris":{"android":"levelo://app?vid=a28abf16-b269-4dd6-8a6b-7405838384a7","ios":"levelo://app?vid=a28abf16-b269-4dd6-8a6b-7405838384a7"},"vehicle_type_id":"4","last_reported":1742468925,"current_range_meters":2800,"station_id":"ce4bhs12rcd13ifvqhvg","pricing_plan_id":"cebpf4jnsgd1na2vs0mg"},{"bike_id":"afe09584-7e80-4b91-9e4f-1f7b2e5f3f7a","system_id":"levelo_inurba_marseille","lat":43.26803,"lon":5.40283,"is_reserved":false,"is_disabled":false,"rental_uris":{"android":"levelo://app?vid=afe09584-7e80-4b91-9e4f-1f7b2e5f3f7a","ios":"levelo://app?vid=afe09584-7e80-4b91-9e4f-1f7b2e5f3f7a"},"vehicle_type_id":"4","last_reported":1742468925,"current_range_meters":2800,"station_id":"ce501612rcd8frsf0b60","pricing_plan_id":"cebpf4jnsgd1na2vs0mg"},{"bike_id":"3adacf97-82e2-4e32-b35e-27ac7e10e2fc","system_id":"levelo_inurba_marseille","lat":43.27979,"lon":5.3872,"is_reserved":false,"is_disabled":false,"rental_uris":{"android":"levelo://app?vid=3adacf97-82e2-4e32-b35e-27ac7e10e2fc","ios":"levelo://app?vid=3adacf97-82e2-4e32-b35e-27ac7e10e2fc"},"vehicle_type_id":"4","last_reported":1742468925,"current_range_meters":2800,"station_id":"ce4bhg12rcd13ifvqf80","pricing_plan_id":"cebpf4jnsgd1na2vs0mg"},{"bike_id":"6c1383c4-ce25-49bd-9e8f-5404db35746c","system_id":"levelo_inurba_marseille","lat":43.23645,"lon":5.39124,"is_reserved":false,"is_disabled":false,"rental_uris":{"android":"levelo://app?vid=6c1383c4-ce25-49bd-9e8f-5404db35746c","ios":"levelo://app?vid=6c1383c4-ce25-49bd-9e8f-5404db35746c"},"vehicle_type_id":"4","last_reported":1742468925,"current_range_meters":2800,"station_id":"","pricing_plan_id":"cebpf4jnsgd1na2vs0mg"},{"bike_id":"750747bc-9fa9-4335-977a-513e29f7bf21","system_id":"levelo_inurba_marseille","lat":43.26948,"lon":5.38637,"is_reserved":false,"is_disabled":false,"rental_uris":{"android":"levelo://app?vid=750747bc-9fa9-4335-977a-513e29f7bf21","ios":"levelo://app?vid=750747bc-9fa9-4335-977a-513e29f7bf21"},"vehicle_type_id":"4","last_reported":1742468925,"current_range_meters":2800,"station_id":"ce4bhh92rcd13ifvqfh0","pricing_plan_id":"cebpf4jnsgd1na2vs0mg"},{"bike_id":"5bf1d194-4ff6-4728-ba61-9aff98db1813","system_id":"levelo_inurba_marseille","lat":43.30254,"lon":5.40047,"is_reserved":false,"is_disabled":false,"rental_uris":{"android":"levelo://app?vid=5bf1d194-4ff6-4728-ba61-9aff98db1813","ios":"levelo://app?vid=5bf1d194-4ff6-4728-ba61-9aff98db1813"},"vehicle_type_id":"4","last_reported":1742468925,"current_range_meters":2800,"station_id":"ce4bgvh2rcd13ifvqcs0","pricing_plan_id":"cebpf4jnsgd1na2vs0mg"},{"bike_id":"71b0bcc3-aeec-4495-9a97-a56e7135cbd3","system_id":"levelo_inurba_marseille","lat":43.26025,"lon":5.37528,"is_reserved":false,"is_disabled":false,"rental_uris":{"android":"levelo://app?vid=71b0bcc3-aeec-4495-9a97-a56e7135cbd3","ios":"levelo://app?vid=71b0bcc3-aeec-4495-9a97-a56e7135cbd3"},"vehicle_type_id":"4","last_reported":1742468925,"current_range_meters":3200,"station_id":"ce4bhgh2rcd13ifvqfa0","pricing_plan_id":"cebpf4jnsgd1na2vs0mg"},{"bike_id":"b73dfe90-b3c4-4a1d-a90a-1aa84a61af65","system_id":"levelo_inurba_marseille","lat":43.30544,"lon":5.36711,"is_reserved":false,"is_disabled":false,"rental_uris":{"android":"levelo://app?vid=b73dfe90-b3c4-4a1d-a90a-1aa84a61af65","ios":"levelo://app?vid=b73dfe90-b3c4-4a1d-a90a-1aa84a61af65"},"vehicle_type_id":"4","last_reported":1742468925,"current_range_meters":3200,"station_id":"ce4bgrp2rcd13ifvqc9g","pricing_plan_id":"cebpf4jnsgd1na2vs0mg"},{"bike_id":"95c4c91c-f1a9-4fa2-bab4-85fb9cc645b8","system_id":"levelo_inurba_marseille","lat":43.23064,"lon":5.35489,"is_reserved":false,"is_disabled":false,"rental_uris":{"android":"levelo://app?vid=95c4c91c-f1a9-4fa2-bab4-85fb9cc645b8","ios":"levelo://app?vid=95c4c91c-f1a9-4fa2-bab4-85fb9cc645b8"},"vehicle_type_id":"4","last_reported":1742468925,"current_range_meters":3200,"station_id":"cpo3342slgdg3j2ifvpg","pricing_plan_id":"cebpf4jnsgd1na2vs0mg"},{"bike_id":"a8c3c862-8263-411a-a431-89d0d1a497a2","system_id":"levelo_inurba_marseille","lat":43.31684,"lon":5.40478,"is_reserved":false,"is_disabled":false,"rental_uris":{"android":"levelo://app?vid=a8c3c862-8263-411a-a431-89d0d1a497a2","ios":"levelo://app?vid=a8c3c862-8263-411a-a431-89d0d1a497a2"},"vehicle_type_id":"4","last_reported":1742468925,"current_range_meters":3600,"station_id":"ce4bh012rcd13ifvqd00","pricing_plan_id":"cebpf4jnsgd1na2vs0mg"},{"bike_id":"3e424286-259b-4659-a322-87e2ecea3a83","system_id":"levelo_inurba_marseille","lat":43.26777,"lon":5.39417,"is_reserved":false,"is_disabled":false,"rental_uris":{"android":"levelo://app?vid=3e424286-259b-4659-a322-87e2ecea3a83","ios":"levelo://app?vid=3e424286-259b-4659-a322-87e2ecea3a83"},"vehicle_type_id":"4","last_reported":1742468925,"current_range_meters":3600,"station_id":"ce4bhh12rcd13ifvqfg0","pricing_plan_id":"cebpf4jnsgd1na2vs0mg"},{"bike_id":"c23775db-32d3-44dd-9499-441f6cc0e37b","system_id":"levelo_inurba_marseille","lat":43.25496,"lon":5.37648,"is_reserved":false,"is_disabled":false,"rental_uris":{"android":"levelo://app?vid=c23775db-32d3-44dd-9499-441f6cc0e37b","ios":"levelo://app?vid=c23775db-32d3-44dd-9499-441f6cc0e37b"},"vehicle_type_id":"4","last_reported":1742468925,"current_range_meters":3200,"station_id":"ce4bhh12rcd13ifvqff0","pricing_plan_id":"cebpf4jnsgd1na2vs0mg"},{"bike_id":"a342afa1-fe1b-4de5-8f98-f3f81167fac6","system_id":"levelo_inurba_marseille","lat":43.2293,"lon":5.35391,"is_reserved":false,"is_disabled":false,"rental_uris":{"android":"levelo://app?vid=a342afa1-fe1b-4de5-8f98-f3f81167fac6","ios":"levelo://app?vid=a342afa1-fe1b-4de5-8f98-f3f81167fac6"},"vehicle_type_id":"4","last_reported":1742468925,"current_range_meters":3600,"station_id":"cpo3532slgdg3j2ikp40","pricing_plan_id":"cebpf4jnsgd1na2vs0mg"},{"bike_id":"6c25cfbd-1f7a-41b1-9966-98ff041098e0","system_id":"levelo_inurba_marseille","lat":43.2738,"lon":5.3626,"is_reserved":false,"is_disabled":false,"rental_uris":{"android":"levelo://app?vid=6c25cfbd-1f7a-41b1-9966-98ff041098e0","ios":"levelo://app?vid=6c25cfbd-1f7a-41b1-9966-98ff041098e0"},"vehicle_type_id":"4","last_reported":1742468925,"current_range_meters":3600,"station_id":"ce4bhbh2rcd13ifvqeo0","pricing_plan_id":"cebpf4jnsgd1na2vs0mg"},{"bike_id":"de3066a3-8cb8-4f90-8977-e835ee12cbdd","system_id":"levelo_inurba_marseille","lat":43.30302,"lon":5.36888,"is_reserved":false,"is_disabled":false,"rental_uris":{"android":"levelo://app?vid=de3066a3-8cb8-4f90-8977-e835ee12cbdd","ios":"levelo://app?vid=de3066a3-8cb8-4f90-8977-e835ee12cbdd"},"vehicle_type_id":"4","last_reported":1742468925,"current_range_meters":3600,"station_id":"ce4bgqh2rcd13ifvqc5g","pricing_plan_id":"cebpf4jnsgd1na2vs0mg"},{"bike_id":"fba632f6-91ee-49fd-bcd3-210ffd891b37","system_id":"levelo_inurba_marseille","lat":43.31363,"lon":5.38491,"is_reserved":false,"is_disabled":false,"rental_uris":{"android":"levelo://app?vid=fba632f6-91ee-49fd-bcd3-210ffd891b37","ios":"levelo://app?vid=fba632f6-91ee-49fd-bcd3-210ffd891b37"},"vehicle_type_id":"4","last_reported":1742468925,"current_range_meters":4800,"station_id":"ce4bgt92rcd13ifvqcf0","pricing_plan_id":"cebpf4jnsgd1na2vs0mg"},{"bike_id":"89ec0cd9-fb27-4a74-b399-65006010a265","system_id":"levelo_inurba_marseille","lat":43.24664,"lon":5.38884,"is_reserved":false,"is_disabled":false,"rental_uris":{"android":"levelo://app?vid=89ec0cd9-fb27-4a74-b399-65006010a265","ios":"levelo://app?vid=89ec0cd9-fb27-4a74-b399-65006010a265"},"vehicle_type_id":"4","last_reported":1742468925,"current_range_meters":4000,"station_id":"ce4bhg12rcd13ifvqf60","pricing_plan_id":"cebpf4jnsgd1na2vs0mg"},{"bike_id":"4156866b-a0ed-4dcf-b9d2-e7765ca102e2","system_id":"levelo_inurba_marseille","lat":43.30547,"lon":5.36682,"is_reserved":false,"is_disabled":true,"rental_uris":{"android":"levelo://app?vid=4156866b-a0ed-4dcf-b9d2-e7765ca102e2","ios":"levelo://app?vid=4156866b-a0ed-4dcf-b9d2-e7765ca102e2"},"vehicle_type_id":"4","last_reported":1742468925,"current_range_meters":4000,"station_id":"ce4bgrp2rcd13ifvqc9g","pricing_plan_id":"cebpf4jnsgd1na2vs0mg"},{"bike_id":"ec84457b-015e-4268-9551-4ada08e17c79","system_id":"levelo_inurba_marseille","lat":43.27499,"lon":5.42458,"is_reserved":false,"is_disabled":false,"rental_uris":{"android":"levelo://app?vid=ec84457b-015e-4268-9551-4ada08e17c79","ios":"levelo://app?vid=ec84457b-015e-4268-9551-4ada08e17c79"},"vehicle_type_id":"4","last_reported":1742468925,"current_range_meters":4000,"station_id":"ce4bhn92rcd13ifvqgrg","pricing_plan_id":"cebpf4jnsgd1na2vs0mg"},{"bike_id":"7cccf135-9d4a-4e9d-8c19-585bf2de9d2b","system_id":"levelo_inurba_marseille","lat":43.31492,"lon":5.37311,"is_reserved":false,"is_disabled":false,"rental_uris":{"android":"levelo://app?vid=7cccf135-9d4a-4e9d-8c19-585bf2de9d2b","ios":"levelo://app?vid=7cccf135-9d4a-4e9d-8c19-585bf2de9d2b"},"vehicle_type_id":"4","last_reported":1742468925,"current_range_meters":4000,"station_id":"ce4bgt12rcd13ifvqcd0","pricing_plan_id":"cebpf4jnsgd1na2vs0mg"},{"bike_id":"ec89d818-7c6e-414f-8a8c-537197f14f74","system_id":"levelo_inurba_marseille","lat":43.26558,"lon":5.39016,"is_reserved":false,"is_disabled":false,"rental_uris":{"android":"levelo://app?vid=ec89d818-7c6e-414f-8a8c-537197f14f74","ios":"levelo://app?vid=ec89d818-7c6e-414f-8a8c-537197f14f74"},"vehicle_type_id":"4","last_reported":1742468925,"current_range_meters":4400,"station_id":"ce4bhe12rcd13ifvqf30","pricing_plan_id":"cebpf4jnsgd1na2vs0mg"},{"bike_id":"5f0a8c53-ce4a-49d5-bc4d-ea5731f4db05","system_id":"levelo_inurba_marseille","lat":43.24081,"lon":5.37738,"is_reserved":false,"is_disabled":true,"rental_uris":{"android":"levelo://app?vid=5f0a8c53-ce4a-49d5-bc4d-ea5731f4db05","ios":"levelo://app?vid=5f0a8c53-ce4a-49d5-bc4d-ea5731f4db05"},"vehicle_type_id":"4","last_reported":1742468925,"current_range_meters":4400,"station_id":"ce4bhnp2rcd13ifvqgvg","pricing_plan_id":"cebpf4jnsgd1na2vs0mg"},{"bike_id":"0d4678ad-d799-4c90-af99-058f6558adae","system_id":"levelo_inurba_marseille","lat":43.30139,"lon":5.37409,"is_reserved":false,"is_disabled":false,"rental_uris":{"android":"levelo://app?vid=0d4678ad-d799-4c90-af99-058f6558adae","ios":"levelo://app?vid=0d4678ad-d799-4c90-af99-058f6558adae"},"vehicle_type_id":"4","last_reported":1742468925,"current_range_meters":4400,"station_id":"ce4bgs92rcd13ifvqcc0","pricing_plan_id":"cebpf4jnsgd1na2vs0mg"},{"bike_id":"9c068eb6-c4ef-449c-9932-f1514eef8ecd","system_id":"levelo_inurba_marseille","lat":43.29436,"lon":5.39754,"is_reserved":false,"is_disabled":false,"rental_uris":{"android":"levelo://app?vid=9c068eb6-c4ef-449c-9932-f1514eef8ecd","ios":"levelo://app?vid=9c068eb6-c4ef-449c-9932-f1514eef8ecd"},"vehicle_type_id":"4","last_reported":1742468925,"current_range_meters":4000,"station_id":"ce4bh3h2rcd13ifvqdo0","pricing_plan_id":"cebpf4jnsgd1na2vs0mg"},{"bike_id":"90042106-5215-432b-a3c5-16d5ceac75f9","system_id":"levelo_inurba_marseille","lat":43.29898,"lon":5.43664,"is_reserved":false,"is_disabled":false,"rental_uris":{"android":"levelo://app?vid=90042106-5215-432b-a3c5-16d5ceac75f9","ios":"levelo://app?vid=90042106-5215-432b-a3c5-16d5ceac75f9"},"vehicle_type_id":"4","last_reported":1742468925,"current_range_meters":4400,"station_id":"ce4bhpp2rcd13ifvqhfg","pricing_plan_id":"cebpf4jnsgd1na2vs0mg"},{"bike_id":"98bb9ed8-014c-44ad-aa87-3d6f5c40c2a2","system_id":"levelo_inurba_marseille","lat":43.29626,"lon":5.40594,"is_reserved":false,"is_disabled":false,"rental_uris":{"android":"levelo://app?vid=98bb9ed8-014c-44ad-aa87-3d6f5c40c2a2","ios":"levelo://app?vid=98bb9ed8-014c-44ad-aa87-3d6f5c40c2a2"},"vehicle_type_id":"4","last_reported":1742468925,"current_range_meters":4800,"station_id":"ce4bh0h2rcd13ifvqd60","pricing_plan_id":"cebpf4jnsgd1na2vs0mg"},{"bike_id":"af186a9b-c351-4701-9c35-4930def9b609","system_id":"levelo_inurba_marseille","lat":43.27483,"lon":5.42464,"is_reserved":false,"is_disabled":false,"rental_uris":{"android":"levelo://app?vid=af186a9b-c351-4701-9c35-4930def9b609","ios":"levelo://app?vid=af186a9b-c351-4701-9c35-4930def9b609"},"vehicle_type_id":"4","last_reported":1742468925,"current_range_meters":4800,"station_id":"ce4bhn92rcd13ifvqgrg","pricing_plan_id":"cebpf4jnsgd1na2vs0mg"},{"bike_id":"8cf3f598-e164-410f-aad7-cd791113c995","system_id":"levelo_inurba_marseille","lat":43.317597,"lon":5.390072,"is_reserved":false,"is_disabled":false,"rental_uris":{"android":"levelo://app?vid=8cf3f598-e164-410f-aad7-cd791113c995","ios":"levelo://app?vid=8cf3f598-e164-410f-aad7-cd791113c995"},"vehicle_type_id":"4","last_reported":1742468925,"current_range_meters":5600,"station_id":"ce4bhqp2rcd13ifvqhng","pricing_plan_id":"cebpf4jnsgd1na2vs0mg"},{"bike_id":"6d24a58e-2e2a-462f-9981-9560f2d4955a","system_id":"levelo_inurba_marseille","lat":43.29166,"lon":5.37146,"is_reserved":false,"is_disabled":false,"rental_uris":{"android":"levelo://app?vid=6d24a58e-2e2a-462f-9981-9560f2d4955a","ios":"levelo://app?vid=6d24a58e-2e2a-462f-9981-9560f2d4955a"},"vehicle_type_id":"4","last_reported":1742468925,"current_range_meters":5600,"station_id":"ce4bha92rcd13ifvqeh0","pricing_plan_id":"cebpf4jnsgd1na2vs0mg"},{"bike_id":"3c0f86bf-2134-4462-a7ab-79aaede557c9","system_id":"levelo_inurba_marseille","lat":43.31722,"lon":5.43709,"is_reserved":false,"is_disabled":false,"rental_uris":{"android":"levelo://app?vid=3c0f86bf-2134-4462-a7ab-79aaede557c9","ios":"levelo://app?vid=3c0f86bf-2134-4462-a7ab-79aaede557c9"},"vehicle_type_id":"4","last_reported":1742468925,"current_range_meters":5600,"station_id":"ce4bhp92rcd13ifvqhcg","pricing_plan_id":"cebpf4jnsgd1na2vs0mg"},{"bike_id":"1b94b0a4-3429-4f12-9e64-de2419f4db7d","system_id":"levelo_inurba_marseille","lat":43.29261,"lon":5.37608,"is_reserved":false,"is_disabled":false,"rental_uris":{"android":"levelo://app?vid=1b94b0a4-3429-4f12-9e64-de2419f4db7d","ios":"levelo://app?vid=1b94b0a4-3429-4f12-9e64-de2419f4db7d"},"vehicle_type_id":"4","last_reported":1742468925,"current_range_meters":5600,"station_id":"ce4bgi12rcd13ifvqb80","pricing_plan_id":"cebpf4jnsgd1na2vs0mg"},{"bike_id":"ae9b1099-a0c3-4c6b-94c3-7604b9ad0326","system_id":"levelo_inurba_marseille","lat":43.23951,"lon":5.36629,"is_reserved":false,"is_disabled":false,"rental_uris":{"android":"levelo://app?vid=ae9b1099-a0c3-4c6b-94c3-7604b9ad0326","ios":"levelo://app?vid=ae9b1099-a0c3-4c6b-94c3-7604b9ad0326"},"vehicle_type_id":"4","last_reported":1742468925,"current_range_meters":5600,"station_id":"ce4bhi12rcd13ifvqfp0","pricing_plan_id":"cebpf4jnsgd1na2vs0mg"},{"bike_id":"1fe8cbb2-e61f-4748-8f3f-eff906305549","system_id":"levelo_inurba_marseille","lat":43.23062,"lon":5.35499,"is_reserved":false,"is_disabled":false,"rental_uris":{"android":"levelo://app?vid=1fe8cbb2-e61f-4748-8f3f-eff906305549","ios":"levelo://app?vid=1fe8cbb2-e61f-4748-8f3f-eff906305549"},"vehicle_type_id":"4","last_reported":1742468925,"current_range_meters":6000,"station_id":"cpo3342slgdg3j2ifvpg","pricing_plan_id":"cebpf4jnsgd1na2vs0mg"},{"bike_id":"12a7f8cc-4ad7-4491-8df8-b908625810fc","system_id":"levelo_inurba_marseille","lat":43.30808,"lon":5.38146,"is_reserved":false,"is_disabled":false,"rental_uris":{"android":"levelo://app?vid=12a7f8cc-4ad7-4491-8df8-b908625810fc","ios":"levelo://app?vid=12a7f8cc-4ad7-4491-8df8-b908625810fc"},"vehicle_type_id":"4","last_reported":1742468925,"current_range_meters":6000,"station_id":"ce4bgt12rcd13ifvqce0","pricing_plan_id":"cebpf4jnsgd1na2vs0mg"},{"bike_id":"f386fc2f-79c1-4753-b715-4907e9ae6367","system_id":"levelo_inurba_marseille","lat":43.29549,"lon":5.42247,"is_reserved":false,"is_disabled":false,"rental_uris":{"android":"levelo://app?vid=f386fc2f-79c1-4753-b715-4907e9ae6367","ios":"levelo://app?vid=f386fc2f-79c1-4753-b715-4907e9ae6367"},"vehicle_type_id":"4","last_reported":1742468925,"current_range_meters":6000,"station_id":"ce4bhph2rcd13ifvqhdg","pricing_plan_id":"cebpf4jnsgd1na2vs0mg"},{"bike_id":"da5a0571-ee64-415e-9298-9807ebb70a03","system_id":"levelo_inurba_marseille","lat":43.32662,"lon":5.40992,"is_reserved":false,"is_disabled":false,"rental_uris":{"android":"levelo://app?vid=da5a0571-ee64-415e-9298-9807ebb70a03","ios":"levelo://app?vid=da5a0571-ee64-415e-9298-9807ebb70a03"},"vehicle_type_id":"4","last_reported":1742468925,"current_range_meters":6000,"station_id":"ce4bhpp2rcd13ifvqhgg","pricing_plan_id":"cebpf4jnsgd1na2vs0mg"},{"bike_id":"3612a167-3ac6-4bc0-8750-c86f570d16d0","system_id":"levelo_inurba_marseille","lat":43.30468,"lon":5.37884,"is_reserved":false,"is_disabled":false,"rental_uris":{"android":"levelo://app?vid=3612a167-3ac6-4bc0-8750-c86f570d16d0","ios":"levelo://app?vid=3612a167-3ac6-4bc0-8750-c86f570d16d0"},"vehicle_type_id":"4","last_reported":1742468925,"current_range_meters":6000,"station_id":"ce4bgup2rcd13ifvqcn0","pricing_plan_id":"cebpf4jnsgd1na2vs0mg"},{"bike_id":"2f15a0c4-65e8-41db-baa7-177230fc4415","system_id":"levelo_inurba_marseille","lat":43.29611,"lon":5.3772,"is_reserved":false,"is_disabled":false,"rental_uris":{"android":"levelo://app?vid=2f15a0c4-65e8-41db-baa7-177230fc4415","ios":"levelo://app?vid=2f15a0c4-65e8-41db-baa7-177230fc4415"},"vehicle_type_id":"4","last_reported":1742468925,"current_range_meters":6800,"station_id":"ce4bgi92rcd13ifvqb90","pricing_plan_id":"cebpf4jnsgd1na2vs0mg"},{"bike_id":"4c92b4eb-38db-4b14-9eee-161220d74edb","system_id":"levelo_inurba_marseille","lat":43.30134,"lon":5.37407,"is_reserved":false,"is_disabled":false,"rental_uris":{"android":"levelo://app?vid=4c92b4eb-38db-4b14-9eee-161220d74edb","ios":"levelo://app?vid=4c92b4eb-38db-4b14-9eee-161220d74edb"},"vehicle_type_id":"4","last_reported":1742468925,"current_range_meters":6000,"station_id":"ce4bgs92rcd13ifvqcc0","pricing_plan_id":"cebpf4jnsgd1na2vs0mg"},{"bike_id":"2e8bd90f-1805-4079-a37b-b95887d6a6a5","system_id":"levelo_inurba_marseille","lat":43.28504,"lon":5.38585,"is_reserved":false,"is_disabled":false,"rental_uris":{"android":"levelo://app?vid=2e8bd90f-1805-4079-a37b-b95887d6a6a5","ios":"levelo://app?vid=2e8bd90f-1805-4079-a37b-b95887d6a6a5"},"vehicle_type_id":"4","last_reported":1742468925,"current_range_meters":6400,"station_id":"ce4bh8p2rcd13ifvqeb0","pricing_plan_id":"cebpf4jnsgd1na2vs0mg"},{"bike_id":"5da21120-765c-493a-addc-469da6f3f383","system_id":"levelo_inurba_marseille","lat":43.30841,"lon":5.37485,"is_reserved":false,"is_disabled":false,"rental_uris":{"android":"levelo://app?vid=5da21120-765c-493a-addc-469da6f3f383","ios":"levelo://app?vid=5da21120-765c-493a-addc-469da6f3f383"},"vehicle_type_id":"4","last_reported":1742468925,"current_range_meters":6400,"station_id":"","pricing_plan_id":"cebpf4jnsgd1na2vs0mg"},{"bike_id":"dc890f6f-bf06-4979-9443-dbc1b47337df","system_id":"levelo_inurba_marseille","lat":43.25133,"lon":5.40347,"is_reserved":false,"is_disabled":false,"rental_uris":{"android":"levelo://app?vid=dc890f6f-bf06-4979-9443-dbc1b47337df","ios":"levelo://app?vid=dc890f6f-bf06-4979-9443-dbc1b47337df"},"vehicle_type_id":"4","last_reported":1742468925,"current_range_meters":6400,"station_id":"ce4bhlh2rcd13ifvqgig","pricing_plan_id":"cebpf4jnsgd1na2vs0mg"},{"bike_id":"04490a86-1cab-4a1b-a6fd-da725fc592ec","system_id":"levelo_inurba_marseille","lat":43.29256,"lon":5.37613,"is_reserved":false,"is_disabled":false,"rental_uris":{"android":"levelo://app?vid=04490a86-1cab-4a1b-a6fd-da725fc592ec","ios":"levelo://app?vid=04490a86-1cab-4a1b-a6fd-da725fc592ec"},"vehicle_type_id":"4","last_reported":1742468925,"current_range_meters":3600,"station_id":"ce4bgi12rcd13ifvqb80","pricing_plan_id":"cebpf4jnsgd1na2vs0mg"},{"bike_id":"dfcc8bbb-6cc0-487f-9f53-6c4f09735ec3","system_id":"levelo_inurba_marseille","lat":43.27492,"lon":5.42456,"is_reserved":false,"is_disabled":true,"rental_uris":{"android":"levelo://app?vid=dfcc8bbb-6cc0-487f-9f53-6c4f09735ec3","ios":"levelo://app?vid=dfcc8bbb-6cc0-487f-9f53-6c4f09735ec3"},"vehicle_type_id":"4","last_reported":1742468925,"current_range_meters":6400,"station_id":"ce4bhn92rcd13ifvqgrg","pricing_plan_id":"cebpf4jnsgd1na2vs0mg"},{"bike_id":"227ea19f-289e-4a92-895e-218ec5d5c552","system_id":"levelo_inurba_marseille","lat":43.27487,"lon":5.42458,"is_reserved":false,"is_disabled":false,"rental_uris":{"android":"levelo://app?vid=227ea19f-289e-4a92-895e-218ec5d5c552","ios":"levelo://app?vid=227ea19f-289e-4a92-895e-218ec5d5c552"},"vehicle_type_id":"4","last_reported":1742468925,"current_range_meters":6400,"station_id":"ce4bhn92rcd13ifvqgrg","pricing_plan_id":"cebpf4jnsgd1na2vs0mg"},{"bike_id":"87f8221d-e2b7-49ed-a350-def01f2caf86","system_id":"levelo_inurba_marseille","lat":43.29481,"lon":5.36213,"is_reserved":false,"is_disabled":false,"rental_uris":{"android":"levelo://app?vid=87f8221d-e2b7-49ed-a350-def01f2caf86","ios":"levelo://app?vid=87f8221d-e2b7-49ed-a350-def01f2caf86"},"vehicle_type_id":"4","last_reported":1742468925,"current_range_meters":6400,"station_id":"","pricing_plan_id":"cebpf4jnsgd1na2vs0mg"},{"bike_id":"2fae07c9-076f-4c39-b921-5cc913ddefb5","system_id":"levelo_inurba_marseille","lat":43.29581,"lon":5.36742,"is_reserved":false,"is_disabled":false,"rental_uris":{"android":"levelo://app?vid=2fae07c9-076f-4c39-b921-5cc913ddefb5","ios":"levelo://app?vid=2fae07c9-076f-4c39-b921-5cc913ddefb5"},"vehicle_type_id":"4","last_reported":1742468925,"current_range_meters":6800,"station_id":"ce4bgph2rcd13ifvqc2g","pricing_plan_id":"cebpf4jnsgd1na2vs0mg"},{"bike_id":"4e0a029e-d1b7-445c-8044-a51b6ffb8f2e","system_id":"levelo_inurba_marseille","lat":43.31358,"lon":5.36731,"is_reserved":false,"is_disabled":false,"rental_uris":{"android":"levelo://app?vid=4e0a029e-d1b7-445c-8044-a51b6ffb8f2e","ios":"levelo://app?vid=4e0a029e-d1b7-445c-8044-a51b6ffb8f2e"},"vehicle_type_id":"4","last_reported":1742468925,"current_range_meters":6800,"station_id":"ce4bgr92rcd13ifvqc6g","pricing_plan_id":"cebpf4jnsgd1na2vs0mg"},{"bike_id":"3455258b-4135-46b9-9a26-10bf95160e40","system_id":"levelo_inurba_marseille","lat":43.2321,"lon":5.35767,"is_reserved":false,"is_disabled":false,"rental_uris":{"android":"levelo://app?vid=3455258b-4135-46b9-9a26-10bf95160e40","ios":"levelo://app?vid=3455258b-4135-46b9-9a26-10bf95160e40"},"vehicle_type_id":"4","last_reported":1742468925,"current_range_meters":6800,"station_id":"","pricing_plan_id":"cebpf4jnsgd1na2vs0mg"},{"bike_id":"8a105848-b91f-43d2-a7c2-5fb320e15d10","system_id":"levelo_inurba_marseille","lat":43.301489,"lon":5.380813,"is_reserved":false,"is_disabled":false,"rental_uris":{"android":"levelo://app?vid=8a105848-b91f-43d2-a7c2-5fb320e15d10","ios":"levelo://app?vid=8a105848-b91f-43d2-a7c2-5fb320e15d10"},"vehicle_type_id":"4","last_reported":1742468925,"current_range_meters":6800,"station_id":"ce4bgj92rcd13ifvqbd0","pricing_plan_id":"cebpf4jnsgd1na2vs0mg"},{"bike_id":"bdc3274e-307f-4001-9fa4-bcfd68b5178c","system_id":"levelo_inurba_marseille","lat":43.30549,"lon":5.36544,"is_reserved":false,"is_disabled":false,"rental_uris":{"android":"levelo://app?vid=bdc3274e-307f-4001-9fa4-bcfd68b5178c","ios":"levelo://app?vid=bdc3274e-307f-4001-9fa4-bcfd68b5178c"},"vehicle_type_id":"4","last_reported":1742468925,"current_range_meters":6800,"station_id":"ce4bgs12rcd13ifvqcag","pricing_plan_id":"cebpf4jnsgd1na2vs0mg"},{"bike_id":"0f635bde-4e1c-4f1b-b735-23eeb41e0e5e","system_id":"levelo_inurba_marseille","lat":43.23972,"lon":5.36626,"is_reserved":false,"is_disabled":false,"rental_uris":{"android":"levelo://app?vid=0f635bde-4e1c-4f1b-b735-23eeb41e0e5e","ios":"levelo://app?vid=0f635bde-4e1c-4f1b-b735-23eeb41e0e5e"},"vehicle_type_id":"4","last_reported":1742468925,"current_range_meters":6800,"station_id":"ce4bhi12rcd13ifvqfp0","pricing_plan_id":"cebpf4jnsgd1na2vs0mg"},{"bike_id":"69e2981b-cf61-41df-a4de-8adb4108b43d","system_id":"levelo_inurba_marseille","lat":43.31394,"lon":5.36717,"is_reserved":false,"is_disabled":false,"rental_uris":{"android":"levelo://app?vid=69e2981b-cf61-41df-a4de-8adb4108b43d","ios":"levelo://app?vid=69e2981b-cf61-41df-a4de-8adb4108b43d"},"vehicle_type_id":"4","last_reported":1742468925,"current_range_meters":6800,"station_id":"","pricing_plan_id":"cebpf4jnsgd1na2vs0mg"},{"bike_id":"21a94eaa-add7-466b-9fdc-3f674594f151","system_id":"levelo_inurba_marseille","lat":43.33591,"lon":5.40986,"is_reserved":false,"is_disabled":false,"rental_uris":{"android":"levelo://app?vid=21a94eaa-add7-466b-9fdc-3f674594f151","ios":"levelo://app?vid=21a94eaa-add7-466b-9fdc-3f674594f151"},"vehicle_type_id":"4","last_reported":1742468925,"current_range_meters":6800,"station_id":"ce4bhqh2rcd13ifvqhmg","pricing_plan_id":"cebpf4jnsgd1na2vs0mg"},{"bike_id":"516a14f2-e527-4a6d-99db-d5ad118faf7c","system_id":"levelo_inurba_marseille","lat":43.25946,"lon":5.4086,"is_reserved":false,"is_disabled":false,"rental_uris":{"android":"levelo://app?vid=516a14f2-e527-4a6d-99db-d5ad118faf7c","ios":"levelo://app?vid=516a14f2-e527-4a6d-99db-d5ad118faf7c"},"vehicle_type_id":"4","last_reported":1742468925,"current_range_meters":6800,"station_id":"ce4bhm92rcd13ifvqglg","pricing_plan_id":"cebpf4jnsgd1na2vs0mg"},{"bike_id":"3058eb37-35b9-4277-898b-f9025638e045","system_id":"levelo_inurba_marseille","lat":43.25915,"lon":5.40864,"is_reserved":false,"is_disabled":false,"rental_uris":{"android":"levelo://app?vid=3058eb37-35b9-4277-898b-f9025638e045","ios":"levelo://app?vid=3058eb37-35b9-4277-898b-f9025638e045"},"vehicle_type_id":"4","last_reported":1742468925,"current_range_meters":7200,"station_id":"ce4bhm92rcd13ifvqglg","pricing_plan_id":"cebpf4jnsgd1na2vs0mg"},{"bike_id":"0f0379d0-9e31-4d59-aa71-1b8fef29c39c","system_id":"levelo_inurba_marseille","lat":43.25722,"lon":5.41103,"is_reserved":false,"is_disabled":false,"rental_uris":{"android":"levelo://app?vid=0f0379d0-9e31-4d59-aa71-1b8fef29c39c","ios":"levelo://app?vid=0f0379d0-9e31-4d59-aa71-1b8fef29c39c"},"vehicle_type_id":"4","last_reported":1742468925,"current_range_meters":7200,"station_id":"ce4bhkp2rcd13ifvqgd0","pricing_plan_id":"cebpf4jnsgd1na2vs0mg"},{"bike_id":"d45aa902-4bcb-471b-8a0f-8cdc3416ec8c","system_id":"levelo_inurba_marseille","lat":43.27613,"lon":5.36105,"is_reserved":false,"is_disabled":false,"rental_uris":{"android":"levelo://app?vid=d45aa902-4bcb-471b-8a0f-8cdc3416ec8c","ios":"levelo://app?vid=d45aa902-4bcb-471b-8a0f-8cdc3416ec8c"},"vehicle_type_id":"4","last_reported":1742468925,"current_range_meters":7200,"station_id":"ce4bgj92rcd13ifvqbe0","pricing_plan_id":"cebpf4jnsgd1na2vs0mg"},{"bike_id":"e2373ad1-2b50-4dc9-9234-06298adab2ab","system_id":"levelo_inurba_marseille","lat":43.27326,"lon":5.39082,"is_reserved":false,"is_disabled":false,"rental_uris":{"android":"levelo://app?vid=e2373ad1-2b50-4dc9-9234-06298adab2ab","ios":"levelo://app?vid=e2373ad1-2b50-4dc9-9234-06298adab2ab"},"vehicle_type_id":"4","last_reported":1742468925,"current_range_meters":7200,"station_id":"ce4bhgp2rcd13ifvqfe0","pricing_plan_id":"cebpf4jnsgd1na2vs0mg"},{"bike_id":"3d1faf25-8521-4340-956d-8a9046a5dc68","system_id":"levelo_inurba_marseille","lat":43.31758,"lon":5.39011,"is_reserved":false,"is_disabled":true,"rental_uris":{"android":"levelo://app?vid=3d1faf25-8521-4340-956d-8a9046a5dc68","ios":"levelo://app?vid=3d1faf25-8521-4340-956d-8a9046a5dc68"},"vehicle_type_id":"4","last_reported":1742468925,"current_range_meters":7200,"station_id":"ce4bhqp2rcd13ifvqhng","pricing_plan_id":"cebpf4jnsgd1na2vs0mg"},{"bike_id":"1afcadbc-0fa2-48ec-b108-84dc749edf7f","system_id":"levelo_inurba_marseille","lat":43.29625,"lon":5.37722,"is_reserved":false,"is_disabled":false,"rental_uris":{"android":"levelo://app?vid=1afcadbc-0fa2-48ec-b108-84dc749edf7f","ios":"levelo://app?vid=1afcadbc-0fa2-48ec-b108-84dc749edf7f"},"vehicle_type_id":"4","last_reported":1742468925,"current_range_meters":7200,"station_id":"ce4bgi92rcd13ifvqb90","pricing_plan_id":"cebpf4jnsgd1na2vs0mg"},{"bike_id":"f8a815c3-87f5-43ce-90a0-b6153b8c59d1","system_id":"levelo_inurba_marseille","lat":43.30134,"lon":5.37417,"is_reserved":false,"is_disabled":false,"rental_uris":{"android":"levelo://app?vid=f8a815c3-87f5-43ce-90a0-b6153b8c59d1","ios":"levelo://app?vid=f8a815c3-87f5-43ce-90a0-b6153b8c59d1"},"vehicle_type_id":"4","last_reported":1742468925,"current_range_meters":7200,"station_id":"ce4bgs92rcd13ifvqcc0","pricing_plan_id":"cebpf4jnsgd1na2vs0mg"},{"bike_id":"1fea0b3c-94ab-41af-b18e-d9bbaa7dda49","system_id":"levelo_inurba_marseille","lat":43.31718,"lon":5.43698,"is_reserved":false,"is_disabled":false,"rental_uris":{"android":"levelo://app?vid=1fea0b3c-94ab-41af-b18e-d9bbaa7dda49","ios":"levelo://app?vid=1fea0b3c-94ab-41af-b18e-d9bbaa7dda49"},"vehicle_type_id":"4","last_reported":1742468925,"current_range_meters":7200,"station_id":"ce4bhp92rcd13ifvqhcg","pricing_plan_id":"cebpf4jnsgd1na2vs0mg"},{"bike_id":"f4b2b318-fa25-4f46-aeb7-773c934bb6bd","system_id":"levelo_inurba_marseille","lat":43.29249,"lon":5.37619,"is_reserved":false,"is_disabled":false,"rental_uris":{"android":"levelo://app?vid=f4b2b318-fa25-4f46-aeb7-773c934bb6bd","ios":"levelo://app?vid=f4b2b318-fa25-4f46-aeb7-773c934bb6bd"},"vehicle_type_id":"4","last_reported":1742468925,"current_range_meters":7200,"station_id":"ce4bgi12rcd13ifvqb80","pricing_plan_id":"cebpf4jnsgd1na2vs0mg"},{"bike_id":"ff96b53e-51e3-4579-bc7d-d8b2f22f2a40","system_id":"levelo_inurba_marseille","lat":43.28469,"lon":5.38413,"is_reserved":false,"is_disabled":false,"rental_uris":{"android":"levelo://app?vid=ff96b53e-51e3-4579-bc7d-d8b2f22f2a40","ios":"levelo://app?vid=ff96b53e-51e3-4579-bc7d-d8b2f22f2a40"},"vehicle_type_id":"4","last_reported":1742468925,"current_range_meters":7200,"station_id":"ce4bh512rcd13ifvqe3g","pricing_plan_id":"cebpf4jnsgd1na2vs0mg"},{"bike_id":"21349732-fab2-4689-afa1-309587546b57","system_id":"levelo_inurba_marseille","lat":43.29627,"lon":5.40595,"is_reserved":false,"is_disabled":false,"rental_uris":{"android":"levelo://app?vid=21349732-fab2-4689-afa1-309587546b57","ios":"levelo://app?vid=21349732-fab2-4689-afa1-309587546b57"},"vehicle_type_id":"4","last_reported":1742468925,"current_range_meters":8000,"station_id":"ce4bh0h2rcd13ifvqd60","pricing_plan_id":"cebpf4jnsgd1na2vs0mg"},{"bike_id":"c76a4d35-3f4b-4728-a54f-decfdc407403","system_id":"levelo_inurba_marseille","lat":43.24658,"lon":5.38165,"is_reserved":false,"is_disabled":false,"rental_uris":{"android":"levelo://app?vid=c76a4d35-3f4b-4728-a54f-decfdc407403","ios":"levelo://app?vid=c76a4d35-3f4b-4728-a54f-decfdc407403"},"vehicle_type_id":"4","last_reported":1742468925,"current_range_meters":8000,"station_id":"ce4bhih2rcd13ifvqfr0","pricing_plan_id":"cebpf4jnsgd1na2vs0mg"},{"bike_id":"bfd67b10-fd7c-4b25-bc6e-0830b23c1f4b","system_id":"levelo_inurba_marseille","lat":43.25819,"lon":5.39411,"is_reserved":false,"is_disabled":false,"rental_uris":{"android":"levelo://app?vid=bfd67b10-fd7c-4b25-bc6e-0830b23c1f4b","ios":"levelo://app?vid=bfd67b10-fd7c-4b25-bc6e-0830b23c1f4b"},"vehicle_type_id":"4","last_reported":1742468925,"current_range_meters":8000,"station_id":"ce4bhip2rcd13ifvqft0","pricing_plan_id":"cebpf4jnsgd1na2vs0mg"},{"bike_id":"fa1662a9-4eda-49e6-92dc-fad2cd424f84","system_id":"levelo_inurba_marseille","lat":43.24165,"lon":5.36399,"is_reserved":false,"is_disabled":false,"rental_uris":{"android":"levelo://app?vid=fa1662a9-4eda-49e6-92dc-fad2cd424f84","ios":"levelo://app?vid=fa1662a9-4eda-49e6-92dc-fad2cd424f84"},"vehicle_type_id":"4","last_reported":1742468925,"current_range_meters":8000,"station_id":"cpo36qri1sfpv3e86is0","pricing_plan_id":"cebpf4jnsgd1na2vs0mg"},{"bike_id":"12908766-28b2-479a-be08-2785db66fe8c","system_id":"levelo_inurba_marseille","lat":43.27829,"lon":5.39211,"is_reserved":false,"is_disabled":false,"rental_uris":{"android":"levelo://app?vid=12908766-28b2-479a-be08-2785db66fe8c","ios":"levelo://app?vid=12908766-28b2-479a-be08-2785db66fe8c"},"vehicle_type_id":"4","last_reported":1742468925,"current_range_meters":8000,"station_id":"ce4bhjp2rcd13ifvqga0","pricing_plan_id":"cebpf4jnsgd1na2vs0mg"},{"bike_id":"02f43b01-3b74-45fa-a40e-2df823c84cda","system_id":"levelo_inurba_marseille","lat":43.2418,"lon":5.39718,"is_reserved":false,"is_disabled":false,"rental_uris":{"android":"levelo://app?vid=02f43b01-3b74-45fa-a40e-2df823c84cda","ios":"levelo://app?vid=02f43b01-3b74-45fa-a40e-2df823c84cda"},"vehicle_type_id":"4","last_reported":1742468925,"current_range_meters":8000,"station_id":"ce4bhn12rcd13ifvqgpg","pricing_plan_id":"cebpf4jnsgd1na2vs0mg"},{"bike_id":"6b10c942-df44-448d-b7eb-eccec47bc632","system_id":"levelo_inurba_marseille","lat":43.25578,"lon":5.382348,"is_reserved":false,"is_disabled":false,"rental_uris":{"android":"levelo://app?vid=6b10c942-df44-448d-b7eb-eccec47bc632","ios":"levelo://app?vid=6b10c942-df44-448d-b7eb-eccec47bc632"},"vehicle_type_id":"4","last_reported":1742468925,"current_range_meters":8400,"station_id":"ce4bhih2rcd13ifvqfs0","pricing_plan_id":"cebpf4jnsgd1na2vs0mg"},{"bike_id":"f8e532d6-e317-445d-91cb-19a6e01b4151","system_id":"levelo_inurba_marseille","lat":43.25926,"lon":5.40912,"is_reserved":false,"is_disabled":false,"rental_uris":{"android":"levelo://app?vid=f8e532d6-e317-445d-91cb-19a6e01b4151","ios":"levelo://app?vid=f8e532d6-e317-445d-91cb-19a6e01b4151"},"vehicle_type_id":"4","last_reported":1742468925,"current_range_meters":8000,"station_id":"ce4bhm92rcd13ifvqglg","pricing_plan_id":"cebpf4jnsgd1na2vs0mg"},{"bike_id":"963a17fa-4222-4f93-b414-09c4cce8d25a","system_id":"levelo_inurba_marseille","lat":43.28425,"lon":5.38656,"is_reserved":false,"is_disabled":false,"rental_uris":{"android":"levelo://app?vid=963a17fa-4222-4f93-b414-09c4cce8d25a","ios":"levelo://app?vid=963a17fa-4222-4f93-b414-09c4cce8d25a"},"vehicle_type_id":"4","last_reported":1742468925,"current_range_meters":8000,"station_id":"","pricing_plan_id":"cebpf4jnsgd1na2vs0mg"},{"bike_id":"a8b8dae1-87ef-4f8a-a2c8-fe9fd9bf0f77","system_id":"levelo_inurba_marseille","lat":43.23523,"lon":5.37762,"is_reserved":false,"is_disabled":false,"rental_uris":{"android":"levelo://app?vid=a8b8dae1-87ef-4f8a-a2c8-fe9fd9bf0f77","ios":"levelo://app?vid=a8b8dae1-87ef-4f8a-a2c8-fe9fd9bf0f77"},"vehicle_type_id":"4","last_reported":1742468925,"current_range_meters":8400,"station_id":"","pricing_plan_id":"cebpf4jnsgd1na2vs0mg"},{"bike_id":"447501e5-187a-4602-94d5-a210c774a3da","system_id":"levelo_inurba_marseille","lat":43.33599,"lon":5.40994,"is_reserved":false,"is_disabled":false,"rental_uris":{"android":"levelo://app?vid=447501e5-187a-4602-94d5-a210c774a3da","ios":"levelo://app?vid=447501e5-187a-4602-94d5-a210c774a3da"},"vehicle_type_id":"4","last_reported":1742468925,"current_range_meters":8400,"station_id":"ce4bhqh2rcd13ifvqhmg","pricing_plan_id":"cebpf4jnsgd1na2vs0mg"},{"bike_id":"a2a2d5d4-45cd-4eea-b311-03caf73e0b85","system_id":"levelo_inurba_marseille","lat":43.29531,"lon":5.39042,"is_reserved":false,"is_disabled":false,"rental_uris":{"android":"levelo://app?vid=a2a2d5d4-45cd-4eea-b311-03caf73e0b85","ios":"levelo://app?vid=a2a2d5d4-45cd-4eea-b311-03caf73e0b85"},"vehicle_type_id":"4","last_reported":1742468925,"current_range_meters":8000,"station_id":"ce4bh3p2rcd13ifvqdp0","pricing_plan_id":"cebpf4jnsgd1na2vs0mg"},{"bike_id":"2123f808-a138-4d79-a743-ce113eeabdb4","system_id":"levelo_inurba_marseille","lat":43.25085,"lon":5.39528,"is_reserved":false,"is_disabled":false,"rental_uris":{"android":"levelo://app?vid=2123f808-a138-4d79-a743-ce113eeabdb4","ios":"levelo://app?vid=2123f808-a138-4d79-a743-ce113eeabdb4"},"vehicle_type_id":"4","last_reported":1742468925,"current_range_meters":8400,"station_id":"ce4bhn12rcd13ifvqgqg","pricing_plan_id":"cebpf4jnsgd1na2vs0mg"},{"bike_id":"ab522927-7c9d-4d3f-9a6b-b032452df37c","system_id":"levelo_inurba_marseille","lat":43.29516,"lon":5.39036,"is_reserved":false,"is_disabled":false,"rental_uris":{"android":"levelo://app?vid=ab522927-7c9d-4d3f-9a6b-b032452df37c","ios":"levelo://app?vid=ab522927-7c9d-4d3f-9a6b-b032452df37c"},"vehicle_type_id":"4","last_reported":1742468925,"current_range_meters":8400,"station_id":"ce4bh3p2rcd13ifvqdp0","pricing_plan_id":"cebpf4jnsgd1na2vs0mg"},{"bike_id":"21b171b5-6533-4457-a9ad-50e105b3f2c4","system_id":"levelo_inurba_marseille","lat":43.29898,"lon":5.37479,"is_reserved":false,"is_disabled":false,"rental_uris":{"android":"levelo://app?vid=21b171b5-6533-4457-a9ad-50e105b3f2c4","ios":"levelo://app?vid=21b171b5-6533-4457-a9ad-50e105b3f2c4"},"vehicle_type_id":"4","last_reported":1742468925,"current_range_meters":8400,"station_id":"ce4bgjh2rcd13ifvqbg0","pricing_plan_id":"cebpf4jnsgd1na2vs0mg"},{"bike_id":"f73ea29f-f283-48fd-b3f6-955c325c870d","system_id":"levelo_inurba_marseille","lat":43.2594,"lon":5.40903,"is_reserved":false,"is_disabled":false,"rental_uris":{"android":"levelo://app?vid=f73ea29f-f283-48fd-b3f6-955c325c870d","ios":"levelo://app?vid=f73ea29f-f283-48fd-b3f6-955c325c870d"},"vehicle_type_id":"4","last_reported":1742468925,"current_range_meters":8400,"station_id":"ce4bhm92rcd13ifvqglg","pricing_plan_id":"cebpf4jnsgd1na2vs0mg"},{"bike_id":"d9b56b07-c703-4461-9fbb-035365022e89","system_id":"levelo_inurba_marseille","lat":43.2873,"lon":5.37939,"is_reserved":false,"is_disabled":false,"rental_uris":{"android":"levelo://app?vid=d9b56b07-c703-4461-9fbb-035365022e89","ios":"levelo://app?vid=d9b56b07-c703-4461-9fbb-035365022e89"},"vehicle_type_id":"4","last_reported":1742468925,"current_range_meters":12400,"station_id":"ce4bh9p2rcd13ifvqec0","pricing_plan_id":"cebpf4jnsgd1na2vs0mg"},{"bike_id":"9d26c008-8ec1-4269-9cd2-f45774f03ccb","system_id":"levelo_inurba_marseille","lat":43.27963,"lon":5.37953,"is_reserved":false,"is_disabled":false,"rental_uris":{"android":"levelo://app?vid=9d26c008-8ec1-4269-9cd2-f45774f03ccb","ios":"levelo://app?vid=9d26c008-8ec1-4269-9cd2-f45774f03ccb"},"vehicle_type_id":"4","last_reported":1742468925,"current_range_meters":8400,"station_id":"","pricing_plan_id":"cebpf4jnsgd1na2vs0mg"},{"bike_id":"8a23c3e3-2c50-4427-a456-769d00dddd3a","system_id":"levelo_inurba_marseille","lat":43.2991,"lon":5.37482,"is_reserved":false,"is_disabled":false,"rental_uris":{"android":"levelo://app?vid=8a23c3e3-2c50-4427-a456-769d00dddd3a","ios":"levelo://app?vid=8a23c3e3-2c50-4427-a456-769d00dddd3a"},"vehicle_type_id":"4","last_reported":1742468925,"current_range_meters":8400,"station_id":"ce4bgjh2rcd13ifvqbg0","pricing_plan_id":"cebpf4jnsgd1na2vs0mg"},{"bike_id":"3691e12e-962f-4298-9170-1cb5d85d0057","system_id":"levelo_inurba_marseille","lat":43.3136,"lon":5.36755,"is_reserved":false,"is_disabled":false,"rental_uris":{"android":"levelo://app?vid=3691e12e-962f-4298-9170-1cb5d85d0057","ios":"levelo://app?vid=3691e12e-962f-4298-9170-1cb5d85d0057"},"vehicle_type_id":"4","last_reported":1742468925,"current_range_meters":8400,"station_id":"ce4bgr92rcd13ifvqc6g","pricing_plan_id":"cebpf4jnsgd1na2vs0mg"},{"bike_id":"6eb98e18-92f8-411c-92c0-82d5569fb85c","system_id":"levelo_inurba_marseille","lat":43.32366,"lon":5.36743,"is_reserved":false,"is_disabled":false,"rental_uris":{"android":"levelo://app?vid=6eb98e18-92f8-411c-92c0-82d5569fb85c","ios":"levelo://app?vid=6eb98e18-92f8-411c-92c0-82d5569fb85c"},"vehicle_type_id":"4","last_reported":1742468925,"current_range_meters":8800,"station_id":"ce4bhsh2rcd13ifvqi2g","pricing_plan_id":"cebpf4jnsgd1na2vs0mg"},{"bike_id":"172bfbbb-c4de-44e5-aaba-f8df6d28115d","system_id":"levelo_inurba_marseille","lat":43.23148,"lon":5.43716,"is_reserved":false,"is_disabled":false,"rental_uris":{"android":"levelo://app?vid=172bfbbb-c4de-44e5-aaba-f8df6d28115d","ios":"levelo://app?vid=172bfbbb-c4de-44e5-aaba-f8df6d28115d"},"vehicle_type_id":"4","last_reported":1742468925,"current_range_meters":8800,"station_id":"ce4bhmp2rcd13ifvqgog","pricing_plan_id":"cebpf4jnsgd1na2vs0mg"},{"bike_id":"f4c4bf6d-48a4-4198-942b-eda89b945e41","system_id":"levelo_inurba_marseille","lat":43.27375,"lon":5.36259,"is_reserved":false,"is_disabled":false,"rental_uris":{"android":"levelo://app?vid=f4c4bf6d-48a4-4198-942b-eda89b945e41","ios":"levelo://app?vid=f4c4bf6d-48a4-4198-942b-eda89b945e41"},"vehicle_type_id":"4","last_reported":1742468925,"current_range_meters":8800,"station_id":"ce4bhbh2rcd13ifvqeo0","pricing_plan_id":"cebpf4jnsgd1na2vs0mg"},{"bike_id":"8edfd5d2-db14-4c26-9cc6-b5c0aaa5dcc5","system_id":"levelo_inurba_marseille","lat":43.29098,"lon":5.38133,"is_reserved":false,"is_disabled":false,"rental_uris":{"android":"levelo://app?vid=8edfd5d2-db14-4c26-9cc6-b5c0aaa5dcc5","ios":"levelo://app?vid=8edfd5d2-db14-4c26-9cc6-b5c0aaa5dcc5"},"vehicle_type_id":"4","last_reported":1742468925,"current_range_meters":11600,"station_id":"ce4bh512rcd13ifvqe2g","pricing_plan_id":"cebpf4jnsgd1na2vs0mg"},{"bike_id":"e6c8473b-6f16-40c7-9d09-903e0bcd4e87","system_id":"levelo_inurba_marseille","lat":43.32586,"lon":5.41942,"is_reserved":false,"is_disabled":false,"rental_uris":{"android":"levelo://app?vid=e6c8473b-6f16-40c7-9d09-903e0bcd4e87","ios":"levelo://app?vid=e6c8473b-6f16-40c7-9d09-903e0bcd4e87"},"vehicle_type_id":"4","last_reported":1742468925,"current_range_meters":8800,"station_id":"","pricing_plan_id":"cebpf4jnsgd1na2vs0mg"},{"bike_id":"62b4a984-e68a-416d-a9f1-8057bf199c03","system_id":"levelo_inurba_marseille","lat":43.26241,"lon":5.37445,"is_reserved":false,"is_disabled":false,"rental_uris":{"android":"levelo://app?vid=62b4a984-e68a-416d-a9f1-8057bf199c03","ios":"levelo://app?vid=62b4a984-e68a-416d-a9f1-8057bf199c03"},"vehicle_type_id":"4","last_reported":1742468925,"current_range_meters":8800,"station_id":"ce4bhgp2rcd13ifvqfc0","pricing_plan_id":"cebpf4jnsgd1na2vs0mg"},{"bike_id":"0168c146-c35a-49fa-a4f4-9e1a772fb6f5","system_id":"levelo_inurba_marseille","lat":43.29035,"lon":5.39966,"is_reserved":false,"is_disabled":false,"rental_uris":{"android":"levelo://app?vid=0168c146-c35a-49fa-a4f4-9e1a772fb6f5","ios":"levelo://app?vid=0168c146-c35a-49fa-a4f4-9e1a772fb6f5"},"vehicle_type_id":"4","last_reported":1742468925,"current_range_meters":8800,"station_id":"ce4bh392rcd13ifvqdm0","pricing_plan_id":"cebpf4jnsgd1na2vs0mg"},{"bike_id":"f9666937-bdea-4d57-9b32-a564608088e6","system_id":"levelo_inurba_marseille","lat":43.23179,"lon":5.39997,"is_reserved":false,"is_disabled":false,"rental_uris":{"android":"levelo://app?vid=f9666937-bdea-4d57-9b32-a564608088e6","ios":"levelo://app?vid=f9666937-bdea-4d57-9b32-a564608088e6"},"vehicle_type_id":"4","last_reported":1742468925,"current_range_meters":8800,"station_id":"ce4bhn12rcd13ifvqgqg","pricing_plan_id":"cebpf4jnsgd1na2vs0mg"},{"bike_id":"7557a065-0b34-42be-9160-b8111a301631","system_id":"levelo_inurba_marseille","lat":43.29585,"lon":5.37535,"is_reserved":false,"is_disabled":false,"rental_uris":{"android":"levelo://app?vid=7557a065-0b34-42be-9160-b8111a301631","ios":"levelo://app?vid=7557a065-0b34-42be-9160-b8111a301631"},"vehicle_type_id":"4","last_reported":1742468925,"current_range_meters":8800,"station_id":"ce4bgh92rcd13ifvqb50","pricing_plan_id":"cebpf4jnsgd1na2vs0mg"},{"bike_id":"176d2e0b-da43-4b98-b92e-b45d4ab12b2f","system_id":"levelo_inurba_marseille","lat":43.3021,"lon":5.38466,"is_reserved":false,"is_disabled":false,"rental_uris":{"android":"levelo://app?vid=176d2e0b-da43-4b98-b92e-b45d4ab12b2f","ios":"levelo://app?vid=176d2e0b-da43-4b98-b92e-b45d4ab12b2f"},"vehicle_type_id":"4","last_reported":1742468925,"current_range_meters":8800,"station_id":"","pricing_plan_id":"cebpf4jnsgd1na2vs0mg"},{"bike_id":"ba81ffce-e68a-418d-8190-010cb518d68f","system_id":"levelo_inurba_marseille","lat":43.29568,"lon":5.37528,"is_reserved":false,"is_disabled":false,"rental_uris":{"android":"levelo://app?vid=ba81ffce-e68a-418d-8190-010cb518d68f","ios":"levelo://app?vid=ba81ffce-e68a-418d-8190-010cb518d68f"},"vehicle_type_id":"4","last_reported":1742468925,"current_range_meters":9200,"station_id":"ce4bgh92rcd13ifvqb50","pricing_plan_id":"cebpf4jnsgd1na2vs0mg"},{"bike_id":"df8fdc72-f4f0-42f3-90b7-957801e7040f","system_id":"levelo_inurba_marseille","lat":43.24074,"lon":5.3775,"is_reserved":false,"is_disabled":false,"rental_uris":{"android":"levelo://app?vid=df8fdc72-f4f0-42f3-90b7-957801e7040f","ios":"levelo://app?vid=df8fdc72-f4f0-42f3-90b7-957801e7040f"},"vehicle_type_id":"4","last_reported":1742468925,"current_range_meters":9200,"station_id":"ce4bhnp2rcd13ifvqgvg","pricing_plan_id":"cebpf4jnsgd1na2vs0mg"},{"bike_id":"471b8c1a-1a85-4080-b533-fb41f3dbfd81","system_id":"levelo_inurba_marseille","lat":43.23193,"lon":5.35552,"is_reserved":false,"is_disabled":false,"rental_uris":{"android":"levelo://app?vid=471b8c1a-1a85-4080-b533-fb41f3dbfd81","ios":"levelo://app?vid=471b8c1a-1a85-4080-b533-fb41f3dbfd81"},"vehicle_type_id":"4","last_reported":1742468925,"current_range_meters":9200,"station_id":"ce4bhu92rcd13ifvqi70","pricing_plan_id":"cebpf4jnsgd1na2vs0mg"},{"bike_id":"671210b1-9e8f-4893-953f-985ab8b97e34","system_id":"levelo_inurba_marseille","lat":43.32107,"lon":5.36755,"is_reserved":false,"is_disabled":false,"rental_uris":{"android":"levelo://app?vid=671210b1-9e8f-4893-953f-985ab8b97e34","ios":"levelo://app?vid=671210b1-9e8f-4893-953f-985ab8b97e34"},"vehicle_type_id":"4","last_reported":1742468925,"current_range_meters":9200,"station_id":"ce4bhrh2rcd13ifvqhug","pricing_plan_id":"cebpf4jnsgd1na2vs0mg"},{"bike_id":"e4faa129-f252-4184-8212-476ec43d4c9f","system_id":"levelo_inurba_marseille","lat":43.26212,"lon":5.3744,"is_reserved":false,"is_disabled":false,"rental_uris":{"android":"levelo://app?vid=e4faa129-f252-4184-8212-476ec43d4c9f","ios":"levelo://app?vid=e4faa129-f252-4184-8212-476ec43d4c9f"},"vehicle_type_id":"4","last_reported":1742468925,"current_range_meters":9200,"station_id":"ce4bhgp2rcd13ifvqfc0","pricing_plan_id":"cebpf4jnsgd1na2vs0mg"},{"bike_id":"9b1ab9d1-6497-43c1-8958-d421383bc8b1","system_id":"levelo_inurba_marseille","lat":43.24065,"lon":5.37769,"is_reserved":false,"is_disabled":false,"rental_uris":{"android":"levelo://app?vid=9b1ab9d1-6497-43c1-8958-d421383bc8b1","ios":"levelo://app?vid=9b1ab9d1-6497-43c1-8958-d421383bc8b1"},"vehicle_type_id":"4","last_reported":1742468925,"current_range_meters":9200,"station_id":"ce4bhnp2rcd13ifvqgvg","pricing_plan_id":"cebpf4jnsgd1na2vs0mg"},{"bike_id":"5bb77139-1578-4a8e-8114-9c0f2450d678","system_id":"levelo_inurba_marseille","lat":43.30548,"lon":5.36543,"is_reserved":false,"is_disabled":true,"rental_uris":{"android":"levelo://app?vid=5bb77139-1578-4a8e-8114-9c0f2450d678","ios":"levelo://app?vid=5bb77139-1578-4a8e-8114-9c0f2450d678"},"vehicle_type_id":"4","last_reported":1742468925,"current_range_meters":9200,"station_id":"ce4bgs12rcd13ifvqcag","pricing_plan_id":"cebpf4jnsgd1na2vs0mg"},{"bike_id":"38ef6a60-533d-436e-9476-128c6e48a08b","system_id":"levelo_inurba_marseille","lat":43.25818,"lon":5.39427,"is_reserved":false,"is_disabled":false,"rental_uris":{"android":"levelo://app?vid=38ef6a60-533d-436e-9476-128c6e48a08b","ios":"levelo://app?vid=38ef6a60-533d-436e-9476-128c6e48a08b"},"vehicle_type_id":"4","last_reported":1742468925,"current_range_meters":9200,"station_id":"ce4bhip2rcd13ifvqft0","pricing_plan_id":"cebpf4jnsgd1na2vs0mg"},{"bike_id":"c6c8dd2d-5b6e-4c3a-8293-f6b60960b982","system_id":"levelo_inurba_marseille","lat":43.3087,"lon":5.37421,"is_reserved":false,"is_disabled":false,"rental_uris":{"android":"levelo://app?vid=c6c8dd2d-5b6e-4c3a-8293-f6b60960b982","ios":"levelo://app?vid=c6c8dd2d-5b6e-4c3a-8293-f6b60960b982"},"vehicle_type_id":"4","last_reported":1742468925,"current_range_meters":9200,"station_id":"","pricing_plan_id":"cebpf4jnsgd1na2vs0mg"},{"bike_id":"be3c72c1-6df8-4160-a164-723c89156a3f","system_id":"levelo_inurba_marseille","lat":43.25715,"lon":5.4111,"is_reserved":false,"is_disabled":false,"rental_uris":{"android":"levelo://app?vid=be3c72c1-6df8-4160-a164-723c89156a3f","ios":"levelo://app?vid=be3c72c1-6df8-4160-a164-723c89156a3f"},"vehicle_type_id":"4","last_reported":1742468925,"current_range_meters":9600,"station_id":"ce4bhkp2rcd13ifvqgd0","pricing_plan_id":"cebpf4jnsgd1na2vs0mg"},{"bike_id":"36910dd1-0d6b-4e90-868f-2d03ab0dda40","system_id":"levelo_inurba_marseille","lat":43.29595,"lon":5.38096,"is_reserved":false,"is_disabled":false,"rental_uris":{"android":"levelo://app?vid=36910dd1-0d6b-4e90-868f-2d03ab0dda40","ios":"levelo://app?vid=36910dd1-0d6b-4e90-868f-2d03ab0dda40"},"vehicle_type_id":"4","last_reported":1742468925,"current_range_meters":9600,"station_id":"ce4bgl12rcd13ifvqbo0","pricing_plan_id":"cebpf4jnsgd1na2vs0mg"},{"bike_id":"6d3f830c-4185-4d92-aa5d-1c17ab550c3a","system_id":"levelo_inurba_marseille","lat":43.321,"lon":5.3677,"is_reserved":false,"is_disabled":false,"rental_uris":{"android":"levelo://app?vid=6d3f830c-4185-4d92-aa5d-1c17ab550c3a","ios":"levelo://app?vid=6d3f830c-4185-4d92-aa5d-1c17ab550c3a"},"vehicle_type_id":"4","last_reported":1742468925,"current_range_meters":9600,"station_id":"ce4bhrh2rcd13ifvqhug","pricing_plan_id":"cebpf4jnsgd1na2vs0mg"},{"bike_id":"9b2a4ae1-45d2-42a7-b1d8-970226b193d0","system_id":"levelo_inurba_marseille","lat":43.24168,"lon":5.39736,"is_reserved":false,"is_disabled":false,"rental_uris":{"android":"levelo://app?vid=9b2a4ae1-45d2-42a7-b1d8-970226b193d0","ios":"levelo://app?vid=9b2a4ae1-45d2-42a7-b1d8-970226b193d0"},"vehicle_type_id":"4","last_reported":1742468925,"current_range_meters":9600,"station_id":"ce4bhn12rcd13ifvqgpg","pricing_plan_id":"cebpf4jnsgd1na2vs0mg"},{"bike_id":"e74fce09-490e-4ae2-9de7-a533dd9876c1","system_id":"levelo_inurba_marseille","lat":43.23154,"lon":5.43686,"is_reserved":false,"is_disabled":false,"rental_uris":{"android":"levelo://app?vid=e74fce09-490e-4ae2-9de7-a533dd9876c1","ios":"levelo://app?vid=e74fce09-490e-4ae2-9de7-a533dd9876c1"},"vehicle_type_id":"4","last_reported":1742468925,"current_range_meters":9600,"station_id":"ce4bhmp2rcd13ifvqgog","pricing_plan_id":"cebpf4jnsgd1na2vs0mg"},{"bike_id":"de84da4a-3571-420d-b198-b16185707696","system_id":"levelo_inurba_marseille","lat":43.25942,"lon":5.40893,"is_reserved":false,"is_disabled":false,"rental_uris":{"android":"levelo://app?vid=de84da4a-3571-420d-b198-b16185707696","ios":"levelo://app?vid=de84da4a-3571-420d-b198-b16185707696"},"vehicle_type_id":"4","last_reported":1742468925,"current_range_meters":9600,"station_id":"ce4bhm92rcd13ifvqglg","pricing_plan_id":"cebpf4jnsgd1na2vs0mg"},{"bike_id":"92f31abb-25e7-481b-baf0-01963f45f7b3","system_id":"levelo_inurba_marseille","lat":43.30543,"lon":5.36552,"is_reserved":false,"is_disabled":false,"rental_uris":{"android":"levelo://app?vid=92f31abb-25e7-481b-baf0-01963f45f7b3","ios":"levelo://app?vid=92f31abb-25e7-481b-baf0-01963f45f7b3"},"vehicle_type_id":"4","last_reported":1742468925,"current_range_meters":9600,"station_id":"ce4bgs12rcd13ifvqcag","pricing_plan_id":"cebpf4jnsgd1na2vs0mg"},{"bike_id":"40472315-c78c-435f-950c-e9bb139fc73a","system_id":"levelo_inurba_marseille","lat":43.3302,"lon":5.39054,"is_reserved":false,"is_disabled":false,"rental_uris":{"android":"levelo://app?vid=40472315-c78c-435f-950c-e9bb139fc73a","ios":"levelo://app?vid=40472315-c78c-435f-950c-e9bb139fc73a"},"vehicle_type_id":"4","last_reported":1742468925,"current_range_meters":9600,"station_id":"ce4bhr92rcd13ifvqhrg","pricing_plan_id":"cebpf4jnsgd1na2vs0mg"},{"bike_id":"1689fa84-13f6-46a5-be92-d2be23b25286","system_id":"levelo_inurba_marseille","lat":43.31428,"lon":5.37596,"is_reserved":false,"is_disabled":false,"rental_uris":{"android":"levelo://app?vid=1689fa84-13f6-46a5-be92-d2be23b25286","ios":"levelo://app?vid=1689fa84-13f6-46a5-be92-d2be23b25286"},"vehicle_type_id":"4","last_reported":1742468925,"current_range_meters":9600,"station_id":"","pricing_plan_id":"cebpf4jnsgd1na2vs0mg"},{"bike_id":"b1760ddc-e429-4696-afac-991a8ea2a937","system_id":"levelo_inurba_marseille","lat":43.29852,"lon":5.36282,"is_reserved":false,"is_disabled":false,"rental_uris":{"android":"levelo://app?vid=b1760ddc-e429-4696-afac-991a8ea2a937","ios":"levelo://app?vid=b1760ddc-e429-4696-afac-991a8ea2a937"},"vehicle_type_id":"4","last_reported":1742468925,"current_range_meters":9600,"station_id":"ce4bgpp2rcd13ifvqc3g","pricing_plan_id":"cebpf4jnsgd1na2vs0mg"},{"bike_id":"1983241e-dcf4-412a-b965-b9e661a9d6d5","system_id":"levelo_inurba_marseille","lat":43.29844,"lon":5.40177,"is_reserved":false,"is_disabled":false,"rental_uris":{"android":"levelo://app?vid=1983241e-dcf4-412a-b965-b9e661a9d6d5","ios":"levelo://app?vid=1983241e-dcf4-412a-b965-b9e661a9d6d5"},"vehicle_type_id":"4","last_reported":1742468925,"current_range_meters":9600,"station_id":"","pricing_plan_id":"cebpf4jnsgd1na2vs0mg"},{"bike_id":"be05d50e-8ad2-48bb-97eb-0b1bd08dfeb0","system_id":"levelo_inurba_marseille","lat":43.3135,"lon":5.36709,"is_reserved":false,"is_disabled":false,"rental_uris":{"android":"levelo://app?vid=be05d50e-8ad2-48bb-97eb-0b1bd08dfeb0","ios":"levelo://app?vid=be05d50e-8ad2-48bb-97eb-0b1bd08dfeb0"},"vehicle_type_id":"4","last_reported":1742468925,"current_range_meters":10000,"station_id":"ce4bgr92rcd13ifvqc6g","pricing_plan_id":"cebpf4jnsgd1na2vs0mg"},{"bike_id":"6c7e51d2-e2f9-4032-b4ac-95afc513e72e","system_id":"levelo_inurba_marseille","lat":43.2737,"lon":5.36256,"is_reserved":false,"is_disabled":false,"rental_uris":{"android":"levelo://app?vid=6c7e51d2-e2f9-4032-b4ac-95afc513e72e","ios":"levelo://app?vid=6c7e51d2-e2f9-4032-b4ac-95afc513e72e"},"vehicle_type_id":"4","last_reported":1742468925,"current_range_meters":10000,"station_id":"ce4bhbh2rcd13ifvqeo0","pricing_plan_id":"cebpf4jnsgd1na2vs0mg"},{"bike_id":"11bd8d6d-27dc-4740-9c7d-3b5375e8c83b","system_id":"levelo_inurba_marseille","lat":43.31648,"lon":5.39593,"is_reserved":false,"is_disabled":false,"rental_uris":{"android":"levelo://app?vid=11bd8d6d-27dc-4740-9c7d-3b5375e8c83b","ios":"levelo://app?vid=11bd8d6d-27dc-4740-9c7d-3b5375e8c83b"},"vehicle_type_id":"4","last_reported":1742468925,"current_range_meters":10000,"station_id":"","pricing_plan_id":"cebpf4jnsgd1na2vs0mg"},{"bike_id":"cb6062cd-3cfa-4917-b79b-5707b99e3c03","system_id":"levelo_inurba_marseille","lat":43.321185,"lon":5.367534,"is_reserved":false,"is_disabled":false,"rental_uris":{"android":"levelo://app?vid=cb6062cd-3cfa-4917-b79b-5707b99e3c03","ios":"levelo://app?vid=cb6062cd-3cfa-4917-b79b-5707b99e3c03"},"vehicle_type_id":"4","last_reported":1742468925,"current_range_meters":10000,"station_id":"ce4bho92rcd13ifvqh3g","pricing_plan_id":"cebpf4jnsgd1na2vs0mg"},{"bike_id":"efb9ed43-dd51-4c99-a034-3cda93bac910","system_id":"levelo_inurba_marseille","lat":43.29929,"lon":5.36543,"is_reserved":false,"is_disabled":false,"rental_uris":{"android":"levelo://app?vid=efb9ed43-dd51-4c99-a034-3cda93bac910","ios":"levelo://app?vid=efb9ed43-dd51-4c99-a034-3cda93bac910"},"vehicle_type_id":"4","last_reported":1742468925,"current_range_meters":10000,"station_id":"ce4bgm92rcd13ifvqbr0","pricing_plan_id":"cebpf4jnsgd1na2vs0mg"},{"bike_id":"83193107-b9af-4265-a8cd-796183911dbe","system_id":"levelo_inurba_marseille","lat":43.24071,"lon":5.37761,"is_reserved":false,"is_disabled":false,"rental_uris":{"android":"levelo://app?vid=83193107-b9af-4265-a8cd-796183911dbe","ios":"levelo://app?vid=83193107-b9af-4265-a8cd-796183911dbe"},"vehicle_type_id":"4","last_reported":1742468925,"current_range_meters":10000,"station_id":"ce4bhnp2rcd13ifvqgvg","pricing_plan_id":"cebpf4jnsgd1na2vs0mg"},{"bike_id":"85782564-15b3-42d4-8810-12088c1abb61","system_id":"levelo_inurba_marseille","lat":43.30152,"lon":5.38084,"is_reserved":false,"is_disabled":false,"rental_uris":{"android":"levelo://app?vid=85782564-15b3-42d4-8810-12088c1abb61","ios":"levelo://app?vid=85782564-15b3-42d4-8810-12088c1abb61"},"vehicle_type_id":"4","last_reported":1742468925,"current_range_meters":10000,"station_id":"ce4bgjp2rcd13ifvqbh0","pricing_plan_id":"cebpf4jnsgd1na2vs0mg"},{"bike_id":"c80669ac-c345-4701-b5f9-7d4bd3700c4b","system_id":"levelo_inurba_marseille","lat":43.29307,"lon":5.37184,"is_reserved":false,"is_disabled":false,"rental_uris":{"android":"levelo://app?vid=c80669ac-c345-4701-b5f9-7d4bd3700c4b","ios":"levelo://app?vid=c80669ac-c345-4701-b5f9-7d4bd3700c4b"},"vehicle_type_id":"4","last_reported":1742468925,"current_range_meters":10000,"station_id":"ce4bgh92rcd13ifvqb40","pricing_plan_id":"cebpf4jnsgd1na2vs0mg"},{"bike_id":"5f3a22de-1ce3-47bc-944e-f691863af01d","system_id":"levelo_inurba_marseille","lat":43.26062,"lon":5.39397,"is_reserved":false,"is_disabled":false,"rental_uris":{"android":"levelo://app?vid=5f3a22de-1ce3-47bc-944e-f691863af01d","ios":"levelo://app?vid=5f3a22de-1ce3-47bc-944e-f691863af01d"},"vehicle_type_id":"4","last_reported":1742468925,"current_range_meters":10000,"station_id":"ce4bhh92rcd13ifvqfj0","pricing_plan_id":"cebpf4jnsgd1na2vs0mg"},{"bike_id":"d7645557-54c5-44ed-8c44-41e433a350da","system_id":"levelo_inurba_marseille","lat":43.29484,"lon":5.35594,"is_reserved":false,"is_disabled":false,"rental_uris":{"android":"levelo://app?vid=d7645557-54c5-44ed-8c44-41e433a350da","ios":"levelo://app?vid=d7645557-54c5-44ed-8c44-41e433a350da"},"vehicle_type_id":"4","last_reported":1742468925,"current_range_meters":10000,"station_id":"","pricing_plan_id":"cebpf4jnsgd1na2vs0mg"},{"bike_id":"0d95e6a4-60fa-4989-a414-058ecea80aee","system_id":"levelo_inurba_marseille","lat":43.30541,"lon":5.36538,"is_reserved":false,"is_disabled":false,"rental_uris":{"android":"levelo://app?vid=0d95e6a4-60fa-4989-a414-058ecea80aee","ios":"levelo://app?vid=0d95e6a4-60fa-4989-a414-058ecea80aee"},"vehicle_type_id":"4","last_reported":1742468925,"current_range_meters":10800,"station_id":"ce4bgs12rcd13ifvqcag","pricing_plan_id":"cebpf4jnsgd1na2vs0mg"},{"bike_id":"875392e3-84c4-45cb-a83c-bee8cbedad45","system_id":"levelo_inurba_marseille","lat":43.32102,"lon":5.36764,"is_reserved":false,"is_disabled":false,"rental_uris":{"android":"levelo://app?vid=875392e3-84c4-45cb-a83c-bee8cbedad45","ios":"levelo://app?vid=875392e3-84c4-45cb-a83c-bee8cbedad45"},"vehicle_type_id":"4","last_reported":1742468925,"current_range_meters":10800,"station_id":"ce4bhrh2rcd13ifvqhug","pricing_plan_id":"cebpf4jnsgd1na2vs0mg"},{"bike_id":"a0deeb6c-62a7-4efb-834c-1bec837aaba6","system_id":"levelo_inurba_marseille","lat":43.33694,"lon":5.3781,"is_reserved":false,"is_disabled":false,"rental_uris":{"android":"levelo://app?vid=a0deeb6c-62a7-4efb-834c-1bec837aaba6","ios":"levelo://app?vid=a0deeb6c-62a7-4efb-834c-1bec837aaba6"},"vehicle_type_id":"4","last_reported":1742468925,"current_range_meters":10800,"station_id":"","pricing_plan_id":"cebpf4jnsgd1na2vs0mg"},{"bike_id":"ab53bd43-0fd9-40b0-bedd-84357013e2ab","system_id":"levelo_inurba_marseille","lat":43.25568,"lon":5.38235,"is_reserved":false,"is_disabled":false,"rental_uris":{"android":"levelo://app?vid=ab53bd43-0fd9-40b0-bedd-84357013e2ab","ios":"levelo://app?vid=ab53bd43-0fd9-40b0-bedd-84357013e2ab"},"vehicle_type_id":"4","last_reported":1742468925,"current_range_meters":10800,"station_id":"ce4bhih2rcd13ifvqfs0","pricing_plan_id":"cebpf4jnsgd1na2vs0mg"},{"bike_id":"75e8bee3-0a10-4522-9d7e-72ece2846129","system_id":"levelo_inurba_marseille","lat":43.33413,"lon":5.39632,"is_reserved":false,"is_disabled":false,"rental_uris":{"android":"levelo://app?vid=75e8bee3-0a10-4522-9d7e-72ece2846129","ios":"levelo://app?vid=75e8bee3-0a10-4522-9d7e-72ece2846129"},"vehicle_type_id":"4","last_reported":1742468925,"current_range_meters":10800,"station_id":"","pricing_plan_id":"cebpf4jnsgd1na2vs0mg"},{"bike_id":"6883c811-8746-429a-bd41-848ecf4dd19e","system_id":"levelo_inurba_marseille","lat":43.23523,"lon":5.37757,"is_reserved":false,"is_disabled":false,"rental_uris":{"android":"levelo://app?vid=6883c811-8746-429a-bd41-848ecf4dd19e","ios":"levelo://app?vid=6883c811-8746-429a-bd41-848ecf4dd19e"},"vehicle_type_id":"4","last_reported":1742468925,"current_range_meters":10800,"station_id":"","pricing_plan_id":"cebpf4jnsgd1na2vs0mg"},{"bike_id":"181b1742-09ee-46ab-8712-67d8396af664","system_id":"levelo_inurba_marseille","lat":43.24169,"lon":5.39735,"is_reserved":false,"is_disabled":false,"rental_uris":{"android":"levelo://app?vid=181b1742-09ee-46ab-8712-67d8396af664","ios":"levelo://app?vid=181b1742-09ee-46ab-8712-67d8396af664"},"vehicle_type_id":"4","last_reported":1742468925,"current_range_meters":10800,"station_id":"ce4bhn12rcd13ifvqgpg","pricing_plan_id":"cebpf4jnsgd1na2vs0mg"},{"bike_id":"b4f58fb9-f8fc-49f3-b537-d6ea695f1338","system_id":"levelo_inurba_marseille","lat":43.24656,"lon":5.38152,"is_reserved":false,"is_disabled":false,"rental_uris":{"android":"levelo://app?vid=b4f58fb9-f8fc-49f3-b537-d6ea695f1338","ios":"levelo://app?vid=b4f58fb9-f8fc-49f3-b537-d6ea695f1338"},"vehicle_type_id":"4","last_reported":1742468925,"current_range_meters":10800,"station_id":"ce4bhih2rcd13ifvqfr0","pricing_plan_id":"cebpf4jnsgd1na2vs0mg"},{"bike_id":"656819b1-6c56-422d-821a-f6d7648044c6","system_id":"levelo_inurba_marseille","lat":43.29307,"lon":5.37453,"is_reserved":false,"is_disabled":false,"rental_uris":{"android":"levelo://app?vid=656819b1-6c56-422d-821a-f6d7648044c6","ios":"levelo://app?vid=656819b1-6c56-422d-821a-f6d7648044c6"},"vehicle_type_id":"4","last_reported":1742468925,"current_range_meters":11200,"station_id":"ce4bgi12rcd13ifvqb70","pricing_plan_id":"cebpf4jnsgd1na2vs0mg"},{"bike_id":"4cca65a9-4dd3-4b43-b23a-1819e695d45d","system_id":"levelo_inurba_marseille","lat":43.2558,"lon":5.38236,"is_reserved":false,"is_disabled":false,"rental_uris":{"android":"levelo://app?vid=4cca65a9-4dd3-4b43-b23a-1819e695d45d","ios":"levelo://app?vid=4cca65a9-4dd3-4b43-b23a-1819e695d45d"},"vehicle_type_id":"4","last_reported":1742468925,"current_range_meters":11200,"station_id":"ce4bhih2rcd13ifvqfs0","pricing_plan_id":"cebpf4jnsgd1na2vs0mg"},{"bike_id":"ffbee1c9-ab8d-45ee-b606-c546ab78c5f2","system_id":"levelo_inurba_marseille","lat":43.29727,"lon":5.3779,"is_reserved":false,"is_disabled":false,"rental_uris":{"android":"levelo://app?vid=ffbee1c9-ab8d-45ee-b606-c546ab78c5f2","ios":"levelo://app?vid=ffbee1c9-ab8d-45ee-b606-c546ab78c5f2"},"vehicle_type_id":"4","last_reported":1742468925,"current_range_meters":11200,"station_id":"","pricing_plan_id":"cebpf4jnsgd1na2vs0mg"},{"bike_id":"b9e4bdd0-024c-4547-9a94-39d0c7923642","system_id":"levelo_inurba_marseille","lat":43.24178,"lon":5.36413,"is_reserved":false,"is_disabled":false,"rental_uris":{"android":"levelo://app?vid=b9e4bdd0-024c-4547-9a94-39d0c7923642","ios":"levelo://app?vid=b9e4bdd0-024c-4547-9a94-39d0c7923642"},"vehicle_type_id":"4","last_reported":1742468925,"current_range_meters":11200,"station_id":"cpo36qri1sfpv3e86is0","pricing_plan_id":"cebpf4jnsgd1na2vs0mg"},{"bike_id":"dab1c3ed-46b1-42c7-85a1-b7bcc5fe2c54","system_id":"levelo_inurba_marseille","lat":43.28615,"lon":5.35096,"is_reserved":false,"is_disabled":false,"rental_uris":{"android":"levelo://app?vid=dab1c3ed-46b1-42c7-85a1-b7bcc5fe2c54","ios":"levelo://app?vid=dab1c3ed-46b1-42c7-85a1-b7bcc5fe2c54"},"vehicle_type_id":"4","last_reported":1742468925,"current_range_meters":11200,"station_id":"ce4bhch2rcd13ifvqeug","pricing_plan_id":"cebpf4jnsgd1na2vs0mg"},{"bike_id":"5d62495c-1a5a-4f19-b9bb-6f00a3cd19e9","system_id":"levelo_inurba_marseille","lat":43.25715,"lon":5.41112,"is_reserved":false,"is_disabled":false,"rental_uris":{"android":"levelo://app?vid=5d62495c-1a5a-4f19-b9bb-6f00a3cd19e9","ios":"levelo://app?vid=5d62495c-1a5a-4f19-b9bb-6f00a3cd19e9"},"vehicle_type_id":"4","last_reported":1742468925,"current_range_meters":11200,"station_id":"ce4bhkp2rcd13ifvqgd0","pricing_plan_id":"cebpf4jnsgd1na2vs0mg"},{"bike_id":"c1fee397-eb82-45c7-870d-cce72727b627","system_id":"levelo_inurba_marseille","lat":43.29932,"lon":5.36478,"is_reserved":false,"is_disabled":false,"rental_uris":{"android":"levelo://app?vid=c1fee397-eb82-45c7-870d-cce72727b627","ios":"levelo://app?vid=c1fee397-eb82-45c7-870d-cce72727b627"},"vehicle_type_id":"4","last_reported":1742468925,"current_range_meters":11200,"station_id":"ce4bgm92rcd13ifvqbr0","pricing_plan_id":"cebpf4jnsgd1na2vs0mg"},{"bike_id":"eb583d19-0742-4b56-b05e-93bdb506dacf","system_id":"levelo_inurba_marseille","lat":43.28266,"lon":5.35071,"is_reserved":false,"is_disabled":false,"rental_uris":{"android":"levelo://app?vid=eb583d19-0742-4b56-b05e-93bdb506dacf","ios":"levelo://app?vid=eb583d19-0742-4b56-b05e-93bdb506dacf"},"vehicle_type_id":"4","last_reported":1742468925,"current_range_meters":11200,"station_id":"ce4bhbp2rcd13ifvqerg","pricing_plan_id":"cebpf4jnsgd1na2vs0mg"},{"bike_id":"c5bb5dca-1dc9-450e-9a3d-9fa737cf345d","system_id":"levelo_inurba_marseille","lat":43.24651,"lon":5.38893,"is_reserved":false,"is_disabled":false,"rental_uris":{"android":"levelo://app?vid=c5bb5dca-1dc9-450e-9a3d-9fa737cf345d","ios":"levelo://app?vid=c5bb5dca-1dc9-450e-9a3d-9fa737cf345d"},"vehicle_type_id":"4","last_reported":1742468925,"current_range_meters":11200,"station_id":"ce4bhg12rcd13ifvqf60","pricing_plan_id":"cebpf4jnsgd1na2vs0mg"},{"bike_id":"e4fa4be4-c48f-4bf6-af84-7a8304cec4b3","system_id":"levelo_inurba_marseille","lat":43.24178,"lon":5.39701,"is_reserved":false,"is_disabled":false,"rental_uris":{"android":"levelo://app?vid=e4fa4be4-c48f-4bf6-af84-7a8304cec4b3","ios":"levelo://app?vid=e4fa4be4-c48f-4bf6-af84-7a8304cec4b3"},"vehicle_type_id":"4","last_reported":1742468925,"current_range_meters":11600,"station_id":"ce4bhn12rcd13ifvqgpg","pricing_plan_id":"cebpf4jnsgd1na2vs0mg"},{"bike_id":"283cde16-862d-4cb4-b9ea-c4b70449f073","system_id":"levelo_inurba_marseille","lat":43.270551,"lon":5.402567,"is_reserved":false,"is_disabled":false,"rental_uris":{"android":"levelo://app?vid=283cde16-862d-4cb4-b9ea-c4b70449f073","ios":"levelo://app?vid=283cde16-862d-4cb4-b9ea-c4b70449f073"},"vehicle_type_id":"4","last_reported":1742468925,"current_range_meters":11600,"station_id":"ce4bhk92rcd13ifvqgb0","pricing_plan_id":"cebpf4jnsgd1na2vs0mg"},{"bike_id":"63fdbd23-b53c-4970-bf63-e82cffd68abf","system_id":"levelo_inurba_marseille","lat":43.29295,"lon":5.3746,"is_reserved":false,"is_disabled":false,"rental_uris":{"android":"levelo://app?vid=63fdbd23-b53c-4970-bf63-e82cffd68abf","ios":"levelo://app?vid=63fdbd23-b53c-4970-bf63-e82cffd68abf"},"vehicle_type_id":"4","last_reported":1742468925,"current_range_meters":11600,"station_id":"ce4bgi12rcd13ifvqb70","pricing_plan_id":"cebpf4jnsgd1na2vs0mg"},{"bike_id":"c5544639-2d44-4b2d-a154-7c53abb9719f","system_id":"levelo_inurba_marseille","lat":43.24086,"lon":5.37766,"is_reserved":false,"is_disabled":false,"rental_uris":{"android":"levelo://app?vid=c5544639-2d44-4b2d-a154-7c53abb9719f","ios":"levelo://app?vid=c5544639-2d44-4b2d-a154-7c53abb9719f"},"vehicle_type_id":"4","last_reported":1742468925,"current_range_meters":11600,"station_id":"ce4bhnp2rcd13ifvqgvg","pricing_plan_id":"cebpf4jnsgd1na2vs0mg"},{"bike_id":"91bbc4d7-c30f-4b98-bc8f-0b3299ccfa54","system_id":"levelo_inurba_marseille","lat":43.27375,"lon":5.36229,"is_reserved":false,"is_disabled":false,"rental_uris":{"android":"levelo://app?vid=91bbc4d7-c30f-4b98-bc8f-0b3299ccfa54","ios":"levelo://app?vid=91bbc4d7-c30f-4b98-bc8f-0b3299ccfa54"},"vehicle_type_id":"4","last_reported":1742468925,"current_range_meters":11600,"station_id":"ce4bhbh2rcd13ifvqeo0","pricing_plan_id":"cebpf4jnsgd1na2vs0mg"},{"bike_id":"04d2a356-7d5e-4949-b4ea-4404597c7bfe","system_id":"levelo_inurba_marseille","lat":43.27963,"lon":5.38714,"is_reserved":false,"is_disabled":false,"rental_uris":{"android":"levelo://app?vid=04d2a356-7d5e-4949-b4ea-4404597c7bfe","ios":"levelo://app?vid=04d2a356-7d5e-4949-b4ea-4404597c7bfe"},"vehicle_type_id":"4","last_reported":1742468925,"current_range_meters":11600,"station_id":"ce4bhg12rcd13ifvqf80","pricing_plan_id":"cebpf4jnsgd1na2vs0mg"},{"bike_id":"013c714a-b697-47cd-af2f-af6187385e15","system_id":"levelo_inurba_marseille","lat":43.29254,"lon":5.37617,"is_reserved":false,"is_disabled":false,"rental_uris":{"android":"levelo://app?vid=013c714a-b697-47cd-af2f-af6187385e15","ios":"levelo://app?vid=013c714a-b697-47cd-af2f-af6187385e15"},"vehicle_type_id":"4","last_reported":1742468925,"current_range_meters":11600,"station_id":"ce4bgi12rcd13ifvqb80","pricing_plan_id":"cebpf4jnsgd1na2vs0mg"},{"bike_id":"067fb92d-3b64-43d5-9d88-fcb8897d2567","system_id":"levelo_inurba_marseille","lat":43.28619,"lon":5.35099,"is_reserved":false,"is_disabled":false,"rental_uris":{"android":"levelo://app?vid=067fb92d-3b64-43d5-9d88-fcb8897d2567","ios":"levelo://app?vid=067fb92d-3b64-43d5-9d88-fcb8897d2567"},"vehicle_type_id":"4","last_reported":1742468925,"current_range_meters":11600,"station_id":"ce4bhch2rcd13ifvqeug","pricing_plan_id":"cebpf4jnsgd1na2vs0mg"},{"bike_id":"7f5403ad-fad3-4cbf-b8cc-f170709e7977","system_id":"levelo_inurba_marseille","lat":43.27054,"lon":5.4026,"is_reserved":false,"is_disabled":false,"rental_uris":{"android":"levelo://app?vid=7f5403ad-fad3-4cbf-b8cc-f170709e7977","ios":"levelo://app?vid=7f5403ad-fad3-4cbf-b8cc-f170709e7977"},"vehicle_type_id":"4","last_reported":1742468925,"current_range_meters":11600,"station_id":"ce4bhk92rcd13ifvqgc0","pricing_plan_id":"cebpf4jnsgd1na2vs0mg"},{"bike_id":"ca7a3df8-4d19-4a9e-8fab-8765954593c0","system_id":"levelo_inurba_marseille","lat":43.2315,"lon":5.43712,"is_reserved":false,"is_disabled":false,"rental_uris":{"android":"levelo://app?vid=ca7a3df8-4d19-4a9e-8fab-8765954593c0","ios":"levelo://app?vid=ca7a3df8-4d19-4a9e-8fab-8765954593c0"},"vehicle_type_id":"4","last_reported":1742468925,"current_range_meters":12000,"station_id":"ce4bhmp2rcd13ifvqgog","pricing_plan_id":"cebpf4jnsgd1na2vs0mg"},{"bike_id":"cfcd43ac-55d6-41fe-bcae-b87609468037","system_id":"levelo_inurba_marseille","lat":43.27673,"lon":5.38893,"is_reserved":false,"is_disabled":true,"rental_uris":{"android":"levelo://app?vid=cfcd43ac-55d6-41fe-bcae-b87609468037","ios":"levelo://app?vid=cfcd43ac-55d6-41fe-bcae-b87609468037"},"vehicle_type_id":"4","last_reported":1742468925,"current_range_meters":12000,"station_id":"ce4bhi12rcd13ifvqfo0","pricing_plan_id":"cebpf4jnsgd1na2vs0mg"},{"bike_id":"7c6d8120-118c-419e-9a61-b050de9f67a1","system_id":"levelo_inurba_marseille","lat":43.27499,"lon":5.42461,"is_reserved":false,"is_disabled":false,"rental_uris":{"android":"levelo://app?vid=7c6d8120-118c-419e-9a61-b050de9f67a1","ios":"levelo://app?vid=7c6d8120-118c-419e-9a61-b050de9f67a1"},"vehicle_type_id":"4","last_reported":1742468925,"current_range_meters":12000,"station_id":"ce4bhn92rcd13ifvqgrg","pricing_plan_id":"cebpf4jnsgd1na2vs0mg"},{"bike_id":"6370e802-1ce7-46b3-ab38-c299ec041499","system_id":"levelo_inurba_marseille","lat":43.26679,"lon":5.38227,"is_reserved":false,"is_disabled":false,"rental_uris":{"android":"levelo://app?vid=6370e802-1ce7-46b3-ab38-c299ec041499","ios":"levelo://app?vid=6370e802-1ce7-46b3-ab38-c299ec041499"},"vehicle_type_id":"4","last_reported":1742468925,"current_range_meters":12000,"station_id":"ce4bhg92rcd13ifvqf90","pricing_plan_id":"cebpf4jnsgd1na2vs0mg"},{"bike_id":"e3c72274-226f-4832-b86c-1558672a364b","system_id":"levelo_inurba_marseille","lat":43.27992,"lon":5.41675,"is_reserved":false,"is_disabled":false,"rental_uris":{"android":"levelo://app?vid=e3c72274-226f-4832-b86c-1558672a364b","ios":"levelo://app?vid=e3c72274-226f-4832-b86c-1558672a364b"},"vehicle_type_id":"4","last_reported":1742468925,"current_range_meters":12000,"station_id":"ce4bho12rcd13ifvqh1g","pricing_plan_id":"cebpf4jnsgd1na2vs0mg"},{"bike_id":"4c44c71d-64d5-4bb1-9445-5c9bbff69c6e","system_id":"levelo_inurba_marseille","lat":43.24074,"lon":5.37742,"is_reserved":false,"is_disabled":false,"rental_uris":{"android":"levelo://app?vid=4c44c71d-64d5-4bb1-9445-5c9bbff69c6e","ios":"levelo://app?vid=4c44c71d-64d5-4bb1-9445-5c9bbff69c6e"},"vehicle_type_id":"4","last_reported":1742468925,"current_range_meters":12000,"station_id":"ce4bhnp2rcd13ifvqgvg","pricing_plan_id":"cebpf4jnsgd1na2vs0mg"},{"bike_id":"64998481-b10a-4fa2-9aa3-20137eb99f9d","system_id":"levelo_inurba_marseille","lat":43.24071,"lon":5.37757,"is_reserved":false,"is_disabled":false,"rental_uris":{"android":"levelo://app?vid=64998481-b10a-4fa2-9aa3-20137eb99f9d","ios":"levelo://app?vid=64998481-b10a-4fa2-9aa3-20137eb99f9d"},"vehicle_type_id":"4","last_reported":1742468925,"current_range_meters":12000,"station_id":"ce4bhnp2rcd13ifvqgvg","pricing_plan_id":"cebpf4jnsgd1na2vs0mg"},{"bike_id":"58e33d66-73b1-42e5-adf0-ae2ed48c5043","system_id":"levelo_inurba_marseille","lat":43.32452,"lon":5.36497,"is_reserved":false,"is_disabled":false,"rental_uris":{"android":"levelo://app?vid=58e33d66-73b1-42e5-adf0-ae2ed48c5043","ios":"levelo://app?vid=58e33d66-73b1-42e5-adf0-ae2ed48c5043"},"vehicle_type_id":"4","last_reported":1742468925,"current_range_meters":12000,"station_id":"ce4bhs12rcd13ifvqhvg","pricing_plan_id":"cebpf4jnsgd1na2vs0mg"},{"bike_id":"828f3afb-adb3-4859-adfd-f48cda63f0a1","system_id":"levelo_inurba_marseille","lat":43.312452,"lon":5.389259,"is_reserved":false,"is_disabled":false,"rental_uris":{"android":"levelo://app?vid=828f3afb-adb3-4859-adfd-f48cda63f0a1","ios":"levelo://app?vid=828f3afb-adb3-4859-adfd-f48cda63f0a1"},"vehicle_type_id":"4","last_reported":1742468925,"current_range_meters":12400,"station_id":"ce4bh092rcd13ifvqd20","pricing_plan_id":"cebpf4jnsgd1na2vs0mg"},{"bike_id":"f9f6f8af-332d-4a1c-9b62-9b22b5df8260","system_id":"levelo_inurba_marseille","lat":43.27683,"lon":5.38884,"is_reserved":false,"is_disabled":false,"rental_uris":{"android":"levelo://app?vid=f9f6f8af-332d-4a1c-9b62-9b22b5df8260","ios":"levelo://app?vid=f9f6f8af-332d-4a1c-9b62-9b22b5df8260"},"vehicle_type_id":"4","last_reported":1742468925,"current_range_meters":12400,"station_id":"ce4bhi12rcd13ifvqfo0","pricing_plan_id":"cebpf4jnsgd1na2vs0mg"},{"bike_id":"bd2bc96d-2a9a-4a92-9c7b-27c5922b3d45","system_id":"levelo_inurba_marseille","lat":43.29007,"lon":5.35617,"is_reserved":false,"is_disabled":false,"rental_uris":{"android":"levelo://app?vid=bd2bc96d-2a9a-4a92-9c7b-27c5922b3d45","ios":"levelo://app?vid=bd2bc96d-2a9a-4a92-9c7b-27c5922b3d45"},"vehicle_type_id":"4","last_reported":1742468925,"current_range_meters":12000,"station_id":"ce4bhb92rcd13ifvqen0","pricing_plan_id":"cebpf4jnsgd1na2vs0mg"},{"bike_id":"c0330771-3f52-467d-9900-3af158589512","system_id":"levelo_inurba_marseille","lat":43.30797,"lon":5.38139,"is_reserved":false,"is_disabled":false,"rental_uris":{"android":"levelo://app?vid=c0330771-3f52-467d-9900-3af158589512","ios":"levelo://app?vid=c0330771-3f52-467d-9900-3af158589512"},"vehicle_type_id":"4","last_reported":1742468925,"current_range_meters":12400,"station_id":"ce4bgt12rcd13ifvqce0","pricing_plan_id":"cebpf4jnsgd1na2vs0mg"},{"bike_id":"2d0704fe-1c6d-4d05-b3a3-e4da29f501c3","system_id":"levelo_inurba_marseille","lat":43.290134,"lon":5.39975,"is_reserved":false,"is_disabled":false,"rental_uris":{"android":"levelo://app?vid=2d0704fe-1c6d-4d05-b3a3-e4da29f501c3","ios":"levelo://app?vid=2d0704fe-1c6d-4d05-b3a3-e4da29f501c3"},"vehicle_type_id":"4","last_reported":1742468925,"current_range_meters":12800,"station_id":"ce4bh392rcd13ifvqdm0","pricing_plan_id":"cebpf4jnsgd1na2vs0mg"},{"bike_id":"d88871c7-84ca-4733-bb3b-a22d1cf9f7c3","system_id":"levelo_inurba_marseille","lat":43.25576,"lon":5.38233,"is_reserved":false,"is_disabled":false,"rental_uris":{"android":"levelo://app?vid=d88871c7-84ca-4733-bb3b-a22d1cf9f7c3","ios":"levelo://app?vid=d88871c7-84ca-4733-bb3b-a22d1cf9f7c3"},"vehicle_type_id":"4","last_reported":1742468925,"current_range_meters":12400,"station_id":"ce4bhih2rcd13ifvqfs0","pricing_plan_id":"cebpf4jnsgd1na2vs0mg"},{"bike_id":"10040ff5-09c7-4549-9697-fbeae20cf216","system_id":"levelo_inurba_marseille","lat":43.24649,"lon":5.38885,"is_reserved":false,"is_disabled":false,"rental_uris":{"android":"levelo://app?vid=10040ff5-09c7-4549-9697-fbeae20cf216","ios":"levelo://app?vid=10040ff5-09c7-4549-9697-fbeae20cf216"},"vehicle_type_id":"4","last_reported":1742468925,"current_range_meters":12800,"station_id":"ce4bhg12rcd13ifvqf60","pricing_plan_id":"cebpf4jnsgd1na2vs0mg"},{"bike_id":"74eba055-d07c-4ec5-982d-51190b75a7f4","system_id":"levelo_inurba_marseille","lat":43.29223,"lon":5.36071,"is_reserved":false,"is_disabled":false,"rental_uris":{"android":"levelo://app?vid=74eba055-d07c-4ec5-982d-51190b75a7f4","ios":"levelo://app?vid=74eba055-d07c-4ec5-982d-51190b75a7f4"},"vehicle_type_id":"4","last_reported":1742468925,"current_range_meters":12800,"station_id":"ce4bhbh2rcd13ifvqeqg","pricing_plan_id":"cebpf4jnsgd1na2vs0mg"},{"bike_id":"f336ecd0-5a86-4cbf-8460-9816c2555f5b","system_id":"levelo_inurba_marseille","lat":43.30612,"lon":5.37213,"is_reserved":false,"is_disabled":false,"rental_uris":{"android":"levelo://app?vid=f336ecd0-5a86-4cbf-8460-9816c2555f5b","ios":"levelo://app?vid=f336ecd0-5a86-4cbf-8460-9816c2555f5b"},"vehicle_type_id":"4","last_reported":1742468925,"current_range_meters":12400,"station_id":"ce4bgqh2rcd13ifvqc4g","pricing_plan_id":"cebpf4jnsgd1na2vs0mg"},{"bike_id":"0c7e2aa7-0470-4fc0-a95b-de8fd614b488","system_id":"levelo_inurba_marseille","lat":43.24798,"lon":5.3745,"is_reserved":false,"is_disabled":false,"rental_uris":{"android":"levelo://app?vid=0c7e2aa7-0470-4fc0-a95b-de8fd614b488","ios":"levelo://app?vid=0c7e2aa7-0470-4fc0-a95b-de8fd614b488"},"vehicle_type_id":"4","last_reported":1742468925,"current_range_meters":12800,"station_id":"ce4bhgh2rcd13ifvqfb0","pricing_plan_id":"cebpf4jnsgd1na2vs0mg"},{"bike_id":"1c3b5361-695c-4ccc-94f9-aca7f37b6d45","system_id":"levelo_inurba_marseille","lat":43.23188,"lon":5.35555,"is_reserved":false,"is_disabled":false,"rental_uris":{"android":"levelo://app?vid=1c3b5361-695c-4ccc-94f9-aca7f37b6d45","ios":"levelo://app?vid=1c3b5361-695c-4ccc-94f9-aca7f37b6d45"},"vehicle_type_id":"4","last_reported":1742468925,"current_range_meters":13600,"station_id":"ce4bhu92rcd13ifvqi70","pricing_plan_id":"cebpf4jnsgd1na2vs0mg"},{"bike_id":"16dd521d-50df-4f0b-a335-57ba62bdd742","system_id":"levelo_inurba_marseille","lat":43.24077,"lon":5.37736,"is_reserved":false,"is_disabled":false,"rental_uris":{"android":"levelo://app?vid=16dd521d-50df-4f0b-a335-57ba62bdd742","ios":"levelo://app?vid=16dd521d-50df-4f0b-a335-57ba62bdd742"},"vehicle_type_id":"4","last_reported":1742468925,"current_range_meters":13600,"station_id":"ce4bhnp2rcd13ifvqgvg","pricing_plan_id":"cebpf4jnsgd1na2vs0mg"},{"bike_id":"90c6e89f-484d-47db-bd3a-45185895d38d","system_id":"levelo_inurba_marseille","lat":43.27982,"lon":5.38748,"is_reserved":false,"is_disabled":false,"rental_uris":{"android":"levelo://app?vid=90c6e89f-484d-47db-bd3a-45185895d38d","ios":"levelo://app?vid=90c6e89f-484d-47db-bd3a-45185895d38d"},"vehicle_type_id":"4","last_reported":1742468925,"current_range_meters":13600,"station_id":"ce4bhg12rcd13ifvqf80","pricing_plan_id":"cebpf4jnsgd1na2vs0mg"},{"bike_id":"efb0bc27-b8ec-4036-be31-f3c9e277cd92","system_id":"levelo_inurba_marseille","lat":43.23149,"lon":5.43704,"is_reserved":false,"is_disabled":false,"rental_uris":{"android":"levelo://app?vid=efb0bc27-b8ec-4036-be31-f3c9e277cd92","ios":"levelo://app?vid=efb0bc27-b8ec-4036-be31-f3c9e277cd92"},"vehicle_type_id":"4","last_reported":1742468925,"current_range_meters":13600,"station_id":"ce4bhmp2rcd13ifvqgog","pricing_plan_id":"cebpf4jnsgd1na2vs0mg"},{"bike_id":"33eac996-04c1-4244-862e-d262aa2b7f9f","system_id":"levelo_inurba_marseille","lat":43.29934,"lon":5.36525,"is_reserved":false,"is_disabled":false,"rental_uris":{"android":"levelo://app?vid=33eac996-04c1-4244-862e-d262aa2b7f9f","ios":"levelo://app?vid=33eac996-04c1-4244-862e-d262aa2b7f9f"},"vehicle_type_id":"4","last_reported":1742468925,"current_range_meters":14000,"station_id":"ce4bgm92rcd13ifvqbr0","pricing_plan_id":"cebpf4jnsgd1na2vs0mg"},{"bike_id":"e4fc7180-47fc-41d1-9e74-3e097a66c6c6","system_id":"levelo_inurba_marseille","lat":43.32286,"lon":5.38278,"is_reserved":false,"is_disabled":false,"rental_uris":{"android":"levelo://app?vid=e4fc7180-47fc-41d1-9e74-3e097a66c6c6","ios":"levelo://app?vid=e4fc7180-47fc-41d1-9e74-3e097a66c6c6"},"vehicle_type_id":"4","last_reported":1742468925,"current_range_meters":13600,"station_id":"ce4bhr12rcd13ifvqhqg","pricing_plan_id":"cebpf4jnsgd1na2vs0mg"},{"bike_id":"1d30afca-95f8-47f1-9bab-62e98fe2a186","system_id":"levelo_inurba_marseille","lat":43.31331,"lon":5.36709,"is_reserved":false,"is_disabled":false,"rental_uris":{"android":"levelo://app?vid=1d30afca-95f8-47f1-9bab-62e98fe2a186","ios":"levelo://app?vid=1d30afca-95f8-47f1-9bab-62e98fe2a186"},"vehicle_type_id":"4","last_reported":1742468925,"current_range_meters":13600,"station_id":"ce4bgr92rcd13ifvqc6g","pricing_plan_id":"cebpf4jnsgd1na2vs0mg"},{"bike_id":"70f17b6e-037c-4472-8219-ed449c51a21a","system_id":"levelo_inurba_marseille","lat":43.31217,"lon":5.36858,"is_reserved":false,"is_disabled":false,"rental_uris":{"android":"levelo://app?vid=70f17b6e-037c-4472-8219-ed449c51a21a","ios":"levelo://app?vid=70f17b6e-037c-4472-8219-ed449c51a21a"},"vehicle_type_id":"4","last_reported":1742468925,"current_range_meters":14000,"station_id":"ce4bgl92rcd13ifvqbq0","pricing_plan_id":"cebpf4jnsgd1na2vs0mg"},{"bike_id":"9d0477c1-d8f4-4296-b8cc-deced49c0a78","system_id":"levelo_inurba_marseille","lat":43.284396,"lon":5.392072,"is_reserved":false,"is_disabled":false,"rental_uris":{"android":"levelo://app?vid=9d0477c1-d8f4-4296-b8cc-deced49c0a78","ios":"levelo://app?vid=9d0477c1-d8f4-4296-b8cc-deced49c0a78"},"vehicle_type_id":"4","last_reported":1742468925,"current_range_meters":14000,"station_id":"cjm6bp8fraef2m0cb0m0","pricing_plan_id":"cebpf4jnsgd1na2vs0mg"},{"bike_id":"8fc5e9f5-1512-4b22-b1b4-b81ab52c9b59","system_id":"levelo_inurba_marseille","lat":43.26208,"lon":5.37441,"is_reserved":false,"is_disabled":false,"rental_uris":{"android":"levelo://app?vid=8fc5e9f5-1512-4b22-b1b4-b81ab52c9b59","ios":"levelo://app?vid=8fc5e9f5-1512-4b22-b1b4-b81ab52c9b59"},"vehicle_type_id":"4","last_reported":1742468925,"current_range_meters":14000,"station_id":"ce4bhgp2rcd13ifvqfc0","pricing_plan_id":"cebpf4jnsgd1na2vs0mg"},{"bike_id":"1af1b0d7-fabb-4d30-bce6-8d35bcd5474e","system_id":"levelo_inurba_marseille","lat":43.24545,"lon":5.39523,"is_reserved":false,"is_disabled":false,"rental_uris":{"android":"levelo://app?vid=1af1b0d7-fabb-4d30-bce6-8d35bcd5474e","ios":"levelo://app?vid=1af1b0d7-fabb-4d30-bce6-8d35bcd5474e"},"vehicle_type_id":"4","last_reported":1742468925,"current_range_meters":14000,"station_id":"ce4bhlp2rcd13ifvqgjg","pricing_plan_id":"cebpf4jnsgd1na2vs0mg"},{"bike_id":"42510201-02b4-4f38-82bc-9dc134d4342c","system_id":"levelo_inurba_marseille","lat":43.22932,"lon":5.35377,"is_reserved":false,"is_disabled":false,"rental_uris":{"android":"levelo://app?vid=42510201-02b4-4f38-82bc-9dc134d4342c","ios":"levelo://app?vid=42510201-02b4-4f38-82bc-9dc134d4342c"},"vehicle_type_id":"4","last_reported":1742468925,"current_range_meters":14000,"station_id":"cpo3532slgdg3j2ikp40","pricing_plan_id":"cebpf4jnsgd1na2vs0mg"},{"bike_id":"ca4f38ad-a911-4729-9bf0-9cd10d233cd4","system_id":"levelo_inurba_marseille","lat":43.31356,"lon":5.36689,"is_reserved":false,"is_disabled":false,"rental_uris":{"android":"levelo://app?vid=ca4f38ad-a911-4729-9bf0-9cd10d233cd4","ios":"levelo://app?vid=ca4f38ad-a911-4729-9bf0-9cd10d233cd4"},"vehicle_type_id":"4","last_reported":1742468925,"current_range_meters":14000,"station_id":"ce4bgr92rcd13ifvqc6g","pricing_plan_id":"cebpf4jnsgd1na2vs0mg"},{"bike_id":"5f70d216-c22b-4aba-8c0c-4a1deab6ce2e","system_id":"levelo_inurba_marseille","lat":43.29889,"lon":5.43662,"is_reserved":false,"is_disabled":false,"rental_uris":{"android":"levelo://app?vid=5f70d216-c22b-4aba-8c0c-4a1deab6ce2e","ios":"levelo://app?vid=5f70d216-c22b-4aba-8c0c-4a1deab6ce2e"},"vehicle_type_id":"4","last_reported":1742468925,"current_range_meters":14000,"station_id":"ce4bhpp2rcd13ifvqhfg","pricing_plan_id":"cebpf4jnsgd1na2vs0mg"},{"bike_id":"83fe4b7d-c313-402b-a1b1-9f765824d193","system_id":"levelo_inurba_marseille","lat":43.2619,"lon":5.37451,"is_reserved":false,"is_disabled":false,"rental_uris":{"android":"levelo://app?vid=83fe4b7d-c313-402b-a1b1-9f765824d193","ios":"levelo://app?vid=83fe4b7d-c313-402b-a1b1-9f765824d193"},"vehicle_type_id":"4","last_reported":1742468925,"current_range_meters":14000,"station_id":"ce4bhgp2rcd13ifvqfc0","pricing_plan_id":"cebpf4jnsgd1na2vs0mg"},{"bike_id":"dab5b599-564f-470d-b857-a9674d507c49","system_id":"levelo_inurba_marseille","lat":43.25935,"lon":5.40875,"is_reserved":false,"is_disabled":false,"rental_uris":{"android":"levelo://app?vid=dab5b599-564f-470d-b857-a9674d507c49","ios":"levelo://app?vid=dab5b599-564f-470d-b857-a9674d507c49"},"vehicle_type_id":"4","last_reported":1742468925,"current_range_meters":14400,"station_id":"ce4bhm92rcd13ifvqglg","pricing_plan_id":"cebpf4jnsgd1na2vs0mg"},{"bike_id":"3617cbbc-7248-4128-9e1a-6d36dd5192f1","system_id":"levelo_inurba_marseille","lat":43.3089,"lon":5.37192,"is_reserved":false,"is_disabled":false,"rental_uris":{"android":"levelo://app?vid=3617cbbc-7248-4128-9e1a-6d36dd5192f1","ios":"levelo://app?vid=3617cbbc-7248-4128-9e1a-6d36dd5192f1"},"vehicle_type_id":"4","last_reported":1742468925,"current_range_meters":14400,"station_id":"ce4bguh2rcd13ifvqckg","pricing_plan_id":"cebpf4jnsgd1na2vs0mg"},{"bike_id":"0f4829c5-f12d-44ea-8a46-b6170105c343","system_id":"levelo_inurba_marseille","lat":43.23061,"lon":5.355,"is_reserved":false,"is_disabled":false,"rental_uris":{"android":"levelo://app?vid=0f4829c5-f12d-44ea-8a46-b6170105c343","ios":"levelo://app?vid=0f4829c5-f12d-44ea-8a46-b6170105c343"},"vehicle_type_id":"4","last_reported":1742468925,"current_range_meters":14800,"station_id":"cpo3342slgdg3j2ifvpg","pricing_plan_id":"cebpf4jnsgd1na2vs0mg"},{"bike_id":"7d533c3d-be34-4b0e-b05d-d42132d55da9","system_id":"levelo_inurba_marseille","lat":43.30547,"lon":5.36544,"is_reserved":false,"is_disabled":false,"rental_uris":{"android":"levelo://app?vid=7d533c3d-be34-4b0e-b05d-d42132d55da9","ios":"levelo://app?vid=7d533c3d-be34-4b0e-b05d-d42132d55da9"},"vehicle_type_id":"4","last_reported":1742468925,"current_range_meters":14400,"station_id":"ce4bgs12rcd13ifvqcag","pricing_plan_id":"cebpf4jnsgd1na2vs0mg"},{"bike_id":"e797a1cf-77c9-45f7-b0bb-815cb8d773ff","system_id":"levelo_inurba_marseille","lat":43.232496,"lon":5.399789,"is_reserved":false,"is_disabled":false,"rental_uris":{"android":"levelo://app?vid=e797a1cf-77c9-45f7-b0bb-815cb8d773ff","ios":"levelo://app?vid=e797a1cf-77c9-45f7-b0bb-815cb8d773ff"},"vehicle_type_id":"4","last_reported":1742468925,"current_range_meters":14400,"station_id":"ce4bhn12rcd13ifvqgqg","pricing_plan_id":"cebpf4jnsgd1na2vs0mg"},{"bike_id":"0679ab17-a3e2-4651-925b-9a6d2ccb70e6","system_id":"levelo_inurba_marseille","lat":43.2953,"lon":5.39039,"is_reserved":false,"is_disabled":false,"rental_uris":{"android":"levelo://app?vid=0679ab17-a3e2-4651-925b-9a6d2ccb70e6","ios":"levelo://app?vid=0679ab17-a3e2-4651-925b-9a6d2ccb70e6"},"vehicle_type_id":"4","last_reported":1742468925,"current_range_meters":14800,"station_id":"ce4bh3p2rcd13ifvqdp0","pricing_plan_id":"cebpf4jnsgd1na2vs0mg"},{"bike_id":"2678929a-312d-4089-b116-1e816de7db90","system_id":"levelo_inurba_marseille","lat":43.32111,"lon":5.36772,"is_reserved":false,"is_disabled":false,"rental_uris":{"android":"levelo://app?vid=2678929a-312d-4089-b116-1e816de7db90","ios":"levelo://app?vid=2678929a-312d-4089-b116-1e816de7db90"},"vehicle_type_id":"4","last_reported":1742468925,"current_range_meters":14800,"station_id":"ce4bhrh2rcd13ifvqhug","pricing_plan_id":"cebpf4jnsgd1na2vs0mg"},{"bike_id":"e9427aa9-d345-4fc9-9f47-a9cbea62d3fc","system_id":"levelo_inurba_marseille","lat":43.30295,"lon":5.39222,"is_reserved":false,"is_disabled":false,"rental_uris":{"android":"levelo://app?vid=e9427aa9-d345-4fc9-9f47-a9cbea62d3fc","ios":"levelo://app?vid=e9427aa9-d345-4fc9-9f47-a9cbea62d3fc"},"vehicle_type_id":"4","last_reported":1742468925,"current_range_meters":14800,"station_id":"ce4bgkh2rcd13ifvqbk0","pricing_plan_id":"cebpf4jnsgd1na2vs0mg"},{"bike_id":"750c8726-a58b-4b0e-b51b-8e8a5addc570","system_id":"levelo_inurba_marseille","lat":43.31321,"lon":5.36709,"is_reserved":false,"is_disabled":false,"rental_uris":{"android":"levelo://app?vid=750c8726-a58b-4b0e-b51b-8e8a5addc570","ios":"levelo://app?vid=750c8726-a58b-4b0e-b51b-8e8a5addc570"},"vehicle_type_id":"4","last_reported":1742468925,"current_range_meters":14800,"station_id":"ce4bgr92rcd13ifvqc6g","pricing_plan_id":"cebpf4jnsgd1na2vs0mg"},{"bike_id":"90813bb7-740a-47dc-84af-f93d05de1314","system_id":"levelo_inurba_marseille","lat":43.29637,"lon":5.37708,"is_reserved":false,"is_disabled":false,"rental_uris":{"android":"levelo://app?vid=90813bb7-740a-47dc-84af-f93d05de1314","ios":"levelo://app?vid=90813bb7-740a-47dc-84af-f93d05de1314"},"vehicle_type_id":"4","last_reported":1742468925,"current_range_meters":14800,"station_id":"ce4bgi92rcd13ifvqb90","pricing_plan_id":"cebpf4jnsgd1na2vs0mg"},{"bike_id":"723f25d2-2788-4efb-9c99-163700f902c8","system_id":"levelo_inurba_marseille","lat":43.34145,"lon":5.40891,"is_reserved":false,"is_disabled":false,"rental_uris":{"android":"levelo://app?vid=723f25d2-2788-4efb-9c99-163700f902c8","ios":"levelo://app?vid=723f25d2-2788-4efb-9c99-163700f902c8"},"vehicle_type_id":"4","last_reported":1742468925,"current_range_meters":15200,"station_id":"ce4bhqh2rcd13ifvqhlg","pricing_plan_id":"cebpf4jnsgd1na2vs0mg"},{"bike_id":"484b0653-f61b-438d-b08c-808e8ad65447","system_id":"levelo_inurba_marseille","lat":43.2969,"lon":5.373,"is_reserved":false,"is_disabled":false,"rental_uris":{"android":"levelo://app?vid=484b0653-f61b-438d-b08c-808e8ad65447","ios":"levelo://app?vid=484b0653-f61b-438d-b08c-808e8ad65447"},"vehicle_type_id":"4","last_reported":1742468925,"current_range_meters":14800,"station_id":"ce4bgk12rcd13ifvqbj0","pricing_plan_id":"cebpf4jnsgd1na2vs0mg"},{"bike_id":"37d95ee7-c691-4465-a170-7a4ee5f13dc2","system_id":"levelo_inurba_marseille","lat":43.2794,"lon":5.41045,"is_reserved":false,"is_disabled":false,"rental_uris":{"android":"levelo://app?vid=37d95ee7-c691-4465-a170-7a4ee5f13dc2","ios":"levelo://app?vid=37d95ee7-c691-4465-a170-7a4ee5f13dc2"},"vehicle_type_id":"4","last_reported":1742468925,"current_range_meters":15200,"station_id":"ce4bhnp2rcd13ifvqh0g","pricing_plan_id":"cebpf4jnsgd1na2vs0mg"},{"bike_id":"e3dcf81a-a673-4ac1-be2e-1db043500701","system_id":"levelo_inurba_marseille","lat":43.31216,"lon":5.36851,"is_reserved":false,"is_disabled":false,"rental_uris":{"android":"levelo://app?vid=e3dcf81a-a673-4ac1-be2e-1db043500701","ios":"levelo://app?vid=e3dcf81a-a673-4ac1-be2e-1db043500701"},"vehicle_type_id":"4","last_reported":1742468925,"current_range_meters":15200,"station_id":"ce4bgl92rcd13ifvqbq0","pricing_plan_id":"cebpf4jnsgd1na2vs0mg"},{"bike_id":"0006d531-f37f-48c2-bf29-744372a4b1a0","system_id":"levelo_inurba_marseille","lat":43.2594,"lon":5.40902,"is_reserved":false,"is_disabled":false,"rental_uris":{"android":"levelo://app?vid=0006d531-f37f-48c2-bf29-744372a4b1a0","ios":"levelo://app?vid=0006d531-f37f-48c2-bf29-744372a4b1a0"},"vehicle_type_id":"4","last_reported":1742468925,"current_range_meters":16000,"station_id":"ce4bhm92rcd13ifvqglg","pricing_plan_id":"cebpf4jnsgd1na2vs0mg"},{"bike_id":"3297ba78-94f2-49ea-94bb-3dbe06aac92c","system_id":"levelo_inurba_marseille","lat":43.27065,"lon":5.40265,"is_reserved":false,"is_disabled":false,"rental_uris":{"android":"levelo://app?vid=3297ba78-94f2-49ea-94bb-3dbe06aac92c","ios":"levelo://app?vid=3297ba78-94f2-49ea-94bb-3dbe06aac92c"},"vehicle_type_id":"4","last_reported":1742468925,"current_range_meters":16000,"station_id":"ce4bhk92rcd13ifvqgc0","pricing_plan_id":"cebpf4jnsgd1na2vs0mg"},{"bike_id":"af4ee203-06ac-4234-8175-ec65a2577393","system_id":"levelo_inurba_marseille","lat":43.29911,"lon":5.3813,"is_reserved":false,"is_disabled":false,"rental_uris":{"android":"levelo://app?vid=af4ee203-06ac-4234-8175-ec65a2577393","ios":"levelo://app?vid=af4ee203-06ac-4234-8175-ec65a2577393"},"vehicle_type_id":"4","last_reported":1742468925,"current_range_meters":16000,"station_id":"ce4bgj12rcd13ifvqbc0","pricing_plan_id":"cebpf4jnsgd1na2vs0mg"},{"bike_id":"bf5d7bdb-65a8-4310-b955-6a76e2cbd7fe","system_id":"levelo_inurba_marseille","lat":43.33715,"lon":5.39146,"is_reserved":false,"is_disabled":false,"rental_uris":{"android":"levelo://app?vid=bf5d7bdb-65a8-4310-b955-6a76e2cbd7fe","ios":"levelo://app?vid=bf5d7bdb-65a8-4310-b955-6a76e2cbd7fe"},"vehicle_type_id":"4","last_reported":1742468925,"current_range_meters":16000,"station_id":"ce4bhr92rcd13ifvqhsg","pricing_plan_id":"cebpf4jnsgd1na2vs0mg"},{"bike_id":"11c5b5c4-7e0d-4f6d-8bab-07eec89ea109","system_id":"levelo_inurba_marseille","lat":43.2984,"lon":5.36271,"is_reserved":false,"is_disabled":false,"rental_uris":{"android":"levelo://app?vid=11c5b5c4-7e0d-4f6d-8bab-07eec89ea109","ios":"levelo://app?vid=11c5b5c4-7e0d-4f6d-8bab-07eec89ea109"},"vehicle_type_id":"4","last_reported":1742468925,"current_range_meters":16000,"station_id":"ce4bgpp2rcd13ifvqc3g","pricing_plan_id":"cebpf4jnsgd1na2vs0mg"},{"bike_id":"e71a4828-d837-4677-91d2-366456a16072","system_id":"levelo_inurba_marseille","lat":43.293,"lon":5.37454,"is_reserved":false,"is_disabled":false,"rental_uris":{"android":"levelo://app?vid=e71a4828-d837-4677-91d2-366456a16072","ios":"levelo://app?vid=e71a4828-d837-4677-91d2-366456a16072"},"vehicle_type_id":"4","last_reported":1742468925,"current_range_meters":15200,"station_id":"ce4bgi12rcd13ifvqb70","pricing_plan_id":"cebpf4jnsgd1na2vs0mg"},{"bike_id":"adc2548b-ad78-4fb1-ae0f-d903e947207b","system_id":"levelo_inurba_marseille","lat":43.29967,"lon":5.3849,"is_reserved":false,"is_disabled":false,"rental_uris":{"android":"levelo://app?vid=adc2548b-ad78-4fb1-ae0f-d903e947207b","ios":"levelo://app?vid=adc2548b-ad78-4fb1-ae0f-d903e947207b"},"vehicle_type_id":"4","last_reported":1742468925,"current_range_meters":16400,"station_id":"ce4bgj92rcd13ifvqbd0","pricing_plan_id":"cebpf4jnsgd1na2vs0mg"},{"bike_id":"7a4bddf6-10c8-4ebb-93fe-b6e26b75fc5d","system_id":"levelo_inurba_marseille","lat":43.28715,"lon":5.40003,"is_reserved":false,"is_disabled":false,"rental_uris":{"android":"levelo://app?vid=7a4bddf6-10c8-4ebb-93fe-b6e26b75fc5d","ios":"levelo://app?vid=7a4bddf6-10c8-4ebb-93fe-b6e26b75fc5d"},"vehicle_type_id":"4","last_reported":1742468925,"current_range_meters":16000,"station_id":"ce4bho92rcd13ifvqh3g","pricing_plan_id":"cebpf4jnsgd1na2vs0mg"},{"bike_id":"8cfa2c15-64c0-4c2f-9158-c66b335a455b","system_id":"levelo_inurba_marseille","lat":43.32356,"lon":5.36733,"is_reserved":false,"is_disabled":false,"rental_uris":{"android":"levelo://app?vid=8cfa2c15-64c0-4c2f-9158-c66b335a455b","ios":"levelo://app?vid=8cfa2c15-64c0-4c2f-9158-c66b335a455b"},"vehicle_type_id":"4","last_reported":1742468925,"current_range_meters":16000,"station_id":"ce4bhsh2rcd13ifvqi2g","pricing_plan_id":"cebpf4jnsgd1na2vs0mg"},{"bike_id":"292bf2df-2116-470d-8ad0-b5019abaf2d6","system_id":"levelo_inurba_marseille","lat":43.30302,"lon":5.39227,"is_reserved":false,"is_disabled":true,"rental_uris":{"android":"levelo://app?vid=292bf2df-2116-470d-8ad0-b5019abaf2d6","ios":"levelo://app?vid=292bf2df-2116-470d-8ad0-b5019abaf2d6"},"vehicle_type_id":"4","last_reported":1742468925,"current_range_meters":16000,"station_id":"ce4bgkh2rcd13ifvqbk0","pricing_plan_id":"cebpf4jnsgd1na2vs0mg"},{"bike_id":"b1675283-ed57-43ff-88bf-599658afeae7","system_id":"levelo_inurba_marseille","lat":43.23975,"lon":5.36623,"is_reserved":false,"is_disabled":false,"rental_uris":{"android":"levelo://app?vid=b1675283-ed57-43ff-88bf-599658afeae7","ios":"levelo://app?vid=b1675283-ed57-43ff-88bf-599658afeae7"},"vehicle_type_id":"4","last_reported":1742468925,"current_range_meters":16400,"station_id":"ce4bhi12rcd13ifvqfp0","pricing_plan_id":"cebpf4jnsgd1na2vs0mg"},{"bike_id":"a1041188-6377-4dc0-808b-553dfa8836d0","system_id":"levelo_inurba_marseille","lat":43.30532,"lon":5.3654,"is_reserved":false,"is_disabled":false,"rental_uris":{"android":"levelo://app?vid=a1041188-6377-4dc0-808b-553dfa8836d0","ios":"levelo://app?vid=a1041188-6377-4dc0-808b-553dfa8836d0"},"vehicle_type_id":"4","last_reported":1742468925,"current_range_meters":16400,"station_id":"ce4bgs12rcd13ifvqcag","pricing_plan_id":"cebpf4jnsgd1na2vs0mg"},{"bike_id":"9798e390-5cd0-418c-9b2c-4c39fdf23d0e","system_id":"levelo_inurba_marseille","lat":43.23155,"lon":5.43746,"is_reserved":false,"is_disabled":false,"rental_uris":{"android":"levelo://app?vid=9798e390-5cd0-418c-9b2c-4c39fdf23d0e","ios":"levelo://app?vid=9798e390-5cd0-418c-9b2c-4c39fdf23d0e"},"vehicle_type_id":"4","last_reported":1742468925,"current_range_meters":16400,"station_id":"ce4bhmp2rcd13ifvqgog","pricing_plan_id":"cebpf4jnsgd1na2vs0mg"},{"bike_id":"7eb9ec85-bcc9-417f-a275-88f4292e38c6","system_id":"levelo_inurba_marseille","lat":43.249969,"lon":5.38926,"is_reserved":false,"is_disabled":false,"rental_uris":{"android":"levelo://app?vid=7eb9ec85-bcc9-417f-a275-88f4292e38c6","ios":"levelo://app?vid=7eb9ec85-bcc9-417f-a275-88f4292e38c6"},"vehicle_type_id":"4","last_reported":1742468925,"current_range_meters":16800,"station_id":"ce4bhh92rcd13ifvqfj0","pricing_plan_id":"cebpf4jnsgd1na2vs0mg"},{"bike_id":"e5d0630d-992a-4187-b18e-dd518b83d728","system_id":"levelo_inurba_marseille","lat":43.3054,"lon":5.36704,"is_reserved":false,"is_disabled":false,"rental_uris":{"android":"levelo://app?vid=e5d0630d-992a-4187-b18e-dd518b83d728","ios":"levelo://app?vid=e5d0630d-992a-4187-b18e-dd518b83d728"},"vehicle_type_id":"4","last_reported":1742468925,"current_range_meters":16400,"station_id":"ce4bgrp2rcd13ifvqc9g","pricing_plan_id":"cebpf4jnsgd1na2vs0mg"},{"bike_id":"fb8fe93a-cb2d-43fe-8922-aa2a89b14cb8","system_id":"levelo_inurba_marseille","lat":43.29623,"lon":5.37723,"is_reserved":false,"is_disabled":false,"rental_uris":{"android":"levelo://app?vid=fb8fe93a-cb2d-43fe-8922-aa2a89b14cb8","ios":"levelo://app?vid=fb8fe93a-cb2d-43fe-8922-aa2a89b14cb8"},"vehicle_type_id":"4","last_reported":1742468925,"current_range_meters":16400,"station_id":"ce4bgi92rcd13ifvqb90","pricing_plan_id":"cebpf4jnsgd1na2vs0mg"},{"bike_id":"c4544b94-2b3c-4c94-b005-4f8151bfbd72","system_id":"levelo_inurba_marseille","lat":43.27486,"lon":5.42477,"is_reserved":false,"is_disabled":false,"rental_uris":{"android":"levelo://app?vid=c4544b94-2b3c-4c94-b005-4f8151bfbd72","ios":"levelo://app?vid=c4544b94-2b3c-4c94-b005-4f8151bfbd72"},"vehicle_type_id":"4","last_reported":1742468925,"current_range_meters":16400,"station_id":"ce4bhn92rcd13ifvqgrg","pricing_plan_id":"cebpf4jnsgd1na2vs0mg"},{"bike_id":"13889d26-3d67-4c99-a8aa-de8a6d96eb09","system_id":"levelo_inurba_marseille","lat":43.27801,"lon":5.4071,"is_reserved":false,"is_disabled":false,"rental_uris":{"android":"levelo://app?vid=13889d26-3d67-4c99-a8aa-de8a6d96eb09","ios":"levelo://app?vid=13889d26-3d67-4c99-a8aa-de8a6d96eb09"},"vehicle_type_id":"4","last_reported":1742468925,"current_range_meters":16400,"station_id":"ce4bhnh2rcd13ifvqgtg","pricing_plan_id":"cebpf4jnsgd1na2vs0mg"},{"bike_id":"af622c28-b6ae-4be5-b223-5bf9ad515f76","system_id":"levelo_inurba_marseille","lat":43.28703,"lon":5.37391,"is_reserved":false,"is_disabled":false,"rental_uris":{"android":"levelo://app?vid=af622c28-b6ae-4be5-b223-5bf9ad515f76","ios":"levelo://app?vid=af622c28-b6ae-4be5-b223-5bf9ad515f76"},