{"last_updated":1727532427,"ttl":60,"version":"2.2","data":{"bikes":[{"bike_id":"b5191d9d-15ee-4c0c-880e-f983793722e5","system_id":"levelo_inurba_marseille","lat":43.29933,"lon":5.36552,"is_reserved":false,"is_disabled":false,"rental_uris":{"android":"levelo://app?vid=b5191d9d-15ee-4c0c-880e-f983793722e5","ios":"levelo://app?vid=b5191d9d-15ee-4c0c-880e-f983793722e5"},"vehicle_type_id":"4","last_reported":1727532427,"current_range_meters":18000,"station_id":"ce4bgm92rcd13ifvqbr0","pricing_plan_id":"cebpf4jnsgd1na2vs0mg"},{"bike_id":"ff6a160c-ba00-4b41-b205-9e04ec161592","system_id":"levelo_inurba_marseille","lat":43.26939,"lon":5.40249,"is_reserved":false,"is_disabled":false,"rental_uris":{"android":"levelo://app?vid=ff6a160c-ba00-4b41-b205-9e04ec161592","ios":"levelo://app?vid=ff6a160c-ba00-4b41-b205-9e04ec161592"},"vehicle_type_id":"4","last_reported":1727532427,"current_range_meters":5600,"station_id":"cjm6bp8fraef2m0cb0m0","pricing_plan_id":"cebpf4jnsgd1na2vs0mg"},{"bike_id":"73aa0c7e-726a-4296-bac2-f2d872d1e286","system_id":"levelo_inurba_marseille","lat":43.28003,"lon":5.40011,"is_reserved":false,"is_disabled":false,"rental_uris":{"android":"levelo://app?vid=73aa0c7e-726a-4296-bac2-f2d872d1e286","ios":"levelo://app?vid=73aa0c7e-726a-4296-bac2-f2d872d1e286"},"vehicle_type_id":"4","last_reported":1727532427,"current_range_meters":16000,"station_id":"ce4bho92rcd13ifvqh4g","pricing_plan_id":"cebpf4jnsgd1na2vs0mg"},{"bike_id":"32dc25da-ecf6-47d1-af7c-7c828aaa3047","system_id":"levelo_inurba_marseille","lat":43.30463,"lon":5.37902,"is_reserved":false,"is_disabled":false,"rental_uris":{"android":"levelo://app?vid=32dc25da-ecf6-47d1-af7c-7c828aaa3047","ios":"levelo://app?vid=32dc25da-ecf6-47d1-af7c-7c828aaa3047"},"vehicle_type_id":"4","last_reported":1727532427,"current_range_meters":37600,"station_id":"ce4bgup2rcd13ifvqcn0","pricing_plan_id":"cebpf4jnsgd1na2vs0mg"},{"bike_id":"a25e5f91-8eef-4130-8850-214a029e652a","system_id":"levelo_inurba_marseille","lat":43.29844,"lon":5.36272,"is_reserved":false,"is_disabled":false,"rental_uris":{"android":"levelo://app?vid=a25e5f91-8eef-4130-8850-214a029e652a","ios":"levelo://app?vid=a25e5f91-8eef-4130-8850-214a029e652a"},"vehicle_type_id":"4","last_reported":1727532427,"current_range_meters":12800,"station_id":"ce4bgpp2rcd13ifvqc3g","pricing_plan_id":"cebpf4jnsgd1na2vs0mg"},{"bike_id":"6e68d54b-95a7-4940-93b5-162d40f96360","system_id":"levelo_inurba_marseille","lat":43.31708,"lon":5.37757,"is_reserved":false,"is_disabled":false,"rental_uris":{"android":"levelo://app?vid=6e68d54b-95a7-4940-93b5-162d40f96360","ios":"levelo://app?vid=6e68d54b-95a7-4940-93b5-162d40f96360"},"vehicle_type_id":"4","last_reported":1727532427,"current_range_meters":2800,"station_id":"ce4bgth2rcd13ifvqch0","pricing_plan_id":"cebpf4jnsgd1na2vs0mg"},{"bike_id":"7287d008-4dc7-462f-91bc-cc372db3af0e","system_id":"levelo_inurba_marseille","lat":43.31362,"lon":5.38487,"is_reserved":false,"is_disabled":false,"rental_uris":{"android":"levelo://app?vid=7287d008-4dc7-462f-91bc-cc372db3af0e","ios":"levelo://app?vid=7287d008-4dc7-462f-91bc-cc372db3af0e"},"vehicle_type_id":"4","last_reported":1727532427,"current_range_meters":30000,"station_id":"ce4bgt92rcd13ifvqcf0","pricing_plan_id":"cebpf4jnsgd1na2vs0mg"},{"bike_id":"9255e1f0-3e8f-4f0a-bedd-21bdc34c5c5d","system_id":"levelo_inurba_marseille","lat":43.29713,"lon":5.3769,"is_reserved":false,"is_disabled":false,"rental_uris":{"android":"levelo://app?vid=9255e1f0-3e8f-4f0a-bedd-21bdc34c5c5d","ios":"levelo://app?vid=9255e1f0-3e8f-4f0a-bedd-21bdc34c5c5d"},"vehicle_type_id":"4","last_reported":1727532427,"current_range_meters":34000,"station_id":"ce4bgkh2rcd13ifvqbl0","pricing_plan_id":"cebpf4jnsgd1na2vs0mg"},{"bike_id":"9dd12ad5-cdcf-4dd7-b60e-b7b8c5470dce","system_id":"levelo_inurba_marseille","lat":43.27943,"lon":5.41045,"is_reserved":false,"is_disabled":false,"rental_uris":{"android":"levelo://app?vid=9dd12ad5-cdcf-4dd7-b60e-b7b8c5470dce","ios":"levelo://app?vid=9dd12ad5-cdcf-4dd7-b60e-b7b8c5470dce"},"vehicle_type_id":"4","last_reported":1727532427,"current_range_meters":36800,"station_id":"ce4bhnp2rcd13ifvqh0g","pricing_plan_id":"cebpf4jnsgd1na2vs0mg"},{"bike_id":"86f6a00d-b67b-4b37-926f-0a8c3be46741","system_id":"levelo_inurba_marseille","lat":43.28411,"lon":5.34992,"is_reserved":false,"is_disabled":false,"rental_uris":{"android":"levelo://app?vid=86f6a00d-b67b-4b37-926f-0a8c3be46741","ios":"levelo://app?vid=86f6a00d-b67b-4b37-926f-0a8c3be46741"},"vehicle_type_id":"4","last_reported":1727532427,"current_range_meters":38400,"station_id":"ce4bhbh2rcd13ifvqepg","pricing_plan_id":"cebpf4jnsgd1na2vs0mg"},{"bike_id":"e8f339a7-5e65-4275-8576-718fc09f5e43","system_id":"levelo_inurba_marseille","lat":43.27619,"lon":5.36105,"is_reserved":false,"is_disabled":false,"rental_uris":{"android":"levelo://app?vid=e8f339a7-5e65-4275-8576-718fc09f5e43","ios":"levelo://app?vid=e8f339a7-5e65-4275-8576-718fc09f5e43"},"vehicle_type_id":"4","last_reported":1727532427,"current_range_meters":15200,"station_id":"ce4bgj92rcd13ifvqbe0","pricing_plan_id":"cebpf4jnsgd1na2vs0mg"},{"bike_id":"22cedd5a-56b7-4da4-922e-ad3da806bffc","system_id":"levelo_inurba_marseille","lat":43.23967,"lon":5.36627,"is_reserved":false,"is_disabled":false,"rental_uris":{"android":"levelo://app?vid=22cedd5a-56b7-4da4-922e-ad3da806bffc","ios":"levelo://app?vid=22cedd5a-56b7-4da4-922e-ad3da806bffc"},"vehicle_type_id":"4","last_reported":1727532427,"current_range_meters":30000,"station_id":"ce4bhi12rcd13ifvqfp0","pricing_plan_id":"cebpf4jnsgd1na2vs0mg"},{"bike_id":"72e8bd87-0594-4008-b65d-ce8fe55706a2","system_id":"levelo_inurba_marseille","lat":43.317258,"lon":5.423916,"is_reserved":false,"is_disabled":false,"rental_uris":{"android":"levelo://app?vid=72e8bd87-0594-4008-b65d-ce8fe55706a2","ios":"levelo://app?vid=72e8bd87-0594-4008-b65d-ce8fe55706a2"},"vehicle_type_id":"4","last_reported":1727532427,"current_range_meters":38800,"station_id":"ce4bhp92rcd13ifvqhbg","pricing_plan_id":"cebpf4jnsgd1na2vs0mg"},{"bike_id":"7d54d53e-9465-4eb7-988f-3be552d17282","system_id":"levelo_inurba_marseille","lat":43.25001,"lon":5.38933,"is_reserved":false,"is_disabled":false,"rental_uris":{"android":"levelo://app?vid=7d54d53e-9465-4eb7-988f-3be552d17282","ios":"levelo://app?vid=7d54d53e-9465-4eb7-988f-3be552d17282"},"vehicle_type_id":"4","last_reported":1727532427,"current_range_meters":17200,"station_id":"ce4bhgp2rcd13ifvqfd0","pricing_plan_id":"cebpf4jnsgd1na2vs0mg"},{"bike_id":"5c9e6724-e432-46d3-a749-981baac17e32","system_id":"levelo_inurba_marseille","lat":43.29292,"lon":5.37449,"is_reserved":false,"is_disabled":false,"rental_uris":{"android":"levelo://app?vid=5c9e6724-e432-46d3-a749-981baac17e32","ios":"levelo://app?vid=5c9e6724-e432-46d3-a749-981baac17e32"},"vehicle_type_id":"4","last_reported":1727532427,"current_range_meters":4800,"station_id":"ce4bgi12rcd13ifvqb70","pricing_plan_id":"cebpf4jnsgd1na2vs0mg"},{"bike_id":"df02fb3b-0c44-4eac-a70e-07f3f7b052f5","system_id":"levelo_inurba_marseille","lat":43.30263,"lon":5.40077,"is_reserved":false,"is_disabled":false,"rental_uris":{"android":"levelo://app?vid=df02fb3b-0c44-4eac-a70e-07f3f7b052f5","ios":"levelo://app?vid=df02fb3b-0c44-4eac-a70e-07f3f7b052f5"},"vehicle_type_id":"4","last_reported":1727532427,"current_range_meters":39200,"station_id":"ce4bgvh2rcd13ifvqcs0","pricing_plan_id":"cebpf4jnsgd1na2vs0mg"},{"bike_id":"7b25ec32-2292-486a-acb1-6d81d758d4ba","system_id":"levelo_inurba_marseille","lat":43.23964,"lon":5.36637,"is_reserved":false,"is_disabled":false,"rental_uris":{"android":"levelo://app?vid=7b25ec32-2292-486a-acb1-6d81d758d4ba","ios":"levelo://app?vid=7b25ec32-2292-486a-acb1-6d81d758d4ba"},"vehicle_type_id":"4","last_reported":1727532427,"current_range_meters":24800,"station_id":"ce4bhi12rcd13ifvqfp0","pricing_plan_id":"cebpf4jnsgd1na2vs0mg"},{"bike_id":"c1f3d17c-c3c1-4002-8866-d243d97f97b3","system_id":"levelo_inurba_marseille","lat":43.29615,"lon":5.37711,"is_reserved":false,"is_disabled":false,"rental_uris":{"android":"levelo://app?vid=c1f3d17c-c3c1-4002-8866-d243d97f97b3","ios":"levelo://app?vid=c1f3d17c-c3c1-4002-8866-d243d97f97b3"},"vehicle_type_id":"4","last_reported":1727532427,"current_range_meters":38800,"station_id":"ce4bgi92rcd13ifvqb90","pricing_plan_id":"cebpf4jnsgd1na2vs0mg"},{"bike_id":"81204ee6-b907-42a9-863d-cffb58bafb0c","system_id":"levelo_inurba_marseille","lat":43.300232,"lon":5.385711,"is_reserved":false,"is_disabled":false,"rental_uris":{"android":"levelo://app?vid=81204ee6-b907-42a9-863d-cffb58bafb0c","ios":"levelo://app?vid=81204ee6-b907-42a9-863d-cffb58bafb0c"},"vehicle_type_id":"4","last_reported":1727532427,"current_range_meters":24800,"station_id":"ce4bgj92rcd13ifvqbd0","pricing_plan_id":"cebpf4jnsgd1na2vs0mg"},{"bike_id":"3afc3938-1136-4249-8a01-c9d063a0172a","system_id":"levelo_inurba_marseille","lat":43.29276,"lon":5.36837,"is_reserved":false,"is_disabled":false,"rental_uris":{"android":"levelo://app?vid=3afc3938-1136-4249-8a01-c9d063a0172a","ios":"levelo://app?vid=3afc3938-1136-4249-8a01-c9d063a0172a"},"vehicle_type_id":"4","last_reported":1727532427,"current_range_meters":32000,"station_id":"ce4bhbp2rcd13ifvqesg","pricing_plan_id":"cebpf4jnsgd1na2vs0mg"},{"bike_id":"d278ae3c-4140-4e3b-841e-bda476e47b90","system_id":"levelo_inurba_marseille","lat":43.29619,"lon":5.37724,"is_reserved":false,"is_disabled":false,"rental_uris":{"android":"levelo://app?vid=d278ae3c-4140-4e3b-841e-bda476e47b90","ios":"levelo://app?vid=d278ae3c-4140-4e3b-841e-bda476e47b90"},"vehicle_type_id":"4","last_reported":1727532427,"current_range_meters":24800,"station_id":"ce4bgi92rcd13ifvqb90","pricing_plan_id":"cebpf4jnsgd1na2vs0mg"},{"bike_id":"83ab67e9-9683-40ac-9b80-c07390469159","system_id":"levelo_inurba_marseille","lat":43.22928,"lon":5.35373,"is_reserved":false,"is_disabled":false,"rental_uris":{"android":"levelo://app?vid=83ab67e9-9683-40ac-9b80-c07390469159","ios":"levelo://app?vid=83ab67e9-9683-40ac-9b80-c07390469159"},"vehicle_type_id":"4","last_reported":1727532427,"current_range_meters":37600,"station_id":"cpo3532slgdg3j2ikp40","pricing_plan_id":"cebpf4jnsgd1na2vs0mg"},{"bike_id":"c12baa81-a67e-4525-a240-6de68188ea2c","system_id":"levelo_inurba_marseille","lat":43.31221,"lon":5.36857,"is_reserved":false,"is_disabled":false,"rental_uris":{"android":"levelo://app?vid=c12baa81-a67e-4525-a240-6de68188ea2c","ios":"levelo://app?vid=c12baa81-a67e-4525-a240-6de68188ea2c"},"vehicle_type_id":"4","last_reported":1727532427,"current_range_meters":32000,"station_id":"ce4bgl92rcd13ifvqbq0","pricing_plan_id":"cebpf4jnsgd1na2vs0mg"},{"bike_id":"73d4b1b9-8fa7-45c3-b819-17c2aa182b44","system_id":"levelo_inurba_marseille","lat":43.29553,"lon":5.4227,"is_reserved":false,"is_disabled":false,"rental_uris":{"android":"levelo://app?vid=73d4b1b9-8fa7-45c3-b819-17c2aa182b44","ios":"levelo://app?vid=73d4b1b9-8fa7-45c3-b819-17c2aa182b44"},"vehicle_type_id":"4","last_reported":1727532427,"current_range_meters":10000,"station_id":"ce4bhph2rcd13ifvqhdg","pricing_plan_id":"cebpf4jnsgd1na2vs0mg"},{"bike_id":"412db137-7cad-4a60-a69c-4eadd363d3cb","system_id":"levelo_inurba_marseille","lat":43.28043,"lon":5.36949,"is_reserved":false,"is_disabled":false,"rental_uris":{"android":"levelo://app?vid=412db137-7cad-4a60-a69c-4eadd363d3cb","ios":"levelo://app?vid=412db137-7cad-4a60-a69c-4eadd363d3cb"},"vehicle_type_id":"4","last_reported":1727532427,"current_range_meters":32000,"station_id":"ce4bha12rcd13ifvqef0","pricing_plan_id":"cebpf4jnsgd1na2vs0mg"},{"bike_id":"8524a85f-8427-4a60-91b5-869fad39ff42","system_id":"levelo_inurba_marseille","lat":43.25003,"lon":5.38935,"is_reserved":false,"is_disabled":false,"rental_uris":{"android":"levelo://app?vid=8524a85f-8427-4a60-91b5-869fad39ff42","ios":"levelo://app?vid=8524a85f-8427-4a60-91b5-869fad39ff42"},"vehicle_type_id":"4","last_reported":1727532427,"current_range_meters":33200,"station_id":"ce4bhgp2rcd13ifvqfd0","pricing_plan_id":"cebpf4jnsgd1na2vs0mg"},{"bike_id":"3dcb4d19-9f2a-4c72-b340-cfe0fcbad6e1","system_id":"levelo_inurba_marseille","lat":43.25829,"lon":5.3943,"is_reserved":false,"is_disabled":false,"rental_uris":{"android":"levelo://app?vid=3dcb4d19-9f2a-4c72-b340-cfe0fcbad6e1","ios":"levelo://app?vid=3dcb4d19-9f2a-4c72-b340-cfe0fcbad6e1"},"vehicle_type_id":"4","last_reported":1727532427,"current_range_meters":37600,"station_id":"ce4bhip2rcd13ifvqft0","pricing_plan_id":"cebpf4jnsgd1na2vs0mg"},{"bike_id":"7f850f2b-c497-4c68-a8c2-b7030912313b","system_id":"levelo_inurba_marseille","lat":43.23963,"lon":5.36631,"is_reserved":false,"is_disabled":false,"rental_uris":{"android":"levelo://app?vid=7f850f2b-c497-4c68-a8c2-b7030912313b","ios":"levelo://app?vid=7f850f2b-c497-4c68-a8c2-b7030912313b"},"vehicle_type_id":"4","last_reported":1727532427,"current_range_meters":19600,"station_id":"ce4bhi12rcd13ifvqfp0","pricing_plan_id":"cebpf4jnsgd1na2vs0mg"},{"bike_id":"c47e2651-dc58-49ba-91dd-d01bf0847d7e","system_id":"levelo_inurba_marseille","lat":43.30886,"lon":5.3719,"is_reserved":false,"is_disabled":false,"rental_uris":{"android":"levelo://app?vid=c47e2651-dc58-49ba-91dd-d01bf0847d7e","ios":"levelo://app?vid=c47e2651-dc58-49ba-91dd-d01bf0847d7e"},"vehicle_type_id":"4","last_reported":1727532427,"current_range_meters":36800,"station_id":"ce4bguh2rcd13ifvqckg","pricing_plan_id":"cebpf4jnsgd1na2vs0mg"},{"bike_id":"1ce7c25b-6bd2-4b64-b4ae-543ea784fc5d","system_id":"levelo_inurba_marseille","lat":43.337444,"lon":5.374475,"is_reserved":false,"is_disabled":false,"rental_uris":{"android":"levelo://app?vid=1ce7c25b-6bd2-4b64-b4ae-543ea784fc5d","ios":"levelo://app?vid=1ce7c25b-6bd2-4b64-b4ae-543ea784fc5d"},"vehicle_type_id":"4","last_reported":1727532427,"current_range_meters":36800,"station_id":"","pricing_plan_id":"cebpf4jnsgd1na2vs0mg"},{"bike_id":"ccb0399a-af8d-4a08-a739-b071793d1a1b","system_id":"levelo_inurba_marseille","lat":43.31712,"lon":5.43704,"is_reserved":false,"is_disabled":false,"rental_uris":{"android":"levelo://app?vid=ccb0399a-af8d-4a08-a739-b071793d1a1b","ios":"levelo://app?vid=ccb0399a-af8d-4a08-a739-b071793d1a1b"},"vehicle_type_id":"4","last_reported":1727532427,"current_range_meters":20000,"station_id":"ce4bhp92rcd13ifvqhcg","pricing_plan_id":"cebpf4jnsgd1na2vs0mg"},{"bike_id":"c73b4486-5bc3-4c4a-996b-fb2c0c27e2ff","system_id":"levelo_inurba_marseille","lat":43.28111,"lon":5.37836,"is_reserved":false,"is_disabled":false,"rental_uris":{"android":"levelo://app?vid=c73b4486-5bc3-4c4a-996b-fb2c0c27e2ff","ios":"levelo://app?vid=c73b4486-5bc3-4c4a-996b-fb2c0c27e2ff"},"vehicle_type_id":"4","last_reported":1727532427,"current_range_meters":38400,"station_id":"ce4bha12rcd13ifvqee0","pricing_plan_id":"cebpf4jnsgd1na2vs0mg"},{"bike_id":"339c6c6c-d225-4671-bdfd-ef32923eb7ca","system_id":"levelo_inurba_marseille","lat":43.26941,"lon":5.40254,"is_reserved":false,"is_disabled":false,"rental_uris":{"android":"levelo://app?vid=339c6c6c-d225-4671-bdfd-ef32923eb7ca","ios":"levelo://app?vid=339c6c6c-d225-4671-bdfd-ef32923eb7ca"},"vehicle_type_id":"4","last_reported":1727532427,"current_range_meters":35600,"station_id":"cjm6bp8fraef2m0cb0m0","pricing_plan_id":"cebpf4jnsgd1na2vs0mg"},{"bike_id":"6ba85e9d-2885-45c4-b42c-4a171310c93f","system_id":"levelo_inurba_marseille","lat":43.30357,"lon":5.41877,"is_reserved":false,"is_disabled":false,"rental_uris":{"android":"levelo://app?vid=6ba85e9d-2885-45c4-b42c-4a171310c93f","ios":"levelo://app?vid=6ba85e9d-2885-45c4-b42c-4a171310c93f"},"vehicle_type_id":"4","last_reported":1727532427,"current_range_meters":22000,"station_id":"ce4bhop2rcd13ifvqh7g","pricing_plan_id":"cebpf4jnsgd1na2vs0mg"},{"bike_id":"95d4521a-146f-47be-8974-0b2c9365d001","system_id":"levelo_inurba_marseille","lat":43.30604,"lon":5.3723,"is_reserved":false,"is_disabled":false,"rental_uris":{"android":"levelo://app?vid=95d4521a-146f-47be-8974-0b2c9365d001","ios":"levelo://app?vid=95d4521a-146f-47be-8974-0b2c9365d001"},"vehicle_type_id":"4","last_reported":1727532427,"current_range_meters":20400,"station_id":"ce4bgqh2rcd13ifvqc4g","pricing_plan_id":"cebpf4jnsgd1na2vs0mg"},{"bike_id":"0c6a3edd-0259-43fd-a8d1-3d4bb6023605","system_id":"levelo_inurba_marseille","lat":43.24386,"lon":5.3705,"is_reserved":false,"is_disabled":false,"rental_uris":{"android":"levelo://app?vid=0c6a3edd-0259-43fd-a8d1-3d4bb6023605","ios":"levelo://app?vid=0c6a3edd-0259-43fd-a8d1-3d4bb6023605"},"vehicle_type_id":"4","last_reported":1727532427,"current_range_meters":40000,"station_id":"ce4bhhh2rcd13ifvqfk0","pricing_plan_id":"cebpf4jnsgd1na2vs0mg"},{"bike_id":"7050c022-333c-47f8-9dcf-e79a4ba9db74","system_id":"levelo_inurba_marseille","lat":43.295705,"lon":5.39978,"is_reserved":false,"is_disabled":false,"rental_uris":{"android":"levelo://app?vid=7050c022-333c-47f8-9dcf-e79a4ba9db74","ios":"levelo://app?vid=7050c022-333c-47f8-9dcf-e79a4ba9db74"},"vehicle_type_id":"4","last_reported":1727532427,"current_range_meters":38000,"station_id":"ce4bh312rcd13ifvqdj0","pricing_plan_id":"cebpf4jnsgd1na2vs0mg"},{"bike_id":"dee4a9f7-5360-47b6-839d-f17c135f5ab9","system_id":"levelo_inurba_marseille","lat":43.27372,"lon":5.36262,"is_reserved":false,"is_disabled":false,"rental_uris":{"android":"levelo://app?vid=dee4a9f7-5360-47b6-839d-f17c135f5ab9","ios":"levelo://app?vid=dee4a9f7-5360-47b6-839d-f17c135f5ab9"},"vehicle_type_id":"4","last_reported":1727532427,"current_range_meters":12000,"station_id":"ce4bhbh2rcd13ifvqeo0","pricing_plan_id":"cebpf4jnsgd1na2vs0mg"},{"bike_id":"7d63c528-d3b6-4c9f-a6fb-3e0b7fbe58cf","system_id":"levelo_inurba_marseille","lat":43.29794,"lon":5.38083,"is_reserved":false,"is_disabled":false,"rental_uris":{"android":"levelo://app?vid=7d63c528-d3b6-4c9f-a6fb-3e0b7fbe58cf","ios":"levelo://app?vid=7d63c528-d3b6-4c9f-a6fb-3e0b7fbe58cf"},"vehicle_type_id":"4","last_reported":1727532427,"current_range_meters":29600,"station_id":"ce4bgip2rcd13ifvqbb0","pricing_plan_id":"cebpf4jnsgd1na2vs0mg"},{"bike_id":"98ccb352-8cdf-40de-9264-8ae7386b7952","system_id":"levelo_inurba_marseille","lat":43.26924,"lon":5.40316,"is_reserved":false,"is_disabled":false,"rental_uris":{"android":"levelo://app?vid=98ccb352-8cdf-40de-9264-8ae7386b7952","ios":"levelo://app?vid=98ccb352-8cdf-40de-9264-8ae7386b7952"},"vehicle_type_id":"4","last_reported":1727532427,"current_range_meters":10000,"station_id":"cjm6bp8fraef2m0cb0m0","pricing_plan_id":"cebpf4jnsgd1na2vs0mg"},{"bike_id":"8fe46ecc-1e67-4f19-8b8d-10a6acd8bd0b","system_id":"levelo_inurba_marseille","lat":43.25994,"lon":5.3868,"is_reserved":false,"is_disabled":false,"rental_uris":{"android":"levelo://app?vid=8fe46ecc-1e67-4f19-8b8d-10a6acd8bd0b","ios":"levelo://app?vid=8fe46ecc-1e67-4f19-8b8d-10a6acd8bd0b"},"vehicle_type_id":"4","last_reported":1727532427,"current_range_meters":8400,"station_id":"","pricing_plan_id":"cebpf4jnsgd1na2vs0mg"},{"bike_id":"f58a65d1-6aed-4a99-8d03-5255953cc508","system_id":"levelo_inurba_marseille","lat":43.32292,"lon":5.38281,"is_reserved":false,"is_disabled":false,"rental_uris":{"android":"levelo://app?vid=f58a65d1-6aed-4a99-8d03-5255953cc508","ios":"levelo://app?vid=f58a65d1-6aed-4a99-8d03-5255953cc508"},"vehicle_type_id":"4","last_reported":1727532427,"current_range_meters":38400,"station_id":"ce4bhr12rcd13ifvqhqg","pricing_plan_id":"cebpf4jnsgd1na2vs0mg"},{"bike_id":"340baa0f-e752-4632-96a4-9de762f3fb4d","system_id":"levelo_inurba_marseille","lat":43.2558,"lon":5.38228,"is_reserved":false,"is_disabled":false,"rental_uris":{"android":"levelo://app?vid=340baa0f-e752-4632-96a4-9de762f3fb4d","ios":"levelo://app?vid=340baa0f-e752-4632-96a4-9de762f3fb4d"},"vehicle_type_id":"4","last_reported":1727532427,"current_range_meters":21600,"station_id":"ce4bhih2rcd13ifvqfs0","pricing_plan_id":"cebpf4jnsgd1na2vs0mg"},{"bike_id":"225782a8-40b9-457f-bc22-acac1b248aa5","system_id":"levelo_inurba_marseille","lat":43.29927,"lon":5.36525,"is_reserved":false,"is_disabled":false,"rental_uris":{"android":"levelo://app?vid=225782a8-40b9-457f-bc22-acac1b248aa5","ios":"levelo://app?vid=225782a8-40b9-457f-bc22-acac1b248aa5"},"vehicle_type_id":"4","last_reported":1727532427,"current_range_meters":32000,"station_id":"ce4bgm92rcd13ifvqbr0","pricing_plan_id":"cebpf4jnsgd1na2vs0mg"},{"bike_id":"e4dedb62-9c81-433c-8448-a23a07ba2082","system_id":"levelo_inurba_marseille","lat":43.27212,"lon":5.39185,"is_reserved":false,"is_disabled":false,"rental_uris":{"android":"levelo://app?vid=e4dedb62-9c81-433c-8448-a23a07ba2082","ios":"levelo://app?vid=e4dedb62-9c81-433c-8448-a23a07ba2082"},"vehicle_type_id":"4","last_reported":1727532427,"current_range_meters":3200,"station_id":"ce4bhhp2rcd13ifvqfm0","pricing_plan_id":"cebpf4jnsgd1na2vs0mg"},{"bike_id":"70f95908-a707-4443-89f0-05100b6f71f9","system_id":"levelo_inurba_marseille","lat":43.23185,"lon":5.39995,"is_reserved":false,"is_disabled":false,"rental_uris":{"android":"levelo://app?vid=70f95908-a707-4443-89f0-05100b6f71f9","ios":"levelo://app?vid=70f95908-a707-4443-89f0-05100b6f71f9"},"vehicle_type_id":"4","last_reported":1727532427,"current_range_meters":39200,"station_id":"ce4bhn12rcd13ifvqgqg","pricing_plan_id":"cebpf4jnsgd1na2vs0mg"},{"bike_id":"8e9639bc-3ffd-42d3-9ecd-3e4dacffb4ae","system_id":"levelo_inurba_marseille","lat":43.28465,"lon":5.35882,"is_reserved":false,"is_disabled":false,"rental_uris":{"android":"levelo://app?vid=8e9639bc-3ffd-42d3-9ecd-3e4dacffb4ae","ios":"levelo://app?vid=8e9639bc-3ffd-42d3-9ecd-3e4dacffb4ae"},"vehicle_type_id":"4","last_reported":1727532427,"current_range_meters":22800,"station_id":"ce4bhah2rcd13ifvqei0","pricing_plan_id":"cebpf4jnsgd1na2vs0mg"},{"bike_id":"32f21fcd-0d4a-4ebd-89cc-4cb85a24e01c","system_id":"levelo_inurba_marseille","lat":43.28473,"lon":5.38411,"is_reserved":false,"is_disabled":false,"rental_uris":{"android":"levelo://app?vid=32f21fcd-0d4a-4ebd-89cc-4cb85a24e01c","ios":"levelo://app?vid=32f21fcd-0d4a-4ebd-89cc-4cb85a24e01c"},"vehicle_type_id":"4","last_reported":1727532427,"current_range_meters":19600,"station_id":"ce4bh512rcd13ifvqe3g","pricing_plan_id":"cebpf4jnsgd1na2vs0mg"},{"bike_id":"afe5fcf5-fe1a-4d30-bfcd-4452c0d39cee","system_id":"levelo_inurba_marseille","lat":43.30149,"lon":5.38095,"is_reserved":false,"is_disabled":false,"rental_uris":{"android":"levelo://app?vid=afe5fcf5-fe1a-4d30-bfcd-4452c0d39cee","ios":"levelo://app?vid=afe5fcf5-fe1a-4d30-bfcd-4452c0d39cee"},"vehicle_type_id":"4","last_reported":1727532427,"current_range_meters":33200,"station_id":"ce4bgjp2rcd13ifvqbh0","pricing_plan_id":"cebpf4jnsgd1na2vs0mg"},{"bike_id":"b4fe3e1c-c039-4380-8f45-bbeb1ffa710b","system_id":"levelo_inurba_marseille","lat":43.24165,"lon":5.36392,"is_reserved":false,"is_disabled":false,"rental_uris":{"android":"levelo://app?vid=b4fe3e1c-c039-4380-8f45-bbeb1ffa710b","ios":"levelo://app?vid=b4fe3e1c-c039-4380-8f45-bbeb1ffa710b"},"vehicle_type_id":"4","last_reported":1727532427,"current_range_meters":4000,"station_id":"cpo36qri1sfpv3e86is0","pricing_plan_id":"cebpf4jnsgd1na2vs0mg"},{"bike_id":"7b7972df-38f6-4844-a1ac-7273e8026644","system_id":"levelo_inurba_marseille","lat":43.2559,"lon":5.38234,"is_reserved":false,"is_disabled":false,"rental_uris":{"android":"levelo://app?vid=7b7972df-38f6-4844-a1ac-7273e8026644","ios":"levelo://app?vid=7b7972df-38f6-4844-a1ac-7273e8026644"},"vehicle_type_id":"4","last_reported":1727532427,"current_range_meters":25600,"station_id":"ce4bhih2rcd13ifvqfs0","pricing_plan_id":"cebpf4jnsgd1na2vs0mg"},{"bike_id":"ce3b7e05-c3b7-40af-a547-817839face6d","system_id":"levelo_inurba_marseille","lat":43.30537,"lon":5.36553,"is_reserved":false,"is_disabled":false,"rental_uris":{"android":"levelo://app?vid=ce3b7e05-c3b7-40af-a547-817839face6d","ios":"levelo://app?vid=ce3b7e05-c3b7-40af-a547-817839face6d"},"vehicle_type_id":"4","last_reported":1727532427,"current_range_meters":36000,"station_id":"ce4bgs12rcd13ifvqcag","pricing_plan_id":"cebpf4jnsgd1na2vs0mg"},{"bike_id":"f056a4c2-1a4c-47a6-8710-f3f44401fbcb","system_id":"levelo_inurba_marseille","lat":43.29907,"lon":5.3814,"is_reserved":false,"is_disabled":false,"rental_uris":{"android":"levelo://app?vid=f056a4c2-1a4c-47a6-8710-f3f44401fbcb","ios":"levelo://app?vid=f056a4c2-1a4c-47a6-8710-f3f44401fbcb"},"vehicle_type_id":"4","last_reported":1727532427,"current_range_meters":38800,"station_id":"ce4bgj12rcd13ifvqbc0","pricing_plan_id":"cebpf4jnsgd1na2vs0mg"},{"bike_id":"e28cc070-a8c1-4ff3-9c6d-44730ce24ac3","system_id":"levelo_inurba_marseille","lat":43.24386,"lon":5.37052,"is_reserved":false,"is_disabled":false,"rental_uris":{"android":"levelo://app?vid=e28cc070-a8c1-4ff3-9c6d-44730ce24ac3","ios":"levelo://app?vid=e28cc070-a8c1-4ff3-9c6d-44730ce24ac3"},"vehicle_type_id":"4","last_reported":1727532427,"current_range_meters":37600,"station_id":"ce4bhhh2rcd13ifvqfk0","pricing_plan_id":"cebpf4jnsgd1na2vs0mg"},{"bike_id":"fcf7874b-cfb2-47ef-a9c5-89a95a1b831f","system_id":"levelo_inurba_marseille","lat":43.23178,"lon":5.39986,"is_reserved":false,"is_disabled":false,"rental_uris":{"android":"levelo://app?vid=fcf7874b-cfb2-47ef-a9c5-89a95a1b831f","ios":"levelo://app?vid=fcf7874b-cfb2-47ef-a9c5-89a95a1b831f"},"vehicle_type_id":"4","last_reported":1727532427,"current_range_meters":20000,"station_id":"ce4bhn12rcd13ifvqgqg","pricing_plan_id":"cebpf4jnsgd1na2vs0mg"},{"bike_id":"869403bb-4fcc-4f66-8ec3-05c3e0e700b7","system_id":"levelo_inurba_marseille","lat":43.27425,"lon":5.39407,"is_reserved":false,"is_disabled":false,"rental_uris":{"android":"levelo://app?vid=869403bb-4fcc-4f66-8ec3-05c3e0e700b7","ios":"levelo://app?vid=869403bb-4fcc-4f66-8ec3-05c3e0e700b7"},"vehicle_type_id":"4","last_reported":1727532427,"current_range_meters":40000,"station_id":"ce4bhdp2rcd13ifvqf20","pricing_plan_id":"cebpf4jnsgd1na2vs0mg"},{"bike_id":"f5467577-fa7b-4616-b55c-881e3e451fa5","system_id":"levelo_inurba_marseille","lat":43.28415,"lon":5.34977,"is_reserved":false,"is_disabled":false,"rental_uris":{"android":"levelo://app?vid=f5467577-fa7b-4616-b55c-881e3e451fa5","ios":"levelo://app?vid=f5467577-fa7b-4616-b55c-881e3e451fa5"},"vehicle_type_id":"4","last_reported":1727532427,"current_range_meters":34800,"station_id":"ce4bhbh2rcd13ifvqepg","pricing_plan_id":"cebpf4jnsgd1na2vs0mg"},{"bike_id":"ea54ec08-3b46-422d-80fa-37a8c4e365bd","system_id":"levelo_inurba_marseille","lat":43.286133,"lon":5.370582,"is_reserved":false,"is_disabled":false,"rental_uris":{"android":"levelo://app?vid=ea54ec08-3b46-422d-80fa-37a8c4e365bd","ios":"levelo://app?vid=ea54ec08-3b46-422d-80fa-37a8c4e365bd"},"vehicle_type_id":"4","last_reported":1727532427,"current_range_meters":24800,"station_id":"ce4bhh92rcd13ifvqfi0","pricing_plan_id":"cebpf4jnsgd1na2vs0mg"},{"bike_id":"42c29691-2fc8-42c6-8cf2-6e1e331d9372","system_id":"levelo_inurba_marseille","lat":43.28152,"lon":5.42644,"is_reserved":false,"is_disabled":false,"rental_uris":{"android":"levelo://app?vid=42c29691-2fc8-42c6-8cf2-6e1e331d9372","ios":"levelo://app?vid=42c29691-2fc8-42c6-8cf2-6e1e331d9372"},"vehicle_type_id":"4","last_reported":1727532427,"current_range_meters":34000,"station_id":"ce4bhnh2rcd13ifvqgug","pricing_plan_id":"cebpf4jnsgd1na2vs0mg"},{"bike_id":"8c4b1ce8-b16a-4d7e-a517-c29e41d6a445","system_id":"levelo_inurba_marseille","lat":43.267831,"lon":5.394181,"is_reserved":false,"is_disabled":false,"rental_uris":{"android":"levelo://app?vid=8c4b1ce8-b16a-4d7e-a517-c29e41d6a445","ios":"levelo://app?vid=8c4b1ce8-b16a-4d7e-a517-c29e41d6a445"},"vehicle_type_id":"4","last_reported":1727532427,"current_range_meters":24000,"station_id":"ce4bhh12rcd13ifvqfg0","pricing_plan_id":"cebpf4jnsgd1na2vs0mg"},{"bike_id":"cf2a99f0-171d-46e2-b5f9-b8e518581e33","system_id":"levelo_inurba_marseille","lat":43.23966,"lon":5.3662,"is_reserved":false,"is_disabled":false,"rental_uris":{"android":"levelo://app?vid=cf2a99f0-171d-46e2-b5f9-b8e518581e33","ios":"levelo://app?vid=cf2a99f0-171d-46e2-b5f9-b8e518581e33"},"vehicle_type_id":"4","last_reported":1727532427,"current_range_meters":37600,"station_id":"ce4bhi12rcd13ifvqfp0","pricing_plan_id":"cebpf4jnsgd1na2vs0mg"},{"bike_id":"1b1b12e9-f9a2-4c74-8380-36908fa1f549","system_id":"levelo_inurba_marseille","lat":43.23964,"lon":5.36635,"is_reserved":false,"is_disabled":false,"rental_uris":{"android":"levelo://app?vid=1b1b12e9-f9a2-4c74-8380-36908fa1f549","ios":"levelo://app?vid=1b1b12e9-f9a2-4c74-8380-36908fa1f549"},"vehicle_type_id":"4","last_reported":1727532427,"current_range_meters":18000,"station_id":"ce4bhi12rcd13ifvqfp0","pricing_plan_id":"cebpf4jnsgd1na2vs0mg"},{"bike_id":"9813bfbe-daed-4c00-ace9-0d66d2e83d16","system_id":"levelo_inurba_marseille","lat":43.23146,"lon":5.4371,"is_reserved":false,"is_disabled":false,"rental_uris":{"android":"levelo://app?vid=9813bfbe-daed-4c00-ace9-0d66d2e83d16","ios":"levelo://app?vid=9813bfbe-daed-4c00-ace9-0d66d2e83d16"},"vehicle_type_id":"4","last_reported":1727532427,"current_range_meters":27600,"station_id":"ce4bhmp2rcd13ifvqgog","pricing_plan_id":"cebpf4jnsgd1na2vs0mg"},{"bike_id":"502620f3-cb14-40e3-914a-f7fa56865d5f","system_id":"levelo_inurba_marseille","lat":43.258199,"lon":5.394421,"is_reserved":false,"is_disabled":false,"rental_uris":{"android":"levelo://app?vid=502620f3-cb14-40e3-914a-f7fa56865d5f","ios":"levelo://app?vid=502620f3-cb14-40e3-914a-f7fa56865d5f"},"vehicle_type_id":"4","last_reported":1727532427,"current_range_meters":9600,"station_id":"ce4bhip2rcd13ifvqft0","pricing_plan_id":"cebpf4jnsgd1na2vs0mg"},{"bike_id":"af27e55c-9092-4f57-a5c6-7251428e651f","system_id":"levelo_inurba_marseille","lat":43.23199,"lon":5.35547,"is_reserved":false,"is_disabled":false,"rental_uris":{"android":"levelo://app?vid=af27e55c-9092-4f57-a5c6-7251428e651f","ios":"levelo://app?vid=af27e55c-9092-4f57-a5c6-7251428e651f"},"vehicle_type_id":"4","last_reported":1727532427,"current_range_meters":16000,"station_id":"ce4bhu92rcd13ifvqi70","pricing_plan_id":"cebpf4jnsgd1na2vs0mg"},{"bike_id":"33352011-cbac-4d51-a2b2-d3596e33be5f","system_id":"levelo_inurba_marseille","lat":43.23963,"lon":5.36623,"is_reserved":false,"is_disabled":false,"rental_uris":{"android":"levelo://app?vid=33352011-cbac-4d51-a2b2-d3596e33be5f","ios":"levelo://app?vid=33352011-cbac-4d51-a2b2-d3596e33be5f"},"vehicle_type_id":"4","last_reported":1727532427,"current_range_meters":3200,"station_id":"ce4bhi12rcd13ifvqfp0","pricing_plan_id":"cebpf4jnsgd1na2vs0mg"},{"bike_id":"52f17877-110a-422d-89ae-fdeda162e6f3","system_id":"levelo_inurba_marseille","lat":43.23958,"lon":5.3663,"is_reserved":false,"is_disabled":false,"rental_uris":{"android":"levelo://app?vid=52f17877-110a-422d-89ae-fdeda162e6f3","ios":"levelo://app?vid=52f17877-110a-422d-89ae-fdeda162e6f3"},"vehicle_type_id":"4","last_reported":1727532427,"current_range_meters":11200,"station_id":"ce4bhi12rcd13ifvqfp0","pricing_plan_id":"cebpf4jnsgd1na2vs0mg"},{"bike_id":"b1e915b4-0260-4cd0-a9f2-6c9625acc5d6","system_id":"levelo_inurba_marseille","lat":43.23965,"lon":5.36633,"is_reserved":false,"is_disabled":false,"rental_uris":{"android":"levelo://app?vid=b1e915b4-0260-4cd0-a9f2-6c9625acc5d6","ios":"levelo://app?vid=b1e915b4-0260-4cd0-a9f2-6c9625acc5d6"},"vehicle_type_id":"4","last_reported":1727532427,"current_range_meters":26000,"station_id":"ce4bhi12rcd13ifvqfp0","pricing_plan_id":"cebpf4jnsgd1na2vs0mg"},{"bike_id":"66090a2d-c8e8-444b-97ee-580cb870764a","system_id":"levelo_inurba_marseille","lat":43.27324,"lon":5.39078,"is_reserved":false,"is_disabled":false,"rental_uris":{"android":"levelo://app?vid=66090a2d-c8e8-444b-97ee-580cb870764a","ios":"levelo://app?vid=66090a2d-c8e8-444b-97ee-580cb870764a"},"vehicle_type_id":"4","last_reported":1727532427,"current_range_meters":6800,"station_id":"ce4bhgp2rcd13ifvqfe0","pricing_plan_id":"cebpf4jnsgd1na2vs0mg"},{"bike_id":"027f9c8d-9a3c-429d-803e-ea2360bb13c8","system_id":"levelo_inurba_marseille","lat":43.29062,"lon":5.37156,"is_reserved":false,"is_disabled":false,"rental_uris":{"android":"levelo://app?vid=027f9c8d-9a3c-429d-803e-ea2360bb13c8","ios":"levelo://app?vid=027f9c8d-9a3c-429d-803e-ea2360bb13c8"},"vehicle_type_id":"4","last_reported":1727532427,"current_range_meters":37600,"station_id":"ce4bh5p2rcd13ifvqe4g","pricing_plan_id":"cebpf4jnsgd1na2vs0mg"},{"bike_id":"b43e4425-46f7-43ad-9323-5031d0f0ce98","system_id":"levelo_inurba_marseille","lat":43.30611,"lon":5.37222,"is_reserved":false,"is_disabled":false,"rental_uris":{"android":"levelo://app?vid=b43e4425-46f7-43ad-9323-5031d0f0ce98","ios":"levelo://app?vid=b43e4425-46f7-43ad-9323-5031d0f0ce98"},"vehicle_type_id":"4","last_reported":1727532427,"current_range_meters":21600,"station_id":"ce4bgqh2rcd13ifvqc4g","pricing_plan_id":"cebpf4jnsgd1na2vs0mg"},{"bike_id":"519c17fe-7769-4a3a-8d8b-5c88f7ebd34d","system_id":"levelo_inurba_marseille","lat":43.30198,"lon":5.36617,"is_reserved":false,"is_disabled":false,"rental_uris":{"android":"levelo://app?vid=519c17fe-7769-4a3a-8d8b-5c88f7ebd34d","ios":"levelo://app?vid=519c17fe-7769-4a3a-8d8b-5c88f7ebd34d"},"vehicle_type_id":"4","last_reported":1727532427,"current_range_meters":19200,"station_id":"ce4bgrh2rcd13ifvqc8g","pricing_plan_id":"cebpf4jnsgd1na2vs0mg"},{"bike_id":"8706dbad-74a1-4401-bd4a-b4ae01455ac4","system_id":"levelo_inurba_marseille","lat":43.27613,"lon":5.36108,"is_reserved":false,"is_disabled":false,"rental_uris":{"android":"levelo://app?vid=8706dbad-74a1-4401-bd4a-b4ae01455ac4","ios":"levelo://app?vid=8706dbad-74a1-4401-bd4a-b4ae01455ac4"},"vehicle_type_id":"4","last_reported":1727532427,"current_range_meters":15200,"station_id":"ce4bgj92rcd13ifvqbe0","pricing_plan_id":"cebpf4jnsgd1na2vs0mg"},{"bike_id":"cb6d6ee5-6d2f-40c4-a361-1168d4a787c4","system_id":"levelo_inurba_marseille","lat":43.28458,"lon":5.35886,"is_reserved":false,"is_disabled":false,"rental_uris":{"android":"levelo://app?vid=cb6d6ee5-6d2f-40c4-a361-1168d4a787c4","ios":"levelo://app?vid=cb6d6ee5-6d2f-40c4-a361-1168d4a787c4"},"vehicle_type_id":"4","last_reported":1727532427,"current_range_meters":14800,"station_id":"ce4bhah2rcd13ifvqei0","pricing_plan_id":"cebpf4jnsgd1na2vs0mg"},{"bike_id":"cef7b0e4-df87-48ab-b380-59c7db40cc58","system_id":"levelo_inurba_marseille","lat":43.29848,"lon":5.36273,"is_reserved":false,"is_disabled":false,"rental_uris":{"android":"levelo://app?vid=cef7b0e4-df87-48ab-b380-59c7db40cc58","ios":"levelo://app?vid=cef7b0e4-df87-48ab-b380-59c7db40cc58"},"vehicle_type_id":"4","last_reported":1727532427,"current_range_meters":38000,"station_id":"ce4bgpp2rcd13ifvqc3g","pricing_plan_id":"cebpf4jnsgd1na2vs0mg"},{"bike_id":"9e0e602a-711e-4e75-a4b3-f0d70db8f823","system_id":"levelo_inurba_marseille","lat":43.23963,"lon":5.36628,"is_reserved":false,"is_disabled":false,"rental_uris":{"android":"levelo://app?vid=9e0e602a-711e-4e75-a4b3-f0d70db8f823","ios":"levelo://app?vid=9e0e602a-711e-4e75-a4b3-f0d70db8f823"},"vehicle_type_id":"4","last_reported":1727532427,"current_range_meters":20000,"station_id":"ce4bhi12rcd13ifvqfp0","pricing_plan_id":"cebpf4jnsgd1na2vs0mg"},{"bike_id":"a1663e52-4884-4761-8651-845682d6aa9d","system_id":"levelo_inurba_marseille","lat":43.22928,"lon":5.35374,"is_reserved":false,"is_disabled":false,"rental_uris":{"android":"levelo://app?vid=a1663e52-4884-4761-8651-845682d6aa9d","ios":"levelo://app?vid=a1663e52-4884-4761-8651-845682d6aa9d"},"vehicle_type_id":"4","last_reported":1727532427,"current_range_meters":32400,"station_id":"cpo3532slgdg3j2ikp40","pricing_plan_id":"cebpf4jnsgd1na2vs0mg"},{"bike_id":"c9b59e34-32cb-419e-8d3b-985a41a64694","system_id":"levelo_inurba_marseille","lat":43.27993,"lon":5.41656,"is_reserved":false,"is_disabled":false,"rental_uris":{"android":"levelo://app?vid=c9b59e34-32cb-419e-8d3b-985a41a64694","ios":"levelo://app?vid=c9b59e34-32cb-419e-8d3b-985a41a64694"},"vehicle_type_id":"4","last_reported":1727532427,"current_range_meters":38400,"station_id":"ce4bho12rcd13ifvqh1g","pricing_plan_id":"cebpf4jnsgd1na2vs0mg"},{"bike_id":"31d3c74d-f20a-4edf-9c40-1231eb4e8f43","system_id":"levelo_inurba_marseille","lat":43.29727,"lon":5.37686,"is_reserved":false,"is_disabled":false,"rental_uris":{"android":"levelo://app?vid=31d3c74d-f20a-4edf-9c40-1231eb4e8f43","ios":"levelo://app?vid=31d3c74d-f20a-4edf-9c40-1231eb4e8f43"},"vehicle_type_id":"4","last_reported":1727532427,"current_range_meters":38800,"station_id":"ce4bgkh2rcd13ifvqbl0","pricing_plan_id":"cebpf4jnsgd1na2vs0mg"},{"bike_id":"ef670da1-2122-4fae-876a-6773e8b2be74","system_id":"levelo_inurba_marseille","lat":43.29596,"lon":5.38096,"is_reserved":false,"is_disabled":false,"rental_uris":{"android":"levelo://app?vid=ef670da1-2122-4fae-876a-6773e8b2be74","ios":"levelo://app?vid=ef670da1-2122-4fae-876a-6773e8b2be74"},"vehicle_type_id":"4","last_reported":1727532427,"current_range_meters":12000,"station_id":"ce4bgl12rcd13ifvqbo0","pricing_plan_id":"cebpf4jnsgd1na2vs0mg"},{"bike_id":"2d9645d5-1b0d-49c3-8924-d9ef4c554388","system_id":"levelo_inurba_marseille","lat":43.28461,"lon":5.35885,"is_reserved":false,"is_disabled":false,"rental_uris":{"android":"levelo://app?vid=2d9645d5-1b0d-49c3-8924-d9ef4c554388","ios":"levelo://app?vid=2d9645d5-1b0d-49c3-8924-d9ef4c554388"},"vehicle_type_id":"4","last_reported":1727532427,"current_range_meters":19600,"station_id":"ce4bhah2rcd13ifvqei0","pricing_plan_id":"cebpf4jnsgd1na2vs0mg"},{"bike_id":"1c893ec0-e137-4582-a9b3-113a2b52e7cc","system_id":"levelo_inurba_marseille","lat":43.29916,"lon":5.37461,"is_reserved":false,"is_disabled":false,"rental_uris":{"android":"levelo://app?vid=1c893ec0-e137-4582-a9b3-113a2b52e7cc","ios":"levelo://app?vid=1c893ec0-e137-4582-a9b3-113a2b52e7cc"},"vehicle_type_id":"4","last_reported":1727532427,"current_range_meters":29600,"station_id":"ce4bgjh2rcd13ifvqbg0","pricing_plan_id":"cebpf4jnsgd1na2vs0mg"},{"bike_id":"67f10b04-27c2-4902-8b8e-506c4ac38649","system_id":"levelo_inurba_marseille","lat":43.29917,"lon":5.37458,"is_reserved":false,"is_disabled":false,"rental_uris":{"android":"levelo://app?vid=67f10b04-27c2-4902-8b8e-506c4ac38649","ios":"levelo://app?vid=67f10b04-27c2-4902-8b8e-506c4ac38649"},"vehicle_type_id":"4","last_reported":1727532427,"current_range_meters":32000,"station_id":"ce4bgjh2rcd13ifvqbg0","pricing_plan_id":"cebpf4jnsgd1na2vs0mg"},{"bike_id":"32e45a11-d990-4a61-97a2-6995483bcfcf","system_id":"levelo_inurba_marseille","lat":43.29705,"lon":5.36599,"is_reserved":false,"is_disabled":false,"rental_uris":{"android":"levelo://app?vid=32e45a11-d990-4a61-97a2-6995483bcfcf","ios":"levelo://app?vid=32e45a11-d990-4a61-97a2-6995483bcfcf"},"vehicle_type_id":"4","last_reported":1727532427,"current_range_meters":38800,"station_id":"ce4bgn12rcd13ifvqbt0","pricing_plan_id":"cebpf4jnsgd1na2vs0mg"},{"bike_id":"7b424102-f058-418a-a642-b68cc1830f1f","system_id":"levelo_inurba_marseille","lat":43.28406,"lon":5.34986,"is_reserved":false,"is_disabled":false,"rental_uris":{"android":"levelo://app?vid=7b424102-f058-418a-a642-b68cc1830f1f","ios":"levelo://app?vid=7b424102-f058-418a-a642-b68cc1830f1f"},"vehicle_type_id":"4","last_reported":1727532427,"current_range_meters":35200,"station_id":"ce4bhbh2rcd13ifvqepg","pricing_plan_id":"cebpf4jnsgd1na2vs0mg"},{"bike_id":"9ff6e6a3-745d-41f4-a946-a01517dd315d","system_id":"levelo_inurba_marseille","lat":43.28041,"lon":5.36934,"is_reserved":false,"is_disabled":false,"rental_uris":{"android":"levelo://app?vid=9ff6e6a3-745d-41f4-a946-a01517dd315d","ios":"levelo://app?vid=9ff6e6a3-745d-41f4-a946-a01517dd315d"},"vehicle_type_id":"4","last_reported":1727532427,"current_range_meters":16800,"station_id":"ce4bha12rcd13ifvqef0","pricing_plan_id":"cebpf4jnsgd1na2vs0mg"},{"bike_id":"db5b4de9-dc46-4e95-b902-d260a5b9a15c","system_id":"levelo_inurba_marseille","lat":43.30305,"lon":5.3688,"is_reserved":false,"is_disabled":false,"rental_uris":{"android":"levelo://app?vid=db5b4de9-dc46-4e95-b902-d260a5b9a15c","ios":"levelo://app?vid=db5b4de9-dc46-4e95-b902-d260a5b9a15c"},"vehicle_type_id":"4","last_reported":1727532427,"current_range_meters":27600,"station_id":"ce4bgqh2rcd13ifvqc5g","pricing_plan_id":"cebpf4jnsgd1na2vs0mg"},{"bike_id":"915a9ffa-d6c1-485c-9dc6-7efe9567aa5f","system_id":"levelo_inurba_marseille","lat":43.29357,"lon":5.37823,"is_reserved":false,"is_disabled":false,"rental_uris":{"android":"levelo://app?vid=915a9ffa-d6c1-485c-9dc6-7efe9567aa5f","ios":"levelo://app?vid=915a9ffa-d6c1-485c-9dc6-7efe9567aa5f"},"vehicle_type_id":"4","last_reported":1727532427,"current_range_meters":38000,"station_id":"ce4bgjh2rcd13ifvqbf0","pricing_plan_id":"cebpf4jnsgd1na2vs0mg"},{"bike_id":"b678c8a6-a5f1-451b-8e4a-2a121c44354b","system_id":"levelo_inurba_marseille","lat":43.33766,"lon":5.37436,"is_reserved":false,"is_disabled":false,"rental_uris":{"android":"levelo://app?vid=b678c8a6-a5f1-451b-8e4a-2a121c44354b","ios":"levelo://app?vid=b678c8a6-a5f1-451b-8e4a-2a121c44354b"},"vehicle_type_id":"4","last_reported":1727532427,"current_range_meters":38800,"station_id":"","pricing_plan_id":"cebpf4jnsgd1na2vs0mg"},{"bike_id":"adcc7e31-77d5-4791-9667-bb15e9507162","system_id":"levelo_inurba_marseille","lat":43.264862,"lon":5.395355,"is_reserved":false,"is_disabled":false,"rental_uris":{"android":"levelo://app?vid=adcc7e31-77d5-4791-9667-bb15e9507162","ios":"levelo://app?vid=adcc7e31-77d5-4791-9667-bb15e9507162"},"vehicle_type_id":"4","last_reported":1727532427,"current_range_meters":30400,"station_id":"ce4bhi12rcd13ifvqfq0","pricing_plan_id":"cebpf4jnsgd1na2vs0mg"},{"bike_id":"258e025d-f605-4338-84a0-17f713af0b8d","system_id":"levelo_inurba_marseille","lat":43.24805,"lon":5.37453,"is_reserved":false,"is_disabled":false,"rental_uris":{"android":"levelo://app?vid=258e025d-f605-4338-84a0-17f713af0b8d","ios":"levelo://app?vid=258e025d-f605-4338-84a0-17f713af0b8d"},"vehicle_type_id":"4","last_reported":1727532427,"current_range_meters":5600,"station_id":"ce4bhgh2rcd13ifvqfb0","pricing_plan_id":"cebpf4jnsgd1na2vs0mg"},{"bike_id":"bf15cf37-3a4c-4635-b28c-358f55c15bae","system_id":"levelo_inurba_marseille","lat":43.33752,"lon":5.37445,"is_reserved":false,"is_disabled":false,"rental_uris":{"android":"levelo://app?vid=bf15cf37-3a4c-4635-b28c-358f55c15bae","ios":"levelo://app?vid=bf15cf37-3a4c-4635-b28c-358f55c15bae"},"vehicle_type_id":"4","last_reported":1727532427,"current_range_meters":38800,"station_id":"","pricing_plan_id":"cebpf4jnsgd1na2vs0mg"},{"bike_id":"8a090eea-1dc9-46d0-ab54-d29a1ad06cb6","system_id":"levelo_inurba_marseille","lat":43.27836,"lon":5.39211,"is_reserved":false,"is_disabled":false,"rental_uris":{"android":"levelo://app?vid=8a090eea-1dc9-46d0-ab54-d29a1ad06cb6","ios":"levelo://app?vid=8a090eea-1dc9-46d0-ab54-d29a1ad06cb6"},"vehicle_type_id":"4","last_reported":1727532427,"current_range_meters":32400,"station_id":"ce4bhjp2rcd13ifvqga0","pricing_plan_id":"cebpf4jnsgd1na2vs0mg"},{"bike_id":"cd2327c7-af60-4af9-9eff-465722c02c8b","system_id":"levelo_inurba_marseille","lat":43.33623,"lon":5.41016,"is_reserved":false,"is_disabled":false,"rental_uris":{"android":"levelo://app?vid=cd2327c7-af60-4af9-9eff-465722c02c8b","ios":"levelo://app?vid=cd2327c7-af60-4af9-9eff-465722c02c8b"},"vehicle_type_id":"4","last_reported":1727532427,"current_range_meters":8400,"station_id":"ce4bhqh2rcd13ifvqhmg","pricing_plan_id":"cebpf4jnsgd1na2vs0mg"},{"bike_id":"d3242727-2f40-41af-84af-5fdd57de2329","system_id":"levelo_inurba_marseille","lat":43.28619,"lon":5.35099,"is_reserved":false,"is_disabled":false,"rental_uris":{"android":"levelo://app?vid=d3242727-2f40-41af-84af-5fdd57de2329","ios":"levelo://app?vid=d3242727-2f40-41af-84af-5fdd57de2329"},"vehicle_type_id":"4","last_reported":1727532427,"current_range_meters":23200,"station_id":"ce4bhch2rcd13ifvqeug","pricing_plan_id":"cebpf4jnsgd1na2vs0mg"},{"bike_id":"1fefe990-dd80-4ed8-a759-d69efc6789f5","system_id":"levelo_inurba_marseille","lat":43.26026,"lon":5.37547,"is_reserved":false,"is_disabled":false,"rental_uris":{"android":"levelo://app?vid=1fefe990-dd80-4ed8-a759-d69efc6789f5","ios":"levelo://app?vid=1fefe990-dd80-4ed8-a759-d69efc6789f5"},"vehicle_type_id":"4","last_reported":1727532427,"current_range_meters":6800,"station_id":"ce4bhgh2rcd13ifvqfa0","pricing_plan_id":"cebpf4jnsgd1na2vs0mg"},{"bike_id":"6aa95821-8b44-42f3-9d07-8b4a4001e2b1","system_id":"levelo_inurba_marseille","lat":43.23955,"lon":5.36637,"is_reserved":false,"is_disabled":false,"rental_uris":{"android":"levelo://app?vid=6aa95821-8b44-42f3-9d07-8b4a4001e2b1","ios":"levelo://app?vid=6aa95821-8b44-42f3-9d07-8b4a4001e2b1"},"vehicle_type_id":"4","last_reported":1727532427,"current_range_meters":33200,"station_id":"ce4bhi12rcd13ifvqfp0","pricing_plan_id":"cebpf4jnsgd1na2vs0mg"},{"bike_id":"a63d4449-4f5a-4f1c-9a3c-27c8d74bd2a3","system_id":"levelo_inurba_marseille","lat":43.2439,"lon":5.37066,"is_reserved":false,"is_disabled":false,"rental_uris":{"android":"levelo://app?vid=a63d4449-4f5a-4f1c-9a3c-27c8d74bd2a3","ios":"levelo://app?vid=a63d4449-4f5a-4f1c-9a3c-27c8d74bd2a3"},"vehicle_type_id":"4","last_reported":1727532427,"current_range_meters":16000,"station_id":"ce4bhhh2rcd13ifvqfk0","pricing_plan_id":"cebpf4jnsgd1na2vs0mg"},{"bike_id":"e103623c-3ad7-4e94-af31-00104d04d300","system_id":"levelo_inurba_marseille","lat":43.29173,"lon":5.37143,"is_reserved":false,"is_disabled":false,"rental_uris":{"android":"levelo://app?vid=e103623c-3ad7-4e94-af31-00104d04d300","ios":"levelo://app?vid=e103623c-3ad7-4e94-af31-00104d04d300"},"vehicle_type_id":"4","last_reported":1727532427,"current_range_meters":2800,"station_id":"ce4bha92rcd13ifvqeh0","pricing_plan_id":"cebpf4jnsgd1na2vs0mg"},{"bike_id":"d76ea1f6-0517-4947-867b-e9aeb81cfc8a","system_id":"levelo_inurba_marseille","lat":43.29783,"lon":5.37101,"is_reserved":false,"is_disabled":false,"rental_uris":{"android":"levelo://app?vid=d76ea1f6-0517-4947-867b-e9aeb81cfc8a","ios":"levelo://app?vid=d76ea1f6-0517-4947-867b-e9aeb81cfc8a"},"vehicle_type_id":"4","last_reported":1727532427,"current_range_meters":26000,"station_id":"ce4bgop2rcd13ifvqc1g","pricing_plan_id":"cebpf4jnsgd1na2vs0mg"},{"bike_id":"ff16169d-88e9-464d-adae-c2e6af5c693b","system_id":"levelo_inurba_marseille","lat":43.27624,"lon":5.36113,"is_reserved":false,"is_disabled":false,"rental_uris":{"android":"levelo://app?vid=ff16169d-88e9-464d-adae-c2e6af5c693b","ios":"levelo://app?vid=ff16169d-88e9-464d-adae-c2e6af5c693b"},"vehicle_type_id":"4","last_reported":1727532427,"current_range_meters":9200,"station_id":"ce4bgj92rcd13ifvqbe0","pricing_plan_id":"cebpf4jnsgd1na2vs0mg"},{"bike_id":"bc7dc6a9-589f-4649-9e06-6ce7434d3293","system_id":"levelo_inurba_marseille","lat":43.2866,"lon":5.36351,"is_reserved":false,"is_disabled":false,"rental_uris":{"android":"levelo://app?vid=bc7dc6a9-589f-4649-9e06-6ce7434d3293","ios":"levelo://app?vid=bc7dc6a9-589f-4649-9e06-6ce7434d3293"},"vehicle_type_id":"4","last_reported":1727532427,"current_range_meters":25200,"station_id":"ce4bhah2rcd13ifvqej0","pricing_plan_id":"cebpf4jnsgd1na2vs0mg"},{"bike_id":"7d84e7c9-840f-4f54-8e25-eb821afdc242","system_id":"levelo_inurba_marseille","lat":43.23191,"lon":5.35561,"is_reserved":false,"is_disabled":false,"rental_uris":{"android":"levelo://app?vid=7d84e7c9-840f-4f54-8e25-eb821afdc242","ios":"levelo://app?vid=7d84e7c9-840f-4f54-8e25-eb821afdc242"},"vehicle_type_id":"4","last_reported":1727532427,"current_range_meters":6400,"station_id":"ce4bhu92rcd13ifvqi70","pricing_plan_id":"cebpf4jnsgd1na2vs0mg"},{"bike_id":"bd1b70fa-a6e2-4db0-84a7-3df96ccc609d","system_id":"levelo_inurba_marseille","lat":43.27429,"lon":5.39406,"is_reserved":false,"is_disabled":false,"rental_uris":{"android":"levelo://app?vid=bd1b70fa-a6e2-4db0-84a7-3df96ccc609d","ios":"levelo://app?vid=bd1b70fa-a6e2-4db0-84a7-3df96ccc609d"},"vehicle_type_id":"4","last_reported":1727532427,"current_range_meters":33200,"station_id":"ce4bhdp2rcd13ifvqf20","pricing_plan_id":"cebpf4jnsgd1na2vs0mg"},{"bike_id":"8a228f78-61f7-4381-9d75-70ccef72225a","system_id":"levelo_inurba_marseille","lat":43.32542,"lon":5.41448,"is_reserved":false,"is_disabled":false,"rental_uris":{"android":"levelo://app?vid=8a228f78-61f7-4381-9d75-70ccef72225a","ios":"levelo://app?vid=8a228f78-61f7-4381-9d75-70ccef72225a"},"vehicle_type_id":"4","last_reported":1727532427,"current_range_meters":30400,"station_id":"ce4bhq12rcd13ifvqhhg","pricing_plan_id":"cebpf4jnsgd1na2vs0mg"},{"bike_id":"b39b27b0-7b90-4ed2-b6fe-6cd51e89b2cc","system_id":"levelo_inurba_marseille","lat":43.24391,"lon":5.37055,"is_reserved":false,"is_disabled":false,"rental_uris":{"android":"levelo://app?vid=b39b27b0-7b90-4ed2-b6fe-6cd51e89b2cc","ios":"levelo://app?vid=b39b27b0-7b90-4ed2-b6fe-6cd51e89b2cc"},"vehicle_type_id":"4","last_reported":1727532427,"current_range_meters":8000,"station_id":"ce4bhhh2rcd13ifvqfk0","pricing_plan_id":"cebpf4jnsgd1na2vs0mg"},{"bike_id":"ed8c0c2a-49b2-4987-a9ba-4dd1ce890fe6","system_id":"levelo_inurba_marseille","lat":43.29719,"lon":5.3769,"is_reserved":false,"is_disabled":false,"rental_uris":{"android":"levelo://app?vid=ed8c0c2a-49b2-4987-a9ba-4dd1ce890fe6","ios":"levelo://app?vid=ed8c0c2a-49b2-4987-a9ba-4dd1ce890fe6"},"vehicle_type_id":"4","last_reported":1727532427,"current_range_meters":38800,"station_id":"ce4bgkh2rcd13ifvqbl0","pricing_plan_id":"cebpf4jnsgd1na2vs0mg"},{"bike_id":"99bb6fa2-89c2-4568-9c0a-689af12c3ce7","system_id":"levelo_inurba_marseille","lat":43.27313,"lon":5.39089,"is_reserved":false,"is_disabled":false,"rental_uris":{"android":"levelo://app?vid=99bb6fa2-89c2-4568-9c0a-689af12c3ce7","ios":"levelo://app?vid=99bb6fa2-89c2-4568-9c0a-689af12c3ce7"},"vehicle_type_id":"4","last_reported":1727532427,"current_range_meters":37600,"station_id":"ce4bhgp2rcd13ifvqfe0","pricing_plan_id":"cebpf4jnsgd1na2vs0mg"},{"bike_id":"6bbe7017-d8c4-4797-9de4-8c9de6239e13","system_id":"levelo_inurba_marseille","lat":43.25004,"lon":5.38924,"is_reserved":false,"is_disabled":false,"rental_uris":{"android":"levelo://app?vid=6bbe7017-d8c4-4797-9de4-8c9de6239e13","ios":"levelo://app?vid=6bbe7017-d8c4-4797-9de4-8c9de6239e13"},"vehicle_type_id":"4","last_reported":1727532427,"current_range_meters":35600,"station_id":"ce4bhgp2rcd13ifvqfd0","pricing_plan_id":"cebpf4jnsgd1na2vs0mg"},{"bike_id":"fec4f7d1-eedb-46ff-86ff-e7ee27d768ef","system_id":"levelo_inurba_marseille","lat":43.29909,"lon":5.37474,"is_reserved":false,"is_disabled":false,"rental_uris":{"android":"levelo://app?vid=fec4f7d1-eedb-46ff-86ff-e7ee27d768ef","ios":"levelo://app?vid=fec4f7d1-eedb-46ff-86ff-e7ee27d768ef"},"vehicle_type_id":"4","last_reported":1727532427,"current_range_meters":37600,"station_id":"ce4bgjh2rcd13ifvqbg0","pricing_plan_id":"cebpf4jnsgd1na2vs0mg"},{"bike_id":"711b1a3f-caf8-4635-8d1d-49b0691edb3b","system_id":"levelo_inurba_marseille","lat":43.337444,"lon":5.374475,"is_reserved":false,"is_disabled":false,"rental_uris":{"android":"levelo://app?vid=711b1a3f-caf8-4635-8d1d-49b0691edb3b","ios":"levelo://app?vid=711b1a3f-caf8-4635-8d1d-49b0691edb3b"},"vehicle_type_id":"4","last_reported":1727532427,"current_range_meters":35200,"station_id":"ce4bgup2rcd13ifvqcn0","pricing_plan_id":"cebpf4jnsgd1na2vs0mg"},{"bike_id":"9080767b-ee38-4de7-9d0c-0714bf2e7c42","system_id":"levelo_inurba_marseille","lat":43.29978,"lon":5.37175,"is_reserved":false,"is_disabled":false,"rental_uris":{"android":"levelo://app?vid=9080767b-ee38-4de7-9d0c-0714bf2e7c42","ios":"levelo://app?vid=9080767b-ee38-4de7-9d0c-0714bf2e7c42"},"vehicle_type_id":"4","last_reported":1727532427,"current_range_meters":15200,"station_id":"ce4bgr92rcd13ifvqc7g","pricing_plan_id":"cebpf4jnsgd1na2vs0mg"},{"bike_id":"3b170ecf-4bbb-421f-886d-94818fba1de8","system_id":"levelo_inurba_marseille","lat":43.28476,"lon":5.39997,"is_reserved":false,"is_disabled":false,"rental_uris":{"android":"levelo://app?vid=3b170ecf-4bbb-421f-886d-94818fba1de8","ios":"levelo://app?vid=3b170ecf-4bbb-421f-886d-94818fba1de8"},"vehicle_type_id":"4","last_reported":1727532427,"current_range_meters":36800,"station_id":"ce4bh2h2rcd13ifvqdh0","pricing_plan_id":"cebpf4jnsgd1na2vs0mg"},{"bike_id":"3064cd85-1ae1-4839-8708-aaa60bead471","system_id":"levelo_inurba_marseille","lat":43.3046,"lon":5.37898,"is_reserved":false,"is_disabled":false,"rental_uris":{"android":"levelo://app?vid=3064cd85-1ae1-4839-8708-aaa60bead471","ios":"levelo://app?vid=3064cd85-1ae1-4839-8708-aaa60bead471"},"vehicle_type_id":"4","last_reported":1727532427,"current_range_meters":30800,"station_id":"ce4bgup2rcd13ifvqcn0","pricing_plan_id":"cebpf4jnsgd1na2vs0mg"},{"bike_id":"f921205f-c6aa-44b2-805c-16b96a1309d4","system_id":"levelo_inurba_marseille","lat":43.29568,"lon":5.37534,"is_reserved":false,"is_disabled":false,"rental_uris":{"android":"levelo://app?vid=f921205f-c6aa-44b2-805c-16b96a1309d4","ios":"levelo://app?vid=f921205f-c6aa-44b2-805c-16b96a1309d4"},"vehicle_type_id":"4","last_reported":1727532427,"current_range_meters":36000,"station_id":"ce4bgh92rcd13ifvqb50","pricing_plan_id":"cebpf4jnsgd1na2vs0mg"},{"bike_id":"1b5c59f8-89a9-4e46-93f7-af2461aa251a","system_id":"levelo_inurba_marseille","lat":43.23963,"lon":5.36626,"is_reserved":false,"is_disabled":false,"rental_uris":{"android":"levelo://app?vid=1b5c59f8-89a9-4e46-93f7-af2461aa251a","ios":"levelo://app?vid=1b5c59f8-89a9-4e46-93f7-af2461aa251a"},"vehicle_type_id":"4","last_reported":1727532427,"current_range_meters":10000,"station_id":"ce4bhi12rcd13ifvqfp0","pricing_plan_id":"cebpf4jnsgd1na2vs0mg"},{"bike_id":"4b0459dc-d40e-4be4-a7f8-e8b872a7ba5f","system_id":"levelo_inurba_marseille","lat":43.2718,"lon":5.40982,"is_reserved":false,"is_disabled":false,"rental_uris":{"android":"levelo://app?vid=4b0459dc-d40e-4be4-a7f8-e8b872a7ba5f","ios":"levelo://app?vid=4b0459dc-d40e-4be4-a7f8-e8b872a7ba5f"},"vehicle_type_id":"4","last_reported":1727532427,"current_range_meters":36800,"station_id":"ce4bhl12rcd13ifvqgf0","pricing_plan_id":"cebpf4jnsgd1na2vs0mg"},{"bike_id":"b446f6a8-e8aa-4a25-a510-7ffe024a73a9","system_id":"levelo_inurba_marseille","lat":43.29003,"lon":5.35604,"is_reserved":false,"is_disabled":false,"rental_uris":{"android":"levelo://app?vid=b446f6a8-e8aa-4a25-a510-7ffe024a73a9","ios":"levelo://app?vid=b446f6a8-e8aa-4a25-a510-7ffe024a73a9"},"vehicle_type_id":"4","last_reported":1727532427,"current_range_meters":37600,"station_id":"ce4bha92rcd13ifvqeg0","pricing_plan_id":"cebpf4jnsgd1na2vs0mg"},{"bike_id":"de712dca-eef3-49c0-8217-c5753198615c","system_id":"levelo_inurba_marseille","lat":43.28615,"lon":5.35103,"is_reserved":false,"is_disabled":false,"rental_uris":{"android":"levelo://app?vid=de712dca-eef3-49c0-8217-c5753198615c","ios":"levelo://app?vid=de712dca-eef3-49c0-8217-c5753198615c"},"vehicle_type_id":"4","last_reported":1727532427,"current_range_meters":7200,"station_id":"ce4bhch2rcd13ifvqeug","pricing_plan_id":"cebpf4jnsgd1na2vs0mg"},{"bike_id":"4d13bb65-fc03-4800-9bf0-569d0158cd97","system_id":"levelo_inurba_marseille","lat":43.293732,"lon":5.378502,"is_reserved":false,"is_disabled":false,"rental_uris":{"android":"levelo://app?vid=4d13bb65-fc03-4800-9bf0-569d0158cd97","ios":"levelo://app?vid=4d13bb65-fc03-4800-9bf0-569d0158cd97"},"vehicle_type_id":"4","last_reported":1727532427,"current_range_meters":26000,"station_id":"ce4bgjh2rcd13ifvqbf0","pricing_plan_id":"cebpf4jnsgd1na2vs0mg"},{"bike_id":"d9c289c0-6afb-415e-9c5f-95ee557a0dcd","system_id":"levelo_inurba_marseille","lat":43.2621,"lon":5.37443,"is_reserved":false,"is_disabled":false,"rental_uris":{"android":"levelo://app?vid=d9c289c0-6afb-415e-9c5f-95ee557a0dcd","ios":"levelo://app?vid=d9c289c0-6afb-415e-9c5f-95ee557a0dcd"},"vehicle_type_id":"4","last_reported":1727532427,"current_range_meters":29600,"station_id":"ce4bhgp2rcd13ifvqfc0","pricing_plan_id":"cebpf4jnsgd1na2vs0mg"},{"bike_id":"28fd6afa-8ab7-494a-b25a-1a23b319519f","system_id":"levelo_inurba_marseille","lat":43.3171,"lon":5.43708,"is_reserved":false,"is_disabled":false,"rental_uris":{"android":"levelo://app?vid=28fd6afa-8ab7-494a-b25a-1a23b319519f","ios":"levelo://app?vid=28fd6afa-8ab7-494a-b25a-1a23b319519f"},"vehicle_type_id":"4","last_reported":1727532427,"current_range_meters":37600,"station_id":"ce4bhp92rcd13ifvqhcg","pricing_plan_id":"cebpf4jnsgd1na2vs0mg"},{"bike_id":"cf728546-b453-4bbe-a199-05de8a38e92b","system_id":"levelo_inurba_marseille","lat":43.29853,"lon":5.36275,"is_reserved":false,"is_disabled":false,"rental_uris":{"android":"levelo://app?vid=cf728546-b453-4bbe-a199-05de8a38e92b","ios":"levelo://app?vid=cf728546-b453-4bbe-a199-05de8a38e92b"},"vehicle_type_id":"4","last_reported":1727532427,"current_range_meters":10800,"station_id":"ce4bgpp2rcd13ifvqc3g","pricing_plan_id":"cebpf4jnsgd1na2vs0mg"},{"bike_id":"ae687e9a-7d30-4286-920b-e40b1122da1a","system_id":"levelo_inurba_marseille","lat":43.29843,"lon":5.36268,"is_reserved":false,"is_disabled":false,"rental_uris":{"android":"levelo://app?vid=ae687e9a-7d30-4286-920b-e40b1122da1a","ios":"levelo://app?vid=ae687e9a-7d30-4286-920b-e40b1122da1a"},"vehicle_type_id":"4","last_reported":1727532427,"current_range_meters":26000,"station_id":"ce4bgpp2rcd13ifvqc3g","pricing_plan_id":"cebpf4jnsgd1na2vs0mg"},{"bike_id":"10b41199-52cd-4253-8da3-21148a1b6740","system_id":"levelo_inurba_marseille","lat":43.30097,"lon":5.39077,"is_reserved":false,"is_disabled":false,"rental_uris":{"android":"levelo://app?vid=10b41199-52cd-4253-8da3-21148a1b6740","ios":"levelo://app?vid=10b41199-52cd-4253-8da3-21148a1b6740"},"vehicle_type_id":"4","last_reported":1727532427,"current_range_meters":32000,"station_id":"ce4bh192rcd13ifvqdb0","pricing_plan_id":"cebpf4jnsgd1na2vs0mg"},{"bike_id":"7b754d5c-9700-4644-8709-b52a95d38ab8","system_id":"levelo_inurba_marseille","lat":43.30457,"lon":5.37905,"is_reserved":false,"is_disabled":false,"rental_uris":{"android":"levelo://app?vid=7b754d5c-9700-4644-8709-b52a95d38ab8","ios":"levelo://app?vid=7b754d5c-9700-4644-8709-b52a95d38ab8"},"vehicle_type_id":"4","last_reported":1727532427,"current_range_meters":38800,"station_id":"ce4bgup2rcd13ifvqcn0","pricing_plan_id":"cebpf4jnsgd1na2vs0mg"},{"bike_id":"73d9dbe0-709c-408d-87b3-19aa1bd85415","system_id":"levelo_inurba_marseille","lat":43.279327,"lon":5.353449,"is_reserved":false,"is_disabled":false,"rental_uris":{"android":"levelo://app?vid=73d9dbe0-709c-408d-87b3-19aa1bd85415","ios":"levelo://app?vid=73d9dbe0-709c-408d-87b3-19aa1bd85415"},"vehicle_type_id":"4","last_reported":1727532427,"current_range_meters":8800,"station_id":"ce4bhbh2rcd13ifvqepg","pricing_plan_id":"cebpf4jnsgd1na2vs0mg"},{"bike_id":"b7edec61-05a9-4448-8725-131f3fa0925d","system_id":"levelo_inurba_marseille","lat":43.30138,"lon":5.3742,"is_reserved":false,"is_disabled":false,"rental_uris":{"android":"levelo://app?vid=b7edec61-05a9-4448-8725-131f3fa0925d","ios":"levelo://app?vid=b7edec61-05a9-4448-8725-131f3fa0925d"},"vehicle_type_id":"4","last_reported":1727532427,"current_range_meters":40000,"station_id":"ce4bgs92rcd13ifvqcc0","pricing_plan_id":"cebpf4jnsgd1na2vs0mg"},{"bike_id":"ceda1303-8e1d-4d6f-8792-80ce6a3025d5","system_id":"levelo_inurba_marseille","lat":43.31709,"lon":5.43698,"is_reserved":false,"is_disabled":false,"rental_uris":{"android":"levelo://app?vid=ceda1303-8e1d-4d6f-8792-80ce6a3025d5","ios":"levelo://app?vid=ceda1303-8e1d-4d6f-8792-80ce6a3025d5"},"vehicle_type_id":"4","last_reported":1727532427,"current_range_meters":6400,"station_id":"ce4bhp92rcd13ifvqhcg","pricing_plan_id":"cebpf4jnsgd1na2vs0mg"},{"bike_id":"59ce8d8d-b47b-4112-be97-a472940e9dac","system_id":"levelo_inurba_marseille","lat":43.29531,"lon":5.37502,"is_reserved":false,"is_disabled":false,"rental_uris":{"android":"levelo://app?vid=59ce8d8d-b47b-4112-be97-a472940e9dac","ios":"levelo://app?vid=59ce8d8d-b47b-4112-be97-a472940e9dac"},"vehicle_type_id":"4","last_reported":1727532427,"current_range_meters":10800,"station_id":"ce4bgkp2rcd13ifvqbmg","pricing_plan_id":"cebpf4jnsgd1na2vs0mg"},{"bike_id":"61e10d90-1bb9-4c62-abe7-5b2652018e77","system_id":"levelo_inurba_marseille","lat":43.30327,"lon":5.3691,"is_reserved":false,"is_disabled":false,"rental_uris":{"android":"levelo://app?vid=61e10d90-1bb9-4c62-abe7-5b2652018e77","ios":"levelo://app?vid=61e10d90-1bb9-4c62-abe7-5b2652018e77"},"vehicle_type_id":"4","last_reported":1727532427,"current_range_meters":36400,"station_id":"ce4bgqh2rcd13ifvqc5g","pricing_plan_id":"cebpf4jnsgd1na2vs0mg"},{"bike_id":"a2c39ae8-dd4c-47fc-99af-afaf611bb20d","system_id":"levelo_inurba_marseille","lat":43.29634,"lon":5.40603,"is_reserved":false,"is_disabled":false,"rental_uris":{"android":"levelo://app?vid=a2c39ae8-dd4c-47fc-99af-afaf611bb20d","ios":"levelo://app?vid=a2c39ae8-dd4c-47fc-99af-afaf611bb20d"},"vehicle_type_id":"4","last_reported":1727532427,"current_range_meters":6800,"station_id":"ce4bh0h2rcd13ifvqd60","pricing_plan_id":"cebpf4jnsgd1na2vs0mg"},{"bike_id":"f95eea06-fa90-41bb-896f-6fe608e62f6a","system_id":"levelo_inurba_marseille","lat":43.32288,"lon":5.38281,"is_reserved":false,"is_disabled":false,"rental_uris":{"android":"levelo://app?vid=f95eea06-fa90-41bb-896f-6fe608e62f6a","ios":"levelo://app?vid=f95eea06-fa90-41bb-896f-6fe608e62f6a"},"vehicle_type_id":"4","last_reported":1727532427,"current_range_meters":28000,"station_id":"ce4bhr12rcd13ifvqhqg","pricing_plan_id":"cebpf4jnsgd1na2vs0mg"},{"bike_id":"c049a602-ba08-44c1-a4f9-1cbd185f086f","system_id":"levelo_inurba_marseille","lat":43.229306,"lon":5.35376,"is_reserved":false,"is_disabled":false,"rental_uris":{"android":"levelo://app?vid=c049a602-ba08-44c1-a4f9-1cbd185f086f","ios":"levelo://app?vid=c049a602-ba08-44c1-a4f9-1cbd185f086f"},"vehicle_type_id":"4","last_reported":1727532427,"current_range_meters":4800,"station_id":"cpo3532slgdg3j2ikp40","pricing_plan_id":"cebpf4jnsgd1na2vs0mg"},{"bike_id":"2617c06e-e17f-43d0-bd86-b5a25b7cd217","system_id":"levelo_inurba_marseille","lat":43.27417,"lon":5.39404,"is_reserved":false,"is_disabled":false,"rental_uris":{"android":"levelo://app?vid=2617c06e-e17f-43d0-bd86-b5a25b7cd217","ios":"levelo://app?vid=2617c06e-e17f-43d0-bd86-b5a25b7cd217"},"vehicle_type_id":"4","last_reported":1727532427,"current_range_meters":8400,"station_id":"ce4bhdp2rcd13ifvqf20","pricing_plan_id":"cebpf4jnsgd1na2vs0mg"},{"bike_id":"a65762ca-879e-4bd7-a376-5e61cdd63ef2","system_id":"levelo_inurba_marseille","lat":43.31329,"lon":5.39699,"is_reserved":false,"is_disabled":false,"rental_uris":{"android":"levelo://app?vid=a65762ca-879e-4bd7-a376-5e61cdd63ef2","ios":"levelo://app?vid=a65762ca-879e-4bd7-a376-5e61cdd63ef2"},"vehicle_type_id":"4","last_reported":1727532427,"current_range_meters":17600,"station_id":"ce4bgvp2rcd13ifvqcu0","pricing_plan_id":"cebpf4jnsgd1na2vs0mg"},{"bike_id":"f0780ad5-cd61-44ac-90cc-fcf066275e5a","system_id":"levelo_inurba_marseille","lat":43.27377,"lon":5.36256,"is_reserved":false,"is_disabled":false,"rental_uris":{"android":"levelo://app?vid=f0780ad5-cd61-44ac-90cc-fcf066275e5a","ios":"levelo://app?vid=f0780ad5-cd61-44ac-90cc-fcf066275e5a"},"vehicle_type_id":"4","last_reported":1727532427,"current_range_meters":7200,"station_id":"ce4bhbh2rcd13ifvqeo0","pricing_plan_id":"cebpf4jnsgd1na2vs0mg"},{"bike_id":"04b6177d-c575-4b6e-8490-63c3c4fcb2fb","system_id":"levelo_inurba_marseille","lat":43.29852,"lon":5.36275,"is_reserved":false,"is_disabled":false,"rental_uris":{"android":"levelo://app?vid=04b6177d-c575-4b6e-8490-63c3c4fcb2fb","ios":"levelo://app?vid=04b6177d-c575-4b6e-8490-63c3c4fcb2fb"},"vehicle_type_id":"4","last_reported":1727532427,"current_range_meters":25600,"station_id":"ce4bgpp2rcd13ifvqc3g","pricing_plan_id":"cebpf4jnsgd1na2vs0mg"},{"bike_id":"601adc2f-0a73-42d1-9bb8-7e6ae5be6b64","system_id":"levelo_inurba_marseille","lat":43.29776,"lon":5.371,"is_reserved":false,"is_disabled":false,"rental_uris":{"android":"levelo://app?vid=601adc2f-0a73-42d1-9bb8-7e6ae5be6b64","ios":"levelo://app?vid=601adc2f-0a73-42d1-9bb8-7e6ae5be6b64"},"vehicle_type_id":"4","last_reported":1727532427,"current_range_meters":33600,"station_id":"ce4bgop2rcd13ifvqc1g","pricing_plan_id":"cebpf4jnsgd1na2vs0mg"},{"bike_id":"e201fd91-c743-4cd4-b400-4b1f7ed120f2","system_id":"levelo_inurba_marseille","lat":43.24644,"lon":5.38898,"is_reserved":false,"is_disabled":false,"rental_uris":{"android":"levelo://app?vid=e201fd91-c743-4cd4-b400-4b1f7ed120f2","ios":"levelo://app?vid=e201fd91-c743-4cd4-b400-4b1f7ed120f2"},"vehicle_type_id":"4","last_reported":1727532427,"current_range_meters":24800,"station_id":"ce4bhg12rcd13ifvqf60","pricing_plan_id":"cebpf4jnsgd1na2vs0mg"},{"bike_id":"063bbd6f-5d09-4418-8bbc-24cbd88cc1c7","system_id":"levelo_inurba_marseille","lat":43.299,"lon":5.43661,"is_reserved":false,"is_disabled":false,"rental_uris":{"android":"levelo://app?vid=063bbd6f-5d09-4418-8bbc-24cbd88cc1c7","ios":"levelo://app?vid=063bbd6f-5d09-4418-8bbc-24cbd88cc1c7"},"vehicle_type_id":"4","last_reported":1727532427,"current_range_meters":22400,"station_id":"ce4bhpp2rcd13ifvqhfg","pricing_plan_id":"cebpf4jnsgd1na2vs0mg"},{"bike_id":"48e17e1b-d55c-4e61-bac2-73297c1324ef","system_id":"levelo_inurba_marseille","lat":43.28422,"lon":5.34993,"is_reserved":false,"is_disabled":false,"rental_uris":{"android":"levelo://app?vid=48e17e1b-d55c-4e61-bac2-73297c1324ef","ios":"levelo://app?vid=48e17e1b-d55c-4e61-bac2-73297c1324ef"},"vehicle_type_id":"4","last_reported":1727532427,"current_range_meters":12800,"station_id":"ce4bhbh2rcd13ifvqepg","pricing_plan_id":"cebpf4jnsgd1na2vs0mg"},{"bike_id":"aa142fe2-a7a7-4008-884e-6c1ccd747964","system_id":"levelo_inurba_marseille","lat":43.3046,"lon":5.37904,"is_reserved":false,"is_disabled":false,"rental_uris":{"android":"levelo://app?vid=aa142fe2-a7a7-4008-884e-6c1ccd747964","ios":"levelo://app?vid=aa142fe2-a7a7-4008-884e-6c1ccd747964"},"vehicle_type_id":"4","last_reported":1727532427,"current_range_meters":34800,"station_id":"ce4bgup2rcd13ifvqcn0","pricing_plan_id":"cebpf4jnsgd1na2vs0mg"},{"bike_id":"9efdf05c-571e-4c3a-a0bf-af0e0fbc032d","system_id":"levelo_inurba_marseille","lat":43.25092,"lon":5.39515,"is_reserved":false,"is_disabled":false,"rental_uris":{"android":"levelo://app?vid=9efdf05c-571e-4c3a-a0bf-af0e0fbc032d","ios":"levelo://app?vid=9efdf05c-571e-4c3a-a0bf-af0e0fbc032d"},"vehicle_type_id":"4","last_reported":1727532427,"current_range_meters":24400,"station_id":"ce4bhm12rcd13ifvqgkg","pricing_plan_id":"cebpf4jnsgd1na2vs0mg"},{"bike_id":"d31f8daa-636d-44cc-87f9-977814eb38d0","system_id":"levelo_inurba_marseille","lat":43.3055,"lon":5.36706,"is_reserved":false,"is_disabled":false,"rental_uris":{"android":"levelo://app?vid=d31f8daa-636d-44cc-87f9-977814eb38d0","ios":"levelo://app?vid=d31f8daa-636d-44cc-87f9-977814eb38d0"},"vehicle_type_id":"4","last_reported":1727532427,"current_range_meters":25600,"station_id":"ce4bgrp2rcd13ifvqc9g","pricing_plan_id":"cebpf4jnsgd1na2vs0mg"},{"bike_id":"f79cf2a5-1842-4da9-9dc5-9f2f4e9979ff","system_id":"levelo_inurba_marseille","lat":43.317535,"lon":5.390172,"is_reserved":false,"is_disabled":false,"rental_uris":{"android":"levelo://app?vid=f79cf2a5-1842-4da9-9dc5-9f2f4e9979ff","ios":"levelo://app?vid=f79cf2a5-1842-4da9-9dc5-9f2f4e9979ff"},"vehicle_type_id":"4","last_reported":1727532427,"current_range_meters":26000,"station_id":"ce4bhqp2rcd13ifvqhng","pricing_plan_id":"cebpf4jnsgd1na2vs0mg"},{"bike_id":"dead5596-4944-4785-b8f7-33b9d143839f","system_id":"levelo_inurba_marseille","lat":43.29916,"lon":5.37459,"is_reserved":false,"is_disabled":false,"rental_uris":{"android":"levelo://app?vid=dead5596-4944-4785-b8f7-33b9d143839f","ios":"levelo://app?vid=dead5596-4944-4785-b8f7-33b9d143839f"},"vehicle_type_id":"4","last_reported":1727532427,"current_range_meters":10800,"station_id":"ce4bgjh2rcd13ifvqbg0","pricing_plan_id":"cebpf4jnsgd1na2vs0mg"},{"bike_id":"55a93634-216e-4c4e-b9a1-ac6307e160b7","system_id":"levelo_inurba_marseille","lat":43.29716,"lon":5.36605,"is_reserved":false,"is_disabled":false,"rental_uris":{"android":"levelo://app?vid=55a93634-216e-4c4e-b9a1-ac6307e160b7","ios":"levelo://app?vid=55a93634-216e-4c4e-b9a1-ac6307e160b7"},"vehicle_type_id":"4","last_reported":1727532427,"current_range_meters":37600,"station_id":"ce4bgn12rcd13ifvqbt0","pricing_plan_id":"cebpf4jnsgd1na2vs0mg"},{"bike_id":"e9776310-b20e-4114-a6b6-30f9f0cfe653","system_id":"levelo_inurba_marseille","lat":43.2603,"lon":5.37545,"is_reserved":false,"is_disabled":false,"rental_uris":{"android":"levelo://app?vid=e9776310-b20e-4114-a6b6-30f9f0cfe653","ios":"levelo://app?vid=e9776310-b20e-4114-a6b6-30f9f0cfe653"},"vehicle_type_id":"4","last_reported":1727532427,"current_range_meters":37600,"station_id":"ce4bhgh2rcd13ifvqfa0","pricing_plan_id":"cebpf4jnsgd1na2vs0mg"},{"bike_id":"238b230b-600d-4cf8-85e2-981fdede76ab","system_id":"levelo_inurba_marseille","lat":43.30534,"lon":5.38426,"is_reserved":false,"is_disabled":false,"rental_uris":{"android":"levelo://app?vid=238b230b-600d-4cf8-85e2-981fdede76ab","ios":"levelo://app?vid=238b230b-600d-4cf8-85e2-981fdede76ab"},"vehicle_type_id":"4","last_reported":1727532427,"current_range_meters":10800,"station_id":"ce4bgg92rcd13ifvqb30","pricing_plan_id":"cebpf4jnsgd1na2vs0mg"},{"bike_id":"6985b616-b9a2-46f5-aca3-050685ca4771","system_id":"levelo_inurba_marseille","lat":43.337444,"lon":5.374475,"is_reserved":false,"is_disabled":false,"rental_uris":{"android":"levelo://app?vid=6985b616-b9a2-46f5-aca3-050685ca4771","ios":"levelo://app?vid=6985b616-b9a2-46f5-aca3-050685ca4771"},"vehicle_type_id":"4","last_reported":1727532427,"current_range_meters":24000,"station_id":"","pricing_plan_id":"cebpf4jnsgd1na2vs0mg"},{"bike_id":"0701cf2a-674c-4c9d-af1e-6650acbaaf74","system_id":"levelo_inurba_marseille","lat":43.2838,"lon":5.37294,"is_reserved":false,"is_disabled":false,"rental_uris":{"android":"levelo://app?vid=0701cf2a-674c-4c9d-af1e-6650acbaaf74","ios":"levelo://app?vid=0701cf2a-674c-4c9d-af1e-6650acbaaf74"},"vehicle_type_id":"4","last_reported":1727532427,"current_range_meters":16400,"station_id":"","pricing_plan_id":"cebpf4jnsgd1na2vs0mg"},{"bike_id":"50a2aa03-c971-4b07-8ea1-bda0410fcda4","system_id":"levelo_inurba_marseille","lat":43.27897,"lon":5.38013,"is_reserved":false,"is_disabled":false,"rental_uris":{"android":"levelo://app?vid=50a2aa03-c971-4b07-8ea1-bda0410fcda4","ios":"levelo://app?vid=50a2aa03-c971-4b07-8ea1-bda0410fcda4"},"vehicle_type_id":"4","last_reported":1727532427,"current_range_meters":38800,"station_id":"ce4bhf92rcd13ifvqf50","pricing_plan_id":"cebpf4jnsgd1na2vs0mg"},{"bike_id":"2ae9927c-e706-4f74-9899-5b7bd4172836","system_id":"levelo_inurba_marseille","lat":43.22933,"lon":5.35374,"is_reserved":false,"is_disabled":false,"rental_uris":{"android":"levelo://app?vid=2ae9927c-e706-4f74-9899-5b7bd4172836","ios":"levelo://app?vid=2ae9927c-e706-4f74-9899-5b7bd4172836"},"vehicle_type_id":"4","last_reported":1727532427,"current_range_meters":27600,"station_id":"cpo3532slgdg3j2ikp40","pricing_plan_id":"cebpf4jnsgd1na2vs0mg"},{"bike_id":"48dd8be6-53cb-4e56-80e9-0a26cb8e43ce","system_id":"levelo_inurba_marseille","lat":43.28149,"lon":5.42637,"is_reserved":false,"is_disabled":false,"rental_uris":{"android":"levelo://app?vid=48dd8be6-53cb-4e56-80e9-0a26cb8e43ce","ios":"levelo://app?vid=48dd8be6-53cb-4e56-80e9-0a26cb8e43ce"},"vehicle_type_id":"4","last_reported":1727532427,"current_range_meters":33200,"station_id":"ce4bhnh2rcd13ifvqgug","pricing_plan_id":"cebpf4jnsgd1na2vs0mg"},{"bike_id":"67e26a28-a608-484a-bbbd-32103290f861","system_id":"levelo_inurba_marseille","lat":43.27366,"lon":5.36246,"is_reserved":false,"is_disabled":false,"rental_uris":{"android":"levelo://app?vid=67e26a28-a608-484a-bbbd-32103290f861","ios":"levelo://app?vid=67e26a28-a608-484a-bbbd-32103290f861"},"vehicle_type_id":"4","last_reported":1727532427,"current_range_meters":29600,"station_id":"ce4bhbh2rcd13ifvqeo0","pricing_plan_id":"cebpf4jnsgd1na2vs0mg"},{"bike_id":"12f9708b-78a7-44bf-89fc-9bc5a8dcadce","system_id":"levelo_inurba_marseille","lat":43.28112,"lon":5.37835,"is_reserved":false,"is_disabled":false,"rental_uris":{"android":"levelo://app?vid=12f9708b-78a7-44bf-89fc-9bc5a8dcadce","ios":"levelo://app?vid=12f9708b-78a7-44bf-89fc-9bc5a8dcadce"},"vehicle_type_id":"4","last_reported":1727532427,"current_range_meters":27200,"station_id":"ce4bha12rcd13ifvqee0","pricing_plan_id":"cebpf4jnsgd1na2vs0mg"},{"bike_id":"6eab33e0-c6c2-4f3e-a993-ae6b9ca5538b","system_id":"levelo_inurba_marseille","lat":43.2396,"lon":5.36624,"is_reserved":false,"is_disabled":false,"rental_uris":{"android":"levelo://app?vid=6eab33e0-c6c2-4f3e-a993-ae6b9ca5538b","ios":"levelo://app?vid=6eab33e0-c6c2-4f3e-a993-ae6b9ca5538b"},"vehicle_type_id":"4","last_reported":1727532427,"current_range_meters":16400,"station_id":"ce4bhi12rcd13ifvqfp0","pricing_plan_id":"cebpf4jnsgd1na2vs0mg"},{"bike_id":"dfc62416-54cf-4e38-a908-06ef68c01b30","system_id":"levelo_inurba_marseille","lat":43.314801,"lon":5.373063,"is_reserved":false,"is_disabled":false,"rental_uris":{"android":"levelo://app?vid=dfc62416-54cf-4e38-a908-06ef68c01b30","ios":"levelo://app?vid=dfc62416-54cf-4e38-a908-06ef68c01b30"},"vehicle_type_id":"4","last_reported":1727532427,"current_range_meters":12800,"station_id":"ce4bgt12rcd13ifvqcd0","pricing_plan_id":"cebpf4jnsgd1na2vs0mg"},{"bike_id":"6cdca13d-24d1-4302-912a-54d18c748242","system_id":"levelo_inurba_marseille","lat":43.31083,"lon":5.40132,"is_reserved":false,"is_disabled":false,"rental_uris":{"android":"levelo://app?vid=6cdca13d-24d1-4302-912a-54d18c748242","ios":"levelo://app?vid=6cdca13d-24d1-4302-912a-54d18c748242"},"vehicle_type_id":"4","last_reported":1727532427,"current_range_meters":9200,"station_id":"","pricing_plan_id":"cebpf4jnsgd1na2vs0mg"},{"bike_id":"cf3a4ee4-c9d3-4ea3-ae0b-b5b4c90d13af","system_id":"levelo_inurba_marseille","lat":43.29846,"lon":5.36275,"is_reserved":false,"is_disabled":false,"rental_uris":{"android":"levelo://app?vid=cf3a4ee4-c9d3-4ea3-ae0b-b5b4c90d13af","ios":"levelo://app?vid=cf3a4ee4-c9d3-4ea3-ae0b-b5b4c90d13af"},"vehicle_type_id":"4","last_reported":1727532427,"current_range_meters":16000,"station_id":"ce4bgpp2rcd13ifvqc3g","pricing_plan_id":"cebpf4jnsgd1na2vs0mg"},{"bike_id":"7ad895b9-67f1-4858-9a31-8e7998adc7fa","system_id":"levelo_inurba_marseille","lat":43.29173,"lon":5.37147,"is_reserved":false,"is_disabled":false,"rental_uris":{"android":"levelo://app?vid=7ad895b9-67f1-4858-9a31-8e7998adc7fa","ios":"levelo://app?vid=7ad895b9-67f1-4858-9a31-8e7998adc7fa"},"vehicle_type_id":"4","last_reported":1727532427,"current_range_meters":38000,"station_id":"ce4bha92rcd13ifvqeh0","pricing_plan_id":"cebpf4jnsgd1na2vs0mg"},{"bike_id":"449c7942-5c04-417b-b87c-c0cf734e42d7","system_id":"levelo_inurba_marseille","lat":43.27943,"lon":5.4104,"is_reserved":false,"is_disabled":false,"rental_uris":{"android":"levelo://app?vid=449c7942-5c04-417b-b87c-c0cf734e42d7","ios":"levelo://app?vid=449c7942-5c04-417b-b87c-c0cf734e42d7"},"vehicle_type_id":"4","last_reported":1727532427,"current_range_meters":32400,"station_id":"ce4bhnp2rcd13ifvqh0g","pricing_plan_id":"cebpf4jnsgd1na2vs0mg"},{"bike_id":"da2e7afb-45a7-4193-9960-716c0aa1657b","system_id":"levelo_inurba_marseille","lat":43.32294,"lon":5.38267,"is_reserved":false,"is_disabled":false,"rental_uris":{"android":"levelo://app?vid=da2e7afb-45a7-4193-9960-716c0aa1657b","ios":"levelo://app?vid=da2e7afb-45a7-4193-9960-716c0aa1657b"},"vehicle_type_id":"4","last_reported":1727532427,"current_range_meters":40000,"station_id":"ce4bhr12rcd13ifvqhqg","pricing_plan_id":"cebpf4jnsgd1na2vs0mg"},{"bike_id":"dbab5e16-0de9-4389-932d-06a62d667144","system_id":"levelo_inurba_marseille","lat":43.25826,"lon":5.39416,"is_reserved":false,"is_disabled":false,"rental_uris":{"android":"levelo://app?vid=dbab5e16-0de9-4389-932d-06a62d667144","ios":"levelo://app?vid=dbab5e16-0de9-4389-932d-06a62d667144"},"vehicle_type_id":"4","last_reported":1727532427,"current_range_meters":36800,"station_id":"ce4bhip2rcd13ifvqft0","pricing_plan_id":"cebpf4jnsgd1na2vs0mg"},{"bike_id":"c37d1269-0c8d-4f6f-8708-eb898371b74f","system_id":"levelo_inurba_marseille","lat":43.29299,"lon":5.37452,"is_reserved":false,"is_disabled":false,"rental_uris":{"android":"levelo://app?vid=c37d1269-0c8d-4f6f-8708-eb898371b74f","ios":"levelo://app?vid=c37d1269-0c8d-4f6f-8708-eb898371b74f"},"vehicle_type_id":"4","last_reported":1727532427,"current_range_meters":36000,"station_id":"ce4bgi12rcd13ifvqb70","pricing_plan_id":"cebpf4jnsgd1na2vs0mg"},{"bike_id":"3407da71-e9f5-4375-9956-506983640a2f","system_id":"levelo_inurba_marseille","lat":43.29009,"lon":5.37585,"is_reserved":false,"is_disabled":false,"rental_uris":{"android":"levelo://app?vid=3407da71-e9f5-4375-9956-506983640a2f","ios":"levelo://app?vid=3407da71-e9f5-4375-9956-506983640a2f"},"vehicle_type_id":"4","last_reported":1727532427,"current_range_meters":28400,"station_id":"ce4bh692rcd13ifvqe90","pricing_plan_id":"cebpf4jnsgd1na2vs0mg"},{"bike_id":"22504853-99fa-4006-bc2b-d6116cdc369d","system_id":"levelo_inurba_marseille","lat":43.29274,"lon":5.36852,"is_reserved":false,"is_disabled":false,"rental_uris":{"android":"levelo://app?vid=22504853-99fa-4006-bc2b-d6116cdc369d","ios":"levelo://app?vid=22504853-99fa-4006-bc2b-d6116cdc369d"},"vehicle_type_id":"4","last_reported":1727532427,"current_range_meters":4400,"station_id":"ce4bhbp2rcd13ifvqesg","pricing_plan_id":"cebpf4jnsgd1na2vs0mg"},{"bike_id":"de943b25-0c3b-4a57-a58a-0428388802bb","system_id":"levelo_inurba_marseille","lat":43.2668,"lon":5.3827,"is_reserved":false,"is_disabled":false,"rental_uris":{"android":"levelo://app?vid=de943b25-0c3b-4a57-a58a-0428388802bb","ios":"levelo://app?vid=de943b25-0c3b-4a57-a58a-0428388802bb"},"vehicle_type_id":"4","last_reported":1727532427,"current_range_meters":3600,"station_id":"ce4bhg92rcd13ifvqf90","pricing_plan_id":"cebpf4jnsgd1na2vs0mg"},{"bike_id":"bb49880e-a839-45e2-b568-68c4c246abc9","system_id":"levelo_inurba_marseille","lat":43.30467,"lon":5.37907,"is_reserved":false,"is_disabled":false,"rental_uris":{"android":"levelo://app?vid=bb49880e-a839-45e2-b568-68c4c246abc9","ios":"levelo://app?vid=bb49880e-a839-45e2-b568-68c4c246abc9"},"vehicle_type_id":"4","last_reported":1727532427,"current_range_meters":28000,"station_id":"ce4bgup2rcd13ifvqcn0","pricing_plan_id":"cebpf4jnsgd1na2vs0mg"},{"bike_id":"4a6f3c6a-7d20-4e79-a100-61b23fcc32e5","system_id":"levelo_inurba_marseille","lat":43.32289,"lon":5.38282,"is_reserved":false,"is_disabled":false,"rental_uris":{"android":"levelo://app?vid=4a6f3c6a-7d20-4e79-a100-61b23fcc32e5","ios":"levelo://app?vid=4a6f3c6a-7d20-4e79-a100-61b23fcc32e5"},"vehicle_type_id":"4","last_reported":1727532427,"current_range_meters":38800,"station_id":"ce4bhr12rcd13ifvqhqg","pricing_plan_id":"cebpf4jnsgd1na2vs0mg"},{"bike_id":"ff9fc0f2-8256-4aba-8154-e5e381eb0599","system_id":"levelo_inurba_marseille","lat":43.29708,"lon":5.3661,"is_reserved":false,"is_disabled":false,"rental_uris":{"android":"levelo://app?vid=ff9fc0f2-8256-4aba-8154-e5e381eb0599","ios":"levelo://app?vid=ff9fc0f2-8256-4aba-8154-e5e381eb0599"},"vehicle_type_id":"4","last_reported":1727532427,"current_range_meters":38800,"station_id":"ce4bgn12rcd13ifvqbt0","pricing_plan_id":"cebpf4jnsgd1na2vs0mg"},{"bike_id":"1255c1bd-a4b1-450d-932c-fbb317c9553d","system_id":"levelo_inurba_marseille","lat":43.27563,"lon":5.38414,"is_reserved":false,"is_disabled":false,"rental_uris":{"android":"levelo://app?vid=1255c1bd-a4b1-450d-932c-fbb317c9553d","ios":"levelo://app?vid=1255c1bd-a4b1-450d-932c-fbb317c9553d"},"vehicle_type_id":"4","last_reported":1727532427,"current_range_meters":8400,"station_id":"ce4bhh92rcd13ifvqfi0","pricing_plan_id":"cebpf4jnsgd1na2vs0mg"},{"bike_id":"65768cd7-63c4-42bd-95bb-2f7bc170252f","system_id":"levelo_inurba_marseille","lat":43.29836,"lon":5.36278,"is_reserved":false,"is_disabled":false,"rental_uris":{"android":"levelo://app?vid=65768cd7-63c4-42bd-95bb-2f7bc170252f","ios":"levelo://app?vid=65768cd7-63c4-42bd-95bb-2f7bc170252f"},"vehicle_type_id":"4","last_reported":1727532427,"current_range_meters":38800,"station_id":"ce4bgpp2rcd13ifvqc3g","pricing_plan_id":"cebpf4jnsgd1na2vs0mg"},{"bike_id":"d683260e-cf35-4f18-b4a8-e7e6cd00a9bd","system_id":"levelo_inurba_marseille","lat":43.25005,"lon":5.3892,"is_reserved":false,"is_disabled":false,"rental_uris":{"android":"levelo://app?vid=d683260e-cf35-4f18-b4a8-e7e6cd00a9bd","ios":"levelo://app?vid=d683260e-cf35-4f18-b4a8-e7e6cd00a9bd"},"vehicle_type_id":"4","last_reported":1727532427,"current_range_meters":22000,"station_id":"ce4bhgp2rcd13ifvqfd0","pricing_plan_id":"cebpf4jnsgd1na2vs0mg"},{"bike_id":"b219ffa8-062f-4555-aee7-940d50357d55","system_id":"levelo_inurba_marseille","lat":43.31274,"lon":5.40173,"is_reserved":false,"is_disabled":false,"rental_uris":{"android":"levelo://app?vid=b219ffa8-062f-4555-aee7-940d50357d55","ios":"levelo://app?vid=b219ffa8-062f-4555-aee7-940d50357d55"},"vehicle_type_id":"4","last_reported":1727532427,"current_range_meters":28000,"station_id":"ce4bhq12rcd13ifvqhhg","pricing_plan_id":"cebpf4jnsgd1na2vs0mg"},{"bike_id":"275b0a25-1a9f-498c-9202-be550b06c3de","system_id":"levelo_inurba_marseille","lat":43.32291,"lon":5.38279,"is_reserved":false,"is_disabled":false,"rental_uris":{"android":"levelo://app?vid=275b0a25-1a9f-498c-9202-be550b06c3de","ios":"levelo://app?vid=275b0a25-1a9f-498c-9202-be550b06c3de"},"vehicle_type_id":"4","last_reported":1727532427,"current_range_meters":26800,"station_id":"ce4bhr12rcd13ifvqhqg","pricing_plan_id":"cebpf4jnsgd1na2vs0mg"},{"bike_id":"da3d8f0d-0f47-455d-bf44-fb306bfeadf4","system_id":"levelo_inurba_marseille","lat":43.29854,"lon":5.38109,"is_reserved":false,"is_disabled":false,"rental_uris":{"android":"levelo://app?vid=da3d8f0d-0f47-455d-bf44-fb306bfeadf4","ios":"levelo://app?vid=da3d8f0d-0f47-455d-bf44-fb306bfeadf4"},"vehicle_type_id":"4","last_reported":1727532427,"current_range_meters":26000,"station_id":"ce4bgop2rcd13ifvqc1g","pricing_plan_id":"cebpf4jnsgd1na2vs0mg"},{"bike_id":"a840744e-f5ba-493b-a121-a825bd5d67de","system_id":"levelo_inurba_marseille","lat":43.27365,"lon":5.36245,"is_reserved":false,"is_disabled":false,"rental_uris":{"android":"levelo://app?vid=a840744e-f5ba-493b-a121-a825bd5d67de","ios":"levelo://app?vid=a840744e-f5ba-493b-a121-a825bd5d67de"},"vehicle_type_id":"4","last_reported":1727532427,"current_range_meters":28000,"station_id":"ce4bhbh2rcd13ifvqeo0","pricing_plan_id":"cebpf4jnsgd1na2vs0mg"},{"bike_id":"67ad384a-3a16-4e29-9113-32c6258c1182","system_id":"levelo_inurba_marseille","lat":43.30539,"lon":5.36697,"is_reserved":false,"is_disabled":false,"rental_uris":{"android":"levelo://app?vid=67ad384a-3a16-4e29-9113-32c6258c1182","ios":"levelo://app?vid=67ad384a-3a16-4e29-9113-32c6258c1182"},"vehicle_type_id":"4","last_reported":1727532427,"current_range_meters":38800,"station_id":"ce4bgrp2rcd13ifvqc9g","pricing_plan_id":"cebpf4jnsgd1na2vs0mg"},{"bike_id":"aff760a9-21da-4539-9258-1e08fa1134f3","system_id":"levelo_inurba_marseille","lat":43.23961,"lon":5.36628,"is_reserved":false,"is_disabled":false,"rental_uris":{"android":"levelo://app?vid=aff760a9-21da-4539-9258-1e08fa1134f3","ios":"levelo://app?vid=aff760a9-21da-4539-9258-1e08fa1134f3"},"vehicle_type_id":"4","last_reported":1727532427,"current_range_meters":35600,"station_id":"ce4bhi12rcd13ifvqfp0","pricing_plan_id":"cebpf4jnsgd1na2vs0mg"},{"bike_id":"0c3f0369-7cdf-4cba-a0db-09435ab8c8da","system_id":"levelo_inurba_marseille","lat":43.23191,"lon":5.39991,"is_reserved":false,"is_disabled":false,"rental_uris":{"android":"levelo://app?vid=0c3f0369-7cdf-4cba-a0db-09435ab8c8da","ios":"levelo://app?vid=0c3f0369-7cdf-4cba-a0db-09435ab8c8da"},"vehicle_type_id":"4","last_reported":1727532427,"current_range_meters":30400,"station_id":"ce4bhn12rcd13ifvqgqg","pricing_plan_id":"cebpf4jnsgd1na2vs0mg"},{"bike_id":"deb7980f-58a8-4033-8835-655c6a4e78f7","system_id":"levelo_inurba_marseille","lat":43.2756,"lon":5.3841,"is_reserved":false,"is_disabled":false,"rental_uris":{"android":"levelo://app?vid=deb7980f-58a8-4033-8835-655c6a4e78f7","ios":"levelo://app?vid=deb7980f-58a8-4033-8835-655c6a4e78f7"},"vehicle_type_id":"4","last_reported":1727532427,"current_range_meters":39200,"station_id":"ce4bhh92rcd13ifvqfi0","pricing_plan_id":"cebpf4jnsgd1na2vs0mg"},{"bike_id":"9ef80c8e-5ce5-4b39-8720-9968a49186b6","system_id":"levelo_inurba_marseille","lat":43.2756,"lon":5.38407,"is_reserved":false,"is_disabled":false,"rental_uris":{"android":"levelo://app?vid=9ef80c8e-5ce5-4b39-8720-9968a49186b6","ios":"levelo://app?vid=9ef80c8e-5ce5-4b39-8720-9968a49186b6"},"vehicle_type_id":"4","last_reported":1727532427,"current_range_meters":8000,"station_id":"ce4bhh92rcd13ifvqfi0","pricing_plan_id":"cebpf4jnsgd1na2vs0mg"},{"bike_id":"06981e52-06f2-48c7-8865-e14ca565f9df","system_id":"levelo_inurba_marseille","lat":43.29717,"lon":5.37687,"is_reserved":false,"is_disabled":false,"rental_uris":{"android":"levelo://app?vid=06981e52-06f2-48c7-8865-e14ca565f9df","ios":"levelo://app?vid=06981e52-06f2-48c7-8865-e14ca565f9df"},"vehicle_type_id":"4","last_reported":1727532427,"current_range_meters":38800,"station_id":"ce4bgkh2rcd13ifvqbl0","pricing_plan_id":"cebpf4jnsgd1na2vs0mg"},{"bike_id":"bc20af5c-be7b-4c51-b09b-2e170ca1b5b9","system_id":"levelo_inurba_marseille","lat":43.25489,"lon":5.37643,"is_reserved":false,"is_disabled":false,"rental_uris":{"android":"levelo://app?vid=bc20af5c-be7b-4c51-b09b-2e170ca1b5b9","ios":"levelo://app?vid=bc20af5c-be7b-4c51-b09b-2e170ca1b5b9"},"vehicle_type_id":"4","last_reported":1727532427,"current_range_meters":36800,"station_id":"ce4bhh12rcd13ifvqff0","pricing_plan_id":"cebpf4jnsgd1na2vs0mg"},{"bike_id":"1cdd532a-306b-47d0-8a3b-e164107a50fd","system_id":"levelo_inurba_marseille","lat":43.25003,"lon":5.38926,"is_reserved":false,"is_disabled":false,"rental_uris":{"android":"levelo://app?vid=1cdd532a-306b-47d0-8a3b-e164107a50fd","ios":"levelo://app?vid=1cdd532a-306b-47d0-8a3b-e164107a50fd"},"vehicle_type_id":"4","last_reported":1727532427,"current_range_meters":21600,"station_id":"ce4bhgp2rcd13ifvqfd0","pricing_plan_id":"cebpf4jnsgd1na2vs0mg"},{"bike_id":"d8e32f1c-4c32-4777-922d-4d90b15b71c7","system_id":"levelo_inurba_marseille","lat":43.30863,"lon":5.3685,"is_reserved":false,"is_disabled":false,"rental_uris":{"android":"levelo://app?vid=d8e32f1c-4c32-4777-922d-4d90b15b71c7","ios":"levelo://app?vid=d8e32f1c-4c32-4777-922d-4d90b15b71c7"},"vehicle_type_id":"4","last_reported":1727532427,"current_range_meters":9600,"station_id":"ce4bgn92rcd13ifvqbvg","pricing_plan_id":"cebpf4jnsgd1na2vs0mg"},{"bike_id":"d5158052-768f-4baf-9651-b604c3432c15","system_id":"levelo_inurba_marseille","lat":43.28,"lon":5.41659,"is_reserved":false,"is_disabled":false,"rental_uris":{"android":"levelo://app?vid=d5158052-768f-4baf-9651-b604c3432c15","ios":"levelo://app?vid=d5158052-768f-4baf-9651-b604c3432c15"},"vehicle_type_id":"4","last_reported":1727532427,"current_range_meters":24400,"station_id":"ce4bho12rcd13ifvqh1g","pricing_plan_id":"cebpf4jnsgd1na2vs0mg"},{"bike_id":"b470945e-f45c-4291-ac95-d7061c9aab44","system_id":"levelo_inurba_marseille","lat":43.27371,"lon":5.4121,"is_reserved":false,"is_disabled":false,"rental_uris":{"android":"levelo://app?vid=b470945e-f45c-4291-ac95-d7061c9aab44","ios":"levelo://app?vid=b470945e-f45c-4291-ac95-d7061c9aab44"},"vehicle_type_id":"4","last_reported":1727532427,"current_range_meters":28000,"station_id":"","pricing_plan_id":"cebpf4jnsgd1na2vs0mg"},{"bike_id":"baa06c7d-efad-4a9a-bc59-5e1715d1039c","system_id":"levelo_inurba_marseille","lat":43.22931,"lon":5.35374,"is_reserved":false,"is_disabled":false,"rental_uris":{"android":"levelo://app?vid=baa06c7d-efad-4a9a-bc59-5e1715d1039c","ios":"levelo://app?vid=baa06c7d-efad-4a9a-bc59-5e1715d1039c"},"vehicle_type_id":"4","last_reported":1727532427,"current_range_meters":23200,"station_id":"cpo3532slgdg3j2ikp40","pricing_plan_id":"cebpf4jnsgd1na2vs0mg"},{"bike_id":"22dd4401-14b5-4b4c-9c63-0c971d01271c","system_id":"levelo_inurba_marseille","lat":43.25495,"lon":5.37645,"is_reserved":false,"is_disabled":false,"rental_uris":{"android":"levelo://app?vid=22dd4401-14b5-4b4c-9c63-0c971d01271c","ios":"levelo://app?vid=22dd4401-14b5-4b4c-9c63-0c971d01271c"},"vehicle_type_id":"4","last_reported":1727532427,"current_range_meters":14400,"station_id":"ce4bhh12rcd13ifvqff0","pricing_plan_id":"cebpf4jnsgd1na2vs0mg"},{"bike_id":"0526a56a-ac78-4e70-8eb6-efd57a427828","system_id":"levelo_inurba_marseille","lat":43.28613,"lon":5.35099,"is_reserved":false,"is_disabled":false,"rental_uris":{"android":"levelo://app?vid=0526a56a-ac78-4e70-8eb6-efd57a427828","ios":"levelo://app?vid=0526a56a-ac78-4e70-8eb6-efd57a427828"},"vehicle_type_id":"4","last_reported":1727532427,"current_range_meters":16000,"station_id":"ce4bhch2rcd13ifvqeug","pricing_plan_id":"cebpf4jnsgd1na2vs0mg"},{"bike_id":"8d23cf13-5ff8-4222-b798-2dcda0065faa","system_id":"levelo_inurba_marseille","lat":43.289859,"lon":5.366139,"is_reserved":false,"is_disabled":false,"rental_uris":{"android":"levelo://app?vid=8d23cf13-5ff8-4222-b798-2dcda0065faa","ios":"levelo://app?vid=8d23cf13-5ff8-4222-b798-2dcda0065faa"},"vehicle_type_id":"4","last_reported":1727532427,"current_range_meters":32000,"station_id":"ce4bh5p2rcd13ifvqe4g","pricing_plan_id":"cebpf4jnsgd1na2vs0mg"},{"bike_id":"e4361fa2-90d9-45ff-9d8a-e7b112f4e011","system_id":"levelo_inurba_marseille","lat":43.28513,"lon":5.39124,"is_reserved":false,"is_disabled":false,"rental_uris":{"android":"levelo://app?vid=e4361fa2-90d9-45ff-9d8a-e7b112f4e011","ios":"levelo://app?vid=e4361fa2-90d9-45ff-9d8a-e7b112f4e011"},"vehicle_type_id":"4","last_reported":1727532427,"current_range_meters":32800,"station_id":"ce4bh3p2rcd13ifvqdp0","pricing_plan_id":"cebpf4jnsgd1na2vs0mg"},{"bike_id":"65f828c7-d12b-47c9-87f8-27b2e7121317","system_id":"levelo_inurba_marseille","lat":43.249986,"lon":5.389271,"is_reserved":false,"is_disabled":false,"rental_uris":{"android":"levelo://app?vid=65f828c7-d12b-47c9-87f8-27b2e7121317","ios":"levelo://app?vid=65f828c7-d12b-47c9-87f8-27b2e7121317"},"vehicle_type_id":"4","last_reported":1727532427,"current_range_meters":14000,"station_id":"ce4bhgp2rcd13ifvqfd0","pricing_plan_id":"cebpf4jnsgd1na2vs0mg"},{"bike_id":"119b1756-239e-4ffb-be16-70a9d802ff66","system_id":"levelo_inurba_marseille","lat":43.2984,"lon":5.36255,"is_reserved":false,"is_disabled":false,"rental_uris":{"android":"levelo://app?vid=119b1756-239e-4ffb-be16-70a9d802ff66","ios":"levelo://app?vid=119b1756-239e-4ffb-be16-70a9d802ff66"},"vehicle_type_id":"4","last_reported":1727532427,"current_range_meters":30800,"station_id":"ce4bgpp2rcd13ifvqc3g","pricing_plan_id":"cebpf4jnsgd1na2vs0mg"},{"bike_id":"cab45fd0-efbe-42f4-815f-9d32eba24a97","system_id":"levelo_inurba_marseille","lat":43.27901,"lon":5.41211,"is_reserved":false,"is_disabled":false,"rental_uris":{"android":"levelo://app?vid=cab45fd0-efbe-42f4-815f-9d32eba24a97","ios":"levelo://app?vid=cab45fd0-efbe-42f4-815f-9d32eba24a97"},"vehicle_type_id":"4","last_reported":1727532427,"current_range_meters":18800,"station_id":"","pricing_plan_id":"cebpf4jnsgd1na2vs0mg"},{"bike_id":"6eff8d2d-61fa-4715-9388-b30a052d3e98","system_id":"levelo_inurba_marseille","lat":43.337444,"lon":5.374475,"is_reserved":false,"is_disabled":false,"rental_uris":{"android":"levelo://app?vid=6eff8d2d-61fa-4715-9388-b30a052d3e98","ios":"levelo://app?vid=6eff8d2d-61fa-4715-9388-b30a052d3e98"},"vehicle_type_id":"4","last_reported":1727532427,"current_range_meters":32400,"station_id":"","pricing_plan_id":"cebpf4jnsgd1na2vs0mg"},{"bike_id":"637ea54b-676e-4687-a372-f778f0655b85","system_id":"levelo_inurba_marseille","lat":43.27224,"lon":5.40081,"is_reserved":false,"is_disabled":false,"rental_uris":{"android":"levelo://app?vid=637ea54b-676e-4687-a372-f778f0655b85","ios":"levelo://app?vid=637ea54b-676e-4687-a372-f778f0655b85"},"vehicle_type_id":"4","last_reported":1727532427,"current_range_meters":25200,"station_id":"","pricing_plan_id":"cebpf4jnsgd1na2vs0mg"},{"bike_id":"5e67403d-e1b4-4424-b028-5e13e1d5f444","system_id":"levelo_inurba_marseille","lat":43.31115,"lon":5.37771,"is_reserved":false,"is_disabled":false,"rental_uris":{"android":"levelo://app?vid=5e67403d-e1b4-4424-b028-5e13e1d5f444","ios":"levelo://app?vid=5e67403d-e1b4-4424-b028-5e13e1d5f444"},"vehicle_type_id":"4","last_reported":1727532427,"current_range_meters":8000,"station_id":"ce4bgt92rcd13ifvqcg0","pricing_plan_id":"cebpf4jnsgd1na2vs0mg"},{"bike_id":"e1baa26f-223e-4599-b4cf-c77fd7dab617","system_id":"levelo_inurba_marseille","lat":43.2558,"lon":5.38228,"is_reserved":false,"is_disabled":false,"rental_uris":{"android":"levelo://app?vid=e1baa26f-223e-4599-b4cf-c77fd7dab617","ios":"levelo://app?vid=e1baa26f-223e-4599-b4cf-c77fd7dab617"},"vehicle_type_id":"4","last_reported":1727532427,"current_range_meters":34800,"station_id":"ce4bhih2rcd13ifvqfs0","pricing_plan_id":"cebpf4jnsgd1na2vs0mg"},{"bike_id":"e10d7d9b-88ad-4d2c-bf42-128fcac5e21d","system_id":"levelo_inurba_marseille","lat":43.2781,"lon":5.40711,"is_reserved":false,"is_disabled":false,"rental_uris":{"android":"levelo://app?vid=e10d7d9b-88ad-4d2c-bf42-128fcac5e21d","ios":"levelo://app?vid=e10d7d9b-88ad-4d2c-bf42-128fcac5e21d"},"vehicle_type_id":"4","last_reported":1727532427,"current_range_meters":19200,"station_id":"ce4bhnh2rcd13ifvqgtg","pricing_plan_id":"cebpf4jnsgd1na2vs0mg"},{"bike_id":"fb9625b1-2103-4942-9a83-6bed120b4c6a","system_id":"levelo_inurba_marseille","lat":43.30423,"lon":5.37852,"is_reserved":false,"is_disabled":false,"rental_uris":{"android":"levelo://app?vid=fb9625b1-2103-4942-9a83-6bed120b4c6a","ios":"levelo://app?vid=fb9625b1-2103-4942-9a83-6bed120b4c6a"},"vehicle_type_id":"4","last_reported":1727532427,"current_range_meters":28800,"station_id":"ce4bgup2rcd13ifvqcn0","pricing_plan_id":"cebpf4jnsgd1na2vs0mg"},{"bike_id":"6797ad46-abf2-4d5f-bb78-f18867b9fe83","system_id":"levelo_inurba_marseille","lat":43.27988,"lon":5.40014,"is_reserved":false,"is_disabled":false,"rental_uris":{"android":"levelo://app?vid=6797ad46-abf2-4d5f-bb78-f18867b9fe83","ios":"levelo://app?vid=6797ad46-abf2-4d5f-bb78-f18867b9fe83"},"vehicle_type_id":"4","last_reported":1727532427,"current_range_meters":6800,"station_id":"ce4bho92rcd13ifvqh4g","pricing_plan_id":"cebpf4jnsgd1na2vs0mg"},{"bike_id":"49103c36-092f-43a6-a665-96ac4218adb8","system_id":"levelo_inurba_marseille","lat":43.32287,"lon":5.38276,"is_reserved":false,"is_disabled":false,"rental_uris":{"android":"levelo://app?vid=49103c36-092f-43a6-a665-96ac4218adb8","ios":"levelo://app?vid=49103c36-092f-43a6-a665-96ac4218adb8"},"vehicle_type_id":"4","last_reported":1727532427,"current_range_meters":40000,"station_id":"ce4bhr12rcd13ifvqhqg","pricing_plan_id":"cebpf4jnsgd1na2vs0mg"},{"bike_id":"27357ece-0acd-4448-89e9-3e8658a588ba","system_id":"levelo_inurba_marseille","lat":43.29906,"lon":5.38139,"is_reserved":false,"is_disabled":false,"rental_uris":{"android":"levelo://app?vid=27357ece-0acd-4448-89e9-3e8658a588ba","ios":"levelo://app?vid=27357ece-0acd-4448-89e9-3e8658a588ba"},"vehicle_type_id":"4","last_reported":1727532427,"current_range_meters":38800,"station_id":"ce4bgj12rcd13ifvqbc0","pricing_plan_id":"cebpf4jnsgd1na2vs0mg"},{"bike_id":"eb37ec1b-f702-4f0d-87a6-30e2c1978433","system_id":"levelo_inurba_marseille","lat":43.292255,"lon":5.360701,"is_reserved":false,"is_disabled":false,"rental_uris":{"android":"levelo://app?vid=eb37ec1b-f702-4f0d-87a6-30e2c1978433","ios":"levelo://app?vid=eb37ec1b-f702-4f0d-87a6-30e2c1978433"},"vehicle_type_id":"4","last_reported":1727532427,"current_range_meters":28800,"station_id":"ce4bhbh2rcd13ifvqeqg","pricing_plan_id":"cebpf4jnsgd1na2vs0mg"},{"bike_id":"7feb9f35-128f-4f55-a4da-e2713ba8447e","system_id":"levelo_inurba_marseille","lat":43.30546,"lon":5.36555,"is_reserved":false,"is_disabled":false,"rental_uris":{"android":"levelo://app?vid=7feb9f35-128f-4f55-a4da-e2713ba8447e","ios":"levelo://app?vid=7feb9f35-128f-4f55-a4da-e2713ba8447e"},"vehicle_type_id":"4","last_reported":1727532427,"current_range_meters":18800,"station_id":"ce4bgs12rcd13ifvqcag","pricing_plan_id":"cebpf4jnsgd1na2vs0mg"},{"bike_id":"6f0f9c32-de70-4574-9b89-cca29ab0554e","system_id":"levelo_inurba_marseille","lat":43.337444,"lon":5.374475,"is_reserved":false,"is_disabled":false,"rental_uris":{"android":"levelo://app?vid=6f0f9c32-de70-4574-9b89-cca29ab0554e","ios":"levelo://app?vid=6f0f9c32-de70-4574-9b89-cca29ab0554e"},"vehicle_type_id":"4","last_reported":1727532427,"current_range_meters":30400,"station_id":"","pricing_plan_id":"cebpf4jnsgd1na2vs0mg"},{"bike_id":"482d440e-e4b7-4890-a19b-ff8941c18f1b","system_id":"levelo_inurba_marseille","lat":43.30603,"lon":5.37225,"is_reserved":false,"is_disabled":false,"rental_uris":{"android":"levelo://app?vid=482d440e-e4b7-4890-a19b-ff8941c18f1b","ios":"levelo://app?vid=482d440e-e4b7-4890-a19b-ff8941c18f1b"},"vehicle_type_id":"4","last_reported":1727532427,"current_range_meters":13600,"station_id":"ce4bgqh2rcd13ifvqc4g","pricing_plan_id":"cebpf4jnsgd1na2vs0mg"},{"bike_id":"44839918-e841-4578-a34d-4d8014b09bc8","system_id":"levelo_inurba_marseille","lat":43.31226,"lon":5.36858,"is_reserved":false,"is_disabled":false,"rental_uris":{"android":"levelo://app?vid=44839918-e841-4578-a34d-4d8014b09bc8","ios":"levelo://app?vid=44839918-e841-4578-a34d-4d8014b09bc8"},"vehicle_type_id":"4","last_reported":1727532427,"current_range_meters":40000,"station_id":"ce4bgl92rcd13ifvqbq0","pricing_plan_id":"cebpf4jnsgd1na2vs0mg"},{"bike_id":"0687a646-be72-47a3-8907-22e0afb02a46","system_id":"levelo_inurba_marseille","lat":43.23963,"lon":5.36625,"is_reserved":false,"is_disabled":false,"rental_uris":{"android":"levelo://app?vid=0687a646-be72-47a3-8907-22e0afb02a46","ios":"levelo://app?vid=0687a646-be72-47a3-8907-22e0afb02a46"},"vehicle_type_id":"4","last_reported":1727532427,"current_range_meters":36400,"station_id":"ce4bhi12rcd13ifvqfp0","pricing_plan_id":"cebpf4jnsgd1na2vs0mg"},{"bike_id":"af6fcdd9-c61c-414b-a315-774016c60154","system_id":"levelo_inurba_marseille","lat":43.29276,"lon":5.36848,"is_reserved":false,"is_disabled":false,"rental_uris":{"android":"levelo://app?vid=af6fcdd9-c61c-414b-a315-774016c60154","ios":"levelo://app?vid=af6fcdd9-c61c-414b-a315-774016c60154"},"vehicle_type_id":"4","last_reported":1727532427,"current_range_meters":33200,"station_id":"ce4bhbp2rcd13ifvqesg","pricing_plan_id":"cebpf4jnsgd1na2vs0mg"},{"bike_id":"96f4c408-61e1-4b03-a9bb-3c95ee31923d","system_id":"levelo_inurba_marseille","lat":43.27378,"lon":5.36253,"is_reserved":false,"is_disabled":false,"rental_uris":{"android":"levelo://app?vid=96f4c408-61e1-4b03-a9bb-3c95ee31923d","ios":"levelo://app?vid=96f4c408-61e1-4b03-a9bb-3c95ee31923d"},"vehicle_type_id":"4","last_reported":1727532427,"current_range_meters":17600,"station_id":"ce4bhbh2rcd13ifvqeo0","pricing_plan_id":"cebpf4jnsgd1na2vs0mg"},{"bike_id":"8fa9bd22-a7b3-4613-96c0-0e669c685783","system_id":"levelo_inurba_marseille","lat":43.28102,"lon":5.37827,"is_reserved":false,"is_disabled":false,"rental_uris":{"android":"levelo://app?vid=8fa9bd22-a7b3-4613-96c0-0e669c685783","ios":"levelo://app?vid=8fa9bd22-a7b3-4613-96c0-0e669c685783"},"vehicle_type_id":"4","last_reported":1727532427,"current_range_meters":15200,"station_id":"ce4bha12rcd13ifvqee0","pricing_plan_id":"cebpf4jnsgd1na2vs0mg"},{"bike_id":"90c05d40-f5db-4a12-95b3-f8d41ae2e51b","system_id":"levelo_inurba_marseille","lat":43.32377,"lon":5.3892,"is_reserved":false,"is_disabled":false,"rental_uris":{"android":"levelo://app?vid=90c05d40-f5db-4a12-95b3-f8d41ae2e51b","ios":"levelo://app?vid=90c05d40-f5db-4a12-95b3-f8d41ae2e51b"},"vehicle_type_id":"4","last_reported":1727532427,"current_range_meters":34000,"station_id":"ce4bhqp2rcd13ifvqhog","pricing_plan_id":"cebpf4jnsgd1na2vs0mg"},{"bike_id":"b5fbc5b3-5636-4adc-80be-440af79e7c61","system_id":"levelo_inurba_marseille","lat":43.29552,"lon":5.42301,"is_reserved":false,"is_disabled":false,"rental_uris":{"android":"levelo://app?vid=b5fbc5b3-5636-4adc-80be-440af79e7c61","ios":"levelo://app?vid=b5fbc5b3-5636-4adc-80be-440af79e7c61"},"vehicle_type_id":"4","last_reported":1727532427,"current_range_meters":25200,"station_id":"ce4bhph2rcd13ifvqhdg","pricing_plan_id":"cebpf4jnsgd1na2vs0mg"},{"bike_id":"b98e9569-881f-49b2-9b3e-86b7abafd7d4","system_id":"levelo_inurba_marseille","lat":43.32057,"lon":5.41543,"is_reserved":false,"is_disabled":false,"rental_uris":{"android":"levelo://app?vid=b98e9569-881f-49b2-9b3e-86b7abafd7d4","ios":"levelo://app?vid=b98e9569-881f-49b2-9b3e-86b7abafd7d4"},"vehicle_type_id":"4","last_reported":1727532427,"current_range_meters":38800,"station_id":"ce4bhq92rcd13ifvqhkg","pricing_plan_id":"cebpf4jnsgd1na2vs0mg"},