{"last_updated":1715667113,"ttl":30,"version":"2.2","data":{"bikes":[{"bike_id":"83c66970-1dbf-40fa-bb6a-83aa9c650e23","system_id":"levelo_inurba_marseille","lat":43.313391,"lon":5.36706,"is_reserved":false,"is_disabled":false,"rental_uris":{"android":"levelo://app?vid=83c66970-1dbf-40fa-bb6a-83aa9c650e23","ios":"levelo://app?vid=83c66970-1dbf-40fa-bb6a-83aa9c650e23"},"vehicle_type_id":"4","last_reported":1715667113,"current_range_meters":11200,"station_id":"ce4bgr92rcd13ifvqc6g","pricing_plan_id":"cebpf4jnsgd1na2vs0mg"},{"bike_id":"59f5b6d6-cb40-497e-b43d-736d28f9e3db","system_id":"levelo_inurba_marseille","lat":43.313391,"lon":5.36706,"is_reserved":false,"is_disabled":false,"rental_uris":{"android":"levelo://app?vid=59f5b6d6-cb40-497e-b43d-736d28f9e3db","ios":"levelo://app?vid=59f5b6d6-cb40-497e-b43d-736d28f9e3db"},"vehicle_type_id":"4","last_reported":1715667113,"current_range_meters":19200,"station_id":"ce4bgr92rcd13ifvqc6g","pricing_plan_id":"cebpf4jnsgd1na2vs0mg"},{"bike_id":"e6e87379-16fe-44bd-ab00-311ab56805c3","system_id":"levelo_inurba_marseille","lat":43.31339,"lon":5.36712,"is_reserved":false,"is_disabled":false,"rental_uris":{"android":"levelo://app?vid=e6e87379-16fe-44bd-ab00-311ab56805c3","ios":"levelo://app?vid=e6e87379-16fe-44bd-ab00-311ab56805c3"},"vehicle_type_id":"4","last_reported":1715667113,"current_range_meters":30000,"station_id":"ce4bgr92rcd13ifvqc6g","pricing_plan_id":"cebpf4jnsgd1na2vs0mg"},{"bike_id":"bcc08553-e62a-405b-a09a-ecfb67b8ac57","system_id":"levelo_inurba_marseille","lat":43.313391,"lon":5.36706,"is_reserved":false,"is_disabled":false,"rental_uris":{"android":"levelo://app?vid=bcc08553-e62a-405b-a09a-ecfb67b8ac57","ios":"levelo://app?vid=bcc08553-e62a-405b-a09a-ecfb67b8ac57"},"vehicle_type_id":"4","last_reported":1715667113,"current_range_meters":22400,"station_id":"ce4bgr92rcd13ifvqc6g","pricing_plan_id":"cebpf4jnsgd1na2vs0mg"},{"bike_id":"fd2a6114-eecd-4918-808b-f171fbc00796","system_id":"levelo_inurba_marseille","lat":43.313391,"lon":5.36706,"is_reserved":false,"is_disabled":false,"rental_uris":{"android":"levelo://app?vid=fd2a6114-eecd-4918-808b-f171fbc00796","ios":"levelo://app?vid=fd2a6114-eecd-4918-808b-f171fbc00796"},"vehicle_type_id":"4","last_reported":1715667113,"current_range_meters":23600,"station_id":"ce4bgr92rcd13ifvqc6g","pricing_plan_id":"cebpf4jnsgd1na2vs0mg"},{"bike_id":"57359406-914b-41b4-b305-979fb5e47ebe","system_id":"levelo_inurba_marseille","lat":43.313391,"lon":5.36706,"is_reserved":false,"is_disabled":false,"rental_uris":{"android":"levelo://app?vid=57359406-914b-41b4-b305-979fb5e47ebe","ios":"levelo://app?vid=57359406-914b-41b4-b305-979fb5e47ebe"},"vehicle_type_id":"4","last_reported":1715667113,"current_range_meters":10400,"station_id":"ce4bgr92rcd13ifvqc6g","pricing_plan_id":"cebpf4jnsgd1na2vs0mg"},{"bike_id":"64b215a1-3c6d-4e29-8818-06fbbc617d16","system_id":"levelo_inurba_marseille","lat":43.313391,"lon":5.36706,"is_reserved":false,"is_disabled":false,"rental_uris":{"android":"levelo://app?vid=64b215a1-3c6d-4e29-8818-06fbbc617d16","ios":"levelo://app?vid=64b215a1-3c6d-4e29-8818-06fbbc617d16"},"vehicle_type_id":"4","last_reported":1715667113,"current_range_meters":24400,"station_id":"ce4bgr92rcd13ifvqc6g","pricing_plan_id":"cebpf4jnsgd1na2vs0mg"},{"bike_id":"bd7dd6a2-aec2-4dc6-a82c-214b04d25dc4","system_id":"levelo_inurba_marseille","lat":43.313391,"lon":5.36706,"is_reserved":false,"is_disabled":false,"rental_uris":{"android":"levelo://app?vid=bd7dd6a2-aec2-4dc6-a82c-214b04d25dc4","ios":"levelo://app?vid=bd7dd6a2-aec2-4dc6-a82c-214b04d25dc4"},"vehicle_type_id":"4","last_reported":1715667113,"current_range_meters":27600,"station_id":"ce4bgr92rcd13ifvqc6g","pricing_plan_id":"cebpf4jnsgd1na2vs0mg"},{"bike_id":"2a2f609f-0984-4db4-8b74-5811f2899299","system_id":"levelo_inurba_marseille","lat":43.313391,"lon":5.36706,"is_reserved":false,"is_disabled":false,"rental_uris":{"android":"levelo://app?vid=2a2f609f-0984-4db4-8b74-5811f2899299","ios":"levelo://app?vid=2a2f609f-0984-4db4-8b74-5811f2899299"},"vehicle_type_id":"4","last_reported":1715667113,"current_range_meters":26400,"station_id":"ce4bgr92rcd13ifvqc6g","pricing_plan_id":"cebpf4jnsgd1na2vs0mg"},{"bike_id":"c259d626-760e-4542-a840-f601ea2cb750","system_id":"levelo_inurba_marseille","lat":43.31341,"lon":5.367098,"is_reserved":false,"is_disabled":false,"rental_uris":{"android":"levelo://app?vid=c259d626-760e-4542-a840-f601ea2cb750","ios":"levelo://app?vid=c259d626-760e-4542-a840-f601ea2cb750"},"vehicle_type_id":"4","last_reported":1715667113,"current_range_meters":27600,"station_id":"ce4bgr92rcd13ifvqc6g","pricing_plan_id":"cebpf4jnsgd1na2vs0mg"},{"bike_id":"e8c08759-30e5-4077-bdc8-b79f5c9af22f","system_id":"levelo_inurba_marseille","lat":43.31362,"lon":5.36696,"is_reserved":false,"is_disabled":false,"rental_uris":{"android":"levelo://app?vid=e8c08759-30e5-4077-bdc8-b79f5c9af22f","ios":"levelo://app?vid=e8c08759-30e5-4077-bdc8-b79f5c9af22f"},"vehicle_type_id":"4","last_reported":1715667113,"current_range_meters":400,"station_id":"ce4bgr92rcd13ifvqc6g","pricing_plan_id":"cebpf4jnsgd1na2vs0mg"},{"bike_id":"4c2af96b-32f9-47a2-b883-4a26dc4011f7","system_id":"levelo_inurba_marseille","lat":43.313391,"lon":5.36706,"is_reserved":false,"is_disabled":false,"rental_uris":{"android":"levelo://app?vid=4c2af96b-32f9-47a2-b883-4a26dc4011f7","ios":"levelo://app?vid=4c2af96b-32f9-47a2-b883-4a26dc4011f7"},"vehicle_type_id":"4","last_reported":1715667113,"current_range_meters":20000,"station_id":"ce4bgr92rcd13ifvqc6g","pricing_plan_id":"cebpf4jnsgd1na2vs0mg"},{"bike_id":"87168baa-9a04-4d56-bbf8-6419b6726ee1","system_id":"levelo_inurba_marseille","lat":43.312239,"lon":5.368562,"is_reserved":false,"is_disabled":false,"rental_uris":{"android":"levelo://app?vid=87168baa-9a04-4d56-bbf8-6419b6726ee1","ios":"levelo://app?vid=87168baa-9a04-4d56-bbf8-6419b6726ee1"},"vehicle_type_id":"4","last_reported":1715667113,"current_range_meters":16000,"station_id":"ce4bgl92rcd13ifvqbq0","pricing_plan_id":"cebpf4jnsgd1na2vs0mg"},{"bike_id":"a0b32e9b-04e6-4ec7-b016-e955d990af80","system_id":"levelo_inurba_marseille","lat":43.312239,"lon":5.368562,"is_reserved":false,"is_disabled":false,"rental_uris":{"android":"levelo://app?vid=a0b32e9b-04e6-4ec7-b016-e955d990af80","ios":"levelo://app?vid=a0b32e9b-04e6-4ec7-b016-e955d990af80"},"vehicle_type_id":"4","last_reported":1715667113,"current_range_meters":21600,"station_id":"ce4bgl92rcd13ifvqbq0","pricing_plan_id":"cebpf4jnsgd1na2vs0mg"},{"bike_id":"eaeff3f5-3c59-488e-9bd7-b4b3e5d9bf96","system_id":"levelo_inurba_marseille","lat":43.312239,"lon":5.368562,"is_reserved":false,"is_disabled":false,"rental_uris":{"android":"levelo://app?vid=eaeff3f5-3c59-488e-9bd7-b4b3e5d9bf96","ios":"levelo://app?vid=eaeff3f5-3c59-488e-9bd7-b4b3e5d9bf96"},"vehicle_type_id":"4","last_reported":1715667113,"current_range_meters":19200,"station_id":"ce4bgl92rcd13ifvqbq0","pricing_plan_id":"cebpf4jnsgd1na2vs0mg"},{"bike_id":"6de28edf-5498-48e3-b11a-13f006b54726","system_id":"levelo_inurba_marseille","lat":43.309076,"lon":5.368465,"is_reserved":false,"is_disabled":false,"rental_uris":{"android":"levelo://app?vid=6de28edf-5498-48e3-b11a-13f006b54726","ios":"levelo://app?vid=6de28edf-5498-48e3-b11a-13f006b54726"},"vehicle_type_id":"4","last_reported":1715667113,"current_range_meters":30800,"station_id":"ce4bgn92rcd13ifvqbvg","pricing_plan_id":"cebpf4jnsgd1na2vs0mg"},{"bike_id":"edb03e20-9099-4fa9-9bf4-fea1d89b05de","system_id":"levelo_inurba_marseille","lat":43.309076,"lon":5.368465,"is_reserved":false,"is_disabled":false,"rental_uris":{"android":"levelo://app?vid=edb03e20-9099-4fa9-9bf4-fea1d89b05de","ios":"levelo://app?vid=edb03e20-9099-4fa9-9bf4-fea1d89b05de"},"vehicle_type_id":"4","last_reported":1715667113,"current_range_meters":25600,"station_id":"ce4bgn92rcd13ifvqbvg","pricing_plan_id":"cebpf4jnsgd1na2vs0mg"},{"bike_id":"a59546c6-65ab-45a2-b2ee-f7b6e796a4a9","system_id":"levelo_inurba_marseille","lat":43.30917,"lon":5.36848,"is_reserved":false,"is_disabled":false,"rental_uris":{"android":"levelo://app?vid=a59546c6-65ab-45a2-b2ee-f7b6e796a4a9","ios":"levelo://app?vid=a59546c6-65ab-45a2-b2ee-f7b6e796a4a9"},"vehicle_type_id":"4","last_reported":1715667113,"current_range_meters":24400,"station_id":"ce4bgn92rcd13ifvqbvg","pricing_plan_id":"cebpf4jnsgd1na2vs0mg"},{"bike_id":"5f7b0689-3476-4b62-81c7-22f87a70a7bf","system_id":"levelo_inurba_marseille","lat":43.309076,"lon":5.368465,"is_reserved":false,"is_disabled":false,"rental_uris":{"android":"levelo://app?vid=5f7b0689-3476-4b62-81c7-22f87a70a7bf","ios":"levelo://app?vid=5f7b0689-3476-4b62-81c7-22f87a70a7bf"},"vehicle_type_id":"4","last_reported":1715667113,"current_range_meters":17600,"station_id":"ce4bgn92rcd13ifvqbvg","pricing_plan_id":"cebpf4jnsgd1na2vs0mg"},{"bike_id":"b6815171-86e7-42a8-8f5e-2d8f09de841f","system_id":"levelo_inurba_marseille","lat":43.309076,"lon":5.368465,"is_reserved":false,"is_disabled":false,"rental_uris":{"android":"levelo://app?vid=b6815171-86e7-42a8-8f5e-2d8f09de841f","ios":"levelo://app?vid=b6815171-86e7-42a8-8f5e-2d8f09de841f"},"vehicle_type_id":"4","last_reported":1715667113,"current_range_meters":19600,"station_id":"ce4bgn92rcd13ifvqbvg","pricing_plan_id":"cebpf4jnsgd1na2vs0mg"},{"bike_id":"b7261453-cdb5-45e7-89fa-bf3db435d00a","system_id":"levelo_inurba_marseille","lat":43.309076,"lon":5.368465,"is_reserved":false,"is_disabled":false,"rental_uris":{"android":"levelo://app?vid=b7261453-cdb5-45e7-89fa-bf3db435d00a","ios":"levelo://app?vid=b7261453-cdb5-45e7-89fa-bf3db435d00a"},"vehicle_type_id":"4","last_reported":1715667113,"current_range_meters":29200,"station_id":"ce4bgn92rcd13ifvqbvg","pricing_plan_id":"cebpf4jnsgd1na2vs0mg"},{"bike_id":"931cbb4e-0aa4-4e7d-8314-26974a0117e9","system_id":"levelo_inurba_marseille","lat":43.309076,"lon":5.368465,"is_reserved":false,"is_disabled":false,"rental_uris":{"android":"levelo://app?vid=931cbb4e-0aa4-4e7d-8314-26974a0117e9","ios":"levelo://app?vid=931cbb4e-0aa4-4e7d-8314-26974a0117e9"},"vehicle_type_id":"4","last_reported":1715667113,"current_range_meters":29600,"station_id":"ce4bgn92rcd13ifvqbvg","pricing_plan_id":"cebpf4jnsgd1na2vs0mg"},{"bike_id":"499c5bda-03c2-43f3-a1d8-1915be87d03c","system_id":"levelo_inurba_marseille","lat":43.309076,"lon":5.368465,"is_reserved":false,"is_disabled":false,"rental_uris":{"android":"levelo://app?vid=499c5bda-03c2-43f3-a1d8-1915be87d03c","ios":"levelo://app?vid=499c5bda-03c2-43f3-a1d8-1915be87d03c"},"vehicle_type_id":"4","last_reported":1715667113,"current_range_meters":19600,"station_id":"ce4bgn92rcd13ifvqbvg","pricing_plan_id":"cebpf4jnsgd1na2vs0mg"},{"bike_id":"ab25eff1-073f-4e19-a74a-74072a02ccaf","system_id":"levelo_inurba_marseille","lat":43.314811,"lon":5.373103,"is_reserved":false,"is_disabled":false,"rental_uris":{"android":"levelo://app?vid=ab25eff1-073f-4e19-a74a-74072a02ccaf","ios":"levelo://app?vid=ab25eff1-073f-4e19-a74a-74072a02ccaf"},"vehicle_type_id":"4","last_reported":1715667113,"current_range_meters":26000,"station_id":"ce4bgt12rcd13ifvqcd0","pricing_plan_id":"cebpf4jnsgd1na2vs0mg"},{"bike_id":"40ef55fa-13ed-4aa0-bde8-5e9a5f442c09","system_id":"levelo_inurba_marseille","lat":43.314811,"lon":5.373103,"is_reserved":false,"is_disabled":false,"rental_uris":{"android":"levelo://app?vid=40ef55fa-13ed-4aa0-bde8-5e9a5f442c09","ios":"levelo://app?vid=40ef55fa-13ed-4aa0-bde8-5e9a5f442c09"},"vehicle_type_id":"4","last_reported":1715667113,"current_range_meters":26000,"station_id":"ce4bgt12rcd13ifvqcd0","pricing_plan_id":"cebpf4jnsgd1na2vs0mg"},{"bike_id":"5c53a6d1-b5df-46c3-b4cc-a3b6ab987905","system_id":"levelo_inurba_marseille","lat":43.314811,"lon":5.373103,"is_reserved":false,"is_disabled":false,"rental_uris":{"android":"levelo://app?vid=5c53a6d1-b5df-46c3-b4cc-a3b6ab987905","ios":"levelo://app?vid=5c53a6d1-b5df-46c3-b4cc-a3b6ab987905"},"vehicle_type_id":"4","last_reported":1715667113,"current_range_meters":27200,"station_id":"ce4bgt12rcd13ifvqcd0","pricing_plan_id":"cebpf4jnsgd1na2vs0mg"},{"bike_id":"a3120e20-a173-47cd-a592-111bb3fba253","system_id":"levelo_inurba_marseille","lat":43.314811,"lon":5.373103,"is_reserved":false,"is_disabled":false,"rental_uris":{"android":"levelo://app?vid=a3120e20-a173-47cd-a592-111bb3fba253","ios":"levelo://app?vid=a3120e20-a173-47cd-a592-111bb3fba253"},"vehicle_type_id":"4","last_reported":1715667113,"current_range_meters":27600,"station_id":"ce4bgt12rcd13ifvqcd0","pricing_plan_id":"cebpf4jnsgd1na2vs0mg"},{"bike_id":"271a60b1-7b17-41e5-a7d0-2edc4890d6d8","system_id":"levelo_inurba_marseille","lat":43.314811,"lon":5.373103,"is_reserved":false,"is_disabled":false,"rental_uris":{"android":"levelo://app?vid=271a60b1-7b17-41e5-a7d0-2edc4890d6d8","ios":"levelo://app?vid=271a60b1-7b17-41e5-a7d0-2edc4890d6d8"},"vehicle_type_id":"4","last_reported":1715667113,"current_range_meters":26800,"station_id":"ce4bgt12rcd13ifvqcd0","pricing_plan_id":"cebpf4jnsgd1na2vs0mg"},{"bike_id":"2da59289-9b49-4ec7-900a-5dcbc208565f","system_id":"levelo_inurba_marseille","lat":43.314811,"lon":5.373103,"is_reserved":false,"is_disabled":false,"rental_uris":{"android":"levelo://app?vid=2da59289-9b49-4ec7-900a-5dcbc208565f","ios":"levelo://app?vid=2da59289-9b49-4ec7-900a-5dcbc208565f"},"vehicle_type_id":"4","last_reported":1715667113,"current_range_meters":0,"station_id":"ce4bgt12rcd13ifvqcd0","pricing_plan_id":"cebpf4jnsgd1na2vs0mg"},{"bike_id":"1b7371c7-0e74-46b0-8dbf-7b033d5fa8b2","system_id":"levelo_inurba_marseille","lat":43.314811,"lon":5.373103,"is_reserved":false,"is_disabled":false,"rental_uris":{"android":"levelo://app?vid=1b7371c7-0e74-46b0-8dbf-7b033d5fa8b2","ios":"levelo://app?vid=1b7371c7-0e74-46b0-8dbf-7b033d5fa8b2"},"vehicle_type_id":"4","last_reported":1715667113,"current_range_meters":27200,"station_id":"ce4bgt12rcd13ifvqcd0","pricing_plan_id":"cebpf4jnsgd1na2vs0mg"},{"bike_id":"2861431e-3522-42d1-a73d-690ad25e4bd2","system_id":"levelo_inurba_marseille","lat":43.314811,"lon":5.373103,"is_reserved":false,"is_disabled":false,"rental_uris":{"android":"levelo://app?vid=2861431e-3522-42d1-a73d-690ad25e4bd2","ios":"levelo://app?vid=2861431e-3522-42d1-a73d-690ad25e4bd2"},"vehicle_type_id":"4","last_reported":1715667113,"current_range_meters":5600,"station_id":"ce4bgt12rcd13ifvqcd0","pricing_plan_id":"cebpf4jnsgd1na2vs0mg"},{"bike_id":"8c2d8557-7da4-4bf5-b0d0-1ea6a375bed7","system_id":"levelo_inurba_marseille","lat":43.314811,"lon":5.373103,"is_reserved":false,"is_disabled":false,"rental_uris":{"android":"levelo://app?vid=8c2d8557-7da4-4bf5-b0d0-1ea6a375bed7","ios":"levelo://app?vid=8c2d8557-7da4-4bf5-b0d0-1ea6a375bed7"},"vehicle_type_id":"4","last_reported":1715667113,"current_range_meters":18400,"station_id":"ce4bgt12rcd13ifvqcd0","pricing_plan_id":"cebpf4jnsgd1na2vs0mg"},{"bike_id":"ef273b3c-b5b6-4e0e-9bf4-1613814faa44","system_id":"levelo_inurba_marseille","lat":43.314811,"lon":5.373103,"is_reserved":false,"is_disabled":false,"rental_uris":{"android":"levelo://app?vid=ef273b3c-b5b6-4e0e-9bf4-1613814faa44","ios":"levelo://app?vid=ef273b3c-b5b6-4e0e-9bf4-1613814faa44"},"vehicle_type_id":"4","last_reported":1715667113,"current_range_meters":18800,"station_id":"ce4bgt12rcd13ifvqcd0","pricing_plan_id":"cebpf4jnsgd1na2vs0mg"},{"bike_id":"bedcb7de-f97c-47fb-a2f5-46548a6f9b80","system_id":"levelo_inurba_marseille","lat":43.314811,"lon":5.373103,"is_reserved":false,"is_disabled":false,"rental_uris":{"android":"levelo://app?vid=bedcb7de-f97c-47fb-a2f5-46548a6f9b80","ios":"levelo://app?vid=bedcb7de-f97c-47fb-a2f5-46548a6f9b80"},"vehicle_type_id":"4","last_reported":1715667113,"current_range_meters":7200,"station_id":"ce4bgt12rcd13ifvqcd0","pricing_plan_id":"cebpf4jnsgd1na2vs0mg"},{"bike_id":"f7f0c115-0d85-4324-b0c5-5896487b2c26","system_id":"levelo_inurba_marseille","lat":43.314811,"lon":5.373104,"is_reserved":false,"is_disabled":false,"rental_uris":{"android":"levelo://app?vid=f7f0c115-0d85-4324-b0c5-5896487b2c26","ios":"levelo://app?vid=f7f0c115-0d85-4324-b0c5-5896487b2c26"},"vehicle_type_id":"4","last_reported":1715667113,"current_range_meters":31200,"station_id":"ce4bgt12rcd13ifvqcd0","pricing_plan_id":"cebpf4jnsgd1na2vs0mg"},{"bike_id":"f01f4ec0-3d1b-4b8d-bce7-ac0a087b1097","system_id":"levelo_inurba_marseille","lat":43.314811,"lon":5.373104,"is_reserved":false,"is_disabled":false,"rental_uris":{"android":"levelo://app?vid=f01f4ec0-3d1b-4b8d-bce7-ac0a087b1097","ios":"levelo://app?vid=f01f4ec0-3d1b-4b8d-bce7-ac0a087b1097"},"vehicle_type_id":"4","last_reported":1715667113,"current_range_meters":14400,"station_id":"ce4bgt12rcd13ifvqcd0","pricing_plan_id":"cebpf4jnsgd1na2vs0mg"},{"bike_id":"376c2748-b9e5-451a-8aa9-05e55f9cb83c","system_id":"levelo_inurba_marseille","lat":43.31504,"lon":5.37311,"is_reserved":false,"is_disabled":false,"rental_uris":{"android":"levelo://app?vid=376c2748-b9e5-451a-8aa9-05e55f9cb83c","ios":"levelo://app?vid=376c2748-b9e5-451a-8aa9-05e55f9cb83c"},"vehicle_type_id":"4","last_reported":1715667113,"current_range_meters":21600,"station_id":"ce4bgt12rcd13ifvqcd0","pricing_plan_id":"cebpf4jnsgd1na2vs0mg"},{"bike_id":"dba4b5bf-b936-4b8a-89a1-831f01ade4ee","system_id":"levelo_inurba_marseille","lat":43.309039,"lon":5.371797,"is_reserved":false,"is_disabled":false,"rental_uris":{"android":"levelo://app?vid=dba4b5bf-b936-4b8a-89a1-831f01ade4ee","ios":"levelo://app?vid=dba4b5bf-b936-4b8a-89a1-831f01ade4ee"},"vehicle_type_id":"4","last_reported":1715667113,"current_range_meters":28800,"station_id":"ce4bguh2rcd13ifvqckg","pricing_plan_id":"cebpf4jnsgd1na2vs0mg"},{"bike_id":"5a519dab-3ab5-48bb-9162-4718dbcca3b0","system_id":"levelo_inurba_marseille","lat":43.309034,"lon":5.371783,"is_reserved":false,"is_disabled":false,"rental_uris":{"android":"levelo://app?vid=5a519dab-3ab5-48bb-9162-4718dbcca3b0","ios":"levelo://app?vid=5a519dab-3ab5-48bb-9162-4718dbcca3b0"},"vehicle_type_id":"4","last_reported":1715667113,"current_range_meters":12400,"station_id":"ce4bguh2rcd13ifvqckg","pricing_plan_id":"cebpf4jnsgd1na2vs0mg"},{"bike_id":"3e316603-85f4-466e-96ec-02d651bfb712","system_id":"levelo_inurba_marseille","lat":43.30886,"lon":5.37199,"is_reserved":false,"is_disabled":false,"rental_uris":{"android":"levelo://app?vid=3e316603-85f4-466e-96ec-02d651bfb712","ios":"levelo://app?vid=3e316603-85f4-466e-96ec-02d651bfb712"},"vehicle_type_id":"4","last_reported":1715667113,"current_range_meters":24400,"station_id":"ce4bguh2rcd13ifvqckg","pricing_plan_id":"cebpf4jnsgd1na2vs0mg"},{"bike_id":"e58e4358-b5d5-4a50-b5fc-cb8522635fe8","system_id":"levelo_inurba_marseille","lat":43.309039,"lon":5.371797,"is_reserved":false,"is_disabled":false,"rental_uris":{"android":"levelo://app?vid=e58e4358-b5d5-4a50-b5fc-cb8522635fe8","ios":"levelo://app?vid=e58e4358-b5d5-4a50-b5fc-cb8522635fe8"},"vehicle_type_id":"4","last_reported":1715667113,"current_range_meters":17600,"station_id":"ce4bguh2rcd13ifvqckg","pricing_plan_id":"cebpf4jnsgd1na2vs0mg"},{"bike_id":"5d32053f-0932-40aa-b127-ec39060cb67a","system_id":"levelo_inurba_marseille","lat":43.30537,"lon":5.367345,"is_reserved":false,"is_disabled":false,"rental_uris":{"android":"levelo://app?vid=5d32053f-0932-40aa-b127-ec39060cb67a","ios":"levelo://app?vid=5d32053f-0932-40aa-b127-ec39060cb67a"},"vehicle_type_id":"4","last_reported":1715667113,"current_range_meters":31200,"station_id":"ce4bgrp2rcd13ifvqc9g","pricing_plan_id":"cebpf4jnsgd1na2vs0mg"},{"bike_id":"fa58e894-6d47-4959-80d1-b4f7cfc29b0d","system_id":"levelo_inurba_marseille","lat":43.305368,"lon":5.367343,"is_reserved":false,"is_disabled":false,"rental_uris":{"android":"levelo://app?vid=fa58e894-6d47-4959-80d1-b4f7cfc29b0d","ios":"levelo://app?vid=fa58e894-6d47-4959-80d1-b4f7cfc29b0d"},"vehicle_type_id":"4","last_reported":1715667113,"current_range_meters":24800,"station_id":"ce4bgrp2rcd13ifvqc9g","pricing_plan_id":"cebpf4jnsgd1na2vs0mg"},{"bike_id":"5bff6d2e-9e7d-4c96-984a-d83d3c38b544","system_id":"levelo_inurba_marseille","lat":43.3054,"lon":5.36704,"is_reserved":false,"is_disabled":false,"rental_uris":{"android":"levelo://app?vid=5bff6d2e-9e7d-4c96-984a-d83d3c38b544","ios":"levelo://app?vid=5bff6d2e-9e7d-4c96-984a-d83d3c38b544"},"vehicle_type_id":"4","last_reported":1715667113,"current_range_meters":0,"station_id":"ce4bgrp2rcd13ifvqc9g","pricing_plan_id":"cebpf4jnsgd1na2vs0mg"},{"bike_id":"40c3b3d1-1388-4441-8d6c-3ee8e078ea8a","system_id":"levelo_inurba_marseille","lat":43.30537,"lon":5.367345,"is_reserved":false,"is_disabled":false,"rental_uris":{"android":"levelo://app?vid=40c3b3d1-1388-4441-8d6c-3ee8e078ea8a","ios":"levelo://app?vid=40c3b3d1-1388-4441-8d6c-3ee8e078ea8a"},"vehicle_type_id":"4","last_reported":1715667113,"current_range_meters":22800,"station_id":"ce4bgrp2rcd13ifvqc9g","pricing_plan_id":"cebpf4jnsgd1na2vs0mg"},{"bike_id":"39068f98-94b3-4671-b20d-d97d485217d8","system_id":"levelo_inurba_marseille","lat":43.30537,"lon":5.367345,"is_reserved":false,"is_disabled":false,"rental_uris":{"android":"levelo://app?vid=39068f98-94b3-4671-b20d-d97d485217d8","ios":"levelo://app?vid=39068f98-94b3-4671-b20d-d97d485217d8"},"vehicle_type_id":"4","last_reported":1715667113,"current_range_meters":2000,"station_id":"ce4bgrp2rcd13ifvqc9g","pricing_plan_id":"cebpf4jnsgd1na2vs0mg"},{"bike_id":"d9951276-a94e-4e4c-ac11-2ae4ab583681","system_id":"levelo_inurba_marseille","lat":43.305714,"lon":5.365633,"is_reserved":false,"is_disabled":false,"rental_uris":{"android":"levelo://app?vid=d9951276-a94e-4e4c-ac11-2ae4ab583681","ios":"levelo://app?vid=d9951276-a94e-4e4c-ac11-2ae4ab583681"},"vehicle_type_id":"4","last_reported":1715667113,"current_range_meters":21600,"station_id":"ce4bgs12rcd13ifvqcag","pricing_plan_id":"cebpf4jnsgd1na2vs0mg"},{"bike_id":"8c262529-7a74-4457-bb28-3291f7f009cc","system_id":"levelo_inurba_marseille","lat":43.305368,"lon":5.367343,"is_reserved":false,"is_disabled":false,"rental_uris":{"android":"levelo://app?vid=8c262529-7a74-4457-bb28-3291f7f009cc","ios":"levelo://app?vid=8c262529-7a74-4457-bb28-3291f7f009cc"},"vehicle_type_id":"4","last_reported":1715667113,"current_range_meters":16400,"station_id":"ce4bgrp2rcd13ifvqc9g","pricing_plan_id":"cebpf4jnsgd1na2vs0mg"},{"bike_id":"c4d4c411-d40f-45de-b7f2-12f48fec135d","system_id":"levelo_inurba_marseille","lat":43.305714,"lon":5.365633,"is_reserved":false,"is_disabled":false,"rental_uris":{"android":"levelo://app?vid=c4d4c411-d40f-45de-b7f2-12f48fec135d","ios":"levelo://app?vid=c4d4c411-d40f-45de-b7f2-12f48fec135d"},"vehicle_type_id":"4","last_reported":1715667113,"current_range_meters":30800,"station_id":"ce4bgs12rcd13ifvqcag","pricing_plan_id":"cebpf4jnsgd1na2vs0mg"},{"bike_id":"255791dc-38cf-4138-ab93-4bf043200ff3","system_id":"levelo_inurba_marseille","lat":43.305706,"lon":5.365654,"is_reserved":false,"is_disabled":false,"rental_uris":{"android":"levelo://app?vid=255791dc-38cf-4138-ab93-4bf043200ff3","ios":"levelo://app?vid=255791dc-38cf-4138-ab93-4bf043200ff3"},"vehicle_type_id":"4","last_reported":1715667113,"current_range_meters":7600,"station_id":"ce4bgs12rcd13ifvqcag","pricing_plan_id":"cebpf4jnsgd1na2vs0mg"},{"bike_id":"1d923023-0faf-49f2-b1b2-a9c2b39cc87a","system_id":"levelo_inurba_marseille","lat":43.305706,"lon":5.365654,"is_reserved":false,"is_disabled":false,"rental_uris":{"android":"levelo://app?vid=1d923023-0faf-49f2-b1b2-a9c2b39cc87a","ios":"levelo://app?vid=1d923023-0faf-49f2-b1b2-a9c2b39cc87a"},"vehicle_type_id":"4","last_reported":1715667113,"current_range_meters":15200,"station_id":"ce4bgs12rcd13ifvqcag","pricing_plan_id":"cebpf4jnsgd1na2vs0mg"},{"bike_id":"cd2fbafb-68be-4d99-81a9-5ddc3b6caf2a","system_id":"levelo_inurba_marseille","lat":43.305706,"lon":5.365654,"is_reserved":false,"is_disabled":false,"rental_uris":{"android":"levelo://app?vid=cd2fbafb-68be-4d99-81a9-5ddc3b6caf2a","ios":"levelo://app?vid=cd2fbafb-68be-4d99-81a9-5ddc3b6caf2a"},"vehicle_type_id":"4","last_reported":1715667113,"current_range_meters":28000,"station_id":"ce4bgs12rcd13ifvqcag","pricing_plan_id":"cebpf4jnsgd1na2vs0mg"},{"bike_id":"f6aeddd0-9ccc-42a8-8949-3f89232dd4ce","system_id":"levelo_inurba_marseille","lat":43.305368,"lon":5.367343,"is_reserved":false,"is_disabled":false,"rental_uris":{"android":"levelo://app?vid=f6aeddd0-9ccc-42a8-8949-3f89232dd4ce","ios":"levelo://app?vid=f6aeddd0-9ccc-42a8-8949-3f89232dd4ce"},"vehicle_type_id":"4","last_reported":1715667113,"current_range_meters":17200,"station_id":"ce4bgrp2rcd13ifvqc9g","pricing_plan_id":"cebpf4jnsgd1na2vs0mg"},{"bike_id":"b3d56805-6361-4a85-94bb-7bf0ffcc99b3","system_id":"levelo_inurba_marseille","lat":43.305989,"lon":5.37225,"is_reserved":false,"is_disabled":false,"rental_uris":{"android":"levelo://app?vid=b3d56805-6361-4a85-94bb-7bf0ffcc99b3","ios":"levelo://app?vid=b3d56805-6361-4a85-94bb-7bf0ffcc99b3"},"vehicle_type_id":"4","last_reported":1715667113,"current_range_meters":27200,"station_id":"ce4bgqh2rcd13ifvqc4g","pricing_plan_id":"cebpf4jnsgd1na2vs0mg"},{"bike_id":"d9abb8b6-9e80-45e2-aa3a-6830a3a347e1","system_id":"levelo_inurba_marseille","lat":43.30537,"lon":5.367345,"is_reserved":false,"is_disabled":false,"rental_uris":{"android":"levelo://app?vid=d9abb8b6-9e80-45e2-aa3a-6830a3a347e1","ios":"levelo://app?vid=d9abb8b6-9e80-45e2-aa3a-6830a3a347e1"},"vehicle_type_id":"4","last_reported":1715667113,"current_range_meters":28400,"station_id":"ce4bgrp2rcd13ifvqc9g","pricing_plan_id":"cebpf4jnsgd1na2vs0mg"},{"bike_id":"f5671376-759a-4631-a833-65df827a07fb","system_id":"levelo_inurba_marseille","lat":43.311125,"lon":5.377624,"is_reserved":false,"is_disabled":false,"rental_uris":{"android":"levelo://app?vid=f5671376-759a-4631-a833-65df827a07fb","ios":"levelo://app?vid=f5671376-759a-4631-a833-65df827a07fb"},"vehicle_type_id":"4","last_reported":1715667113,"current_range_meters":20000,"station_id":"ce4bgt92rcd13ifvqcg0","pricing_plan_id":"cebpf4jnsgd1na2vs0mg"},{"bike_id":"89424db4-e663-4ed8-a436-f7956838f0f4","system_id":"levelo_inurba_marseille","lat":43.307945,"lon":5.376487,"is_reserved":false,"is_disabled":false,"rental_uris":{"android":"levelo://app?vid=89424db4-e663-4ed8-a436-f7956838f0f4","ios":"levelo://app?vid=89424db4-e663-4ed8-a436-f7956838f0f4"},"vehicle_type_id":"4","last_reported":1715667113,"current_range_meters":25200,"station_id":"ce4bgv92rcd13ifvqcq0","pricing_plan_id":"cebpf4jnsgd1na2vs0mg"},{"bike_id":"a8420d12-5ea1-4553-ba77-74153419b9a1","system_id":"levelo_inurba_marseille","lat":43.307945,"lon":5.376487,"is_reserved":false,"is_disabled":false,"rental_uris":{"android":"levelo://app?vid=a8420d12-5ea1-4553-ba77-74153419b9a1","ios":"levelo://app?vid=a8420d12-5ea1-4553-ba77-74153419b9a1"},"vehicle_type_id":"4","last_reported":1715667113,"current_range_meters":31200,"station_id":"ce4bgv92rcd13ifvqcq0","pricing_plan_id":"cebpf4jnsgd1na2vs0mg"},{"bike_id":"31859ea9-e716-4aff-96f6-affb8224ae6c","system_id":"levelo_inurba_marseille","lat":43.307945,"lon":5.376487,"is_reserved":false,"is_disabled":false,"rental_uris":{"android":"levelo://app?vid=31859ea9-e716-4aff-96f6-affb8224ae6c","ios":"levelo://app?vid=31859ea9-e716-4aff-96f6-affb8224ae6c"},"vehicle_type_id":"4","last_reported":1715667113,"current_range_meters":14800,"station_id":"ce4bgv92rcd13ifvqcq0","pricing_plan_id":"cebpf4jnsgd1na2vs0mg"},{"bike_id":"0c3cab22-3abc-4875-90b6-3bee622b0a30","system_id":"levelo_inurba_marseille","lat":43.317075,"lon":5.377367,"is_reserved":false,"is_disabled":false,"rental_uris":{"android":"levelo://app?vid=0c3cab22-3abc-4875-90b6-3bee622b0a30","ios":"levelo://app?vid=0c3cab22-3abc-4875-90b6-3bee622b0a30"},"vehicle_type_id":"4","last_reported":1715667113,"current_range_meters":26800,"station_id":"ce4bgth2rcd13ifvqch0","pricing_plan_id":"cebpf4jnsgd1na2vs0mg"},{"bike_id":"f85e36f2-6e67-4dfd-b5fa-2f01e706d9a9","system_id":"levelo_inurba_marseille","lat":43.317075,"lon":5.377367,"is_reserved":false,"is_disabled":false,"rental_uris":{"android":"levelo://app?vid=f85e36f2-6e67-4dfd-b5fa-2f01e706d9a9","ios":"levelo://app?vid=f85e36f2-6e67-4dfd-b5fa-2f01e706d9a9"},"vehicle_type_id":"4","last_reported":1715667113,"current_range_meters":31200,"station_id":"ce4bgth2rcd13ifvqch0","pricing_plan_id":"cebpf4jnsgd1na2vs0mg"},{"bike_id":"ebc9fc43-69db-4284-9052-ef86da299a31","system_id":"levelo_inurba_marseille","lat":43.317075,"lon":5.377367,"is_reserved":false,"is_disabled":false,"rental_uris":{"android":"levelo://app?vid=ebc9fc43-69db-4284-9052-ef86da299a31","ios":"levelo://app?vid=ebc9fc43-69db-4284-9052-ef86da299a31"},"vehicle_type_id":"4","last_reported":1715667113,"current_range_meters":26400,"station_id":"ce4bgth2rcd13ifvqch0","pricing_plan_id":"cebpf4jnsgd1na2vs0mg"},{"bike_id":"037b420e-fa98-4b46-97c9-6b7dae36a1b7","system_id":"levelo_inurba_marseille","lat":43.317075,"lon":5.377367,"is_reserved":false,"is_disabled":false,"rental_uris":{"android":"levelo://app?vid=037b420e-fa98-4b46-97c9-6b7dae36a1b7","ios":"levelo://app?vid=037b420e-fa98-4b46-97c9-6b7dae36a1b7"},"vehicle_type_id":"4","last_reported":1715667113,"current_range_meters":31200,"station_id":"ce4bgth2rcd13ifvqch0","pricing_plan_id":"cebpf4jnsgd1na2vs0mg"},{"bike_id":"971a8de3-a883-45da-b286-e1a6d4db7b5e","system_id":"levelo_inurba_marseille","lat":43.315293,"lon":5.380229,"is_reserved":false,"is_disabled":false,"rental_uris":{"android":"levelo://app?vid=971a8de3-a883-45da-b286-e1a6d4db7b5e","ios":"levelo://app?vid=971a8de3-a883-45da-b286-e1a6d4db7b5e"},"vehicle_type_id":"4","last_reported":1715667113,"current_range_meters":18800,"station_id":"ce4bhsp2rcd13ifvqi50","pricing_plan_id":"cebpf4jnsgd1na2vs0mg"},{"bike_id":"fb13cc66-4e51-437d-859d-5be6ed1604d0","system_id":"levelo_inurba_marseille","lat":43.315293,"lon":5.380349,"is_reserved":false,"is_disabled":false,"rental_uris":{"android":"levelo://app?vid=fb13cc66-4e51-437d-859d-5be6ed1604d0","ios":"levelo://app?vid=fb13cc66-4e51-437d-859d-5be6ed1604d0"},"vehicle_type_id":"4","last_reported":1715667113,"current_range_meters":25600,"station_id":"ce4bhsp2rcd13ifvqi50","pricing_plan_id":"cebpf4jnsgd1na2vs0mg"},{"bike_id":"a37cdda5-216b-490e-9d2b-eead123fc9e0","system_id":"levelo_inurba_marseille","lat":43.315289,"lon":5.380349,"is_reserved":false,"is_disabled":false,"rental_uris":{"android":"levelo://app?vid=a37cdda5-216b-490e-9d2b-eead123fc9e0","ios":"levelo://app?vid=a37cdda5-216b-490e-9d2b-eead123fc9e0"},"vehicle_type_id":"4","last_reported":1715667113,"current_range_meters":2000,"station_id":"ce4bhsp2rcd13ifvqi50","pricing_plan_id":"cebpf4jnsgd1na2vs0mg"},{"bike_id":"e518cec9-02cd-4de7-8c47-9d07b4a1bea2","system_id":"levelo_inurba_marseille","lat":43.324031,"lon":5.367174,"is_reserved":false,"is_disabled":false,"rental_uris":{"android":"levelo://app?vid=e518cec9-02cd-4de7-8c47-9d07b4a1bea2","ios":"levelo://app?vid=e518cec9-02cd-4de7-8c47-9d07b4a1bea2"},"vehicle_type_id":"4","last_reported":1715667113,"current_range_meters":7600,"station_id":"","pricing_plan_id":"cebpf4jnsgd1na2vs0mg"},{"bike_id":"96a9365a-5994-4074-8f7d-53be9cd22b2a","system_id":"levelo_inurba_marseille","lat":43.306316,"lon":5.380032,"is_reserved":false,"is_disabled":false,"rental_uris":{"android":"levelo://app?vid=96a9365a-5994-4074-8f7d-53be9cd22b2a","ios":"levelo://app?vid=96a9365a-5994-4074-8f7d-53be9cd22b2a"},"vehicle_type_id":"4","last_reported":1715667113,"current_range_meters":18800,"station_id":"","pricing_plan_id":"cebpf4jnsgd1na2vs0mg"},{"bike_id":"e5eacefe-8e6d-4676-9060-5954fda4c955","system_id":"levelo_inurba_marseille","lat":43.308012,"lon":5.381511,"is_reserved":false,"is_disabled":false,"rental_uris":{"android":"levelo://app?vid=e5eacefe-8e6d-4676-9060-5954fda4c955","ios":"levelo://app?vid=e5eacefe-8e6d-4676-9060-5954fda4c955"},"vehicle_type_id":"4","last_reported":1715667113,"current_range_meters":17600,"station_id":"ce4bgt12rcd13ifvqce0","pricing_plan_id":"cebpf4jnsgd1na2vs0mg"},{"bike_id":"a8825446-9a6f-45e9-97f3-e0ec83f163cd","system_id":"levelo_inurba_marseille","lat":43.308012,"lon":5.381511,"is_reserved":false,"is_disabled":false,"rental_uris":{"android":"levelo://app?vid=a8825446-9a6f-45e9-97f3-e0ec83f163cd","ios":"levelo://app?vid=a8825446-9a6f-45e9-97f3-e0ec83f163cd"},"vehicle_type_id":"4","last_reported":1715667113,"current_range_meters":24000,"station_id":"ce4bgt12rcd13ifvqce0","pricing_plan_id":"cebpf4jnsgd1na2vs0mg"},{"bike_id":"a1690967-be1c-4f5d-8986-825cb912ea2a","system_id":"levelo_inurba_marseille","lat":43.304606,"lon":5.379026,"is_reserved":false,"is_disabled":false,"rental_uris":{"android":"levelo://app?vid=a1690967-be1c-4f5d-8986-825cb912ea2a","ios":"levelo://app?vid=a1690967-be1c-4f5d-8986-825cb912ea2a"},"vehicle_type_id":"4","last_reported":1715667113,"current_range_meters":20800,"station_id":"ce4bgup2rcd13ifvqcn0","pricing_plan_id":"cebpf4jnsgd1na2vs0mg"},{"bike_id":"c90e2072-cda2-4513-8762-c5f169b1bb1b","system_id":"levelo_inurba_marseille","lat":43.304606,"lon":5.379026,"is_reserved":false,"is_disabled":false,"rental_uris":{"android":"levelo://app?vid=c90e2072-cda2-4513-8762-c5f169b1bb1b","ios":"levelo://app?vid=c90e2072-cda2-4513-8762-c5f169b1bb1b"},"vehicle_type_id":"4","last_reported":1715667113,"current_range_meters":21600,"station_id":"ce4bgup2rcd13ifvqcn0","pricing_plan_id":"cebpf4jnsgd1na2vs0mg"},{"bike_id":"7c2019a6-abf0-4964-a612-2b203cb61063","system_id":"levelo_inurba_marseille","lat":43.304606,"lon":5.379026,"is_reserved":false,"is_disabled":false,"rental_uris":{"android":"levelo://app?vid=7c2019a6-abf0-4964-a612-2b203cb61063","ios":"levelo://app?vid=7c2019a6-abf0-4964-a612-2b203cb61063"},"vehicle_type_id":"4","last_reported":1715667113,"current_range_meters":8000,"station_id":"ce4bgup2rcd13ifvqcn0","pricing_plan_id":"cebpf4jnsgd1na2vs0mg"},{"bike_id":"54fcee68-de35-4aca-a9dc-d6234e411343","system_id":"levelo_inurba_marseille","lat":43.304606,"lon":5.379026,"is_reserved":false,"is_disabled":false,"rental_uris":{"android":"levelo://app?vid=54fcee68-de35-4aca-a9dc-d6234e411343","ios":"levelo://app?vid=54fcee68-de35-4aca-a9dc-d6234e411343"},"vehicle_type_id":"4","last_reported":1715667113,"current_range_meters":5200,"station_id":"ce4bgup2rcd13ifvqcn0","pricing_plan_id":"cebpf4jnsgd1na2vs0mg"},{"bike_id":"7585a57b-57e3-43cb-b03c-36e7694a109c","system_id":"levelo_inurba_marseille","lat":43.304606,"lon":5.379026,"is_reserved":false,"is_disabled":false,"rental_uris":{"android":"levelo://app?vid=7585a57b-57e3-43cb-b03c-36e7694a109c","ios":"levelo://app?vid=7585a57b-57e3-43cb-b03c-36e7694a109c"},"vehicle_type_id":"4","last_reported":1715667113,"current_range_meters":3600,"station_id":"ce4bgup2rcd13ifvqcn0","pricing_plan_id":"cebpf4jnsgd1na2vs0mg"},{"bike_id":"11ba9b52-8543-44dd-b113-1937d1ea8eee","system_id":"levelo_inurba_marseille","lat":43.304606,"lon":5.379026,"is_reserved":false,"is_disabled":false,"rental_uris":{"android":"levelo://app?vid=11ba9b52-8543-44dd-b113-1937d1ea8eee","ios":"levelo://app?vid=11ba9b52-8543-44dd-b113-1937d1ea8eee"},"vehicle_type_id":"4","last_reported":1715667113,"current_range_meters":14000,"station_id":"ce4bgup2rcd13ifvqcn0","pricing_plan_id":"cebpf4jnsgd1na2vs0mg"},{"bike_id":"3d74b5bf-01e4-4b75-b16a-d2db55d518c7","system_id":"levelo_inurba_marseille","lat":43.304606,"lon":5.379026,"is_reserved":false,"is_disabled":false,"rental_uris":{"android":"levelo://app?vid=3d74b5bf-01e4-4b75-b16a-d2db55d518c7","ios":"levelo://app?vid=3d74b5bf-01e4-4b75-b16a-d2db55d518c7"},"vehicle_type_id":"4","last_reported":1715667113,"current_range_meters":22800,"station_id":"ce4bgup2rcd13ifvqcn0","pricing_plan_id":"cebpf4jnsgd1na2vs0mg"},{"bike_id":"316069d5-4ed7-4390-83b4-1571b60d00f9","system_id":"levelo_inurba_marseille","lat":43.304606,"lon":5.379026,"is_reserved":false,"is_disabled":false,"rental_uris":{"android":"levelo://app?vid=316069d5-4ed7-4390-83b4-1571b60d00f9","ios":"levelo://app?vid=316069d5-4ed7-4390-83b4-1571b60d00f9"},"vehicle_type_id":"4","last_reported":1715667113,"current_range_meters":24000,"station_id":"ce4bgup2rcd13ifvqcn0","pricing_plan_id":"cebpf4jnsgd1na2vs0mg"},{"bike_id":"24ea6657-ef33-4355-ab0b-6cfbb93ae973","system_id":"levelo_inurba_marseille","lat":43.304606,"lon":5.379026,"is_reserved":false,"is_disabled":false,"rental_uris":{"android":"levelo://app?vid=24ea6657-ef33-4355-ab0b-6cfbb93ae973","ios":"levelo://app?vid=24ea6657-ef33-4355-ab0b-6cfbb93ae973"},"vehicle_type_id":"4","last_reported":1715667113,"current_range_meters":18000,"station_id":"ce4bgup2rcd13ifvqcn0","pricing_plan_id":"cebpf4jnsgd1na2vs0mg"},{"bike_id":"553d4466-47e7-4090-ab77-98c406c29192","system_id":"levelo_inurba_marseille","lat":43.304606,"lon":5.379026,"is_reserved":false,"is_disabled":false,"rental_uris":{"android":"levelo://app?vid=553d4466-47e7-4090-ab77-98c406c29192","ios":"levelo://app?vid=553d4466-47e7-4090-ab77-98c406c29192"},"vehicle_type_id":"4","last_reported":1715667113,"current_range_meters":27200,"station_id":"ce4bgup2rcd13ifvqcn0","pricing_plan_id":"cebpf4jnsgd1na2vs0mg"},{"bike_id":"8c135896-aeb8-43fe-83ab-f1dfde544f1d","system_id":"levelo_inurba_marseille","lat":43.304606,"lon":5.379026,"is_reserved":false,"is_disabled":false,"rental_uris":{"android":"levelo://app?vid=8c135896-aeb8-43fe-83ab-f1dfde544f1d","ios":"levelo://app?vid=8c135896-aeb8-43fe-83ab-f1dfde544f1d"},"vehicle_type_id":"4","last_reported":1715667113,"current_range_meters":22800,"station_id":"ce4bgup2rcd13ifvqcn0","pricing_plan_id":"cebpf4jnsgd1na2vs0mg"},{"bike_id":"cd495938-77b3-4355-8c77-c0213d0042a3","system_id":"levelo_inurba_marseille","lat":43.304606,"lon":5.379026,"is_reserved":false,"is_disabled":false,"rental_uris":{"android":"levelo://app?vid=cd495938-77b3-4355-8c77-c0213d0042a3","ios":"levelo://app?vid=cd495938-77b3-4355-8c77-c0213d0042a3"},"vehicle_type_id":"4","last_reported":1715667113,"current_range_meters":17600,"station_id":"ce4bgup2rcd13ifvqcn0","pricing_plan_id":"cebpf4jnsgd1na2vs0mg"},{"bike_id":"fc24cba1-fb61-4c2e-9733-911ee1fb3805","system_id":"levelo_inurba_marseille","lat":43.3046,"lon":5.37897,"is_reserved":false,"is_disabled":false,"rental_uris":{"android":"levelo://app?vid=fc24cba1-fb61-4c2e-9733-911ee1fb3805","ios":"levelo://app?vid=fc24cba1-fb61-4c2e-9733-911ee1fb3805"},"vehicle_type_id":"4","last_reported":1715667113,"current_range_meters":20800,"station_id":"ce4bgup2rcd13ifvqcn0","pricing_plan_id":"cebpf4jnsgd1na2vs0mg"},{"bike_id":"856dd464-3186-4408-bce8-a4a65fbd456d","system_id":"levelo_inurba_marseille","lat":43.304606,"lon":5.379026,"is_reserved":false,"is_disabled":false,"rental_uris":{"android":"levelo://app?vid=856dd464-3186-4408-bce8-a4a65fbd456d","ios":"levelo://app?vid=856dd464-3186-4408-bce8-a4a65fbd456d"},"vehicle_type_id":"4","last_reported":1715667113,"current_range_meters":30000,"station_id":"ce4bgup2rcd13ifvqcn0","pricing_plan_id":"cebpf4jnsgd1na2vs0mg"},{"bike_id":"b49f13f3-6dbd-4ec4-9442-c1826f163f7a","system_id":"levelo_inurba_marseille","lat":43.304606,"lon":5.379026,"is_reserved":false,"is_disabled":false,"rental_uris":{"android":"levelo://app?vid=b49f13f3-6dbd-4ec4-9442-c1826f163f7a","ios":"levelo://app?vid=b49f13f3-6dbd-4ec4-9442-c1826f163f7a"},"vehicle_type_id":"4","last_reported":1715667113,"current_range_meters":16800,"station_id":"ce4bgup2rcd13ifvqcn0","pricing_plan_id":"cebpf4jnsgd1na2vs0mg"},{"bike_id":"c74c0485-59ae-499a-8c52-2d130399faf6","system_id":"levelo_inurba_marseille","lat":43.304606,"lon":5.379026,"is_reserved":false,"is_disabled":false,"rental_uris":{"android":"levelo://app?vid=c74c0485-59ae-499a-8c52-2d130399faf6","ios":"levelo://app?vid=c74c0485-59ae-499a-8c52-2d130399faf6"},"vehicle_type_id":"4","last_reported":1715667113,"current_range_meters":24800,"station_id":"ce4bgup2rcd13ifvqcn0","pricing_plan_id":"cebpf4jnsgd1na2vs0mg"},{"bike_id":"7f003468-c8cb-4160-b7ce-b6a43a23f21c","system_id":"levelo_inurba_marseille","lat":43.304606,"lon":5.379026,"is_reserved":false,"is_disabled":false,"rental_uris":{"android":"levelo://app?vid=7f003468-c8cb-4160-b7ce-b6a43a23f21c","ios":"levelo://app?vid=7f003468-c8cb-4160-b7ce-b6a43a23f21c"},"vehicle_type_id":"4","last_reported":1715667113,"current_range_meters":22800,"station_id":"ce4bgup2rcd13ifvqcn0","pricing_plan_id":"cebpf4jnsgd1na2vs0mg"},{"bike_id":"c9a92e5a-0415-4097-9c69-959f2b33f894","system_id":"levelo_inurba_marseille","lat":43.304606,"lon":5.379026,"is_reserved":false,"is_disabled":false,"rental_uris":{"android":"levelo://app?vid=c9a92e5a-0415-4097-9c69-959f2b33f894","ios":"levelo://app?vid=c9a92e5a-0415-4097-9c69-959f2b33f894"},"vehicle_type_id":"4","last_reported":1715667113,"current_range_meters":26800,"station_id":"ce4bgup2rcd13ifvqcn0","pricing_plan_id":"cebpf4jnsgd1na2vs0mg"},{"bike_id":"671271b6-87a2-4a2a-b7f2-8766e67a5d33","system_id":"levelo_inurba_marseille","lat":43.304606,"lon":5.379026,"is_reserved":false,"is_disabled":false,"rental_uris":{"android":"levelo://app?vid=671271b6-87a2-4a2a-b7f2-8766e67a5d33","ios":"levelo://app?vid=671271b6-87a2-4a2a-b7f2-8766e67a5d33"},"vehicle_type_id":"4","last_reported":1715667113,"current_range_meters":12000,"station_id":"ce4bgup2rcd13ifvqcn0","pricing_plan_id":"cebpf4jnsgd1na2vs0mg"},{"bike_id":"9e7777c6-6fad-480b-a170-7ff188cc3024","system_id":"levelo_inurba_marseille","lat":43.30458,"lon":5.37899,"is_reserved":false,"is_disabled":false,"rental_uris":{"android":"levelo://app?vid=9e7777c6-6fad-480b-a170-7ff188cc3024","ios":"levelo://app?vid=9e7777c6-6fad-480b-a170-7ff188cc3024"},"vehicle_type_id":"4","last_reported":1715667113,"current_range_meters":14000,"station_id":"ce4bgup2rcd13ifvqcn0","pricing_plan_id":"cebpf4jnsgd1na2vs0mg"},{"bike_id":"0a00e1d1-3b96-4ace-a50b-327691a56e21","system_id":"levelo_inurba_marseille","lat":43.304606,"lon":5.379026,"is_reserved":false,"is_disabled":false,"rental_uris":{"android":"levelo://app?vid=0a00e1d1-3b96-4ace-a50b-327691a56e21","ios":"levelo://app?vid=0a00e1d1-3b96-4ace-a50b-327691a56e21"},"vehicle_type_id":"4","last_reported":1715667113,"current_range_meters":11200,"station_id":"ce4bgup2rcd13ifvqcn0","pricing_plan_id":"cebpf4jnsgd1na2vs0mg"},{"bike_id":"e7135fcd-b608-4465-a4e5-acf77fb47190","system_id":"levelo_inurba_marseille","lat":43.304606,"lon":5.379026,"is_reserved":false,"is_disabled":false,"rental_uris":{"android":"levelo://app?vid=e7135fcd-b608-4465-a4e5-acf77fb47190","ios":"levelo://app?vid=e7135fcd-b608-4465-a4e5-acf77fb47190"},"vehicle_type_id":"4","last_reported":1715667113,"current_range_meters":16000,"station_id":"ce4bgup2rcd13ifvqcn0","pricing_plan_id":"cebpf4jnsgd1na2vs0mg"},{"bike_id":"33f794fc-75bc-46ee-9980-91f4de6db675","system_id":"levelo_inurba_marseille","lat":43.304606,"lon":5.379026,"is_reserved":false,"is_disabled":false,"rental_uris":{"android":"levelo://app?vid=33f794fc-75bc-46ee-9980-91f4de6db675","ios":"levelo://app?vid=33f794fc-75bc-46ee-9980-91f4de6db675"},"vehicle_type_id":"4","last_reported":1715667113,"current_range_meters":30000,"station_id":"ce4bgup2rcd13ifvqcn0","pricing_plan_id":"cebpf4jnsgd1na2vs0mg"},{"bike_id":"3a3ca10b-39d3-41c4-97d3-1a1a87885a66","system_id":"levelo_inurba_marseille","lat":43.304606,"lon":5.379026,"is_reserved":false,"is_disabled":false,"rental_uris":{"android":"levelo://app?vid=3a3ca10b-39d3-41c4-97d3-1a1a87885a66","ios":"levelo://app?vid=3a3ca10b-39d3-41c4-97d3-1a1a87885a66"},"vehicle_type_id":"4","last_reported":1715667113,"current_range_meters":13200,"station_id":"ce4bgup2rcd13ifvqcn0","pricing_plan_id":"cebpf4jnsgd1na2vs0mg"},{"bike_id":"3f2a077a-f293-4d9a-90be-102d02062325","system_id":"levelo_inurba_marseille","lat":43.304606,"lon":5.379026,"is_reserved":false,"is_disabled":false,"rental_uris":{"android":"levelo://app?vid=3f2a077a-f293-4d9a-90be-102d02062325","ios":"levelo://app?vid=3f2a077a-f293-4d9a-90be-102d02062325"},"vehicle_type_id":"4","last_reported":1715667113,"current_range_meters":21600,"station_id":"ce4bgup2rcd13ifvqcn0","pricing_plan_id":"cebpf4jnsgd1na2vs0mg"},{"bike_id":"a986e6d8-aca3-4d26-9258-34708d249003","system_id":"levelo_inurba_marseille","lat":43.304606,"lon":5.379026,"is_reserved":false,"is_disabled":false,"rental_uris":{"android":"levelo://app?vid=a986e6d8-aca3-4d26-9258-34708d249003","ios":"levelo://app?vid=a986e6d8-aca3-4d26-9258-34708d249003"},"vehicle_type_id":"4","last_reported":1715667113,"current_range_meters":15600,"station_id":"ce4bgup2rcd13ifvqcn0","pricing_plan_id":"cebpf4jnsgd1na2vs0mg"},{"bike_id":"316c15e5-31ea-45d9-b940-4f418c494335","system_id":"levelo_inurba_marseille","lat":43.304606,"lon":5.379026,"is_reserved":false,"is_disabled":false,"rental_uris":{"android":"levelo://app?vid=316c15e5-31ea-45d9-b940-4f418c494335","ios":"levelo://app?vid=316c15e5-31ea-45d9-b940-4f418c494335"},"vehicle_type_id":"4","last_reported":1715667113,"current_range_meters":22800,"station_id":"ce4bgup2rcd13ifvqcn0","pricing_plan_id":"cebpf4jnsgd1na2vs0mg"},{"bike_id":"8d6718bb-c981-46bc-9661-7f06f6c100c0","system_id":"levelo_inurba_marseille","lat":43.304606,"lon":5.379026,"is_reserved":false,"is_disabled":false,"rental_uris":{"android":"levelo://app?vid=8d6718bb-c981-46bc-9661-7f06f6c100c0","ios":"levelo://app?vid=8d6718bb-c981-46bc-9661-7f06f6c100c0"},"vehicle_type_id":"4","last_reported":1715667113,"current_range_meters":21200,"station_id":"ce4bgup2rcd13ifvqcn0","pricing_plan_id":"cebpf4jnsgd1na2vs0mg"},{"bike_id":"24956299-f353-4207-a7b7-b8a1156e4304","system_id":"levelo_inurba_marseille","lat":43.304606,"lon":5.379026,"is_reserved":false,"is_disabled":false,"rental_uris":{"android":"levelo://app?vid=24956299-f353-4207-a7b7-b8a1156e4304","ios":"levelo://app?vid=24956299-f353-4207-a7b7-b8a1156e4304"},"vehicle_type_id":"4","last_reported":1715667113,"current_range_meters":26800,"station_id":"ce4bgup2rcd13ifvqcn0","pricing_plan_id":"cebpf4jnsgd1na2vs0mg"},{"bike_id":"cbde62a0-cbb4-466d-b5d9-15c8fb31f423","system_id":"levelo_inurba_marseille","lat":43.304606,"lon":5.379026,"is_reserved":false,"is_disabled":false,"rental_uris":{"android":"levelo://app?vid=cbde62a0-cbb4-466d-b5d9-15c8fb31f423","ios":"levelo://app?vid=cbde62a0-cbb4-466d-b5d9-15c8fb31f423"},"vehicle_type_id":"4","last_reported":1715667113,"current_range_meters":18800,"station_id":"ce4bgup2rcd13ifvqcn0","pricing_plan_id":"cebpf4jnsgd1na2vs0mg"},{"bike_id":"85455325-e12e-4046-845a-bb4a3b8beec7","system_id":"levelo_inurba_marseille","lat":43.304606,"lon":5.379026,"is_reserved":false,"is_disabled":false,"rental_uris":{"android":"levelo://app?vid=85455325-e12e-4046-845a-bb4a3b8beec7","ios":"levelo://app?vid=85455325-e12e-4046-845a-bb4a3b8beec7"},"vehicle_type_id":"4","last_reported":1715667113,"current_range_meters":14800,"station_id":"ce4bgup2rcd13ifvqcn0","pricing_plan_id":"cebpf4jnsgd1na2vs0mg"},{"bike_id":"4008e057-241e-46e2-ac05-f4d1663a48b8","system_id":"levelo_inurba_marseille","lat":43.304606,"lon":5.379026,"is_reserved":false,"is_disabled":false,"rental_uris":{"android":"levelo://app?vid=4008e057-241e-46e2-ac05-f4d1663a48b8","ios":"levelo://app?vid=4008e057-241e-46e2-ac05-f4d1663a48b8"},"vehicle_type_id":"4","last_reported":1715667113,"current_range_meters":10800,"station_id":"ce4bgup2rcd13ifvqcn0","pricing_plan_id":"cebpf4jnsgd1na2vs0mg"},{"bike_id":"ed30d716-1eda-403f-9995-b55099bb320b","system_id":"levelo_inurba_marseille","lat":43.304606,"lon":5.379026,"is_reserved":false,"is_disabled":false,"rental_uris":{"android":"levelo://app?vid=ed30d716-1eda-403f-9995-b55099bb320b","ios":"levelo://app?vid=ed30d716-1eda-403f-9995-b55099bb320b"},"vehicle_type_id":"4","last_reported":1715667113,"current_range_meters":10800,"station_id":"ce4bgup2rcd13ifvqcn0","pricing_plan_id":"cebpf4jnsgd1na2vs0mg"},{"bike_id":"37bb3296-0e5c-4081-a578-d4b29135721a","system_id":"levelo_inurba_marseille","lat":43.304606,"lon":5.379026,"is_reserved":false,"is_disabled":false,"rental_uris":{"android":"levelo://app?vid=37bb3296-0e5c-4081-a578-d4b29135721a","ios":"levelo://app?vid=37bb3296-0e5c-4081-a578-d4b29135721a"},"vehicle_type_id":"4","last_reported":1715667113,"current_range_meters":29600,"station_id":"ce4bgup2rcd13ifvqcn0","pricing_plan_id":"cebpf4jnsgd1na2vs0mg"},{"bike_id":"10383396-e2a3-44df-83eb-c6262b1c9d56","system_id":"levelo_inurba_marseille","lat":43.304606,"lon":5.379026,"is_reserved":false,"is_disabled":false,"rental_uris":{"android":"levelo://app?vid=10383396-e2a3-44df-83eb-c6262b1c9d56","ios":"levelo://app?vid=10383396-e2a3-44df-83eb-c6262b1c9d56"},"vehicle_type_id":"4","last_reported":1715667113,"current_range_meters":30800,"station_id":"ce4bgup2rcd13ifvqcn0","pricing_plan_id":"cebpf4jnsgd1na2vs0mg"},{"bike_id":"b387572f-30e2-4e3e-93ef-69bff10aec29","system_id":"levelo_inurba_marseille","lat":43.304606,"lon":5.379026,"is_reserved":false,"is_disabled":false,"rental_uris":{"android":"levelo://app?vid=b387572f-30e2-4e3e-93ef-69bff10aec29","ios":"levelo://app?vid=b387572f-30e2-4e3e-93ef-69bff10aec29"},"vehicle_type_id":"4","last_reported":1715667113,"current_range_meters":12400,"station_id":"ce4bgup2rcd13ifvqcn0","pricing_plan_id":"cebpf4jnsgd1na2vs0mg"},{"bike_id":"8b1c4b27-c633-4454-a081-f97495dc0075","system_id":"levelo_inurba_marseille","lat":43.304616,"lon":5.37911,"is_reserved":false,"is_disabled":false,"rental_uris":{"android":"levelo://app?vid=8b1c4b27-c633-4454-a081-f97495dc0075","ios":"levelo://app?vid=8b1c4b27-c633-4454-a081-f97495dc0075"},"vehicle_type_id":"4","last_reported":1715667113,"current_range_meters":18800,"station_id":"ce4bgup2rcd13ifvqcn0","pricing_plan_id":"cebpf4jnsgd1na2vs0mg"},{"bike_id":"51c7d967-98f7-422b-aeca-8290a99ff16b","system_id":"levelo_inurba_marseille","lat":43.304606,"lon":5.379026,"is_reserved":false,"is_disabled":false,"rental_uris":{"android":"levelo://app?vid=51c7d967-98f7-422b-aeca-8290a99ff16b","ios":"levelo://app?vid=51c7d967-98f7-422b-aeca-8290a99ff16b"},"vehicle_type_id":"4","last_reported":1715667113,"current_range_meters":23200,"station_id":"ce4bgup2rcd13ifvqcn0","pricing_plan_id":"cebpf4jnsgd1na2vs0mg"},{"bike_id":"6b0d9d0f-f5a8-4aa3-b40c-b89fe09b4701","system_id":"levelo_inurba_marseille","lat":43.304606,"lon":5.379026,"is_reserved":false,"is_disabled":false,"rental_uris":{"android":"levelo://app?vid=6b0d9d0f-f5a8-4aa3-b40c-b89fe09b4701","ios":"levelo://app?vid=6b0d9d0f-f5a8-4aa3-b40c-b89fe09b4701"},"vehicle_type_id":"4","last_reported":1715667113,"current_range_meters":18000,"station_id":"ce4bgup2rcd13ifvqcn0","pricing_plan_id":"cebpf4jnsgd1na2vs0mg"},{"bike_id":"c83af5cb-c8a4-4364-86cd-497fc56d1299","system_id":"levelo_inurba_marseille","lat":43.304606,"lon":5.379026,"is_reserved":false,"is_disabled":false,"rental_uris":{"android":"levelo://app?vid=c83af5cb-c8a4-4364-86cd-497fc56d1299","ios":"levelo://app?vid=c83af5cb-c8a4-4364-86cd-497fc56d1299"},"vehicle_type_id":"4","last_reported":1715667113,"current_range_meters":8000,"station_id":"ce4bgup2rcd13ifvqcn0","pricing_plan_id":"cebpf4jnsgd1na2vs0mg"},{"bike_id":"350a2a48-787f-40ca-9b5e-a4f765ea52f3","system_id":"levelo_inurba_marseille","lat":43.304606,"lon":5.379026,"is_reserved":false,"is_disabled":false,"rental_uris":{"android":"levelo://app?vid=350a2a48-787f-40ca-9b5e-a4f765ea52f3","ios":"levelo://app?vid=350a2a48-787f-40ca-9b5e-a4f765ea52f3"},"vehicle_type_id":"4","last_reported":1715667113,"current_range_meters":12000,"station_id":"ce4bgup2rcd13ifvqcn0","pricing_plan_id":"cebpf4jnsgd1na2vs0mg"},{"bike_id":"14109c06-2e80-4170-a491-5326a0858757","system_id":"levelo_inurba_marseille","lat":43.324771,"lon":5.36557,"is_reserved":false,"is_disabled":false,"rental_uris":{"android":"levelo://app?vid=14109c06-2e80-4170-a491-5326a0858757","ios":"levelo://app?vid=14109c06-2e80-4170-a491-5326a0858757"},"vehicle_type_id":"4","last_reported":1715667113,"current_range_meters":28000,"station_id":"ce4bhs12rcd13ifvqhvg","pricing_plan_id":"cebpf4jnsgd1na2vs0mg"},{"bike_id":"9a7e4e94-1422-4263-b3e9-54312874d645","system_id":"levelo_inurba_marseille","lat":43.304606,"lon":5.379026,"is_reserved":false,"is_disabled":false,"rental_uris":{"android":"levelo://app?vid=9a7e4e94-1422-4263-b3e9-54312874d645","ios":"levelo://app?vid=9a7e4e94-1422-4263-b3e9-54312874d645"},"vehicle_type_id":"4","last_reported":1715667113,"current_range_meters":3600,"station_id":"ce4bgup2rcd13ifvqcn0","pricing_plan_id":"cebpf4jnsgd1na2vs0mg"},{"bike_id":"4a9a9665-1cd2-49ce-8806-5d25ff857789","system_id":"levelo_inurba_marseille","lat":43.32475,"lon":5.365609,"is_reserved":false,"is_disabled":false,"rental_uris":{"android":"levelo://app?vid=4a9a9665-1cd2-49ce-8806-5d25ff857789","ios":"levelo://app?vid=4a9a9665-1cd2-49ce-8806-5d25ff857789"},"vehicle_type_id":"4","last_reported":1715667113,"current_range_meters":10000,"station_id":"ce4bhs12rcd13ifvqhvg","pricing_plan_id":"cebpf4jnsgd1na2vs0mg"},{"bike_id":"fbb6cef2-0251-45ac-be4c-6827acb26d5a","system_id":"levelo_inurba_marseille","lat":43.32476,"lon":5.36571,"is_reserved":false,"is_disabled":false,"rental_uris":{"android":"levelo://app?vid=fbb6cef2-0251-45ac-be4c-6827acb26d5a","ios":"levelo://app?vid=fbb6cef2-0251-45ac-be4c-6827acb26d5a"},"vehicle_type_id":"4","last_reported":1715667113,"current_range_meters":5600,"station_id":"ce4bhs12rcd13ifvqhvg","pricing_plan_id":"cebpf4jnsgd1na2vs0mg"},{"bike_id":"acddce86-e51e-48e5-bbcc-945de9d4cc2c","system_id":"levelo_inurba_marseille","lat":43.304606,"lon":5.379026,"is_reserved":false,"is_disabled":false,"rental_uris":{"android":"levelo://app?vid=acddce86-e51e-48e5-bbcc-945de9d4cc2c","ios":"levelo://app?vid=acddce86-e51e-48e5-bbcc-945de9d4cc2c"},"vehicle_type_id":"4","last_reported":1715667113,"current_range_meters":23600,"station_id":"ce4bgup2rcd13ifvqcn0","pricing_plan_id":"cebpf4jnsgd1na2vs0mg"},{"bike_id":"483aeaa0-e4c4-412f-9c97-941c13495054","system_id":"levelo_inurba_marseille","lat":43.32477,"lon":5.36583,"is_reserved":false,"is_disabled":false,"rental_uris":{"android":"levelo://app?vid=483aeaa0-e4c4-412f-9c97-941c13495054","ios":"levelo://app?vid=483aeaa0-e4c4-412f-9c97-941c13495054"},"vehicle_type_id":"4","last_reported":1715667113,"current_range_meters":27600,"station_id":"ce4bhs12rcd13ifvqhvg","pricing_plan_id":"cebpf4jnsgd1na2vs0mg"},{"bike_id":"b82a0626-35dc-4528-b4d6-99d6f4d934a3","system_id":"levelo_inurba_marseille","lat":43.304606,"lon":5.379026,"is_reserved":false,"is_disabled":false,"rental_uris":{"android":"levelo://app?vid=b82a0626-35dc-4528-b4d6-99d6f4d934a3","ios":"levelo://app?vid=b82a0626-35dc-4528-b4d6-99d6f4d934a3"},"vehicle_type_id":"4","last_reported":1715667113,"current_range_meters":22400,"station_id":"ce4bgup2rcd13ifvqcn0","pricing_plan_id":"cebpf4jnsgd1na2vs0mg"},{"bike_id":"f4a1996d-108c-413a-90c9-3fba0f738ac1","system_id":"levelo_inurba_marseille","lat":43.324771,"lon":5.36557,"is_reserved":false,"is_disabled":false,"rental_uris":{"android":"levelo://app?vid=f4a1996d-108c-413a-90c9-3fba0f738ac1","ios":"levelo://app?vid=f4a1996d-108c-413a-90c9-3fba0f738ac1"},"vehicle_type_id":"4","last_reported":1715667113,"current_range_meters":28000,"station_id":"ce4bhs12rcd13ifvqhvg","pricing_plan_id":"cebpf4jnsgd1na2vs0mg"},{"bike_id":"cc14576e-0b28-4d5b-bdeb-7bfbc0b459d9","system_id":"levelo_inurba_marseille","lat":43.32478,"lon":5.36571,"is_reserved":false,"is_disabled":false,"rental_uris":{"android":"levelo://app?vid=cc14576e-0b28-4d5b-bdeb-7bfbc0b459d9","ios":"levelo://app?vid=cc14576e-0b28-4d5b-bdeb-7bfbc0b459d9"},"vehicle_type_id":"4","last_reported":1715667113,"current_range_meters":29200,"station_id":"ce4bhs12rcd13ifvqhvg","pricing_plan_id":"cebpf4jnsgd1na2vs0mg"},{"bike_id":"2978ac1c-2e57-4c03-a97a-4eba565e5fdd","system_id":"levelo_inurba_marseille","lat":43.302784,"lon":5.377158,"is_reserved":false,"is_disabled":false,"rental_uris":{"android":"levelo://app?vid=2978ac1c-2e57-4c03-a97a-4eba565e5fdd","ios":"levelo://app?vid=2978ac1c-2e57-4c03-a97a-4eba565e5fdd"},"vehicle_type_id":"4","last_reported":1715667113,"current_range_meters":20000,"station_id":"ce4bguh2rcd13ifvqcj0","pricing_plan_id":"cebpf4jnsgd1na2vs0mg"},{"bike_id":"5f2fb073-342c-4a76-a284-ae0f1fce59d0","system_id":"levelo_inurba_marseille","lat":43.324772,"lon":5.365553,"is_reserved":false,"is_disabled":false,"rental_uris":{"android":"levelo://app?vid=5f2fb073-342c-4a76-a284-ae0f1fce59d0","ios":"levelo://app?vid=5f2fb073-342c-4a76-a284-ae0f1fce59d0"},"vehicle_type_id":"4","last_reported":1715667113,"current_range_meters":9200,"station_id":"ce4bhs12rcd13ifvqhvg","pricing_plan_id":"cebpf4jnsgd1na2vs0mg"},{"bike_id":"85caa480-0e01-4cfa-8205-d231d883076b","system_id":"levelo_inurba_marseille","lat":43.324771,"lon":5.36557,"is_reserved":false,"is_disabled":false,"rental_uris":{"android":"levelo://app?vid=85caa480-0e01-4cfa-8205-d231d883076b","ios":"levelo://app?vid=85caa480-0e01-4cfa-8205-d231d883076b"},"vehicle_type_id":"4","last_reported":1715667113,"current_range_meters":0,"station_id":"ce4bhs12rcd13ifvqhvg","pricing_plan_id":"cebpf4jnsgd1na2vs0mg"},{"bike_id":"ab294a79-14d3-426e-b97b-f105f6a1e37c","system_id":"levelo_inurba_marseille","lat":43.324771,"lon":5.36557,"is_reserved":false,"is_disabled":false,"rental_uris":{"android":"levelo://app?vid=ab294a79-14d3-426e-b97b-f105f6a1e37c","ios":"levelo://app?vid=ab294a79-14d3-426e-b97b-f105f6a1e37c"},"vehicle_type_id":"4","last_reported":1715667113,"current_range_meters":21200,"station_id":"ce4bhs12rcd13ifvqhvg","pricing_plan_id":"cebpf4jnsgd1na2vs0mg"},{"bike_id":"7307fa7f-3f59-4a5b-b0c1-4d90115f03e6","system_id":"levelo_inurba_marseille","lat":43.304606,"lon":5.379026,"is_reserved":false,"is_disabled":false,"rental_uris":{"android":"levelo://app?vid=7307fa7f-3f59-4a5b-b0c1-4d90115f03e6","ios":"levelo://app?vid=7307fa7f-3f59-4a5b-b0c1-4d90115f03e6"},"vehicle_type_id":"4","last_reported":1715667113,"current_range_meters":19200,"station_id":"ce4bgup2rcd13ifvqcn0","pricing_plan_id":"cebpf4jnsgd1na2vs0mg"},{"bike_id":"855e19b2-a879-402e-b914-323ad8136d11","system_id":"levelo_inurba_marseille","lat":43.324771,"lon":5.36557,"is_reserved":false,"is_disabled":false,"rental_uris":{"android":"levelo://app?vid=855e19b2-a879-402e-b914-323ad8136d11","ios":"levelo://app?vid=855e19b2-a879-402e-b914-323ad8136d11"},"vehicle_type_id":"4","last_reported":1715667113,"current_range_meters":9200,"station_id":"ce4bhs12rcd13ifvqhvg","pricing_plan_id":"cebpf4jnsgd1na2vs0mg"},{"bike_id":"7279300e-a5c4-4f3b-858a-e2bd296be7c9","system_id":"levelo_inurba_marseille","lat":43.324806,"lon":5.36561,"is_reserved":false,"is_disabled":false,"rental_uris":{"android":"levelo://app?vid=7279300e-a5c4-4f3b-858a-e2bd296be7c9","ios":"levelo://app?vid=7279300e-a5c4-4f3b-858a-e2bd296be7c9"},"vehicle_type_id":"4","last_reported":1715667113,"current_range_meters":6800,"station_id":"ce4bhs12rcd13ifvqhvg","pricing_plan_id":"cebpf4jnsgd1na2vs0mg"},{"bike_id":"65c89bbc-8f51-471f-8067-cb8c4f85808f","system_id":"levelo_inurba_marseille","lat":43.32483,"lon":5.36584,"is_reserved":false,"is_disabled":false,"rental_uris":{"android":"levelo://app?vid=65c89bbc-8f51-471f-8067-cb8c4f85808f","ios":"levelo://app?vid=65c89bbc-8f51-471f-8067-cb8c4f85808f"},"vehicle_type_id":"4","last_reported":1715667113,"current_range_meters":13200,"station_id":"ce4bhs12rcd13ifvqhvg","pricing_plan_id":"cebpf4jnsgd1na2vs0mg"},{"bike_id":"7bde3c61-4232-4ccd-8c1d-610184d39686","system_id":"levelo_inurba_marseille","lat":43.324771,"lon":5.36557,"is_reserved":false,"is_disabled":false,"rental_uris":{"android":"levelo://app?vid=7bde3c61-4232-4ccd-8c1d-610184d39686","ios":"levelo://app?vid=7bde3c61-4232-4ccd-8c1d-610184d39686"},"vehicle_type_id":"4","last_reported":1715667113,"current_range_meters":13600,"station_id":"ce4bhs12rcd13ifvqhvg","pricing_plan_id":"cebpf4jnsgd1na2vs0mg"},{"bike_id":"26bd8217-5511-4bf1-a4d4-7323f3ee6d22","system_id":"levelo_inurba_marseille","lat":43.324771,"lon":5.36557,"is_reserved":false,"is_disabled":false,"rental_uris":{"android":"levelo://app?vid=26bd8217-5511-4bf1-a4d4-7323f3ee6d22","ios":"levelo://app?vid=26bd8217-5511-4bf1-a4d4-7323f3ee6d22"},"vehicle_type_id":"4","last_reported":1715667113,"current_range_meters":8800,"station_id":"ce4bhs12rcd13ifvqhvg","pricing_plan_id":"cebpf4jnsgd1na2vs0mg"},{"bike_id":"de363a9b-b8dd-4f25-97c4-05ca23eea0b0","system_id":"levelo_inurba_marseille","lat":43.324771,"lon":5.36557,"is_reserved":false,"is_disabled":false,"rental_uris":{"android":"levelo://app?vid=de363a9b-b8dd-4f25-97c4-05ca23eea0b0","ios":"levelo://app?vid=de363a9b-b8dd-4f25-97c4-05ca23eea0b0"},"vehicle_type_id":"4","last_reported":1715667113,"current_range_meters":20000,"station_id":"ce4bhs12rcd13ifvqhvg","pricing_plan_id":"cebpf4jnsgd1na2vs0mg"},{"bike_id":"3a519d4f-c77d-4275-9e44-996feb3a9a9b","system_id":"levelo_inurba_marseille","lat":43.324771,"lon":5.36557,"is_reserved":false,"is_disabled":false,"rental_uris":{"android":"levelo://app?vid=3a519d4f-c77d-4275-9e44-996feb3a9a9b","ios":"levelo://app?vid=3a519d4f-c77d-4275-9e44-996feb3a9a9b"},"vehicle_type_id":"4","last_reported":1715667113,"current_range_meters":28000,"station_id":"ce4bhs12rcd13ifvqhvg","pricing_plan_id":"cebpf4jnsgd1na2vs0mg"},{"bike_id":"ec42202b-e6fa-4a97-a614-2846aed801f1","system_id":"levelo_inurba_marseille","lat":43.324771,"lon":5.36557,"is_reserved":false,"is_disabled":false,"rental_uris":{"android":"levelo://app?vid=ec42202b-e6fa-4a97-a614-2846aed801f1","ios":"levelo://app?vid=ec42202b-e6fa-4a97-a614-2846aed801f1"},"vehicle_type_id":"4","last_reported":1715667113,"current_range_meters":3200,"station_id":"ce4bhs12rcd13ifvqhvg","pricing_plan_id":"cebpf4jnsgd1na2vs0mg"},{"bike_id":"4e5b1574-7671-4e95-82c8-a15f8a6d4f93","system_id":"levelo_inurba_marseille","lat":43.3107,"lon":5.38344,"is_reserved":false,"is_disabled":false,"rental_uris":{"android":"levelo://app?vid=4e5b1574-7671-4e95-82c8-a15f8a6d4f93","ios":"levelo://app?vid=4e5b1574-7671-4e95-82c8-a15f8a6d4f93"},"vehicle_type_id":"4","last_reported":1715667113,"current_range_meters":28000,"station_id":"ce4bgv92rcd13ifvqcr0","pricing_plan_id":"cebpf4jnsgd1na2vs0mg"},{"bike_id":"2dbc996f-83fd-4215-872d-b3545b2d6c44","system_id":"levelo_inurba_marseille","lat":43.31071,"lon":5.38351,"is_reserved":false,"is_disabled":false,"rental_uris":{"android":"levelo://app?vid=2dbc996f-83fd-4215-872d-b3545b2d6c44","ios":"levelo://app?vid=2dbc996f-83fd-4215-872d-b3545b2d6c44"},"vehicle_type_id":"4","last_reported":1715667113,"current_range_meters":26400,"station_id":"ce4bgv92rcd13ifvqcr0","pricing_plan_id":"cebpf4jnsgd1na2vs0mg"},{"bike_id":"c4d28e09-0f7d-4103-b635-dfdd6b96c090","system_id":"levelo_inurba_marseille","lat":43.31069,"lon":5.38351,"is_reserved":false,"is_disabled":false,"rental_uris":{"android":"levelo://app?vid=c4d28e09-0f7d-4103-b635-dfdd6b96c090","ios":"levelo://app?vid=c4d28e09-0f7d-4103-b635-dfdd6b96c090"},"vehicle_type_id":"4","last_reported":1715667113,"current_range_meters":19200,"station_id":"ce4bgv92rcd13ifvqcr0","pricing_plan_id":"cebpf4jnsgd1na2vs0mg"},{"bike_id":"81d7dc86-8bff-4319-bc41-236c0cdbea95","system_id":"levelo_inurba_marseille","lat":43.310804,"lon":5.38359,"is_reserved":false,"is_disabled":false,"rental_uris":{"android":"levelo://app?vid=81d7dc86-8bff-4319-bc41-236c0cdbea95","ios":"levelo://app?vid=81d7dc86-8bff-4319-bc41-236c0cdbea95"},"vehicle_type_id":"4","last_reported":1715667113,"current_range_meters":28400,"station_id":"ce4bgv92rcd13ifvqcr0","pricing_plan_id":"cebpf4jnsgd1na2vs0mg"},{"bike_id":"b40fa20a-2022-4b3f-88b2-5d6b1bb63cce","system_id":"levelo_inurba_marseille","lat":43.30143,"lon":5.37413,"is_reserved":false,"is_disabled":false,"rental_uris":{"android":"levelo://app?vid=b40fa20a-2022-4b3f-88b2-5d6b1bb63cce","ios":"levelo://app?vid=b40fa20a-2022-4b3f-88b2-5d6b1bb63cce"},"vehicle_type_id":"4","last_reported":1715667113,"current_range_meters":28400,"station_id":"ce4bgs92rcd13ifvqcc0","pricing_plan_id":"cebpf4jnsgd1na2vs0mg"},{"bike_id":"9e1c1e6a-9b4c-4190-bc9f-3ae52f346e26","system_id":"levelo_inurba_marseille","lat":43.30143,"lon":5.37413,"is_reserved":false,"is_disabled":false,"rental_uris":{"android":"levelo://app?vid=9e1c1e6a-9b4c-4190-bc9f-3ae52f346e26","ios":"levelo://app?vid=9e1c1e6a-9b4c-4190-bc9f-3ae52f346e26"},"vehicle_type_id":"4","last_reported":1715667113,"current_range_meters":21600,"station_id":"ce4bgs92rcd13ifvqcc0","pricing_plan_id":"cebpf4jnsgd1na2vs0mg"},{"bike_id":"e9200887-f131-48af-b424-114e439ba2b0","system_id":"levelo_inurba_marseille","lat":43.30143,"lon":5.37413,"is_reserved":false,"is_disabled":false,"rental_uris":{"android":"levelo://app?vid=e9200887-f131-48af-b424-114e439ba2b0","ios":"levelo://app?vid=e9200887-f131-48af-b424-114e439ba2b0"},"vehicle_type_id":"4","last_reported":1715667113,"current_range_meters":19200,"station_id":"ce4bgs92rcd13ifvqcc0","pricing_plan_id":"cebpf4jnsgd1na2vs0mg"},{"bike_id":"b45edadd-24d3-4123-ae14-dfe4169d2a1d","system_id":"levelo_inurba_marseille","lat":43.30139,"lon":5.37421,"is_reserved":false,"is_disabled":false,"rental_uris":{"android":"levelo://app?vid=b45edadd-24d3-4123-ae14-dfe4169d2a1d","ios":"levelo://app?vid=b45edadd-24d3-4123-ae14-dfe4169d2a1d"},"vehicle_type_id":"4","last_reported":1715667113,"current_range_meters":27200,"station_id":"ce4bgs92rcd13ifvqcc0","pricing_plan_id":"cebpf4jnsgd1na2vs0mg"},{"bike_id":"3c990cb6-658b-4c90-9c1a-cad49ce08135","system_id":"levelo_inurba_marseille","lat":43.30143,"lon":5.37413,"is_reserved":false,"is_disabled":false,"rental_uris":{"android":"levelo://app?vid=3c990cb6-658b-4c90-9c1a-cad49ce08135","ios":"levelo://app?vid=3c990cb6-658b-4c90-9c1a-cad49ce08135"},"vehicle_type_id":"4","last_reported":1715667113,"current_range_meters":25600,"station_id":"ce4bgs92rcd13ifvqcc0","pricing_plan_id":"cebpf4jnsgd1na2vs0mg"},{"bike_id":"9a5f9ed1-57c9-4cfe-b1b4-776b14fcfccd","system_id":"levelo_inurba_marseille","lat":43.30143,"lon":5.37413,"is_reserved":false,"is_disabled":false,"rental_uris":{"android":"levelo://app?vid=9a5f9ed1-57c9-4cfe-b1b4-776b14fcfccd","ios":"levelo://app?vid=9a5f9ed1-57c9-4cfe-b1b4-776b14fcfccd"},"vehicle_type_id":"4","last_reported":1715667113,"current_range_meters":31200,"station_id":"ce4bgs92rcd13ifvqcc0","pricing_plan_id":"cebpf4jnsgd1na2vs0mg"},{"bike_id":"37b176cb-6128-4f0a-917b-50b06d767c35","system_id":"levelo_inurba_marseille","lat":43.301429,"lon":5.37413,"is_reserved":false,"is_disabled":false,"rental_uris":{"android":"levelo://app?vid=37b176cb-6128-4f0a-917b-50b06d767c35","ios":"levelo://app?vid=37b176cb-6128-4f0a-917b-50b06d767c35"},"vehicle_type_id":"4","last_reported":1715667113,"current_range_meters":31200,"station_id":"ce4bgs92rcd13ifvqcc0","pricing_plan_id":"cebpf4jnsgd1na2vs0mg"},{"bike_id":"f1d0cf9b-319d-40fd-8f02-6de330be27fe","system_id":"levelo_inurba_marseille","lat":43.301323,"lon":5.374217,"is_reserved":false,"is_disabled":false,"rental_uris":{"android":"levelo://app?vid=f1d0cf9b-319d-40fd-8f02-6de330be27fe","ios":"levelo://app?vid=f1d0cf9b-319d-40fd-8f02-6de330be27fe"},"vehicle_type_id":"4","last_reported":1715667113,"current_range_meters":20800,"station_id":"ce4bgs92rcd13ifvqcc0","pricing_plan_id":"cebpf4jnsgd1na2vs0mg"},{"bike_id":"3ef77c78-8850-423c-8758-c3c25646f84f","system_id":"levelo_inurba_marseille","lat":43.302784,"lon":5.377158,"is_reserved":false,"is_disabled":false,"rental_uris":{"android":"levelo://app?vid=3ef77c78-8850-423c-8758-c3c25646f84f","ios":"levelo://app?vid=3ef77c78-8850-423c-8758-c3c25646f84f"},"vehicle_type_id":"4","last_reported":1715667113,"current_range_meters":26800,"station_id":"ce4bguh2rcd13ifvqcj0","pricing_plan_id":"cebpf4jnsgd1na2vs0mg"},{"bike_id":"cb979d69-1cb6-478b-a244-7ff208c6a717","system_id":"levelo_inurba_marseille","lat":43.319935,"lon":5.381699,"is_reserved":false,"is_disabled":false,"rental_uris":{"android":"levelo://app?vid=cb979d69-1cb6-478b-a244-7ff208c6a717","ios":"levelo://app?vid=cb979d69-1cb6-478b-a244-7ff208c6a717"},"vehicle_type_id":"4","last_reported":1715667113,"current_range_meters":9600,"station_id":"ce4bhr12rcd13ifvqhpg","pricing_plan_id":"cebpf4jnsgd1na2vs0mg"},{"bike_id":"a1b57291-7375-4fe5-a658-afacf24bef7d","system_id":"levelo_inurba_marseille","lat":43.302784,"lon":5.377158,"is_reserved":false,"is_disabled":false,"rental_uris":{"android":"levelo://app?vid=a1b57291-7375-4fe5-a658-afacf24bef7d","ios":"levelo://app?vid=a1b57291-7375-4fe5-a658-afacf24bef7d"},"vehicle_type_id":"4","last_reported":1715667113,"current_range_meters":30000,"station_id":"ce4bguh2rcd13ifvqcj0","pricing_plan_id":"cebpf4jnsgd1na2vs0mg"},{"bike_id":"6ed3c2c3-1e5c-4093-80c8-844016d17193","system_id":"levelo_inurba_marseille","lat":43.31992,"lon":5.38152,"is_reserved":false,"is_disabled":false,"rental_uris":{"android":"levelo://app?vid=6ed3c2c3-1e5c-4093-80c8-844016d17193","ios":"levelo://app?vid=6ed3c2c3-1e5c-4093-80c8-844016d17193"},"vehicle_type_id":"4","last_reported":1715667113,"current_range_meters":31200,"station_id":"ce4bhr12rcd13ifvqhpg","pricing_plan_id":"cebpf4jnsgd1na2vs0mg"},{"bike_id":"a8b07aa1-ffaa-467d-bd9e-8d6b49083ea3","system_id":"levelo_inurba_marseille","lat":43.31997,"lon":5.38149,"is_reserved":false,"is_disabled":false,"rental_uris":{"android":"levelo://app?vid=a8b07aa1-ffaa-467d-bd9e-8d6b49083ea3","ios":"levelo://app?vid=a8b07aa1-ffaa-467d-bd9e-8d6b49083ea3"},"vehicle_type_id":"4","last_reported":1715667113,"current_range_meters":28400,"station_id":"ce4bhr12rcd13ifvqhpg","pricing_plan_id":"cebpf4jnsgd1na2vs0mg"},{"bike_id":"b233cfe7-9417-4e09-91de-ed220f06879c","system_id":"levelo_inurba_marseille","lat":43.3199,"lon":5.38157,"is_reserved":false,"is_disabled":false,"rental_uris":{"android":"levelo://app?vid=b233cfe7-9417-4e09-91de-ed220f06879c","ios":"levelo://app?vid=b233cfe7-9417-4e09-91de-ed220f06879c"},"vehicle_type_id":"4","last_reported":1715667113,"current_range_meters":16400,"station_id":"ce4bhr12rcd13ifvqhpg","pricing_plan_id":"cebpf4jnsgd1na2vs0mg"},{"bike_id":"1a4bc433-547e-49fc-a2ad-2e6c34099fa8","system_id":"levelo_inurba_marseille","lat":43.31996,"lon":5.38152,"is_reserved":false,"is_disabled":false,"rental_uris":{"android":"levelo://app?vid=1a4bc433-547e-49fc-a2ad-2e6c34099fa8","ios":"levelo://app?vid=1a4bc433-547e-49fc-a2ad-2e6c34099fa8"},"vehicle_type_id":"4","last_reported":1715667113,"current_range_meters":15200,"station_id":"ce4bhr12rcd13ifvqhpg","pricing_plan_id":"cebpf4jnsgd1na2vs0mg"},{"bike_id":"1a805aa1-2eb9-4a9a-958b-4272cff5029c","system_id":"levelo_inurba_marseille","lat":43.319932,"lon":5.381547,"is_reserved":false,"is_disabled":false,"rental_uris":{"android":"levelo://app?vid=1a805aa1-2eb9-4a9a-958b-4272cff5029c","ios":"levelo://app?vid=1a805aa1-2eb9-4a9a-958b-4272cff5029c"},"vehicle_type_id":"4","last_reported":1715667113,"current_range_meters":16000,"station_id":"ce4bhr12rcd13ifvqhpg","pricing_plan_id":"cebpf4jnsgd1na2vs0mg"},{"bike_id":"ded0e47e-b739-4258-873c-982b9726ad19","system_id":"levelo_inurba_marseille","lat":43.31996,"lon":5.38153,"is_reserved":false,"is_disabled":false,"rental_uris":{"android":"levelo://app?vid=ded0e47e-b739-4258-873c-982b9726ad19","ios":"levelo://app?vid=ded0e47e-b739-4258-873c-982b9726ad19"},"vehicle_type_id":"4","last_reported":1715667113,"current_range_meters":0,"station_id":"ce4bhr12rcd13ifvqhpg","pricing_plan_id":"cebpf4jnsgd1na2vs0mg"},{"bike_id":"9a4525db-1dee-40f3-b573-7b4cfa93e5d1","system_id":"levelo_inurba_marseille","lat":43.31993,"lon":5.38156,"is_reserved":false,"is_disabled":false,"rental_uris":{"android":"levelo://app?vid=9a4525db-1dee-40f3-b573-7b4cfa93e5d1","ios":"levelo://app?vid=9a4525db-1dee-40f3-b573-7b4cfa93e5d1"},"vehicle_type_id":"4","last_reported":1715667113,"current_range_meters":9600,"station_id":"ce4bhr12rcd13ifvqhpg","pricing_plan_id":"cebpf4jnsgd1na2vs0mg"},{"bike_id":"719a556d-8f52-436d-8e59-793cd94c0eee","system_id":"levelo_inurba_marseille","lat":43.319935,"lon":5.381699,"is_reserved":false,"is_disabled":false,"rental_uris":{"android":"levelo://app?vid=719a556d-8f52-436d-8e59-793cd94c0eee","ios":"levelo://app?vid=719a556d-8f52-436d-8e59-793cd94c0eee"},"vehicle_type_id":"4","last_reported":1715667113,"current_range_meters":19600,"station_id":"ce4bhr12rcd13ifvqhpg","pricing_plan_id":"cebpf4jnsgd1na2vs0mg"},{"bike_id":"31558d58-cda1-44dc-897c-1d96b09e0cf9","system_id":"levelo_inurba_marseille","lat":43.31994,"lon":5.38161,"is_reserved":false,"is_disabled":false,"rental_uris":{"android":"levelo://app?vid=31558d58-cda1-44dc-897c-1d96b09e0cf9","ios":"levelo://app?vid=31558d58-cda1-44dc-897c-1d96b09e0cf9"},"vehicle_type_id":"4","last_reported":1715667113,"current_range_meters":19200,"station_id":"ce4bhr12rcd13ifvqhpg","pricing_plan_id":"cebpf4jnsgd1na2vs0mg"},{"bike_id":"277352e8-6625-45cf-95e9-c1115e6978ae","system_id":"levelo_inurba_marseille","lat":43.319935,"lon":5.381699,"is_reserved":false,"is_disabled":false,"rental_uris":{"android":"levelo://app?vid=277352e8-6625-45cf-95e9-c1115e6978ae","ios":"levelo://app?vid=277352e8-6625-45cf-95e9-c1115e6978ae"},"vehicle_type_id":"4","last_reported":1715667113,"current_range_meters":16400,"station_id":"ce4bhr12rcd13ifvqhpg","pricing_plan_id":"cebpf4jnsgd1na2vs0mg"},{"bike_id":"17c38c8a-5d25-4482-913b-ff601794d6fd","system_id":"levelo_inurba_marseille","lat":43.313571,"lon":5.384829,"is_reserved":false,"is_disabled":false,"rental_uris":{"android":"levelo://app?vid=17c38c8a-5d25-4482-913b-ff601794d6fd","ios":"levelo://app?vid=17c38c8a-5d25-4482-913b-ff601794d6fd"},"vehicle_type_id":"4","last_reported":1715667113,"current_range_meters":31200,"station_id":"ce4bgt92rcd13ifvqcf0","pricing_plan_id":"cebpf4jnsgd1na2vs0mg"},{"bike_id":"7f68fd9a-3e06-477d-826a-2ace983fa513","system_id":"levelo_inurba_marseille","lat":43.3136,"lon":5.38496,"is_reserved":false,"is_disabled":false,"rental_uris":{"android":"levelo://app?vid=7f68fd9a-3e06-477d-826a-2ace983fa513","ios":"levelo://app?vid=7f68fd9a-3e06-477d-826a-2ace983fa513"},"vehicle_type_id":"4","last_reported":1715667113,"current_range_meters":31200,"station_id":"","pricing_plan_id":"cebpf4jnsgd1na2vs0mg"},{"bike_id":"fcc46a2c-cfb8-4ba5-a442-bec5a9724db4","system_id":"levelo_inurba_marseille","lat":43.313571,"lon":5.384829,"is_reserved":false,"is_disabled":false,"rental_uris":{"android":"levelo://app?vid=fcc46a2c-cfb8-4ba5-a442-bec5a9724db4","ios":"levelo://app?vid=fcc46a2c-cfb8-4ba5-a442-bec5a9724db4"},"vehicle_type_id":"4","last_reported":1715667113,"current_range_meters":27200,"station_id":"ce4bgt92rcd13ifvqcf0","pricing_plan_id":"cebpf4jnsgd1na2vs0mg"},{"bike_id":"64d76ec1-c4fb-41cb-a9f1-d793e8ca9adf","system_id":"levelo_inurba_marseille","lat":43.313571,"lon":5.384829,"is_reserved":false,"is_disabled":false,"rental_uris":{"android":"levelo://app?vid=64d76ec1-c4fb-41cb-a9f1-d793e8ca9adf","ios":"levelo://app?vid=64d76ec1-c4fb-41cb-a9f1-d793e8ca9adf"},"vehicle_type_id":"4","last_reported":1715667113,"current_range_meters":26000,"station_id":"ce4bgt92rcd13ifvqcf0","pricing_plan_id":"cebpf4jnsgd1na2vs0mg"},{"bike_id":"5c9d4ed4-4a59-4f8d-9a7b-6eef2c5ff1bd","system_id":"levelo_inurba_marseille","lat":43.313571,"lon":5.384829,"is_reserved":false,"is_disabled":false,"rental_uris":{"android":"levelo://app?vid=5c9d4ed4-4a59-4f8d-9a7b-6eef2c5ff1bd","ios":"levelo://app?vid=5c9d4ed4-4a59-4f8d-9a7b-6eef2c5ff1bd"},"vehicle_type_id":"4","last_reported":1715667113,"current_range_meters":24000,"station_id":"ce4bgt92rcd13ifvqcf0","pricing_plan_id":"cebpf4jnsgd1na2vs0mg"},{"bike_id":"c79563a6-b3c2-4e78-872e-5188880fc4c6","system_id":"levelo_inurba_marseille","lat":43.313571,"lon":5.384829,"is_reserved":false,"is_disabled":false,"rental_uris":{"android":"levelo://app?vid=c79563a6-b3c2-4e78-872e-5188880fc4c6","ios":"levelo://app?vid=c79563a6-b3c2-4e78-872e-5188880fc4c6"},"vehicle_type_id":"4","last_reported":1715667113,"current_range_meters":32000,"station_id":"ce4bgt92rcd13ifvqcf0","pricing_plan_id":"cebpf4jnsgd1na2vs0mg"},{"bike_id":"2e3c665e-be7b-47cd-b6ca-e0cdbaee5220","system_id":"levelo_inurba_marseille","lat":43.299222,"lon":5.365554,"is_reserved":false,"is_disabled":false,"rental_uris":{"android":"levelo://app?vid=2e3c665e-be7b-47cd-b6ca-e0cdbaee5220","ios":"levelo://app?vid=2e3c665e-be7b-47cd-b6ca-e0cdbaee5220"},"vehicle_type_id":"4","last_reported":1715667113,"current_range_meters":13600,"station_id":"ce4bgm92rcd13ifvqbr0","pricing_plan_id":"cebpf4jnsgd1na2vs0mg"},{"bike_id":"824bcd1f-4caf-4da8-b3cb-b10409b5099a","system_id":"levelo_inurba_marseille","lat":43.305364,"lon":5.384119,"is_reserved":false,"is_disabled":false,"rental_uris":{"android":"levelo://app?vid=824bcd1f-4caf-4da8-b3cb-b10409b5099a","ios":"levelo://app?vid=824bcd1f-4caf-4da8-b3cb-b10409b5099a"},"vehicle_type_id":"4","last_reported":1715667113,"current_range_meters":18000,"station_id":"ce4bgg92rcd13ifvqb30","pricing_plan_id":"cebpf4jnsgd1na2vs0mg"},{"bike_id":"f603f4b3-1fc1-4ea2-8703-01eb588664f3","system_id":"levelo_inurba_marseille","lat":43.305364,"lon":5.384119,"is_reserved":false,"is_disabled":false,"rental_uris":{"android":"levelo://app?vid=f603f4b3-1fc1-4ea2-8703-01eb588664f3","ios":"levelo://app?vid=f603f4b3-1fc1-4ea2-8703-01eb588664f3"},"vehicle_type_id":"4","last_reported":1715667113,"current_range_meters":21200,"station_id":"ce4bgg92rcd13ifvqb30","pricing_plan_id":"cebpf4jnsgd1na2vs0mg"},{"bike_id":"e4567c54-757e-4259-be33-bde144577ef6","system_id":"levelo_inurba_marseille","lat":43.305364,"lon":5.384119,"is_reserved":false,"is_disabled":false,"rental_uris":{"android":"levelo://app?vid=e4567c54-757e-4259-be33-bde144577ef6","ios":"levelo://app?vid=e4567c54-757e-4259-be33-bde144577ef6"},"vehicle_type_id":"4","last_reported":1715667113,"current_range_meters":10400,"station_id":"ce4bgg92rcd13ifvqb30","pricing_plan_id":"cebpf4jnsgd1na2vs0mg"},{"bike_id":"fa1d6d59-51b6-4e81-abe8-5dbefd570be2","system_id":"levelo_inurba_marseille","lat":43.305364,"lon":5.384119,"is_reserved":false,"is_disabled":false,"rental_uris":{"android":"levelo://app?vid=fa1d6d59-51b6-4e81-abe8-5dbefd570be2","ios":"levelo://app?vid=fa1d6d59-51b6-4e81-abe8-5dbefd570be2"},"vehicle_type_id":"4","last_reported":1715667113,"current_range_meters":31600,"station_id":"ce4bgg92rcd13ifvqb30","pricing_plan_id":"cebpf4jnsgd1na2vs0mg"},{"bike_id":"deefd011-5748-462b-a659-c040636dd4ce","system_id":"levelo_inurba_marseille","lat":43.305364,"lon":5.384119,"is_reserved":false,"is_disabled":false,"rental_uris":{"android":"levelo://app?vid=deefd011-5748-462b-a659-c040636dd4ce","ios":"levelo://app?vid=deefd011-5748-462b-a659-c040636dd4ce"},"vehicle_type_id":"4","last_reported":1715667113,"current_range_meters":12000,"station_id":"ce4bgg92rcd13ifvqb30","pricing_plan_id":"cebpf4jnsgd1na2vs0mg"},{"bike_id":"5a7022f2-60ef-4f11-b75a-61ea47b7b75c","system_id":"levelo_inurba_marseille","lat":43.311722,"lon":5.387247,"is_reserved":false,"is_disabled":false,"rental_uris":{"android":"levelo://app?vid=5a7022f2-60ef-4f11-b75a-61ea47b7b75c","ios":"levelo://app?vid=5a7022f2-60ef-4f11-b75a-61ea47b7b75c"},"vehicle_type_id":"4","last_reported":1715667113,"current_range_meters":23600,"station_id":"ce4bgv12rcd13ifvqcp0","pricing_plan_id":"cebpf4jnsgd1na2vs0mg"},{"bike_id":"019a02d9-eb31-4c07-8780-cc2e88184216","system_id":"levelo_inurba_marseille","lat":43.311722,"lon":5.387247,"is_reserved":false,"is_disabled":false,"rental_uris":{"android":"levelo://app?vid=019a02d9-eb31-4c07-8780-cc2e88184216","ios":"levelo://app?vid=019a02d9-eb31-4c07-8780-cc2e88184216"},"vehicle_type_id":"4","last_reported":1715667113,"current_range_meters":29200,"station_id":"ce4bgv12rcd13ifvqcp0","pricing_plan_id":"cebpf4jnsgd1na2vs0mg"},{"bike_id":"d797f224-5367-4403-a36f-ff36cb58f546","system_id":"levelo_inurba_marseille","lat":43.30329,"lon":5.38249,"is_reserved":false,"is_disabled":false,"rental_uris":{"android":"levelo://app?vid=d797f224-5367-4403-a36f-ff36cb58f546","ios":"levelo://app?vid=d797f224-5367-4403-a36f-ff36cb58f546"},"vehicle_type_id":"4","last_reported":1715667113,"current_range_meters":19600,"station_id":"","pricing_plan_id":"cebpf4jnsgd1na2vs0mg"},{"bike_id":"82864689-5b1f-49a0-8606-df8e2ffd1464","system_id":"levelo_inurba_marseille","lat":43.311722,"lon":5.387247,"is_reserved":false,"is_disabled":false,"rental_uris":{"android":"levelo://app?vid=82864689-5b1f-49a0-8606-df8e2ffd1464","ios":"levelo://app?vid=82864689-5b1f-49a0-8606-df8e2ffd1464"},"vehicle_type_id":"4","last_reported":1715667113,"current_range_meters":30400,"station_id":"ce4bgv12rcd13ifvqcp0","pricing_plan_id":"cebpf4jnsgd1na2vs0mg"},{"bike_id":"1dd8c346-f448-40dc-b192-8853663b6adb","system_id":"levelo_inurba_marseille","lat":43.299097,"lon":5.374712,"is_reserved":false,"is_disabled":false,"rental_uris":{"android":"levelo://app?vid=1dd8c346-f448-40dc-b192-8853663b6adb","ios":"levelo://app?vid=1dd8c346-f448-40dc-b192-8853663b6adb"},"vehicle_type_id":"4","last_reported":1715667113,"current_range_meters":11200,"station_id":"ce4bgjh2rcd13ifvqbg0","pricing_plan_id":"cebpf4jnsgd1na2vs0mg"},{"bike_id":"b2ec63e2-5ca9-4bbf-b13a-9bdcf62d39a8","system_id":"levelo_inurba_marseille","lat":43.311722,"lon":5.387247,"is_reserved":false,"is_disabled":false,"rental_uris":{"android":"levelo://app?vid=b2ec63e2-5ca9-4bbf-b13a-9bdcf62d39a8","ios":"levelo://app?vid=b2ec63e2-5ca9-4bbf-b13a-9bdcf62d39a8"},"vehicle_type_id":"4","last_reported":1715667113,"current_range_meters":31200,"station_id":"ce4bgv12rcd13ifvqcp0","pricing_plan_id":"cebpf4jnsgd1na2vs0mg"},{"bike_id":"16c2c2ac-330c-477f-ba2d-edd1c5edf1c2","system_id":"levelo_inurba_marseille","lat":43.29795,"lon":5.3711,"is_reserved":false,"is_disabled":false,"rental_uris":{"android":"levelo://app?vid=16c2c2ac-330c-477f-ba2d-edd1c5edf1c2","ios":"levelo://app?vid=16c2c2ac-330c-477f-ba2d-edd1c5edf1c2"},"vehicle_type_id":"4","last_reported":1715667113,"current_range_meters":4400,"station_id":"ce4bgop2rcd13ifvqc1g","pricing_plan_id":"cebpf4jnsgd1na2vs0mg"},{"bike_id":"62f9225a-6bc6-4302-b1e0-d6bb3a3285bb","system_id":"levelo_inurba_marseille","lat":43.29795,"lon":5.3711,"is_reserved":false,"is_disabled":false,"rental_uris":{"android":"levelo://app?vid=62f9225a-6bc6-4302-b1e0-d6bb3a3285bb","ios":"levelo://app?vid=62f9225a-6bc6-4302-b1e0-d6bb3a3285bb"},"vehicle_type_id":"4","last_reported":1715667113,"current_range_meters":2400,"station_id":"ce4bgop2rcd13ifvqc1g","pricing_plan_id":"cebpf4jnsgd1na2vs0mg"},{"bike_id":"2e618d87-0f14-49ef-a746-7caddec4f689","system_id":"levelo_inurba_marseille","lat":43.297899,"lon":5.370961,"is_reserved":false,"is_disabled":false,"rental_uris":{"android":"levelo://app?vid=2e618d87-0f14-49ef-a746-7caddec4f689","ios":"levelo://app?vid=2e618d87-0f14-49ef-a746-7caddec4f689"},"vehicle_type_id":"4","last_reported":1715667113,"current_range_meters":31200,"station_id":"ce4bgop2rcd13ifvqc1g","pricing_plan_id":"cebpf4jnsgd1na2vs0mg"},{"bike_id":"7070e582-e1a7-4d4d-a48b-77174caa0ccb","system_id":"levelo_inurba_marseille","lat":43.32787,"lon":5.36578,"is_reserved":false,"is_disabled":false,"rental_uris":{"android":"levelo://app?vid=7070e582-e1a7-4d4d-a48b-77174caa0ccb","ios":"levelo://app?vid=7070e582-e1a7-4d4d-a48b-77174caa0ccb"},"vehicle_type_id":"4","last_reported":1715667113,"current_range_meters":0,"station_id":"","pricing_plan_id":"cebpf4jnsgd1na2vs0mg"},{"bike_id":"f52dc325-0261-49e5-924d-b2208fc39131","system_id":"levelo_inurba_marseille","lat":43.29781,"lon":5.37105,"is_reserved":false,"is_disabled":false,"rental_uris":{"android":"levelo://app?vid=f52dc325-0261-49e5-924d-b2208fc39131","ios":"levelo://app?vid=f52dc325-0261-49e5-924d-b2208fc39131"},"vehicle_type_id":"4","last_reported":1715667113,"current_range_meters":22000,"station_id":"ce4bgop2rcd13ifvqc1g","pricing_plan_id":"cebpf4jnsgd1na2vs0mg"},{"bike_id":"70c7e54a-337d-4612-8323-af3fadcd801c","system_id":"levelo_inurba_marseille","lat":43.297163,"lon":5.365866,"is_reserved":false,"is_disabled":false,"rental_uris":{"android":"levelo://app?vid=70c7e54a-337d-4612-8323-af3fadcd801c","ios":"levelo://app?vid=70c7e54a-337d-4612-8323-af3fadcd801c"},"vehicle_type_id":"4","last_reported":1715667113,"current_range_meters":8400,"station_id":"ce4bgn12rcd13ifvqbt0","pricing_plan_id":"cebpf4jnsgd1na2vs0mg"},{"bike_id":"b200b35e-be87-463d-bb8e-6a262cec7403","system_id":"levelo_inurba_marseille","lat":43.297163,"lon":5.365866,"is_reserved":false,"is_disabled":false,"rental_uris":{"android":"levelo://app?vid=b200b35e-be87-463d-bb8e-6a262cec7403","ios":"levelo://app?vid=b200b35e-be87-463d-bb8e-6a262cec7403"},"vehicle_type_id":"4","last_reported":1715667113,"current_range_meters":4800,"station_id":"ce4bgn12rcd13ifvqbt0","pricing_plan_id":"cebpf4jnsgd1na2vs0mg"},{"bike_id":"0851d142-e54d-45eb-8d2f-2ffedf11de48","system_id":"levelo_inurba_marseille","lat":43.297163,"lon":5.365866,"is_reserved":false,"is_disabled":false,"rental_uris":{"android":"levelo://app?vid=0851d142-e54d-45eb-8d2f-2ffedf11de48","ios":"levelo://app?vid=0851d142-e54d-45eb-8d2f-2ffedf11de48"},"vehicle_type_id":"4","last_reported":1715667113,"current_range_meters":20800,"station_id":"ce4bgn12rcd13ifvqbt0","pricing_plan_id":"cebpf4jnsgd1na2vs0mg"},{"bike_id":"015cbeb4-b2cd-4bce-b92b-f3c897a9db04","system_id":"levelo_inurba_marseille","lat":43.30851,"lon":5.38902,"is_reserved":false,"is_disabled":false,"rental_uris":{"android":"levelo://app?vid=015cbeb4-b2cd-4bce-b92b-f3c897a9db04","ios":"levelo://app?vid=015cbeb4-b2cd-4bce-b92b-f3c897a9db04"},"vehicle_type_id":"4","last_reported":1715667113,"current_range_meters":0,"station_id":"ce4bgup2rcd13ifvqco0","pricing_plan_id":"cebpf4jnsgd1na2vs0mg"},{"bike_id":"1e9b4875-e907-4b9c-9b9e-763d85c55b1f","system_id":"levelo_inurba_marseille","lat":43.29573,"lon":5.367355,"is_reserved":false,"is_disabled":false,"rental_uris":{"android":"levelo://app?vid=1e9b4875-e907-4b9c-9b9e-763d85c55b1f","ios":"levelo://app?vid=1e9b4875-e907-4b9c-9b9e-763d85c55b1f"},"vehicle_type_id":"4","last_reported":1715667113,"current_range_meters":29200,"station_id":"ce4bgph2rcd13ifvqc2g","pricing_plan_id":"cebpf4jnsgd1na2vs0mg"},{"bike_id":"b9d51162-0af2-4053-825b-6ff5467dadf0","system_id":"levelo_inurba_marseille","lat":43.299028,"lon":5.381509,"is_reserved":false,"is_disabled":false,"rental_uris":{"android":"levelo://app?vid=b9d51162-0af2-4053-825b-6ff5467dadf0","ios":"levelo://app?vid=b9d51162-0af2-4053-825b-6ff5467dadf0"},"vehicle_type_id":"4","last_reported":1715667113,"current_range_meters":27600,"station_id":"ce4bgj12rcd13ifvqbc0","pricing_plan_id":"cebpf4jnsgd1na2vs0mg"},{"bike_id":"a1437c59-218c-45d3-bdea-ef6d6b6a8b1d","system_id":"levelo_inurba_marseille","lat":43.299028,"lon":5.381509,"is_reserved":false,"is_disabled":false,"rental_uris":{"android":"levelo://app?vid=a1437c59-218c-45d3-bdea-ef6d6b6a8b1d","ios":"levelo://app?vid=a1437c59-218c-45d3-bdea-ef6d6b6a8b1d"},"vehicle_type_id":"4","last_reported":1715667113,"current_range_meters":25200,"station_id":"ce4bgj12rcd13ifvqbc0","pricing_plan_id":"cebpf4jnsgd1na2vs0mg"},{"bike_id":"59afd26b-77ef-425a-b937-5ef3218a0852","system_id":"levelo_inurba_marseille","lat":43.309563,"lon":5.390254,"is_reserved":false,"is_disabled":false,"rental_uris":{"android":"levelo://app?vid=59afd26b-77ef-425a-b937-5ef3218a0852","ios":"levelo://app?vid=59afd26b-77ef-425a-b937-5ef3218a0852"},"vehicle_type_id":"4","last_reported":1715667113,"current_range_meters":24400,"station_id":"ce4bgup2rcd13ifvqco0","pricing_plan_id":"cebpf4jnsgd1na2vs0mg"},{"bike_id":"ca94e730-fffd-409a-a6ad-7fddac604e42","system_id":"levelo_inurba_marseille","lat":43.309526,"lon":5.390313,"is_reserved":false,"is_disabled":false,"rental_uris":{"android":"levelo://app?vid=ca94e730-fffd-409a-a6ad-7fddac604e42","ios":"levelo://app?vid=ca94e730-fffd-409a-a6ad-7fddac604e42"},"vehicle_type_id":"4","last_reported":1715667113,"current_range_meters":23600,"station_id":"ce4bgup2rcd13ifvqco0","pricing_plan_id":"cebpf4jnsgd1na2vs0mg"},{"bike_id":"3e421cf9-f4d8-4178-9bd1-88f0d3fc71af","system_id":"levelo_inurba_marseille","lat":43.30954,"lon":5.39032,"is_reserved":false,"is_disabled":false,"rental_uris":{"android":"levelo://app?vid=3e421cf9-f4d8-4178-9bd1-88f0d3fc71af","ios":"levelo://app?vid=3e421cf9-f4d8-4178-9bd1-88f0d3fc71af"},"vehicle_type_id":"4","last_reported":1715667113,"current_range_meters":30400,"station_id":"ce4bgup2rcd13ifvqco0","pricing_plan_id":"cebpf4jnsgd1na2vs0mg"},{"bike_id":"532ad0e4-e364-4121-b294-8a9652d306ce","system_id":"levelo_inurba_marseille","lat":43.309598,"lon":5.390335,"is_reserved":false,"is_disabled":false,"rental_uris":{"android":"levelo://app?vid=532ad0e4-e364-4121-b294-8a9652d306ce","ios":"levelo://app?vid=532ad0e4-e364-4121-b294-8a9652d306ce"},"vehicle_type_id":"4","last_reported":1715667113,"current_range_meters":14000,"station_id":"ce4bgup2rcd13ifvqco0","pricing_plan_id":"cebpf4jnsgd1na2vs0mg"},{"bike_id":"5d9f2b2d-6608-4740-8ee3-3b43e3a39dd8","system_id":"levelo_inurba_marseille","lat":43.309555,"lon":5.390366,"is_reserved":false,"is_disabled":false,"rental_uris":{"android":"levelo://app?vid=5d9f2b2d-6608-4740-8ee3-3b43e3a39dd8","ios":"levelo://app?vid=5d9f2b2d-6608-4740-8ee3-3b43e3a39dd8"},"vehicle_type_id":"4","last_reported":1715667113,"current_range_meters":6800,"station_id":"ce4bgup2rcd13ifvqco0","pricing_plan_id":"cebpf4jnsgd1na2vs0mg"},{"bike_id":"cc9245cc-a199-48b7-a480-1c3a5f61febd","system_id":"levelo_inurba_marseille","lat":43.309555,"lon":5.390395,"is_reserved":false,"is_disabled":false,"rental_uris":{"android":"levelo://app?vid=cc9245cc-a199-48b7-a480-1c3a5f61febd","ios":"levelo://app?vid=cc9245cc-a199-48b7-a480-1c3a5f61febd"},"vehicle_type_id":"4","last_reported":1715667113,"current_range_meters":5200,"station_id":"ce4bgup2rcd13ifvqco0","pricing_plan_id":"cebpf4jnsgd1na2vs0mg"},{"bike_id":"10dc738b-2493-48e1-a322-6705fc3a3d9d","system_id":"levelo_inurba_marseille","lat":43.309589,"lon":5.390258,"is_reserved":false,"is_disabled":false,"rental_uris":{"android":"levelo://app?vid=10dc738b-2493-48e1-a322-6705fc3a3d9d","ios":"levelo://app?vid=10dc738b-2493-48e1-a322-6705fc3a3d9d"},"vehicle_type_id":"4","last_reported":1715667113,"current_range_meters":28800,"station_id":"ce4bgup2rcd13ifvqco0","pricing_plan_id":"cebpf4jnsgd1na2vs0mg"},{"bike_id":"7511c21e-955f-46f9-9b18-72f5c3cabe86","system_id":"levelo_inurba_marseille","lat":43.30948,"lon":5.39038,"is_reserved":false,"is_disabled":false,"rental_uris":{"android":"levelo://app?vid=7511c21e-955f-46f9-9b18-72f5c3cabe86","ios":"levelo://app?vid=7511c21e-955f-46f9-9b18-72f5c3cabe86"},"vehicle_type_id":"4","last_reported":1715667113,"current_range_meters":28800,"station_id":"ce4bgup2rcd13ifvqco0","pricing_plan_id":"cebpf4jnsgd1na2vs0mg"},{"bike_id":"a2b70698-ae32-40a8-9226-1c757cf89888","system_id":"levelo_inurba_marseille","lat":43.30951,"lon":5.3904,"is_reserved":false,"is_disabled":false,"rental_uris":{"android":"levelo://app?vid=a2b70698-ae32-40a8-9226-1c757cf89888","ios":"levelo://app?vid=a2b70698-ae32-40a8-9226-1c757cf89888"},"vehicle_type_id":"4","last_reported":1715667113,"current_range_meters":10400,"station_id":"ce4bgup2rcd13ifvqco0","pricing_plan_id":"cebpf4jnsgd1na2vs0mg"},{"bike_id":"5924e484-d969-42bf-a635-73b87ab1d4aa","system_id":"levelo_inurba_marseille","lat":43.309589,"lon":5.390258,"is_reserved":false,"is_disabled":false,"rental_uris":{"android":"levelo://app?vid=5924e484-d969-42bf-a635-73b87ab1d4aa","ios":"levelo://app?vid=5924e484-d969-42bf-a635-73b87ab1d4aa"},"vehicle_type_id":"4","last_reported":1715667113,"current_range_meters":22400,"station_id":"ce4bgup2rcd13ifvqco0","pricing_plan_id":"cebpf4jnsgd1na2vs0mg"},{"bike_id":"dc388120-6e6d-41f4-9a71-78b902214dfb","system_id":"levelo_inurba_marseille","lat":43.30952,"lon":5.39043,"is_reserved":false,"is_disabled":false,"rental_uris":{"android":"levelo://app?vid=dc388120-6e6d-41f4-9a71-78b902214dfb","ios":"levelo://app?vid=dc388120-6e6d-41f4-9a71-78b902214dfb"},"vehicle_type_id":"4","last_reported":1715667113,"current_range_meters":18800,"station_id":"ce4bgup2rcd13ifvqco0","pricing_plan_id":"cebpf4jnsgd1na2vs0mg"},{"bike_id":"90bfdb75-8045-45cf-9e02-feb43ce1f942","system_id":"levelo_inurba_marseille","lat":43.317557,"lon":5.390173,"is_reserved":false,"is_disabled":false,"rental_uris":{"android":"levelo://app?vid=90bfdb75-8045-45cf-9e02-feb43ce1f942","ios":"levelo://app?vid=90bfdb75-8045-45cf-9e02-feb43ce1f942"},"vehicle_type_id":"4","last_reported":1715667113,"current_range_meters":4400,"station_id":"ce4bhqp2rcd13ifvqhng","pricing_plan_id":"cebpf4jnsgd1na2vs0mg"},{"bike_id":"10a4881b-22af-4b39-9e98-3e5de01b279c","system_id":"levelo_inurba_marseille","lat":43.31758,"lon":5.39014,"is_reserved":false,"is_disabled":false,"rental_uris":{"android":"levelo://app?vid=10a4881b-22af-4b39-9e98-3e5de01b279c","ios":"levelo://app?vid=10a4881b-22af-4b39-9e98-3e5de01b279c"},"vehicle_type_id":"4","last_reported":1715667113,"current_range_meters":11600,"station_id":"ce4bhqp2rcd13ifvqhng","pricing_plan_id":"cebpf4jnsgd1na2vs0mg"},{"bike_id":"f94b4dbf-e8c0-4414-8e70-eb6eb1cd5381","system_id":"levelo_inurba_marseille","lat":43.317557,"lon":5.390173,"is_reserved":false,"is_disabled":false,"rental_uris":{"android":"levelo://app?vid=f94b4dbf-e8c0-4414-8e70-eb6eb1cd5381","ios":"levelo://app?vid=f94b4dbf-e8c0-4414-8e70-eb6eb1cd5381"},"vehicle_type_id":"4","last_reported":1715667113,"current_range_meters":26000,"station_id":"ce4bhqp2rcd13ifvqhng","pricing_plan_id":"cebpf4jnsgd1na2vs0mg"},{"bike_id":"78a6291a-e448-4e45-a5cf-52de124ea265","system_id":"levelo_inurba_marseille","lat":43.317557,"lon":5.390173,"is_reserved":false,"is_disabled":false,"rental_uris":{"android":"levelo://app?vid=78a6291a-e448-4e45-a5cf-52de124ea265","ios":"levelo://app?vid=78a6291a-e448-4e45-a5cf-52de124ea265"},"vehicle_type_id":"4","last_reported":1715667113,"current_range_meters":3600,"station_id":"ce4bhqp2rcd13ifvqhng","pricing_plan_id":"cebpf4jnsgd1na2vs0mg"},{"bike_id":"594eab54-9681-455e-82ac-5b4ef8043150","system_id":"levelo_inurba_marseille","lat":43.29787,"lon":5.38101,"is_reserved":false,"is_disabled":false,"rental_uris":{"android":"levelo://app?vid=594eab54-9681-455e-82ac-5b4ef8043150","ios":"levelo://app?vid=594eab54-9681-455e-82ac-5b4ef8043150"},"vehicle_type_id":"4","last_reported":1715667113,"current_range_meters":23600,"station_id":"ce4bgip2rcd13ifvqbb0","pricing_plan_id":"cebpf4jnsgd1na2vs0mg"},{"bike_id":"06f60b4b-271f-4e70-ac64-18ca7983491b","system_id":"levelo_inurba_marseille","lat":43.30434,"lon":5.3889,"is_reserved":false,"is_disabled":false,"rental_uris":{"android":"levelo://app?vid=06f60b4b-271f-4e70-ac64-18ca7983491b","ios":"levelo://app?vid=06f60b4b-271f-4e70-ac64-18ca7983491b"},"vehicle_type_id":"4","last_reported":1715667113,"current_range_meters":26800,"station_id":"ce4bgk12rcd13ifvqbi0","pricing_plan_id":"cebpf4jnsgd1na2vs0mg"},{"bike_id":"e8f52221-6c83-4279-adf6-082e3453a27d","system_id":"levelo_inurba_marseille","lat":43.304312,"lon":5.388908,"is_reserved":false,"is_disabled":false,"rental_uris":{"android":"levelo://app?vid=e8f52221-6c83-4279-adf6-082e3453a27d","ios":"levelo://app?vid=e8f52221-6c83-4279-adf6-082e3453a27d"},"vehicle_type_id":"4","last_reported":1715667113,"current_range_meters":30800,"station_id":"ce4bgk12rcd13ifvqbi0","pricing_plan_id":"cebpf4jnsgd1na2vs0mg"},{"bike_id":"7d4acaa1-d08c-4b8d-a8a0-d194cf9f357e","system_id":"levelo_inurba_marseille","lat":43.304274,"lon":5.388873,"is_reserved":false,"is_disabled":false,"rental_uris":{"android":"levelo://app?vid=7d4acaa1-d08c-4b8d-a8a0-d194cf9f357e","ios":"levelo://app?vid=7d4acaa1-d08c-4b8d-a8a0-d194cf9f357e"},"vehicle_type_id":"4","last_reported":1715667113,"current_range_meters":6400,"station_id":"ce4bgk12rcd13ifvqbi0","pricing_plan_id":"cebpf4jnsgd1na2vs0mg"},{"bike_id":"0efca9ea-044f-4a4a-877b-8cc03a6c7d2e","system_id":"levelo_inurba_marseille","lat":43.3043,"lon":5.38894,"is_reserved":false,"is_disabled":false,"rental_uris":{"android":"levelo://app?vid=0efca9ea-044f-4a4a-877b-8cc03a6c7d2e","ios":"levelo://app?vid=0efca9ea-044f-4a4a-877b-8cc03a6c7d2e"},"vehicle_type_id":"4","last_reported":1715667113,"current_range_meters":2400,"station_id":"ce4bgk12rcd13ifvqbi0","pricing_plan_id":"cebpf4jnsgd1na2vs0mg"},{"bike_id":"44306ac6-d95b-4cc4-81ac-6112a464f939","system_id":"levelo_inurba_marseille","lat":43.29785,"lon":5.3811,"is_reserved":false,"is_disabled":false,"rental_uris":{"android":"levelo://app?vid=44306ac6-d95b-4cc4-81ac-6112a464f939","ios":"levelo://app?vid=44306ac6-d95b-4cc4-81ac-6112a464f939"},"vehicle_type_id":"4","last_reported":1715667113,"current_range_meters":20800,"station_id":"ce4bgip2rcd13ifvqbb0","pricing_plan_id":"cebpf4jnsgd1na2vs0mg"},{"bike_id":"3034e6bf-16e9-4c27-a6c7-11ce1ee695a6","system_id":"levelo_inurba_marseille","lat":43.304274,"lon":5.388873,"is_reserved":false,"is_disabled":false,"rental_uris":{"android":"levelo://app?vid=3034e6bf-16e9-4c27-a6c7-11ce1ee695a6","ios":"levelo://app?vid=3034e6bf-16e9-4c27-a6c7-11ce1ee695a6"},"vehicle_type_id":"4","last_reported":1715667113,"current_range_meters":10800,"station_id":"ce4bgk12rcd13ifvqbi0","pricing_plan_id":"cebpf4jnsgd1na2vs0mg"},{"bike_id":"4830b58d-6c2c-4fd6-9081-4f51e2ad1b74","system_id":"levelo_inurba_marseille","lat":43.30432,"lon":5.38901,"is_reserved":false,"is_disabled":false,"rental_uris":{"android":"levelo://app?vid=4830b58d-6c2c-4fd6-9081-4f51e2ad1b74","ios":"levelo://app?vid=4830b58d-6c2c-4fd6-9081-4f51e2ad1b74"},"vehicle_type_id":"4","last_reported":1715667113,"current_range_meters":18800,"station_id":"ce4bgk12rcd13ifvqbi0","pricing_plan_id":"cebpf4jnsgd1na2vs0mg"},{"bike_id":"9c39f452-8a32-46b4-94a5-7d73eb9fb71d","system_id":"levelo_inurba_marseille","lat":43.29787,"lon":5.38126,"is_reserved":false,"is_disabled":false,"rental_uris":{"android":"levelo://app?vid=9c39f452-8a32-46b4-94a5-7d73eb9fb71d","ios":"levelo://app?vid=9c39f452-8a32-46b4-94a5-7d73eb9fb71d"},"vehicle_type_id":"4","last_reported":1715667113,"current_range_meters":12400,"station_id":"ce4bgip2rcd13ifvqbb0","pricing_plan_id":"cebpf4jnsgd1na2vs0mg"},{"bike_id":"40cb948c-f8ab-409b-ae3e-4037eb0f69a5","system_id":"levelo_inurba_marseille","lat":43.29787,"lon":5.38127,"is_reserved":false,"is_disabled":false,"rental_uris":{"android":"levelo://app?vid=40cb948c-f8ab-409b-ae3e-4037eb0f69a5","ios":"levelo://app?vid=40cb948c-f8ab-409b-ae3e-4037eb0f69a5"},"vehicle_type_id":"4","last_reported":1715667113,"current_range_meters":25200,"station_id":"ce4bgip2rcd13ifvqbb0","pricing_plan_id":"cebpf4jnsgd1na2vs0mg"},{"bike_id":"267a5ec6-c332-4619-abfe-797cb84b4407","system_id":"levelo_inurba_marseille","lat":43.295748,"lon":5.37522,"is_reserved":false,"is_disabled":false,"rental_uris":{"android":"levelo://app?vid=267a5ec6-c332-4619-abfe-797cb84b4407","ios":"levelo://app?vid=267a5ec6-c332-4619-abfe-797cb84b4407"},"vehicle_type_id":"4","last_reported":1715667113,"current_range_meters":21200,"station_id":"ce4bgh92rcd13ifvqb50","pricing_plan_id":"cebpf4jnsgd1na2vs0mg"},{"bike_id":"5c6c0224-d881-496c-a547-2501b4f3959a","system_id":"levelo_inurba_marseille","lat":43.29777,"lon":5.38116,"is_reserved":false,"is_disabled":false,"rental_uris":{"android":"levelo://app?vid=5c6c0224-d881-496c-a547-2501b4f3959a","ios":"levelo://app?vid=5c6c0224-d881-496c-a547-2501b4f3959a"},"vehicle_type_id":"4","last_reported":1715667113,"current_range_meters":16800,"station_id":"ce4bgip2rcd13ifvqbb0","pricing_plan_id":"cebpf4jnsgd1na2vs0mg"},{"bike_id":"4bf85527-de86-4e0a-bd98-5c9aa62a4b9a","system_id":"levelo_inurba_marseille","lat":43.29786,"lon":5.38139,"is_reserved":false,"is_disabled":false,"rental_uris":{"android":"levelo://app?vid=4bf85527-de86-4e0a-bd98-5c9aa62a4b9a","ios":"levelo://app?vid=4bf85527-de86-4e0a-bd98-5c9aa62a4b9a"},"vehicle_type_id":"4","last_reported":1715667113,"current_range_meters":16000,"station_id":"ce4bgip2rcd13ifvqbb0","pricing_plan_id":"cebpf4jnsgd1na2vs0mg"},{"bike_id":"a28f8a17-c2b7-4529-b50b-6b5f68bdacaf","system_id":"levelo_inurba_marseille","lat":43.29602,"lon":5.37716,"is_reserved":false,"is_disabled":false,"rental_uris":{"android":"levelo://app?vid=a28f8a17-c2b7-4529-b50b-6b5f68bdacaf","ios":"levelo://app?vid=a28f8a17-c2b7-4529-b50b-6b5f68bdacaf"},"vehicle_type_id":"4","last_reported":1715667113,"current_range_meters":29200,"station_id":"ce4bgi92rcd13ifvqb90","pricing_plan_id":"cebpf4jnsgd1na2vs0mg"},{"bike_id":"c5f54d27-4e35-487c-b742-d3aaa89a54bb","system_id":"levelo_inurba_marseille","lat":43.296263,"lon":5.377094,"is_reserved":false,"is_disabled":false,"rental_uris":{"android":"levelo://app?vid=c5f54d27-4e35-487c-b742-d3aaa89a54bb","ios":"levelo://app?vid=c5f54d27-4e35-487c-b742-d3aaa89a54bb"},"vehicle_type_id":"4","last_reported":1715667113,"current_range_meters":29600,"station_id":"ce4bgi92rcd13ifvqb90","pricing_plan_id":"cebpf4jnsgd1na2vs0mg"},