{"last_updated":1727763203,"ttl":60,"version":"2.2","data":{"bikes":[{"bike_id":"4c95d22f-e255-4c9f-aa3f-fb637b59bdd4","system_id":"levelo_inurba_marseille","lat":43.30465,"lon":5.37911,"is_reserved":false,"is_disabled":false,"rental_uris":{"android":"levelo://app?vid=4c95d22f-e255-4c9f-aa3f-fb637b59bdd4","ios":"levelo://app?vid=4c95d22f-e255-4c9f-aa3f-fb637b59bdd4"},"vehicle_type_id":"4","last_reported":1727763203,"current_range_meters":15200,"station_id":"ce4bgup2rcd13ifvqcn0","pricing_plan_id":"cebpf4jnsgd1na2vs0mg"},{"bike_id":"a1d0b030-8813-4a7a-8f68-1c9867238af5","system_id":"levelo_inurba_marseille","lat":43.27752,"lon":5.39297,"is_reserved":false,"is_disabled":false,"rental_uris":{"android":"levelo://app?vid=a1d0b030-8813-4a7a-8f68-1c9867238af5","ios":"levelo://app?vid=a1d0b030-8813-4a7a-8f68-1c9867238af5"},"vehicle_type_id":"4","last_reported":1727763203,"current_range_meters":11600,"station_id":"","pricing_plan_id":"cebpf4jnsgd1na2vs0mg"},{"bike_id":"4381ca69-94ed-4fb4-97b0-6e2433f67f2f","system_id":"levelo_inurba_marseille","lat":43.33719,"lon":5.39184,"is_reserved":false,"is_disabled":false,"rental_uris":{"android":"levelo://app?vid=4381ca69-94ed-4fb4-97b0-6e2433f67f2f","ios":"levelo://app?vid=4381ca69-94ed-4fb4-97b0-6e2433f67f2f"},"vehicle_type_id":"4","last_reported":1727763203,"current_range_meters":38000,"station_id":"ce4bhr92rcd13ifvqhsg","pricing_plan_id":"cebpf4jnsgd1na2vs0mg"},{"bike_id":"45278508-ffed-42b8-b0fa-7766eabb2075","system_id":"levelo_inurba_marseille","lat":43.34141,"lon":5.40904,"is_reserved":false,"is_disabled":false,"rental_uris":{"android":"levelo://app?vid=45278508-ffed-42b8-b0fa-7766eabb2075","ios":"levelo://app?vid=45278508-ffed-42b8-b0fa-7766eabb2075"},"vehicle_type_id":"4","last_reported":1727763203,"current_range_meters":35600,"station_id":"ce4bhqh2rcd13ifvqhlg","pricing_plan_id":"cebpf4jnsgd1na2vs0mg"},{"bike_id":"9eb74fb0-dfce-4f5d-a33a-440993fb0b9d","system_id":"levelo_inurba_marseille","lat":43.2963,"lon":5.406,"is_reserved":false,"is_disabled":false,"rental_uris":{"android":"levelo://app?vid=9eb74fb0-dfce-4f5d-a33a-440993fb0b9d","ios":"levelo://app?vid=9eb74fb0-dfce-4f5d-a33a-440993fb0b9d"},"vehicle_type_id":"4","last_reported":1727763203,"current_range_meters":38800,"station_id":"ce4bh0h2rcd13ifvqd60","pricing_plan_id":"cebpf4jnsgd1na2vs0mg"},{"bike_id":"450abc18-54da-4c23-8b7b-5bc869e4f3b9","system_id":"levelo_inurba_marseille","lat":43.29807,"lon":5.38123,"is_reserved":false,"is_disabled":false,"rental_uris":{"android":"levelo://app?vid=450abc18-54da-4c23-8b7b-5bc869e4f3b9","ios":"levelo://app?vid=450abc18-54da-4c23-8b7b-5bc869e4f3b9"},"vehicle_type_id":"4","last_reported":1727763203,"current_range_meters":32400,"station_id":"ce4bgip2rcd13ifvqbb0","pricing_plan_id":"cebpf4jnsgd1na2vs0mg"},{"bike_id":"2d9ead5a-feef-4735-a537-4528be338b44","system_id":"levelo_inurba_marseille","lat":43.2582,"lon":5.3944,"is_reserved":false,"is_disabled":false,"rental_uris":{"android":"levelo://app?vid=2d9ead5a-feef-4735-a537-4528be338b44","ios":"levelo://app?vid=2d9ead5a-feef-4735-a537-4528be338b44"},"vehicle_type_id":"4","last_reported":1727763203,"current_range_meters":36800,"station_id":"ce4bhip2rcd13ifvqft0","pricing_plan_id":"cebpf4jnsgd1na2vs0mg"},{"bike_id":"d9aef12e-9024-40ba-bdde-7a43e084a97d","system_id":"levelo_inurba_marseille","lat":43.30209,"lon":5.39461,"is_reserved":false,"is_disabled":false,"rental_uris":{"android":"levelo://app?vid=d9aef12e-9024-40ba-bdde-7a43e084a97d","ios":"levelo://app?vid=d9aef12e-9024-40ba-bdde-7a43e084a97d"},"vehicle_type_id":"4","last_reported":1727763203,"current_range_meters":8400,"station_id":"ce4bh0p2rcd13ifvqd70","pricing_plan_id":"cebpf4jnsgd1na2vs0mg"},{"bike_id":"99a2953b-0043-41d6-a3f6-b08ad3bbb198","system_id":"levelo_inurba_marseille","lat":43.32336,"lon":5.40621,"is_reserved":false,"is_disabled":false,"rental_uris":{"android":"levelo://app?vid=99a2953b-0043-41d6-a3f6-b08ad3bbb198","ios":"levelo://app?vid=99a2953b-0043-41d6-a3f6-b08ad3bbb198"},"vehicle_type_id":"4","last_reported":1727763203,"current_range_meters":22000,"station_id":"ce4bhq92rcd13ifvqhjg","pricing_plan_id":"cebpf4jnsgd1na2vs0mg"},{"bike_id":"0d31a271-58df-4c2e-a39b-bf4de9c34014","system_id":"levelo_inurba_marseille","lat":43.2417,"lon":5.36405,"is_reserved":false,"is_disabled":false,"rental_uris":{"android":"levelo://app?vid=0d31a271-58df-4c2e-a39b-bf4de9c34014","ios":"levelo://app?vid=0d31a271-58df-4c2e-a39b-bf4de9c34014"},"vehicle_type_id":"4","last_reported":1727763203,"current_range_meters":16400,"station_id":"cpo36qri1sfpv3e86is0","pricing_plan_id":"cebpf4jnsgd1na2vs0mg"},{"bike_id":"25f9f23c-4b19-46a6-97e3-06a702f41dc9","system_id":"levelo_inurba_marseille","lat":43.30462,"lon":5.37903,"is_reserved":false,"is_disabled":false,"rental_uris":{"android":"levelo://app?vid=25f9f23c-4b19-46a6-97e3-06a702f41dc9","ios":"levelo://app?vid=25f9f23c-4b19-46a6-97e3-06a702f41dc9"},"vehicle_type_id":"4","last_reported":1727763203,"current_range_meters":27200,"station_id":"ce4bgup2rcd13ifvqcn0","pricing_plan_id":"cebpf4jnsgd1na2vs0mg"},{"bike_id":"0073113f-9dc2-43cf-a7b1-e25d706ad879","system_id":"levelo_inurba_marseille","lat":43.28715,"lon":5.37939,"is_reserved":false,"is_disabled":false,"rental_uris":{"android":"levelo://app?vid=0073113f-9dc2-43cf-a7b1-e25d706ad879","ios":"levelo://app?vid=0073113f-9dc2-43cf-a7b1-e25d706ad879"},"vehicle_type_id":"4","last_reported":1727763203,"current_range_meters":34000,"station_id":"ce4bh9p2rcd13ifvqec0","pricing_plan_id":"cebpf4jnsgd1na2vs0mg"},{"bike_id":"0c0c737a-fe80-4a3f-b809-17ef2cb4eec7","system_id":"levelo_inurba_marseille","lat":43.31498,"lon":5.373,"is_reserved":false,"is_disabled":false,"rental_uris":{"android":"levelo://app?vid=0c0c737a-fe80-4a3f-b809-17ef2cb4eec7","ios":"levelo://app?vid=0c0c737a-fe80-4a3f-b809-17ef2cb4eec7"},"vehicle_type_id":"4","last_reported":1727763203,"current_range_meters":36400,"station_id":"ce4bgt12rcd13ifvqcd0","pricing_plan_id":"cebpf4jnsgd1na2vs0mg"},{"bike_id":"6fc0ad42-2767-4eea-bbe6-f50e92ac93e4","system_id":"levelo_inurba_marseille","lat":43.29974,"lon":5.41359,"is_reserved":false,"is_disabled":false,"rental_uris":{"android":"levelo://app?vid=6fc0ad42-2767-4eea-bbe6-f50e92ac93e4","ios":"levelo://app?vid=6fc0ad42-2767-4eea-bbe6-f50e92ac93e4"},"vehicle_type_id":"4","last_reported":1727763203,"current_range_meters":38800,"station_id":"ce4bhp12rcd13ifvqh9g","pricing_plan_id":"cebpf4jnsgd1na2vs0mg"},{"bike_id":"2da5f1b3-c2a9-4899-ba79-a0ea0fb8b9dd","system_id":"levelo_inurba_marseille","lat":43.24083,"lon":5.37755,"is_reserved":false,"is_disabled":false,"rental_uris":{"android":"levelo://app?vid=2da5f1b3-c2a9-4899-ba79-a0ea0fb8b9dd","ios":"levelo://app?vid=2da5f1b3-c2a9-4899-ba79-a0ea0fb8b9dd"},"vehicle_type_id":"4","last_reported":1727763203,"current_range_meters":5600,"station_id":"ce4bhnp2rcd13ifvqgvg","pricing_plan_id":"cebpf4jnsgd1na2vs0mg"},{"bike_id":"64ee29d5-dc36-4eca-b595-d58999ae65c1","system_id":"levelo_inurba_marseille","lat":43.3135,"lon":5.36729,"is_reserved":false,"is_disabled":false,"rental_uris":{"android":"levelo://app?vid=64ee29d5-dc36-4eca-b595-d58999ae65c1","ios":"levelo://app?vid=64ee29d5-dc36-4eca-b595-d58999ae65c1"},"vehicle_type_id":"4","last_reported":1727763203,"current_range_meters":36800,"station_id":"ce4bgr92rcd13ifvqc6g","pricing_plan_id":"cebpf4jnsgd1na2vs0mg"},{"bike_id":"692b52da-ebae-4f02-9038-5a7809b78483","system_id":"levelo_inurba_marseille","lat":43.30797,"lon":5.43521,"is_reserved":false,"is_disabled":false,"rental_uris":{"android":"levelo://app?vid=692b52da-ebae-4f02-9038-5a7809b78483","ios":"levelo://app?vid=692b52da-ebae-4f02-9038-5a7809b78483"},"vehicle_type_id":"4","last_reported":1727763203,"current_range_meters":39200,"station_id":"ce4bhph2rcd13ifvqheg","pricing_plan_id":"cebpf4jnsgd1na2vs0mg"},{"bike_id":"198d24ee-7119-4daa-bc6e-a9d5b0ad9bc5","system_id":"levelo_inurba_marseille","lat":43.28349,"lon":5.38108,"is_reserved":false,"is_disabled":false,"rental_uris":{"android":"levelo://app?vid=198d24ee-7119-4daa-bc6e-a9d5b0ad9bc5","ios":"levelo://app?vid=198d24ee-7119-4daa-bc6e-a9d5b0ad9bc5"},"vehicle_type_id":"4","last_reported":1727763203,"current_range_meters":25600,"station_id":"ce4bh412rcd13ifvqdr0","pricing_plan_id":"cebpf4jnsgd1na2vs0mg"},{"bike_id":"a618fa73-eff1-41f4-85a0-ef5be64415df","system_id":"levelo_inurba_marseille","lat":43.27397,"lon":5.4244,"is_reserved":false,"is_disabled":false,"rental_uris":{"android":"levelo://app?vid=a618fa73-eff1-41f4-85a0-ef5be64415df","ios":"levelo://app?vid=a618fa73-eff1-41f4-85a0-ef5be64415df"},"vehicle_type_id":"4","last_reported":1727763203,"current_range_meters":33600,"station_id":"","pricing_plan_id":"cebpf4jnsgd1na2vs0mg"},{"bike_id":"74dcd09d-9212-4b44-9964-c7ba6bc4fdfc","system_id":"levelo_inurba_marseille","lat":43.25943,"lon":5.40905,"is_reserved":false,"is_disabled":false,"rental_uris":{"android":"levelo://app?vid=74dcd09d-9212-4b44-9964-c7ba6bc4fdfc","ios":"levelo://app?vid=74dcd09d-9212-4b44-9964-c7ba6bc4fdfc"},"vehicle_type_id":"4","last_reported":1727763203,"current_range_meters":30800,"station_id":"ce4bhm92rcd13ifvqglg","pricing_plan_id":"cebpf4jnsgd1na2vs0mg"},{"bike_id":"068b2f9a-ba2d-481e-a87a-d34831ca26cb","system_id":"levelo_inurba_marseille","lat":43.30152,"lon":5.38077,"is_reserved":false,"is_disabled":false,"rental_uris":{"android":"levelo://app?vid=068b2f9a-ba2d-481e-a87a-d34831ca26cb","ios":"levelo://app?vid=068b2f9a-ba2d-481e-a87a-d34831ca26cb"},"vehicle_type_id":"4","last_reported":1727763203,"current_range_meters":24800,"station_id":"ce4bgjp2rcd13ifvqbh0","pricing_plan_id":"cebpf4jnsgd1na2vs0mg"},{"bike_id":"2a3b116a-1622-41fb-9e3b-9700b558192d","system_id":"levelo_inurba_marseille","lat":43.28018,"lon":5.36087,"is_reserved":false,"is_disabled":false,"rental_uris":{"android":"levelo://app?vid=2a3b116a-1622-41fb-9e3b-9700b558192d","ios":"levelo://app?vid=2a3b116a-1622-41fb-9e3b-9700b558192d"},"vehicle_type_id":"4","last_reported":1727763203,"current_range_meters":14400,"station_id":"","pricing_plan_id":"cebpf4jnsgd1na2vs0mg"},{"bike_id":"ef93b4d1-dc28-4d1d-9926-fd8b17aefb4c","system_id":"levelo_inurba_marseille","lat":43.30478,"lon":5.37915,"is_reserved":false,"is_disabled":false,"rental_uris":{"android":"levelo://app?vid=ef93b4d1-dc28-4d1d-9926-fd8b17aefb4c","ios":"levelo://app?vid=ef93b4d1-dc28-4d1d-9926-fd8b17aefb4c"},"vehicle_type_id":"4","last_reported":1727763203,"current_range_meters":38800,"station_id":"ce4bgup2rcd13ifvqcn0","pricing_plan_id":"cebpf4jnsgd1na2vs0mg"},{"bike_id":"0a4c7289-b198-4b56-8a29-4f6b7719598b","system_id":"levelo_inurba_marseille","lat":43.2749,"lon":5.42453,"is_reserved":false,"is_disabled":false,"rental_uris":{"android":"levelo://app?vid=0a4c7289-b198-4b56-8a29-4f6b7719598b","ios":"levelo://app?vid=0a4c7289-b198-4b56-8a29-4f6b7719598b"},"vehicle_type_id":"4","last_reported":1727763203,"current_range_meters":24400,"station_id":"ce4bhn92rcd13ifvqgrg","pricing_plan_id":"cebpf4jnsgd1na2vs0mg"},{"bike_id":"3f5205da-c6a9-4034-acd8-b9e43a5c01dd","system_id":"levelo_inurba_marseille","lat":43.30472,"lon":5.37904,"is_reserved":false,"is_disabled":false,"rental_uris":{"android":"levelo://app?vid=3f5205da-c6a9-4034-acd8-b9e43a5c01dd","ios":"levelo://app?vid=3f5205da-c6a9-4034-acd8-b9e43a5c01dd"},"vehicle_type_id":"4","last_reported":1727763203,"current_range_meters":28400,"station_id":"ce4bgup2rcd13ifvqcn0","pricing_plan_id":"cebpf4jnsgd1na2vs0mg"},{"bike_id":"468f88b9-a2cc-4410-b0a7-da34543489df","system_id":"levelo_inurba_marseille","lat":43.24548,"lon":5.39522,"is_reserved":false,"is_disabled":false,"rental_uris":{"android":"levelo://app?vid=468f88b9-a2cc-4410-b0a7-da34543489df","ios":"levelo://app?vid=468f88b9-a2cc-4410-b0a7-da34543489df"},"vehicle_type_id":"4","last_reported":1727763203,"current_range_meters":11600,"station_id":"ce4bhlp2rcd13ifvqgjg","pricing_plan_id":"cebpf4jnsgd1na2vs0mg"},{"bike_id":"790e1295-e1e4-4ddd-a35e-f6425b5a2deb","system_id":"levelo_inurba_marseille","lat":43.29597,"lon":5.38096,"is_reserved":false,"is_disabled":false,"rental_uris":{"android":"levelo://app?vid=790e1295-e1e4-4ddd-a35e-f6425b5a2deb","ios":"levelo://app?vid=790e1295-e1e4-4ddd-a35e-f6425b5a2deb"},"vehicle_type_id":"4","last_reported":1727763203,"current_range_meters":36400,"station_id":"ce4bgl12rcd13ifvqbo0","pricing_plan_id":"cebpf4jnsgd1na2vs0mg"},{"bike_id":"3a2a10a5-6b1f-4bb7-9e95-436e732a6364","system_id":"levelo_inurba_marseille","lat":43.31883,"lon":5.40734,"is_reserved":false,"is_disabled":false,"rental_uris":{"android":"levelo://app?vid=3a2a10a5-6b1f-4bb7-9e95-436e732a6364","ios":"levelo://app?vid=3a2a10a5-6b1f-4bb7-9e95-436e732a6364"},"vehicle_type_id":"4","last_reported":1727763203,"current_range_meters":39200,"station_id":"ce4bhq12rcd13ifvqhig","pricing_plan_id":"cebpf4jnsgd1na2vs0mg"},{"bike_id":"7078a88a-c6ad-4e42-a03d-585647e9b75d","system_id":"levelo_inurba_marseille","lat":43.27487,"lon":5.42454,"is_reserved":false,"is_disabled":false,"rental_uris":{"android":"levelo://app?vid=7078a88a-c6ad-4e42-a03d-585647e9b75d","ios":"levelo://app?vid=7078a88a-c6ad-4e42-a03d-585647e9b75d"},"vehicle_type_id":"4","last_reported":1727763203,"current_range_meters":38800,"station_id":"ce4bhn92rcd13ifvqgrg","pricing_plan_id":"cebpf4jnsgd1na2vs0mg"},{"bike_id":"62fd4a66-9a5c-48a6-bed0-5a6416ccf3a9","system_id":"levelo_inurba_marseille","lat":43.27208,"lon":5.39181,"is_reserved":false,"is_disabled":false,"rental_uris":{"android":"levelo://app?vid=62fd4a66-9a5c-48a6-bed0-5a6416ccf3a9","ios":"levelo://app?vid=62fd4a66-9a5c-48a6-bed0-5a6416ccf3a9"},"vehicle_type_id":"4","last_reported":1727763203,"current_range_meters":16400,"station_id":"ce4bhhp2rcd13ifvqfm0","pricing_plan_id":"cebpf4jnsgd1na2vs0mg"},{"bike_id":"f6005f79-8ab7-4000-9d10-147791cdc683","system_id":"levelo_inurba_marseille","lat":43.24393,"lon":5.37057,"is_reserved":false,"is_disabled":false,"rental_uris":{"android":"levelo://app?vid=f6005f79-8ab7-4000-9d10-147791cdc683","ios":"levelo://app?vid=f6005f79-8ab7-4000-9d10-147791cdc683"},"vehicle_type_id":"4","last_reported":1727763203,"current_range_meters":38800,"station_id":"ce4bhhh2rcd13ifvqfk0","pricing_plan_id":"cebpf4jnsgd1na2vs0mg"},{"bike_id":"14696769-0065-4fa2-82cf-90f328fe9eaa","system_id":"levelo_inurba_marseille","lat":43.27994,"lon":5.38681,"is_reserved":false,"is_disabled":false,"rental_uris":{"android":"levelo://app?vid=14696769-0065-4fa2-82cf-90f328fe9eaa","ios":"levelo://app?vid=14696769-0065-4fa2-82cf-90f328fe9eaa"},"vehicle_type_id":"4","last_reported":1727763203,"current_range_meters":30400,"station_id":"ce4bhi12rcd13ifvqfo0","pricing_plan_id":"cebpf4jnsgd1na2vs0mg"},{"bike_id":"cebd3eee-4d43-48d2-bc20-08ae08a02893","system_id":"levelo_inurba_marseille","lat":43.33599,"lon":5.41025,"is_reserved":false,"is_disabled":false,"rental_uris":{"android":"levelo://app?vid=cebd3eee-4d43-48d2-bc20-08ae08a02893","ios":"levelo://app?vid=cebd3eee-4d43-48d2-bc20-08ae08a02893"},"vehicle_type_id":"4","last_reported":1727763203,"current_range_meters":9200,"station_id":"ce4bhqh2rcd13ifvqhmg","pricing_plan_id":"cebpf4jnsgd1na2vs0mg"},{"bike_id":"5aac6f78-60a3-4cc8-a15e-22b2b13f2c1b","system_id":"levelo_inurba_marseille","lat":43.30465,"lon":5.37906,"is_reserved":false,"is_disabled":false,"rental_uris":{"android":"levelo://app?vid=5aac6f78-60a3-4cc8-a15e-22b2b13f2c1b","ios":"levelo://app?vid=5aac6f78-60a3-4cc8-a15e-22b2b13f2c1b"},"vehicle_type_id":"4","last_reported":1727763203,"current_range_meters":36800,"station_id":"ce4bgup2rcd13ifvqcn0","pricing_plan_id":"cebpf4jnsgd1na2vs0mg"},{"bike_id":"771e3987-61f1-4090-9be5-bfbeac734e63","system_id":"levelo_inurba_marseille","lat":43.28268,"lon":5.35062,"is_reserved":false,"is_disabled":false,"rental_uris":{"android":"levelo://app?vid=771e3987-61f1-4090-9be5-bfbeac734e63","ios":"levelo://app?vid=771e3987-61f1-4090-9be5-bfbeac734e63"},"vehicle_type_id":"4","last_reported":1727763203,"current_range_meters":11200,"station_id":"ce4bhbp2rcd13ifvqerg","pricing_plan_id":"cebpf4jnsgd1na2vs0mg"},{"bike_id":"331bf754-18c5-49b3-a53c-f5ee9aaecd7b","system_id":"levelo_inurba_marseille","lat":43.31495,"lon":5.37301,"is_reserved":false,"is_disabled":false,"rental_uris":{"android":"levelo://app?vid=331bf754-18c5-49b3-a53c-f5ee9aaecd7b","ios":"levelo://app?vid=331bf754-18c5-49b3-a53c-f5ee9aaecd7b"},"vehicle_type_id":"4","last_reported":1727763203,"current_range_meters":37600,"station_id":"ce4bgt12rcd13ifvqcd0","pricing_plan_id":"cebpf4jnsgd1na2vs0mg"},{"bike_id":"b471a397-dff9-4fb6-800b-4e4aedb8cea3","system_id":"levelo_inurba_marseille","lat":43.29538,"lon":5.37474,"is_reserved":false,"is_disabled":false,"rental_uris":{"android":"levelo://app?vid=b471a397-dff9-4fb6-800b-4e4aedb8cea3","ios":"levelo://app?vid=b471a397-dff9-4fb6-800b-4e4aedb8cea3"},"vehicle_type_id":"4","last_reported":1727763203,"current_range_meters":30000,"station_id":"","pricing_plan_id":"cebpf4jnsgd1na2vs0mg"},{"bike_id":"5c3cfa4a-be88-419e-85e1-323de203fcdb","system_id":"levelo_inurba_marseille","lat":43.26954,"lon":5.38624,"is_reserved":false,"is_disabled":false,"rental_uris":{"android":"levelo://app?vid=5c3cfa4a-be88-419e-85e1-323de203fcdb","ios":"levelo://app?vid=5c3cfa4a-be88-419e-85e1-323de203fcdb"},"vehicle_type_id":"4","last_reported":1727763203,"current_range_meters":38800,"station_id":"ce4bhh92rcd13ifvqfh0","pricing_plan_id":"cebpf4jnsgd1na2vs0mg"},{"bike_id":"ac066f27-895d-417a-b557-bc08bf23f951","system_id":"levelo_inurba_marseille","lat":43.24395,"lon":5.37059,"is_reserved":false,"is_disabled":false,"rental_uris":{"android":"levelo://app?vid=ac066f27-895d-417a-b557-bc08bf23f951","ios":"levelo://app?vid=ac066f27-895d-417a-b557-bc08bf23f951"},"vehicle_type_id":"4","last_reported":1727763203,"current_range_meters":37600,"station_id":"ce4bhhh2rcd13ifvqfk0","pricing_plan_id":"cebpf4jnsgd1na2vs0mg"},{"bike_id":"d919e8a2-60fe-4091-9b9d-01c974c86dee","system_id":"levelo_inurba_marseille","lat":43.32546,"lon":5.41429,"is_reserved":false,"is_disabled":false,"rental_uris":{"android":"levelo://app?vid=d919e8a2-60fe-4091-9b9d-01c974c86dee","ios":"levelo://app?vid=d919e8a2-60fe-4091-9b9d-01c974c86dee"},"vehicle_type_id":"4","last_reported":1727763203,"current_range_meters":26800,"station_id":"ce4bhq12rcd13ifvqhhg","pricing_plan_id":"cebpf4jnsgd1na2vs0mg"},{"bike_id":"2ac9143f-13d8-44dc-a8de-64b3e8c1fc73","system_id":"levelo_inurba_marseille","lat":43.28437,"lon":5.39186,"is_reserved":false,"is_disabled":false,"rental_uris":{"android":"levelo://app?vid=2ac9143f-13d8-44dc-a8de-64b3e8c1fc73","ios":"levelo://app?vid=2ac9143f-13d8-44dc-a8de-64b3e8c1fc73"},"vehicle_type_id":"4","last_reported":1727763203,"current_range_meters":40000,"station_id":"ce4bhoh2rcd13ifvqh5g","pricing_plan_id":"cebpf4jnsgd1na2vs0mg"},{"bike_id":"e33b5774-bead-4005-8787-a219fad5a46e","system_id":"levelo_inurba_marseille","lat":43.22932,"lon":5.3538,"is_reserved":false,"is_disabled":false,"rental_uris":{"android":"levelo://app?vid=e33b5774-bead-4005-8787-a219fad5a46e","ios":"levelo://app?vid=e33b5774-bead-4005-8787-a219fad5a46e"},"vehicle_type_id":"4","last_reported":1727763203,"current_range_meters":38000,"station_id":"cpo3532slgdg3j2ikp40","pricing_plan_id":"cebpf4jnsgd1na2vs0mg"},{"bike_id":"10ae53f8-5d5f-4ea6-8026-811ac8e269da","system_id":"levelo_inurba_marseille","lat":43.27202,"lon":5.39173,"is_reserved":false,"is_disabled":false,"rental_uris":{"android":"levelo://app?vid=10ae53f8-5d5f-4ea6-8026-811ac8e269da","ios":"levelo://app?vid=10ae53f8-5d5f-4ea6-8026-811ac8e269da"},"vehicle_type_id":"4","last_reported":1727763203,"current_range_meters":4000,"station_id":"ce4bhhp2rcd13ifvqfm0","pricing_plan_id":"cebpf4jnsgd1na2vs0mg"},{"bike_id":"3e03c7a8-6a5a-4795-8d15-d4f042ebd3d3","system_id":"levelo_inurba_marseille","lat":43.26785,"lon":5.39411,"is_reserved":false,"is_disabled":false,"rental_uris":{"android":"levelo://app?vid=3e03c7a8-6a5a-4795-8d15-d4f042ebd3d3","ios":"levelo://app?vid=3e03c7a8-6a5a-4795-8d15-d4f042ebd3d3"},"vehicle_type_id":"4","last_reported":1727763203,"current_range_meters":32800,"station_id":"ce4bhh12rcd13ifvqfg0","pricing_plan_id":"cebpf4jnsgd1na2vs0mg"},{"bike_id":"c7cdd8eb-1d36-4590-abb8-42635b034013","system_id":"levelo_inurba_marseille","lat":43.29816,"lon":5.38087,"is_reserved":false,"is_disabled":false,"rental_uris":{"android":"levelo://app?vid=c7cdd8eb-1d36-4590-abb8-42635b034013","ios":"levelo://app?vid=c7cdd8eb-1d36-4590-abb8-42635b034013"},"vehicle_type_id":"4","last_reported":1727763203,"current_range_meters":11600,"station_id":"ce4bgip2rcd13ifvqbb0","pricing_plan_id":"cebpf4jnsgd1na2vs0mg"},{"bike_id":"4ca8fc43-7223-4a26-9506-42cde5d42328","system_id":"levelo_inurba_marseille","lat":43.30461,"lon":5.37901,"is_reserved":false,"is_disabled":false,"rental_uris":{"android":"levelo://app?vid=4ca8fc43-7223-4a26-9506-42cde5d42328","ios":"levelo://app?vid=4ca8fc43-7223-4a26-9506-42cde5d42328"},"vehicle_type_id":"4","last_reported":1727763203,"current_range_meters":4000,"station_id":"ce4bgup2rcd13ifvqcn0","pricing_plan_id":"cebpf4jnsgd1na2vs0mg"},{"bike_id":"1dcdcf5f-3bcb-4a0d-b1b8-2ae7e82479ef","system_id":"levelo_inurba_marseille","lat":43.2315,"lon":5.43703,"is_reserved":false,"is_disabled":false,"rental_uris":{"android":"levelo://app?vid=1dcdcf5f-3bcb-4a0d-b1b8-2ae7e82479ef","ios":"levelo://app?vid=1dcdcf5f-3bcb-4a0d-b1b8-2ae7e82479ef"},"vehicle_type_id":"4","last_reported":1727763203,"current_range_meters":38400,"station_id":"ce4bhmp2rcd13ifvqgog","pricing_plan_id":"cebpf4jnsgd1na2vs0mg"},{"bike_id":"61655881-16c9-4131-ab8d-8f63c999894c","system_id":"levelo_inurba_marseille","lat":43.3054,"lon":5.36568,"is_reserved":false,"is_disabled":false,"rental_uris":{"android":"levelo://app?vid=61655881-16c9-4131-ab8d-8f63c999894c","ios":"levelo://app?vid=61655881-16c9-4131-ab8d-8f63c999894c"},"vehicle_type_id":"4","last_reported":1727763203,"current_range_meters":38800,"station_id":"ce4bgs12rcd13ifvqcag","pricing_plan_id":"cebpf4jnsgd1na2vs0mg"},{"bike_id":"e3760379-f6b4-414d-b804-c547ce52c7aa","system_id":"levelo_inurba_marseille","lat":43.29193,"lon":5.35808,"is_reserved":false,"is_disabled":false,"rental_uris":{"android":"levelo://app?vid=e3760379-f6b4-414d-b804-c547ce52c7aa","ios":"levelo://app?vid=e3760379-f6b4-414d-b804-c547ce52c7aa"},"vehicle_type_id":"4","last_reported":1727763203,"current_range_meters":36800,"station_id":"ce4bhb12rcd13ifvqel0","pricing_plan_id":"cebpf4jnsgd1na2vs0mg"},{"bike_id":"328a75fc-4fa3-49a2-a9a4-7442cdca4a6e","system_id":"levelo_inurba_marseille","lat":43.30474,"lon":5.37911,"is_reserved":false,"is_disabled":false,"rental_uris":{"android":"levelo://app?vid=328a75fc-4fa3-49a2-a9a4-7442cdca4a6e","ios":"levelo://app?vid=328a75fc-4fa3-49a2-a9a4-7442cdca4a6e"},"vehicle_type_id":"4","last_reported":1727763203,"current_range_meters":24400,"station_id":"ce4bgup2rcd13ifvqcn0","pricing_plan_id":"cebpf4jnsgd1na2vs0mg"},{"bike_id":"e5b12aa7-5c83-4713-90e4-11b5f10d1bf1","system_id":"levelo_inurba_marseille","lat":43.26499,"lon":5.3954,"is_reserved":false,"is_disabled":false,"rental_uris":{"android":"levelo://app?vid=e5b12aa7-5c83-4713-90e4-11b5f10d1bf1","ios":"levelo://app?vid=e5b12aa7-5c83-4713-90e4-11b5f10d1bf1"},"vehicle_type_id":"4","last_reported":1727763203,"current_range_meters":31200,"station_id":"ce4bhi12rcd13ifvqfq0","pricing_plan_id":"cebpf4jnsgd1na2vs0mg"},{"bike_id":"8f527706-99f1-4b1e-9f09-681bfb896d61","system_id":"levelo_inurba_marseille","lat":43.26953,"lon":5.38634,"is_reserved":false,"is_disabled":false,"rental_uris":{"android":"levelo://app?vid=8f527706-99f1-4b1e-9f09-681bfb896d61","ios":"levelo://app?vid=8f527706-99f1-4b1e-9f09-681bfb896d61"},"vehicle_type_id":"4","last_reported":1727763203,"current_range_meters":36000,"station_id":"ce4bhh92rcd13ifvqfh0","pricing_plan_id":"cebpf4jnsgd1na2vs0mg"},{"bike_id":"c8a6a152-8d53-438c-8e57-71a3d0743d62","system_id":"levelo_inurba_marseille","lat":43.337444,"lon":5.374475,"is_reserved":false,"is_disabled":false,"rental_uris":{"android":"levelo://app?vid=c8a6a152-8d53-438c-8e57-71a3d0743d62","ios":"levelo://app?vid=c8a6a152-8d53-438c-8e57-71a3d0743d62"},"vehicle_type_id":"4","last_reported":1727763203,"current_range_meters":24000,"station_id":"","pricing_plan_id":"cebpf4jnsgd1na2vs0mg"},{"bike_id":"ae89dd1a-cdfd-474e-8432-0b64678a5f7d","system_id":"levelo_inurba_marseille","lat":43.28934,"lon":5.36644,"is_reserved":false,"is_disabled":false,"rental_uris":{"android":"levelo://app?vid=ae89dd1a-cdfd-474e-8432-0b64678a5f7d","ios":"levelo://app?vid=ae89dd1a-cdfd-474e-8432-0b64678a5f7d"},"vehicle_type_id":"4","last_reported":1727763203,"current_range_meters":36800,"station_id":"ce4bhap2rcd13ifvqek0","pricing_plan_id":"cebpf4jnsgd1na2vs0mg"},{"bike_id":"4c7e3c0d-4983-42af-ba97-4d8f2a1c7ae5","system_id":"levelo_inurba_marseille","lat":43.31995,"lon":5.38146,"is_reserved":false,"is_disabled":false,"rental_uris":{"android":"levelo://app?vid=4c7e3c0d-4983-42af-ba97-4d8f2a1c7ae5","ios":"levelo://app?vid=4c7e3c0d-4983-42af-ba97-4d8f2a1c7ae5"},"vehicle_type_id":"4","last_reported":1727763203,"current_range_meters":38800,"station_id":"ce4bhr12rcd13ifvqhpg","pricing_plan_id":"cebpf4jnsgd1na2vs0mg"},{"bike_id":"7fb5d065-2ef8-4492-8b6f-c63a16373982","system_id":"levelo_inurba_marseille","lat":43.3054,"lon":5.36534,"is_reserved":false,"is_disabled":false,"rental_uris":{"android":"levelo://app?vid=7fb5d065-2ef8-4492-8b6f-c63a16373982","ios":"levelo://app?vid=7fb5d065-2ef8-4492-8b6f-c63a16373982"},"vehicle_type_id":"4","last_reported":1727763203,"current_range_meters":38800,"station_id":"ce4bgs12rcd13ifvqcag","pricing_plan_id":"cebpf4jnsgd1na2vs0mg"},{"bike_id":"d8285c63-02a2-491c-9bc0-32f3484f5dab","system_id":"levelo_inurba_marseille","lat":43.28727,"lon":5.36097,"is_reserved":false,"is_disabled":false,"rental_uris":{"android":"levelo://app?vid=d8285c63-02a2-491c-9bc0-32f3484f5dab","ios":"levelo://app?vid=d8285c63-02a2-491c-9bc0-32f3484f5dab"},"vehicle_type_id":"4","last_reported":1727763203,"current_range_meters":36800,"station_id":"cki0cbj6b192h4jlfktg","pricing_plan_id":"cebpf4jnsgd1na2vs0mg"},{"bike_id":"e17d2d3d-fbf7-414a-bb9b-f7b19bbb1986","system_id":"levelo_inurba_marseille","lat":43.27497,"lon":5.42448,"is_reserved":false,"is_disabled":false,"rental_uris":{"android":"levelo://app?vid=e17d2d3d-fbf7-414a-bb9b-f7b19bbb1986","ios":"levelo://app?vid=e17d2d3d-fbf7-414a-bb9b-f7b19bbb1986"},"vehicle_type_id":"4","last_reported":1727763203,"current_range_meters":33600,"station_id":"ce4bhn92rcd13ifvqgrg","pricing_plan_id":"cebpf4jnsgd1na2vs0mg"},{"bike_id":"faf061af-ff62-4d5b-8c3d-b5970ece6755","system_id":"levelo_inurba_marseille","lat":43.28347,"lon":5.38091,"is_reserved":false,"is_disabled":false,"rental_uris":{"android":"levelo://app?vid=faf061af-ff62-4d5b-8c3d-b5970ece6755","ios":"levelo://app?vid=faf061af-ff62-4d5b-8c3d-b5970ece6755"},"vehicle_type_id":"4","last_reported":1727763203,"current_range_meters":12400,"station_id":"ce4bh412rcd13ifvqdr0","pricing_plan_id":"cebpf4jnsgd1na2vs0mg"},{"bike_id":"0db8052e-9aa2-4da0-851c-7ae86d141f59","system_id":"levelo_inurba_marseille","lat":43.29554,"lon":5.42296,"is_reserved":false,"is_disabled":false,"rental_uris":{"android":"levelo://app?vid=0db8052e-9aa2-4da0-851c-7ae86d141f59","ios":"levelo://app?vid=0db8052e-9aa2-4da0-851c-7ae86d141f59"},"vehicle_type_id":"4","last_reported":1727763203,"current_range_meters":36800,"station_id":"ce4bhph2rcd13ifvqhdg","pricing_plan_id":"cebpf4jnsgd1na2vs0mg"},{"bike_id":"5fc93a89-0253-4e0f-905f-a5855f039bf0","system_id":"levelo_inurba_marseille","lat":43.27496,"lon":5.42449,"is_reserved":false,"is_disabled":false,"rental_uris":{"android":"levelo://app?vid=5fc93a89-0253-4e0f-905f-a5855f039bf0","ios":"levelo://app?vid=5fc93a89-0253-4e0f-905f-a5855f039bf0"},"vehicle_type_id":"4","last_reported":1727763203,"current_range_meters":31200,"station_id":"ce4bhn92rcd13ifvqgrg","pricing_plan_id":"cebpf4jnsgd1na2vs0mg"},{"bike_id":"aa2b390e-4c45-4f84-909c-e24af45d5d9f","system_id":"levelo_inurba_marseille","lat":43.29552,"lon":5.42277,"is_reserved":false,"is_disabled":false,"rental_uris":{"android":"levelo://app?vid=aa2b390e-4c45-4f84-909c-e24af45d5d9f","ios":"levelo://app?vid=aa2b390e-4c45-4f84-909c-e24af45d5d9f"},"vehicle_type_id":"4","last_reported":1727763203,"current_range_meters":38000,"station_id":"ce4bhph2rcd13ifvqhdg","pricing_plan_id":"cebpf4jnsgd1na2vs0mg"},{"bike_id":"e9e2bec2-b3a7-4a3c-aeb7-bb25da1b7406","system_id":"levelo_inurba_marseille","lat":43.31697,"lon":5.40467,"is_reserved":false,"is_disabled":false,"rental_uris":{"android":"levelo://app?vid=e9e2bec2-b3a7-4a3c-aeb7-bb25da1b7406","ios":"levelo://app?vid=e9e2bec2-b3a7-4a3c-aeb7-bb25da1b7406"},"vehicle_type_id":"4","last_reported":1727763203,"current_range_meters":19600,"station_id":"ce4bh012rcd13ifvqd00","pricing_plan_id":"cebpf4jnsgd1na2vs0mg"},{"bike_id":"b6951d9d-af5b-4d01-913c-0155046f300b","system_id":"levelo_inurba_marseille","lat":43.31491,"lon":5.37303,"is_reserved":false,"is_disabled":false,"rental_uris":{"android":"levelo://app?vid=b6951d9d-af5b-4d01-913c-0155046f300b","ios":"levelo://app?vid=b6951d9d-af5b-4d01-913c-0155046f300b"},"vehicle_type_id":"4","last_reported":1727763203,"current_range_meters":34800,"station_id":"ce4bgt12rcd13ifvqcd0","pricing_plan_id":"cebpf4jnsgd1na2vs0mg"},{"bike_id":"87737568-8ce8-4c84-8e96-2159eb0626f2","system_id":"levelo_inurba_marseille","lat":43.30154,"lon":5.38092,"is_reserved":false,"is_disabled":false,"rental_uris":{"android":"levelo://app?vid=87737568-8ce8-4c84-8e96-2159eb0626f2","ios":"levelo://app?vid=87737568-8ce8-4c84-8e96-2159eb0626f2"},"vehicle_type_id":"4","last_reported":1727763203,"current_range_meters":36400,"station_id":"ce4bgjp2rcd13ifvqbh0","pricing_plan_id":"cebpf4jnsgd1na2vs0mg"},{"bike_id":"598b4877-ebce-4357-a54b-3f1fe528cf43","system_id":"levelo_inurba_marseille","lat":43.28939,"lon":5.36641,"is_reserved":false,"is_disabled":false,"rental_uris":{"android":"levelo://app?vid=598b4877-ebce-4357-a54b-3f1fe528cf43","ios":"levelo://app?vid=598b4877-ebce-4357-a54b-3f1fe528cf43"},"vehicle_type_id":"4","last_reported":1727763203,"current_range_meters":31200,"station_id":"ce4bhap2rcd13ifvqek0","pricing_plan_id":"cebpf4jnsgd1na2vs0mg"},{"bike_id":"5d34d44a-5657-4046-9997-746fa7323ea5","system_id":"levelo_inurba_marseille","lat":43.32549,"lon":5.41414,"is_reserved":false,"is_disabled":false,"rental_uris":{"android":"levelo://app?vid=5d34d44a-5657-4046-9997-746fa7323ea5","ios":"levelo://app?vid=5d34d44a-5657-4046-9997-746fa7323ea5"},"vehicle_type_id":"4","last_reported":1727763203,"current_range_meters":38000,"station_id":"ce4bhq12rcd13ifvqhhg","pricing_plan_id":"cebpf4jnsgd1na2vs0mg"},{"bike_id":"ae6b0a03-3aeb-4d71-8856-284fcce041bd","system_id":"levelo_inurba_marseille","lat":43.24078,"lon":5.37752,"is_reserved":false,"is_disabled":false,"rental_uris":{"android":"levelo://app?vid=ae6b0a03-3aeb-4d71-8856-284fcce041bd","ios":"levelo://app?vid=ae6b0a03-3aeb-4d71-8856-284fcce041bd"},"vehicle_type_id":"4","last_reported":1727763203,"current_range_meters":2000,"station_id":"ce4bhnp2rcd13ifvqgvg","pricing_plan_id":"cebpf4jnsgd1na2vs0mg"},{"bike_id":"7f22fe26-60be-4e80-bc02-56eb1bf11ce6","system_id":"levelo_inurba_marseille","lat":43.25106,"lon":5.40328,"is_reserved":false,"is_disabled":false,"rental_uris":{"android":"levelo://app?vid=7f22fe26-60be-4e80-bc02-56eb1bf11ce6","ios":"levelo://app?vid=7f22fe26-60be-4e80-bc02-56eb1bf11ce6"},"vehicle_type_id":"4","last_reported":1727763203,"current_range_meters":38800,"station_id":"ce4bhlh2rcd13ifvqgig","pricing_plan_id":"cebpf4jnsgd1na2vs0mg"},{"bike_id":"a85ce21b-5ed7-46cd-a8e6-5ed48ca6beaf","system_id":"levelo_inurba_marseille","lat":43.26783,"lon":5.39422,"is_reserved":false,"is_disabled":false,"rental_uris":{"android":"levelo://app?vid=a85ce21b-5ed7-46cd-a8e6-5ed48ca6beaf","ios":"levelo://app?vid=a85ce21b-5ed7-46cd-a8e6-5ed48ca6beaf"},"vehicle_type_id":"4","last_reported":1727763203,"current_range_meters":38400,"station_id":"ce4bhh12rcd13ifvqfg0","pricing_plan_id":"cebpf4jnsgd1na2vs0mg"},{"bike_id":"8fd18f07-6b21-4aef-8db0-8fd857ec5cec","system_id":"levelo_inurba_marseille","lat":43.30532,"lon":5.36706,"is_reserved":false,"is_disabled":false,"rental_uris":{"android":"levelo://app?vid=8fd18f07-6b21-4aef-8db0-8fd857ec5cec","ios":"levelo://app?vid=8fd18f07-6b21-4aef-8db0-8fd857ec5cec"},"vehicle_type_id":"4","last_reported":1727763203,"current_range_meters":23200,"station_id":"ce4bgrp2rcd13ifvqc9g","pricing_plan_id":"cebpf4jnsgd1na2vs0mg"},{"bike_id":"63f10e86-8660-4331-a40e-1476b016bc7b","system_id":"levelo_inurba_marseille","lat":43.23424,"lon":5.35935,"is_reserved":false,"is_disabled":false,"rental_uris":{"android":"levelo://app?vid=63f10e86-8660-4331-a40e-1476b016bc7b","ios":"levelo://app?vid=63f10e86-8660-4331-a40e-1476b016bc7b"},"vehicle_type_id":"4","last_reported":1727763203,"current_range_meters":32000,"station_id":"","pricing_plan_id":"cebpf4jnsgd1na2vs0mg"},{"bike_id":"b7087556-b0d0-4f22-8a63-a19f5e53adb4","system_id":"levelo_inurba_marseille","lat":43.30153,"lon":5.38086,"is_reserved":false,"is_disabled":false,"rental_uris":{"android":"levelo://app?vid=b7087556-b0d0-4f22-8a63-a19f5e53adb4","ios":"levelo://app?vid=b7087556-b0d0-4f22-8a63-a19f5e53adb4"},"vehicle_type_id":"4","last_reported":1727763203,"current_range_meters":6400,"station_id":"ce4bgjp2rcd13ifvqbh0","pricing_plan_id":"cebpf4jnsgd1na2vs0mg"},{"bike_id":"cb95f142-2b63-4177-89ba-b388c4ddd7ce","system_id":"levelo_inurba_marseille","lat":43.28352,"lon":5.38091,"is_reserved":false,"is_disabled":false,"rental_uris":{"android":"levelo://app?vid=cb95f142-2b63-4177-89ba-b388c4ddd7ce","ios":"levelo://app?vid=cb95f142-2b63-4177-89ba-b388c4ddd7ce"},"vehicle_type_id":"4","last_reported":1727763203,"current_range_meters":34800,"station_id":"ce4bh412rcd13ifvqdr0","pricing_plan_id":"cebpf4jnsgd1na2vs0mg"},{"bike_id":"0768601a-63fc-48b6-af0b-e3c24f752213","system_id":"levelo_inurba_marseille","lat":43.33716,"lon":5.3918,"is_reserved":false,"is_disabled":false,"rental_uris":{"android":"levelo://app?vid=0768601a-63fc-48b6-af0b-e3c24f752213","ios":"levelo://app?vid=0768601a-63fc-48b6-af0b-e3c24f752213"},"vehicle_type_id":"4","last_reported":1727763203,"current_range_meters":8400,"station_id":"ce4bhr92rcd13ifvqhsg","pricing_plan_id":"cebpf4jnsgd1na2vs0mg"},{"bike_id":"338c802c-f8cb-430f-a8d1-f33bdd0ead8a","system_id":"levelo_inurba_marseille","lat":43.24392,"lon":5.3706,"is_reserved":false,"is_disabled":false,"rental_uris":{"android":"levelo://app?vid=338c802c-f8cb-430f-a8d1-f33bdd0ead8a","ios":"levelo://app?vid=338c802c-f8cb-430f-a8d1-f33bdd0ead8a"},"vehicle_type_id":"4","last_reported":1727763203,"current_range_meters":38400,"station_id":"ce4bhhh2rcd13ifvqfk0","pricing_plan_id":"cebpf4jnsgd1na2vs0mg"},{"bike_id":"6b7f45e3-44fd-417d-a7ad-2704164c769a","system_id":"levelo_inurba_marseille","lat":43.29608,"lon":5.38105,"is_reserved":false,"is_disabled":false,"rental_uris":{"android":"levelo://app?vid=6b7f45e3-44fd-417d-a7ad-2704164c769a","ios":"levelo://app?vid=6b7f45e3-44fd-417d-a7ad-2704164c769a"},"vehicle_type_id":"4","last_reported":1727763203,"current_range_meters":35600,"station_id":"ce4bgl12rcd13ifvqbo0","pricing_plan_id":"cebpf4jnsgd1na2vs0mg"},{"bike_id":"3bbff9ba-8067-48bf-bb10-bd518c35e81d","system_id":"levelo_inurba_marseille","lat":43.30149,"lon":5.38088,"is_reserved":false,"is_disabled":false,"rental_uris":{"android":"levelo://app?vid=3bbff9ba-8067-48bf-bb10-bd518c35e81d","ios":"levelo://app?vid=3bbff9ba-8067-48bf-bb10-bd518c35e81d"},"vehicle_type_id":"4","last_reported":1727763203,"current_range_meters":37600,"station_id":"ce4bgjp2rcd13ifvqbh0","pricing_plan_id":"cebpf4jnsgd1na2vs0mg"},{"bike_id":"1e37e45a-ffba-4ff3-bbd3-5a2788cc89b2","system_id":"levelo_inurba_marseille","lat":43.33604,"lon":5.41019,"is_reserved":false,"is_disabled":false,"rental_uris":{"android":"levelo://app?vid=1e37e45a-ffba-4ff3-bbd3-5a2788cc89b2","ios":"levelo://app?vid=1e37e45a-ffba-4ff3-bbd3-5a2788cc89b2"},"vehicle_type_id":"4","last_reported":1727763203,"current_range_meters":38800,"station_id":"ce4bhqh2rcd13ifvqhmg","pricing_plan_id":"cebpf4jnsgd1na2vs0mg"},{"bike_id":"53c2a21b-b93b-4547-8999-368ac0f8f262","system_id":"levelo_inurba_marseille","lat":43.29785,"lon":5.38109,"is_reserved":false,"is_disabled":false,"rental_uris":{"android":"levelo://app?vid=53c2a21b-b93b-4547-8999-368ac0f8f262","ios":"levelo://app?vid=53c2a21b-b93b-4547-8999-368ac0f8f262"},"vehicle_type_id":"4","last_reported":1727763203,"current_range_meters":36400,"station_id":"ce4bgip2rcd13ifvqbb0","pricing_plan_id":"cebpf4jnsgd1na2vs0mg"},{"bike_id":"accc04b2-1098-4599-9167-5c829ebc314a","system_id":"levelo_inurba_marseille","lat":43.30535,"lon":5.36553,"is_reserved":false,"is_disabled":false,"rental_uris":{"android":"levelo://app?vid=accc04b2-1098-4599-9167-5c829ebc314a","ios":"levelo://app?vid=accc04b2-1098-4599-9167-5c829ebc314a"},"vehicle_type_id":"4","last_reported":1727763203,"current_range_meters":20800,"station_id":"ce4bgs12rcd13ifvqcag","pricing_plan_id":"cebpf4jnsgd1na2vs0mg"},{"bike_id":"5beb4537-e54d-43d3-8e68-083247a807f2","system_id":"levelo_inurba_marseille","lat":43.26956,"lon":5.38634,"is_reserved":false,"is_disabled":false,"rental_uris":{"android":"levelo://app?vid=5beb4537-e54d-43d3-8e68-083247a807f2","ios":"levelo://app?vid=5beb4537-e54d-43d3-8e68-083247a807f2"},"vehicle_type_id":"4","last_reported":1727763203,"current_range_meters":28000,"station_id":"ce4bhh92rcd13ifvqfh0","pricing_plan_id":"cebpf4jnsgd1na2vs0mg"},{"bike_id":"50b00eb9-bb96-4a64-b8bf-edbe2107b504","system_id":"levelo_inurba_marseille","lat":43.25001,"lon":5.3893,"is_reserved":false,"is_disabled":false,"rental_uris":{"android":"levelo://app?vid=50b00eb9-bb96-4a64-b8bf-edbe2107b504","ios":"levelo://app?vid=50b00eb9-bb96-4a64-b8bf-edbe2107b504"},"vehicle_type_id":"4","last_reported":1727763203,"current_range_meters":33600,"station_id":"ce4bhgp2rcd13ifvqfd0","pricing_plan_id":"cebpf4jnsgd1na2vs0mg"},{"bike_id":"c373c09d-afa6-40ba-92cf-a085ccdaa8b8","system_id":"levelo_inurba_marseille","lat":43.2705,"lon":5.40265,"is_reserved":false,"is_disabled":false,"rental_uris":{"android":"levelo://app?vid=c373c09d-afa6-40ba-92cf-a085ccdaa8b8","ios":"levelo://app?vid=c373c09d-afa6-40ba-92cf-a085ccdaa8b8"},"vehicle_type_id":"4","last_reported":1727763203,"current_range_meters":36000,"station_id":"ce4bhk92rcd13ifvqgc0","pricing_plan_id":"cebpf4jnsgd1na2vs0mg"},{"bike_id":"1bb3362e-1348-4669-97c0-391a9a4ae007","system_id":"levelo_inurba_marseille","lat":43.29264,"lon":5.40132,"is_reserved":false,"is_disabled":false,"rental_uris":{"android":"levelo://app?vid=1bb3362e-1348-4669-97c0-391a9a4ae007","ios":"levelo://app?vid=1bb3362e-1348-4669-97c0-391a9a4ae007"},"vehicle_type_id":"4","last_reported":1727763203,"current_range_meters":38800,"station_id":"ce4bh312rcd13ifvqdk0","pricing_plan_id":"cebpf4jnsgd1na2vs0mg"},{"bike_id":"1556b97b-7055-4c02-9b93-26a9e32683bd","system_id":"levelo_inurba_marseille","lat":43.2718,"lon":5.40987,"is_reserved":false,"is_disabled":false,"rental_uris":{"android":"levelo://app?vid=1556b97b-7055-4c02-9b93-26a9e32683bd","ios":"levelo://app?vid=1556b97b-7055-4c02-9b93-26a9e32683bd"},"vehicle_type_id":"4","last_reported":1727763203,"current_range_meters":38800,"station_id":"ce4bhl12rcd13ifvqgf0","pricing_plan_id":"cebpf4jnsgd1na2vs0mg"},{"bike_id":"a34c92e4-877c-46ba-8bf4-74109a2755f3","system_id":"levelo_inurba_marseille","lat":43.27174,"lon":5.40989,"is_reserved":false,"is_disabled":false,"rental_uris":{"android":"levelo://app?vid=a34c92e4-877c-46ba-8bf4-74109a2755f3","ios":"levelo://app?vid=a34c92e4-877c-46ba-8bf4-74109a2755f3"},"vehicle_type_id":"4","last_reported":1727763203,"current_range_meters":39200,"station_id":"ce4bhl12rcd13ifvqgf0","pricing_plan_id":"cebpf4jnsgd1na2vs0mg"},{"bike_id":"b07279f0-0817-4a51-ba92-c54a03d00832","system_id":"levelo_inurba_marseille","lat":43.26501,"lon":5.39517,"is_reserved":false,"is_disabled":false,"rental_uris":{"android":"levelo://app?vid=b07279f0-0817-4a51-ba92-c54a03d00832","ios":"levelo://app?vid=b07279f0-0817-4a51-ba92-c54a03d00832"},"vehicle_type_id":"4","last_reported":1727763203,"current_range_meters":38000,"station_id":"ce4bhi12rcd13ifvqfq0","pricing_plan_id":"cebpf4jnsgd1na2vs0mg"},{"bike_id":"17cc47b6-dc31-4d70-a81e-bc0afd588111","system_id":"levelo_inurba_marseille","lat":43.28423,"lon":5.34983,"is_reserved":false,"is_disabled":false,"rental_uris":{"android":"levelo://app?vid=17cc47b6-dc31-4d70-a81e-bc0afd588111","ios":"levelo://app?vid=17cc47b6-dc31-4d70-a81e-bc0afd588111"},"vehicle_type_id":"4","last_reported":1727763203,"current_range_meters":31200,"station_id":"ce4bhbh2rcd13ifvqepg","pricing_plan_id":"cebpf4jnsgd1na2vs0mg"},{"bike_id":"34e31748-9be6-49eb-8a66-82e1d3770f7c","system_id":"levelo_inurba_marseille","lat":43.29908,"lon":5.3814,"is_reserved":false,"is_disabled":false,"rental_uris":{"android":"levelo://app?vid=34e31748-9be6-49eb-8a66-82e1d3770f7c","ios":"levelo://app?vid=34e31748-9be6-49eb-8a66-82e1d3770f7c"},"vehicle_type_id":"4","last_reported":1727763203,"current_range_meters":37600,"station_id":"ce4bgj12rcd13ifvqbc0","pricing_plan_id":"cebpf4jnsgd1na2vs0mg"},{"bike_id":"59dea60b-0868-493c-8d4e-1efd870d8b0c","system_id":"levelo_inurba_marseille","lat":43.31534,"lon":5.38025,"is_reserved":false,"is_disabled":false,"rental_uris":{"android":"levelo://app?vid=59dea60b-0868-493c-8d4e-1efd870d8b0c","ios":"levelo://app?vid=59dea60b-0868-493c-8d4e-1efd870d8b0c"},"vehicle_type_id":"4","last_reported":1727763203,"current_range_meters":6800,"station_id":"ce4bhsp2rcd13ifvqi50","pricing_plan_id":"cebpf4jnsgd1na2vs0mg"},{"bike_id":"6810347e-438f-4289-8ab8-7fb274f04548","system_id":"levelo_inurba_marseille","lat":43.30468,"lon":5.37913,"is_reserved":false,"is_disabled":false,"rental_uris":{"android":"levelo://app?vid=6810347e-438f-4289-8ab8-7fb274f04548","ios":"levelo://app?vid=6810347e-438f-4289-8ab8-7fb274f04548"},"vehicle_type_id":"4","last_reported":1727763203,"current_range_meters":36800,"station_id":"ce4bgup2rcd13ifvqcn0","pricing_plan_id":"cebpf4jnsgd1na2vs0mg"},{"bike_id":"ff8a0fc5-afb9-4720-9c25-f4924c4579cd","system_id":"levelo_inurba_marseille","lat":43.24076,"lon":5.37755,"is_reserved":false,"is_disabled":false,"rental_uris":{"android":"levelo://app?vid=ff8a0fc5-afb9-4720-9c25-f4924c4579cd","ios":"levelo://app?vid=ff8a0fc5-afb9-4720-9c25-f4924c4579cd"},"vehicle_type_id":"4","last_reported":1727763203,"current_range_meters":34000,"station_id":"ce4bhnp2rcd13ifvqgvg","pricing_plan_id":"cebpf4jnsgd1na2vs0mg"},{"bike_id":"5d220f3e-7476-41f2-ac05-780114b00dd2","system_id":"levelo_inurba_marseille","lat":43.30467,"lon":5.37911,"is_reserved":false,"is_disabled":false,"rental_uris":{"android":"levelo://app?vid=5d220f3e-7476-41f2-ac05-780114b00dd2","ios":"levelo://app?vid=5d220f3e-7476-41f2-ac05-780114b00dd2"},"vehicle_type_id":"4","last_reported":1727763203,"current_range_meters":38800,"station_id":"ce4bgup2rcd13ifvqcn0","pricing_plan_id":"cebpf4jnsgd1na2vs0mg"},{"bike_id":"2f905cd1-1817-4eef-85e9-62fcd4e250e4","system_id":"levelo_inurba_marseille","lat":43.29978,"lon":5.37172,"is_reserved":false,"is_disabled":false,"rental_uris":{"android":"levelo://app?vid=2f905cd1-1817-4eef-85e9-62fcd4e250e4","ios":"levelo://app?vid=2f905cd1-1817-4eef-85e9-62fcd4e250e4"},"vehicle_type_id":"4","last_reported":1727763203,"current_range_meters":38400,"station_id":"ce4bgr92rcd13ifvqc7g","pricing_plan_id":"cebpf4jnsgd1na2vs0mg"},{"bike_id":"695c6edc-9d98-4011-8dff-68578c4ede8a","system_id":"levelo_inurba_marseille","lat":43.23154,"lon":5.43712,"is_reserved":false,"is_disabled":false,"rental_uris":{"android":"levelo://app?vid=695c6edc-9d98-4011-8dff-68578c4ede8a","ios":"levelo://app?vid=695c6edc-9d98-4011-8dff-68578c4ede8a"},"vehicle_type_id":"4","last_reported":1727763203,"current_range_meters":20800,"station_id":"ce4bhmp2rcd13ifvqgog","pricing_plan_id":"cebpf4jnsgd1na2vs0mg"},{"bike_id":"dd126ad6-3005-4e97-ba0b-180dc274239b","system_id":"levelo_inurba_marseille","lat":43.2843,"lon":5.39187,"is_reserved":false,"is_disabled":false,"rental_uris":{"android":"levelo://app?vid=dd126ad6-3005-4e97-ba0b-180dc274239b","ios":"levelo://app?vid=dd126ad6-3005-4e97-ba0b-180dc274239b"},"vehicle_type_id":"4","last_reported":1727763203,"current_range_meters":38800,"station_id":"ce4bhoh2rcd13ifvqh5g","pricing_plan_id":"cebpf4jnsgd1na2vs0mg"},{"bike_id":"f8f518e3-bd48-40f5-801a-4ead88758ee2","system_id":"levelo_inurba_marseille","lat":43.32109,"lon":5.36777,"is_reserved":false,"is_disabled":false,"rental_uris":{"android":"levelo://app?vid=f8f518e3-bd48-40f5-801a-4ead88758ee2","ios":"levelo://app?vid=f8f518e3-bd48-40f5-801a-4ead88758ee2"},"vehicle_type_id":"4","last_reported":1727763203,"current_range_meters":16800,"station_id":"ce4bhrh2rcd13ifvqhug","pricing_plan_id":"cebpf4jnsgd1na2vs0mg"},{"bike_id":"ee6c2aa8-feaf-41aa-9106-42404ebc437e","system_id":"levelo_inurba_marseille","lat":43.28157,"lon":5.42642,"is_reserved":false,"is_disabled":false,"rental_uris":{"android":"levelo://app?vid=ee6c2aa8-feaf-41aa-9106-42404ebc437e","ios":"levelo://app?vid=ee6c2aa8-feaf-41aa-9106-42404ebc437e"},"vehicle_type_id":"4","last_reported":1727763203,"current_range_meters":14000,"station_id":"ce4bhnh2rcd13ifvqgug","pricing_plan_id":"cebpf4jnsgd1na2vs0mg"},{"bike_id":"99fc8182-8535-4a97-a465-b996b660b037","system_id":"levelo_inurba_marseille","lat":43.304631,"lon":5.366878,"is_reserved":false,"is_disabled":false,"rental_uris":{"android":"levelo://app?vid=99fc8182-8535-4a97-a465-b996b660b037","ios":"levelo://app?vid=99fc8182-8535-4a97-a465-b996b660b037"},"vehicle_type_id":"4","last_reported":1727763203,"current_range_meters":25200,"station_id":"ce4bgrp2rcd13ifvqc9g","pricing_plan_id":"cebpf4jnsgd1na2vs0mg"},{"bike_id":"29443411-a41c-4c27-b75c-ead49f602449","system_id":"levelo_inurba_marseille","lat":43.29804,"lon":5.38095,"is_reserved":false,"is_disabled":false,"rental_uris":{"android":"levelo://app?vid=29443411-a41c-4c27-b75c-ead49f602449","ios":"levelo://app?vid=29443411-a41c-4c27-b75c-ead49f602449"},"vehicle_type_id":"4","last_reported":1727763203,"current_range_meters":34000,"station_id":"ce4bgip2rcd13ifvqbb0","pricing_plan_id":"cebpf4jnsgd1na2vs0mg"},{"bike_id":"19a534b5-1001-4257-8d88-6b02e7cf1c65","system_id":"levelo_inurba_marseille","lat":43.29276,"lon":5.40121,"is_reserved":false,"is_disabled":false,"rental_uris":{"android":"levelo://app?vid=19a534b5-1001-4257-8d88-6b02e7cf1c65","ios":"levelo://app?vid=19a534b5-1001-4257-8d88-6b02e7cf1c65"},"vehicle_type_id":"4","last_reported":1727763203,"current_range_meters":28800,"station_id":"ce4bh312rcd13ifvqdk0","pricing_plan_id":"cebpf4jnsgd1na2vs0mg"},{"bike_id":"ff3321d0-5940-42b8-9fd8-ad85ac490d4e","system_id":"levelo_inurba_marseille","lat":43.26561,"lon":5.37292,"is_reserved":false,"is_disabled":false,"rental_uris":{"android":"levelo://app?vid=ff3321d0-5940-42b8-9fd8-ad85ac490d4e","ios":"levelo://app?vid=ff3321d0-5940-42b8-9fd8-ad85ac490d4e"},"vehicle_type_id":"4","last_reported":1727763203,"current_range_meters":8800,"station_id":"ce4bhg12rcd13ifvqf70","pricing_plan_id":"cebpf4jnsgd1na2vs0mg"},{"bike_id":"d9aa2af3-d6e7-45ae-9671-de00650f6fc2","system_id":"levelo_inurba_marseille","lat":43.25,"lon":5.38925,"is_reserved":false,"is_disabled":false,"rental_uris":{"android":"levelo://app?vid=d9aa2af3-d6e7-45ae-9671-de00650f6fc2","ios":"levelo://app?vid=d9aa2af3-d6e7-45ae-9671-de00650f6fc2"},"vehicle_type_id":"4","last_reported":1727763203,"current_range_meters":36800,"station_id":"ce4bhgp2rcd13ifvqfd0","pricing_plan_id":"cebpf4jnsgd1na2vs0mg"},{"bike_id":"8348ce12-ff0e-49a0-833d-0e92ac879452","system_id":"levelo_inurba_marseille","lat":43.30797,"lon":5.43518,"is_reserved":false,"is_disabled":false,"rental_uris":{"android":"levelo://app?vid=8348ce12-ff0e-49a0-833d-0e92ac879452","ios":"levelo://app?vid=8348ce12-ff0e-49a0-833d-0e92ac879452"},"vehicle_type_id":"4","last_reported":1727763203,"current_range_meters":38400,"station_id":"ce4bhph2rcd13ifvqheg","pricing_plan_id":"cebpf4jnsgd1na2vs0mg"},{"bike_id":"c0c1f9ba-0f3e-46bf-8488-851d8b86e2bd","system_id":"levelo_inurba_marseille","lat":43.3049,"lon":5.39827,"is_reserved":false,"is_disabled":false,"rental_uris":{"android":"levelo://app?vid=c0c1f9ba-0f3e-46bf-8488-851d8b86e2bd","ios":"levelo://app?vid=c0c1f9ba-0f3e-46bf-8488-851d8b86e2bd"},"vehicle_type_id":"4","last_reported":1727763203,"current_range_meters":22000,"station_id":"","pricing_plan_id":"cebpf4jnsgd1na2vs0mg"},{"bike_id":"a3bbe381-c913-46cb-9ebb-1b5af0f31f9c","system_id":"levelo_inurba_marseille","lat":43.250983,"lon":5.403453,"is_reserved":false,"is_disabled":false,"rental_uris":{"android":"levelo://app?vid=a3bbe381-c913-46cb-9ebb-1b5af0f31f9c","ios":"levelo://app?vid=a3bbe381-c913-46cb-9ebb-1b5af0f31f9c"},"vehicle_type_id":"4","last_reported":1727763203,"current_range_meters":4400,"station_id":"","pricing_plan_id":"cebpf4jnsgd1na2vs0mg"},{"bike_id":"acd2a23b-7b3a-4c57-bcfe-c6aaba52a3ea","system_id":"levelo_inurba_marseille","lat":43.32334,"lon":5.40625,"is_reserved":false,"is_disabled":false,"rental_uris":{"android":"levelo://app?vid=acd2a23b-7b3a-4c57-bcfe-c6aaba52a3ea","ios":"levelo://app?vid=acd2a23b-7b3a-4c57-bcfe-c6aaba52a3ea"},"vehicle_type_id":"4","last_reported":1727763203,"current_range_meters":25200,"station_id":"ce4bhq92rcd13ifvqhjg","pricing_plan_id":"cebpf4jnsgd1na2vs0mg"},{"bike_id":"e6089f1e-de3b-4f07-9c9a-f45c6ba10db0","system_id":"levelo_inurba_marseille","lat":43.30067,"lon":5.40339,"is_reserved":false,"is_disabled":false,"rental_uris":{"android":"levelo://app?vid=e6089f1e-de3b-4f07-9c9a-f45c6ba10db0","ios":"levelo://app?vid=e6089f1e-de3b-4f07-9c9a-f45c6ba10db0"},"vehicle_type_id":"4","last_reported":1727763203,"current_range_meters":3600,"station_id":"","pricing_plan_id":"cebpf4jnsgd1na2vs0mg"},{"bike_id":"7b3ea9e8-842f-4cde-8f8c-c3759a2226de","system_id":"levelo_inurba_marseille","lat":43.32289,"lon":5.38262,"is_reserved":false,"is_disabled":false,"rental_uris":{"android":"levelo://app?vid=7b3ea9e8-842f-4cde-8f8c-c3759a2226de","ios":"levelo://app?vid=7b3ea9e8-842f-4cde-8f8c-c3759a2226de"},"vehicle_type_id":"4","last_reported":1727763203,"current_range_meters":8800,"station_id":"ce4bhr12rcd13ifvqhqg","pricing_plan_id":"cebpf4jnsgd1na2vs0mg"},{"bike_id":"2a409710-2955-4dc8-b965-074d7d34a1f1","system_id":"levelo_inurba_marseille","lat":43.2737,"lon":5.3626,"is_reserved":false,"is_disabled":false,"rental_uris":{"android":"levelo://app?vid=2a409710-2955-4dc8-b965-074d7d34a1f1","ios":"levelo://app?vid=2a409710-2955-4dc8-b965-074d7d34a1f1"},"vehicle_type_id":"4","last_reported":1727763203,"current_range_meters":38800,"station_id":"ce4bhbh2rcd13ifvqeo0","pricing_plan_id":"cebpf4jnsgd1na2vs0mg"},{"bike_id":"eadc0900-c1d1-4852-9421-f79659b78c5f","system_id":"levelo_inurba_marseille","lat":43.29807,"lon":5.38088,"is_reserved":false,"is_disabled":false,"rental_uris":{"android":"levelo://app?vid=eadc0900-c1d1-4852-9421-f79659b78c5f","ios":"levelo://app?vid=eadc0900-c1d1-4852-9421-f79659b78c5f"},"vehicle_type_id":"4","last_reported":1727763203,"current_range_meters":38000,"station_id":"ce4bgip2rcd13ifvqbb0","pricing_plan_id":"cebpf4jnsgd1na2vs0mg"},{"bike_id":"b56341ad-990f-4558-9d85-f56e73f4bac7","system_id":"levelo_inurba_marseille","lat":43.31344,"lon":5.36732,"is_reserved":false,"is_disabled":false,"rental_uris":{"android":"levelo://app?vid=b56341ad-990f-4558-9d85-f56e73f4bac7","ios":"levelo://app?vid=b56341ad-990f-4558-9d85-f56e73f4bac7"},"vehicle_type_id":"4","last_reported":1727763203,"current_range_meters":38000,"station_id":"ce4bgr92rcd13ifvqc6g","pricing_plan_id":"cebpf4jnsgd1na2vs0mg"},{"bike_id":"4d7ae5db-9f57-431a-9c31-a8f3c924d520","system_id":"levelo_inurba_marseille","lat":43.3049,"lon":5.37904,"is_reserved":false,"is_disabled":false,"rental_uris":{"android":"levelo://app?vid=4d7ae5db-9f57-431a-9c31-a8f3c924d520","ios":"levelo://app?vid=4d7ae5db-9f57-431a-9c31-a8f3c924d520"},"vehicle_type_id":"4","last_reported":1727763203,"current_range_meters":16400,"station_id":"ce4bgup2rcd13ifvqcn0","pricing_plan_id":"cebpf4jnsgd1na2vs0mg"},{"bike_id":"edfc89e9-c756-4968-b61e-5183b6cc9c5d","system_id":"levelo_inurba_marseille","lat":43.30797,"lon":5.37655,"is_reserved":false,"is_disabled":false,"rental_uris":{"android":"levelo://app?vid=edfc89e9-c756-4968-b61e-5183b6cc9c5d","ios":"levelo://app?vid=edfc89e9-c756-4968-b61e-5183b6cc9c5d"},"vehicle_type_id":"4","last_reported":1727763203,"current_range_meters":19600,"station_id":"ce4bgv92rcd13ifvqcq0","pricing_plan_id":"cebpf4jnsgd1na2vs0mg"},{"bike_id":"d995d233-d2fe-4db9-b69b-baa1337469bf","system_id":"levelo_inurba_marseille","lat":43.26718,"lon":5.40135,"is_reserved":false,"is_disabled":false,"rental_uris":{"android":"levelo://app?vid=d995d233-d2fe-4db9-b69b-baa1337469bf","ios":"levelo://app?vid=d995d233-d2fe-4db9-b69b-baa1337469bf"},"vehicle_type_id":"4","last_reported":1727763203,"current_range_meters":14800,"station_id":"ce4bhm92rcd13ifvqglg","pricing_plan_id":"cebpf4jnsgd1na2vs0mg"},{"bike_id":"1ba7b6fd-e265-4d06-8e20-b26ba84ee730","system_id":"levelo_inurba_marseille","lat":43.270725,"lon":5.422812,"is_reserved":false,"is_disabled":false,"rental_uris":{"android":"levelo://app?vid=1ba7b6fd-e265-4d06-8e20-b26ba84ee730","ios":"levelo://app?vid=1ba7b6fd-e265-4d06-8e20-b26ba84ee730"},"vehicle_type_id":"4","last_reported":1727763203,"current_range_meters":22000,"station_id":"ce4bhmp2rcd13ifvqgog","pricing_plan_id":"cebpf4jnsgd1na2vs0mg"},{"bike_id":"dd7787d1-957c-4990-9c8a-fe91ad017aef","system_id":"levelo_inurba_marseille","lat":43.26953,"lon":5.38637,"is_reserved":false,"is_disabled":false,"rental_uris":{"android":"levelo://app?vid=dd7787d1-957c-4990-9c8a-fe91ad017aef","ios":"levelo://app?vid=dd7787d1-957c-4990-9c8a-fe91ad017aef"},"vehicle_type_id":"4","last_reported":1727763203,"current_range_meters":36800,"station_id":"ce4bhh92rcd13ifvqfh0","pricing_plan_id":"cebpf4jnsgd1na2vs0mg"},{"bike_id":"cecfd5d5-1681-43a8-ad9b-52dfd6a88e80","system_id":"levelo_inurba_marseille","lat":43.28345,"lon":5.38095,"is_reserved":false,"is_disabled":false,"rental_uris":{"android":"levelo://app?vid=cecfd5d5-1681-43a8-ad9b-52dfd6a88e80","ios":"levelo://app?vid=cecfd5d5-1681-43a8-ad9b-52dfd6a88e80"},"vehicle_type_id":"4","last_reported":1727763203,"current_range_meters":29600,"station_id":"ce4bh412rcd13ifvqdr0","pricing_plan_id":"cebpf4jnsgd1na2vs0mg"},{"bike_id":"9dec24fd-059d-4bd1-b8c9-c24cd92de6e7","system_id":"levelo_inurba_marseille","lat":43.32346,"lon":5.38904,"is_reserved":false,"is_disabled":false,"rental_uris":{"android":"levelo://app?vid=9dec24fd-059d-4bd1-b8c9-c24cd92de6e7","ios":"levelo://app?vid=9dec24fd-059d-4bd1-b8c9-c24cd92de6e7"},"vehicle_type_id":"4","last_reported":1727763203,"current_range_meters":38800,"station_id":"ce4bhqp2rcd13ifvqhog","pricing_plan_id":"cebpf4jnsgd1na2vs0mg"},{"bike_id":"3bdb2fa1-cb18-4976-803f-589cf5230c85","system_id":"levelo_inurba_marseille","lat":43.290383,"lon":5.399592,"is_reserved":false,"is_disabled":false,"rental_uris":{"android":"levelo://app?vid=3bdb2fa1-cb18-4976-803f-589cf5230c85","ios":"levelo://app?vid=3bdb2fa1-cb18-4976-803f-589cf5230c85"},"vehicle_type_id":"4","last_reported":1727763203,"current_range_meters":30800,"station_id":"ce4bhl12rcd13ifvqgf0","pricing_plan_id":"cebpf4jnsgd1na2vs0mg"},{"bike_id":"703878ec-8b56-4d9c-b07d-edc10cbd7b00","system_id":"levelo_inurba_marseille","lat":43.30228,"lon":5.39533,"is_reserved":false,"is_disabled":false,"rental_uris":{"android":"levelo://app?vid=703878ec-8b56-4d9c-b07d-edc10cbd7b00","ios":"levelo://app?vid=703878ec-8b56-4d9c-b07d-edc10cbd7b00"},"vehicle_type_id":"4","last_reported":1727763203,"current_range_meters":32400,"station_id":"ce4bh0p2rcd13ifvqd70","pricing_plan_id":"cebpf4jnsgd1na2vs0mg"},{"bike_id":"fcad1394-88f4-4f6d-962a-33c383ee7e38","system_id":"levelo_inurba_marseille","lat":43.3046,"lon":5.37913,"is_reserved":false,"is_disabled":false,"rental_uris":{"android":"levelo://app?vid=fcad1394-88f4-4f6d-962a-33c383ee7e38","ios":"levelo://app?vid=fcad1394-88f4-4f6d-962a-33c383ee7e38"},"vehicle_type_id":"4","last_reported":1727763203,"current_range_meters":31200,"station_id":"ce4bgup2rcd13ifvqcn0","pricing_plan_id":"cebpf4jnsgd1na2vs0mg"},{"bike_id":"2513bab3-40db-4d07-ad1f-322a33cf8f94","system_id":"levelo_inurba_marseille","lat":43.27948,"lon":5.410526,"is_reserved":false,"is_disabled":false,"rental_uris":{"android":"levelo://app?vid=2513bab3-40db-4d07-ad1f-322a33cf8f94","ios":"levelo://app?vid=2513bab3-40db-4d07-ad1f-322a33cf8f94"},"vehicle_type_id":"4","last_reported":1727763203,"current_range_meters":38400,"station_id":"ce4bhnp2rcd13ifvqh0g","pricing_plan_id":"cebpf4jnsgd1na2vs0mg"},{"bike_id":"b652f429-09b8-4697-9c1b-3b9adc3c55d8","system_id":"levelo_inurba_marseille","lat":43.26871,"lon":5.39135,"is_reserved":false,"is_disabled":false,"rental_uris":{"android":"levelo://app?vid=b652f429-09b8-4697-9c1b-3b9adc3c55d8","ios":"levelo://app?vid=b652f429-09b8-4697-9c1b-3b9adc3c55d8"},"vehicle_type_id":"4","last_reported":1727763203,"current_range_meters":8800,"station_id":"","pricing_plan_id":"cebpf4jnsgd1na2vs0mg"},{"bike_id":"d5667021-68eb-4318-bd45-30d521bd4bdf","system_id":"levelo_inurba_marseille","lat":43.29308,"lon":5.37168,"is_reserved":false,"is_disabled":false,"rental_uris":{"android":"levelo://app?vid=d5667021-68eb-4318-bd45-30d521bd4bdf","ios":"levelo://app?vid=d5667021-68eb-4318-bd45-30d521bd4bdf"},"vehicle_type_id":"4","last_reported":1727763203,"current_range_meters":39200,"station_id":"ce4bgh92rcd13ifvqb40","pricing_plan_id":"cebpf4jnsgd1na2vs0mg"},{"bike_id":"1241a00d-1a53-489a-919a-2a6db5c7bd55","system_id":"levelo_inurba_marseille","lat":43.27214,"lon":5.39177,"is_reserved":false,"is_disabled":false,"rental_uris":{"android":"levelo://app?vid=1241a00d-1a53-489a-919a-2a6db5c7bd55","ios":"levelo://app?vid=1241a00d-1a53-489a-919a-2a6db5c7bd55"},"vehicle_type_id":"4","last_reported":1727763203,"current_range_meters":28800,"station_id":"ce4bhhp2rcd13ifvqfm0","pricing_plan_id":"cebpf4jnsgd1na2vs0mg"},{"bike_id":"47f1c0ba-602b-4386-9133-d00a7611575a","system_id":"levelo_inurba_marseille","lat":43.27496,"lon":5.42451,"is_reserved":false,"is_disabled":false,"rental_uris":{"android":"levelo://app?vid=47f1c0ba-602b-4386-9133-d00a7611575a","ios":"levelo://app?vid=47f1c0ba-602b-4386-9133-d00a7611575a"},"vehicle_type_id":"4","last_reported":1727763203,"current_range_meters":15200,"station_id":"ce4bhn92rcd13ifvqgrg","pricing_plan_id":"cebpf4jnsgd1na2vs0mg"},{"bike_id":"8aa0fe45-6d35-486a-8f73-25878beecdd7","system_id":"levelo_inurba_marseille","lat":43.31124,"lon":5.37782,"is_reserved":false,"is_disabled":false,"rental_uris":{"android":"levelo://app?vid=8aa0fe45-6d35-486a-8f73-25878beecdd7","ios":"levelo://app?vid=8aa0fe45-6d35-486a-8f73-25878beecdd7"},"vehicle_type_id":"4","last_reported":1727763203,"current_range_meters":34000,"station_id":"ce4bgt92rcd13ifvqcg0","pricing_plan_id":"cebpf4jnsgd1na2vs0mg"},{"bike_id":"42a1a0df-b0d0-4ccf-abd0-ef18fd093cf4","system_id":"levelo_inurba_marseille","lat":43.2512,"lon":5.40322,"is_reserved":false,"is_disabled":false,"rental_uris":{"android":"levelo://app?vid=42a1a0df-b0d0-4ccf-abd0-ef18fd093cf4","ios":"levelo://app?vid=42a1a0df-b0d0-4ccf-abd0-ef18fd093cf4"},"vehicle_type_id":"4","last_reported":1727763203,"current_range_meters":38800,"station_id":"ce4bhlh2rcd13ifvqgig","pricing_plan_id":"cebpf4jnsgd1na2vs0mg"},{"bike_id":"786fac57-4b3b-44df-9f37-db347f577860","system_id":"levelo_inurba_marseille","lat":43.26782,"lon":5.39422,"is_reserved":false,"is_disabled":false,"rental_uris":{"android":"levelo://app?vid=786fac57-4b3b-44df-9f37-db347f577860","ios":"levelo://app?vid=786fac57-4b3b-44df-9f37-db347f577860"},"vehicle_type_id":"4","last_reported":1727763203,"current_range_meters":38400,"station_id":"ce4bhh12rcd13ifvqfg0","pricing_plan_id":"cebpf4jnsgd1na2vs0mg"},{"bike_id":"47c09ebd-4c98-4285-87cc-fa1efb560cea","system_id":"levelo_inurba_marseille","lat":43.2872,"lon":5.37941,"is_reserved":false,"is_disabled":false,"rental_uris":{"android":"levelo://app?vid=47c09ebd-4c98-4285-87cc-fa1efb560cea","ios":"levelo://app?vid=47c09ebd-4c98-4285-87cc-fa1efb560cea"},"vehicle_type_id":"4","last_reported":1727763203,"current_range_meters":30800,"station_id":"ce4bh9p2rcd13ifvqec0","pricing_plan_id":"cebpf4jnsgd1na2vs0mg"},{"bike_id":"0d20297a-9907-45ed-b183-139f5aef58db","system_id":"levelo_inurba_marseille","lat":43.27493,"lon":5.42451,"is_reserved":false,"is_disabled":false,"rental_uris":{"android":"levelo://app?vid=0d20297a-9907-45ed-b183-139f5aef58db","ios":"levelo://app?vid=0d20297a-9907-45ed-b183-139f5aef58db"},"vehicle_type_id":"4","last_reported":1727763203,"current_range_meters":7200,"station_id":"ce4bhn92rcd13ifvqgrg","pricing_plan_id":"cebpf4jnsgd1na2vs0mg"},{"bike_id":"0eef8cc2-580a-4e1b-94a0-5ec1ea955d7a","system_id":"levelo_inurba_marseille","lat":43.284821,"lon":5.385708,"is_reserved":false,"is_disabled":false,"rental_uris":{"android":"levelo://app?vid=0eef8cc2-580a-4e1b-94a0-5ec1ea955d7a","ios":"levelo://app?vid=0eef8cc2-580a-4e1b-94a0-5ec1ea955d7a"},"vehicle_type_id":"4","last_reported":1727763203,"current_range_meters":28800,"station_id":"ce4bh8p2rcd13ifvqeb0","pricing_plan_id":"cebpf4jnsgd1na2vs0mg"},{"bike_id":"62e8561f-285d-421f-9266-5439a0cf8b3c","system_id":"levelo_inurba_marseille","lat":43.29769,"lon":5.37099,"is_reserved":false,"is_disabled":false,"rental_uris":{"android":"levelo://app?vid=62e8561f-285d-421f-9266-5439a0cf8b3c","ios":"levelo://app?vid=62e8561f-285d-421f-9266-5439a0cf8b3c"},"vehicle_type_id":"4","last_reported":1727763203,"current_range_meters":29600,"station_id":"ce4bgop2rcd13ifvqc1g","pricing_plan_id":"cebpf4jnsgd1na2vs0mg"},{"bike_id":"c68752ac-cd24-4d62-b01d-3b238d6d51d4","system_id":"levelo_inurba_marseille","lat":43.34144,"lon":5.40893,"is_reserved":false,"is_disabled":false,"rental_uris":{"android":"levelo://app?vid=c68752ac-cd24-4d62-b01d-3b238d6d51d4","ios":"levelo://app?vid=c68752ac-cd24-4d62-b01d-3b238d6d51d4"},"vehicle_type_id":"4","last_reported":1727763203,"current_range_meters":36800,"station_id":"ce4bhqh2rcd13ifvqhlg","pricing_plan_id":"cebpf4jnsgd1na2vs0mg"},{"bike_id":"40f4943f-a7de-4a50-8efd-45dac779f5c7","system_id":"levelo_inurba_marseille","lat":43.29598,"lon":5.38111,"is_reserved":false,"is_disabled":false,"rental_uris":{"android":"levelo://app?vid=40f4943f-a7de-4a50-8efd-45dac779f5c7","ios":"levelo://app?vid=40f4943f-a7de-4a50-8efd-45dac779f5c7"},"vehicle_type_id":"4","last_reported":1727763203,"current_range_meters":25600,"station_id":"ce4bgl12rcd13ifvqbo0","pricing_plan_id":"cebpf4jnsgd1na2vs0mg"},{"bike_id":"b80079d1-ea9f-4423-b88c-51b72c5b7b4b","system_id":"levelo_inurba_marseille","lat":43.27886,"lon":5.38008,"is_reserved":false,"is_disabled":false,"rental_uris":{"android":"levelo://app?vid=b80079d1-ea9f-4423-b88c-51b72c5b7b4b","ios":"levelo://app?vid=b80079d1-ea9f-4423-b88c-51b72c5b7b4b"},"vehicle_type_id":"4","last_reported":1727763203,"current_range_meters":13600,"station_id":"ce4bhf92rcd13ifvqf50","pricing_plan_id":"cebpf4jnsgd1na2vs0mg"},{"bike_id":"9535a422-21bd-4d3b-82ec-0ddd79cceaee","system_id":"levelo_inurba_marseille","lat":43.2448,"lon":5.37253,"is_reserved":false,"is_disabled":false,"rental_uris":{"android":"levelo://app?vid=9535a422-21bd-4d3b-82ec-0ddd79cceaee","ios":"levelo://app?vid=9535a422-21bd-4d3b-82ec-0ddd79cceaee"},"vehicle_type_id":"4","last_reported":1727763203,"current_range_meters":10000,"station_id":"","pricing_plan_id":"cebpf4jnsgd1na2vs0mg"},{"bike_id":"3d0fedc9-7688-408e-b497-e4629a55bdac","system_id":"levelo_inurba_marseille","lat":43.3091,"lon":5.36997,"is_reserved":false,"is_disabled":false,"rental_uris":{"android":"levelo://app?vid=3d0fedc9-7688-408e-b497-e4629a55bdac","ios":"levelo://app?vid=3d0fedc9-7688-408e-b497-e4629a55bdac"},"vehicle_type_id":"4","last_reported":1727763203,"current_range_meters":17200,"station_id":"","pricing_plan_id":"cebpf4jnsgd1na2vs0mg"},{"bike_id":"cf2728b2-144a-40c9-8d35-5d2bffaca613","system_id":"levelo_inurba_marseille","lat":43.22937,"lon":5.35375,"is_reserved":false,"is_disabled":false,"rental_uris":{"android":"levelo://app?vid=cf2728b2-144a-40c9-8d35-5d2bffaca613","ios":"levelo://app?vid=cf2728b2-144a-40c9-8d35-5d2bffaca613"},"vehicle_type_id":"4","last_reported":1727763203,"current_range_meters":36000,"station_id":"cpo3532slgdg3j2ikp40","pricing_plan_id":"cebpf4jnsgd1na2vs0mg"},{"bike_id":"9b157023-570a-400f-bf84-92b851e2bda2","system_id":"levelo_inurba_marseille","lat":43.24073,"lon":5.37763,"is_reserved":false,"is_disabled":false,"rental_uris":{"android":"levelo://app?vid=9b157023-570a-400f-bf84-92b851e2bda2","ios":"levelo://app?vid=9b157023-570a-400f-bf84-92b851e2bda2"},"vehicle_type_id":"4","last_reported":1727763203,"current_range_meters":20800,"station_id":"ce4bhnp2rcd13ifvqgvg","pricing_plan_id":"cebpf4jnsgd1na2vs0mg"},{"bike_id":"a3b432fa-d88a-4c18-a7be-982cac1ea5c1","system_id":"levelo_inurba_marseille","lat":43.30533,"lon":5.36539,"is_reserved":false,"is_disabled":false,"rental_uris":{"android":"levelo://app?vid=a3b432fa-d88a-4c18-a7be-982cac1ea5c1","ios":"levelo://app?vid=a3b432fa-d88a-4c18-a7be-982cac1ea5c1"},"vehicle_type_id":"4","last_reported":1727763203,"current_range_meters":35600,"station_id":"ce4bgs12rcd13ifvqcag","pricing_plan_id":"cebpf4jnsgd1na2vs0mg"},{"bike_id":"8a9f2670-bcc9-4a2d-a4b7-dc041b571be7","system_id":"levelo_inurba_marseille","lat":43.26571,"lon":5.3901,"is_reserved":false,"is_disabled":false,"rental_uris":{"android":"levelo://app?vid=8a9f2670-bcc9-4a2d-a4b7-dc041b571be7","ios":"levelo://app?vid=8a9f2670-bcc9-4a2d-a4b7-dc041b571be7"},"vehicle_type_id":"4","last_reported":1727763203,"current_range_meters":38400,"station_id":"ce4bhe12rcd13ifvqf30","pricing_plan_id":"cebpf4jnsgd1na2vs0mg"},{"bike_id":"05a4c4da-e387-4ff1-97e4-3c0f0f19599d","system_id":"levelo_inurba_marseille","lat":43.28492,"lon":5.38407,"is_reserved":false,"is_disabled":false,"rental_uris":{"android":"levelo://app?vid=05a4c4da-e387-4ff1-97e4-3c0f0f19599d","ios":"levelo://app?vid=05a4c4da-e387-4ff1-97e4-3c0f0f19599d"},"vehicle_type_id":"4","last_reported":1727763203,"current_range_meters":35200,"station_id":"ce4bh512rcd13ifvqe3g","pricing_plan_id":"cebpf4jnsgd1na2vs0mg"},{"bike_id":"23f1410c-5dcb-4009-824c-c46594442f67","system_id":"levelo_inurba_marseille","lat":43.30148,"lon":5.38079,"is_reserved":false,"is_disabled":false,"rental_uris":{"android":"levelo://app?vid=23f1410c-5dcb-4009-824c-c46594442f67","ios":"levelo://app?vid=23f1410c-5dcb-4009-824c-c46594442f67"},"vehicle_type_id":"4","last_reported":1727763203,"current_range_meters":25600,"station_id":"ce4bgjp2rcd13ifvqbh0","pricing_plan_id":"cebpf4jnsgd1na2vs0mg"},{"bike_id":"ca982a33-bcc1-41d9-8388-8671af91acb9","system_id":"levelo_inurba_marseille","lat":43.2407,"lon":5.37757,"is_reserved":false,"is_disabled":false,"rental_uris":{"android":"levelo://app?vid=ca982a33-bcc1-41d9-8388-8671af91acb9","ios":"levelo://app?vid=ca982a33-bcc1-41d9-8388-8671af91acb9"},"vehicle_type_id":"4","last_reported":1727763203,"current_range_meters":38800,"station_id":"ce4bhnp2rcd13ifvqgvg","pricing_plan_id":"cebpf4jnsgd1na2vs0mg"},{"bike_id":"67e472c4-4489-406d-b2a9-4b9464efa04c","system_id":"levelo_inurba_marseille","lat":43.30193,"lon":5.36603,"is_reserved":false,"is_disabled":false,"rental_uris":{"android":"levelo://app?vid=67e472c4-4489-406d-b2a9-4b9464efa04c","ios":"levelo://app?vid=67e472c4-4489-406d-b2a9-4b9464efa04c"},"vehicle_type_id":"4","last_reported":1727763203,"current_range_meters":38400,"station_id":"ce4bgrh2rcd13ifvqc8g","pricing_plan_id":"cebpf4jnsgd1na2vs0mg"},{"bike_id":"9c7a3227-a79e-438d-a8ea-ce0d72b3adda","system_id":"levelo_inurba_marseille","lat":43.27946,"lon":5.41055,"is_reserved":false,"is_disabled":false,"rental_uris":{"android":"levelo://app?vid=9c7a3227-a79e-438d-a8ea-ce0d72b3adda","ios":"levelo://app?vid=9c7a3227-a79e-438d-a8ea-ce0d72b3adda"},"vehicle_type_id":"4","last_reported":1727763203,"current_range_meters":12000,"station_id":"ce4bhnp2rcd13ifvqh0g","pricing_plan_id":"cebpf4jnsgd1na2vs0mg"},{"bike_id":"115ec6a2-34af-41b3-9807-e0f0fe768958","system_id":"levelo_inurba_marseille","lat":43.2953,"lon":5.37496,"is_reserved":false,"is_disabled":false,"rental_uris":{"android":"levelo://app?vid=115ec6a2-34af-41b3-9807-e0f0fe768958","ios":"levelo://app?vid=115ec6a2-34af-41b3-9807-e0f0fe768958"},"vehicle_type_id":"4","last_reported":1727763203,"current_range_meters":38800,"station_id":"ce4bgkp2rcd13ifvqbmg","pricing_plan_id":"cebpf4jnsgd1na2vs0mg"},{"bike_id":"9ffad66a-1303-4159-93ec-b077cb1d0c58","system_id":"levelo_inurba_marseille","lat":43.30147,"lon":5.3807,"is_reserved":false,"is_disabled":false,"rental_uris":{"android":"levelo://app?vid=9ffad66a-1303-4159-93ec-b077cb1d0c58","ios":"levelo://app?vid=9ffad66a-1303-4159-93ec-b077cb1d0c58"},"vehicle_type_id":"4","last_reported":1727763203,"current_range_meters":27200,"station_id":"ce4bgjp2rcd13ifvqbh0","pricing_plan_id":"cebpf4jnsgd1na2vs0mg"},{"bike_id":"c2df8cca-733f-41c2-9a75-8eb5b646f167","system_id":"levelo_inurba_marseille","lat":43.2558,"lon":5.3823,"is_reserved":false,"is_disabled":false,"rental_uris":{"android":"levelo://app?vid=c2df8cca-733f-41c2-9a75-8eb5b646f167","ios":"levelo://app?vid=c2df8cca-733f-41c2-9a75-8eb5b646f167"},"vehicle_type_id":"4","last_reported":1727763203,"current_range_meters":38800,"station_id":"ce4bhih2rcd13ifvqfs0","pricing_plan_id":"cebpf4jnsgd1na2vs0mg"},{"bike_id":"7a330101-8fd9-41aa-ab00-1b36580c6433","system_id":"levelo_inurba_marseille","lat":43.31185,"lon":5.40121,"is_reserved":false,"is_disabled":false,"rental_uris":{"android":"levelo://app?vid=7a330101-8fd9-41aa-ab00-1b36580c6433","ios":"levelo://app?vid=7a330101-8fd9-41aa-ab00-1b36580c6433"},"vehicle_type_id":"4","last_reported":1727763203,"current_range_meters":29600,"station_id":"ce4bgs12rcd13ifvqcag","pricing_plan_id":"cebpf4jnsgd1na2vs0mg"},{"bike_id":"e6c88988-c5ee-496f-bf87-a1d9852b71db","system_id":"levelo_inurba_marseille","lat":43.30899,"lon":5.36845,"is_reserved":false,"is_disabled":false,"rental_uris":{"android":"levelo://app?vid=e6c88988-c5ee-496f-bf87-a1d9852b71db","ios":"levelo://app?vid=e6c88988-c5ee-496f-bf87-a1d9852b71db"},"vehicle_type_id":"4","last_reported":1727763203,"current_range_meters":18800,"station_id":"ce4bgn92rcd13ifvqbvg","pricing_plan_id":"cebpf4jnsgd1na2vs0mg"},{"bike_id":"b65e26fd-4436-42b6-869d-ffed6ad30e88","system_id":"levelo_inurba_marseille","lat":43.32362,"lon":5.38878,"is_reserved":false,"is_disabled":false,"rental_uris":{"android":"levelo://app?vid=b65e26fd-4436-42b6-869d-ffed6ad30e88","ios":"levelo://app?vid=b65e26fd-4436-42b6-869d-ffed6ad30e88"},"vehicle_type_id":"4","last_reported":1727763203,"current_range_meters":16000,"station_id":"ce4bhqp2rcd13ifvqhog","pricing_plan_id":"cebpf4jnsgd1na2vs0mg"},{"bike_id":"60eb5290-67d9-4f23-b45b-8f2967bcf214","system_id":"levelo_inurba_marseille","lat":43.29805,"lon":5.38092,"is_reserved":false,"is_disabled":false,"rental_uris":{"android":"levelo://app?vid=60eb5290-67d9-4f23-b45b-8f2967bcf214","ios":"levelo://app?vid=60eb5290-67d9-4f23-b45b-8f2967bcf214"},"vehicle_type_id":"4","last_reported":1727763203,"current_range_meters":26000,"station_id":"ce4bgip2rcd13ifvqbb0","pricing_plan_id":"cebpf4jnsgd1na2vs0mg"},{"bike_id":"e46e5c7f-717d-4499-aa9e-5a7a42b3a7b3","system_id":"levelo_inurba_marseille","lat":43.30309,"lon":5.3691,"is_reserved":false,"is_disabled":false,"rental_uris":{"android":"levelo://app?vid=e46e5c7f-717d-4499-aa9e-5a7a42b3a7b3","ios":"levelo://app?vid=e46e5c7f-717d-4499-aa9e-5a7a42b3a7b3"},"vehicle_type_id":"4","last_reported":1727763203,"current_range_meters":36800,"station_id":"ce4bgqh2rcd13ifvqc5g","pricing_plan_id":"cebpf4jnsgd1na2vs0mg"},{"bike_id":"bb0db29b-307e-4e3c-9fb8-089947d27aae","system_id":"levelo_inurba_marseille","lat":43.30542,"lon":5.36552,"is_reserved":false,"is_disabled":false,"rental_uris":{"android":"levelo://app?vid=bb0db29b-307e-4e3c-9fb8-089947d27aae","ios":"levelo://app?vid=bb0db29b-307e-4e3c-9fb8-089947d27aae"},"vehicle_type_id":"4","last_reported":1727763203,"current_range_meters":35600,"station_id":"ce4bgs12rcd13ifvqcag","pricing_plan_id":"cebpf4jnsgd1na2vs0mg"},{"bike_id":"0225da0a-d3b8-41f7-a963-8c835de32abf","system_id":"levelo_inurba_marseille","lat":43.26573,"lon":5.39001,"is_reserved":false,"is_disabled":false,"rental_uris":{"android":"levelo://app?vid=0225da0a-d3b8-41f7-a963-8c835de32abf","ios":"levelo://app?vid=0225da0a-d3b8-41f7-a963-8c835de32abf"},"vehicle_type_id":"4","last_reported":1727763203,"current_range_meters":38800,"station_id":"ce4bhe12rcd13ifvqf30","pricing_plan_id":"cebpf4jnsgd1na2vs0mg"},{"bike_id":"01e8896a-329b-4dc0-a445-ff8ab6bd273d","system_id":"levelo_inurba_marseille","lat":43.27212,"lon":5.39172,"is_reserved":false,"is_disabled":false,"rental_uris":{"android":"levelo://app?vid=01e8896a-329b-4dc0-a445-ff8ab6bd273d","ios":"levelo://app?vid=01e8896a-329b-4dc0-a445-ff8ab6bd273d"},"vehicle_type_id":"4","last_reported":1727763203,"current_range_meters":36400,"station_id":"ce4bhhp2rcd13ifvqfm0","pricing_plan_id":"cebpf4jnsgd1na2vs0mg"},{"bike_id":"ba83e128-9396-4ff5-a14b-f47b70296f60","system_id":"levelo_inurba_marseille","lat":43.28354,"lon":5.381,"is_reserved":false,"is_disabled":false,"rental_uris":{"android":"levelo://app?vid=ba83e128-9396-4ff5-a14b-f47b70296f60","ios":"levelo://app?vid=ba83e128-9396-4ff5-a14b-f47b70296f60"},"vehicle_type_id":"4","last_reported":1727763203,"current_range_meters":38800,"station_id":"ce4bh412rcd13ifvqdr0","pricing_plan_id":"cebpf4jnsgd1na2vs0mg"},{"bike_id":"0a1145c0-4a6a-40f1-a1f7-d9f3fa85cb1f","system_id":"levelo_inurba_marseille","lat":43.27173,"lon":5.40998,"is_reserved":false,"is_disabled":false,"rental_uris":{"android":"levelo://app?vid=0a1145c0-4a6a-40f1-a1f7-d9f3fa85cb1f","ios":"levelo://app?vid=0a1145c0-4a6a-40f1-a1f7-d9f3fa85cb1f"},"vehicle_type_id":"4","last_reported":1727763203,"current_range_meters":10800,"station_id":"ce4bhl12rcd13ifvqgf0","pricing_plan_id":"cebpf4jnsgd1na2vs0mg"},{"bike_id":"c206b872-33a8-42b3-8572-8b7c8f6ff4d8","system_id":"levelo_inurba_marseille","lat":43.30479,"lon":5.37908,"is_reserved":false,"is_disabled":false,"rental_uris":{"android":"levelo://app?vid=c206b872-33a8-42b3-8572-8b7c8f6ff4d8","ios":"levelo://app?vid=c206b872-33a8-42b3-8572-8b7c8f6ff4d8"},"vehicle_type_id":"4","last_reported":1727763203,"current_range_meters":38800,"station_id":"ce4bgup2rcd13ifvqcn0","pricing_plan_id":"cebpf4jnsgd1na2vs0mg"},{"bike_id":"6c8ae74b-1063-4243-a488-daf12b505f56","system_id":"levelo_inurba_marseille","lat":43.28047,"lon":5.36949,"is_reserved":false,"is_disabled":false,"rental_uris":{"android":"levelo://app?vid=6c8ae74b-1063-4243-a488-daf12b505f56","ios":"levelo://app?vid=6c8ae74b-1063-4243-a488-daf12b505f56"},"vehicle_type_id":"4","last_reported":1727763203,"current_range_meters":6000,"station_id":"ce4bha12rcd13ifvqef0","pricing_plan_id":"cebpf4jnsgd1na2vs0mg"},{"bike_id":"bbfa1072-43cd-4cc7-bf78-556e11e70d56","system_id":"levelo_inurba_marseille","lat":43.26776,"lon":5.3942,"is_reserved":false,"is_disabled":false,"rental_uris":{"android":"levelo://app?vid=bbfa1072-43cd-4cc7-bf78-556e11e70d56","ios":"levelo://app?vid=bbfa1072-43cd-4cc7-bf78-556e11e70d56"},"vehicle_type_id":"4","last_reported":1727763203,"current_range_meters":38400,"station_id":"ce4bhh12rcd13ifvqfg0","pricing_plan_id":"cebpf4jnsgd1na2vs0mg"},{"bike_id":"2ae518ed-a511-4607-b96a-760b6b3f2b7b","system_id":"levelo_inurba_marseille","lat":43.28157,"lon":5.4264,"is_reserved":false,"is_disabled":false,"rental_uris":{"android":"levelo://app?vid=2ae518ed-a511-4607-b96a-760b6b3f2b7b","ios":"levelo://app?vid=2ae518ed-a511-4607-b96a-760b6b3f2b7b"},"vehicle_type_id":"4","last_reported":1727763203,"current_range_meters":17600,"station_id":"ce4bhnh2rcd13ifvqgug","pricing_plan_id":"cebpf4jnsgd1na2vs0mg"},{"bike_id":"6c8b150e-97b9-405a-9707-935fc4bddd17","system_id":"levelo_inurba_marseille","lat":43.28153,"lon":5.4265,"is_reserved":false,"is_disabled":false,"rental_uris":{"android":"levelo://app?vid=6c8b150e-97b9-405a-9707-935fc4bddd17","ios":"levelo://app?vid=6c8b150e-97b9-405a-9707-935fc4bddd17"},"vehicle_type_id":"4","last_reported":1727763203,"current_range_meters":38800,"station_id":"ce4bhnh2rcd13ifvqgug","pricing_plan_id":"cebpf4jnsgd1na2vs0mg"},{"bike_id":"e58fa8f9-8559-4a91-a560-ba74b12c8674","system_id":"levelo_inurba_marseille","lat":43.28413,"lon":5.37505,"is_reserved":false,"is_disabled":false,"rental_uris":{"android":"levelo://app?vid=e58fa8f9-8559-4a91-a560-ba74b12c8674","ios":"levelo://app?vid=e58fa8f9-8559-4a91-a560-ba74b12c8674"},"vehicle_type_id":"4","last_reported":1727763203,"current_range_meters":38800,"station_id":"ce4bh412rcd13ifvqds0","pricing_plan_id":"cebpf4jnsgd1na2vs0mg"},{"bike_id":"2acdd9c7-7080-4f4e-9e38-d8c0d83aed3d","system_id":"levelo_inurba_marseille","lat":43.26059,"lon":5.39393,"is_reserved":false,"is_disabled":false,"rental_uris":{"android":"levelo://app?vid=2acdd9c7-7080-4f4e-9e38-d8c0d83aed3d","ios":"levelo://app?vid=2acdd9c7-7080-4f4e-9e38-d8c0d83aed3d"},"vehicle_type_id":"4","last_reported":1727763203,"current_range_meters":34000,"station_id":"ce4bhh92rcd13ifvqfj0","pricing_plan_id":"cebpf4jnsgd1na2vs0mg"},{"bike_id":"90c240b8-6495-4f26-9213-a90fe470d236","system_id":"levelo_inurba_marseille","lat":43.29028,"lon":5.38646,"is_reserved":false,"is_disabled":false,"rental_uris":{"android":"levelo://app?vid=90c240b8-6495-4f26-9213-a90fe470d236","ios":"levelo://app?vid=90c240b8-6495-4f26-9213-a90fe470d236"},"vehicle_type_id":"4","last_reported":1727763203,"current_range_meters":28400,"station_id":"ce4bh4p2rcd13ifvqe0g","pricing_plan_id":"cebpf4jnsgd1na2vs0mg"},{"bike_id":"17dd8443-58e6-4680-93ae-4b75879dd1b0","system_id":"levelo_inurba_marseille","lat":43.28942,"lon":5.36399,"is_reserved":false,"is_disabled":false,"rental_uris":{"android":"levelo://app?vid=17dd8443-58e6-4680-93ae-4b75879dd1b0","ios":"levelo://app?vid=17dd8443-58e6-4680-93ae-4b75879dd1b0"},"vehicle_type_id":"4","last_reported":1727763203,"current_range_meters":38000,"station_id":"ce4bhc92rcd13ifvqetg","pricing_plan_id":"cebpf4jnsgd1na2vs0mg"},{"bike_id":"fbc137f1-9d08-4f1f-8c60-5806e75863bd","system_id":"levelo_inurba_marseille","lat":43.31355,"lon":5.36709,"is_reserved":false,"is_disabled":false,"rental_uris":{"android":"levelo://app?vid=fbc137f1-9d08-4f1f-8c60-5806e75863bd","ios":"levelo://app?vid=fbc137f1-9d08-4f1f-8c60-5806e75863bd"},"vehicle_type_id":"4","last_reported":1727763203,"current_range_meters":38400,"station_id":"ce4bgr92rcd13ifvqc6g","pricing_plan_id":"cebpf4jnsgd1na2vs0mg"},{"bike_id":"26125f94-7463-43ad-bb4c-c76609be5a21","system_id":"levelo_inurba_marseille","lat":43.3046,"lon":5.37907,"is_reserved":false,"is_disabled":false,"rental_uris":{"android":"levelo://app?vid=26125f94-7463-43ad-bb4c-c76609be5a21","ios":"levelo://app?vid=26125f94-7463-43ad-bb4c-c76609be5a21"},"vehicle_type_id":"4","last_reported":1727763203,"current_range_meters":34000,"station_id":"ce4bgup2rcd13ifvqcn0","pricing_plan_id":"cebpf4jnsgd1na2vs0mg"},{"bike_id":"c10b955e-d816-4c19-b03c-5098252291ba","system_id":"levelo_inurba_marseille","lat":43.24073,"lon":5.37764,"is_reserved":false,"is_disabled":false,"rental_uris":{"android":"levelo://app?vid=c10b955e-d816-4c19-b03c-5098252291ba","ios":"levelo://app?vid=c10b955e-d816-4c19-b03c-5098252291ba"},"vehicle_type_id":"4","last_reported":1727763203,"current_range_meters":36800,"station_id":"ce4bhnp2rcd13ifvqgvg","pricing_plan_id":"cebpf4jnsgd1na2vs0mg"},{"bike_id":"df3246d2-826f-45f2-868b-0d23ff1782d9","system_id":"levelo_inurba_marseille","lat":43.32538,"lon":5.41443,"is_reserved":false,"is_disabled":false,"rental_uris":{"android":"levelo://app?vid=df3246d2-826f-45f2-868b-0d23ff1782d9","ios":"levelo://app?vid=df3246d2-826f-45f2-868b-0d23ff1782d9"},"vehicle_type_id":"4","last_reported":1727763203,"current_range_meters":36800,"station_id":"ce4bhq12rcd13ifvqhhg","pricing_plan_id":"cebpf4jnsgd1na2vs0mg"},{"bike_id":"4d0c8a67-8ab6-404c-b260-54363f7b6800","system_id":"levelo_inurba_marseille","lat":43.2668,"lon":5.38267,"is_reserved":false,"is_disabled":false,"rental_uris":{"android":"levelo://app?vid=4d0c8a67-8ab6-404c-b260-54363f7b6800","ios":"levelo://app?vid=4d0c8a67-8ab6-404c-b260-54363f7b6800"},"vehicle_type_id":"4","last_reported":1727763203,"current_range_meters":27600,"station_id":"ce4bhg92rcd13ifvqf90","pricing_plan_id":"cebpf4jnsgd1na2vs0mg"},{"bike_id":"d7ce7a5c-b08f-49b4-8b23-521e5b122803","system_id":"levelo_inurba_marseille","lat":43.23152,"lon":5.43705,"is_reserved":false,"is_disabled":false,"rental_uris":{"android":"levelo://app?vid=d7ce7a5c-b08f-49b4-8b23-521e5b122803","ios":"levelo://app?vid=d7ce7a5c-b08f-49b4-8b23-521e5b122803"},"vehicle_type_id":"4","last_reported":1727763203,"current_range_meters":18800,"station_id":"ce4bhmp2rcd13ifvqgog","pricing_plan_id":"cebpf4jnsgd1na2vs0mg"},{"bike_id":"d0479051-3107-447f-bc15-eea53fdc99bf","system_id":"levelo_inurba_marseille","lat":43.29268,"lon":5.40145,"is_reserved":false,"is_disabled":false,"rental_uris":{"android":"levelo://app?vid=d0479051-3107-447f-bc15-eea53fdc99bf","ios":"levelo://app?vid=d0479051-3107-447f-bc15-eea53fdc99bf"},"vehicle_type_id":"4","last_reported":1727763203,"current_range_meters":39200,"station_id":"ce4bh312rcd13ifvqdk0","pricing_plan_id":"cebpf4jnsgd1na2vs0mg"},{"bike_id":"2e69ea16-c85c-480e-8509-ad232a7c992c","system_id":"levelo_inurba_marseille","lat":43.28949,"lon":5.36402,"is_reserved":false,"is_disabled":false,"rental_uris":{"android":"levelo://app?vid=2e69ea16-c85c-480e-8509-ad232a7c992c","ios":"levelo://app?vid=2e69ea16-c85c-480e-8509-ad232a7c992c"},"vehicle_type_id":"4","last_reported":1727763203,"current_range_meters":16400,"station_id":"ce4bhc92rcd13ifvqetg","pricing_plan_id":"cebpf4jnsgd1na2vs0mg"},{"bike_id":"3051ca2d-841d-4a62-8b3a-a42fc6685533","system_id":"levelo_inurba_marseille","lat":43.29607,"lon":5.38108,"is_reserved":false,"is_disabled":false,"rental_uris":{"android":"levelo://app?vid=3051ca2d-841d-4a62-8b3a-a42fc6685533","ios":"levelo://app?vid=3051ca2d-841d-4a62-8b3a-a42fc6685533"},"vehicle_type_id":"4","last_reported":1727763203,"current_range_meters":29600,"station_id":"ce4bgl12rcd13ifvqbo0","pricing_plan_id":"cebpf4jnsgd1na2vs0mg"},{"bike_id":"0286604c-ebcd-4b76-ab34-035b2515523e","system_id":"levelo_inurba_marseille","lat":43.30462,"lon":5.3791,"is_reserved":false,"is_disabled":false,"rental_uris":{"android":"levelo://app?vid=0286604c-ebcd-4b76-ab34-035b2515523e","ios":"levelo://app?vid=0286604c-ebcd-4b76-ab34-035b2515523e"},"vehicle_type_id":"4","last_reported":1727763203,"current_range_meters":35200,"station_id":"ce4bgup2rcd13ifvqcn0","pricing_plan_id":"cebpf4jnsgd1na2vs0mg"},{"bike_id":"8c953216-c4cc-430e-9f25-efd8b4dbb69e","system_id":"levelo_inurba_marseille","lat":43.24075,"lon":5.37761,"is_reserved":false,"is_disabled":false,"rental_uris":{"android":"levelo://app?vid=8c953216-c4cc-430e-9f25-efd8b4dbb69e","ios":"levelo://app?vid=8c953216-c4cc-430e-9f25-efd8b4dbb69e"},"vehicle_type_id":"4","last_reported":1727763203,"current_range_meters":27600,"station_id":"ce4bhnp2rcd13ifvqgvg","pricing_plan_id":"cebpf4jnsgd1na2vs0mg"},{"bike_id":"97ddeae9-b9fd-45aa-85c4-a9e24db86d98","system_id":"levelo_inurba_marseille","lat":43.28629,"lon":5.38508,"is_reserved":false,"is_disabled":false,"rental_uris":{"android":"levelo://app?vid=97ddeae9-b9fd-45aa-85c4-a9e24db86d98","ios":"levelo://app?vid=97ddeae9-b9fd-45aa-85c4-a9e24db86d98"},"vehicle_type_id":"4","last_reported":1727763203,"current_range_meters":18800,"station_id":"ce4bgi92rcd13ifvqb90","pricing_plan_id":"cebpf4jnsgd1na2vs0mg"},{"bike_id":"cfb413df-14d2-4ffe-a9bf-d10e789c4270","system_id":"levelo_inurba_marseille","lat":43.30524,"lon":5.40086,"is_reserved":false,"is_disabled":false,"rental_uris":{"android":"levelo://app?vid=cfb413df-14d2-4ffe-a9bf-d10e789c4270","ios":"levelo://app?vid=cfb413df-14d2-4ffe-a9bf-d10e789c4270"},"vehicle_type_id":"4","last_reported":1727763203,"current_range_meters":38800,"station_id":"ce4bgip2rcd13ifvqbb0","pricing_plan_id":"cebpf4jnsgd1na2vs0mg"},{"bike_id":"bf31d161-a87a-4f7f-9f2e-88c28947a498","system_id":"levelo_inurba_marseille","lat":43.28728,"lon":5.37372,"is_reserved":false,"is_disabled":false,"rental_uris":{"android":"levelo://app?vid=bf31d161-a87a-4f7f-9f2e-88c28947a498","ios":"levelo://app?vid=bf31d161-a87a-4f7f-9f2e-88c28947a498"},"vehicle_type_id":"4","last_reported":1727763203,"current_range_meters":37600,"station_id":"ce4bh3p2rcd13ifvqdq0","pricing_plan_id":"cebpf4jnsgd1na2vs0mg"},{"bike_id":"a0c704de-8b0f-46b7-976f-17373d4a766c","system_id":"levelo_inurba_marseille","lat":43.30081,"lon":5.39098,"is_reserved":false,"is_disabled":false,"rental_uris":{"android":"levelo://app?vid=a0c704de-8b0f-46b7-976f-17373d4a766c","ios":"levelo://app?vid=a0c704de-8b0f-46b7-976f-17373d4a766c"},"vehicle_type_id":"4","last_reported":1727763203,"current_range_meters":37600,"station_id":"ce4bh192rcd13ifvqdb0","pricing_plan_id":"cebpf4jnsgd1na2vs0mg"},{"bike_id":"3beadf9d-cc57-4cfa-b23e-ac53aab533e0","system_id":"levelo_inurba_marseille","lat":43.30274,"lon":5.37709,"is_reserved":false,"is_disabled":false,"rental_uris":{"android":"levelo://app?vid=3beadf9d-cc57-4cfa-b23e-ac53aab533e0","ios":"levelo://app?vid=3beadf9d-cc57-4cfa-b23e-ac53aab533e0"},"vehicle_type_id":"4","last_reported":1727763203,"current_range_meters":38000,"station_id":"ce4bguh2rcd13ifvqcj0","pricing_plan_id":"cebpf4jnsgd1na2vs0mg"},{"bike_id":"c61eade8-0698-4e9c-af11-80d5f72fd902","system_id":"levelo_inurba_marseille","lat":43.27215,"lon":5.39169,"is_reserved":false,"is_disabled":false,"rental_uris":{"android":"levelo://app?vid=c61eade8-0698-4e9c-af11-80d5f72fd902","ios":"levelo://app?vid=c61eade8-0698-4e9c-af11-80d5f72fd902"},"vehicle_type_id":"4","last_reported":1727763203,"current_range_meters":12000,"station_id":"","pricing_plan_id":"cebpf4jnsgd1na2vs0mg"},{"bike_id":"d3329261-bcf8-4d34-a85a-51710066765c","system_id":"levelo_inurba_marseille","lat":43.31491,"lon":5.37295,"is_reserved":false,"is_disabled":false,"rental_uris":{"android":"levelo://app?vid=d3329261-bcf8-4d34-a85a-51710066765c","ios":"levelo://app?vid=d3329261-bcf8-4d34-a85a-51710066765c"},"vehicle_type_id":"4","last_reported":1727763203,"current_range_meters":39200,"station_id":"ce4bgt12rcd13ifvqcd0","pricing_plan_id":"cebpf4jnsgd1na2vs0mg"},{"bike_id":"ae7464ad-529a-4efd-b996-61c01b643231","system_id":"levelo_inurba_marseille","lat":43.25503,"lon":5.37655,"is_reserved":false,"is_disabled":false,"rental_uris":{"android":"levelo://app?vid=ae7464ad-529a-4efd-b996-61c01b643231","ios":"levelo://app?vid=ae7464ad-529a-4efd-b996-61c01b643231"},"vehicle_type_id":"4","last_reported":1727763203,"current_range_meters":38800,"station_id":"ce4bhh12rcd13ifvqff0","pricing_plan_id":"cebpf4jnsgd1na2vs0mg"},{"bike_id":"6c4a97ef-ed56-4d85-98d9-463a709b63f3","system_id":"levelo_inurba_marseille","lat":43.24194,"lon":5.40554,"is_reserved":false,"is_disabled":false,"rental_uris":{"android":"levelo://app?vid=6c4a97ef-ed56-4d85-98d9-463a709b63f3","ios":"levelo://app?vid=6c4a97ef-ed56-4d85-98d9-463a709b63f3"},"vehicle_type_id":"4","last_reported":1727763203,"current_range_meters":20000,"station_id":"","pricing_plan_id":"cebpf4jnsgd1na2vs0mg"},{"bike_id":"ab80b424-bfc5-4709-9b95-a2bee6a56f64","system_id":"levelo_inurba_marseille","lat":43.322894,"lon":5.382666,"is_reserved":false,"is_disabled":false,"rental_uris":{"android":"levelo://app?vid=ab80b424-bfc5-4709-9b95-a2bee6a56f64","ios":"levelo://app?vid=ab80b424-bfc5-4709-9b95-a2bee6a56f64"},"vehicle_type_id":"4","last_reported":1727763203,"current_range_meters":39200,"station_id":"ce4bhr12rcd13ifvqhqg","pricing_plan_id":"cebpf4jnsgd1na2vs0mg"},{"bike_id":"2bfd4452-d854-4ea1-8b71-db38f940202a","system_id":"levelo_inurba_marseille","lat":43.30538,"lon":5.36702,"is_reserved":false,"is_disabled":false,"rental_uris":{"android":"levelo://app?vid=2bfd4452-d854-4ea1-8b71-db38f940202a","ios":"levelo://app?vid=2bfd4452-d854-4ea1-8b71-db38f940202a"},"vehicle_type_id":"4","last_reported":1727763203,"current_range_meters":36000,"station_id":"ce4bgrp2rcd13ifvqc9g","pricing_plan_id":"cebpf4jnsgd1na2vs0mg"},{"bike_id":"0c4fffa3-0dd9-4a0b-b4a5-965eae5d787a","system_id":"levelo_inurba_marseille","lat":43.25123,"lon":5.40318,"is_reserved":false,"is_disabled":false,"rental_uris":{"android":"levelo://app?vid=0c4fffa3-0dd9-4a0b-b4a5-965eae5d787a","ios":"levelo://app?vid=0c4fffa3-0dd9-4a0b-b4a5-965eae5d787a"},"vehicle_type_id":"4","last_reported":1727763203,"current_range_meters":38800,"station_id":"ce4bhlh2rcd13ifvqgig","pricing_plan_id":"cebpf4jnsgd1na2vs0mg"},{"bike_id":"dd05cf58-177b-4d66-8ca2-fe7872404e55","system_id":"levelo_inurba_marseille","lat":43.23154,"lon":5.4371,"is_reserved":false,"is_disabled":false,"rental_uris":{"android":"levelo://app?vid=dd05cf58-177b-4d66-8ca2-fe7872404e55","ios":"levelo://app?vid=dd05cf58-177b-4d66-8ca2-fe7872404e55"},"vehicle_type_id":"4","last_reported":1727763203,"current_range_meters":33200,"station_id":"ce4bhmp2rcd13ifvqgog","pricing_plan_id":"cebpf4jnsgd1na2vs0mg"},{"bike_id":"798c4278-1622-4c86-8893-fc54c9358653","system_id":"levelo_inurba_marseille","lat":43.2509,"lon":5.39508,"is_reserved":false,"is_disabled":false,"rental_uris":{"android":"levelo://app?vid=798c4278-1622-4c86-8893-fc54c9358653","ios":"levelo://app?vid=798c4278-1622-4c86-8893-fc54c9358653"},"vehicle_type_id":"4","last_reported":1727763203,"current_range_meters":30400,"station_id":"ce4bhm12rcd13ifvqgkg","pricing_plan_id":"cebpf4jnsgd1na2vs0mg"},{"bike_id":"f493192b-13c6-47a1-9573-739dd32e633f","system_id":"levelo_inurba_marseille","lat":43.337444,"lon":5.374475,"is_reserved":false,"is_disabled":false,"rental_uris":{"android":"levelo://app?vid=f493192b-13c6-47a1-9573-739dd32e633f","ios":"levelo://app?vid=f493192b-13c6-47a1-9573-739dd32e633f"},"vehicle_type_id":"4","last_reported":1727763203,"current_range_meters":18000,"station_id":"","pricing_plan_id":"cebpf4jnsgd1na2vs0mg"},{"bike_id":"ce6166ea-c4ad-4ecf-8cb6-35a2f13ea8fd","system_id":"levelo_inurba_marseille","lat":43.23959,"lon":5.3662,"is_reserved":false,"is_disabled":false,"rental_uris":{"android":"levelo://app?vid=ce6166ea-c4ad-4ecf-8cb6-35a2f13ea8fd","ios":"levelo://app?vid=ce6166ea-c4ad-4ecf-8cb6-35a2f13ea8fd"},"vehicle_type_id":"4","last_reported":1727763203,"current_range_meters":18800,"station_id":"ce4bhi12rcd13ifvqfp0","pricing_plan_id":"cebpf4jnsgd1na2vs0mg"},{"bike_id":"5b796d1e-cead-4b33-b106-962e4bf5fd6f","system_id":"levelo_inurba_marseille","lat":43.28111,"lon":5.37482,"is_reserved":false,"is_disabled":false,"rental_uris":{"android":"levelo://app?vid=5b796d1e-cead-4b33-b106-962e4bf5fd6f","ios":"levelo://app?vid=5b796d1e-cead-4b33-b106-962e4bf5fd6f"},"vehicle_type_id":"4","last_reported":1727763203,"current_range_meters":28000,"station_id":"","pricing_plan_id":"cebpf4jnsgd1na2vs0mg"},{"bike_id":"6f52ed18-d1e8-484b-9d80-c074dac119cc","system_id":"levelo_inurba_marseille","lat":43.29422,"lon":5.38617,"is_reserved":false,"is_disabled":false,"rental_uris":{"android":"levelo://app?vid=6f52ed18-d1e8-484b-9d80-c074dac119cc","ios":"levelo://app?vid=6f52ed18-d1e8-484b-9d80-c074dac119cc"},"vehicle_type_id":"4","last_reported":1727763203,"current_range_meters":30400,"station_id":"ce4bh2h2rcd13ifvqdh0","pricing_plan_id":"cebpf4jnsgd1na2vs0mg"},{"bike_id":"5e332fac-73f8-4258-9472-5532705c1918","system_id":"levelo_inurba_marseille","lat":43.27052,"lon":5.40273,"is_reserved":false,"is_disabled":false,"rental_uris":{"android":"levelo://app?vid=5e332fac-73f8-4258-9472-5532705c1918","ios":"levelo://app?vid=5e332fac-73f8-4258-9472-5532705c1918"},"vehicle_type_id":"4","last_reported":1727763203,"current_range_meters":22000,"station_id":"ce4bhk92rcd13ifvqgc0","pricing_plan_id":"cebpf4jnsgd1na2vs0mg"},{"bike_id":"14e9e523-682a-491d-90fe-47d011f940a3","system_id":"levelo_inurba_marseille","lat":43.30953,"lon":5.39038,"is_reserved":false,"is_disabled":false,"rental_uris":{"android":"levelo://app?vid=14e9e523-682a-491d-90fe-47d011f940a3","ios":"levelo://app?vid=14e9e523-682a-491d-90fe-47d011f940a3"},"vehicle_type_id":"4","last_reported":1727763203,"current_range_meters":32000,"station_id":"ce4bgup2rcd13ifvqco0","pricing_plan_id":"cebpf4jnsgd1na2vs0mg"},{"bike_id":"ca3aa4f1-8bcc-4d5e-994d-ff88a698e8ef","system_id":"levelo_inurba_marseille","lat":43.27497,"lon":5.42457,"is_reserved":false,"is_disabled":false,"rental_uris":{"android":"levelo://app?vid=ca3aa4f1-8bcc-4d5e-994d-ff88a698e8ef","ios":"levelo://app?vid=ca3aa4f1-8bcc-4d5e-994d-ff88a698e8ef"},"vehicle_type_id":"4","last_reported":1727763203,"current_range_meters":39200,"station_id":"ce4bhn92rcd13ifvqgrg","pricing_plan_id":"cebpf4jnsgd1na2vs0mg"},{"bike_id":"f42c5bad-c16a-4e10-8951-1b53019330b4","system_id":"levelo_inurba_marseille","lat":43.29601,"lon":5.38096,"is_reserved":false,"is_disabled":false,"rental_uris":{"android":"levelo://app?vid=f42c5bad-c16a-4e10-8951-1b53019330b4","ios":"levelo://app?vid=f42c5bad-c16a-4e10-8951-1b53019330b4"},"vehicle_type_id":"4","last_reported":1727763203,"current_range_meters":25200,"station_id":"ce4bgl12rcd13ifvqbo0","pricing_plan_id":"cebpf4jnsgd1na2vs0mg"},{"bike_id":"83409112-f4cd-4c10-834d-d2349799fff2","system_id":"levelo_inurba_marseille","lat":43.30465,"lon":5.37907,"is_reserved":false,"is_disabled":false,"rental_uris":{"android":"levelo://app?vid=83409112-f4cd-4c10-834d-d2349799fff2","ios":"levelo://app?vid=83409112-f4cd-4c10-834d-d2349799fff2"},"vehicle_type_id":"4","last_reported":1727763203,"current_range_meters":37600,"station_id":"ce4bgup2rcd13ifvqcn0","pricing_plan_id":"cebpf4jnsgd1na2vs0mg"},{"bike_id":"8ca1e27b-ef3d-4e8f-a407-92e4a0c423b4","system_id":"levelo_inurba_marseille","lat":43.29551,"lon":5.42287,"is_reserved":false,"is_disabled":false,"rental_uris":{"android":"levelo://app?vid=8ca1e27b-ef3d-4e8f-a407-92e4a0c423b4","ios":"levelo://app?vid=8ca1e27b-ef3d-4e8f-a407-92e4a0c423b4"},"vehicle_type_id":"4","last_reported":1727763203,"current_range_meters":38000,"station_id":"ce4bhph2rcd13ifvqhdg","pricing_plan_id":"cebpf4jnsgd1na2vs0mg"},{"bike_id":"12fde011-8652-49b9-873e-72da5e76fc34","system_id":"levelo_inurba_marseille","lat":43.28412,"lon":5.37513,"is_reserved":false,"is_disabled":false,"rental_uris":{"android":"levelo://app?vid=12fde011-8652-49b9-873e-72da5e76fc34","ios":"levelo://app?vid=12fde011-8652-49b9-873e-72da5e76fc34"},"vehicle_type_id":"4","last_reported":1727763203,"current_range_meters":36800,"station_id":"ce4bh412rcd13ifvqds0","pricing_plan_id":"cebpf4jnsgd1na2vs0mg"},{"bike_id":"e3f658f2-4155-4818-b7f2-817ddb02bc45","system_id":"levelo_inurba_marseille","lat":43.30466,"lon":5.37911,"is_reserved":false,"is_disabled":false,"rental_uris":{"android":"levelo://app?vid=e3f658f2-4155-4818-b7f2-817ddb02bc45","ios":"levelo://app?vid=e3f658f2-4155-4818-b7f2-817ddb02bc45"},"vehicle_type_id":"4","last_reported":1727763203,"current_range_meters":8800,"station_id":"ce4bgup2rcd13ifvqcn0","pricing_plan_id":"cebpf4jnsgd1na2vs0mg"},{"bike_id":"c9c949a4-5f73-403c-8cd6-96aeb5137ae7","system_id":"levelo_inurba_marseille","lat":43.28471,"lon":5.38419,"is_reserved":false,"is_disabled":false,"rental_uris":{"android":"levelo://app?vid=c9c949a4-5f73-403c-8cd6-96aeb5137ae7","ios":"levelo://app?vid=c9c949a4-5f73-403c-8cd6-96aeb5137ae7"},"vehicle_type_id":"4","last_reported":1727763203,"current_range_meters":38800,"station_id":"ce4bh512rcd13ifvqe3g","pricing_plan_id":"cebpf4jnsgd1na2vs0mg"},{"bike_id":"eef0ff24-2e3f-471a-8736-b680248f123f","system_id":"levelo_inurba_marseille","lat":43.317112,"lon":5.377508,"is_reserved":false,"is_disabled":false,"rental_uris":{"android":"levelo://app?vid=eef0ff24-2e3f-471a-8736-b680248f123f","ios":"levelo://app?vid=eef0ff24-2e3f-471a-8736-b680248f123f"},"vehicle_type_id":"4","last_reported":1727763203,"current_range_meters":37600,"station_id":"ce4bgth2rcd13ifvqch0","pricing_plan_id":"cebpf4jnsgd1na2vs0mg"},{"bike_id":"0165b849-3f60-4d30-9bcc-2ec34a914c8a","system_id":"levelo_inurba_marseille","lat":43.30211,"lon":5.39458,"is_reserved":false,"is_disabled":false,"rental_uris":{"android":"levelo://app?vid=0165b849-3f60-4d30-9bcc-2ec34a914c8a","ios":"levelo://app?vid=0165b849-3f60-4d30-9bcc-2ec34a914c8a"},"vehicle_type_id":"4","last_reported":1727763203,"current_range_meters":23200,"station_id":"ce4bh0p2rcd13ifvqd70","pricing_plan_id":"cebpf4jnsgd1na2vs0mg"},{"bike_id":"fd975a2d-db0c-49e5-9c92-4b118eaa575e","system_id":"levelo_inurba_marseille","lat":43.27999,"lon":5.40014,"is_reserved":false,"is_disabled":false,"rental_uris":{"android":"levelo://app?vid=fd975a2d-db0c-49e5-9c92-4b118eaa575e","ios":"levelo://app?vid=fd975a2d-db0c-49e5-9c92-4b118eaa575e"},"vehicle_type_id":"4","last_reported":1727763203,"current_range_meters":35600,"station_id":"ce4bho92rcd13ifvqh4g","pricing_plan_id":"cebpf4jnsgd1na2vs0mg"},{"bike_id":"4df7c062-ba79-48c0-a4bf-1bf2ae913511","system_id":"levelo_inurba_marseille","lat":43.30463,"lon":5.37909,"is_reserved":false,"is_disabled":false,"rental_uris":{"android":"levelo://app?vid=4df7c062-ba79-48c0-a4bf-1bf2ae913511","ios":"levelo://app?vid=4df7c062-ba79-48c0-a4bf-1bf2ae913511"},"vehicle_type_id":"4","last_reported":1727763203,"current_range_meters":5600,"station_id":"ce4bgup2rcd13ifvqcn0","pricing_plan_id":"cebpf4jnsgd1na2vs0mg"},{"bike_id":"fa91310a-7edf-4c46-8f17-547530c5c92c","system_id":"levelo_inurba_marseille","lat":43.26545,"lon":5.37296,"is_reserved":false,"is_disabled":false,"rental_uris":{"android":"levelo://app?vid=fa91310a-7edf-4c46-8f17-547530c5c92c","ios":"levelo://app?vid=fa91310a-7edf-4c46-8f17-547530c5c92c"},"vehicle_type_id":"4","last_reported":1727763203,"current_range_meters":2000,"station_id":"ce4bhg12rcd13ifvqf70","pricing_plan_id":"cebpf4jnsgd1na2vs0mg"},{"bike_id":"f5de992b-d621-474d-8491-27a9dcd63918","system_id":"levelo_inurba_marseille","lat":43.30467,"lon":5.37908,"is_reserved":false,"is_disabled":false,"rental_uris":{"android":"levelo://app?vid=f5de992b-d621-474d-8491-27a9dcd63918","ios":"levelo://app?vid=f5de992b-d621-474d-8491-27a9dcd63918"},"vehicle_type_id":"4","last_reported":1727763203,"current_range_meters":27200,"station_id":"ce4bgup2rcd13ifvqcn0","pricing_plan_id":"cebpf4jnsgd1na2vs0mg"},{"bike_id":"71761bd7-4647-4c1e-9e2e-dccb33a66ff6","system_id":"levelo_inurba_marseille","lat":43.310791,"lon":5.42244,"is_reserved":false,"is_disabled":false,"rental_uris":{"android":"levelo://app?vid=71761bd7-4647-4c1e-9e2e-dccb33a66ff6","ios":"levelo://app?vid=71761bd7-4647-4c1e-9e2e-dccb33a66ff6"},"vehicle_type_id":"4","last_reported":1727763203,"current_range_meters":38400,"station_id":"ce4bh0h2rcd13ifvqd40","pricing_plan_id":"cebpf4jnsgd1na2vs0mg"},{"bike_id":"aa122f98-8b5e-4a7d-bbd7-05f7603260ae","system_id":"levelo_inurba_marseille","lat":43.27493,"lon":5.42459,"is_reserved":false,"is_disabled":false,"rental_uris":{"android":"levelo://app?vid=aa122f98-8b5e-4a7d-bbd7-05f7603260ae","ios":"levelo://app?vid=aa122f98-8b5e-4a7d-bbd7-05f7603260ae"},"vehicle_type_id":"4","last_reported":1727763203,"current_range_meters":38800,"station_id":"ce4bhn92rcd13ifvqgrg","pricing_plan_id":"cebpf4jnsgd1na2vs0mg"},{"bike_id":"c5ef28d5-3eb1-4d57-908f-fea966586335","system_id":"levelo_inurba_marseille","lat":43.25499,"lon":5.37651,"is_reserved":false,"is_disabled":false,"rental_uris":{"android":"levelo://app?vid=c5ef28d5-3eb1-4d57-908f-fea966586335","ios":"levelo://app?vid=c5ef28d5-3eb1-4d57-908f-fea966586335"},"vehicle_type_id":"4","last_reported":1727763203,"current_range_meters":31200,"station_id":"ce4bhh12rcd13ifvqff0","pricing_plan_id":"cebpf4jnsgd1na2vs0mg"},{"bike_id":"dfc60429-e696-401b-b494-229afb3bb4ac","system_id":"levelo_inurba_marseille","lat":43.29258,"lon":5.37142,"is_reserved":false,"is_disabled":false,"rental_uris":{"android":"levelo://app?vid=dfc60429-e696-401b-b494-229afb3bb4ac","ios":"levelo://app?vid=dfc60429-e696-401b-b494-229afb3bb4ac"},"vehicle_type_id":"4","last_reported":1727763203,"current_range_meters":36800,"station_id":"ce4bgip2rcd13ifvqbb0","pricing_plan_id":"cebpf4jnsgd1na2vs0mg"},