{"last_updated":1735672018,"ttl":60,"version":"2.2","data":{"bikes":[{"bike_id":"2f56c5dc-0755-4629-adf9-4349a3b8ebb1","system_id":"levelo_inurba_marseille","lat":43.28155,"lon":5.42637,"is_reserved":false,"is_disabled":false,"rental_uris":{"android":"levelo://app?vid=2f56c5dc-0755-4629-adf9-4349a3b8ebb1","ios":"levelo://app?vid=2f56c5dc-0755-4629-adf9-4349a3b8ebb1"},"vehicle_type_id":"4","last_reported":1735672018,"current_range_meters":25600,"station_id":"ce4bhnh2rcd13ifvqgug","pricing_plan_id":"cebpf4jnsgd1na2vs0mg"},{"bike_id":"7e7ea298-a0f1-43f6-ad61-33f7bfccc079","system_id":"levelo_inurba_marseille","lat":43.24783,"lon":5.37445,"is_reserved":false,"is_disabled":false,"rental_uris":{"android":"levelo://app?vid=7e7ea298-a0f1-43f6-ad61-33f7bfccc079","ios":"levelo://app?vid=7e7ea298-a0f1-43f6-ad61-33f7bfccc079"},"vehicle_type_id":"4","last_reported":1735672018,"current_range_meters":4400,"station_id":"ce4bhgh2rcd13ifvqfb0","pricing_plan_id":"cebpf4jnsgd1na2vs0mg"},{"bike_id":"eebc4850-6ef9-46e6-b48b-57b8c062b998","system_id":"levelo_inurba_marseille","lat":43.28713,"lon":5.3795,"is_reserved":false,"is_disabled":true,"rental_uris":{"android":"levelo://app?vid=eebc4850-6ef9-46e6-b48b-57b8c062b998","ios":"levelo://app?vid=eebc4850-6ef9-46e6-b48b-57b8c062b998"},"vehicle_type_id":"4","last_reported":1735672018,"current_range_meters":20800,"station_id":"ce4bh9p2rcd13ifvqec0","pricing_plan_id":"cebpf4jnsgd1na2vs0mg"},{"bike_id":"67fad499-4eaa-4874-a203-48f61708ae07","system_id":"levelo_inurba_marseille","lat":43.27835,"lon":5.39208,"is_reserved":false,"is_disabled":false,"rental_uris":{"android":"levelo://app?vid=67fad499-4eaa-4874-a203-48f61708ae07","ios":"levelo://app?vid=67fad499-4eaa-4874-a203-48f61708ae07"},"vehicle_type_id":"4","last_reported":1735672018,"current_range_meters":38400,"station_id":"ce4bhjp2rcd13ifvqga0","pricing_plan_id":"cebpf4jnsgd1na2vs0mg"},{"bike_id":"db04c164-40e3-4c2c-950a-78c15a8b32e6","system_id":"levelo_inurba_marseille","lat":43.29894,"lon":5.43663,"is_reserved":false,"is_disabled":false,"rental_uris":{"android":"levelo://app?vid=db04c164-40e3-4c2c-950a-78c15a8b32e6","ios":"levelo://app?vid=db04c164-40e3-4c2c-950a-78c15a8b32e6"},"vehicle_type_id":"4","last_reported":1735672018,"current_range_meters":4000,"station_id":"ce4bhpp2rcd13ifvqhfg","pricing_plan_id":"cebpf4jnsgd1na2vs0mg"},{"bike_id":"30675ccc-9ef1-40b1-963e-228cee2b4741","system_id":"levelo_inurba_marseille","lat":43.27953,"lon":5.4104,"is_reserved":false,"is_disabled":true,"rental_uris":{"android":"levelo://app?vid=30675ccc-9ef1-40b1-963e-228cee2b4741","ios":"levelo://app?vid=30675ccc-9ef1-40b1-963e-228cee2b4741"},"vehicle_type_id":"4","last_reported":1735672018,"current_range_meters":24000,"station_id":"ce4bhnp2rcd13ifvqh0g","pricing_plan_id":"cebpf4jnsgd1na2vs0mg"},{"bike_id":"109be225-7abf-417f-82ad-41be515965a7","system_id":"levelo_inurba_marseille","lat":43.26791,"lon":5.39409,"is_reserved":false,"is_disabled":false,"rental_uris":{"android":"levelo://app?vid=109be225-7abf-417f-82ad-41be515965a7","ios":"levelo://app?vid=109be225-7abf-417f-82ad-41be515965a7"},"vehicle_type_id":"4","last_reported":1735672018,"current_range_meters":13600,"station_id":"ce4bhh12rcd13ifvqfg0","pricing_plan_id":"cebpf4jnsgd1na2vs0mg"},{"bike_id":"9f45f6aa-df3d-43dd-affd-1fb08c33b108","system_id":"levelo_inurba_marseille","lat":43.2762,"lon":5.36099,"is_reserved":false,"is_disabled":true,"rental_uris":{"android":"levelo://app?vid=9f45f6aa-df3d-43dd-affd-1fb08c33b108","ios":"levelo://app?vid=9f45f6aa-df3d-43dd-affd-1fb08c33b108"},"vehicle_type_id":"4","last_reported":1735672018,"current_range_meters":0,"station_id":"ce4bgj92rcd13ifvqbe0","pricing_plan_id":"cebpf4jnsgd1na2vs0mg"},{"bike_id":"3991aac2-ec7f-43c8-801f-23e11845f2d6","system_id":"levelo_inurba_marseille","lat":43.2816,"lon":5.42655,"is_reserved":false,"is_disabled":false,"rental_uris":{"android":"levelo://app?vid=3991aac2-ec7f-43c8-801f-23e11845f2d6","ios":"levelo://app?vid=3991aac2-ec7f-43c8-801f-23e11845f2d6"},"vehicle_type_id":"4","last_reported":1735672018,"current_range_meters":38800,"station_id":"ce4bhnh2rcd13ifvqgug","pricing_plan_id":"cebpf4jnsgd1na2vs0mg"},{"bike_id":"ce1c9944-21d4-4e38-a0d0-bcf179789f8c","system_id":"levelo_inurba_marseille","lat":43.30812,"lon":5.38154,"is_reserved":false,"is_disabled":false,"rental_uris":{"android":"levelo://app?vid=ce1c9944-21d4-4e38-a0d0-bcf179789f8c","ios":"levelo://app?vid=ce1c9944-21d4-4e38-a0d0-bcf179789f8c"},"vehicle_type_id":"4","last_reported":1735672018,"current_range_meters":36800,"station_id":"ce4bgt12rcd13ifvqce0","pricing_plan_id":"cebpf4jnsgd1na2vs0mg"},{"bike_id":"a84c903a-16f0-44ed-becd-c6849674ff70","system_id":"levelo_inurba_marseille","lat":43.22927,"lon":5.353736,"is_reserved":false,"is_disabled":false,"rental_uris":{"android":"levelo://app?vid=a84c903a-16f0-44ed-becd-c6849674ff70","ios":"levelo://app?vid=a84c903a-16f0-44ed-becd-c6849674ff70"},"vehicle_type_id":"4","last_reported":1735672018,"current_range_meters":8000,"station_id":"cpo3532slgdg3j2ikp40","pricing_plan_id":"cebpf4jnsgd1na2vs0mg"},{"bike_id":"43a5f8f9-07bd-400d-9567-5ac9f9d2d8de","system_id":"levelo_inurba_marseille","lat":43.30603,"lon":5.37231,"is_reserved":false,"is_disabled":false,"rental_uris":{"android":"levelo://app?vid=43a5f8f9-07bd-400d-9567-5ac9f9d2d8de","ios":"levelo://app?vid=43a5f8f9-07bd-400d-9567-5ac9f9d2d8de"},"vehicle_type_id":"4","last_reported":1735672018,"current_range_meters":12400,"station_id":"ce4bgqh2rcd13ifvqc4g","pricing_plan_id":"cebpf4jnsgd1na2vs0mg"},{"bike_id":"fd8f4633-afe2-4be6-b0e9-8ae7cf81f111","system_id":"levelo_inurba_marseille","lat":43.28861,"lon":5.35848,"is_reserved":false,"is_disabled":false,"rental_uris":{"android":"levelo://app?vid=fd8f4633-afe2-4be6-b0e9-8ae7cf81f111","ios":"levelo://app?vid=fd8f4633-afe2-4be6-b0e9-8ae7cf81f111"},"vehicle_type_id":"4","last_reported":1735672018,"current_range_meters":36400,"station_id":"ce4bhb12rcd13ifvqem0","pricing_plan_id":"cebpf4jnsgd1na2vs0mg"},{"bike_id":"4a606822-e9f0-4a05-b24d-aefbbf534d02","system_id":"levelo_inurba_marseille","lat":43.29042,"lon":5.35912,"is_reserved":false,"is_disabled":false,"rental_uris":{"android":"levelo://app?vid=4a606822-e9f0-4a05-b24d-aefbbf534d02","ios":"levelo://app?vid=4a606822-e9f0-4a05-b24d-aefbbf534d02"},"vehicle_type_id":"4","last_reported":1735672018,"current_range_meters":28800,"station_id":"ce4bha92rcd13ifvqeg0","pricing_plan_id":"cebpf4jnsgd1na2vs0mg"},{"bike_id":"2883c41c-39eb-4845-acae-69dc461c442a","system_id":"levelo_inurba_marseille","lat":43.29746,"lon":5.37679,"is_reserved":false,"is_disabled":false,"rental_uris":{"android":"levelo://app?vid=2883c41c-39eb-4845-acae-69dc461c442a","ios":"levelo://app?vid=2883c41c-39eb-4845-acae-69dc461c442a"},"vehicle_type_id":"4","last_reported":1735672018,"current_range_meters":38800,"station_id":"ce4bgkh2rcd13ifvqbl0","pricing_plan_id":"cebpf4jnsgd1na2vs0mg"},{"bike_id":"8ad09b60-3a79-4fc1-9f8d-63dc687108f3","system_id":"levelo_inurba_marseille","lat":43.337444,"lon":5.374475,"is_reserved":false,"is_disabled":false,"rental_uris":{"android":"levelo://app?vid=8ad09b60-3a79-4fc1-9f8d-63dc687108f3","ios":"levelo://app?vid=8ad09b60-3a79-4fc1-9f8d-63dc687108f3"},"vehicle_type_id":"4","last_reported":1735672018,"current_range_meters":38000,"station_id":"","pricing_plan_id":"cebpf4jnsgd1na2vs0mg"},{"bike_id":"aaf2847c-1c33-449a-8a3d-243e799ec2b1","system_id":"levelo_inurba_marseille","lat":43.23968,"lon":5.36638,"is_reserved":false,"is_disabled":false,"rental_uris":{"android":"levelo://app?vid=aaf2847c-1c33-449a-8a3d-243e799ec2b1","ios":"levelo://app?vid=aaf2847c-1c33-449a-8a3d-243e799ec2b1"},"vehicle_type_id":"4","last_reported":1735672018,"current_range_meters":38800,"station_id":"ce4bhi12rcd13ifvqfp0","pricing_plan_id":"cebpf4jnsgd1na2vs0mg"},{"bike_id":"1ae3e70f-d698-4298-928c-667173e54517","system_id":"levelo_inurba_marseille","lat":43.28702,"lon":5.39979,"is_reserved":false,"is_disabled":false,"rental_uris":{"android":"levelo://app?vid=1ae3e70f-d698-4298-928c-667173e54517","ios":"levelo://app?vid=1ae3e70f-d698-4298-928c-667173e54517"},"vehicle_type_id":"4","last_reported":1735672018,"current_range_meters":25200,"station_id":"ce4bho92rcd13ifvqh3g","pricing_plan_id":"cebpf4jnsgd1na2vs0mg"},{"bike_id":"5430a545-a0f1-45ad-a500-b4193006fdcf","system_id":"levelo_inurba_marseille","lat":43.23196,"lon":5.35555,"is_reserved":false,"is_disabled":false,"rental_uris":{"android":"levelo://app?vid=5430a545-a0f1-45ad-a500-b4193006fdcf","ios":"levelo://app?vid=5430a545-a0f1-45ad-a500-b4193006fdcf"},"vehicle_type_id":"4","last_reported":1735672018,"current_range_meters":28800,"station_id":"ce4bhu92rcd13ifvqi70","pricing_plan_id":"cebpf4jnsgd1na2vs0mg"},{"bike_id":"196691ed-fc7a-490c-8996-a8b33b1168cd","system_id":"levelo_inurba_marseille","lat":43.26806,"lon":5.40254,"is_reserved":false,"is_disabled":false,"rental_uris":{"android":"levelo://app?vid=196691ed-fc7a-490c-8996-a8b33b1168cd","ios":"levelo://app?vid=196691ed-fc7a-490c-8996-a8b33b1168cd"},"vehicle_type_id":"4","last_reported":1735672018,"current_range_meters":33200,"station_id":"ce501612rcd8frsf0b60","pricing_plan_id":"cebpf4jnsgd1na2vs0mg"},{"bike_id":"6e1c4718-254a-4d40-8026-73892ae658db","system_id":"levelo_inurba_marseille","lat":43.285706,"lon":5.371351,"is_reserved":false,"is_disabled":true,"rental_uris":{"android":"levelo://app?vid=6e1c4718-254a-4d40-8026-73892ae658db","ios":"levelo://app?vid=6e1c4718-254a-4d40-8026-73892ae658db"},"vehicle_type_id":"4","last_reported":1735672018,"current_range_meters":1600,"station_id":"ce4bht12rcd13ifvqi60","pricing_plan_id":"cebpf4jnsgd1na2vs0mg"},{"bike_id":"68e39612-ffc4-4e9c-a28d-8d678cad2545","system_id":"levelo_inurba_marseille","lat":43.27996,"lon":5.41641,"is_reserved":false,"is_disabled":false,"rental_uris":{"android":"levelo://app?vid=68e39612-ffc4-4e9c-a28d-8d678cad2545","ios":"levelo://app?vid=68e39612-ffc4-4e9c-a28d-8d678cad2545"},"vehicle_type_id":"4","last_reported":1735672018,"current_range_meters":10000,"station_id":"ce4bho12rcd13ifvqh1g","pricing_plan_id":"cebpf4jnsgd1na2vs0mg"},{"bike_id":"824dff05-92e2-41ca-b397-8ce5eeeb8764","system_id":"levelo_inurba_marseille","lat":43.29263,"lon":5.38455,"is_reserved":false,"is_disabled":false,"rental_uris":{"android":"levelo://app?vid=824dff05-92e2-41ca-b397-8ce5eeeb8764","ios":"levelo://app?vid=824dff05-92e2-41ca-b397-8ce5eeeb8764"},"vehicle_type_id":"4","last_reported":1735672018,"current_range_meters":20800,"station_id":"ce4bh692rcd13ifvqea0","pricing_plan_id":"cebpf4jnsgd1na2vs0mg"},{"bike_id":"4215b4d5-72d8-4983-a3ae-e1cdbdcb2381","system_id":"levelo_inurba_marseille","lat":43.2847,"lon":5.38409,"is_reserved":false,"is_disabled":false,"rental_uris":{"android":"levelo://app?vid=4215b4d5-72d8-4983-a3ae-e1cdbdcb2381","ios":"levelo://app?vid=4215b4d5-72d8-4983-a3ae-e1cdbdcb2381"},"vehicle_type_id":"4","last_reported":1735672018,"current_range_meters":28800,"station_id":"ce4bh512rcd13ifvqe3g","pricing_plan_id":"cebpf4jnsgd1na2vs0mg"},{"bike_id":"406c72fc-c815-4840-861a-36d7f7f2fd01","system_id":"levelo_inurba_marseille","lat":43.25499,"lon":5.37646,"is_reserved":false,"is_disabled":false,"rental_uris":{"android":"levelo://app?vid=406c72fc-c815-4840-861a-36d7f7f2fd01","ios":"levelo://app?vid=406c72fc-c815-4840-861a-36d7f7f2fd01"},"vehicle_type_id":"4","last_reported":1735672018,"current_range_meters":26000,"station_id":"ce4bhh12rcd13ifvqff0","pricing_plan_id":"cebpf4jnsgd1na2vs0mg"},{"bike_id":"d08aed72-c4aa-4b14-9e94-1554d28646fc","system_id":"levelo_inurba_marseille","lat":43.23961,"lon":5.3663,"is_reserved":false,"is_disabled":false,"rental_uris":{"android":"levelo://app?vid=d08aed72-c4aa-4b14-9e94-1554d28646fc","ios":"levelo://app?vid=d08aed72-c4aa-4b14-9e94-1554d28646fc"},"vehicle_type_id":"4","last_reported":1735672018,"current_range_meters":38800,"station_id":"ce4bhi12rcd13ifvqfp0","pricing_plan_id":"cebpf4jnsgd1na2vs0mg"},{"bike_id":"1e9e3505-f98d-4ac7-b45c-e821968c5506","system_id":"levelo_inurba_marseille","lat":43.23193,"lon":5.35562,"is_reserved":false,"is_disabled":false,"rental_uris":{"android":"levelo://app?vid=1e9e3505-f98d-4ac7-b45c-e821968c5506","ios":"levelo://app?vid=1e9e3505-f98d-4ac7-b45c-e821968c5506"},"vehicle_type_id":"4","last_reported":1735672018,"current_range_meters":15200,"station_id":"ce4bhu92rcd13ifvqi70","pricing_plan_id":"cebpf4jnsgd1na2vs0mg"},{"bike_id":"aca64c73-3970-4d23-8a6c-6e2006ffd322","system_id":"levelo_inurba_marseille","lat":43.30642,"lon":5.40066,"is_reserved":false,"is_disabled":false,"rental_uris":{"android":"levelo://app?vid=aca64c73-3970-4d23-8a6c-6e2006ffd322","ios":"levelo://app?vid=aca64c73-3970-4d23-8a6c-6e2006ffd322"},"vehicle_type_id":"4","last_reported":1735672018,"current_range_meters":38400,"station_id":"ce4bh112rcd13ifvqda0","pricing_plan_id":"cebpf4jnsgd1na2vs0mg"},{"bike_id":"29e41b02-be52-4633-b267-4292f5ed1d1a","system_id":"levelo_inurba_marseille","lat":43.25866,"lon":5.39911,"is_reserved":false,"is_disabled":false,"rental_uris":{"android":"levelo://app?vid=29e41b02-be52-4633-b267-4292f5ed1d1a","ios":"levelo://app?vid=29e41b02-be52-4633-b267-4292f5ed1d1a"},"vehicle_type_id":"4","last_reported":1735672018,"current_range_meters":8000,"station_id":"ce4bhl92rcd13ifvqghg","pricing_plan_id":"cebpf4jnsgd1na2vs0mg"},{"bike_id":"f535fec4-d7dc-4980-a2d0-5ccbbb0bef4c","system_id":"levelo_inurba_marseille","lat":43.28735,"lon":5.36073,"is_reserved":false,"is_disabled":false,"rental_uris":{"android":"levelo://app?vid=f535fec4-d7dc-4980-a2d0-5ccbbb0bef4c","ios":"levelo://app?vid=f535fec4-d7dc-4980-a2d0-5ccbbb0bef4c"},"vehicle_type_id":"4","last_reported":1735672018,"current_range_meters":31200,"station_id":"cki0cbj6b192h4jlfktg","pricing_plan_id":"cebpf4jnsgd1na2vs0mg"},{"bike_id":"0237a053-0987-4c55-8408-4f7416c38ed2","system_id":"levelo_inurba_marseille","lat":43.26209,"lon":5.37446,"is_reserved":false,"is_disabled":false,"rental_uris":{"android":"levelo://app?vid=0237a053-0987-4c55-8408-4f7416c38ed2","ios":"levelo://app?vid=0237a053-0987-4c55-8408-4f7416c38ed2"},"vehicle_type_id":"4","last_reported":1735672018,"current_range_meters":27600,"station_id":"ce4bhgp2rcd13ifvqfc0","pricing_plan_id":"cebpf4jnsgd1na2vs0mg"},{"bike_id":"ff49d49a-53c3-499a-b296-89a67f332a8a","system_id":"levelo_inurba_marseille","lat":43.24165,"lon":5.36404,"is_reserved":false,"is_disabled":false,"rental_uris":{"android":"levelo://app?vid=ff49d49a-53c3-499a-b296-89a67f332a8a","ios":"levelo://app?vid=ff49d49a-53c3-499a-b296-89a67f332a8a"},"vehicle_type_id":"4","last_reported":1735672018,"current_range_meters":35600,"station_id":"cpo36qri1sfpv3e86is0","pricing_plan_id":"cebpf4jnsgd1na2vs0mg"},{"bike_id":"903ad86c-bf54-4df0-9219-a19ece068185","system_id":"levelo_inurba_marseille","lat":43.30466,"lon":5.37912,"is_reserved":false,"is_disabled":false,"rental_uris":{"android":"levelo://app?vid=903ad86c-bf54-4df0-9219-a19ece068185","ios":"levelo://app?vid=903ad86c-bf54-4df0-9219-a19ece068185"},"vehicle_type_id":"4","last_reported":1735672018,"current_range_meters":24400,"station_id":"ce4bgup2rcd13ifvqcn0","pricing_plan_id":"cebpf4jnsgd1na2vs0mg"},{"bike_id":"10e4b9b4-8ec8-49cf-9335-5919fa302eb0","system_id":"levelo_inurba_marseille","lat":43.28658,"lon":5.36376,"is_reserved":false,"is_disabled":false,"rental_uris":{"android":"levelo://app?vid=10e4b9b4-8ec8-49cf-9335-5919fa302eb0","ios":"levelo://app?vid=10e4b9b4-8ec8-49cf-9335-5919fa302eb0"},"vehicle_type_id":"4","last_reported":1735672018,"current_range_meters":39200,"station_id":"ce4bhah2rcd13ifvqej0","pricing_plan_id":"cebpf4jnsgd1na2vs0mg"},{"bike_id":"d841d641-2f56-46e3-be38-87db9829533f","system_id":"levelo_inurba_marseille","lat":43.278118,"lon":5.407047,"is_reserved":false,"is_disabled":false,"rental_uris":{"android":"levelo://app?vid=d841d641-2f56-46e3-be38-87db9829533f","ios":"levelo://app?vid=d841d641-2f56-46e3-be38-87db9829533f"},"vehicle_type_id":"4","last_reported":1735672018,"current_range_meters":26000,"station_id":"ce4bhnh2rcd13ifvqgtg","pricing_plan_id":"cebpf4jnsgd1na2vs0mg"},{"bike_id":"c3ba5b5b-015c-4689-95a9-abcb1279b90e","system_id":"levelo_inurba_marseille","lat":43.24653,"lon":5.38896,"is_reserved":false,"is_disabled":false,"rental_uris":{"android":"levelo://app?vid=c3ba5b5b-015c-4689-95a9-abcb1279b90e","ios":"levelo://app?vid=c3ba5b5b-015c-4689-95a9-abcb1279b90e"},"vehicle_type_id":"4","last_reported":1735672018,"current_range_meters":39200,"station_id":"ce4bhg12rcd13ifvqf60","pricing_plan_id":"cebpf4jnsgd1na2vs0mg"},{"bike_id":"027085de-3c06-4c90-8099-b9537f78e863","system_id":"levelo_inurba_marseille","lat":43.23171,"lon":5.43674,"is_reserved":false,"is_disabled":false,"rental_uris":{"android":"levelo://app?vid=027085de-3c06-4c90-8099-b9537f78e863","ios":"levelo://app?vid=027085de-3c06-4c90-8099-b9537f78e863"},"vehicle_type_id":"4","last_reported":1735672018,"current_range_meters":37600,"station_id":"ce4bhmp2rcd13ifvqgog","pricing_plan_id":"cebpf4jnsgd1na2vs0mg"},{"bike_id":"9dd84d58-a945-4fc2-93ea-39fe0fd971f8","system_id":"levelo_inurba_marseille","lat":43.30599,"lon":5.37208,"is_reserved":false,"is_disabled":false,"rental_uris":{"android":"levelo://app?vid=9dd84d58-a945-4fc2-93ea-39fe0fd971f8","ios":"levelo://app?vid=9dd84d58-a945-4fc2-93ea-39fe0fd971f8"},"vehicle_type_id":"4","last_reported":1735672018,"current_range_meters":8400,"station_id":"ce4bgqh2rcd13ifvqc4g","pricing_plan_id":"cebpf4jnsgd1na2vs0mg"},{"bike_id":"13f84696-4405-43e0-b0f5-1a61d67abe32","system_id":"levelo_inurba_marseille","lat":43.2784,"lon":5.39179,"is_reserved":false,"is_disabled":false,"rental_uris":{"android":"levelo://app?vid=13f84696-4405-43e0-b0f5-1a61d67abe32","ios":"levelo://app?vid=13f84696-4405-43e0-b0f5-1a61d67abe32"},"vehicle_type_id":"4","last_reported":1735672018,"current_range_meters":12800,"station_id":"ce4bhjp2rcd13ifvqga0","pricing_plan_id":"cebpf4jnsgd1na2vs0mg"},{"bike_id":"d8f753da-bb1d-460e-9b5c-f17ba3b2167d","system_id":"levelo_inurba_marseille","lat":43.31321,"lon":5.39716,"is_reserved":false,"is_disabled":false,"rental_uris":{"android":"levelo://app?vid=d8f753da-bb1d-460e-9b5c-f17ba3b2167d","ios":"levelo://app?vid=d8f753da-bb1d-460e-9b5c-f17ba3b2167d"},"vehicle_type_id":"4","last_reported":1735672018,"current_range_meters":37600,"station_id":"ce4bgvp2rcd13ifvqcu0","pricing_plan_id":"cebpf4jnsgd1na2vs0mg"},{"bike_id":"317bbece-85f5-4709-8e50-643ba25a75ff","system_id":"levelo_inurba_marseille","lat":43.33797,"lon":5.37426,"is_reserved":false,"is_disabled":false,"rental_uris":{"android":"levelo://app?vid=317bbece-85f5-4709-8e50-643ba25a75ff","ios":"levelo://app?vid=317bbece-85f5-4709-8e50-643ba25a75ff"},"vehicle_type_id":"4","last_reported":1735672018,"current_range_meters":35200,"station_id":"","pricing_plan_id":"cebpf4jnsgd1na2vs0mg"},{"bike_id":"e7774da4-c308-4bfa-aba8-31efca07b3a0","system_id":"levelo_inurba_marseille","lat":43.33741,"lon":5.37467,"is_reserved":false,"is_disabled":false,"rental_uris":{"android":"levelo://app?vid=e7774da4-c308-4bfa-aba8-31efca07b3a0","ios":"levelo://app?vid=e7774da4-c308-4bfa-aba8-31efca07b3a0"},"vehicle_type_id":"4","last_reported":1735672018,"current_range_meters":11600,"station_id":"","pricing_plan_id":"cebpf4jnsgd1na2vs0mg"},{"bike_id":"73b91e80-0533-4be2-b5bd-7b363f8b278e","system_id":"levelo_inurba_marseille","lat":43.29512,"lon":5.39033,"is_reserved":false,"is_disabled":false,"rental_uris":{"android":"levelo://app?vid=73b91e80-0533-4be2-b5bd-7b363f8b278e","ios":"levelo://app?vid=73b91e80-0533-4be2-b5bd-7b363f8b278e"},"vehicle_type_id":"4","last_reported":1735672018,"current_range_meters":33600,"station_id":"ce4bh3p2rcd13ifvqdp0","pricing_plan_id":"cebpf4jnsgd1na2vs0mg"},{"bike_id":"4a148179-f63b-4968-b448-34cce1ed7112","system_id":"levelo_inurba_marseille","lat":43.30256,"lon":5.40065,"is_reserved":false,"is_disabled":false,"rental_uris":{"android":"levelo://app?vid=4a148179-f63b-4968-b448-34cce1ed7112","ios":"levelo://app?vid=4a148179-f63b-4968-b448-34cce1ed7112"},"vehicle_type_id":"4","last_reported":1735672018,"current_range_meters":23200,"station_id":"ce4bgvh2rcd13ifvqcs0","pricing_plan_id":"cebpf4jnsgd1na2vs0mg"},{"bike_id":"ad09079b-2a66-443a-a13d-b1f84ab569d5","system_id":"levelo_inurba_marseille","lat":43.25016,"lon":5.38946,"is_reserved":false,"is_disabled":false,"rental_uris":{"android":"levelo://app?vid=ad09079b-2a66-443a-a13d-b1f84ab569d5","ios":"levelo://app?vid=ad09079b-2a66-443a-a13d-b1f84ab569d5"},"vehicle_type_id":"4","last_reported":1735672018,"current_range_meters":38800,"station_id":"ce4bhgp2rcd13ifvqfd0","pricing_plan_id":"cebpf4jnsgd1na2vs0mg"},{"bike_id":"55cdd24f-9e2e-41e5-9590-d69333b5dd4a","system_id":"levelo_inurba_marseille","lat":43.28843,"lon":5.35874,"is_reserved":false,"is_disabled":false,"rental_uris":{"android":"levelo://app?vid=55cdd24f-9e2e-41e5-9590-d69333b5dd4a","ios":"levelo://app?vid=55cdd24f-9e2e-41e5-9590-d69333b5dd4a"},"vehicle_type_id":"4","last_reported":1735672018,"current_range_meters":12800,"station_id":"ce4bhb12rcd13ifvqem0","pricing_plan_id":"cebpf4jnsgd1na2vs0mg"},{"bike_id":"ccb45785-32f1-487c-ad38-245373097356","system_id":"levelo_inurba_marseille","lat":43.29584,"lon":5.37498,"is_reserved":false,"is_disabled":false,"rental_uris":{"android":"levelo://app?vid=ccb45785-32f1-487c-ad38-245373097356","ios":"levelo://app?vid=ccb45785-32f1-487c-ad38-245373097356"},"vehicle_type_id":"4","last_reported":1735672018,"current_range_meters":28400,"station_id":"ce4bgh92rcd13ifvqb50","pricing_plan_id":"cebpf4jnsgd1na2vs0mg"},{"bike_id":"6d0f719e-24d6-441b-8a4c-292713b0c930","system_id":"levelo_inurba_marseille","lat":43.30636,"lon":5.40068,"is_reserved":false,"is_disabled":false,"rental_uris":{"android":"levelo://app?vid=6d0f719e-24d6-441b-8a4c-292713b0c930","ios":"levelo://app?vid=6d0f719e-24d6-441b-8a4c-292713b0c930"},"vehicle_type_id":"4","last_reported":1735672018,"current_range_meters":3600,"station_id":"ce4bh112rcd13ifvqda0","pricing_plan_id":"cebpf4jnsgd1na2vs0mg"},{"bike_id":"8aee6e51-ec03-4d1e-a7f9-0bc033449db3","system_id":"levelo_inurba_marseille","lat":43.28427,"lon":5.37521,"is_reserved":false,"is_disabled":false,"rental_uris":{"android":"levelo://app?vid=8aee6e51-ec03-4d1e-a7f9-0bc033449db3","ios":"levelo://app?vid=8aee6e51-ec03-4d1e-a7f9-0bc033449db3"},"vehicle_type_id":"4","last_reported":1735672018,"current_range_meters":36000,"station_id":"ce4bh412rcd13ifvqds0","pricing_plan_id":"cebpf4jnsgd1na2vs0mg"},{"bike_id":"50e564c6-bac6-4676-b23d-37a9b174709c","system_id":"levelo_inurba_marseille","lat":43.28969,"lon":5.37833,"is_reserved":false,"is_disabled":false,"rental_uris":{"android":"levelo://app?vid=50e564c6-bac6-4676-b23d-37a9b174709c","ios":"levelo://app?vid=50e564c6-bac6-4676-b23d-37a9b174709c"},"vehicle_type_id":"4","last_reported":1735672018,"current_range_meters":10000,"station_id":"ce4bh9p2rcd13ifvqed0","pricing_plan_id":"cebpf4jnsgd1na2vs0mg"},{"bike_id":"da3075ee-8070-42f9-8350-58e475a60c82","system_id":"levelo_inurba_marseille","lat":43.2756,"lon":5.38435,"is_reserved":false,"is_disabled":false,"rental_uris":{"android":"levelo://app?vid=da3075ee-8070-42f9-8350-58e475a60c82","ios":"levelo://app?vid=da3075ee-8070-42f9-8350-58e475a60c82"},"vehicle_type_id":"4","last_reported":1735672018,"current_range_meters":38800,"station_id":"ce4bhh92rcd13ifvqfi0","pricing_plan_id":"cebpf4jnsgd1na2vs0mg"},{"bike_id":"24c2e369-c15f-447c-bc7c-8f25f1d4f701","system_id":"levelo_inurba_marseille","lat":43.2954,"lon":5.39033,"is_reserved":false,"is_disabled":false,"rental_uris":{"android":"levelo://app?vid=24c2e369-c15f-447c-bc7c-8f25f1d4f701","ios":"levelo://app?vid=24c2e369-c15f-447c-bc7c-8f25f1d4f701"},"vehicle_type_id":"4","last_reported":1735672018,"current_range_meters":35200,"station_id":"ce4bh3p2rcd13ifvqdp0","pricing_plan_id":"cebpf4jnsgd1na2vs0mg"},{"bike_id":"5c888b54-cc93-452b-bb56-ecd3b4949c8a","system_id":"levelo_inurba_marseille","lat":43.3054,"lon":5.36568,"is_reserved":false,"is_disabled":false,"rental_uris":{"android":"levelo://app?vid=5c888b54-cc93-452b-bb56-ecd3b4949c8a","ios":"levelo://app?vid=5c888b54-cc93-452b-bb56-ecd3b4949c8a"},"vehicle_type_id":"4","last_reported":1735672018,"current_range_meters":8800,"station_id":"ce4bgs12rcd13ifvqcag","pricing_plan_id":"cebpf4jnsgd1na2vs0mg"},{"bike_id":"f43d84ff-796a-4bba-b95e-c24234ead507","system_id":"levelo_inurba_marseille","lat":43.27917,"lon":5.39581,"is_reserved":false,"is_disabled":false,"rental_uris":{"android":"levelo://app?vid=f43d84ff-796a-4bba-b95e-c24234ead507","ios":"levelo://app?vid=f43d84ff-796a-4bba-b95e-c24234ead507"},"vehicle_type_id":"4","last_reported":1735672018,"current_range_meters":36800,"station_id":"ce4bhf92rcd13ifvqf40","pricing_plan_id":"cebpf4jnsgd1na2vs0mg"},{"bike_id":"9b28e3e3-888e-4039-9aef-6c9ec15b5d90","system_id":"levelo_inurba_marseille","lat":43.31071,"lon":5.38353,"is_reserved":false,"is_disabled":true,"rental_uris":{"android":"levelo://app?vid=9b28e3e3-888e-4039-9aef-6c9ec15b5d90","ios":"levelo://app?vid=9b28e3e3-888e-4039-9aef-6c9ec15b5d90"},"vehicle_type_id":"4","last_reported":1735672018,"current_range_meters":800,"station_id":"ce4bgv92rcd13ifvqcr0","pricing_plan_id":"cebpf4jnsgd1na2vs0mg"},{"bike_id":"c754264e-2257-42b1-89f9-0bf9a740ba42","system_id":"levelo_inurba_marseille","lat":43.27566,"lon":5.38423,"is_reserved":false,"is_disabled":false,"rental_uris":{"android":"levelo://app?vid=c754264e-2257-42b1-89f9-0bf9a740ba42","ios":"levelo://app?vid=c754264e-2257-42b1-89f9-0bf9a740ba42"},"vehicle_type_id":"4","last_reported":1735672018,"current_range_meters":29600,"station_id":"ce4bhh92rcd13ifvqfi0","pricing_plan_id":"cebpf4jnsgd1na2vs0mg"},{"bike_id":"176079e7-a6a0-459b-a3e0-964f2267d6d3","system_id":"levelo_inurba_marseille","lat":43.30633,"lon":5.40065,"is_reserved":false,"is_disabled":false,"rental_uris":{"android":"levelo://app?vid=176079e7-a6a0-459b-a3e0-964f2267d6d3","ios":"levelo://app?vid=176079e7-a6a0-459b-a3e0-964f2267d6d3"},"vehicle_type_id":"4","last_reported":1735672018,"current_range_meters":18000,"station_id":"ce4bh112rcd13ifvqda0","pricing_plan_id":"cebpf4jnsgd1na2vs0mg"},{"bike_id":"735ff0c0-8653-4625-aa82-399e9841b61f","system_id":"levelo_inurba_marseille","lat":43.28486,"lon":5.38418,"is_reserved":false,"is_disabled":false,"rental_uris":{"android":"levelo://app?vid=735ff0c0-8653-4625-aa82-399e9841b61f","ios":"levelo://app?vid=735ff0c0-8653-4625-aa82-399e9841b61f"},"vehicle_type_id":"4","last_reported":1735672018,"current_range_meters":5600,"station_id":"ce4bh512rcd13ifvqe3g","pricing_plan_id":"cebpf4jnsgd1na2vs0mg"},{"bike_id":"63d3d27f-f4c2-4cfa-99f6-359012ea8eb1","system_id":"levelo_inurba_marseille","lat":43.29578,"lon":5.37521,"is_reserved":false,"is_disabled":false,"rental_uris":{"android":"levelo://app?vid=63d3d27f-f4c2-4cfa-99f6-359012ea8eb1","ios":"levelo://app?vid=63d3d27f-f4c2-4cfa-99f6-359012ea8eb1"},"vehicle_type_id":"4","last_reported":1735672018,"current_range_meters":22000,"station_id":"ce4bgh92rcd13ifvqb50","pricing_plan_id":"cebpf4jnsgd1na2vs0mg"},{"bike_id":"b6c8d252-a8ce-43b1-a60c-c58406833311","system_id":"levelo_inurba_marseille","lat":43.27174,"lon":5.40993,"is_reserved":false,"is_disabled":false,"rental_uris":{"android":"levelo://app?vid=b6c8d252-a8ce-43b1-a60c-c58406833311","ios":"levelo://app?vid=b6c8d252-a8ce-43b1-a60c-c58406833311"},"vehicle_type_id":"4","last_reported":1735672018,"current_range_meters":16000,"station_id":"ce4bhl12rcd13ifvqgf0","pricing_plan_id":"cebpf4jnsgd1na2vs0mg"},{"bike_id":"6611339c-c6f1-4ce8-9613-d42f5088a636","system_id":"levelo_inurba_marseille","lat":43.26805,"lon":5.40272,"is_reserved":false,"is_disabled":false,"rental_uris":{"android":"levelo://app?vid=6611339c-c6f1-4ce8-9613-d42f5088a636","ios":"levelo://app?vid=6611339c-c6f1-4ce8-9613-d42f5088a636"},"vehicle_type_id":"4","last_reported":1735672018,"current_range_meters":38800,"station_id":"ce501612rcd8frsf0b60","pricing_plan_id":"cebpf4jnsgd1na2vs0mg"},{"bike_id":"291114f1-0bad-4b7e-bcfb-f091e30289af","system_id":"levelo_inurba_marseille","lat":43.30324,"lon":5.36903,"is_reserved":false,"is_disabled":false,"rental_uris":{"android":"levelo://app?vid=291114f1-0bad-4b7e-bcfb-f091e30289af","ios":"levelo://app?vid=291114f1-0bad-4b7e-bcfb-f091e30289af"},"vehicle_type_id":"4","last_reported":1735672018,"current_range_meters":38000,"station_id":"ce4bgqh2rcd13ifvqc5g","pricing_plan_id":"cebpf4jnsgd1na2vs0mg"},{"bike_id":"eb3534bb-86fb-40bc-b53c-4ee61573344b","system_id":"levelo_inurba_marseille","lat":43.28039,"lon":5.36943,"is_reserved":false,"is_disabled":false,"rental_uris":{"android":"levelo://app?vid=eb3534bb-86fb-40bc-b53c-4ee61573344b","ios":"levelo://app?vid=eb3534bb-86fb-40bc-b53c-4ee61573344b"},"vehicle_type_id":"4","last_reported":1735672018,"current_range_meters":29600,"station_id":"ce4bha12rcd13ifvqef0","pricing_plan_id":"cebpf4jnsgd1na2vs0mg"},{"bike_id":"a871e8bb-4f17-4f79-8bac-42efdc696fa0","system_id":"levelo_inurba_marseille","lat":43.29041,"lon":5.35602,"is_reserved":false,"is_disabled":false,"rental_uris":{"android":"levelo://app?vid=a871e8bb-4f17-4f79-8bac-42efdc696fa0","ios":"levelo://app?vid=a871e8bb-4f17-4f79-8bac-42efdc696fa0"},"vehicle_type_id":"4","last_reported":1735672018,"current_range_meters":38800,"station_id":"ce4bhb92rcd13ifvqen0","pricing_plan_id":"cebpf4jnsgd1na2vs0mg"},{"bike_id":"f51a7901-7b5f-4480-8e6b-99cb3fac34a9","system_id":"levelo_inurba_marseille","lat":43.29979,"lon":5.38487,"is_reserved":false,"is_disabled":false,"rental_uris":{"android":"levelo://app?vid=f51a7901-7b5f-4480-8e6b-99cb3fac34a9","ios":"levelo://app?vid=f51a7901-7b5f-4480-8e6b-99cb3fac34a9"},"vehicle_type_id":"4","last_reported":1735672018,"current_range_meters":38800,"station_id":"ce4bgj92rcd13ifvqbd0","pricing_plan_id":"cebpf4jnsgd1na2vs0mg"},{"bike_id":"f232324b-d77e-46de-9de7-a0d8abcbf52a","system_id":"levelo_inurba_marseille","lat":43.30882,"lon":5.37189,"is_reserved":false,"is_disabled":false,"rental_uris":{"android":"levelo://app?vid=f232324b-d77e-46de-9de7-a0d8abcbf52a","ios":"levelo://app?vid=f232324b-d77e-46de-9de7-a0d8abcbf52a"},"vehicle_type_id":"4","last_reported":1735672018,"current_range_meters":28800,"station_id":"ce4bguh2rcd13ifvqckg","pricing_plan_id":"cebpf4jnsgd1na2vs0mg"},{"bike_id":"83e30e09-e659-406b-b4b3-1c37a71ad2af","system_id":"levelo_inurba_marseille","lat":43.27508,"lon":5.42445,"is_reserved":false,"is_disabled":false,"rental_uris":{"android":"levelo://app?vid=83e30e09-e659-406b-b4b3-1c37a71ad2af","ios":"levelo://app?vid=83e30e09-e659-406b-b4b3-1c37a71ad2af"},"vehicle_type_id":"4","last_reported":1735672018,"current_range_meters":25200,"station_id":"ce4bhn92rcd13ifvqgrg","pricing_plan_id":"cebpf4jnsgd1na2vs0mg"},{"bike_id":"65595cbb-8679-460f-b0d4-ac51eb886b08","system_id":"levelo_inurba_marseille","lat":43.29199,"lon":5.39334,"is_reserved":false,"is_disabled":false,"rental_uris":{"android":"levelo://app?vid=65595cbb-8679-460f-b0d4-ac51eb886b08","ios":"levelo://app?vid=65595cbb-8679-460f-b0d4-ac51eb886b08"},"vehicle_type_id":"4","last_reported":1735672018,"current_range_meters":37600,"station_id":"ce4bh192rcd13ifvqdd0","pricing_plan_id":"cebpf4jnsgd1na2vs0mg"},{"bike_id":"edc4275d-5591-4bbe-8f28-4c856b8c851d","system_id":"levelo_inurba_marseille","lat":43.29803,"lon":5.38097,"is_reserved":false,"is_disabled":false,"rental_uris":{"android":"levelo://app?vid=edc4275d-5591-4bbe-8f28-4c856b8c851d","ios":"levelo://app?vid=edc4275d-5591-4bbe-8f28-4c856b8c851d"},"vehicle_type_id":"4","last_reported":1735672018,"current_range_meters":34800,"station_id":"ce4bgip2rcd13ifvqbb0","pricing_plan_id":"cebpf4jnsgd1na2vs0mg"},{"bike_id":"2f46ed5f-d621-4960-be21-137d8f9ca518","system_id":"levelo_inurba_marseille","lat":43.29264,"lon":5.38428,"is_reserved":false,"is_disabled":true,"rental_uris":{"android":"levelo://app?vid=2f46ed5f-d621-4960-be21-137d8f9ca518","ios":"levelo://app?vid=2f46ed5f-d621-4960-be21-137d8f9ca518"},"vehicle_type_id":"4","last_reported":1735672018,"current_range_meters":9200,"station_id":"ce4bh692rcd13ifvqea0","pricing_plan_id":"cebpf4jnsgd1na2vs0mg"},{"bike_id":"a87e4111-653d-4c79-b009-b173a2dd1186","system_id":"levelo_inurba_marseille","lat":43.29026,"lon":5.38646,"is_reserved":false,"is_disabled":false,"rental_uris":{"android":"levelo://app?vid=a87e4111-653d-4c79-b009-b173a2dd1186","ios":"levelo://app?vid=a87e4111-653d-4c79-b009-b173a2dd1186"},"vehicle_type_id":"4","last_reported":1735672018,"current_range_meters":13600,"station_id":"ce4bh4p2rcd13ifvqe0g","pricing_plan_id":"cebpf4jnsgd1na2vs0mg"},{"bike_id":"57103b12-06fc-494b-9a1a-1903f8f245d5","system_id":"levelo_inurba_marseille","lat":43.28002,"lon":5.41662,"is_reserved":false,"is_disabled":false,"rental_uris":{"android":"levelo://app?vid=57103b12-06fc-494b-9a1a-1903f8f245d5","ios":"levelo://app?vid=57103b12-06fc-494b-9a1a-1903f8f245d5"},"vehicle_type_id":"4","last_reported":1735672018,"current_range_meters":7200,"station_id":"ce4bho12rcd13ifvqh1g","pricing_plan_id":"cebpf4jnsgd1na2vs0mg"},{"bike_id":"039b1909-5f5a-4f17-8242-0dfd70dd1f93","system_id":"levelo_inurba_marseille","lat":43.27811,"lon":5.4069,"is_reserved":false,"is_disabled":false,"rental_uris":{"android":"levelo://app?vid=039b1909-5f5a-4f17-8242-0dfd70dd1f93","ios":"levelo://app?vid=039b1909-5f5a-4f17-8242-0dfd70dd1f93"},"vehicle_type_id":"4","last_reported":1735672018,"current_range_meters":15200,"station_id":"ce4bhnh2rcd13ifvqgtg","pricing_plan_id":"cebpf4jnsgd1na2vs0mg"},{"bike_id":"21348762-b24d-4b2d-bc68-84e9f0125c38","system_id":"levelo_inurba_marseille","lat":43.22934,"lon":5.35369,"is_reserved":false,"is_disabled":false,"rental_uris":{"android":"levelo://app?vid=21348762-b24d-4b2d-bc68-84e9f0125c38","ios":"levelo://app?vid=21348762-b24d-4b2d-bc68-84e9f0125c38"},"vehicle_type_id":"4","last_reported":1735672018,"current_range_meters":35600,"station_id":"cpo3532slgdg3j2ikp40","pricing_plan_id":"cebpf4jnsgd1na2vs0mg"},{"bike_id":"659fcdb8-563f-4ff5-a17b-210fddf7e920","system_id":"levelo_inurba_marseille","lat":43.287296,"lon":5.379369,"is_reserved":false,"is_disabled":false,"rental_uris":{"android":"levelo://app?vid=659fcdb8-563f-4ff5-a17b-210fddf7e920","ios":"levelo://app?vid=659fcdb8-563f-4ff5-a17b-210fddf7e920"},"vehicle_type_id":"4","last_reported":1735672018,"current_range_meters":32000,"station_id":"ce4bh9p2rcd13ifvqec0","pricing_plan_id":"cebpf4jnsgd1na2vs0mg"},{"bike_id":"7dc9268b-a5a2-48f6-8871-139867d40511","system_id":"levelo_inurba_marseille","lat":43.31283,"lon":5.40179,"is_reserved":false,"is_disabled":false,"rental_uris":{"android":"levelo://app?vid=7dc9268b-a5a2-48f6-8871-139867d40511","ios":"levelo://app?vid=7dc9268b-a5a2-48f6-8871-139867d40511"},"vehicle_type_id":"4","last_reported":1735672018,"current_range_meters":2800,"station_id":"ce4bh092rcd13ifvqd30","pricing_plan_id":"cebpf4jnsgd1na2vs0mg"},{"bike_id":"30a49652-d136-44e4-a4d9-d7c1b83f0627","system_id":"levelo_inurba_marseille","lat":43.337444,"lon":5.374475,"is_reserved":false,"is_disabled":false,"rental_uris":{"android":"levelo://app?vid=30a49652-d136-44e4-a4d9-d7c1b83f0627","ios":"levelo://app?vid=30a49652-d136-44e4-a4d9-d7c1b83f0627"},"vehicle_type_id":"4","last_reported":1735672018,"current_range_meters":17600,"station_id":"","pricing_plan_id":"cebpf4jnsgd1na2vs0mg"},{"bike_id":"1683a6ff-78df-47d7-8bd3-e1c7b6de1a98","system_id":"levelo_inurba_marseille","lat":43.31681,"lon":5.40503,"is_reserved":false,"is_disabled":false,"rental_uris":{"android":"levelo://app?vid=1683a6ff-78df-47d7-8bd3-e1c7b6de1a98","ios":"levelo://app?vid=1683a6ff-78df-47d7-8bd3-e1c7b6de1a98"},"vehicle_type_id":"4","last_reported":1735672018,"current_range_meters":24000,"station_id":"ce4bh012rcd13ifvqd00","pricing_plan_id":"cebpf4jnsgd1na2vs0mg"},{"bike_id":"b8f199fc-2ec3-4cea-89a8-539f8a9d9d79","system_id":"levelo_inurba_marseille","lat":43.2901,"lon":5.38128,"is_reserved":false,"is_disabled":false,"rental_uris":{"android":"levelo://app?vid=b8f199fc-2ec3-4cea-89a8-539f8a9d9d79","ios":"levelo://app?vid=b8f199fc-2ec3-4cea-89a8-539f8a9d9d79"},"vehicle_type_id":"4","last_reported":1735672018,"current_range_meters":38800,"station_id":"ce4bh4p2rcd13ifvqe1g","pricing_plan_id":"cebpf4jnsgd1na2vs0mg"},{"bike_id":"6f806eab-2a3d-4fcd-8c12-1368663c53d0","system_id":"levelo_inurba_marseille","lat":43.29276,"lon":5.36848,"is_reserved":false,"is_disabled":false,"rental_uris":{"android":"levelo://app?vid=6f806eab-2a3d-4fcd-8c12-1368663c53d0","ios":"levelo://app?vid=6f806eab-2a3d-4fcd-8c12-1368663c53d0"},"vehicle_type_id":"4","last_reported":1735672018,"current_range_meters":4800,"station_id":"ce4bhbp2rcd13ifvqesg","pricing_plan_id":"cebpf4jnsgd1na2vs0mg"},{"bike_id":"5b744b90-1060-437b-b3d1-3a60c6232327","system_id":"levelo_inurba_marseille","lat":43.27916,"lon":5.39584,"is_reserved":false,"is_disabled":false,"rental_uris":{"android":"levelo://app?vid=5b744b90-1060-437b-b3d1-3a60c6232327","ios":"levelo://app?vid=5b744b90-1060-437b-b3d1-3a60c6232327"},"vehicle_type_id":"4","last_reported":1735672018,"current_range_meters":19200,"station_id":"ce4bhf92rcd13ifvqf40","pricing_plan_id":"cebpf4jnsgd1na2vs0mg"},{"bike_id":"a5ea3ca6-15f0-4da1-9500-9a552a65a726","system_id":"levelo_inurba_marseille","lat":43.25024,"lon":5.38927,"is_reserved":false,"is_disabled":true,"rental_uris":{"android":"levelo://app?vid=a5ea3ca6-15f0-4da1-9500-9a552a65a726","ios":"levelo://app?vid=a5ea3ca6-15f0-4da1-9500-9a552a65a726"},"vehicle_type_id":"4","last_reported":1735672018,"current_range_meters":0,"station_id":"ce4bhgp2rcd13ifvqfd0","pricing_plan_id":"cebpf4jnsgd1na2vs0mg"},{"bike_id":"dc1ed8b8-c631-4f8f-943c-6b95478fef90","system_id":"levelo_inurba_marseille","lat":43.28978,"lon":5.378323,"is_reserved":false,"is_disabled":false,"rental_uris":{"android":"levelo://app?vid=dc1ed8b8-c631-4f8f-943c-6b95478fef90","ios":"levelo://app?vid=dc1ed8b8-c631-4f8f-943c-6b95478fef90"},"vehicle_type_id":"4","last_reported":1735672018,"current_range_meters":27600,"station_id":"ce4bh9p2rcd13ifvqed0","pricing_plan_id":"cebpf4jnsgd1na2vs0mg"},{"bike_id":"121ed049-1e17-4de4-96db-abaaf3e440dc","system_id":"levelo_inurba_marseille","lat":43.27209,"lon":5.39179,"is_reserved":false,"is_disabled":false,"rental_uris":{"android":"levelo://app?vid=121ed049-1e17-4de4-96db-abaaf3e440dc","ios":"levelo://app?vid=121ed049-1e17-4de4-96db-abaaf3e440dc"},"vehicle_type_id":"4","last_reported":1735672018,"current_range_meters":14400,"station_id":"ce4bhhp2rcd13ifvqfm0","pricing_plan_id":"cebpf4jnsgd1na2vs0mg"},{"bike_id":"bfe8a4b9-61b7-4666-a6ec-eff508713f28","system_id":"levelo_inurba_marseille","lat":43.28927,"lon":5.38384,"is_reserved":false,"is_disabled":false,"rental_uris":{"android":"levelo://app?vid=bfe8a4b9-61b7-4666-a6ec-eff508713f28","ios":"levelo://app?vid=bfe8a4b9-61b7-4666-a6ec-eff508713f28"},"vehicle_type_id":"4","last_reported":1735672018,"current_range_meters":30400,"station_id":"ce4bh612rcd13ifvqe6g","pricing_plan_id":"cebpf4jnsgd1na2vs0mg"},{"bike_id":"1ce05690-65ba-4e15-b28c-5fd535e467f0","system_id":"levelo_inurba_marseille","lat":43.32057,"lon":5.41555,"is_reserved":false,"is_disabled":false,"rental_uris":{"android":"levelo://app?vid=1ce05690-65ba-4e15-b28c-5fd535e467f0","ios":"levelo://app?vid=1ce05690-65ba-4e15-b28c-5fd535e467f0"},"vehicle_type_id":"4","last_reported":1735672018,"current_range_meters":11200,"station_id":"ce4bhq92rcd13ifvqhkg","pricing_plan_id":"cebpf4jnsgd1na2vs0mg"},{"bike_id":"d996ebe6-a085-4671-8aef-57e91ba860dc","system_id":"levelo_inurba_marseille","lat":43.268,"lon":5.40265,"is_reserved":false,"is_disabled":false,"rental_uris":{"android":"levelo://app?vid=d996ebe6-a085-4671-8aef-57e91ba860dc","ios":"levelo://app?vid=d996ebe6-a085-4671-8aef-57e91ba860dc"},"vehicle_type_id":"4","last_reported":1735672018,"current_range_meters":32000,"station_id":"ce501612rcd8frsf0b60","pricing_plan_id":"cebpf4jnsgd1na2vs0mg"},{"bike_id":"1fa11319-427d-42b2-8f07-2d78d11bd9fa","system_id":"levelo_inurba_marseille","lat":43.31084,"lon":5.42432,"is_reserved":false,"is_disabled":false,"rental_uris":{"android":"levelo://app?vid=1fa11319-427d-42b2-8f07-2d78d11bd9fa","ios":"levelo://app?vid=1fa11319-427d-42b2-8f07-2d78d11bd9fa"},"vehicle_type_id":"4","last_reported":1735672018,"current_range_meters":27200,"station_id":"ce4bhp92rcd13ifvqhag","pricing_plan_id":"cebpf4jnsgd1na2vs0mg"},{"bike_id":"917c2d2e-24fa-4604-a29f-ea870ef9615d","system_id":"levelo_inurba_marseille","lat":43.30156,"lon":5.38078,"is_reserved":false,"is_disabled":false,"rental_uris":{"android":"levelo://app?vid=917c2d2e-24fa-4604-a29f-ea870ef9615d","ios":"levelo://app?vid=917c2d2e-24fa-4604-a29f-ea870ef9615d"},"vehicle_type_id":"4","last_reported":1735672018,"current_range_meters":32400,"station_id":"ce4bgjp2rcd13ifvqbh0","pricing_plan_id":"cebpf4jnsgd1na2vs0mg"},{"bike_id":"261f84eb-7209-4691-ba89-1395784a623f","system_id":"levelo_inurba_marseille","lat":43.27552,"lon":5.38407,"is_reserved":false,"is_disabled":false,"rental_uris":{"android":"levelo://app?vid=261f84eb-7209-4691-ba89-1395784a623f","ios":"levelo://app?vid=261f84eb-7209-4691-ba89-1395784a623f"},"vehicle_type_id":"4","last_reported":1735672018,"current_range_meters":32400,"station_id":"ce4bhh92rcd13ifvqfi0","pricing_plan_id":"cebpf4jnsgd1na2vs0mg"},{"bike_id":"f36d3df0-e396-4469-ae9b-63c2e2bfbce3","system_id":"levelo_inurba_marseille","lat":43.25081,"lon":5.39513,"is_reserved":false,"is_disabled":false,"rental_uris":{"android":"levelo://app?vid=f36d3df0-e396-4469-ae9b-63c2e2bfbce3","ios":"levelo://app?vid=f36d3df0-e396-4469-ae9b-63c2e2bfbce3"},"vehicle_type_id":"4","last_reported":1735672018,"current_range_meters":22800,"station_id":"ce4bhm12rcd13ifvqgkg","pricing_plan_id":"cebpf4jnsgd1na2vs0mg"},{"bike_id":"13d982bb-8619-45e3-88db-6b0cdd60e792","system_id":"levelo_inurba_marseille","lat":43.31177,"lon":5.38714,"is_reserved":false,"is_disabled":false,"rental_uris":{"android":"levelo://app?vid=13d982bb-8619-45e3-88db-6b0cdd60e792","ios":"levelo://app?vid=13d982bb-8619-45e3-88db-6b0cdd60e792"},"vehicle_type_id":"4","last_reported":1735672018,"current_range_meters":6800,"station_id":"ce4bgv12rcd13ifvqcp0","pricing_plan_id":"cebpf4jnsgd1na2vs0mg"},{"bike_id":"0dd05275-a0d5-4e7b-9488-76132f9990c7","system_id":"levelo_inurba_marseille","lat":43.3176,"lon":5.39012,"is_reserved":false,"is_disabled":false,"rental_uris":{"android":"levelo://app?vid=0dd05275-a0d5-4e7b-9488-76132f9990c7","ios":"levelo://app?vid=0dd05275-a0d5-4e7b-9488-76132f9990c7"},"vehicle_type_id":"4","last_reported":1735672018,"current_range_meters":20400,"station_id":"ce4bhqp2rcd13ifvqhng","pricing_plan_id":"cebpf4jnsgd1na2vs0mg"},{"bike_id":"ea990fc9-5f95-4acd-a2be-29105099e24e","system_id":"levelo_inurba_marseille","lat":43.23063,"lon":5.35489,"is_reserved":false,"is_disabled":false,"rental_uris":{"android":"levelo://app?vid=ea990fc9-5f95-4acd-a2be-29105099e24e","ios":"levelo://app?vid=ea990fc9-5f95-4acd-a2be-29105099e24e"},"vehicle_type_id":"4","last_reported":1735672018,"current_range_meters":34000,"station_id":"cpo3342slgdg3j2ifvpg","pricing_plan_id":"cebpf4jnsgd1na2vs0mg"},{"bike_id":"0368d9b3-d1be-44a5-8dfe-102f703c5a85","system_id":"levelo_inurba_marseille","lat":43.29962,"lon":5.38529,"is_reserved":false,"is_disabled":false,"rental_uris":{"android":"levelo://app?vid=0368d9b3-d1be-44a5-8dfe-102f703c5a85","ios":"levelo://app?vid=0368d9b3-d1be-44a5-8dfe-102f703c5a85"},"vehicle_type_id":"4","last_reported":1735672018,"current_range_meters":26800,"station_id":"ce4bgj92rcd13ifvqbd0","pricing_plan_id":"cebpf4jnsgd1na2vs0mg"},{"bike_id":"2f37fc01-e46c-45db-9686-aa790d14f86b","system_id":"levelo_inurba_marseille","lat":43.30809,"lon":5.38144,"is_reserved":false,"is_disabled":true,"rental_uris":{"android":"levelo://app?vid=2f37fc01-e46c-45db-9686-aa790d14f86b","ios":"levelo://app?vid=2f37fc01-e46c-45db-9686-aa790d14f86b"},"vehicle_type_id":"4","last_reported":1735672018,"current_range_meters":1600,"station_id":"ce4bgt12rcd13ifvqce0","pricing_plan_id":"cebpf4jnsgd1na2vs0mg"},{"bike_id":"d88b134f-256d-48e7-b552-c65efb135fb5","system_id":"levelo_inurba_marseille","lat":43.29006,"lon":5.3562,"is_reserved":false,"is_disabled":false,"rental_uris":{"android":"levelo://app?vid=d88b134f-256d-48e7-b552-c65efb135fb5","ios":"levelo://app?vid=d88b134f-256d-48e7-b552-c65efb135fb5"},"vehicle_type_id":"4","last_reported":1735672018,"current_range_meters":13600,"station_id":"ce4bhb92rcd13ifvqen0","pricing_plan_id":"cebpf4jnsgd1na2vs0mg"},{"bike_id":"d13b199e-e620-4f52-ae43-9a360f46ed32","system_id":"levelo_inurba_marseille","lat":43.27997,"lon":5.39996,"is_reserved":false,"is_disabled":false,"rental_uris":{"android":"levelo://app?vid=d13b199e-e620-4f52-ae43-9a360f46ed32","ios":"levelo://app?vid=d13b199e-e620-4f52-ae43-9a360f46ed32"},"vehicle_type_id":"4","last_reported":1735672018,"current_range_meters":8800,"station_id":"ce4bho92rcd13ifvqh4g","pricing_plan_id":"cebpf4jnsgd1na2vs0mg"},{"bike_id":"442688b0-dd94-4f72-975c-aebb03b6909a","system_id":"levelo_inurba_marseille","lat":43.2796,"lon":5.38745,"is_reserved":false,"is_disabled":false,"rental_uris":{"android":"levelo://app?vid=442688b0-dd94-4f72-975c-aebb03b6909a","ios":"levelo://app?vid=442688b0-dd94-4f72-975c-aebb03b6909a"},"vehicle_type_id":"4","last_reported":1735672018,"current_range_meters":6800,"station_id":"ce4bhg12rcd13ifvqf80","pricing_plan_id":"cebpf4jnsgd1na2vs0mg"},{"bike_id":"45e301c1-c288-492f-b627-5481b2272a4d","system_id":"levelo_inurba_marseille","lat":43.28855,"lon":5.39292,"is_reserved":false,"is_disabled":false,"rental_uris":{"android":"levelo://app?vid=45e301c1-c288-492f-b627-5481b2272a4d","ios":"levelo://app?vid=45e301c1-c288-492f-b627-5481b2272a4d"},"vehicle_type_id":"4","last_reported":1735672018,"current_range_meters":38800,"station_id":"ce4bh2p2rcd13ifvqdi0","pricing_plan_id":"cebpf4jnsgd1na2vs0mg"},{"bike_id":"32afc6cc-1544-4f88-ab5c-34496cc35b04","system_id":"levelo_inurba_marseille","lat":43.230623,"lon":5.354833,"is_reserved":false,"is_disabled":false,"rental_uris":{"android":"levelo://app?vid=32afc6cc-1544-4f88-ab5c-34496cc35b04","ios":"levelo://app?vid=32afc6cc-1544-4f88-ab5c-34496cc35b04"},"vehicle_type_id":"4","last_reported":1735672018,"current_range_meters":16400,"station_id":"cpo3342slgdg3j2ifvpg","pricing_plan_id":"cebpf4jnsgd1na2vs0mg"},{"bike_id":"c725a866-2b31-4e95-9efe-74d860ec5294","system_id":"levelo_inurba_marseille","lat":43.27802,"lon":5.407,"is_reserved":false,"is_disabled":false,"rental_uris":{"android":"levelo://app?vid=c725a866-2b31-4e95-9efe-74d860ec5294","ios":"levelo://app?vid=c725a866-2b31-4e95-9efe-74d860ec5294"},"vehicle_type_id":"4","last_reported":1735672018,"current_range_meters":36400,"station_id":"ce4bhnh2rcd13ifvqgtg","pricing_plan_id":"cebpf4jnsgd1na2vs0mg"},{"bike_id":"5be1b31f-dfe5-4e9e-9157-5a3c3ea30403","system_id":"levelo_inurba_marseille","lat":43.28612,"lon":5.37055,"is_reserved":false,"is_disabled":false,"rental_uris":{"android":"levelo://app?vid=5be1b31f-dfe5-4e9e-9157-5a3c3ea30403","ios":"levelo://app?vid=5be1b31f-dfe5-4e9e-9157-5a3c3ea30403"},"vehicle_type_id":"4","last_reported":1735672018,"current_range_meters":37600,"station_id":"ce4bht12rcd13ifvqi60","pricing_plan_id":"cebpf4jnsgd1na2vs0mg"},{"bike_id":"5dd4b454-8f00-4a4d-8e43-ebde53b5b523","system_id":"levelo_inurba_marseille","lat":43.29619,"lon":5.37722,"is_reserved":false,"is_disabled":false,"rental_uris":{"android":"levelo://app?vid=5dd4b454-8f00-4a4d-8e43-ebde53b5b523","ios":"levelo://app?vid=5dd4b454-8f00-4a4d-8e43-ebde53b5b523"},"vehicle_type_id":"4","last_reported":1735672018,"current_range_meters":32000,"station_id":"ce4bgi92rcd13ifvqb90","pricing_plan_id":"cebpf4jnsgd1na2vs0mg"},{"bike_id":"e23ba3d7-11ac-4527-b656-df10f77aa271","system_id":"levelo_inurba_marseille","lat":43.28468,"lon":5.3589,"is_reserved":false,"is_disabled":false,"rental_uris":{"android":"levelo://app?vid=e23ba3d7-11ac-4527-b656-df10f77aa271","ios":"levelo://app?vid=e23ba3d7-11ac-4527-b656-df10f77aa271"},"vehicle_type_id":"4","last_reported":1735672018,"current_range_meters":32000,"station_id":"ce4bhah2rcd13ifvqei0","pricing_plan_id":"cebpf4jnsgd1na2vs0mg"},{"bike_id":"1183a29b-91c4-4f7b-83d5-384ed06e0ff8","system_id":"levelo_inurba_marseille","lat":43.30545,"lon":5.36541,"is_reserved":false,"is_disabled":false,"rental_uris":{"android":"levelo://app?vid=1183a29b-91c4-4f7b-83d5-384ed06e0ff8","ios":"levelo://app?vid=1183a29b-91c4-4f7b-83d5-384ed06e0ff8"},"vehicle_type_id":"4","last_reported":1735672018,"current_range_meters":38800,"station_id":"ce4bgs12rcd13ifvqcag","pricing_plan_id":"cebpf4jnsgd1na2vs0mg"},{"bike_id":"10ce9ef4-0278-4067-a42d-76f6ef2d1fb0","system_id":"levelo_inurba_marseille","lat":43.30901,"lon":5.36858,"is_reserved":false,"is_disabled":false,"rental_uris":{"android":"levelo://app?vid=10ce9ef4-0278-4067-a42d-76f6ef2d1fb0","ios":"levelo://app?vid=10ce9ef4-0278-4067-a42d-76f6ef2d1fb0"},"vehicle_type_id":"4","last_reported":1735672018,"current_range_meters":38000,"station_id":"ce4bgn92rcd13ifvqbvg","pricing_plan_id":"cebpf4jnsgd1na2vs0mg"},{"bike_id":"55e5bb48-d03c-42b0-885b-e5af4696496a","system_id":"levelo_inurba_marseille","lat":43.29578,"lon":5.37536,"is_reserved":false,"is_disabled":false,"rental_uris":{"android":"levelo://app?vid=55e5bb48-d03c-42b0-885b-e5af4696496a","ios":"levelo://app?vid=55e5bb48-d03c-42b0-885b-e5af4696496a"},"vehicle_type_id":"4","last_reported":1735672018,"current_range_meters":18800,"station_id":"ce4bgh92rcd13ifvqb50","pricing_plan_id":"cebpf4jnsgd1na2vs0mg"},{"bike_id":"d9039fb6-1526-43a5-ab47-bf6c74051347","system_id":"levelo_inurba_marseille","lat":43.28147,"lon":5.42645,"is_reserved":false,"is_disabled":false,"rental_uris":{"android":"levelo://app?vid=d9039fb6-1526-43a5-ab47-bf6c74051347","ios":"levelo://app?vid=d9039fb6-1526-43a5-ab47-bf6c74051347"},"vehicle_type_id":"4","last_reported":1735672018,"current_range_meters":9600,"station_id":"ce4bhnh2rcd13ifvqgug","pricing_plan_id":"cebpf4jnsgd1na2vs0mg"},{"bike_id":"b74500a5-af66-4b47-afef-28e42fa58582","system_id":"levelo_inurba_marseille","lat":43.27941,"lon":5.4105,"is_reserved":false,"is_disabled":false,"rental_uris":{"android":"levelo://app?vid=b74500a5-af66-4b47-afef-28e42fa58582","ios":"levelo://app?vid=b74500a5-af66-4b47-afef-28e42fa58582"},"vehicle_type_id":"4","last_reported":1735672018,"current_range_meters":18800,"station_id":"ce4bhnp2rcd13ifvqh0g","pricing_plan_id":"cebpf4jnsgd1na2vs0mg"},{"bike_id":"6064ec12-fed1-4382-8c65-b56e6316b33b","system_id":"levelo_inurba_marseille","lat":43.30651,"lon":5.40075,"is_reserved":false,"is_disabled":false,"rental_uris":{"android":"levelo://app?vid=6064ec12-fed1-4382-8c65-b56e6316b33b","ios":"levelo://app?vid=6064ec12-fed1-4382-8c65-b56e6316b33b"},"vehicle_type_id":"4","last_reported":1735672018,"current_range_meters":17200,"station_id":"ce4bh112rcd13ifvqda0","pricing_plan_id":"cebpf4jnsgd1na2vs0mg"},{"bike_id":"ce872ff4-1114-4dbb-a1cd-0587f9a75e23","system_id":"levelo_inurba_marseille","lat":43.24817,"lon":5.3747,"is_reserved":false,"is_disabled":false,"rental_uris":{"android":"levelo://app?vid=ce872ff4-1114-4dbb-a1cd-0587f9a75e23","ios":"levelo://app?vid=ce872ff4-1114-4dbb-a1cd-0587f9a75e23"},"vehicle_type_id":"4","last_reported":1735672018,"current_range_meters":38800,"station_id":"ce4bhgh2rcd13ifvqfb0","pricing_plan_id":"cebpf4jnsgd1na2vs0mg"},{"bike_id":"022d826a-d31d-48ef-b07e-f8dd0ceaa746","system_id":"levelo_inurba_marseille","lat":43.24996,"lon":5.38935,"is_reserved":false,"is_disabled":false,"rental_uris":{"android":"levelo://app?vid=022d826a-d31d-48ef-b07e-f8dd0ceaa746","ios":"levelo://app?vid=022d826a-d31d-48ef-b07e-f8dd0ceaa746"},"vehicle_type_id":"4","last_reported":1735672018,"current_range_meters":36000,"station_id":"ce4bhgp2rcd13ifvqfd0","pricing_plan_id":"cebpf4jnsgd1na2vs0mg"},{"bike_id":"4217ff41-e8ba-46f5-ac52-fc886c473e1a","system_id":"levelo_inurba_marseille","lat":43.29531,"lon":5.3853,"is_reserved":false,"is_disabled":false,"rental_uris":{"android":"levelo://app?vid=4217ff41-e8ba-46f5-ac52-fc886c473e1a","ios":"levelo://app?vid=4217ff41-e8ba-46f5-ac52-fc886c473e1a"},"vehicle_type_id":"4","last_reported":1735672018,"current_range_meters":19600,"station_id":"ce4bgih2rcd13ifvqba0","pricing_plan_id":"cebpf4jnsgd1na2vs0mg"},{"bike_id":"04e7867a-1371-4222-a6db-9d80083cea73","system_id":"levelo_inurba_marseille","lat":43.288483,"lon":5.358443,"is_reserved":false,"is_disabled":true,"rental_uris":{"android":"levelo://app?vid=04e7867a-1371-4222-a6db-9d80083cea73","ios":"levelo://app?vid=04e7867a-1371-4222-a6db-9d80083cea73"},"vehicle_type_id":"4","last_reported":1735672018,"current_range_meters":33600,"station_id":"ce4bhb12rcd13ifvqem0","pricing_plan_id":"cebpf4jnsgd1na2vs0mg"},{"bike_id":"6547f7eb-2dcd-4887-a850-2db8a2c85538","system_id":"levelo_inurba_marseille","lat":43.29579,"lon":5.37507,"is_reserved":false,"is_disabled":false,"rental_uris":{"android":"levelo://app?vid=6547f7eb-2dcd-4887-a850-2db8a2c85538","ios":"levelo://app?vid=6547f7eb-2dcd-4887-a850-2db8a2c85538"},"vehicle_type_id":"4","last_reported":1735672018,"current_range_meters":37600,"station_id":"ce4bgh92rcd13ifvqb50","pricing_plan_id":"cebpf4jnsgd1na2vs0mg"},{"bike_id":"97a26378-897a-4cc3-94fc-ef7846cd6637","system_id":"levelo_inurba_marseille","lat":43.31361,"lon":5.36741,"is_reserved":false,"is_disabled":true,"rental_uris":{"android":"levelo://app?vid=97a26378-897a-4cc3-94fc-ef7846cd6637","ios":"levelo://app?vid=97a26378-897a-4cc3-94fc-ef7846cd6637"},"vehicle_type_id":"4","last_reported":1735672018,"current_range_meters":0,"station_id":"ce4bgr92rcd13ifvqc6g","pricing_plan_id":"cebpf4jnsgd1na2vs0mg"},{"bike_id":"0c0d69f4-a415-4c75-aa1b-a4fc63bbefea","system_id":"levelo_inurba_marseille","lat":43.31211,"lon":5.36867,"is_reserved":false,"is_disabled":false,"rental_uris":{"android":"levelo://app?vid=0c0d69f4-a415-4c75-aa1b-a4fc63bbefea","ios":"levelo://app?vid=0c0d69f4-a415-4c75-aa1b-a4fc63bbefea"},"vehicle_type_id":"4","last_reported":1735672018,"current_range_meters":38800,"station_id":"ce4bgl92rcd13ifvqbq0","pricing_plan_id":"cebpf4jnsgd1na2vs0mg"},{"bike_id":"35b17bd6-9fc4-4921-b2fc-b42d1c96f20d","system_id":"levelo_inurba_marseille","lat":43.31721,"lon":5.42386,"is_reserved":false,"is_disabled":false,"rental_uris":{"android":"levelo://app?vid=35b17bd6-9fc4-4921-b2fc-b42d1c96f20d","ios":"levelo://app?vid=35b17bd6-9fc4-4921-b2fc-b42d1c96f20d"},"vehicle_type_id":"4","last_reported":1735672018,"current_range_meters":30800,"station_id":"ce4bhp92rcd13ifvqhbg","pricing_plan_id":"cebpf4jnsgd1na2vs0mg"},{"bike_id":"97aa09f8-1ccd-47ff-8094-273a0bae9e0a","system_id":"levelo_inurba_marseille","lat":43.296148,"lon":5.377118,"is_reserved":false,"is_disabled":false,"rental_uris":{"android":"levelo://app?vid=97aa09f8-1ccd-47ff-8094-273a0bae9e0a","ios":"levelo://app?vid=97aa09f8-1ccd-47ff-8094-273a0bae9e0a"},"vehicle_type_id":"4","last_reported":1735672018,"current_range_meters":30400,"station_id":"ce4bgi92rcd13ifvqb90","pricing_plan_id":"cebpf4jnsgd1na2vs0mg"},{"bike_id":"1ea09a78-ebb1-49fe-92c3-cba60f06d5b3","system_id":"levelo_inurba_marseille","lat":43.28469,"lon":5.38181,"is_reserved":false,"is_disabled":false,"rental_uris":{"android":"levelo://app?vid=1ea09a78-ebb1-49fe-92c3-cba60f06d5b3","ios":"levelo://app?vid=1ea09a78-ebb1-49fe-92c3-cba60f06d5b3"},"vehicle_type_id":"4","last_reported":1735672018,"current_range_meters":37600,"station_id":"","pricing_plan_id":"cebpf4jnsgd1na2vs0mg"},{"bike_id":"016e9495-5958-43c7-8a33-5362090be415","system_id":"levelo_inurba_marseille","lat":43.29004,"lon":5.35605,"is_reserved":false,"is_disabled":false,"rental_uris":{"android":"levelo://app?vid=016e9495-5958-43c7-8a33-5362090be415","ios":"levelo://app?vid=016e9495-5958-43c7-8a33-5362090be415"},"vehicle_type_id":"4","last_reported":1735672018,"current_range_meters":39200,"station_id":"ce4bhb92rcd13ifvqen0","pricing_plan_id":"cebpf4jnsgd1na2vs0mg"},{"bike_id":"a005e1bf-2999-4035-942d-1957469d29ca","system_id":"levelo_inurba_marseille","lat":43.24688,"lon":5.38167,"is_reserved":false,"is_disabled":true,"rental_uris":{"android":"levelo://app?vid=a005e1bf-2999-4035-942d-1957469d29ca","ios":"levelo://app?vid=a005e1bf-2999-4035-942d-1957469d29ca"},"vehicle_type_id":"4","last_reported":1735672018,"current_range_meters":36400,"station_id":"ce4bhih2rcd13ifvqfr0","pricing_plan_id":"cebpf4jnsgd1na2vs0mg"},{"bike_id":"f6c3569e-efa4-4a1c-b75b-94ded8df3e64","system_id":"levelo_inurba_marseille","lat":43.27953,"lon":5.38714,"is_reserved":false,"is_disabled":false,"rental_uris":{"android":"levelo://app?vid=f6c3569e-efa4-4a1c-b75b-94ded8df3e64","ios":"levelo://app?vid=f6c3569e-efa4-4a1c-b75b-94ded8df3e64"},"vehicle_type_id":"4","last_reported":1735672018,"current_range_meters":32000,"station_id":"ce4bhg12rcd13ifvqf80","pricing_plan_id":"cebpf4jnsgd1na2vs0mg"},{"bike_id":"1e9223a0-e23d-42d2-806f-4bd530fdddf4","system_id":"levelo_inurba_marseille","lat":43.28951,"lon":5.36386,"is_reserved":false,"is_disabled":false,"rental_uris":{"android":"levelo://app?vid=1e9223a0-e23d-42d2-806f-4bd530fdddf4","ios":"levelo://app?vid=1e9223a0-e23d-42d2-806f-4bd530fdddf4"},"vehicle_type_id":"4","last_reported":1735672018,"current_range_meters":36800,"station_id":"ce4bhc92rcd13ifvqetg","pricing_plan_id":"cebpf4jnsgd1na2vs0mg"},{"bike_id":"5510f670-eb3d-4a9d-951e-27e21575eef2","system_id":"levelo_inurba_marseille","lat":43.32488,"lon":5.36559,"is_reserved":false,"is_disabled":false,"rental_uris":{"android":"levelo://app?vid=5510f670-eb3d-4a9d-951e-27e21575eef2","ios":"levelo://app?vid=5510f670-eb3d-4a9d-951e-27e21575eef2"},"vehicle_type_id":"4","last_reported":1735672018,"current_range_meters":37600,"station_id":"ce4bhs12rcd13ifvqhvg","pricing_plan_id":"cebpf4jnsgd1na2vs0mg"},{"bike_id":"4c39f437-a5ef-4ec6-98f1-e0f11722d3df","system_id":"levelo_inurba_marseille","lat":43.29601,"lon":5.3774,"is_reserved":false,"is_disabled":false,"rental_uris":{"android":"levelo://app?vid=4c39f437-a5ef-4ec6-98f1-e0f11722d3df","ios":"levelo://app?vid=4c39f437-a5ef-4ec6-98f1-e0f11722d3df"},"vehicle_type_id":"4","last_reported":1735672018,"current_range_meters":11200,"station_id":"ce4bgi92rcd13ifvqb90","pricing_plan_id":"cebpf4jnsgd1na2vs0mg"},{"bike_id":"00138e32-e492-49ec-8baf-715fb2b9afd1","system_id":"levelo_inurba_marseille","lat":43.28057,"lon":5.35292,"is_reserved":false,"is_disabled":false,"rental_uris":{"android":"levelo://app?vid=00138e32-e492-49ec-8baf-715fb2b9afd1","ios":"levelo://app?vid=00138e32-e492-49ec-8baf-715fb2b9afd1"},"vehicle_type_id":"4","last_reported":1735672018,"current_range_meters":24800,"station_id":"ce4bhbh2rcd13ifvqeo0","pricing_plan_id":"cebpf4jnsgd1na2vs0mg"},{"bike_id":"a950d03b-25f2-4c21-b2c7-532e2907591c","system_id":"levelo_inurba_marseille","lat":43.29264,"lon":5.40903,"is_reserved":false,"is_disabled":false,"rental_uris":{"android":"levelo://app?vid=a950d03b-25f2-4c21-b2c7-532e2907591c","ios":"levelo://app?vid=a950d03b-25f2-4c21-b2c7-532e2907591c"},"vehicle_type_id":"4","last_reported":1735672018,"current_range_meters":30000,"station_id":"ce4bh192rcd13ifvqdc0","pricing_plan_id":"cebpf4jnsgd1na2vs0mg"},{"bike_id":"88744239-b9bf-4dc2-8375-ad9a4c79612f","system_id":"levelo_inurba_marseille","lat":43.26686,"lon":5.38273,"is_reserved":false,"is_disabled":false,"rental_uris":{"android":"levelo://app?vid=88744239-b9bf-4dc2-8375-ad9a4c79612f","ios":"levelo://app?vid=88744239-b9bf-4dc2-8375-ad9a4c79612f"},"vehicle_type_id":"4","last_reported":1735672018,"current_range_meters":30400,"station_id":"ce4bhg92rcd13ifvqf90","pricing_plan_id":"cebpf4jnsgd1na2vs0mg"},{"bike_id":"e7f232e6-9751-45f4-a24f-005b95d10947","system_id":"levelo_inurba_marseille","lat":43.29621,"lon":5.37713,"is_reserved":false,"is_disabled":true,"rental_uris":{"android":"levelo://app?vid=e7f232e6-9751-45f4-a24f-005b95d10947","ios":"levelo://app?vid=e7f232e6-9751-45f4-a24f-005b95d10947"},"vehicle_type_id":"4","last_reported":1735672018,"current_range_meters":30400,"station_id":"ce4bgi92rcd13ifvqb90","pricing_plan_id":"cebpf4jnsgd1na2vs0mg"},{"bike_id":"1f8555a0-5791-41f9-a2b7-899c5689a489","system_id":"levelo_inurba_marseille","lat":43.294098,"lon":5.386276,"is_reserved":false,"is_disabled":false,"rental_uris":{"android":"levelo://app?vid=1f8555a0-5791-41f9-a2b7-899c5689a489","ios":"levelo://app?vid=1f8555a0-5791-41f9-a2b7-899c5689a489"},"vehicle_type_id":"4","last_reported":1735672018,"current_range_meters":12400,"station_id":"ce4bh2h2rcd13ifvqdh0","pricing_plan_id":"cebpf4jnsgd1na2vs0mg"},{"bike_id":"2241734e-29b7-4c37-ae32-2588a0ac3a7c","system_id":"levelo_inurba_marseille","lat":43.32462,"lon":5.36561,"is_reserved":false,"is_disabled":false,"rental_uris":{"android":"levelo://app?vid=2241734e-29b7-4c37-ae32-2588a0ac3a7c","ios":"levelo://app?vid=2241734e-29b7-4c37-ae32-2588a0ac3a7c"},"vehicle_type_id":"4","last_reported":1735672018,"current_range_meters":37600,"station_id":"ce4bhs12rcd13ifvqhvg","pricing_plan_id":"cebpf4jnsgd1na2vs0mg"},{"bike_id":"c9075a3a-74fb-41ef-9075-b0c0ebb4ae58","system_id":"levelo_inurba_marseille","lat":43.29524,"lon":5.3905,"is_reserved":false,"is_disabled":false,"rental_uris":{"android":"levelo://app?vid=c9075a3a-74fb-41ef-9075-b0c0ebb4ae58","ios":"levelo://app?vid=c9075a3a-74fb-41ef-9075-b0c0ebb4ae58"},"vehicle_type_id":"4","last_reported":1735672018,"current_range_meters":37600,"station_id":"ce4bh3p2rcd13ifvqdp0","pricing_plan_id":"cebpf4jnsgd1na2vs0mg"},{"bike_id":"af1470c4-ef89-49d6-ba56-3e47ffd86133","system_id":"levelo_inurba_marseille","lat":43.29299,"lon":5.37436,"is_reserved":false,"is_disabled":true,"rental_uris":{"android":"levelo://app?vid=af1470c4-ef89-49d6-ba56-3e47ffd86133","ios":"levelo://app?vid=af1470c4-ef89-49d6-ba56-3e47ffd86133"},"vehicle_type_id":"4","last_reported":1735672018,"current_range_meters":25200,"station_id":"ce4bgi12rcd13ifvqb70","pricing_plan_id":"cebpf4jnsgd1na2vs0mg"},{"bike_id":"17ef13e4-22e4-4fb3-85c9-1955c9630116","system_id":"levelo_inurba_marseille","lat":43.29427,"lon":5.40161,"is_reserved":false,"is_disabled":false,"rental_uris":{"android":"levelo://app?vid=17ef13e4-22e4-4fb3-85c9-1955c9630116","ios":"levelo://app?vid=17ef13e4-22e4-4fb3-85c9-1955c9630116"},"vehicle_type_id":"4","last_reported":1735672018,"current_range_meters":30800,"station_id":"ce4bh312rcd13ifvqdj0","pricing_plan_id":"cebpf4jnsgd1na2vs0mg"},{"bike_id":"3f540ad6-20bc-4bc1-b630-df9772db11ce","system_id":"levelo_inurba_marseille","lat":43.29422,"lon":5.38611,"is_reserved":false,"is_disabled":false,"rental_uris":{"android":"levelo://app?vid=3f540ad6-20bc-4bc1-b630-df9772db11ce","ios":"levelo://app?vid=3f540ad6-20bc-4bc1-b630-df9772db11ce"},"vehicle_type_id":"4","last_reported":1735672018,"current_range_meters":36800,"station_id":"ce4bh2h2rcd13ifvqdh0","pricing_plan_id":"cebpf4jnsgd1na2vs0mg"},{"bike_id":"bf964ff7-d6c4-4655-aa3c-b44a133b182b","system_id":"levelo_inurba_marseille","lat":43.29007,"lon":5.35607,"is_reserved":false,"is_disabled":false,"rental_uris":{"android":"levelo://app?vid=bf964ff7-d6c4-4655-aa3c-b44a133b182b","ios":"levelo://app?vid=bf964ff7-d6c4-4655-aa3c-b44a133b182b"},"vehicle_type_id":"4","last_reported":1735672018,"current_range_meters":39200,"station_id":"ce4bhb92rcd13ifvqen0","pricing_plan_id":"cebpf4jnsgd1na2vs0mg"},{"bike_id":"249b7d84-ae92-4485-9955-60434e4f1837","system_id":"levelo_inurba_marseille","lat":43.25003,"lon":5.38945,"is_reserved":false,"is_disabled":false,"rental_uris":{"android":"levelo://app?vid=249b7d84-ae92-4485-9955-60434e4f1837","ios":"levelo://app?vid=249b7d84-ae92-4485-9955-60434e4f1837"},"vehicle_type_id":"4","last_reported":1735672018,"current_range_meters":22400,"station_id":"ce4bhgp2rcd13ifvqfd0","pricing_plan_id":"cebpf4jnsgd1na2vs0mg"},{"bike_id":"f5997a88-606e-48c9-933e-041b10894cea","system_id":"levelo_inurba_marseille","lat":43.2707,"lon":5.42281,"is_reserved":false,"is_disabled":false,"rental_uris":{"android":"levelo://app?vid=f5997a88-606e-48c9-933e-041b10894cea","ios":"levelo://app?vid=f5997a88-606e-48c9-933e-041b10894cea"},"vehicle_type_id":"4","last_reported":1735672018,"current_range_meters":23200,"station_id":"ce4bhk92rcd13ifvqgb0","pricing_plan_id":"cebpf4jnsgd1na2vs0mg"},{"bike_id":"be27c087-8760-4b20-a1b5-d6adf1caa60d","system_id":"levelo_inurba_marseille","lat":43.28028,"lon":5.36963,"is_reserved":false,"is_disabled":false,"rental_uris":{"android":"levelo://app?vid=be27c087-8760-4b20-a1b5-d6adf1caa60d","ios":"levelo://app?vid=be27c087-8760-4b20-a1b5-d6adf1caa60d"},"vehicle_type_id":"4","last_reported":1735672018,"current_range_meters":7200,"station_id":"ce4bha12rcd13ifvqef0","pricing_plan_id":"cebpf4jnsgd1na2vs0mg"},{"bike_id":"9fd2912b-0cec-41bd-8b4c-f0b1dc0cc36b","system_id":"levelo_inurba_marseille","lat":43.313611,"lon":5.384869,"is_reserved":false,"is_disabled":false,"rental_uris":{"android":"levelo://app?vid=9fd2912b-0cec-41bd-8b4c-f0b1dc0cc36b","ios":"levelo://app?vid=9fd2912b-0cec-41bd-8b4c-f0b1dc0cc36b"},"vehicle_type_id":"4","last_reported":1735672018,"current_range_meters":22400,"station_id":"","pricing_plan_id":"cebpf4jnsgd1na2vs0mg"},{"bike_id":"97ac4149-9f70-45de-9234-d34dbf67aef9","system_id":"levelo_inurba_marseille","lat":43.30878,"lon":5.39567,"is_reserved":false,"is_disabled":true,"rental_uris":{"android":"levelo://app?vid=97ac4149-9f70-45de-9234-d34dbf67aef9","ios":"levelo://app?vid=97ac4149-9f70-45de-9234-d34dbf67aef9"},"vehicle_type_id":"4","last_reported":1735672018,"current_range_meters":1200,"station_id":"","pricing_plan_id":"cebpf4jnsgd1na2vs0mg"},{"bike_id":"4a6abf84-b49f-4e56-82d8-813c484f4712","system_id":"levelo_inurba_marseille","lat":43.29027,"lon":5.38142,"is_reserved":false,"is_disabled":false,"rental_uris":{"android":"levelo://app?vid=4a6abf84-b49f-4e56-82d8-813c484f4712","ios":"levelo://app?vid=4a6abf84-b49f-4e56-82d8-813c484f4712"},"vehicle_type_id":"4","last_reported":1735672018,"current_range_meters":9200,"station_id":"ce4bh4p2rcd13ifvqe1g","pricing_plan_id":"cebpf4jnsgd1na2vs0mg"},{"bike_id":"4ae90592-e920-400e-8a25-b327a1d3d78f","system_id":"levelo_inurba_marseille","lat":43.24669,"lon":5.3817,"is_reserved":false,"is_disabled":false,"rental_uris":{"android":"levelo://app?vid=4ae90592-e920-400e-8a25-b327a1d3d78f","ios":"levelo://app?vid=4ae90592-e920-400e-8a25-b327a1d3d78f"},"vehicle_type_id":"4","last_reported":1735672018,"current_range_meters":8000,"station_id":"ce4bhih2rcd13ifvqfr0","pricing_plan_id":"cebpf4jnsgd1na2vs0mg"},{"bike_id":"fee29b35-d5ab-40ef-aff7-4a8a451182c6","system_id":"levelo_inurba_marseille","lat":43.31726,"lon":5.4241,"is_reserved":false,"is_disabled":false,"rental_uris":{"android":"levelo://app?vid=fee29b35-d5ab-40ef-aff7-4a8a451182c6","ios":"levelo://app?vid=fee29b35-d5ab-40ef-aff7-4a8a451182c6"},"vehicle_type_id":"4","last_reported":1735672018,"current_range_meters":15200,"station_id":"ce4bhp92rcd13ifvqhbg","pricing_plan_id":"cebpf4jnsgd1na2vs0mg"},{"bike_id":"87ea13a8-b255-4fcf-a52e-2ec737e02862","system_id":"levelo_inurba_marseille","lat":43.29802,"lon":5.38088,"is_reserved":false,"is_disabled":false,"rental_uris":{"android":"levelo://app?vid=87ea13a8-b255-4fcf-a52e-2ec737e02862","ios":"levelo://app?vid=87ea13a8-b255-4fcf-a52e-2ec737e02862"},"vehicle_type_id":"4","last_reported":1735672018,"current_range_meters":23200,"station_id":"ce4bgip2rcd13ifvqbb0","pricing_plan_id":"cebpf4jnsgd1na2vs0mg"},{"bike_id":"9f6f2313-c1a8-4417-b604-2f0daee035fc","system_id":"levelo_inurba_marseille","lat":43.23943,"lon":5.36634,"is_reserved":false,"is_disabled":false,"rental_uris":{"android":"levelo://app?vid=9f6f2313-c1a8-4417-b604-2f0daee035fc","ios":"levelo://app?vid=9f6f2313-c1a8-4417-b604-2f0daee035fc"},"vehicle_type_id":"4","last_reported":1735672018,"current_range_meters":29600,"station_id":"ce4bhi12rcd13ifvqfp0","pricing_plan_id":"cebpf4jnsgd1na2vs0mg"},{"bike_id":"8b694a53-74e1-494e-b821-12eeeaba401e","system_id":"levelo_inurba_marseille","lat":43.29566,"lon":5.37502,"is_reserved":false,"is_disabled":false,"rental_uris":{"android":"levelo://app?vid=8b694a53-74e1-494e-b821-12eeeaba401e","ios":"levelo://app?vid=8b694a53-74e1-494e-b821-12eeeaba401e"},"vehicle_type_id":"4","last_reported":1735672018,"current_range_meters":32000,"station_id":"ce4bgh92rcd13ifvqb50","pricing_plan_id":"cebpf4jnsgd1na2vs0mg"},{"bike_id":"1ad2bbd9-5e69-4682-9dd4-e38192e7682a","system_id":"levelo_inurba_marseille","lat":43.30541,"lon":5.36704,"is_reserved":false,"is_disabled":false,"rental_uris":{"android":"levelo://app?vid=1ad2bbd9-5e69-4682-9dd4-e38192e7682a","ios":"levelo://app?vid=1ad2bbd9-5e69-4682-9dd4-e38192e7682a"},"vehicle_type_id":"4","last_reported":1735672018,"current_range_meters":30400,"station_id":"ce4bgrp2rcd13ifvqc9g","pricing_plan_id":"cebpf4jnsgd1na2vs0mg"},{"bike_id":"e2e37fcf-bdca-4703-b57b-04e9ac7eb714","system_id":"levelo_inurba_marseille","lat":43.3089,"lon":5.37205,"is_reserved":false,"is_disabled":false,"rental_uris":{"android":"levelo://app?vid=e2e37fcf-bdca-4703-b57b-04e9ac7eb714","ios":"levelo://app?vid=e2e37fcf-bdca-4703-b57b-04e9ac7eb714"},"vehicle_type_id":"4","last_reported":1735672018,"current_range_meters":39200,"station_id":"ce4bguh2rcd13ifvqckg","pricing_plan_id":"cebpf4jnsgd1na2vs0mg"},{"bike_id":"3bab2653-c962-46e7-8d14-0cb64372ec3d","system_id":"levelo_inurba_marseille","lat":43.32053,"lon":5.41533,"is_reserved":false,"is_disabled":false,"rental_uris":{"android":"levelo://app?vid=3bab2653-c962-46e7-8d14-0cb64372ec3d","ios":"levelo://app?vid=3bab2653-c962-46e7-8d14-0cb64372ec3d"},"vehicle_type_id":"4","last_reported":1735672018,"current_range_meters":12800,"station_id":"ce4bhq92rcd13ifvqhkg","pricing_plan_id":"cebpf4jnsgd1na2vs0mg"},{"bike_id":"1ee63494-d345-4e03-a2de-12aa5412701a","system_id":"levelo_inurba_marseille","lat":43.28717,"lon":5.37403,"is_reserved":false,"is_disabled":false,"rental_uris":{"android":"levelo://app?vid=1ee63494-d345-4e03-a2de-12aa5412701a","ios":"levelo://app?vid=1ee63494-d345-4e03-a2de-12aa5412701a"},"vehicle_type_id":"4","last_reported":1735672018,"current_range_meters":24400,"station_id":"ce4bh3p2rcd13ifvqdq0","pricing_plan_id":"cebpf4jnsgd1na2vs0mg"},{"bike_id":"94e6dee2-3159-449e-9ee5-297188ebe26e","system_id":"levelo_inurba_marseille","lat":43.29912,"lon":5.37457,"is_reserved":false,"is_disabled":false,"rental_uris":{"android":"levelo://app?vid=94e6dee2-3159-449e-9ee5-297188ebe26e","ios":"levelo://app?vid=94e6dee2-3159-449e-9ee5-297188ebe26e"},"vehicle_type_id":"4","last_reported":1735672018,"current_range_meters":24800,"station_id":"ce4bgjh2rcd13ifvqbg0","pricing_plan_id":"cebpf4jnsgd1na2vs0mg"},{"bike_id":"abbfded5-56c2-44f5-8004-1e2a51b9d0ff","system_id":"levelo_inurba_marseille","lat":43.28157,"lon":5.42648,"is_reserved":false,"is_disabled":false,"rental_uris":{"android":"levelo://app?vid=abbfded5-56c2-44f5-8004-1e2a51b9d0ff","ios":"levelo://app?vid=abbfded5-56c2-44f5-8004-1e2a51b9d0ff"},"vehicle_type_id":"4","last_reported":1735672018,"current_range_meters":28800,"station_id":"ce4bhnh2rcd13ifvqgug","pricing_plan_id":"cebpf4jnsgd1na2vs0mg"},{"bike_id":"f72e2092-86ea-45e4-82c8-cadec6ed52d1","system_id":"levelo_inurba_marseille","lat":43.29299,"lon":5.3746,"is_reserved":false,"is_disabled":false,"rental_uris":{"android":"levelo://app?vid=f72e2092-86ea-45e4-82c8-cadec6ed52d1","ios":"levelo://app?vid=f72e2092-86ea-45e4-82c8-cadec6ed52d1"},"vehicle_type_id":"4","last_reported":1735672018,"current_range_meters":35600,"station_id":"ce4bgi12rcd13ifvqb70","pricing_plan_id":"cebpf4jnsgd1na2vs0mg"},{"bike_id":"92661c1f-2453-4d4c-b604-8fedb24ad172","system_id":"levelo_inurba_marseille","lat":43.28078,"lon":5.39653,"is_reserved":false,"is_disabled":false,"rental_uris":{"android":"levelo://app?vid=92661c1f-2453-4d4c-b604-8fedb24ad172","ios":"levelo://app?vid=92661c1f-2453-4d4c-b604-8fedb24ad172"},"vehicle_type_id":"4","last_reported":1735672018,"current_range_meters":39200,"station_id":"ce4bho12rcd13ifvqh2g","pricing_plan_id":"cebpf4jnsgd1na2vs0mg"},{"bike_id":"8cbc8b99-428c-4040-b86c-4e2c4fffea65","system_id":"levelo_inurba_marseille","lat":43.33759,"lon":5.37438,"is_reserved":false,"is_disabled":true,"rental_uris":{"android":"levelo://app?vid=8cbc8b99-428c-4040-b86c-4e2c4fffea65","ios":"levelo://app?vid=8cbc8b99-428c-4040-b86c-4e2c4fffea65"},"vehicle_type_id":"4","last_reported":1735672018,"current_range_meters":36800,"station_id":"","pricing_plan_id":"cebpf4jnsgd1na2vs0mg"},{"bike_id":"65e47f8e-8281-4877-9957-4bbb63858c4d","system_id":"levelo_inurba_marseille","lat":43.25726,"lon":5.41116,"is_reserved":false,"is_disabled":false,"rental_uris":{"android":"levelo://app?vid=65e47f8e-8281-4877-9957-4bbb63858c4d","ios":"levelo://app?vid=65e47f8e-8281-4877-9957-4bbb63858c4d"},"vehicle_type_id":"4","last_reported":1735672018,"current_range_meters":38000,"station_id":"ce4bhkp2rcd13ifvqgd0","pricing_plan_id":"cebpf4jnsgd1na2vs0mg"},{"bike_id":"94727536-92b3-4330-be97-3fb520d9b089","system_id":"levelo_inurba_marseille","lat":43.29798,"lon":5.39363,"is_reserved":false,"is_disabled":false,"rental_uris":{"android":"levelo://app?vid=94727536-92b3-4330-be97-3fb520d9b089","ios":"levelo://app?vid=94727536-92b3-4330-be97-3fb520d9b089"},"vehicle_type_id":"4","last_reported":1735672018,"current_range_meters":20800,"station_id":"chh1huq6cuj3fo74tm60","pricing_plan_id":"cebpf4jnsgd1na2vs0mg"},{"bike_id":"88c457a5-80f0-4f8c-bcc3-5aaaa3879cdd","system_id":"levelo_inurba_marseille","lat":43.25821,"lon":5.39438,"is_reserved":false,"is_disabled":false,"rental_uris":{"android":"levelo://app?vid=88c457a5-80f0-4f8c-bcc3-5aaaa3879cdd","ios":"levelo://app?vid=88c457a5-80f0-4f8c-bcc3-5aaaa3879cdd"},"vehicle_type_id":"4","last_reported":1735672018,"current_range_meters":22800,"station_id":"ce4bhip2rcd13ifvqft0","pricing_plan_id":"cebpf4jnsgd1na2vs0mg"},{"bike_id":"62af83b8-0bcb-4a53-9c44-e8ad4810fed3","system_id":"levelo_inurba_marseille","lat":43.26508,"lon":5.39533,"is_reserved":false,"is_disabled":false,"rental_uris":{"android":"levelo://app?vid=62af83b8-0bcb-4a53-9c44-e8ad4810fed3","ios":"levelo://app?vid=62af83b8-0bcb-4a53-9c44-e8ad4810fed3"},"vehicle_type_id":"4","last_reported":1735672018,"current_range_meters":27600,"station_id":"ce4bhi12rcd13ifvqfq0","pricing_plan_id":"cebpf4jnsgd1na2vs0mg"},{"bike_id":"cfd9b0aa-0985-41bd-a744-766658df9439","system_id":"levelo_inurba_marseille","lat":43.29833,"lon":5.37642,"is_reserved":false,"is_disabled":true,"rental_uris":{"android":"levelo://app?vid=cfd9b0aa-0985-41bd-a744-766658df9439","ios":"levelo://app?vid=cfd9b0aa-0985-41bd-a744-766658df9439"},"vehicle_type_id":"4","last_reported":1735672018,"current_range_meters":0,"station_id":"ce4bgjh2rcd13ifvqbg0","pricing_plan_id":"cebpf4jnsgd1na2vs0mg"},{"bike_id":"a10c051f-de08-4eb0-99f3-d381fbcfcfac","system_id":"levelo_inurba_marseille","lat":43.2796,"lon":5.38743,"is_reserved":false,"is_disabled":false,"rental_uris":{"android":"levelo://app?vid=a10c051f-de08-4eb0-99f3-d381fbcfcfac","ios":"levelo://app?vid=a10c051f-de08-4eb0-99f3-d381fbcfcfac"},"vehicle_type_id":"4","last_reported":1735672018,"current_range_meters":5600,"station_id":"ce4bhg12rcd13ifvqf80","pricing_plan_id":"cebpf4jnsgd1na2vs0mg"},{"bike_id":"b1815487-383e-42be-8a0b-8b8db0c2ceef","system_id":"levelo_inurba_marseille","lat":43.32275,"lon":5.38268,"is_reserved":false,"is_disabled":false,"rental_uris":{"android":"levelo://app?vid=b1815487-383e-42be-8a0b-8b8db0c2ceef","ios":"levelo://app?vid=b1815487-383e-42be-8a0b-8b8db0c2ceef"},"vehicle_type_id":"4","last_reported":1735672018,"current_range_meters":39200,"station_id":"ce4bhr12rcd13ifvqhqg","pricing_plan_id":"cebpf4jnsgd1na2vs0mg"},{"bike_id":"279daa1f-4887-4016-815d-2b468bca0cc3","system_id":"levelo_inurba_marseille","lat":43.26554,"lon":5.37277,"is_reserved":false,"is_disabled":false,"rental_uris":{"android":"levelo://app?vid=279daa1f-4887-4016-815d-2b468bca0cc3","ios":"levelo://app?vid=279daa1f-4887-4016-815d-2b468bca0cc3"},"vehicle_type_id":"4","last_reported":1735672018,"current_range_meters":28000,"station_id":"ce4bhg12rcd13ifvqf70","pricing_plan_id":"cebpf4jnsgd1na2vs0mg"},{"bike_id":"74bfd52b-7e46-465d-8766-e79667dc7763","system_id":"levelo_inurba_marseille","lat":43.320528,"lon":5.415326,"is_reserved":false,"is_disabled":false,"rental_uris":{"android":"levelo://app?vid=74bfd52b-7e46-465d-8766-e79667dc7763","ios":"levelo://app?vid=74bfd52b-7e46-465d-8766-e79667dc7763"},"vehicle_type_id":"4","last_reported":1735672018,"current_range_meters":38800,"station_id":"ce4bhq92rcd13ifvqhkg","pricing_plan_id":"cebpf4jnsgd1na2vs0mg"},{"bike_id":"a9ad46d6-1750-405f-8074-9378a5ffcb62","system_id":"levelo_inurba_marseille","lat":43.29574,"lon":5.37517,"is_reserved":false,"is_disabled":false,"rental_uris":{"android":"levelo://app?vid=a9ad46d6-1750-405f-8074-9378a5ffcb62","ios":"levelo://app?vid=a9ad46d6-1750-405f-8074-9378a5ffcb62"},"vehicle_type_id":"4","last_reported":1735672018,"current_range_meters":24400,"station_id":"ce4bgh92rcd13ifvqb50","pricing_plan_id":"cebpf4jnsgd1na2vs0mg"},{"bike_id":"df334d50-4421-42a5-a762-fb7f39807cc1","system_id":"levelo_inurba_marseille","lat":43.337444,"lon":5.374475,"is_reserved":false,"is_disabled":false,"rental_uris":{"android":"levelo://app?vid=df334d50-4421-42a5-a762-fb7f39807cc1","ios":"levelo://app?vid=df334d50-4421-42a5-a762-fb7f39807cc1"},"vehicle_type_id":"4","last_reported":1735672018,"current_range_meters":38400,"station_id":"","pricing_plan_id":"cebpf4jnsgd1na2vs0mg"},{"bike_id":"b1ba8e46-6352-4028-bfeb-07e690b71bc4","system_id":"levelo_inurba_marseille","lat":43.31688,"lon":5.40477,"is_reserved":false,"is_disabled":true,"rental_uris":{"android":"levelo://app?vid=b1ba8e46-6352-4028-bfeb-07e690b71bc4","ios":"levelo://app?vid=b1ba8e46-6352-4028-bfeb-07e690b71bc4"},"vehicle_type_id":"4","last_reported":1735672018,"current_range_meters":0,"station_id":"ce4bh012rcd13ifvqd00","pricing_plan_id":"cebpf4jnsgd1na2vs0mg"},{"bike_id":"35d7b981-f2f8-4e1f-bf58-6f3547d4e1f6","system_id":"levelo_inurba_marseille","lat":43.30306,"lon":5.36901,"is_reserved":false,"is_disabled":true,"rental_uris":{"android":"levelo://app?vid=35d7b981-f2f8-4e1f-bf58-6f3547d4e1f6","ios":"levelo://app?vid=35d7b981-f2f8-4e1f-bf58-6f3547d4e1f6"},"vehicle_type_id":"4","last_reported":1735672018,"current_range_meters":26800,"station_id":"ce4bgqh2rcd13ifvqc5g","pricing_plan_id":"cebpf4jnsgd1na2vs0mg"},{"bike_id":"3e2ae0bf-9cf9-4b47-bb7d-e8a9278da38e","system_id":"levelo_inurba_marseille","lat":43.30918,"lon":5.40161,"is_reserved":false,"is_disabled":false,"rental_uris":{"android":"levelo://app?vid=3e2ae0bf-9cf9-4b47-bb7d-e8a9278da38e","ios":"levelo://app?vid=3e2ae0bf-9cf9-4b47-bb7d-e8a9278da38e"},"vehicle_type_id":"4","last_reported":1735672018,"current_range_meters":34800,"station_id":"ce4bgvp2rcd13ifvqct0","pricing_plan_id":"cebpf4jnsgd1na2vs0mg"},{"bike_id":"847e09aa-0198-46d1-b907-778eecf50dd1","system_id":"levelo_inurba_marseille","lat":43.31218,"lon":5.36878,"is_reserved":false,"is_disabled":true,"rental_uris":{"android":"levelo://app?vid=847e09aa-0198-46d1-b907-778eecf50dd1","ios":"levelo://app?vid=847e09aa-0198-46d1-b907-778eecf50dd1"},"vehicle_type_id":"4","last_reported":1735672018,"current_range_meters":38800,"station_id":"ce4bgl92rcd13ifvqbq0","pricing_plan_id":"cebpf4jnsgd1na2vs0mg"},{"bike_id":"6c014656-e4a8-4595-9293-20a416106ed2","system_id":"levelo_inurba_marseille","lat":43.30654,"lon":5.40072,"is_reserved":false,"is_disabled":false,"rental_uris":{"android":"levelo://app?vid=6c014656-e4a8-4595-9293-20a416106ed2","ios":"levelo://app?vid=6c014656-e4a8-4595-9293-20a416106ed2"},"vehicle_type_id":"4","last_reported":1735672018,"current_range_meters":38800,"station_id":"ce4bh112rcd13ifvqda0","pricing_plan_id":"cebpf4jnsgd1na2vs0mg"},{"bike_id":"5367a292-5564-4681-91cd-97babb89fc00","system_id":"levelo_inurba_marseille","lat":43.22942,"lon":5.35359,"is_reserved":false,"is_disabled":false,"rental_uris":{"android":"levelo://app?vid=5367a292-5564-4681-91cd-97babb89fc00","ios":"levelo://app?vid=5367a292-5564-4681-91cd-97babb89fc00"},"vehicle_type_id":"4","last_reported":1735672018,"current_range_meters":26800,"station_id":"cpo3532slgdg3j2ikp40","pricing_plan_id":"cebpf4jnsgd1na2vs0mg"},{"bike_id":"1d5543c4-1c87-4447-ad2e-0cc64903ea75","system_id":"levelo_inurba_marseille","lat":43.25876,"lon":5.39912,"is_reserved":false,"is_disabled":false,"rental_uris":{"android":"levelo://app?vid=1d5543c4-1c87-4447-ad2e-0cc64903ea75","ios":"levelo://app?vid=1d5543c4-1c87-4447-ad2e-0cc64903ea75"},"vehicle_type_id":"4","last_reported":1735672018,"current_range_meters":16800,"station_id":"ce4bhl92rcd13ifvqghg","pricing_plan_id":"cebpf4jnsgd1na2vs0mg"},{"bike_id":"0483d5a5-12c2-4b90-8e6c-47d6d5a4b82c","system_id":"levelo_inurba_marseille","lat":43.25821,"lon":5.3945,"is_reserved":false,"is_disabled":false,"rental_uris":{"android":"levelo://app?vid=0483d5a5-12c2-4b90-8e6c-47d6d5a4b82c","ios":"levelo://app?vid=0483d5a5-12c2-4b90-8e6c-47d6d5a4b82c"},"vehicle_type_id":"4","last_reported":1735672018,"current_range_meters":39200,"station_id":"ce4bhip2rcd13ifvqft0","pricing_plan_id":"cebpf4jnsgd1na2vs0mg"},{"bike_id":"523f53b8-d5fa-4c60-a25e-8902b398e89d","system_id":"levelo_inurba_marseille","lat":43.29561,"lon":5.42286,"is_reserved":false,"is_disabled":false,"rental_uris":{"android":"levelo://app?vid=523f53b8-d5fa-4c60-a25e-8902b398e89d","ios":"levelo://app?vid=523f53b8-d5fa-4c60-a25e-8902b398e89d"},"vehicle_type_id":"4","last_reported":1735672018,"current_range_meters":38800,"station_id":"ce4bhph2rcd13ifvqhdg","pricing_plan_id":"cebpf4jnsgd1na2vs0mg"},{"bike_id":"66ad4ea9-62a7-4256-b00c-daf29a922c03","system_id":"levelo_inurba_marseille","lat":43.29289,"lon":5.37162,"is_reserved":false,"is_disabled":false,"rental_uris":{"android":"levelo://app?vid=66ad4ea9-62a7-4256-b00c-daf29a922c03","ios":"levelo://app?vid=66ad4ea9-62a7-4256-b00c-daf29a922c03"},"vehicle_type_id":"4","last_reported":1735672018,"current_range_meters":28400,"station_id":"ce4bgh92rcd13ifvqb40","pricing_plan_id":"cebpf4jnsgd1na2vs0mg"},{"bike_id":"aa153525-78e0-4122-ab1b-7135fab777c7","system_id":"levelo_inurba_marseille","lat":43.30882,"lon":5.37191,"is_reserved":false,"is_disabled":false,"rental_uris":{"android":"levelo://app?vid=aa153525-78e0-4122-ab1b-7135fab777c7","ios":"levelo://app?vid=aa153525-78e0-4122-ab1b-7135fab777c7"},"vehicle_type_id":"4","last_reported":1735672018,"current_range_meters":37600,"station_id":"ce4bguh2rcd13ifvqckg","pricing_plan_id":"cebpf4jnsgd1na2vs0mg"},{"bike_id":"90ea32f2-8b16-412b-9028-e97b2dd7bfd3","system_id":"levelo_inurba_marseille","lat":43.31719,"lon":5.40449,"is_reserved":false,"is_disabled":true,"rental_uris":{"android":"levelo://app?vid=90ea32f2-8b16-412b-9028-e97b2dd7bfd3","ios":"levelo://app?vid=90ea32f2-8b16-412b-9028-e97b2dd7bfd3"},"vehicle_type_id":"4","last_reported":1735672018,"current_range_meters":1200,"station_id":"ce4bh012rcd13ifvqd00","pricing_plan_id":"cebpf4jnsgd1na2vs0mg"},{"bike_id":"8d8a6dc7-213e-4acc-8975-2d28676862d5","system_id":"levelo_inurba_marseille","lat":43.29414,"lon":5.38635,"is_reserved":false,"is_disabled":false,"rental_uris":{"android":"levelo://app?vid=8d8a6dc7-213e-4acc-8975-2d28676862d5","ios":"levelo://app?vid=8d8a6dc7-213e-4acc-8975-2d28676862d5"},"vehicle_type_id":"4","last_reported":1735672018,"current_range_meters":17200,"station_id":"ce4bh2h2rcd13ifvqdh0","pricing_plan_id":"cebpf4jnsgd1na2vs0mg"},{"bike_id":"2510b6a6-e1f5-4b0d-8b81-62dab8730a91","system_id":"levelo_inurba_marseille","lat":43.28716,"lon":5.37948,"is_reserved":false,"is_disabled":false,"rental_uris":{"android":"levelo://app?vid=2510b6a6-e1f5-4b0d-8b81-62dab8730a91","ios":"levelo://app?vid=2510b6a6-e1f5-4b0d-8b81-62dab8730a91"},"vehicle_type_id":"4","last_reported":1735672018,"current_range_meters":30800,"station_id":"ce4bh9p2rcd13ifvqec0","pricing_plan_id":"cebpf4jnsgd1na2vs0mg"},{"bike_id":"6004bc3e-196b-493c-8152-74d332f1b6f6","system_id":"levelo_inurba_marseille","lat":43.24077,"lon":5.37758,"is_reserved":false,"is_disabled":false,"rental_uris":{"android":"levelo://app?vid=6004bc3e-196b-493c-8152-74d332f1b6f6","ios":"levelo://app?vid=6004bc3e-196b-493c-8152-74d332f1b6f6"},"vehicle_type_id":"4","last_reported":1735672018,"current_range_meters":35600,"station_id":"ce4bhnp2rcd13ifvqgvg","pricing_plan_id":"cebpf4jnsgd1na2vs0mg"},{"bike_id":"6164fd70-bd1e-4bfa-b09a-6196d7e0229b","system_id":"levelo_inurba_marseille","lat":43.2439,"lon":5.37058,"is_reserved":false,"is_disabled":false,"rental_uris":{"android":"levelo://app?vid=6164fd70-bd1e-4bfa-b09a-6196d7e0229b","ios":"levelo://app?vid=6164fd70-bd1e-4bfa-b09a-6196d7e0229b"},"vehicle_type_id":"4","last_reported":1735672018,"current_range_meters":39200,"station_id":"ce4bhhh2rcd13ifvqfk0","pricing_plan_id":"cebpf4jnsgd1na2vs0mg"},{"bike_id":"de79872f-8d1a-472c-a6f5-48f83de13cc5","system_id":"levelo_inurba_marseille","lat":43.2962,"lon":5.37172,"is_reserved":false,"is_disabled":false,"rental_uris":{"android":"levelo://app?vid=de79872f-8d1a-472c-a6f5-48f83de13cc5","ios":"levelo://app?vid=de79872f-8d1a-472c-a6f5-48f83de13cc5"},"vehicle_type_id":"4","last_reported":1735672018,"current_range_meters":22000,"station_id":"ce4bgnh2rcd13ifvqc0g","pricing_plan_id":"cebpf4jnsgd1na2vs0mg"},{"bike_id":"63ae1d22-8ef8-4b2b-9ad4-5214a3b5e559","system_id":"levelo_inurba_marseille","lat":43.28579,"lon":5.39496,"is_reserved":false,"is_disabled":false,"rental_uris":{"android":"levelo://app?vid=63ae1d22-8ef8-4b2b-9ad4-5214a3b5e559","ios":"levelo://app?vid=63ae1d22-8ef8-4b2b-9ad4-5214a3b5e559"},"vehicle_type_id":"4","last_reported":1735672018,"current_range_meters":22800,"station_id":"ce4bh292rcd13ifvqdg0","pricing_plan_id":"cebpf4jnsgd1na2vs0mg"},{"bike_id":"ca497fc6-cd22-4171-8d71-508c45bf12cf","system_id":"levelo_inurba_marseille","lat":43.29667,"lon":5.37161,"is_reserved":false,"is_disabled":true,"rental_uris":{"android":"levelo://app?vid=ca497fc6-cd22-4171-8d71-508c45bf12cf","ios":"levelo://app?vid=ca497fc6-cd22-4171-8d71-508c45bf12cf"},"vehicle_type_id":"4","last_reported":1735672018,"current_range_meters":0,"station_id":"","pricing_plan_id":"cebpf4jnsgd1na2vs0mg"},{"bike_id":"fdcb93a4-8a39-475e-8a0d-caf375d10c96","system_id":"levelo_inurba_marseille","lat":43.29568,"lon":5.37512,"is_reserved":false,"is_disabled":false,"rental_uris":{"android":"levelo://app?vid=fdcb93a4-8a39-475e-8a0d-caf375d10c96","ios":"levelo://app?vid=fdcb93a4-8a39-475e-8a0d-caf375d10c96"},"vehicle_type_id":"4","last_reported":1735672018,"current_range_meters":36000,"station_id":"ce4bgh92rcd13ifvqb50","pricing_plan_id":"cebpf4jnsgd1na2vs0mg"},{"bike_id":"290c4bd1-1f88-4606-a7c1-3a93ab186802","system_id":"levelo_inurba_marseille","lat":43.33032,"lon":5.39013,"is_reserved":false,"is_disabled":false,"rental_uris":{"android":"levelo://app?vid=290c4bd1-1f88-4606-a7c1-3a93ab186802","ios":"levelo://app?vid=290c4bd1-1f88-4606-a7c1-3a93ab186802"},"vehicle_type_id":"4","last_reported":1735672018,"current_range_meters":6400,"station_id":"ce4bhr92rcd13ifvqhrg","pricing_plan_id":"cebpf4jnsgd1na2vs0mg"},{"bike_id":"bbfc5010-5ad1-478a-9bf0-def17e142c1c","system_id":"levelo_inurba_marseille","lat":43.28035,"lon":5.36939,"is_reserved":false,"is_disabled":false,"rental_uris":{"android":"levelo://app?vid=bbfc5010-5ad1-478a-9bf0-def17e142c1c","ios":"levelo://app?vid=bbfc5010-5ad1-478a-9bf0-def17e142c1c"},"vehicle_type_id":"4","last_reported":1735672018,"current_range_meters":5600,"station_id":"ce4bha12rcd13ifvqef0","pricing_plan_id":"cebpf4jnsgd1na2vs0mg"},{"bike_id":"db876dbd-2ebb-4d71-becb-191aa214deba","system_id":"levelo_inurba_marseille","lat":43.29571,"lon":5.39974,"is_reserved":false,"is_disabled":false,"rental_uris":{"android":"levelo://app?vid=db876dbd-2ebb-4d71-becb-191aa214deba","ios":"levelo://app?vid=db876dbd-2ebb-4d71-becb-191aa214deba"},"vehicle_type_id":"4","last_reported":1735672018,"current_range_meters":6800,"station_id":"ce4bh312rcd13ifvqdj0","pricing_plan_id":"cebpf4jnsgd1na2vs0mg"},{"bike_id":"8c6775f0-8523-4aa2-9dea-60c50dd12624","system_id":"levelo_inurba_marseille","lat":43.248023,"lon":5.374527,"is_reserved":false,"is_disabled":false,"rental_uris":{"android":"levelo://app?vid=8c6775f0-8523-4aa2-9dea-60c50dd12624","ios":"levelo://app?vid=8c6775f0-8523-4aa2-9dea-60c50dd12624"},"vehicle_type_id":"4","last_reported":1735672018,"current_range_meters":31200,"station_id":"ce4bhgh2rcd13ifvqfb0","pricing_plan_id":"cebpf4jnsgd1na2vs0mg"},{"bike_id":"dac94ecf-3203-4c89-acc0-21c14e979588","system_id":"levelo_inurba_marseille","lat":43.26687,"lon":5.38277,"is_reserved":false,"is_disabled":false,"rental_uris":{"android":"levelo://app?vid=dac94ecf-3203-4c89-acc0-21c14e979588","ios":"levelo://app?vid=dac94ecf-3203-4c89-acc0-21c14e979588"},"vehicle_type_id":"4","last_reported":1735672018,"current_range_meters":14800,"station_id":"ce4bhg92rcd13ifvqf90","pricing_plan_id":"cebpf4jnsgd1na2vs0mg"},{"bike_id":"560a082e-860d-453b-bdd6-7a868105718c","system_id":"levelo_inurba_marseille","lat":43.26807,"lon":5.40251,"is_reserved":false,"is_disabled":false,"rental_uris":{"android":"levelo://app?vid=560a082e-860d-453b-bdd6-7a868105718c","ios":"levelo://app?vid=560a082e-860d-453b-bdd6-7a868105718c"},"vehicle_type_id":"4","last_reported":1735672018,"current_range_meters":38800,"station_id":"ce501612rcd8frsf0b60","pricing_plan_id":"cebpf4jnsgd1na2vs0mg"},{"bike_id":"51efddb8-47e8-425d-b50e-c7429c29d3e6","system_id":"levelo_inurba_marseille","lat":43.24807,"lon":5.3745,"is_reserved":false,"is_disabled":false,"rental_uris":{"android":"levelo://app?vid=51efddb8-47e8-425d-b50e-c7429c29d3e6","ios":"levelo://app?vid=51efddb8-47e8-425d-b50e-c7429c29d3e6"},"vehicle_type_id":"4","last_reported":1735672018,"current_range_meters":35600,"station_id":"ce4bhgh2rcd13ifvqfb0","pricing_plan_id":"cebpf4jnsgd1na2vs0mg"},{"bike_id":"9c42c59a-a990-48ee-91ac-32ebebcaabf5","system_id":"levelo_inurba_marseille","lat":43.275671,"lon":5.384161,"is_reserved":false,"is_disabled":false,"rental_uris":{"android":"levelo://app?vid=9c42c59a-a990-48ee-91ac-32ebebcaabf5","ios":"levelo://app?vid=9c42c59a-a990-48ee-91ac-32ebebcaabf5"},"vehicle_type_id":"4","last_reported":1735672018,"current_range_meters":38800,"station_id":"ce4bhh92rcd13ifvqfi0","pricing_plan_id":"cebpf4jnsgd1na2vs0mg"},{"bike_id":"cac04341-117f-41ea-ab22-25e13cf06104","system_id":"levelo_inurba_marseille","lat":43.30584,"lon":5.37201,"is_reserved":false,"is_disabled":false,"rental_uris":{"android":"levelo://app?vid=cac04341-117f-41ea-ab22-25e13cf06104","ios":"levelo://app?vid=cac04341-117f-41ea-ab22-25e13cf06104"},"vehicle_type_id":"4","last_reported":1735672018,"current_range_meters":37600,"station_id":"ce4bgqh2rcd13ifvqc4g","pricing_plan_id":"cebpf4jnsgd1na2vs0mg"},{"bike_id":"1793c5bc-f3cc-4c5b-bc53-bbaf531c71e9","system_id":"levelo_inurba_marseille","lat":43.30411,"lon":5.41305,"is_reserved":false,"is_disabled":false,"rental_uris":{"android":"levelo://app?vid=1793c5bc-f3cc-4c5b-bc53-bbaf531c71e9","ios":"levelo://app?vid=1793c5bc-f3cc-4c5b-bc53-bbaf531c71e9"},"vehicle_type_id":"4","last_reported":1735672018,"current_range_meters":34000,"station_id":"ce4bhop2rcd13ifvqh8g","pricing_plan_id":"cebpf4jnsgd1na2vs0mg"},{"bike_id":"98e544a4-488e-49ee-957b-4fc5a39b63e6","system_id":"levelo_inurba_marseille","lat":43.29903,"lon":5.37462,"is_reserved":false,"is_disabled":true,"rental_uris":{"android":"levelo://app?vid=98e544a4-488e-49ee-957b-4fc5a39b63e6","ios":"levelo://app?vid=98e544a4-488e-49ee-957b-4fc5a39b63e6"},"vehicle_type_id":"4","last_reported":1735672018,"current_range_meters":0,"station_id":"ce4bgjh2rcd13ifvqbg0","pricing_plan_id":"cebpf4jnsgd1na2vs0mg"},{"bike_id":"b08b44c9-4f43-459d-a0dd-d0fc0b2388a9","system_id":"levelo_inurba_marseille","lat":43.2963,"lon":5.37708,"is_reserved":false,"is_disabled":false,"rental_uris":{"android":"levelo://app?vid=b08b44c9-4f43-459d-a0dd-d0fc0b2388a9","ios":"levelo://app?vid=b08b44c9-4f43-459d-a0dd-d0fc0b2388a9"},"vehicle_type_id":"4","last_reported":1735672018,"current_range_meters":38000,"station_id":"ce4bgi92rcd13ifvqb90","pricing_plan_id":"cebpf4jnsgd1na2vs0mg"},{"bike_id":"442a2701-20ac-45d9-91f8-78dfb347a899","system_id":"levelo_inurba_marseille","lat":43.28702,"lon":5.399865,"is_reserved":false,"is_disabled":false,"rental_uris":{"android":"levelo://app?vid=442a2701-20ac-45d9-91f8-78dfb347a899","ios":"levelo://app?vid=442a2701-20ac-45d9-91f8-78dfb347a899"},"vehicle_type_id":"4","last_reported":1735672018,"current_range_meters":8400,"station_id":"ce4bho92rcd13ifvqh3g","pricing_plan_id":"cebpf4jnsgd1na2vs0mg"},{"bike_id":"de4b395c-86cc-4561-962c-602f21ce87cb","system_id":"levelo_inurba_marseille","lat":43.29522,"lon":5.39042,"is_reserved":false,"is_disabled":false,"rental_uris":{"android":"levelo://app?vid=de4b395c-86cc-4561-962c-602f21ce87cb","ios":"levelo://app?vid=de4b395c-86cc-4561-962c-602f21ce87cb"},"vehicle_type_id":"4","last_reported":1735672018,"current_range_meters":36000,"station_id":"ce4bh3p2rcd13ifvqdp0","pricing_plan_id":"cebpf4jnsgd1na2vs0mg"},{"bike_id":"ab3ab58e-c369-4e79-a68c-8f0ded6372bd","system_id":"levelo_inurba_marseille","lat":43.29804,"lon":5.38104,"is_reserved":false,"is_disabled":false,"rental_uris":{"android":"levelo://app?vid=ab3ab58e-c369-4e79-a68c-8f0ded6372bd","ios":"levelo://app?vid=ab3ab58e-c369-4e79-a68c-8f0ded6372bd"},"vehicle_type_id":"4","last_reported":1735672018,"current_range_meters":38000,"station_id":"ce4bgip2rcd13ifvqbb0","pricing_plan_id":"cebpf4jnsgd1na2vs0mg"},{"bike_id":"94c825d5-d06d-4fd4-aa27-10c8f0378f5c","system_id":"levelo_inurba_marseille","lat":43.286586,"lon":5.363492,"is_reserved":false,"is_disabled":false,"rental_uris":{"android":"levelo://app?vid=94c825d5-d06d-4fd4-aa27-10c8f0378f5c","ios":"levelo://app?vid=94c825d5-d06d-4fd4-aa27-10c8f0378f5c"},"vehicle_type_id":"4","last_reported":1735672018,"current_range_meters":36400,"station_id":"ce4bhah2rcd13ifvqej0","pricing_plan_id":"cebpf4jnsgd1na2vs0mg"},{"bike_id":"0d02c513-ca2e-4e40-9108-e87868ca0473","system_id":"levelo_inurba_marseille","lat":43.28165,"lon":5.42644,"is_reserved":false,"is_disabled":false,"rental_uris":{"android":"levelo://app?vid=0d02c513-ca2e-4e40-9108-e87868ca0473","ios":"levelo://app?vid=0d02c513-ca2e-4e40-9108-e87868ca0473"},"vehicle_type_id":"4","last_reported":1735672018,"current_range_meters":27200,"station_id":"ce4bhnh2rcd13ifvqgug","pricing_plan_id":"cebpf4jnsgd1na2vs0mg"},{"bike_id":"c14d1989-a72f-4241-a582-39661d0bcfcf","system_id":"levelo_inurba_marseille","lat":43.23199,"lon":5.35552,"is_reserved":false,"is_disabled":false,"rental_uris":{"android":"levelo://app?vid=c14d1989-a72f-4241-a582-39661d0bcfcf","ios":"levelo://app?vid=c14d1989-a72f-4241-a582-39661d0bcfcf"},"vehicle_type_id":"4","last_reported":1735672018,"current_range_meters":38800,"station_id":"ce4bhu92rcd13ifvqi70","pricing_plan_id":"cebpf4jnsgd1na2vs0mg"},{"bike_id":"d4e56912-5f8d-4b94-bc95-012be68fed61","system_id":"levelo_inurba_marseille","lat":43.27055,"lon":5.40263,"is_reserved":false,"is_disabled":false,"rental_uris":{"android":"levelo://app?vid=d4e56912-5f8d-4b94-bc95-012be68fed61","ios":"levelo://app?vid=d4e56912-5f8d-4b94-bc95-012be68fed61"},"vehicle_type_id":"4","last_reported":1735672018,"current_range_meters":37600,"station_id":"ce4bhk92rcd13ifvqgc0","pricing_plan_id":"cebpf4jnsgd1na2vs0mg"},{"bike_id":"a74c2d12-b57a-4ffa-b46f-df1bdb7d8918","system_id":"levelo_inurba_marseille","lat":43.2306,"lon":5.35501,"is_reserved":false,"is_disabled":false,"rental_uris":{"android":"levelo://app?vid=a74c2d12-b57a-4ffa-b46f-df1bdb7d8918","ios":"levelo://app?vid=a74c2d12-b57a-4ffa-b46f-df1bdb7d8918"},"vehicle_type_id":"4","last_reported":1735672018,"current_range_meters":38800,"station_id":"cpo3342slgdg3j2ifvpg","pricing_plan_id":"cebpf4jnsgd1na2vs0mg"},{"bike_id":"60093dbb-b2e0-4433-9fb7-80816dc55856","system_id":"levelo_inurba_marseille","lat":43.29616,"lon":5.37743,"is_reserved":false,"is_disabled":false,"rental_uris":{"android":"levelo://app?vid=60093dbb-b2e0-4433-9fb7-80816dc55856","ios":"levelo://app?vid=60093dbb-b2e0-4433-9fb7-80816dc55856"},"vehicle_type_id":"4","last_reported":1735672018,"current_range_meters":38800,"station_id":"ce4bgi92rcd13ifvqb90","pricing_plan_id":"cebpf4jnsgd1na2vs0mg"},{"bike_id":"06e6f4bf-73d4-4c64-a08b-f60c3ad8da9c","system_id":"levelo_inurba_marseille","lat":43.30183,"lon":5.3661,"is_reserved":false,"is_disabled":false,"rental_uris":{"android":"levelo://app?vid=06e6f4bf-73d4-4c64-a08b-f60c3ad8da9c","ios":"levelo://app?vid=06e6f4bf-73d4-4c64-a08b-f60c3ad8da9c"},"vehicle_type_id":"4","last_reported":1735672018,"current_range_meters":38800,"station_id":"ce4bgrh2rcd13ifvqc8g","pricing_plan_id":"cebpf4jnsgd1na2vs0mg"},{"bike_id":"f9521462-9d35-46c3-be2f-32a3a64ecf6e","system_id":"levelo_inurba_marseille","lat":43.27814,"lon":5.40709,"is_reserved":false,"is_disabled":false,"rental_uris":{"android":"levelo://app?vid=f9521462-9d35-46c3-be2f-32a3a64ecf6e","ios":"levelo://app?vid=f9521462-9d35-46c3-be2f-32a3a64ecf6e"},"vehicle_type_id":"4","last_reported":1735672018,"current_range_meters":35600,"station_id":"ce4bhnh2rcd13ifvqgtg","pricing_plan_id":"cebpf4jnsgd1na2vs0mg"},{"bike_id":"bdaf399c-473f-4984-838e-8c800e657358","system_id":"levelo_inurba_marseille","lat":43.25499,"lon":5.37644,"is_reserved":false,"is_disabled":false,"rental_uris":{"android":"levelo://app?vid=bdaf399c-473f-4984-838e-8c800e657358","ios":"levelo://app?vid=bdaf399c-473f-4984-838e-8c800e657358"},"vehicle_type_id":"4","last_reported":1735672018,"current_range_meters":35200,"station_id":"ce4bhh12rcd13ifvqff0","pricing_plan_id":"cebpf4jnsgd1na2vs0mg"},{"bike_id":"7bfaf158-fdac-461d-bd8d-42ef587d35a7","system_id":"levelo_inurba_marseille","lat":43.29272,"lon":5.3684,"is_reserved":false,"is_disabled":false,"rental_uris":{"android":"levelo://app?vid=7bfaf158-fdac-461d-bd8d-42ef587d35a7","ios":"levelo://app?vid=7bfaf158-fdac-461d-bd8d-42ef587d35a7"},"vehicle_type_id":"4","last_reported":1735672018,"current_range_meters":26000,"station_id":"ce4bhbp2rcd13ifvqesg","pricing_plan_id":"cebpf4jnsgd1na2vs0mg"},{"bike_id":"9409fe91-100a-4f8d-8954-020782c06ca4","system_id":"levelo_inurba_marseille","lat":43.29031,"lon":5.38139,"is_reserved":false,"is_disabled":false,"rental_uris":{"android":"levelo://app?vid=9409fe91-100a-4f8d-8954-020782c06ca4","ios":"levelo://app?vid=9409fe91-100a-4f8d-8954-020782c06ca4"},"vehicle_type_id":"4","last_reported":1735672018,"current_range_meters":38400,"station_id":"ce4bh4p2rcd13ifvqe1g","pricing_plan_id":"cebpf4jnsgd1na2vs0mg"},{"bike_id":"a2c981a9-118a-4e0c-9c91-df48407f1dcd","system_id":"levelo_inurba_marseille","lat":43.23064,"lon":5.35496,"is_reserved":false,"is_disabled":false,"rental_uris":{"android":"levelo://app?vid=a2c981a9-118a-4e0c-9c91-df48407f1dcd","ios":"levelo://app?vid=a2c981a9-118a-4e0c-9c91-df48407f1dcd"},"vehicle_type_id":"4","last_reported":1735672018,"current_range_meters":36000,"station_id":"cpo3342slgdg3j2ifvpg","pricing_plan_id":"cebpf4jnsgd1na2vs0mg"},{"bike_id":"76e47d29-1a2f-421f-988d-c86ff3020572","system_id":"levelo_inurba_marseille","lat":43.28719,"lon":5.37936,"is_reserved":false,"is_disabled":true,"rental_uris":{"android":"levelo://app?vid=76e47d29-1a2f-421f-988d-c86ff3020572","ios":"levelo://app?vid=76e47d29-1a2f-421f-988d-c86ff3020572"},"vehicle_type_id":"4","last_reported":1735672018,"current_range_meters":1200,"station_id":"ce4bh9p2rcd13ifvqec0","pricing_plan_id":"cebpf4jnsgd1na2vs0mg"},{"bike_id":"e36d627c-f176-4540-a182-225eba68d0d4","system_id":"levelo_inurba_marseille","lat":43.2467,"lon":5.38157,"is_reserved":false,"is_disabled":false,"rental_uris":{"android":"levelo://app?vid=e36d627c-f176-4540-a182-225eba68d0d4","ios":"levelo://app?vid=e36d627c-f176-4540-a182-225eba68d0d4"},"vehicle_type_id":"4","last_reported":1735672018,"current_range_meters":36000,"station_id":"ce4bhih2rcd13ifvqfr0","pricing_plan_id":"cebpf4jnsgd1na2vs0mg"},{"bike_id":"02cdd50e-4f27-47ac-997b-d173a16637fc","system_id":"levelo_inurba_marseille","lat":43.29419,"lon":5.3862,"is_reserved":false,"is_disabled":false,"rental_uris":{"android":"levelo://app?vid=02cdd50e-4f27-47ac-997b-d173a16637fc","ios":"levelo://app?vid=02cdd50e-4f27-47ac-997b-d173a16637fc"},"vehicle_type_id":"4","last_reported":1735672018,"current_range_meters":30400,"station_id":"ce4bh2h2rcd13ifvqdh0","pricing_plan_id":"cebpf4jnsgd1na2vs0mg"},