{"last_updated":1738768188,"ttl":60,"version":"2.2","data":{"bikes":[{"bike_id":"1c9a3abb-9e2d-4f8c-a07d-54cb262909a1","system_id":"levelo_inurba_marseille","lat":43.30512,"lon":5.367,"is_reserved":false,"is_disabled":false,"rental_uris":{"android":"levelo://app?vid=1c9a3abb-9e2d-4f8c-a07d-54cb262909a1","ios":"levelo://app?vid=1c9a3abb-9e2d-4f8c-a07d-54cb262909a1"},"vehicle_type_id":"4","last_reported":1738768188,"current_range_meters":36000,"station_id":"ce4bgrp2rcd13ifvqc9g","pricing_plan_id":"cebpf4jnsgd1na2vs0mg"},{"bike_id":"a5f7c4f5-34ee-4436-8ad6-ab0e42629126","system_id":"levelo_inurba_marseille","lat":43.31314,"lon":5.39713,"is_reserved":false,"is_disabled":false,"rental_uris":{"android":"levelo://app?vid=a5f7c4f5-34ee-4436-8ad6-ab0e42629126","ios":"levelo://app?vid=a5f7c4f5-34ee-4436-8ad6-ab0e42629126"},"vehicle_type_id":"4","last_reported":1738768188,"current_range_meters":26000,"station_id":"ce4bgvp2rcd13ifvqcu0","pricing_plan_id":"cebpf4jnsgd1na2vs0mg"},{"bike_id":"419c8c22-86a4-4ef5-91f4-a06b4c2e4bba","system_id":"levelo_inurba_marseille","lat":43.22929,"lon":5.35377,"is_reserved":false,"is_disabled":false,"rental_uris":{"android":"levelo://app?vid=419c8c22-86a4-4ef5-91f4-a06b4c2e4bba","ios":"levelo://app?vid=419c8c22-86a4-4ef5-91f4-a06b4c2e4bba"},"vehicle_type_id":"4","last_reported":1738768188,"current_range_meters":26800,"station_id":"cpo3532slgdg3j2ikp40","pricing_plan_id":"cebpf4jnsgd1na2vs0mg"},{"bike_id":"a101b531-de49-4cf0-a412-2872fa10f083","system_id":"levelo_inurba_marseille","lat":43.25935,"lon":5.40912,"is_reserved":false,"is_disabled":false,"rental_uris":{"android":"levelo://app?vid=a101b531-de49-4cf0-a412-2872fa10f083","ios":"levelo://app?vid=a101b531-de49-4cf0-a412-2872fa10f083"},"vehicle_type_id":"4","last_reported":1738768188,"current_range_meters":16000,"station_id":"ce4bhm92rcd13ifvqglg","pricing_plan_id":"cebpf4jnsgd1na2vs0mg"},{"bike_id":"ba05dbef-cf19-40fa-8248-bd31b49bcc49","system_id":"levelo_inurba_marseille","lat":43.25929,"lon":5.40903,"is_reserved":false,"is_disabled":false,"rental_uris":{"android":"levelo://app?vid=ba05dbef-cf19-40fa-8248-bd31b49bcc49","ios":"levelo://app?vid=ba05dbef-cf19-40fa-8248-bd31b49bcc49"},"vehicle_type_id":"4","last_reported":1738768188,"current_range_meters":38400,"station_id":"ce4bhm92rcd13ifvqglg","pricing_plan_id":"cebpf4jnsgd1na2vs0mg"},{"bike_id":"7fc68ab1-0515-47e2-a770-0921d783d649","system_id":"levelo_inurba_marseille","lat":43.29442,"lon":5.3975,"is_reserved":false,"is_disabled":false,"rental_uris":{"android":"levelo://app?vid=7fc68ab1-0515-47e2-a770-0921d783d649","ios":"levelo://app?vid=7fc68ab1-0515-47e2-a770-0921d783d649"},"vehicle_type_id":"4","last_reported":1738768188,"current_range_meters":21600,"station_id":"ce4bh3h2rcd13ifvqdo0","pricing_plan_id":"cebpf4jnsgd1na2vs0mg"},{"bike_id":"dd4a4c3c-bb6c-429c-a240-b8d1f295cfc9","system_id":"levelo_inurba_marseille","lat":43.33027,"lon":5.39042,"is_reserved":false,"is_disabled":false,"rental_uris":{"android":"levelo://app?vid=dd4a4c3c-bb6c-429c-a240-b8d1f295cfc9","ios":"levelo://app?vid=dd4a4c3c-bb6c-429c-a240-b8d1f295cfc9"},"vehicle_type_id":"4","last_reported":1738768188,"current_range_meters":28800,"station_id":"ce4bhr92rcd13ifvqhrg","pricing_plan_id":"cebpf4jnsgd1na2vs0mg"},{"bike_id":"5386821e-fed1-44a2-8505-b4703696e0a6","system_id":"levelo_inurba_marseille","lat":43.29786,"lon":5.37105,"is_reserved":false,"is_disabled":false,"rental_uris":{"android":"levelo://app?vid=5386821e-fed1-44a2-8505-b4703696e0a6","ios":"levelo://app?vid=5386821e-fed1-44a2-8505-b4703696e0a6"},"vehicle_type_id":"4","last_reported":1738768188,"current_range_meters":33200,"station_id":"ce4bgop2rcd13ifvqc1g","pricing_plan_id":"cebpf4jnsgd1na2vs0mg"},{"bike_id":"f416047e-91b8-4236-925d-2cf08814eeb0","system_id":"levelo_inurba_marseille","lat":43.25725,"lon":5.4111,"is_reserved":false,"is_disabled":true,"rental_uris":{"android":"levelo://app?vid=f416047e-91b8-4236-925d-2cf08814eeb0","ios":"levelo://app?vid=f416047e-91b8-4236-925d-2cf08814eeb0"},"vehicle_type_id":"4","last_reported":1738768188,"current_range_meters":800,"station_id":"ce4bhkp2rcd13ifvqgd0","pricing_plan_id":"cebpf4jnsgd1na2vs0mg"},{"bike_id":"3b3750dc-9cdb-41a8-a721-f3277ba575c5","system_id":"levelo_inurba_marseille","lat":43.29684,"lon":5.37296,"is_reserved":false,"is_disabled":false,"rental_uris":{"android":"levelo://app?vid=3b3750dc-9cdb-41a8-a721-f3277ba575c5","ios":"levelo://app?vid=3b3750dc-9cdb-41a8-a721-f3277ba575c5"},"vehicle_type_id":"4","last_reported":1738768188,"current_range_meters":38000,"station_id":"ce4bgk12rcd13ifvqbj0","pricing_plan_id":"cebpf4jnsgd1na2vs0mg"},{"bike_id":"27788668-d35d-4e3b-b85e-35c52733c3a9","system_id":"levelo_inurba_marseille","lat":43.244,"lon":5.37059,"is_reserved":false,"is_disabled":false,"rental_uris":{"android":"levelo://app?vid=27788668-d35d-4e3b-b85e-35c52733c3a9","ios":"levelo://app?vid=27788668-d35d-4e3b-b85e-35c52733c3a9"},"vehicle_type_id":"4","last_reported":1738768188,"current_range_meters":6400,"station_id":"ce4bhhh2rcd13ifvqfk0","pricing_plan_id":"cebpf4jnsgd1na2vs0mg"},{"bike_id":"6851a788-e6f3-43cf-919c-e0e4f7106c0e","system_id":"levelo_inurba_marseille","lat":43.25926,"lon":5.40913,"is_reserved":false,"is_disabled":false,"rental_uris":{"android":"levelo://app?vid=6851a788-e6f3-43cf-919c-e0e4f7106c0e","ios":"levelo://app?vid=6851a788-e6f3-43cf-919c-e0e4f7106c0e"},"vehicle_type_id":"4","last_reported":1738768188,"current_range_meters":38400,"station_id":"ce4bhm92rcd13ifvqglg","pricing_plan_id":"cebpf4jnsgd1na2vs0mg"},{"bike_id":"dd6cb729-d2e6-4866-99c1-0e65e4041622","system_id":"levelo_inurba_marseille","lat":43.28733,"lon":5.37956,"is_reserved":false,"is_disabled":false,"rental_uris":{"android":"levelo://app?vid=dd6cb729-d2e6-4866-99c1-0e65e4041622","ios":"levelo://app?vid=dd6cb729-d2e6-4866-99c1-0e65e4041622"},"vehicle_type_id":"4","last_reported":1738768188,"current_range_meters":17200,"station_id":"ce4bh9p2rcd13ifvqec0","pricing_plan_id":"cebpf4jnsgd1na2vs0mg"},{"bike_id":"d72f401d-7e85-4e85-abe3-8fc4222030a1","system_id":"levelo_inurba_marseille","lat":43.29962,"lon":5.3776,"is_reserved":false,"is_disabled":false,"rental_uris":{"android":"levelo://app?vid=d72f401d-7e85-4e85-abe3-8fc4222030a1","ios":"levelo://app?vid=d72f401d-7e85-4e85-abe3-8fc4222030a1"},"vehicle_type_id":"4","last_reported":1738768188,"current_range_meters":25600,"station_id":"","pricing_plan_id":"cebpf4jnsgd1na2vs0mg"},{"bike_id":"d804189d-81a0-46de-ae7e-03fbd5968f36","system_id":"levelo_inurba_marseille","lat":43.29101,"lon":5.38156,"is_reserved":false,"is_disabled":false,"rental_uris":{"android":"levelo://app?vid=d804189d-81a0-46de-ae7e-03fbd5968f36","ios":"levelo://app?vid=d804189d-81a0-46de-ae7e-03fbd5968f36"},"vehicle_type_id":"4","last_reported":1738768188,"current_range_meters":8400,"station_id":"ce4bh512rcd13ifvqe2g","pricing_plan_id":"cebpf4jnsgd1na2vs0mg"},{"bike_id":"291400bb-0372-4436-8fba-6a7def8baab8","system_id":"levelo_inurba_marseille","lat":43.29042,"lon":5.3757,"is_reserved":false,"is_disabled":false,"rental_uris":{"android":"levelo://app?vid=291400bb-0372-4436-8fba-6a7def8baab8","ios":"levelo://app?vid=291400bb-0372-4436-8fba-6a7def8baab8"},"vehicle_type_id":"4","last_reported":1738768188,"current_range_meters":38400,"station_id":"ce4bh692rcd13ifvqe90","pricing_plan_id":"cebpf4jnsgd1na2vs0mg"},{"bike_id":"f82e75bb-05c8-4514-8636-5b38ab41787f","system_id":"levelo_inurba_marseille","lat":43.33024,"lon":5.39043,"is_reserved":false,"is_disabled":false,"rental_uris":{"android":"levelo://app?vid=f82e75bb-05c8-4514-8636-5b38ab41787f","ios":"levelo://app?vid=f82e75bb-05c8-4514-8636-5b38ab41787f"},"vehicle_type_id":"4","last_reported":1738768188,"current_range_meters":28400,"station_id":"ce4bhr92rcd13ifvqhrg","pricing_plan_id":"cebpf4jnsgd1na2vs0mg"},{"bike_id":"2bb38bb1-170f-49ef-9ff8-866f5c648002","system_id":"levelo_inurba_marseille","lat":43.29927,"lon":5.38279,"is_reserved":false,"is_disabled":false,"rental_uris":{"android":"levelo://app?vid=2bb38bb1-170f-49ef-9ff8-866f5c648002","ios":"levelo://app?vid=2bb38bb1-170f-49ef-9ff8-866f5c648002"},"vehicle_type_id":"4","last_reported":1738768188,"current_range_meters":6400,"station_id":"","pricing_plan_id":"cebpf4jnsgd1na2vs0mg"},{"bike_id":"7eaacd34-10f9-4246-8aa1-4a22e07a7c06","system_id":"levelo_inurba_marseille","lat":43.31638,"lon":5.37406,"is_reserved":false,"is_disabled":false,"rental_uris":{"android":"levelo://app?vid=7eaacd34-10f9-4246-8aa1-4a22e07a7c06","ios":"levelo://app?vid=7eaacd34-10f9-4246-8aa1-4a22e07a7c06"},"vehicle_type_id":"4","last_reported":1738768188,"current_range_meters":26000,"station_id":"","pricing_plan_id":"cebpf4jnsgd1na2vs0mg"},{"bike_id":"0cbf77ca-d3cf-488c-9999-ca88892180e5","system_id":"levelo_inurba_marseille","lat":43.27214,"lon":5.39181,"is_reserved":false,"is_disabled":false,"rental_uris":{"android":"levelo://app?vid=0cbf77ca-d3cf-488c-9999-ca88892180e5","ios":"levelo://app?vid=0cbf77ca-d3cf-488c-9999-ca88892180e5"},"vehicle_type_id":"4","last_reported":1738768188,"current_range_meters":19200,"station_id":"ce4bhhp2rcd13ifvqfm0","pricing_plan_id":"cebpf4jnsgd1na2vs0mg"},{"bike_id":"9febad4e-f695-49ed-82b0-71edd70b75df","system_id":"levelo_inurba_marseille","lat":43.32555,"lon":5.41443,"is_reserved":false,"is_disabled":false,"rental_uris":{"android":"levelo://app?vid=9febad4e-f695-49ed-82b0-71edd70b75df","ios":"levelo://app?vid=9febad4e-f695-49ed-82b0-71edd70b75df"},"vehicle_type_id":"4","last_reported":1738768188,"current_range_meters":37600,"station_id":"ce4bhq12rcd13ifvqhhg","pricing_plan_id":"cebpf4jnsgd1na2vs0mg"},{"bike_id":"365a0e5d-062f-4cda-968b-5011faa439dc","system_id":"levelo_inurba_marseille","lat":43.29005,"lon":5.35605,"is_reserved":false,"is_disabled":false,"rental_uris":{"android":"levelo://app?vid=365a0e5d-062f-4cda-968b-5011faa439dc","ios":"levelo://app?vid=365a0e5d-062f-4cda-968b-5011faa439dc"},"vehicle_type_id":"4","last_reported":1738768188,"current_range_meters":14800,"station_id":"ce4bhb92rcd13ifvqen0","pricing_plan_id":"cebpf4jnsgd1na2vs0mg"},{"bike_id":"9d0de974-8143-4260-8c90-8e26cc33d946","system_id":"levelo_inurba_marseille","lat":43.26048,"lon":5.375399,"is_reserved":false,"is_disabled":false,"rental_uris":{"android":"levelo://app?vid=9d0de974-8143-4260-8c90-8e26cc33d946","ios":"levelo://app?vid=9d0de974-8143-4260-8c90-8e26cc33d946"},"vehicle_type_id":"4","last_reported":1738768188,"current_range_meters":38800,"station_id":"ce4bhgh2rcd13ifvqfa0","pricing_plan_id":"cebpf4jnsgd1na2vs0mg"},{"bike_id":"b59244ed-b07c-43cd-a2ec-8a31b480bdcf","system_id":"levelo_inurba_marseille","lat":43.2795,"lon":5.41027,"is_reserved":false,"is_disabled":false,"rental_uris":{"android":"levelo://app?vid=b59244ed-b07c-43cd-a2ec-8a31b480bdcf","ios":"levelo://app?vid=b59244ed-b07c-43cd-a2ec-8a31b480bdcf"},"vehicle_type_id":"4","last_reported":1738768188,"current_range_meters":38800,"station_id":"ce4bhnp2rcd13ifvqh0g","pricing_plan_id":"cebpf4jnsgd1na2vs0mg"},{"bike_id":"bd42563d-6ded-4a27-8446-f13fff32889d","system_id":"levelo_inurba_marseille","lat":43.31756,"lon":5.3902,"is_reserved":false,"is_disabled":false,"rental_uris":{"android":"levelo://app?vid=bd42563d-6ded-4a27-8446-f13fff32889d","ios":"levelo://app?vid=bd42563d-6ded-4a27-8446-f13fff32889d"},"vehicle_type_id":"4","last_reported":1738768188,"current_range_meters":39200,"station_id":"ce4bhqp2rcd13ifvqhng","pricing_plan_id":"cebpf4jnsgd1na2vs0mg"},{"bike_id":"f49db839-cde4-4b48-8e5e-2b64dac550bb","system_id":"levelo_inurba_marseille","lat":43.2418,"lon":5.39709,"is_reserved":false,"is_disabled":false,"rental_uris":{"android":"levelo://app?vid=f49db839-cde4-4b48-8e5e-2b64dac550bb","ios":"levelo://app?vid=f49db839-cde4-4b48-8e5e-2b64dac550bb"},"vehicle_type_id":"4","last_reported":1738768188,"current_range_meters":12000,"station_id":"ce4bhn12rcd13ifvqgpg","pricing_plan_id":"cebpf4jnsgd1na2vs0mg"},{"bike_id":"2d6c6b6a-5007-4e69-b036-af3e1004e938","system_id":"levelo_inurba_marseille","lat":43.29252,"lon":5.40146,"is_reserved":false,"is_disabled":false,"rental_uris":{"android":"levelo://app?vid=2d6c6b6a-5007-4e69-b036-af3e1004e938","ios":"levelo://app?vid=2d6c6b6a-5007-4e69-b036-af3e1004e938"},"vehicle_type_id":"4","last_reported":1738768188,"current_range_meters":20400,"station_id":"ce4bh312rcd13ifvqdk0","pricing_plan_id":"cebpf4jnsgd1na2vs0mg"},{"bike_id":"a31da492-d404-42a4-a173-3e8c75aeef5d","system_id":"levelo_inurba_marseille","lat":43.24391,"lon":5.37059,"is_reserved":false,"is_disabled":false,"rental_uris":{"android":"levelo://app?vid=a31da492-d404-42a4-a173-3e8c75aeef5d","ios":"levelo://app?vid=a31da492-d404-42a4-a173-3e8c75aeef5d"},"vehicle_type_id":"4","last_reported":1738768188,"current_range_meters":39200,"station_id":"ce4bhhh2rcd13ifvqfk0","pricing_plan_id":"cebpf4jnsgd1na2vs0mg"},{"bike_id":"85506d97-0f87-4df9-ad07-8dd2dedad0b3","system_id":"levelo_inurba_marseille","lat":43.272,"lon":5.39204,"is_reserved":false,"is_disabled":true,"rental_uris":{"android":"levelo://app?vid=85506d97-0f87-4df9-ad07-8dd2dedad0b3","ios":"levelo://app?vid=85506d97-0f87-4df9-ad07-8dd2dedad0b3"},"vehicle_type_id":"4","last_reported":1738768188,"current_range_meters":37600,"station_id":"ce4bhhp2rcd13ifvqfm0","pricing_plan_id":"cebpf4jnsgd1na2vs0mg"},{"bike_id":"a1a7079b-68b5-45ca-9af8-b6bc9f7cd559","system_id":"levelo_inurba_marseille","lat":43.22928,"lon":5.35389,"is_reserved":false,"is_disabled":false,"rental_uris":{"android":"levelo://app?vid=a1a7079b-68b5-45ca-9af8-b6bc9f7cd559","ios":"levelo://app?vid=a1a7079b-68b5-45ca-9af8-b6bc9f7cd559"},"vehicle_type_id":"4","last_reported":1738768188,"current_range_meters":38800,"station_id":"cpo3532slgdg3j2ikp40","pricing_plan_id":"cebpf4jnsgd1na2vs0mg"},{"bike_id":"7b201c5e-0970-4cfe-be9a-ddd04162d93e","system_id":"levelo_inurba_marseille","lat":43.30947,"lon":5.4018,"is_reserved":false,"is_disabled":false,"rental_uris":{"android":"levelo://app?vid=7b201c5e-0970-4cfe-be9a-ddd04162d93e","ios":"levelo://app?vid=7b201c5e-0970-4cfe-be9a-ddd04162d93e"},"vehicle_type_id":"4","last_reported":1738768188,"current_range_meters":20800,"station_id":"ce4bgvp2rcd13ifvqct0","pricing_plan_id":"cebpf4jnsgd1na2vs0mg"},{"bike_id":"3cfd7725-b783-4aa6-96f1-96a8d0783792","system_id":"levelo_inurba_marseille","lat":43.31335,"lon":5.39687,"is_reserved":false,"is_disabled":false,"rental_uris":{"android":"levelo://app?vid=3cfd7725-b783-4aa6-96f1-96a8d0783792","ios":"levelo://app?vid=3cfd7725-b783-4aa6-96f1-96a8d0783792"},"vehicle_type_id":"4","last_reported":1738768188,"current_range_meters":23200,"station_id":"ce4bgvp2rcd13ifvqcu0","pricing_plan_id":"cebpf4jnsgd1na2vs0mg"},{"bike_id":"29805978-3f90-4e1f-a2f8-4f8391d994c3","system_id":"levelo_inurba_marseille","lat":43.24176,"lon":5.39724,"is_reserved":false,"is_disabled":false,"rental_uris":{"android":"levelo://app?vid=29805978-3f90-4e1f-a2f8-4f8391d994c3","ios":"levelo://app?vid=29805978-3f90-4e1f-a2f8-4f8391d994c3"},"vehicle_type_id":"4","last_reported":1738768188,"current_range_meters":17600,"station_id":"ce4bhn12rcd13ifvqgpg","pricing_plan_id":"cebpf4jnsgd1na2vs0mg"},{"bike_id":"dd8a6aee-1caf-41dc-b573-e1d13a414618","system_id":"levelo_inurba_marseille","lat":43.29555,"lon":5.42293,"is_reserved":false,"is_disabled":false,"rental_uris":{"android":"levelo://app?vid=dd8a6aee-1caf-41dc-b573-e1d13a414618","ios":"levelo://app?vid=dd8a6aee-1caf-41dc-b573-e1d13a414618"},"vehicle_type_id":"4","last_reported":1738768188,"current_range_meters":23200,"station_id":"ce4bhph2rcd13ifvqhdg","pricing_plan_id":"cebpf4jnsgd1na2vs0mg"},{"bike_id":"c7a0391b-d44b-4591-aedf-ffae0dacdacb","system_id":"levelo_inurba_marseille","lat":43.29684,"lon":5.37283,"is_reserved":false,"is_disabled":false,"rental_uris":{"android":"levelo://app?vid=c7a0391b-d44b-4591-aedf-ffae0dacdacb","ios":"levelo://app?vid=c7a0391b-d44b-4591-aedf-ffae0dacdacb"},"vehicle_type_id":"4","last_reported":1738768188,"current_range_meters":36800,"station_id":"ce4bgk12rcd13ifvqbj0","pricing_plan_id":"cebpf4jnsgd1na2vs0mg"},{"bike_id":"429cf0b8-b89a-4aaa-a81b-b9e637978f08","system_id":"levelo_inurba_marseille","lat":43.26686,"lon":5.38272,"is_reserved":false,"is_disabled":false,"rental_uris":{"android":"levelo://app?vid=429cf0b8-b89a-4aaa-a81b-b9e637978f08","ios":"levelo://app?vid=429cf0b8-b89a-4aaa-a81b-b9e637978f08"},"vehicle_type_id":"4","last_reported":1738768188,"current_range_meters":36800,"station_id":"ce4bhg92rcd13ifvqf90","pricing_plan_id":"cebpf4jnsgd1na2vs0mg"},{"bike_id":"f423adf0-93aa-4c47-9d8a-b1e2e7e85005","system_id":"levelo_inurba_marseille","lat":43.28426,"lon":5.35,"is_reserved":false,"is_disabled":true,"rental_uris":{"android":"levelo://app?vid=f423adf0-93aa-4c47-9d8a-b1e2e7e85005","ios":"levelo://app?vid=f423adf0-93aa-4c47-9d8a-b1e2e7e85005"},"vehicle_type_id":"4","last_reported":1738768188,"current_range_meters":10800,"station_id":"ce4bhbh2rcd13ifvqepg","pricing_plan_id":"cebpf4jnsgd1na2vs0mg"},{"bike_id":"101a3db2-bd4e-4e61-bcd9-4cd3d1af1d3a","system_id":"levelo_inurba_marseille","lat":43.25928,"lon":5.40919,"is_reserved":false,"is_disabled":false,"rental_uris":{"android":"levelo://app?vid=101a3db2-bd4e-4e61-bcd9-4cd3d1af1d3a","ios":"levelo://app?vid=101a3db2-bd4e-4e61-bcd9-4cd3d1af1d3a"},"vehicle_type_id":"4","last_reported":1738768188,"current_range_meters":24400,"station_id":"ce4bhm92rcd13ifvqglg","pricing_plan_id":"cebpf4jnsgd1na2vs0mg"},{"bike_id":"0c3125ae-3a21-445a-bb4e-b516801e1664","system_id":"levelo_inurba_marseille","lat":43.29928,"lon":5.36492,"is_reserved":false,"is_disabled":false,"rental_uris":{"android":"levelo://app?vid=0c3125ae-3a21-445a-bb4e-b516801e1664","ios":"levelo://app?vid=0c3125ae-3a21-445a-bb4e-b516801e1664"},"vehicle_type_id":"4","last_reported":1738768188,"current_range_meters":38000,"station_id":"ce4bgm92rcd13ifvqbr0","pricing_plan_id":"cebpf4jnsgd1na2vs0mg"},{"bike_id":"d05d9846-3d4d-4a81-8186-560c648b259a","system_id":"levelo_inurba_marseille","lat":43.29615,"lon":5.37728,"is_reserved":false,"is_disabled":false,"rental_uris":{"android":"levelo://app?vid=d05d9846-3d4d-4a81-8186-560c648b259a","ios":"levelo://app?vid=d05d9846-3d4d-4a81-8186-560c648b259a"},"vehicle_type_id":"4","last_reported":1738768188,"current_range_meters":20800,"station_id":"ce4bgi92rcd13ifvqb90","pricing_plan_id":"cebpf4jnsgd1na2vs0mg"},{"bike_id":"2d6a818e-e01c-4abe-aa4a-c1155069b659","system_id":"levelo_inurba_marseille","lat":43.30949,"lon":5.3905,"is_reserved":false,"is_disabled":false,"rental_uris":{"android":"levelo://app?vid=2d6a818e-e01c-4abe-aa4a-c1155069b659","ios":"levelo://app?vid=2d6a818e-e01c-4abe-aa4a-c1155069b659"},"vehicle_type_id":"4","last_reported":1738768188,"current_range_meters":22000,"station_id":"ce4bgup2rcd13ifvqco0","pricing_plan_id":"cebpf4jnsgd1na2vs0mg"},{"bike_id":"272335b6-dc24-496f-b8c5-36817206bf50","system_id":"levelo_inurba_marseille","lat":43.29899,"lon":5.43653,"is_reserved":false,"is_disabled":false,"rental_uris":{"android":"levelo://app?vid=272335b6-dc24-496f-b8c5-36817206bf50","ios":"levelo://app?vid=272335b6-dc24-496f-b8c5-36817206bf50"},"vehicle_type_id":"4","last_reported":1738768188,"current_range_meters":38000,"station_id":"ce4bhpp2rcd13ifvqhfg","pricing_plan_id":"cebpf4jnsgd1na2vs0mg"},{"bike_id":"262677f6-d1c9-4288-a539-377acad8522f","system_id":"levelo_inurba_marseille","lat":43.30099,"lon":5.39081,"is_reserved":false,"is_disabled":false,"rental_uris":{"android":"levelo://app?vid=262677f6-d1c9-4288-a539-377acad8522f","ios":"levelo://app?vid=262677f6-d1c9-4288-a539-377acad8522f"},"vehicle_type_id":"4","last_reported":1738768188,"current_range_meters":38800,"station_id":"ce4bh192rcd13ifvqdb0","pricing_plan_id":"cebpf4jnsgd1na2vs0mg"},{"bike_id":"99969342-b8a4-4013-b123-0fe8a740aeb2","system_id":"levelo_inurba_marseille","lat":43.30277,"lon":5.37698,"is_reserved":false,"is_disabled":false,"rental_uris":{"android":"levelo://app?vid=99969342-b8a4-4013-b123-0fe8a740aeb2","ios":"levelo://app?vid=99969342-b8a4-4013-b123-0fe8a740aeb2"},"vehicle_type_id":"4","last_reported":1738768188,"current_range_meters":38800,"station_id":"ce4bguh2rcd13ifvqcj0","pricing_plan_id":"cebpf4jnsgd1na2vs0mg"},{"bike_id":"6bba36c7-75a6-4b1b-96cb-c03d219a6faa","system_id":"levelo_inurba_marseille","lat":43.3302,"lon":5.39039,"is_reserved":false,"is_disabled":false,"rental_uris":{"android":"levelo://app?vid=6bba36c7-75a6-4b1b-96cb-c03d219a6faa","ios":"levelo://app?vid=6bba36c7-75a6-4b1b-96cb-c03d219a6faa"},"vehicle_type_id":"4","last_reported":1738768188,"current_range_meters":37600,"station_id":"ce4bhr92rcd13ifvqhrg","pricing_plan_id":"cebpf4jnsgd1na2vs0mg"},{"bike_id":"5010ca19-df83-42ac-9a06-ec42d2768688","system_id":"levelo_inurba_marseille","lat":43.26058,"lon":5.39399,"is_reserved":false,"is_disabled":false,"rental_uris":{"android":"levelo://app?vid=5010ca19-df83-42ac-9a06-ec42d2768688","ios":"levelo://app?vid=5010ca19-df83-42ac-9a06-ec42d2768688"},"vehicle_type_id":"4","last_reported":1738768188,"current_range_meters":4400,"station_id":"ce4bhh92rcd13ifvqfj0","pricing_plan_id":"cebpf4jnsgd1na2vs0mg"},{"bike_id":"f307f8ea-df8b-425d-97d7-c4f570c0ee32","system_id":"levelo_inurba_marseille","lat":43.2398,"lon":5.36612,"is_reserved":false,"is_disabled":false,"rental_uris":{"android":"levelo://app?vid=f307f8ea-df8b-425d-97d7-c4f570c0ee32","ios":"levelo://app?vid=f307f8ea-df8b-425d-97d7-c4f570c0ee32"},"vehicle_type_id":"4","last_reported":1738768188,"current_range_meters":20800,"station_id":"ce4bhi12rcd13ifvqfp0","pricing_plan_id":"cebpf4jnsgd1na2vs0mg"},{"bike_id":"7a87dee5-d36c-42e8-a03c-4badbb443213","system_id":"levelo_inurba_marseille","lat":43.26764,"lon":5.39433,"is_reserved":false,"is_disabled":false,"rental_uris":{"android":"levelo://app?vid=7a87dee5-d36c-42e8-a03c-4badbb443213","ios":"levelo://app?vid=7a87dee5-d36c-42e8-a03c-4badbb443213"},"vehicle_type_id":"4","last_reported":1738768188,"current_range_meters":38800,"station_id":"ce4bhh12rcd13ifvqfg0","pricing_plan_id":"cebpf4jnsgd1na2vs0mg"},{"bike_id":"3a5aa9c9-bc8f-448e-aeb5-c9e98d56970c","system_id":"levelo_inurba_marseille","lat":43.33604,"lon":5.41028,"is_reserved":false,"is_disabled":false,"rental_uris":{"android":"levelo://app?vid=3a5aa9c9-bc8f-448e-aeb5-c9e98d56970c","ios":"levelo://app?vid=3a5aa9c9-bc8f-448e-aeb5-c9e98d56970c"},"vehicle_type_id":"4","last_reported":1738768188,"current_range_meters":38800,"station_id":"ce4bhqh2rcd13ifvqhmg","pricing_plan_id":"cebpf4jnsgd1na2vs0mg"},{"bike_id":"865da38e-7662-4cd0-8259-ddab14436918","system_id":"levelo_inurba_marseille","lat":43.28437,"lon":5.39177,"is_reserved":false,"is_disabled":false,"rental_uris":{"android":"levelo://app?vid=865da38e-7662-4cd0-8259-ddab14436918","ios":"levelo://app?vid=865da38e-7662-4cd0-8259-ddab14436918"},"vehicle_type_id":"4","last_reported":1738768188,"current_range_meters":38800,"station_id":"ce4bhoh2rcd13ifvqh5g","pricing_plan_id":"cebpf4jnsgd1na2vs0mg"},{"bike_id":"bc4a06dd-ed55-477b-aea6-1cfb1ec60200","system_id":"levelo_inurba_marseille","lat":43.30807,"lon":5.38146,"is_reserved":false,"is_disabled":false,"rental_uris":{"android":"levelo://app?vid=bc4a06dd-ed55-477b-aea6-1cfb1ec60200","ios":"levelo://app?vid=bc4a06dd-ed55-477b-aea6-1cfb1ec60200"},"vehicle_type_id":"4","last_reported":1738768188,"current_range_meters":35600,"station_id":"ce4bgt12rcd13ifvqce0","pricing_plan_id":"cebpf4jnsgd1na2vs0mg"},{"bike_id":"a1816039-17b7-4d08-a04f-409e83b880d6","system_id":"levelo_inurba_marseille","lat":43.265669,"lon":5.390051,"is_reserved":false,"is_disabled":false,"rental_uris":{"android":"levelo://app?vid=a1816039-17b7-4d08-a04f-409e83b880d6","ios":"levelo://app?vid=a1816039-17b7-4d08-a04f-409e83b880d6"},"vehicle_type_id":"4","last_reported":1738768188,"current_range_meters":26000,"station_id":"ce4bhe12rcd13ifvqf30","pricing_plan_id":"cebpf4jnsgd1na2vs0mg"},{"bike_id":"9d9352ed-0d79-4d2f-a2ac-e72e5040f041","system_id":"levelo_inurba_marseille","lat":43.30886,"lon":5.37199,"is_reserved":false,"is_disabled":false,"rental_uris":{"android":"levelo://app?vid=9d9352ed-0d79-4d2f-a2ac-e72e5040f041","ios":"levelo://app?vid=9d9352ed-0d79-4d2f-a2ac-e72e5040f041"},"vehicle_type_id":"4","last_reported":1738768188,"current_range_meters":38400,"station_id":"ce4bguh2rcd13ifvqckg","pricing_plan_id":"cebpf4jnsgd1na2vs0mg"},{"bike_id":"284c68da-e33e-4eaa-ba2f-b5d1cdfe27c1","system_id":"levelo_inurba_marseille","lat":43.29905,"lon":5.3817,"is_reserved":false,"is_disabled":false,"rental_uris":{"android":"levelo://app?vid=284c68da-e33e-4eaa-ba2f-b5d1cdfe27c1","ios":"levelo://app?vid=284c68da-e33e-4eaa-ba2f-b5d1cdfe27c1"},"vehicle_type_id":"4","last_reported":1738768188,"current_range_meters":19600,"station_id":"ce4bgj12rcd13ifvqbc0","pricing_plan_id":"cebpf4jnsgd1na2vs0mg"},{"bike_id":"2cd60774-c2f8-4e8f-9236-a6b0c03a1062","system_id":"levelo_inurba_marseille","lat":43.28072,"lon":5.39647,"is_reserved":false,"is_disabled":false,"rental_uris":{"android":"levelo://app?vid=2cd60774-c2f8-4e8f-9236-a6b0c03a1062","ios":"levelo://app?vid=2cd60774-c2f8-4e8f-9236-a6b0c03a1062"},"vehicle_type_id":"4","last_reported":1738768188,"current_range_meters":14000,"station_id":"ce4bho12rcd13ifvqh2g","pricing_plan_id":"cebpf4jnsgd1na2vs0mg"},{"bike_id":"3b62a1d1-371b-463d-86ca-c84c4531f3cd","system_id":"levelo_inurba_marseille","lat":43.28631,"lon":5.35099,"is_reserved":false,"is_disabled":false,"rental_uris":{"android":"levelo://app?vid=3b62a1d1-371b-463d-86ca-c84c4531f3cd","ios":"levelo://app?vid=3b62a1d1-371b-463d-86ca-c84c4531f3cd"},"vehicle_type_id":"4","last_reported":1738768188,"current_range_meters":29600,"station_id":"ce4bhch2rcd13ifvqeug","pricing_plan_id":"cebpf4jnsgd1na2vs0mg"},{"bike_id":"b7908605-5610-4880-a95b-701e61561cff","system_id":"levelo_inurba_marseille","lat":43.30419,"lon":5.39743,"is_reserved":false,"is_disabled":false,"rental_uris":{"android":"levelo://app?vid=b7908605-5610-4880-a95b-701e61561cff","ios":"levelo://app?vid=b7908605-5610-4880-a95b-701e61561cff"},"vehicle_type_id":"4","last_reported":1738768188,"current_range_meters":33200,"station_id":"ce4bh092rcd13ifvqd20","pricing_plan_id":"cebpf4jnsgd1na2vs0mg"},{"bike_id":"e040da88-b421-4173-9ede-61ba1a6ca5b4","system_id":"levelo_inurba_marseille","lat":43.2417,"lon":5.3972,"is_reserved":false,"is_disabled":false,"rental_uris":{"android":"levelo://app?vid=e040da88-b421-4173-9ede-61ba1a6ca5b4","ios":"levelo://app?vid=e040da88-b421-4173-9ede-61ba1a6ca5b4"},"vehicle_type_id":"4","last_reported":1738768188,"current_range_meters":17200,"station_id":"ce4bhn12rcd13ifvqgpg","pricing_plan_id":"cebpf4jnsgd1na2vs0mg"},{"bike_id":"6712f04b-f35d-4e3a-a70d-c89aec85d9b2","system_id":"levelo_inurba_marseille","lat":43.22946,"lon":5.35373,"is_reserved":false,"is_disabled":false,"rental_uris":{"android":"levelo://app?vid=6712f04b-f35d-4e3a-a70d-c89aec85d9b2","ios":"levelo://app?vid=6712f04b-f35d-4e3a-a70d-c89aec85d9b2"},"vehicle_type_id":"4","last_reported":1738768188,"current_range_meters":38800,"station_id":"cpo3532slgdg3j2ikp40","pricing_plan_id":"cebpf4jnsgd1na2vs0mg"},{"bike_id":"fa3d2a8e-3072-475e-975b-35e938778550","system_id":"levelo_inurba_marseille","lat":43.30931,"lon":5.40145,"is_reserved":false,"is_disabled":false,"rental_uris":{"android":"levelo://app?vid=fa3d2a8e-3072-475e-975b-35e938778550","ios":"levelo://app?vid=fa3d2a8e-3072-475e-975b-35e938778550"},"vehicle_type_id":"4","last_reported":1738768188,"current_range_meters":9600,"station_id":"ce4bgvp2rcd13ifvqct0","pricing_plan_id":"cebpf4jnsgd1na2vs0mg"},{"bike_id":"538f8ca2-e9da-40b1-a058-9cc04ada6653","system_id":"levelo_inurba_marseille","lat":43.24179,"lon":5.39732,"is_reserved":false,"is_disabled":false,"rental_uris":{"android":"levelo://app?vid=538f8ca2-e9da-40b1-a058-9cc04ada6653","ios":"levelo://app?vid=538f8ca2-e9da-40b1-a058-9cc04ada6653"},"vehicle_type_id":"4","last_reported":1738768188,"current_range_meters":8400,"station_id":"ce4bhn12rcd13ifvqgpg","pricing_plan_id":"cebpf4jnsgd1na2vs0mg"},{"bike_id":"fa4b5534-0553-40ba-be0a-02556ee91ee9","system_id":"levelo_inurba_marseille","lat":43.30154,"lon":5.37407,"is_reserved":false,"is_disabled":false,"rental_uris":{"android":"levelo://app?vid=fa4b5534-0553-40ba-be0a-02556ee91ee9","ios":"levelo://app?vid=fa4b5534-0553-40ba-be0a-02556ee91ee9"},"vehicle_type_id":"4","last_reported":1738768188,"current_range_meters":24800,"station_id":"ce4bgs92rcd13ifvqcc0","pricing_plan_id":"cebpf4jnsgd1na2vs0mg"},{"bike_id":"b8bfdb84-1f8b-4add-b3f1-3525f376a115","system_id":"levelo_inurba_marseille","lat":43.29167,"lon":5.37155,"is_reserved":false,"is_disabled":false,"rental_uris":{"android":"levelo://app?vid=b8bfdb84-1f8b-4add-b3f1-3525f376a115","ios":"levelo://app?vid=b8bfdb84-1f8b-4add-b3f1-3525f376a115"},"vehicle_type_id":"4","last_reported":1738768188,"current_range_meters":37600,"station_id":"ce4bha92rcd13ifvqeh0","pricing_plan_id":"cebpf4jnsgd1na2vs0mg"},{"bike_id":"b36d1797-9947-4673-ac7b-3bb25ad9b802","system_id":"levelo_inurba_marseille","lat":43.28675,"lon":5.36351,"is_reserved":false,"is_disabled":false,"rental_uris":{"android":"levelo://app?vid=b36d1797-9947-4673-ac7b-3bb25ad9b802","ios":"levelo://app?vid=b36d1797-9947-4673-ac7b-3bb25ad9b802"},"vehicle_type_id":"4","last_reported":1738768188,"current_range_meters":17600,"station_id":"ce4bhah2rcd13ifvqej0","pricing_plan_id":"cebpf4jnsgd1na2vs0mg"},{"bike_id":"0a340a50-c9b3-4c87-88da-a62208ff40c7","system_id":"levelo_inurba_marseille","lat":43.30548,"lon":5.36706,"is_reserved":false,"is_disabled":false,"rental_uris":{"android":"levelo://app?vid=0a340a50-c9b3-4c87-88da-a62208ff40c7","ios":"levelo://app?vid=0a340a50-c9b3-4c87-88da-a62208ff40c7"},"vehicle_type_id":"4","last_reported":1738768188,"current_range_meters":38000,"station_id":"ce4bgrp2rcd13ifvqc9g","pricing_plan_id":"cebpf4jnsgd1na2vs0mg"},{"bike_id":"e60c42e2-8e1a-4c9a-b7f9-d1eb056cfd79","system_id":"levelo_inurba_marseille","lat":43.28617,"lon":5.35112,"is_reserved":false,"is_disabled":false,"rental_uris":{"android":"levelo://app?vid=e60c42e2-8e1a-4c9a-b7f9-d1eb056cfd79","ios":"levelo://app?vid=e60c42e2-8e1a-4c9a-b7f9-d1eb056cfd79"},"vehicle_type_id":"4","last_reported":1738768188,"current_range_meters":12800,"station_id":"ce4bhch2rcd13ifvqeug","pricing_plan_id":"cebpf4jnsgd1na2vs0mg"},{"bike_id":"b6602c4d-c98e-4a7e-9bf4-7d27c345f82b","system_id":"levelo_inurba_marseille","lat":43.31336,"lon":5.39682,"is_reserved":false,"is_disabled":false,"rental_uris":{"android":"levelo://app?vid=b6602c4d-c98e-4a7e-9bf4-7d27c345f82b","ios":"levelo://app?vid=b6602c4d-c98e-4a7e-9bf4-7d27c345f82b"},"vehicle_type_id":"4","last_reported":1738768188,"current_range_meters":36000,"station_id":"ce4bgvp2rcd13ifvqcu0","pricing_plan_id":"cebpf4jnsgd1na2vs0mg"},{"bike_id":"ea6a0107-0e7d-4623-b11a-745cc879d3a0","system_id":"levelo_inurba_marseille","lat":43.26696,"lon":5.38247,"is_reserved":false,"is_disabled":false,"rental_uris":{"android":"levelo://app?vid=ea6a0107-0e7d-4623-b11a-745cc879d3a0","ios":"levelo://app?vid=ea6a0107-0e7d-4623-b11a-745cc879d3a0"},"vehicle_type_id":"4","last_reported":1738768188,"current_range_meters":19600,"station_id":"ce4bhg92rcd13ifvqf90","pricing_plan_id":"cebpf4jnsgd1na2vs0mg"},{"bike_id":"bdf70224-63a9-4409-8dea-7caf726ef405","system_id":"levelo_inurba_marseille","lat":43.30456,"lon":5.36668,"is_reserved":false,"is_disabled":false,"rental_uris":{"android":"levelo://app?vid=bdf70224-63a9-4409-8dea-7caf726ef405","ios":"levelo://app?vid=bdf70224-63a9-4409-8dea-7caf726ef405"},"vehicle_type_id":"4","last_reported":1738768188,"current_range_meters":27200,"station_id":"","pricing_plan_id":"cebpf4jnsgd1na2vs0mg"},{"bike_id":"9fa6de76-e609-4c72-8e60-948046040770","system_id":"levelo_inurba_marseille","lat":43.26662,"lon":5.38265,"is_reserved":false,"is_disabled":false,"rental_uris":{"android":"levelo://app?vid=9fa6de76-e609-4c72-8e60-948046040770","ios":"levelo://app?vid=9fa6de76-e609-4c72-8e60-948046040770"},"vehicle_type_id":"4","last_reported":1738768188,"current_range_meters":38800,"station_id":"ce4bhg92rcd13ifvqf90","pricing_plan_id":"cebpf4jnsgd1na2vs0mg"},{"bike_id":"a6b2428a-7d23-4892-a3bf-86cc25978b7a","system_id":"levelo_inurba_marseille","lat":43.2549,"lon":5.37642,"is_reserved":false,"is_disabled":true,"rental_uris":{"android":"levelo://app?vid=a6b2428a-7d23-4892-a3bf-86cc25978b7a","ios":"levelo://app?vid=a6b2428a-7d23-4892-a3bf-86cc25978b7a"},"vehicle_type_id":"4","last_reported":1738768188,"current_range_meters":26000,"station_id":"ce4bhh12rcd13ifvqff0","pricing_plan_id":"cebpf4jnsgd1na2vs0mg"},{"bike_id":"ce2e2f5b-5df7-44ba-a37e-c67facfffe3b","system_id":"levelo_inurba_marseille","lat":43.2961,"lon":5.37734,"is_reserved":false,"is_disabled":false,"rental_uris":{"android":"levelo://app?vid=ce2e2f5b-5df7-44ba-a37e-c67facfffe3b","ios":"levelo://app?vid=ce2e2f5b-5df7-44ba-a37e-c67facfffe3b"},"vehicle_type_id":"4","last_reported":1738768188,"current_range_meters":12400,"station_id":"ce4bgi92rcd13ifvqb90","pricing_plan_id":"cebpf4jnsgd1na2vs0mg"},{"bike_id":"c7fd453e-a8f3-457c-996b-10eb52d6b32a","system_id":"levelo_inurba_marseille","lat":43.27981,"lon":5.38743,"is_reserved":false,"is_disabled":false,"rental_uris":{"android":"levelo://app?vid=c7fd453e-a8f3-457c-996b-10eb52d6b32a","ios":"levelo://app?vid=c7fd453e-a8f3-457c-996b-10eb52d6b32a"},"vehicle_type_id":"4","last_reported":1738768188,"current_range_meters":32400,"station_id":"ce4bhg12rcd13ifvqf80","pricing_plan_id":"cebpf4jnsgd1na2vs0mg"},{"bike_id":"c85a26e1-f53e-4ec1-b1ea-8b32d23f1f4d","system_id":"levelo_inurba_marseille","lat":43.230705,"lon":5.354969,"is_reserved":false,"is_disabled":false,"rental_uris":{"android":"levelo://app?vid=c85a26e1-f53e-4ec1-b1ea-8b32d23f1f4d","ios":"levelo://app?vid=c85a26e1-f53e-4ec1-b1ea-8b32d23f1f4d"},"vehicle_type_id":"4","last_reported":1738768188,"current_range_meters":22400,"station_id":"cpo3342slgdg3j2ifvpg","pricing_plan_id":"cebpf4jnsgd1na2vs0mg"},{"bike_id":"befc3649-499d-44b0-a222-974182e94149","system_id":"levelo_inurba_marseille","lat":43.26941,"lon":5.40251,"is_reserved":false,"is_disabled":false,"rental_uris":{"android":"levelo://app?vid=befc3649-499d-44b0-a222-974182e94149","ios":"levelo://app?vid=befc3649-499d-44b0-a222-974182e94149"},"vehicle_type_id":"4","last_reported":1738768188,"current_range_meters":12800,"station_id":"cjm6bp8fraef2m0cb0m0","pricing_plan_id":"cebpf4jnsgd1na2vs0mg"},{"bike_id":"512a3a23-b079-4568-bc04-d9235c65b5d3","system_id":"levelo_inurba_marseille","lat":43.23967,"lon":5.36626,"is_reserved":false,"is_disabled":false,"rental_uris":{"android":"levelo://app?vid=512a3a23-b079-4568-bc04-d9235c65b5d3","ios":"levelo://app?vid=512a3a23-b079-4568-bc04-d9235c65b5d3"},"vehicle_type_id":"4","last_reported":1738768188,"current_range_meters":38800,"station_id":"ce4bhi12rcd13ifvqfp0","pricing_plan_id":"cebpf4jnsgd1na2vs0mg"},{"bike_id":"67f7594f-7da2-4de4-b1d6-a36e1f115737","system_id":"levelo_inurba_marseille","lat":43.29879,"lon":5.39718,"is_reserved":false,"is_disabled":false,"rental_uris":{"android":"levelo://app?vid=67f7594f-7da2-4de4-b1d6-a36e1f115737","ios":"levelo://app?vid=67f7594f-7da2-4de4-b1d6-a36e1f115737"},"vehicle_type_id":"4","last_reported":1738768188,"current_range_meters":16400,"station_id":"ce4bh0h2rcd13ifvqd50","pricing_plan_id":"cebpf4jnsgd1na2vs0mg"},{"bike_id":"bd2c8631-5885-47e9-a4c3-f8cf7762eef5","system_id":"levelo_inurba_marseille","lat":43.241716,"lon":5.397321,"is_reserved":false,"is_disabled":false,"rental_uris":{"android":"levelo://app?vid=bd2c8631-5885-47e9-a4c3-f8cf7762eef5","ios":"levelo://app?vid=bd2c8631-5885-47e9-a4c3-f8cf7762eef5"},"vehicle_type_id":"4","last_reported":1738768188,"current_range_meters":38800,"station_id":"ce4bhn12rcd13ifvqgpg","pricing_plan_id":"cebpf4jnsgd1na2vs0mg"},{"bike_id":"7390fc06-4dd5-461d-88f5-10c43dc0d1f9","system_id":"levelo_inurba_marseille","lat":43.30264,"lon":5.37738,"is_reserved":false,"is_disabled":false,"rental_uris":{"android":"levelo://app?vid=7390fc06-4dd5-461d-88f5-10c43dc0d1f9","ios":"levelo://app?vid=7390fc06-4dd5-461d-88f5-10c43dc0d1f9"},"vehicle_type_id":"4","last_reported":1738768188,"current_range_meters":12000,"station_id":"ce4bguh2rcd13ifvqcj0","pricing_plan_id":"cebpf4jnsgd1na2vs0mg"},{"bike_id":"9c207c45-ddb2-4217-8d34-079a5658cd14","system_id":"levelo_inurba_marseille","lat":43.3229,"lon":5.38262,"is_reserved":false,"is_disabled":false,"rental_uris":{"android":"levelo://app?vid=9c207c45-ddb2-4217-8d34-079a5658cd14","ios":"levelo://app?vid=9c207c45-ddb2-4217-8d34-079a5658cd14"},"vehicle_type_id":"4","last_reported":1738768188,"current_range_meters":36000,"station_id":"ce4bhr12rcd13ifvqhqg","pricing_plan_id":"cebpf4jnsgd1na2vs0mg"},{"bike_id":"9b943d7c-6298-4c71-b91b-50a6d7a5595d","system_id":"levelo_inurba_marseille","lat":43.31072,"lon":5.38354,"is_reserved":false,"is_disabled":true,"rental_uris":{"android":"levelo://app?vid=9b943d7c-6298-4c71-b91b-50a6d7a5595d","ios":"levelo://app?vid=9b943d7c-6298-4c71-b91b-50a6d7a5595d"},"vehicle_type_id":"4","last_reported":1738768188,"current_range_meters":0,"station_id":"ce4bgv92rcd13ifvqcr0","pricing_plan_id":"cebpf4jnsgd1na2vs0mg"},{"bike_id":"13871233-3ee2-43ee-9907-53804be1e5ad","system_id":"levelo_inurba_marseille","lat":43.30327,"lon":5.40433,"is_reserved":false,"is_disabled":false,"rental_uris":{"android":"levelo://app?vid=13871233-3ee2-43ee-9907-53804be1e5ad","ios":"levelo://app?vid=13871233-3ee2-43ee-9907-53804be1e5ad"},"vehicle_type_id":"4","last_reported":1738768188,"current_range_meters":7200,"station_id":"ce4bh012rcd13ifvqd10","pricing_plan_id":"cebpf4jnsgd1na2vs0mg"},{"bike_id":"587ddcd7-37ae-474a-bd3f-3d2f5caeca89","system_id":"levelo_inurba_marseille","lat":43.29691,"lon":5.37668,"is_reserved":false,"is_disabled":false,"rental_uris":{"android":"levelo://app?vid=587ddcd7-37ae-474a-bd3f-3d2f5caeca89","ios":"levelo://app?vid=587ddcd7-37ae-474a-bd3f-3d2f5caeca89"},"vehicle_type_id":"4","last_reported":1738768188,"current_range_meters":10000,"station_id":"ce4bgkh2rcd13ifvqbl0","pricing_plan_id":"cebpf4jnsgd1na2vs0mg"},{"bike_id":"f906c482-7805-4258-a49d-ea4332ff3806","system_id":"levelo_inurba_marseille","lat":43.25001,"lon":5.38923,"is_reserved":false,"is_disabled":false,"rental_uris":{"android":"levelo://app?vid=f906c482-7805-4258-a49d-ea4332ff3806","ios":"levelo://app?vid=f906c482-7805-4258-a49d-ea4332ff3806"},"vehicle_type_id":"4","last_reported":1738768188,"current_range_meters":24400,"station_id":"ce4bhgp2rcd13ifvqfd0","pricing_plan_id":"cebpf4jnsgd1na2vs0mg"},{"bike_id":"7bf1dd2a-42c4-4b8e-ad09-ace0d60f7028","system_id":"levelo_inurba_marseille","lat":43.30544,"lon":5.36541,"is_reserved":false,"is_disabled":false,"rental_uris":{"android":"levelo://app?vid=7bf1dd2a-42c4-4b8e-ad09-ace0d60f7028","ios":"levelo://app?vid=7bf1dd2a-42c4-4b8e-ad09-ace0d60f7028"},"vehicle_type_id":"4","last_reported":1738768188,"current_range_meters":37600,"station_id":"ce4bgs12rcd13ifvqcag","pricing_plan_id":"cebpf4jnsgd1na2vs0mg"},{"bike_id":"ba64ce5e-acd7-44a9-b1cc-d0945d62634f","system_id":"levelo_inurba_marseille","lat":43.25709,"lon":5.41107,"is_reserved":false,"is_disabled":false,"rental_uris":{"android":"levelo://app?vid=ba64ce5e-acd7-44a9-b1cc-d0945d62634f","ios":"levelo://app?vid=ba64ce5e-acd7-44a9-b1cc-d0945d62634f"},"vehicle_type_id":"4","last_reported":1738768188,"current_range_meters":16400,"station_id":"ce4bhkp2rcd13ifvqgd0","pricing_plan_id":"cebpf4jnsgd1na2vs0mg"},{"bike_id":"ffbb5d75-afc6-4de1-8c3a-587f16ea6169","system_id":"levelo_inurba_marseille","lat":43.28697,"lon":5.38663,"is_reserved":false,"is_disabled":true,"rental_uris":{"android":"levelo://app?vid=ffbb5d75-afc6-4de1-8c3a-587f16ea6169","ios":"levelo://app?vid=ffbb5d75-afc6-4de1-8c3a-587f16ea6169"},"vehicle_type_id":"4","last_reported":1738768188,"current_range_meters":0,"station_id":"ce4bh492rcd13ifvqdug","pricing_plan_id":"cebpf4jnsgd1na2vs0mg"},{"bike_id":"589a0d6a-3f59-4c10-b4aa-574eabb1c9aa","system_id":"levelo_inurba_marseille","lat":43.30479,"lon":5.37894,"is_reserved":false,"is_disabled":false,"rental_uris":{"android":"levelo://app?vid=589a0d6a-3f59-4c10-b4aa-574eabb1c9aa","ios":"levelo://app?vid=589a0d6a-3f59-4c10-b4aa-574eabb1c9aa"},"vehicle_type_id":"4","last_reported":1738768188,"current_range_meters":9600,"station_id":"ce4bgup2rcd13ifvqcn0","pricing_plan_id":"cebpf4jnsgd1na2vs0mg"},{"bike_id":"b36332f7-f00e-4afa-89bf-f93090b6d3c8","system_id":"levelo_inurba_marseille","lat":43.2987,"lon":5.39731,"is_reserved":false,"is_disabled":false,"rental_uris":{"android":"levelo://app?vid=b36332f7-f00e-4afa-89bf-f93090b6d3c8","ios":"levelo://app?vid=b36332f7-f00e-4afa-89bf-f93090b6d3c8"},"vehicle_type_id":"4","last_reported":1738768188,"current_range_meters":33600,"station_id":"ce4bh0h2rcd13ifvqd50","pricing_plan_id":"cebpf4jnsgd1na2vs0mg"},{"bike_id":"d2b2e907-7a69-440c-88ca-229f2450e34a","system_id":"levelo_inurba_marseille","lat":43.2586,"lon":5.39892,"is_reserved":false,"is_disabled":false,"rental_uris":{"android":"levelo://app?vid=d2b2e907-7a69-440c-88ca-229f2450e34a","ios":"levelo://app?vid=d2b2e907-7a69-440c-88ca-229f2450e34a"},"vehicle_type_id":"4","last_reported":1738768188,"current_range_meters":38800,"station_id":"ce4bhl92rcd13ifvqghg","pricing_plan_id":"cebpf4jnsgd1na2vs0mg"},{"bike_id":"9479867b-cf18-49b0-916d-020de5d78688","system_id":"levelo_inurba_marseille","lat":43.28715,"lon":5.37388,"is_reserved":false,"is_disabled":false,"rental_uris":{"android":"levelo://app?vid=9479867b-cf18-49b0-916d-020de5d78688","ios":"levelo://app?vid=9479867b-cf18-49b0-916d-020de5d78688"},"vehicle_type_id":"4","last_reported":1738768188,"current_range_meters":18000,"station_id":"ce4bh3p2rcd13ifvqdq0","pricing_plan_id":"cebpf4jnsgd1na2vs0mg"},{"bike_id":"35b0fbe6-22db-46fb-a54a-76af362a8729","system_id":"levelo_inurba_marseille","lat":43.29973,"lon":5.41328,"is_reserved":false,"is_disabled":false,"rental_uris":{"android":"levelo://app?vid=35b0fbe6-22db-46fb-a54a-76af362a8729","ios":"levelo://app?vid=35b0fbe6-22db-46fb-a54a-76af362a8729"},"vehicle_type_id":"4","last_reported":1738768188,"current_range_meters":37600,"station_id":"ce4bhp12rcd13ifvqh9g","pricing_plan_id":"cebpf4jnsgd1na2vs0mg"},{"bike_id":"e0f7f9ed-22a0-47a7-b08f-334aecb96c7a","system_id":"levelo_inurba_marseille","lat":43.30309,"lon":5.36912,"is_reserved":false,"is_disabled":false,"rental_uris":{"android":"levelo://app?vid=e0f7f9ed-22a0-47a7-b08f-334aecb96c7a","ios":"levelo://app?vid=e0f7f9ed-22a0-47a7-b08f-334aecb96c7a"},"vehicle_type_id":"4","last_reported":1738768188,"current_range_meters":10000,"station_id":"ce4bgqh2rcd13ifvqc5g","pricing_plan_id":"cebpf4jnsgd1na2vs0mg"},{"bike_id":"860d7f56-a19c-4d48-8260-b550897259c7","system_id":"levelo_inurba_marseille","lat":43.27311,"lon":5.39112,"is_reserved":false,"is_disabled":false,"rental_uris":{"android":"levelo://app?vid=860d7f56-a19c-4d48-8260-b550897259c7","ios":"levelo://app?vid=860d7f56-a19c-4d48-8260-b550897259c7"},"vehicle_type_id":"4","last_reported":1738768188,"current_range_meters":38800,"station_id":"ce4bhgp2rcd13ifvqfe0","pricing_plan_id":"cebpf4jnsgd1na2vs0mg"},{"bike_id":"48b95282-f3a2-4244-98b5-b014f3254cf4","system_id":"levelo_inurba_marseille","lat":43.29792,"lon":5.40416,"is_reserved":false,"is_disabled":false,"rental_uris":{"android":"levelo://app?vid=48b95282-f3a2-4244-98b5-b014f3254cf4","ios":"levelo://app?vid=48b95282-f3a2-4244-98b5-b014f3254cf4"},"vehicle_type_id":"4","last_reported":1738768188,"current_range_meters":9200,"station_id":"ce4bh112rcd13ifvqd90","pricing_plan_id":"cebpf4jnsgd1na2vs0mg"},{"bike_id":"3e433557-b45b-4725-918f-38743fd6d93b","system_id":"levelo_inurba_marseille","lat":43.25716,"lon":5.41126,"is_reserved":false,"is_disabled":false,"rental_uris":{"android":"levelo://app?vid=3e433557-b45b-4725-918f-38743fd6d93b","ios":"levelo://app?vid=3e433557-b45b-4725-918f-38743fd6d93b"},"vehicle_type_id":"4","last_reported":1738768188,"current_range_meters":21600,"station_id":"ce4bhkp2rcd13ifvqgd0","pricing_plan_id":"cebpf4jnsgd1na2vs0mg"},{"bike_id":"2f9a6647-bfb0-4c5f-b2d5-6b23d0794b76","system_id":"levelo_inurba_marseille","lat":43.25576,"lon":5.38232,"is_reserved":false,"is_disabled":true,"rental_uris":{"android":"levelo://app?vid=2f9a6647-bfb0-4c5f-b2d5-6b23d0794b76","ios":"levelo://app?vid=2f9a6647-bfb0-4c5f-b2d5-6b23d0794b76"},"vehicle_type_id":"4","last_reported":1738768188,"current_range_meters":38000,"station_id":"ce4bhih2rcd13ifvqfs0","pricing_plan_id":"cebpf4jnsgd1na2vs0mg"},{"bike_id":"771fcdd2-44b1-4228-84f6-0ceee1f283fc","system_id":"levelo_inurba_marseille","lat":43.30142,"lon":5.39882,"is_reserved":false,"is_disabled":false,"rental_uris":{"android":"levelo://app?vid=771fcdd2-44b1-4228-84f6-0ceee1f283fc","ios":"levelo://app?vid=771fcdd2-44b1-4228-84f6-0ceee1f283fc"},"vehicle_type_id":"4","last_reported":1738768188,"current_range_meters":25600,"station_id":"ce4bh0h2rcd13ifvqd40","pricing_plan_id":"cebpf4jnsgd1na2vs0mg"},{"bike_id":"87a42b20-b9b7-4afe-93f6-18333a00c070","system_id":"levelo_inurba_marseille","lat":43.25079,"lon":5.39511,"is_reserved":false,"is_disabled":false,"rental_uris":{"android":"levelo://app?vid=87a42b20-b9b7-4afe-93f6-18333a00c070","ios":"levelo://app?vid=87a42b20-b9b7-4afe-93f6-18333a00c070"},"vehicle_type_id":"4","last_reported":1738768188,"current_range_meters":27200,"station_id":"ce4bhm12rcd13ifvqgkg","pricing_plan_id":"cebpf4jnsgd1na2vs0mg"},{"bike_id":"786af5a6-7181-4746-8e7c-5055a97f6274","system_id":"levelo_inurba_marseille","lat":43.28157,"lon":5.42635,"is_reserved":false,"is_disabled":true,"rental_uris":{"android":"levelo://app?vid=786af5a6-7181-4746-8e7c-5055a97f6274","ios":"levelo://app?vid=786af5a6-7181-4746-8e7c-5055a97f6274"},"vehicle_type_id":"4","last_reported":1738768188,"current_range_meters":32400,"station_id":"ce4bhnh2rcd13ifvqgug","pricing_plan_id":"cebpf4jnsgd1na2vs0mg"},{"bike_id":"dbf75587-eb99-4dde-8c10-102a9cfad15d","system_id":"levelo_inurba_marseille","lat":43.23963,"lon":5.36633,"is_reserved":false,"is_disabled":false,"rental_uris":{"android":"levelo://app?vid=dbf75587-eb99-4dde-8c10-102a9cfad15d","ios":"levelo://app?vid=dbf75587-eb99-4dde-8c10-102a9cfad15d"},"vehicle_type_id":"4","last_reported":1738768188,"current_range_meters":3600,"station_id":"ce4bhi12rcd13ifvqfp0","pricing_plan_id":"cebpf4jnsgd1na2vs0mg"},{"bike_id":"a8d2a0c8-ac6d-41b2-8118-71b60a8e6ee5","system_id":"levelo_inurba_marseille","lat":43.28848,"lon":5.35853,"is_reserved":false,"is_disabled":false,"rental_uris":{"android":"levelo://app?vid=a8d2a0c8-ac6d-41b2-8118-71b60a8e6ee5","ios":"levelo://app?vid=a8d2a0c8-ac6d-41b2-8118-71b60a8e6ee5"},"vehicle_type_id":"4","last_reported":1738768188,"current_range_meters":38400,"station_id":"ce4bhb12rcd13ifvqem0","pricing_plan_id":"cebpf4jnsgd1na2vs0mg"},{"bike_id":"50b15991-9296-4df6-b1a6-725aba7e366c","system_id":"levelo_inurba_marseille","lat":43.25858,"lon":5.39925,"is_reserved":false,"is_disabled":true,"rental_uris":{"android":"levelo://app?vid=50b15991-9296-4df6-b1a6-725aba7e366c","ios":"levelo://app?vid=50b15991-9296-4df6-b1a6-725aba7e366c"},"vehicle_type_id":"4","last_reported":1738768188,"current_range_meters":1600,"station_id":"ce4bhl92rcd13ifvqghg","pricing_plan_id":"cebpf4jnsgd1na2vs0mg"},{"bike_id":"da4184ae-45e5-4997-8a3f-d0a7996a0181","system_id":"levelo_inurba_marseille","lat":43.30516,"lon":5.36545,"is_reserved":false,"is_disabled":false,"rental_uris":{"android":"levelo://app?vid=da4184ae-45e5-4997-8a3f-d0a7996a0181","ios":"levelo://app?vid=da4184ae-45e5-4997-8a3f-d0a7996a0181"},"vehicle_type_id":"4","last_reported":1738768188,"current_range_meters":29600,"station_id":"ce4bgs12rcd13ifvqcag","pricing_plan_id":"cebpf4jnsgd1na2vs0mg"},{"bike_id":"ebb6e997-80cb-4899-a3f2-23186dc1fe48","system_id":"levelo_inurba_marseille","lat":43.33784,"lon":5.3742,"is_reserved":false,"is_disabled":false,"rental_uris":{"android":"levelo://app?vid=ebb6e997-80cb-4899-a3f2-23186dc1fe48","ios":"levelo://app?vid=ebb6e997-80cb-4899-a3f2-23186dc1fe48"},"vehicle_type_id":"4","last_reported":1738768188,"current_range_meters":25600,"station_id":"","pricing_plan_id":"cebpf4jnsgd1na2vs0mg"},{"bike_id":"6f6c21c3-efed-41b8-be90-55724625fd11","system_id":"levelo_inurba_marseille","lat":43.27207,"lon":5.39179,"is_reserved":false,"is_disabled":false,"rental_uris":{"android":"levelo://app?vid=6f6c21c3-efed-41b8-be90-55724625fd11","ios":"levelo://app?vid=6f6c21c3-efed-41b8-be90-55724625fd11"},"vehicle_type_id":"4","last_reported":1738768188,"current_range_meters":31200,"station_id":"ce4bhhp2rcd13ifvqfm0","pricing_plan_id":"cebpf4jnsgd1na2vs0mg"},{"bike_id":"209cba90-c7a6-4f4b-be2b-550153199cc2","system_id":"levelo_inurba_marseille","lat":43.30427,"lon":5.39755,"is_reserved":false,"is_disabled":false,"rental_uris":{"android":"levelo://app?vid=209cba90-c7a6-4f4b-be2b-550153199cc2","ios":"levelo://app?vid=209cba90-c7a6-4f4b-be2b-550153199cc2"},"vehicle_type_id":"4","last_reported":1738768188,"current_range_meters":4400,"station_id":"ce4bh092rcd13ifvqd20","pricing_plan_id":"cebpf4jnsgd1na2vs0mg"},{"bike_id":"7d5a071b-33d0-4a99-a7a2-905e423e155c","system_id":"levelo_inurba_marseille","lat":43.23955,"lon":5.36646,"is_reserved":false,"is_disabled":false,"rental_uris":{"android":"levelo://app?vid=7d5a071b-33d0-4a99-a7a2-905e423e155c","ios":"levelo://app?vid=7d5a071b-33d0-4a99-a7a2-905e423e155c"},"vehicle_type_id":"4","last_reported":1738768188,"current_range_meters":36400,"station_id":"ce4bhi12rcd13ifvqfp0","pricing_plan_id":"cebpf4jnsgd1na2vs0mg"},{"bike_id":"94b06e69-2b6a-466c-bcf3-a4a9d0838857","system_id":"levelo_inurba_marseille","lat":43.31167,"lon":5.38721,"is_reserved":false,"is_disabled":false,"rental_uris":{"android":"levelo://app?vid=94b06e69-2b6a-466c-bcf3-a4a9d0838857","ios":"levelo://app?vid=94b06e69-2b6a-466c-bcf3-a4a9d0838857"},"vehicle_type_id":"4","last_reported":1738768188,"current_range_meters":38400,"station_id":"ce4bgv12rcd13ifvqcp0","pricing_plan_id":"cebpf4jnsgd1na2vs0mg"},{"bike_id":"b1e60678-8264-4906-b2da-20a0cc7ad260","system_id":"levelo_inurba_marseille","lat":43.2678,"lon":5.39423,"is_reserved":false,"is_disabled":false,"rental_uris":{"android":"levelo://app?vid=b1e60678-8264-4906-b2da-20a0cc7ad260","ios":"levelo://app?vid=b1e60678-8264-4906-b2da-20a0cc7ad260"},"vehicle_type_id":"4","last_reported":1738768188,"current_range_meters":12000,"station_id":"ce4bhh12rcd13ifvqfg0","pricing_plan_id":"cebpf4jnsgd1na2vs0mg"},{"bike_id":"931c3b97-cce1-4ebe-a291-6c50a6f2810e","system_id":"levelo_inurba_marseille","lat":43.317879,"lon":5.374363,"is_reserved":false,"is_disabled":false,"rental_uris":{"android":"levelo://app?vid=931c3b97-cce1-4ebe-a291-6c50a6f2810e","ios":"levelo://app?vid=931c3b97-cce1-4ebe-a291-6c50a6f2810e"},"vehicle_type_id":"4","last_reported":1738768188,"current_range_meters":6400,"station_id":"","pricing_plan_id":"cebpf4jnsgd1na2vs0mg"},{"bike_id":"0954191d-997f-4992-9288-065571d000f5","system_id":"levelo_inurba_marseille","lat":43.30799,"lon":5.37621,"is_reserved":false,"is_disabled":false,"rental_uris":{"android":"levelo://app?vid=0954191d-997f-4992-9288-065571d000f5","ios":"levelo://app?vid=0954191d-997f-4992-9288-065571d000f5"},"vehicle_type_id":"4","last_reported":1738768188,"current_range_meters":29600,"station_id":"ce4bgv92rcd13ifvqcq0","pricing_plan_id":"cebpf4jnsgd1na2vs0mg"},{"bike_id":"d1d51ec2-e1ab-4b92-9a4b-f935b04ef436","system_id":"levelo_inurba_marseille","lat":43.25012,"lon":5.38912,"is_reserved":false,"is_disabled":false,"rental_uris":{"android":"levelo://app?vid=d1d51ec2-e1ab-4b92-9a4b-f935b04ef436","ios":"levelo://app?vid=d1d51ec2-e1ab-4b92-9a4b-f935b04ef436"},"vehicle_type_id":"4","last_reported":1738768188,"current_range_meters":18000,"station_id":"ce4bhgp2rcd13ifvqfd0","pricing_plan_id":"cebpf4jnsgd1na2vs0mg"},{"bike_id":"45a809db-94d1-4d10-ba4a-791caf193ba6","system_id":"levelo_inurba_marseille","lat":43.2794,"lon":5.41039,"is_reserved":false,"is_disabled":false,"rental_uris":{"android":"levelo://app?vid=45a809db-94d1-4d10-ba4a-791caf193ba6","ios":"levelo://app?vid=45a809db-94d1-4d10-ba4a-791caf193ba6"},"vehicle_type_id":"4","last_reported":1738768188,"current_range_meters":30800,"station_id":"ce4bhnp2rcd13ifvqh0g","pricing_plan_id":"cebpf4jnsgd1na2vs0mg"},{"bike_id":"7a2080c9-d44a-471c-9acd-526428e8e5dc","system_id":"levelo_inurba_marseille","lat":43.22931,"lon":5.35391,"is_reserved":false,"is_disabled":false,"rental_uris":{"android":"levelo://app?vid=7a2080c9-d44a-471c-9acd-526428e8e5dc","ios":"levelo://app?vid=7a2080c9-d44a-471c-9acd-526428e8e5dc"},"vehicle_type_id":"4","last_reported":1738768188,"current_range_meters":39200,"station_id":"cpo3532slgdg3j2ikp40","pricing_plan_id":"cebpf4jnsgd1na2vs0mg"},{"bike_id":"5e7872bf-6d44-4209-9e94-a728a908b09f","system_id":"levelo_inurba_marseille","lat":43.31324,"lon":5.39693,"is_reserved":false,"is_disabled":false,"rental_uris":{"android":"levelo://app?vid=5e7872bf-6d44-4209-9e94-a728a908b09f","ios":"levelo://app?vid=5e7872bf-6d44-4209-9e94-a728a908b09f"},"vehicle_type_id":"4","last_reported":1738768188,"current_range_meters":18000,"station_id":"ce4bgvp2rcd13ifvqcu0","pricing_plan_id":"cebpf4jnsgd1na2vs0mg"},{"bike_id":"3cffe561-5575-4d5f-9a3c-4ee740a5b122","system_id":"levelo_inurba_marseille","lat":43.27948,"lon":5.41043,"is_reserved":false,"is_disabled":false,"rental_uris":{"android":"levelo://app?vid=3cffe561-5575-4d5f-9a3c-4ee740a5b122","ios":"levelo://app?vid=3cffe561-5575-4d5f-9a3c-4ee740a5b122"},"vehicle_type_id":"4","last_reported":1738768188,"current_range_meters":24400,"station_id":"ce4bhnp2rcd13ifvqh0g","pricing_plan_id":"cebpf4jnsgd1na2vs0mg"},{"bike_id":"6100990f-c4b7-4419-ab12-3d9c2a9f7c81","system_id":"levelo_inurba_marseille","lat":43.28293,"lon":5.35067,"is_reserved":false,"is_disabled":false,"rental_uris":{"android":"levelo://app?vid=6100990f-c4b7-4419-ab12-3d9c2a9f7c81","ios":"levelo://app?vid=6100990f-c4b7-4419-ab12-3d9c2a9f7c81"},"vehicle_type_id":"4","last_reported":1738768188,"current_range_meters":38000,"station_id":"ce4bhbp2rcd13ifvqerg","pricing_plan_id":"cebpf4jnsgd1na2vs0mg"},{"bike_id":"f307dfc9-492f-427c-886b-0aebd0c4a217","system_id":"levelo_inurba_marseille","lat":43.24162,"lon":5.36395,"is_reserved":false,"is_disabled":false,"rental_uris":{"android":"levelo://app?vid=f307dfc9-492f-427c-886b-0aebd0c4a217","ios":"levelo://app?vid=f307dfc9-492f-427c-886b-0aebd0c4a217"},"vehicle_type_id":"4","last_reported":1738768188,"current_range_meters":38400,"station_id":"cpo36qri1sfpv3e86is0","pricing_plan_id":"cebpf4jnsgd1na2vs0mg"},{"bike_id":"cb34fe3e-6f41-4819-bc64-c564cf3f5ecf","system_id":"levelo_inurba_marseille","lat":43.28713,"lon":5.39998,"is_reserved":false,"is_disabled":false,"rental_uris":{"android":"levelo://app?vid=cb34fe3e-6f41-4819-bc64-c564cf3f5ecf","ios":"levelo://app?vid=cb34fe3e-6f41-4819-bc64-c564cf3f5ecf"},"vehicle_type_id":"4","last_reported":1738768188,"current_range_meters":38800,"station_id":"ce4bho92rcd13ifvqh3g","pricing_plan_id":"cebpf4jnsgd1na2vs0mg"},{"bike_id":"ca18a2fe-9fa1-402a-bdac-9e0cb0788a81","system_id":"levelo_inurba_marseille","lat":43.29005,"lon":5.35606,"is_reserved":false,"is_disabled":false,"rental_uris":{"android":"levelo://app?vid=ca18a2fe-9fa1-402a-bdac-9e0cb0788a81","ios":"levelo://app?vid=ca18a2fe-9fa1-402a-bdac-9e0cb0788a81"},"vehicle_type_id":"4","last_reported":1738768188,"current_range_meters":38400,"station_id":"ce4bhb92rcd13ifvqen0","pricing_plan_id":"cebpf4jnsgd1na2vs0mg"},{"bike_id":"231e4208-9f17-4c2d-af87-9c14978dda33","system_id":"levelo_inurba_marseille","lat":43.26813,"lon":5.39385,"is_reserved":false,"is_disabled":false,"rental_uris":{"android":"levelo://app?vid=231e4208-9f17-4c2d-af87-9c14978dda33","ios":"levelo://app?vid=231e4208-9f17-4c2d-af87-9c14978dda33"},"vehicle_type_id":"4","last_reported":1738768188,"current_range_meters":38800,"station_id":"ce4bhh12rcd13ifvqfg0","pricing_plan_id":"cebpf4jnsgd1na2vs0mg"},{"bike_id":"abd07a97-530b-4fc0-93db-ff4b041bb8b9","system_id":"levelo_inurba_marseille","lat":43.30189,"lon":5.36601,"is_reserved":false,"is_disabled":false,"rental_uris":{"android":"levelo://app?vid=abd07a97-530b-4fc0-93db-ff4b041bb8b9","ios":"levelo://app?vid=abd07a97-530b-4fc0-93db-ff4b041bb8b9"},"vehicle_type_id":"4","last_reported":1738768188,"current_range_meters":30000,"station_id":"ce4bgrh2rcd13ifvqc8g","pricing_plan_id":"cebpf4jnsgd1na2vs0mg"},{"bike_id":"e425eb01-9ac7-4302-8b07-34d0b6e9a76e","system_id":"levelo_inurba_marseille","lat":43.30542,"lon":5.38437,"is_reserved":false,"is_disabled":false,"rental_uris":{"android":"levelo://app?vid=e425eb01-9ac7-4302-8b07-34d0b6e9a76e","ios":"levelo://app?vid=e425eb01-9ac7-4302-8b07-34d0b6e9a76e"},"vehicle_type_id":"4","last_reported":1738768188,"current_range_meters":19200,"station_id":"ce4bgg92rcd13ifvqb30","pricing_plan_id":"cebpf4jnsgd1na2vs0mg"},{"bike_id":"3ed2f346-3cdc-4051-b18a-2a05168e6e32","system_id":"levelo_inurba_marseille","lat":43.31061,"lon":5.40099,"is_reserved":false,"is_disabled":false,"rental_uris":{"android":"levelo://app?vid=3ed2f346-3cdc-4051-b18a-2a05168e6e32","ios":"levelo://app?vid=3ed2f346-3cdc-4051-b18a-2a05168e6e32"},"vehicle_type_id":"4","last_reported":1738768188,"current_range_meters":32400,"station_id":"","pricing_plan_id":"cebpf4jnsgd1na2vs0mg"},{"bike_id":"2d3ab029-0757-42af-b315-ae61d77c962f","system_id":"levelo_inurba_marseille","lat":43.26214,"lon":5.37443,"is_reserved":false,"is_disabled":false,"rental_uris":{"android":"levelo://app?vid=2d3ab029-0757-42af-b315-ae61d77c962f","ios":"levelo://app?vid=2d3ab029-0757-42af-b315-ae61d77c962f"},"vehicle_type_id":"4","last_reported":1738768188,"current_range_meters":20000,"station_id":"ce4bhgp2rcd13ifvqfc0","pricing_plan_id":"cebpf4jnsgd1na2vs0mg"},{"bike_id":"bc4186b3-1073-492b-ab95-0326a7b12d0e","system_id":"levelo_inurba_marseille","lat":43.28429,"lon":5.34971,"is_reserved":false,"is_disabled":false,"rental_uris":{"android":"levelo://app?vid=bc4186b3-1073-492b-ab95-0326a7b12d0e","ios":"levelo://app?vid=bc4186b3-1073-492b-ab95-0326a7b12d0e"},"vehicle_type_id":"4","last_reported":1738768188,"current_range_meters":36000,"station_id":"ce4bhbh2rcd13ifvqepg","pricing_plan_id":"cebpf4jnsgd1na2vs0mg"},{"bike_id":"c4833bfc-538d-493b-94d2-ac9ac9cac0a4","system_id":"levelo_inurba_marseille","lat":43.27616,"lon":5.36114,"is_reserved":false,"is_disabled":false,"rental_uris":{"android":"levelo://app?vid=c4833bfc-538d-493b-94d2-ac9ac9cac0a4","ios":"levelo://app?vid=c4833bfc-538d-493b-94d2-ac9ac9cac0a4"},"vehicle_type_id":"4","last_reported":1738768188,"current_range_meters":20000,"station_id":"ce4bgj92rcd13ifvqbe0","pricing_plan_id":"cebpf4jnsgd1na2vs0mg"},{"bike_id":"ca548841-038a-498c-a964-8af9b79f0f47","system_id":"levelo_inurba_marseille","lat":43.28027,"lon":5.3695,"is_reserved":false,"is_disabled":false,"rental_uris":{"android":"levelo://app?vid=ca548841-038a-498c-a964-8af9b79f0f47","ios":"levelo://app?vid=ca548841-038a-498c-a964-8af9b79f0f47"},"vehicle_type_id":"4","last_reported":1738768188,"current_range_meters":39200,"station_id":"ce4bha12rcd13ifvqef0","pricing_plan_id":"cebpf4jnsgd1na2vs0mg"},{"bike_id":"0389b0e3-bb7d-4743-89c2-0175efe92f67","system_id":"levelo_inurba_marseille","lat":43.32489,"lon":5.36574,"is_reserved":false,"is_disabled":false,"rental_uris":{"android":"levelo://app?vid=0389b0e3-bb7d-4743-89c2-0175efe92f67","ios":"levelo://app?vid=0389b0e3-bb7d-4743-89c2-0175efe92f67"},"vehicle_type_id":"4","last_reported":1738768188,"current_range_meters":26000,"station_id":"ce4bhs12rcd13ifvqhvg","pricing_plan_id":"cebpf4jnsgd1na2vs0mg"},{"bike_id":"a6d0cad2-4c79-4fd5-97af-09c3bd20a120","system_id":"levelo_inurba_marseille","lat":43.29864,"lon":5.36281,"is_reserved":false,"is_disabled":false,"rental_uris":{"android":"levelo://app?vid=a6d0cad2-4c79-4fd5-97af-09c3bd20a120","ios":"levelo://app?vid=a6d0cad2-4c79-4fd5-97af-09c3bd20a120"},"vehicle_type_id":"4","last_reported":1738768188,"current_range_meters":38400,"station_id":"ce4bgpp2rcd13ifvqc3g","pricing_plan_id":"cebpf4jnsgd1na2vs0mg"},{"bike_id":"0a287503-4bf2-4506-8970-2887ee5ee9b1","system_id":"levelo_inurba_marseille","lat":43.27894,"lon":5.39609,"is_reserved":false,"is_disabled":false,"rental_uris":{"android":"levelo://app?vid=0a287503-4bf2-4506-8970-2887ee5ee9b1","ios":"levelo://app?vid=0a287503-4bf2-4506-8970-2887ee5ee9b1"},"vehicle_type_id":"4","last_reported":1738768188,"current_range_meters":38800,"station_id":"ce4bhf92rcd13ifvqf40","pricing_plan_id":"cebpf4jnsgd1na2vs0mg"},{"bike_id":"2b52254f-933d-4903-ac07-21eb27a1e798","system_id":"levelo_inurba_marseille","lat":43.27191,"lon":5.41006,"is_reserved":false,"is_disabled":false,"rental_uris":{"android":"levelo://app?vid=2b52254f-933d-4903-ac07-21eb27a1e798","ios":"levelo://app?vid=2b52254f-933d-4903-ac07-21eb27a1e798"},"vehicle_type_id":"4","last_reported":1738768188,"current_range_meters":6000,"station_id":"ce4bhl12rcd13ifvqgf0","pricing_plan_id":"cebpf4jnsgd1na2vs0mg"},{"bike_id":"231c854e-438e-44a9-a0b3-03645ee8c8d3","system_id":"levelo_inurba_marseille","lat":43.2862,"lon":5.35105,"is_reserved":false,"is_disabled":false,"rental_uris":{"android":"levelo://app?vid=231c854e-438e-44a9-a0b3-03645ee8c8d3","ios":"levelo://app?vid=231c854e-438e-44a9-a0b3-03645ee8c8d3"},"vehicle_type_id":"4","last_reported":1738768188,"current_range_meters":32000,"station_id":"ce4bhch2rcd13ifvqeug","pricing_plan_id":"cebpf4jnsgd1na2vs0mg"},{"bike_id":"d9c9c7a1-08d0-4528-8bf3-54e33152b52c","system_id":"levelo_inurba_marseille","lat":43.3211,"lon":5.36768,"is_reserved":false,"is_disabled":false,"rental_uris":{"android":"levelo://app?vid=d9c9c7a1-08d0-4528-8bf3-54e33152b52c","ios":"levelo://app?vid=d9c9c7a1-08d0-4528-8bf3-54e33152b52c"},"vehicle_type_id":"4","last_reported":1738768188,"current_range_meters":21600,"station_id":"ce4bhrh2rcd13ifvqhug","pricing_plan_id":"cebpf4jnsgd1na2vs0mg"},{"bike_id":"c3826df1-0b31-4b19-a344-0136cf192704","system_id":"levelo_inurba_marseille","lat":43.31162,"lon":5.38716,"is_reserved":false,"is_disabled":false,"rental_uris":{"android":"levelo://app?vid=c3826df1-0b31-4b19-a344-0136cf192704","ios":"levelo://app?vid=c3826df1-0b31-4b19-a344-0136cf192704"},"vehicle_type_id":"4","last_reported":1738768188,"current_range_meters":28000,"station_id":"ce4bgv12rcd13ifvqcp0","pricing_plan_id":"cebpf4jnsgd1na2vs0mg"},{"bike_id":"2551b22b-c2b7-4ff0-a854-ef42bd591a2f","system_id":"levelo_inurba_marseille","lat":43.2315,"lon":5.43712,"is_reserved":false,"is_disabled":true,"rental_uris":{"android":"levelo://app?vid=2551b22b-c2b7-4ff0-a854-ef42bd591a2f","ios":"levelo://app?vid=2551b22b-c2b7-4ff0-a854-ef42bd591a2f"},"vehicle_type_id":"4","last_reported":1738768188,"current_range_meters":400,"station_id":"ce4bhmp2rcd13ifvqgog","pricing_plan_id":"cebpf4jnsgd1na2vs0mg"},{"bike_id":"16b3977d-999c-46bd-b3a6-d77a60254c13","system_id":"levelo_inurba_marseille","lat":43.30147,"lon":5.37413,"is_reserved":false,"is_disabled":false,"rental_uris":{"android":"levelo://app?vid=16b3977d-999c-46bd-b3a6-d77a60254c13","ios":"levelo://app?vid=16b3977d-999c-46bd-b3a6-d77a60254c13"},"vehicle_type_id":"4","last_reported":1738768188,"current_range_meters":27200,"station_id":"ce4bgs92rcd13ifvqcc0","pricing_plan_id":"cebpf4jnsgd1na2vs0mg"},{"bike_id":"8e539d3e-4a88-4255-9b11-19cb4f07409c","system_id":"levelo_inurba_marseille","lat":43.24177,"lon":5.39726,"is_reserved":false,"is_disabled":false,"rental_uris":{"android":"levelo://app?vid=8e539d3e-4a88-4255-9b11-19cb4f07409c","ios":"levelo://app?vid=8e539d3e-4a88-4255-9b11-19cb4f07409c"},"vehicle_type_id":"4","last_reported":1738768188,"current_range_meters":28000,"station_id":"ce4bhn12rcd13ifvqgpg","pricing_plan_id":"cebpf4jnsgd1na2vs0mg"},{"bike_id":"c376a972-58d0-4962-8f67-b879b165b400","system_id":"levelo_inurba_marseille","lat":43.31072,"lon":5.38362,"is_reserved":false,"is_disabled":false,"rental_uris":{"android":"levelo://app?vid=c376a972-58d0-4962-8f67-b879b165b400","ios":"levelo://app?vid=c376a972-58d0-4962-8f67-b879b165b400"},"vehicle_type_id":"4","last_reported":1738768188,"current_range_meters":18000,"station_id":"ce4bgv92rcd13ifvqcr0","pricing_plan_id":"cebpf4jnsgd1na2vs0mg"},{"bike_id":"0328d7c2-afe2-4d87-b3be-38b813fdee19","system_id":"levelo_inurba_marseille","lat":43.26948,"lon":5.40261,"is_reserved":false,"is_disabled":false,"rental_uris":{"android":"levelo://app?vid=0328d7c2-afe2-4d87-b3be-38b813fdee19","ios":"levelo://app?vid=0328d7c2-afe2-4d87-b3be-38b813fdee19"},"vehicle_type_id":"4","last_reported":1738768188,"current_range_meters":27600,"station_id":"cjm6bp8fraef2m0cb0m0","pricing_plan_id":"cebpf4jnsgd1na2vs0mg"},{"bike_id":"829e24bb-ddc5-4c71-b55d-a6ec96d1ab1a","system_id":"levelo_inurba_marseille","lat":43.29369,"lon":5.37846,"is_reserved":false,"is_disabled":true,"rental_uris":{"android":"levelo://app?vid=829e24bb-ddc5-4c71-b55d-a6ec96d1ab1a","ios":"levelo://app?vid=829e24bb-ddc5-4c71-b55d-a6ec96d1ab1a"},"vehicle_type_id":"4","last_reported":1738768188,"current_range_meters":0,"station_id":"ce4bgjh2rcd13ifvqbf0","pricing_plan_id":"cebpf4jnsgd1na2vs0mg"},{"bike_id":"afb24665-29eb-4b84-b727-dcf974a337f4","system_id":"levelo_inurba_marseille","lat":43.29232,"lon":5.360577,"is_reserved":false,"is_disabled":false,"rental_uris":{"android":"levelo://app?vid=afb24665-29eb-4b84-b727-dcf974a337f4","ios":"levelo://app?vid=afb24665-29eb-4b84-b727-dcf974a337f4"},"vehicle_type_id":"4","last_reported":1738768188,"current_range_meters":38400,"station_id":"ce4bhbh2rcd13ifvqeqg","pricing_plan_id":"cebpf4jnsgd1na2vs0mg"},{"bike_id":"a6f18090-f8be-4205-85e2-675209b0cbe3","system_id":"levelo_inurba_marseille","lat":43.26187,"lon":5.3746,"is_reserved":false,"is_disabled":false,"rental_uris":{"android":"levelo://app?vid=a6f18090-f8be-4205-85e2-675209b0cbe3","ios":"levelo://app?vid=a6f18090-f8be-4205-85e2-675209b0cbe3"},"vehicle_type_id":"4","last_reported":1738768188,"current_range_meters":14000,"station_id":"ce4bhgp2rcd13ifvqfc0","pricing_plan_id":"cebpf4jnsgd1na2vs0mg"},{"bike_id":"ac0e0335-9e9d-4332-addd-ad0511e84cfe","system_id":"levelo_inurba_marseille","lat":43.29751,"lon":5.37103,"is_reserved":false,"is_disabled":false,"rental_uris":{"android":"levelo://app?vid=ac0e0335-9e9d-4332-addd-ad0511e84cfe","ios":"levelo://app?vid=ac0e0335-9e9d-4332-addd-ad0511e84cfe"},"vehicle_type_id":"4","last_reported":1738768188,"current_range_meters":37600,"station_id":"ce4bgop2rcd13ifvqc1g","pricing_plan_id":"cebpf4jnsgd1na2vs0mg"},{"bike_id":"09f862ca-83a2-4801-b7f5-d63f02260ed6","system_id":"levelo_inurba_marseille","lat":43.30358,"lon":5.3648,"is_reserved":false,"is_disabled":false,"rental_uris":{"android":"levelo://app?vid=09f862ca-83a2-4801-b7f5-d63f02260ed6","ios":"levelo://app?vid=09f862ca-83a2-4801-b7f5-d63f02260ed6"},"vehicle_type_id":"4","last_reported":1738768188,"current_range_meters":30800,"station_id":"","pricing_plan_id":"cebpf4jnsgd1na2vs0mg"},{"bike_id":"8dcb5648-f815-40ee-a1ef-63cb7b60c563","system_id":"levelo_inurba_marseille","lat":43.31992,"lon":5.38136,"is_reserved":false,"is_disabled":false,"rental_uris":{"android":"levelo://app?vid=8dcb5648-f815-40ee-a1ef-63cb7b60c563","ios":"levelo://app?vid=8dcb5648-f815-40ee-a1ef-63cb7b60c563"},"vehicle_type_id":"4","last_reported":1738768188,"current_range_meters":32400,"station_id":"ce4bhr12rcd13ifvqhpg","pricing_plan_id":"cebpf4jnsgd1na2vs0mg"},{"bike_id":"65d7be4d-41c1-4db5-ab91-ead9fd504092","system_id":"levelo_inurba_marseille","lat":43.27612,"lon":5.36102,"is_reserved":false,"is_disabled":false,"rental_uris":{"android":"levelo://app?vid=65d7be4d-41c1-4db5-ab91-ead9fd504092","ios":"levelo://app?vid=65d7be4d-41c1-4db5-ab91-ead9fd504092"},"vehicle_type_id":"4","last_reported":1738768188,"current_range_meters":28400,"station_id":"ce4bgj92rcd13ifvqbe0","pricing_plan_id":"cebpf4jnsgd1na2vs0mg"},{"bike_id":"a980d691-427e-4dc1-8b53-f6c231278329","system_id":"levelo_inurba_marseille","lat":43.29333,"lon":5.40082,"is_reserved":false,"is_disabled":false,"rental_uris":{"android":"levelo://app?vid=a980d691-427e-4dc1-8b53-f6c231278329","ios":"levelo://app?vid=a980d691-427e-4dc1-8b53-f6c231278329"},"vehicle_type_id":"4","last_reported":1738768188,"current_range_meters":25600,"station_id":"ce4bh312rcd13ifvqdk0","pricing_plan_id":"cebpf4jnsgd1na2vs0mg"},{"bike_id":"a9ee38d0-21e8-4d99-8e3f-cc643e32473e","system_id":"levelo_inurba_marseille","lat":43.27819,"lon":5.40708,"is_reserved":false,"is_disabled":false,"rental_uris":{"android":"levelo://app?vid=a9ee38d0-21e8-4d99-8e3f-cc643e32473e","ios":"levelo://app?vid=a9ee38d0-21e8-4d99-8e3f-cc643e32473e"},"vehicle_type_id":"4","last_reported":1738768188,"current_range_meters":38000,"station_id":"ce4bhnh2rcd13ifvqgtg","pricing_plan_id":"cebpf4jnsgd1na2vs0mg"},{"bike_id":"434bfbd5-da5e-4244-9828-ea3ac5f3e3d5","system_id":"levelo_inurba_marseille","lat":43.27872,"lon":5.40664,"is_reserved":false,"is_disabled":false,"rental_uris":{"android":"levelo://app?vid=434bfbd5-da5e-4244-9828-ea3ac5f3e3d5","ios":"levelo://app?vid=434bfbd5-da5e-4244-9828-ea3ac5f3e3d5"},"vehicle_type_id":"4","last_reported":1738768188,"current_range_meters":33600,"station_id":"","pricing_plan_id":"cebpf4jnsgd1na2vs0mg"},{"bike_id":"69583868-7ab3-4df5-a20a-2b4b4fe131eb","system_id":"levelo_inurba_marseille","lat":43.24805,"lon":5.37456,"is_reserved":false,"is_disabled":false,"rental_uris":{"android":"levelo://app?vid=69583868-7ab3-4df5-a20a-2b4b4fe131eb","ios":"levelo://app?vid=69583868-7ab3-4df5-a20a-2b4b4fe131eb"},"vehicle_type_id":"4","last_reported":1738768188,"current_range_meters":19600,"station_id":"ce4bhgh2rcd13ifvqfb0","pricing_plan_id":"cebpf4jnsgd1na2vs0mg"},{"bike_id":"49ce4950-f0d9-4766-aca8-c6ce4f31f9ff","system_id":"levelo_inurba_marseille","lat":43.23968,"lon":5.36631,"is_reserved":false,"is_disabled":false,"rental_uris":{"android":"levelo://app?vid=49ce4950-f0d9-4766-aca8-c6ce4f31f9ff","ios":"levelo://app?vid=49ce4950-f0d9-4766-aca8-c6ce4f31f9ff"},"vehicle_type_id":"4","last_reported":1738768188,"current_range_meters":32000,"station_id":"ce4bhi12rcd13ifvqfp0","pricing_plan_id":"cebpf4jnsgd1na2vs0mg"},{"bike_id":"3d1d38d7-e37e-41a9-9885-0f5e96cdb53e","system_id":"levelo_inurba_marseille","lat":43.28459,"lon":5.35896,"is_reserved":false,"is_disabled":false,"rental_uris":{"android":"levelo://app?vid=3d1d38d7-e37e-41a9-9885-0f5e96cdb53e","ios":"levelo://app?vid=3d1d38d7-e37e-41a9-9885-0f5e96cdb53e"},"vehicle_type_id":"4","last_reported":1738768188,"current_range_meters":17600,"station_id":"ce4bhah2rcd13ifvqei0","pricing_plan_id":"cebpf4jnsgd1na2vs0mg"},{"bike_id":"2d22d029-3c46-4957-8e33-2c56d1af8702","system_id":"levelo_inurba_marseille","lat":43.27611,"lon":5.36107,"is_reserved":false,"is_disabled":false,"rental_uris":{"android":"levelo://app?vid=2d22d029-3c46-4957-8e33-2c56d1af8702","ios":"levelo://app?vid=2d22d029-3c46-4957-8e33-2c56d1af8702"},"vehicle_type_id":"4","last_reported":1738768188,"current_range_meters":4400,"station_id":"ce4bgj92rcd13ifvqbe0","pricing_plan_id":"cebpf4jnsgd1na2vs0mg"},{"bike_id":"41ad3d36-51d8-4204-ae3d-d7c8884b6fab","system_id":"levelo_inurba_marseille","lat":43.25542,"lon":5.38215,"is_reserved":false,"is_disabled":false,"rental_uris":{"android":"levelo://app?vid=41ad3d36-51d8-4204-ae3d-d7c8884b6fab","ios":"levelo://app?vid=41ad3d36-51d8-4204-ae3d-d7c8884b6fab"},"vehicle_type_id":"4","last_reported":1738768188,"current_range_meters":36400,"station_id":"ce4bhih2rcd13ifvqfs0","pricing_plan_id":"cebpf4jnsgd1na2vs0mg"},{"bike_id":"782204e5-65a5-4367-bb86-46914d2760f6","system_id":"levelo_inurba_marseille","lat":43.30319,"lon":5.40435,"is_reserved":false,"is_disabled":false,"rental_uris":{"android":"levelo://app?vid=782204e5-65a5-4367-bb86-46914d2760f6","ios":"levelo://app?vid=782204e5-65a5-4367-bb86-46914d2760f6"},"vehicle_type_id":"4","last_reported":1738768188,"current_range_meters":36000,"station_id":"ce4bh012rcd13ifvqd10","pricing_plan_id":"cebpf4jnsgd1na2vs0mg"},{"bike_id":"a2ba7768-e6f8-4ccb-9b3a-ceb62a2b692a","system_id":"levelo_inurba_marseille","lat":43.28628,"lon":5.35096,"is_reserved":false,"is_disabled":false,"rental_uris":{"android":"levelo://app?vid=a2ba7768-e6f8-4ccb-9b3a-ceb62a2b692a","ios":"levelo://app?vid=a2ba7768-e6f8-4ccb-9b3a-ceb62a2b692a"},"vehicle_type_id":"4","last_reported":1738768188,"current_range_meters":38400,"station_id":"ce4bhch2rcd13ifvqeug","pricing_plan_id":"cebpf4jnsgd1na2vs0mg"},{"bike_id":"9a8590c5-e934-4c10-a796-7e187c1e4a7c","system_id":"levelo_inurba_marseille","lat":43.32078,"lon":5.41521,"is_reserved":false,"is_disabled":false,"rental_uris":{"android":"levelo://app?vid=9a8590c5-e934-4c10-a796-7e187c1e4a7c","ios":"levelo://app?vid=9a8590c5-e934-4c10-a796-7e187c1e4a7c"},"vehicle_type_id":"4","last_reported":1738768188,"current_range_meters":32000,"station_id":"ce4bhq92rcd13ifvqhkg","pricing_plan_id":"cebpf4jnsgd1na2vs0mg"},{"bike_id":"e7d31327-323a-443c-bb67-39186722e63f","system_id":"levelo_inurba_marseille","lat":43.33776,"lon":5.37424,"is_reserved":false,"is_disabled":false,"rental_uris":{"android":"levelo://app?vid=e7d31327-323a-443c-bb67-39186722e63f","ios":"levelo://app?vid=e7d31327-323a-443c-bb67-39186722e63f"},"vehicle_type_id":"4","last_reported":1738768188,"current_range_meters":16800,"station_id":"","pricing_plan_id":"cebpf4jnsgd1na2vs0mg"},{"bike_id":"eeb801d2-f5d6-4d65-8ed3-42714f5b21fc","system_id":"levelo_inurba_marseille","lat":43.28655,"lon":5.36356,"is_reserved":false,"is_disabled":false,"rental_uris":{"android":"levelo://app?vid=eeb801d2-f5d6-4d65-8ed3-42714f5b21fc","ios":"levelo://app?vid=eeb801d2-f5d6-4d65-8ed3-42714f5b21fc"},"vehicle_type_id":"4","last_reported":1738768188,"current_range_meters":12400,"station_id":"ce4bhah2rcd13ifvqej0","pricing_plan_id":"cebpf4jnsgd1na2vs0mg"},{"bike_id":"fbe3d96d-7f67-4a55-abf8-9c8cb85f4aa3","system_id":"levelo_inurba_marseille","lat":43.28278,"lon":5.35073,"is_reserved":false,"is_disabled":false,"rental_uris":{"android":"levelo://app?vid=fbe3d96d-7f67-4a55-abf8-9c8cb85f4aa3","ios":"levelo://app?vid=fbe3d96d-7f67-4a55-abf8-9c8cb85f4aa3"},"vehicle_type_id":"4","last_reported":1738768188,"current_range_meters":9600,"station_id":"ce4bhbp2rcd13ifvqerg","pricing_plan_id":"cebpf4jnsgd1na2vs0mg"},{"bike_id":"b9bfb74a-176a-4cd6-8e59-4fc84d6fb701","system_id":"levelo_inurba_marseille","lat":43.28621,"lon":5.35099,"is_reserved":false,"is_disabled":false,"rental_uris":{"android":"levelo://app?vid=b9bfb74a-176a-4cd6-8e59-4fc84d6fb701","ios":"levelo://app?vid=b9bfb74a-176a-4cd6-8e59-4fc84d6fb701"},"vehicle_type_id":"4","last_reported":1738768188,"current_range_meters":19600,"station_id":"ce4bhch2rcd13ifvqeug","pricing_plan_id":"cebpf4jnsgd1na2vs0mg"},{"bike_id":"93cab8cc-c77b-4201-82ee-38a96f1e3bc5","system_id":"levelo_inurba_marseille","lat":43.27943,"lon":5.41047,"is_reserved":false,"is_disabled":false,"rental_uris":{"android":"levelo://app?vid=93cab8cc-c77b-4201-82ee-38a96f1e3bc5","ios":"levelo://app?vid=93cab8cc-c77b-4201-82ee-38a96f1e3bc5"},"vehicle_type_id":"4","last_reported":1738768188,"current_range_meters":8400,"station_id":"ce4bhnp2rcd13ifvqh0g","pricing_plan_id":"cebpf4jnsgd1na2vs0mg"},{"bike_id":"de2a311d-661b-456f-940d-779cb9c37e91","system_id":"levelo_inurba_marseille","lat":43.276204,"lon":5.3611,"is_reserved":false,"is_disabled":false,"rental_uris":{"android":"levelo://app?vid=de2a311d-661b-456f-940d-779cb9c37e91","ios":"levelo://app?vid=de2a311d-661b-456f-940d-779cb9c37e91"},"vehicle_type_id":"4","last_reported":1738768188,"current_range_meters":17600,"station_id":"ce4bgj92rcd13ifvqbe0","pricing_plan_id":"cebpf4jnsgd1na2vs0mg"},{"bike_id":"258f9419-b9bf-47ce-b44f-cba55c3791e7","system_id":"levelo_inurba_marseille","lat":43.29859,"lon":5.3972,"is_reserved":false,"is_disabled":false,"rental_uris":{"android":"levelo://app?vid=258f9419-b9bf-47ce-b44f-cba55c3791e7","ios":"levelo://app?vid=258f9419-b9bf-47ce-b44f-cba55c3791e7"},"vehicle_type_id":"4","last_reported":1738768188,"current_range_meters":19600,"station_id":"ce4bh0h2rcd13ifvqd50","pricing_plan_id":"cebpf4jnsgd1na2vs0mg"},{"bike_id":"c3e77b16-0369-4739-b8ec-fed2d79f3578","system_id":"levelo_inurba_marseille","lat":43.30304,"lon":5.37717,"is_reserved":false,"is_disabled":false,"rental_uris":{"android":"levelo://app?vid=c3e77b16-0369-4739-b8ec-fed2d79f3578","ios":"levelo://app?vid=c3e77b16-0369-4739-b8ec-fed2d79f3578"},"vehicle_type_id":"4","last_reported":1738768188,"current_range_meters":31200,"station_id":"ce4bguh2rcd13ifvqcj0","pricing_plan_id":"cebpf4jnsgd1na2vs0mg"},{"bike_id":"cd07e062-2af1-406e-bcb9-5f1ec4730937","system_id":"levelo_inurba_marseille","lat":43.23065,"lon":5.35494,"is_reserved":false,"is_disabled":false,"rental_uris":{"android":"levelo://app?vid=cd07e062-2af1-406e-bcb9-5f1ec4730937","ios":"levelo://app?vid=cd07e062-2af1-406e-bcb9-5f1ec4730937"},"vehicle_type_id":"4","last_reported":1738768188,"current_range_meters":38800,"station_id":"cpo3342slgdg3j2ifvpg","pricing_plan_id":"cebpf4jnsgd1na2vs0mg"},{"bike_id":"c3644d12-8427-4602-9945-9ef42c46feca","system_id":"levelo_inurba_marseille","lat":43.241651,"lon":5.364079,"is_reserved":false,"is_disabled":false,"rental_uris":{"android":"levelo://app?vid=c3644d12-8427-4602-9945-9ef42c46feca","ios":"levelo://app?vid=c3644d12-8427-4602-9945-9ef42c46feca"},"vehicle_type_id":"4","last_reported":1738768188,"current_range_meters":38400,"station_id":"cpo36qri1sfpv3e86is0","pricing_plan_id":"cebpf4jnsgd1na2vs0mg"},{"bike_id":"6b38d43d-337c-4149-9167-ccfdd61c33a4","system_id":"levelo_inurba_marseille","lat":43.29224,"lon":5.36075,"is_reserved":false,"is_disabled":false,"rental_uris":{"android":"levelo://app?vid=6b38d43d-337c-4149-9167-ccfdd61c33a4","ios":"levelo://app?vid=6b38d43d-337c-4149-9167-ccfdd61c33a4"},"vehicle_type_id":"4","last_reported":1738768188,"current_range_meters":36400,"station_id":"ce4bhbh2rcd13ifvqeqg","pricing_plan_id":"cebpf4jnsgd1na2vs0mg"},{"bike_id":"98c3fce9-21ce-4051-a090-20c793cb22ed","system_id":"levelo_inurba_marseille","lat":43.26559,"lon":5.37287,"is_reserved":false,"is_disabled":false,"rental_uris":{"android":"levelo://app?vid=98c3fce9-21ce-4051-a090-20c793cb22ed","ios":"levelo://app?vid=98c3fce9-21ce-4051-a090-20c793cb22ed"},"vehicle_type_id":"4","last_reported":1738768188,"current_range_meters":36800,"station_id":"ce4bhg12rcd13ifvqf70","pricing_plan_id":"cebpf4jnsgd1na2vs0mg"},{"bike_id":"1e7bde43-ab8f-4755-b59a-acd0a53ae759","system_id":"levelo_inurba_marseille","lat":43.31721,"lon":5.42406,"is_reserved":false,"is_disabled":true,"rental_uris":{"android":"levelo://app?vid=1e7bde43-ab8f-4755-b59a-acd0a53ae759","ios":"levelo://app?vid=1e7bde43-ab8f-4755-b59a-acd0a53ae759"},"vehicle_type_id":"4","last_reported":1738768188,"current_range_meters":0,"station_id":"ce4bhp92rcd13ifvqhbg","pricing_plan_id":"cebpf4jnsgd1na2vs0mg"},{"bike_id":"86b83a1c-0276-4b3c-96f7-2f2f04cecaf3","system_id":"levelo_inurba_marseille","lat":43.33034,"lon":5.39065,"is_reserved":false,"is_disabled":false,"rental_uris":{"android":"levelo://app?vid=86b83a1c-0276-4b3c-96f7-2f2f04cecaf3","ios":"levelo://app?vid=86b83a1c-0276-4b3c-96f7-2f2f04cecaf3"},"vehicle_type_id":"4","last_reported":1738768188,"current_range_meters":37600,"station_id":"ce4bhr92rcd13ifvqhrg","pricing_plan_id":"cebpf4jnsgd1na2vs0mg"},{"bike_id":"f4c0a85d-47a3-45b1-988e-e3c4d19c1b5a","system_id":"levelo_inurba_marseille","lat":43.30914,"lon":5.36854,"is_reserved":false,"is_disabled":false,"rental_uris":{"android":"levelo://app?vid=f4c0a85d-47a3-45b1-988e-e3c4d19c1b5a","ios":"levelo://app?vid=f4c0a85d-47a3-45b1-988e-e3c4d19c1b5a"},"vehicle_type_id":"4","last_reported":1738768188,"current_range_meters":38800,"station_id":"ce4bgn92rcd13ifvqbvg","pricing_plan_id":"cebpf4jnsgd1na2vs0mg"},{"bike_id":"35c491fa-41f7-4ab7-9c94-b797e40cd61f","system_id":"levelo_inurba_marseille","lat":43.29275,"lon":5.36845,"is_reserved":false,"is_disabled":false,"rental_uris":{"android":"levelo://app?vid=35c491fa-41f7-4ab7-9c94-b797e40cd61f","ios":"levelo://app?vid=35c491fa-41f7-4ab7-9c94-b797e40cd61f"},"vehicle_type_id":"4","last_reported":1738768188,"current_range_meters":15200,"station_id":"ce4bhbp2rcd13ifvqesg","pricing_plan_id":"cebpf4jnsgd1na2vs0mg"},{"bike_id":"a20e6f92-166f-4891-afa8-6c0b1515afb6","system_id":"levelo_inurba_marseille","lat":43.29709,"lon":5.37688,"is_reserved":false,"is_disabled":false,"rental_uris":{"android":"levelo://app?vid=a20e6f92-166f-4891-afa8-6c0b1515afb6","ios":"levelo://app?vid=a20e6f92-166f-4891-afa8-6c0b1515afb6"},"vehicle_type_id":"4","last_reported":1738768188,"current_range_meters":16000,"station_id":"ce4bgkh2rcd13ifvqbl0","pricing_plan_id":"cebpf4jnsgd1na2vs0mg"},{"bike_id":"366699a6-df06-42ed-baf0-fee0b43104f1","system_id":"levelo_inurba_marseille","lat":43.24817,"lon":5.37456,"is_reserved":false,"is_disabled":false,"rental_uris":{"android":"levelo://app?vid=366699a6-df06-42ed-baf0-fee0b43104f1","ios":"levelo://app?vid=366699a6-df06-42ed-baf0-fee0b43104f1"},"vehicle_type_id":"4","last_reported":1738768188,"current_range_meters":34800,"station_id":"ce4bhgh2rcd13ifvqfb0","pricing_plan_id":"cebpf4jnsgd1na2vs0mg"},{"bike_id":"2b3e0b2f-1ad9-4d26-8bd5-829194d966a0","system_id":"levelo_inurba_marseille","lat":43.28424,"lon":5.35,"is_reserved":false,"is_disabled":false,"rental_uris":{"android":"levelo://app?vid=2b3e0b2f-1ad9-4d26-8bd5-829194d966a0","ios":"levelo://app?vid=2b3e0b2f-1ad9-4d26-8bd5-829194d966a0"},"vehicle_type_id":"4","last_reported":1738768188,"current_range_meters":16400,"station_id":"ce4bhbh2rcd13ifvqepg","pricing_plan_id":"cebpf4jnsgd1na2vs0mg"},{"bike_id":"45a7daa2-2a2e-4454-90c3-1009aaecc5bd","system_id":"levelo_inurba_marseille","lat":43.23227,"lon":5.35556,"is_reserved":false,"is_disabled":true,"rental_uris":{"android":"levelo://app?vid=45a7daa2-2a2e-4454-90c3-1009aaecc5bd","ios":"levelo://app?vid=45a7daa2-2a2e-4454-90c3-1009aaecc5bd"},"vehicle_type_id":"4","last_reported":1738768188,"current_range_meters":1600,"station_id":"ce4bhu92rcd13ifvqi70","pricing_plan_id":"cebpf4jnsgd1na2vs0mg"},{"bike_id":"11d0d1bc-01a8-450a-b2ba-bf097d518848","system_id":"levelo_inurba_marseille","lat":43.28616,"lon":5.35108,"is_reserved":false,"is_disabled":false,"rental_uris":{"android":"levelo://app?vid=11d0d1bc-01a8-450a-b2ba-bf097d518848","ios":"levelo://app?vid=11d0d1bc-01a8-450a-b2ba-bf097d518848"},"vehicle_type_id":"4","last_reported":1738768188,"current_range_meters":37600,"station_id":"ce4bhch2rcd13ifvqeug","pricing_plan_id":"cebpf4jnsgd1na2vs0mg"},{"bike_id":"aece1634-918f-4f68-8bc7-9a7b7abafc1f","system_id":"levelo_inurba_marseille","lat":43.28158,"lon":5.42626,"is_reserved":false,"is_disabled":true,"rental_uris":{"android":"levelo://app?vid=aece1634-918f-4f68-8bc7-9a7b7abafc1f","ios":"levelo://app?vid=aece1634-918f-4f68-8bc7-9a7b7abafc1f"},"vehicle_type_id":"4","last_reported":1738768188,"current_range_meters":30000,"station_id":"ce4bhnh2rcd13ifvqgug","pricing_plan_id":"cebpf4jnsgd1na2vs0mg"},{"bike_id":"3b1d5f28-8e2f-4cd2-84ee-32e60c8bc1d4","system_id":"levelo_inurba_marseille","lat":43.27953,"lon":5.387,"is_reserved":false,"is_disabled":true,"rental_uris":{"android":"levelo://app?vid=3b1d5f28-8e2f-4cd2-84ee-32e60c8bc1d4","ios":"levelo://app?vid=3b1d5f28-8e2f-4cd2-84ee-32e60c8bc1d4"},"vehicle_type_id":"4","last_reported":1738768188,"current_range_meters":0,"station_id":"ce4bhg12rcd13ifvqf80","pricing_plan_id":"cebpf4jnsgd1na2vs0mg"},{"bike_id":"34d19285-9f44-44ca-8e9d-5437fff98456","system_id":"levelo_inurba_marseille","lat":43.30894,"lon":5.36883,"is_reserved":false,"is_disabled":false,"rental_uris":{"android":"levelo://app?vid=34d19285-9f44-44ca-8e9d-5437fff98456","ios":"levelo://app?vid=34d19285-9f44-44ca-8e9d-5437fff98456"},"vehicle_type_id":"4","last_reported":1738768188,"current_range_meters":28400,"station_id":"ce4bgn92rcd13ifvqbvg","pricing_plan_id":"cebpf4jnsgd1na2vs0mg"},{"bike_id":"355c5182-b6c2-45b8-9e0b-a169f951842d","system_id":"levelo_inurba_marseille","lat":43.28158,"lon":5.42644,"is_reserved":false,"is_disabled":false,"rental_uris":{"android":"levelo://app?vid=355c5182-b6c2-45b8-9e0b-a169f951842d","ios":"levelo://app?vid=355c5182-b6c2-45b8-9e0b-a169f951842d"},"vehicle_type_id":"4","last_reported":1738768188,"current_range_meters":9200,"station_id":"ce4bhnh2rcd13ifvqgug","pricing_plan_id":"cebpf4jnsgd1na2vs0mg"},{"bike_id":"7941e5b7-52aa-44cc-811c-2c9582906bd0","system_id":"levelo_inurba_marseille","lat":43.31096,"lon":5.42441,"is_reserved":false,"is_disabled":false,"rental_uris":{"android":"levelo://app?vid=7941e5b7-52aa-44cc-811c-2c9582906bd0","ios":"levelo://app?vid=7941e5b7-52aa-44cc-811c-2c9582906bd0"},"vehicle_type_id":"4","last_reported":1738768188,"current_range_meters":13600,"station_id":"ce4bhp92rcd13ifvqhag","pricing_plan_id":"cebpf4jnsgd1na2vs0mg"},{"bike_id":"9d71d304-2002-4ef9-bd23-de48bc17ac77","system_id":"levelo_inurba_marseille","lat":43.24081,"lon":5.37752,"is_reserved":false,"is_disabled":true,"rental_uris":{"android":"levelo://app?vid=9d71d304-2002-4ef9-bd23-de48bc17ac77","ios":"levelo://app?vid=9d71d304-2002-4ef9-bd23-de48bc17ac77"},"vehicle_type_id":"4","last_reported":1738768188,"current_range_meters":1600,"station_id":"ce4bhnp2rcd13ifvqgvg","pricing_plan_id":"cebpf4jnsgd1na2vs0mg"},{"bike_id":"be599ba1-274a-460c-bd8d-17625c77f878","system_id":"levelo_inurba_marseille","lat":43.2621,"lon":5.37444,"is_reserved":false,"is_disabled":false,"rental_uris":{"android":"levelo://app?vid=be599ba1-274a-460c-bd8d-17625c77f878","ios":"levelo://app?vid=be599ba1-274a-460c-bd8d-17625c77f878"},"vehicle_type_id":"4","last_reported":1738768188,"current_range_meters":5600,"station_id":"ce4bhgp2rcd13ifvqfc0","pricing_plan_id":"cebpf4jnsgd1na2vs0mg"},{"bike_id":"e5605f29-13de-4f75-9540-ab1bc679e547","system_id":"levelo_inurba_marseille","lat":43.29589,"lon":5.36741,"is_reserved":false,"is_disabled":false,"rental_uris":{"android":"levelo://app?vid=e5605f29-13de-4f75-9540-ab1bc679e547","ios":"levelo://app?vid=e5605f29-13de-4f75-9540-ab1bc679e547"},"vehicle_type_id":"4","last_reported":1738768188,"current_range_meters":38000,"station_id":"ce4bgph2rcd13ifvqc2g","pricing_plan_id":"cebpf4jnsgd1na2vs0mg"},{"bike_id":"85d197af-7492-45d8-a8f0-3b3d28b89974","system_id":"levelo_inurba_marseille","lat":43.292006,"lon":5.35813,"is_reserved":false,"is_disabled":false,"rental_uris":{"android":"levelo://app?vid=85d197af-7492-45d8-a8f0-3b3d28b89974","ios":"levelo://app?vid=85d197af-7492-45d8-a8f0-3b3d28b89974"},"vehicle_type_id":"4","last_reported":1738768188,"current_range_meters":22000,"station_id":"ce4bhb12rcd13ifvqel0","pricing_plan_id":"cebpf4jnsgd1na2vs0mg"},{"bike_id":"8dbe8a6e-72e2-42be-91e2-483b6f8206f0","system_id":"levelo_inurba_marseille","lat":43.25939,"lon":5.40891,"is_reserved":false,"is_disabled":false,"rental_uris":{"android":"levelo://app?vid=8dbe8a6e-72e2-42be-91e2-483b6f8206f0","ios":"levelo://app?vid=8dbe8a6e-72e2-42be-91e2-483b6f8206f0"},"vehicle_type_id":"4","last_reported":1738768188,"current_range_meters":24800,"station_id":"ce4bhm92rcd13ifvqglg","pricing_plan_id":"cebpf4jnsgd1na2vs0mg"},{"bike_id":"e7bcffbf-9bc5-436f-a200-37ad1492bc3d","system_id":"levelo_inurba_marseille","lat":43.31127,"lon":5.37746,"is_reserved":false,"is_disabled":false,"rental_uris":{"android":"levelo://app?vid=e7bcffbf-9bc5-436f-a200-37ad1492bc3d","ios":"levelo://app?vid=e7bcffbf-9bc5-436f-a200-37ad1492bc3d"},"vehicle_type_id":"4","last_reported":1738768188,"current_range_meters":24800,"station_id":"ce4bgt92rcd13ifvqcg0","pricing_plan_id":"cebpf4jnsgd1na2vs0mg"},{"bike_id":"853c5528-321f-4078-9263-1a387120e184","system_id":"levelo_inurba_marseille","lat":43.28612,"lon":5.37057,"is_reserved":false,"is_disabled":false,"rental_uris":{"android":"levelo://app?vid=853c5528-321f-4078-9263-1a387120e184","ios":"levelo://app?vid=853c5528-321f-4078-9263-1a387120e184"},"vehicle_type_id":"4","last_reported":1738768188,"current_range_meters":38000,"station_id":"ce4bht12rcd13ifvqi60","pricing_plan_id":"cebpf4jnsgd1na2vs0mg"},{"bike_id":"fb128a81-f202-4efc-b63b-ec8421c89af0","system_id":"levelo_inurba_marseille","lat":43.32057,"lon":5.41526,"is_reserved":false,"is_disabled":false,"rental_uris":{"android":"levelo://app?vid=fb128a81-f202-4efc-b63b-ec8421c89af0","ios":"levelo://app?vid=fb128a81-f202-4efc-b63b-ec8421c89af0"},"vehicle_type_id":"4","last_reported":1738768188,"current_range_meters":36000,"station_id":"ce4bhq92rcd13ifvqhkg","pricing_plan_id":"cebpf4jnsgd1na2vs0mg"},{"bike_id":"2118c82d-0143-415d-aaf1-22408e5c55b9","system_id":"levelo_inurba_marseille","lat":43.2843,"lon":5.39181,"is_reserved":false,"is_disabled":false,"rental_uris":{"android":"levelo://app?vid=2118c82d-0143-415d-aaf1-22408e5c55b9","ios":"levelo://app?vid=2118c82d-0143-415d-aaf1-22408e5c55b9"},"vehicle_type_id":"4","last_reported":1738768188,"current_range_meters":37600,"station_id":"ce4bhoh2rcd13ifvqh5g","pricing_plan_id":"cebpf4jnsgd1na2vs0mg"},{"bike_id":"0a1d80a5-8567-473e-862c-e2d2e710157a","system_id":"levelo_inurba_marseille","lat":43.28434,"lon":5.3499,"is_reserved":false,"is_disabled":false,"rental_uris":{"android":"levelo://app?vid=0a1d80a5-8567-473e-862c-e2d2e710157a","ios":"levelo://app?vid=0a1d80a5-8567-473e-862c-e2d2e710157a"},"vehicle_type_id":"4","last_reported":1738768188,"current_range_meters":34000,"station_id":"ce4bhbh2rcd13ifvqepg","pricing_plan_id":"cebpf4jnsgd1na2vs0mg"},{"bike_id":"7a548a82-4582-4bb9-91e6-087313271712","system_id":"levelo_inurba_marseille","lat":43.28436,"lon":5.39188,"is_reserved":false,"is_disabled":false,"rental_uris":{"android":"levelo://app?vid=7a548a82-4582-4bb9-91e6-087313271712","ios":"levelo://app?vid=7a548a82-4582-4bb9-91e6-087313271712"},"vehicle_type_id":"4","last_reported":1738768188,"current_range_meters":25200,"station_id":"ce4bhoh2rcd13ifvqh5g","pricing_plan_id":"cebpf4jnsgd1na2vs0mg"},{"bike_id":"99564e06-144c-4120-8262-8feb82471b05","system_id":"levelo_inurba_marseille","lat":43.285232,"lon":5.350347,"is_reserved":false,"is_disabled":false,"rental_uris":{"android":"levelo://app?vid=99564e06-144c-4120-8262-8feb82471b05","ios":"levelo://app?vid=99564e06-144c-4120-8262-8feb82471b05"},"vehicle_type_id":"4","last_reported":1738768188,"current_range_meters":27200,"station_id":"","pricing_plan_id":"cebpf4jnsgd1na2vs0mg"},{"bike_id":"5d5edabb-2a30-49bd-af83-a8b14161fe2e","system_id":"levelo_inurba_marseille","lat":43.2993,"lon":5.36539,"is_reserved":false,"is_disabled":false,"rental_uris":{"android":"levelo://app?vid=5d5edabb-2a30-49bd-af83-a8b14161fe2e","ios":"levelo://app?vid=5d5edabb-2a30-49bd-af83-a8b14161fe2e"},"vehicle_type_id":"4","last_reported":1738768188,"current_range_meters":8800,"station_id":"ce4bgm92rcd13ifvqbr0","pricing_plan_id":"cebpf4jnsgd1na2vs0mg"},{"bike_id":"3ce9be42-ab76-43a9-bf8b-31b97f0d14a1","system_id":"levelo_inurba_marseille","lat":43.28461,"lon":5.35891,"is_reserved":false,"is_disabled":false,"rental_uris":{"android":"levelo://app?vid=3ce9be42-ab76-43a9-bf8b-31b97f0d14a1","ios":"levelo://app?vid=3ce9be42-ab76-43a9-bf8b-31b97f0d14a1"},"vehicle_type_id":"4","last_reported":1738768188,"current_range_meters":30000,"station_id":"ce4bhah2rcd13ifvqei0","pricing_plan_id":"cebpf4jnsgd1na2vs0mg"},{"bike_id":"25d556ce-3f32-408f-bbd6-29b976ef448a","system_id":"levelo_inurba_marseille","lat":43.23177,"lon":5.39992,"is_reserved":false,"is_disabled":false,"rental_uris":{"android":"levelo://app?vid=25d556ce-3f32-408f-bbd6-29b976ef448a","ios":"levelo://app?vid=25d556ce-3f32-408f-bbd6-29b976ef448a"},"vehicle_type_id":"4","last_reported":1738768188,"current_range_meters":12400,"station_id":"ce4bhn12rcd13ifvqgqg","pricing_plan_id":"cebpf4jnsgd1na2vs0mg"},{"bike_id":"d4b7bc29-f3f5-4570-b8fd-2f94fabc73a5","system_id":"levelo_inurba_marseille","lat":43.30145,"lon":5.38787,"is_reserved":false,"is_disabled":false,"rental_uris":{"android":"levelo://app?vid=d4b7bc29-f3f5-4570-b8fd-2f94fabc73a5","ios":"levelo://app?vid=d4b7bc29-f3f5-4570-b8fd-2f94fabc73a5"},"vehicle_type_id":"4","last_reported":1738768188,"current_range_meters":33600,"station_id":"ce4bghh2rcd13ifvqb60","pricing_plan_id":"cebpf4jnsgd1na2vs0mg"},{"bike_id":"39c9e517-bf06-4168-a7c9-d7023f55aba7","system_id":"levelo_inurba_marseille","lat":43.255,"lon":5.37651,"is_reserved":false,"is_disabled":false,"rental_uris":{"android":"levelo://app?vid=39c9e517-bf06-4168-a7c9-d7023f55aba7","ios":"levelo://app?vid=39c9e517-bf06-4168-a7c9-d7023f55aba7"},"vehicle_type_id":"4","last_reported":1738768188,"current_range_meters":38800,"station_id":"ce4bhh12rcd13ifvqff0","pricing_plan_id":"cebpf4jnsgd1na2vs0mg"},{"bike_id":"ba8dea69-5abd-425c-9fdb-788f2daa6460","system_id":"levelo_inurba_marseille","lat":43.26935,"lon":5.40258,"is_reserved":false,"is_disabled":false,"rental_uris":{"android":"levelo://app?vid=ba8dea69-5abd-425c-9fdb-788f2daa6460","ios":"levelo://app?vid=ba8dea69-5abd-425c-9fdb-788f2daa6460"},"vehicle_type_id":"4","last_reported":1738768188,"current_range_meters":22800,"station_id":"cjm6bp8fraef2m0cb0m0","pricing_plan_id":"cebpf4jnsgd1na2vs0mg"},{"bike_id":"1fb8f6bd-b62d-4511-96dd-a147d6b5e2ae","system_id":"levelo_inurba_marseille","lat":43.28085,"lon":5.39683,"is_reserved":false,"is_disabled":false,"rental_uris":{"android":"levelo://app?vid=1fb8f6bd-b62d-4511-96dd-a147d6b5e2ae","ios":"levelo://app?vid=1fb8f6bd-b62d-4511-96dd-a147d6b5e2ae"},"vehicle_type_id":"4","last_reported":1738768188,"current_range_meters":39200,"station_id":"ce4bho12rcd13ifvqh2g","pricing_plan_id":"cebpf4jnsgd1na2vs0mg"},{"bike_id":"eac8e106-76e0-4f1b-81af-4eaefecd2501","system_id":"levelo_inurba_marseille","lat":43.25036,"lon":5.38908,"is_reserved":false,"is_disabled":false,"rental_uris":{"android":"levelo://app?vid=eac8e106-76e0-4f1b-81af-4eaefecd2501","ios":"levelo://app?vid=eac8e106-76e0-4f1b-81af-4eaefecd2501"},"vehicle_type_id":"4","last_reported":1738768188,"current_range_meters":10800,"station_id":"ce4bhgp2rcd13ifvqfd0","pricing_plan_id":"cebpf4jnsgd1na2vs0mg"},{"bike_id":"d1e8d4fb-bf7c-49f1-9197-011d1244b8ce","system_id":"levelo_inurba_marseille","lat":43.30144,"lon":5.37422,"is_reserved":false,"is_disabled":false,"rental_uris":{"android":"levelo://app?vid=d1e8d4fb-bf7c-49f1-9197-011d1244b8ce","ios":"levelo://app?vid=d1e8d4fb-bf7c-49f1-9197-011d1244b8ce"},"vehicle_type_id":"4","last_reported":1738768188,"current_range_meters":24000,"station_id":"ce4bgs92rcd13ifvqcc0","pricing_plan_id":"cebpf4jnsgd1na2vs0mg"},{"bike_id":"0bbb9a2e-65d2-4ce4-afaf-6a55b7cd812d","system_id":"levelo_inurba_marseille","lat":43.3123,"lon":5.36878,"is_reserved":false,"is_disabled":false,"rental_uris":{"android":"levelo://app?vid=0bbb9a2e-65d2-4ce4-afaf-6a55b7cd812d","ios":"levelo://app?vid=0bbb9a2e-65d2-4ce4-afaf-6a55b7cd812d"},"vehicle_type_id":"4","last_reported":1738768188,"current_range_meters":38800,"station_id":"ce4bgl92rcd13ifvqbq0","pricing_plan_id":"cebpf4jnsgd1na2vs0mg"},{"bike_id":"9709610e-115b-4465-b695-e484b4867e18","system_id":"levelo_inurba_marseille","lat":43.28842,"lon":5.35852,"is_reserved":false,"is_disabled":false,"rental_uris":{"android":"levelo://app?vid=9709610e-115b-4465-b695-e484b4867e18","ios":"levelo://app?vid=9709610e-115b-4465-b695-e484b4867e18"},"vehicle_type_id":"4","last_reported":1738768188,"current_range_meters":38800,"station_id":"ce4bhb12rcd13ifvqem0","pricing_plan_id":"cebpf4jnsgd1na2vs0mg"},{"bike_id":"df9e9c8f-0870-41c7-bd20-a7e23ba7aaf8","system_id":"levelo_inurba_marseille","lat":43.26229,"lon":5.40446,"is_reserved":false,"is_disabled":false,"rental_uris":{"android":"levelo://app?vid=df9e9c8f-0870-41c7-bd20-a7e23ba7aaf8","ios":"levelo://app?vid=df9e9c8f-0870-41c7-bd20-a7e23ba7aaf8"},"vehicle_type_id":"4","last_reported":1738768188,"current_range_meters":18800,"station_id":"ce4bhmh2rcd13ifvqgmg","pricing_plan_id":"cebpf4jnsgd1na2vs0mg"},{"bike_id":"61ceb31b-03f6-4213-9b34-0374ee45b479","system_id":"levelo_inurba_marseille","lat":43.3211,"lon":5.36763,"is_reserved":false,"is_disabled":false,"rental_uris":{"android":"levelo://app?vid=61ceb31b-03f6-4213-9b34-0374ee45b479","ios":"levelo://app?vid=61ceb31b-03f6-4213-9b34-0374ee45b479"},"vehicle_type_id":"4","last_reported":1738768188,"current_range_meters":20400,"station_id":"ce4bhrh2rcd13ifvqhug","pricing_plan_id":"cebpf4jnsgd1na2vs0mg"},{"bike_id":"1489c8c8-a04b-479f-95b4-a81e60a2c685","system_id":"levelo_inurba_marseille","lat":43.31169,"lon":5.38705,"is_reserved":false,"is_disabled":false,"rental_uris":{"android":"levelo://app?vid=1489c8c8-a04b-479f-95b4-a81e60a2c685","ios":"levelo://app?vid=1489c8c8-a04b-479f-95b4-a81e60a2c685"},"vehicle_type_id":"4","last_reported":1738768188,"current_range_meters":37600,"station_id":"ce4bgv12rcd13ifvqcp0","pricing_plan_id":"cebpf4jnsgd1na2vs0mg"},{"bike_id":"5bcce1d3-b97f-43a2-9f8d-3cbe970191fe","system_id":"levelo_inurba_marseille","lat":43.29187,"lon":5.35815,"is_reserved":false,"is_disabled":false,"rental_uris":{"android":"levelo://app?vid=5bcce1d3-b97f-43a2-9f8d-3cbe970191fe","ios":"levelo://app?vid=5bcce1d3-b97f-43a2-9f8d-3cbe970191fe"},"vehicle_type_id":"4","last_reported":1738768188,"current_range_meters":24000,"station_id":"ce4bhb12rcd13ifvqel0","pricing_plan_id":"cebpf4jnsgd1na2vs0mg"},{"bike_id":"ead1e1dd-fb6f-42f7-972a-a1739be00fe1","system_id":"levelo_inurba_marseille","lat":43.30097,"lon":5.3909,"is_reserved":false,"is_disabled":false,"rental_uris":{"android":"levelo://app?vid=ead1e1dd-fb6f-42f7-972a-a1739be00fe1","ios":"levelo://app?vid=ead1e1dd-fb6f-42f7-972a-a1739be00fe1"},"vehicle_type_id":"4","last_reported":1738768188,"current_range_meters":38800,"station_id":"ce4bh192rcd13ifvqdb0","pricing_plan_id":"cebpf4jnsgd1na2vs0mg"},{"bike_id":"cd603e46-cb29-4f84-93f3-9fe98a5e8786","system_id":"levelo_inurba_marseille","lat":43.24653,"lon":5.38903,"is_reserved":false,"is_disabled":false,"rental_uris":{"android":"levelo://app?vid=cd603e46-cb29-4f84-93f3-9fe98a5e8786","ios":"levelo://app?vid=cd603e46-cb29-4f84-93f3-9fe98a5e8786"},"vehicle_type_id":"4","last_reported":1738768188,"current_range_meters":36800,"station_id":"ce4bhg12rcd13ifvqf60","pricing_plan_id":"cebpf4jnsgd1na2vs0mg"},{"bike_id":"720dabdf-4126-45f6-b0dd-22e76b1dc38b","system_id":"levelo_inurba_marseille","lat":43.29613,"lon":5.37726,"is_reserved":false,"is_disabled":false,"rental_uris":{"android":"levelo://app?vid=720dabdf-4126-45f6-b0dd-22e76b1dc38b","ios":"levelo://app?vid=720dabdf-4126-45f6-b0dd-22e76b1dc38b"},"vehicle_type_id":"4","last_reported":1738768188,"current_range_meters":33200,"station_id":"ce4bgi92rcd13ifvqb90","pricing_plan_id":"cebpf4jnsgd1na2vs0mg"},{"bike_id":"623097c3-2556-424e-952d-b4a402d6e618","system_id":"levelo_inurba_marseille","lat":43.287,"lon":5.37391,"is_reserved":false,"is_disabled":false,"rental_uris":{"android":"levelo://app?vid=623097c3-2556-424e-952d-b4a402d6e618","ios":"levelo://app?vid=623097c3-2556-424e-952d-b4a402d6e618"},"vehicle_type_id":"4","last_reported":1738768188,"current_range_meters":18000,"station_id":"ce4bh3p2rcd13ifvqdq0","pricing_plan_id":"cebpf4jnsgd1na2vs0mg"},{"bike_id":"cfa137b5-cb62-4cef-800b-24d77ce3bcd7","system_id":"levelo_inurba_marseille","lat":43.26223,"lon":5.4045,"is_reserved":false,"is_disabled":false,"rental_uris":{"android":"levelo://app?vid=cfa137b5-cb62-4cef-800b-24d77ce3bcd7","ios":"levelo://app?vid=cfa137b5-cb62-4cef-800b-24d77ce3bcd7"},"vehicle_type_id":"4","last_reported":1738768188,"current_range_meters":10000,"station_id":"ce4bhmh2rcd13ifvqgmg","pricing_plan_id":"cebpf4jnsgd1na2vs0mg"},{"bike_id":"3a27bcf9-f164-4af8-8620-ba97fa549c76","system_id":"levelo_inurba_marseille","lat":43.25947,"lon":5.40908,"is_reserved":false,"is_disabled":false,"rental_uris":{"android":"levelo://app?vid=3a27bcf9-f164-4af8-8620-ba97fa549c76","ios":"levelo://app?vid=3a27bcf9-f164-4af8-8620-ba97fa549c76"},"vehicle_type_id":"4","last_reported":1738768188,"current_range_meters":32400,"station_id":"ce4bhm92rcd13ifvqglg","pricing_plan_id":"cebpf4jnsgd1na2vs0mg"},{"bike_id":"ec58a886-eddf-413c-9588-048d119536b0","system_id":"levelo_inurba_marseille","lat":43.27992,"lon":5.40014,"is_reserved":false,"is_disabled":true,"rental_uris":{"android":"levelo://app?vid=ec58a886-eddf-413c-9588-048d119536b0","ios":"levelo://app?vid=ec58a886-eddf-413c-9588-048d119536b0"},"vehicle_type_id":"4","last_reported":1738768188,"current_range_meters":3600,"station_id":"ce4bho92rcd13ifvqh4g","pricing_plan_id":"cebpf4jnsgd1na2vs0mg"},