{"last_updated":1761174541,"ttl":60,"version":"2.2","data":{"bikes":[{"bike_id":"4154d683-e72a-4592-9e60-2a3872848698","system_id":"levelo_inurba_marseille","lat":43.28481,"lon":5.48388,"is_reserved":false,"is_disabled":false,"rental_uris":{"android":"levelo://app?vid=4154d683-e72a-4592-9e60-2a3872848698","ios":"levelo://app?vid=4154d683-e72a-4592-9e60-2a3872848698"},"vehicle_type_id":"4","last_reported":1761174541,"current_range_meters":2800,"station_id":"st_d3jp68qikq2c7381ktn0","pricing_plan_id":"cebpf4jnsgd1na2vs0mg"},{"bike_id":"de6e7184-a66e-4a84-acfd-25f4d7820316","system_id":"levelo_inurba_marseille","lat":43.21198,"lon":5.35061,"is_reserved":false,"is_disabled":false,"rental_uris":{"android":"levelo://app?vid=de6e7184-a66e-4a84-acfd-25f4d7820316","ios":"levelo://app?vid=de6e7184-a66e-4a84-acfd-25f4d7820316"},"vehicle_type_id":"4","last_reported":1761174541,"current_range_meters":2800,"station_id":"","pricing_plan_id":"cebpf4jnsgd1na2vs0mg"},{"bike_id":"e7cb61d9-84d9-41c0-8427-00fc6a9e436b","system_id":"levelo_inurba_marseille","lat":43.310595,"lon":5.375527,"is_reserved":false,"is_disabled":false,"rental_uris":{"android":"levelo://app?vid=e7cb61d9-84d9-41c0-8427-00fc6a9e436b","ios":"levelo://app?vid=e7cb61d9-84d9-41c0-8427-00fc6a9e436b"},"vehicle_type_id":"4","last_reported":1761174541,"current_range_meters":3200,"station_id":"","pricing_plan_id":"cebpf4jnsgd1na2vs0mg"},{"bike_id":"d64b2f69-b006-455d-ac12-4b32b078fbee","system_id":"levelo_inurba_marseille","lat":43.28697,"lon":5.37395,"is_reserved":false,"is_disabled":false,"rental_uris":{"android":"levelo://app?vid=d64b2f69-b006-455d-ac12-4b32b078fbee","ios":"levelo://app?vid=d64b2f69-b006-455d-ac12-4b32b078fbee"},"vehicle_type_id":"4","last_reported":1761174541,"current_range_meters":3600,"station_id":"ce4bh3p2rcd13ifvqdq0","pricing_plan_id":"cebpf4jnsgd1na2vs0mg"},{"bike_id":"a870d8c4-d388-4bd8-a292-a2b1665e7e0e","system_id":"levelo_inurba_marseille","lat":43.304308,"lon":5.405861,"is_reserved":false,"is_disabled":false,"rental_uris":{"android":"levelo://app?vid=a870d8c4-d388-4bd8-a292-a2b1665e7e0e","ios":"levelo://app?vid=a870d8c4-d388-4bd8-a292-a2b1665e7e0e"},"vehicle_type_id":"4","last_reported":1761174541,"current_range_meters":3600,"station_id":"","pricing_plan_id":"cebpf4jnsgd1na2vs0mg"},{"bike_id":"56de7ac9-ac79-483d-84ff-a29ab8ac4821","system_id":"levelo_inurba_marseille","lat":43.28621,"lon":5.35108,"is_reserved":false,"is_disabled":false,"rental_uris":{"android":"levelo://app?vid=56de7ac9-ac79-483d-84ff-a29ab8ac4821","ios":"levelo://app?vid=56de7ac9-ac79-483d-84ff-a29ab8ac4821"},"vehicle_type_id":"4","last_reported":1761174541,"current_range_meters":4400,"station_id":"ce4bhch2rcd13ifvqeug","pricing_plan_id":"cebpf4jnsgd1na2vs0mg"},{"bike_id":"48b8e499-3765-4026-8395-f8203eb5314a","system_id":"levelo_inurba_marseille","lat":43.2842,"lon":5.34977,"is_reserved":false,"is_disabled":false,"rental_uris":{"android":"levelo://app?vid=48b8e499-3765-4026-8395-f8203eb5314a","ios":"levelo://app?vid=48b8e499-3765-4026-8395-f8203eb5314a"},"vehicle_type_id":"4","last_reported":1761174541,"current_range_meters":4400,"station_id":"ce4bhbh2rcd13ifvqepg","pricing_plan_id":"cebpf4jnsgd1na2vs0mg"},{"bike_id":"49d77014-0e67-4145-a458-9e7a551c9b23","system_id":"levelo_inurba_marseille","lat":43.2854,"lon":5.44094,"is_reserved":false,"is_disabled":false,"rental_uris":{"android":"levelo://app?vid=49d77014-0e67-4145-a458-9e7a551c9b23","ios":"levelo://app?vid=49d77014-0e67-4145-a458-9e7a551c9b23"},"vehicle_type_id":"4","last_reported":1761174541,"current_range_meters":4800,"station_id":"st_d3j3df2ikq2c7380ej80","pricing_plan_id":"cebpf4jnsgd1na2vs0mg"},{"bike_id":"c374a3ec-2b9a-4a1b-b687-4eb6009415e2","system_id":"levelo_inurba_marseille","lat":43.24072,"lon":5.37743,"is_reserved":false,"is_disabled":false,"rental_uris":{"android":"levelo://app?vid=c374a3ec-2b9a-4a1b-b687-4eb6009415e2","ios":"levelo://app?vid=c374a3ec-2b9a-4a1b-b687-4eb6009415e2"},"vehicle_type_id":"4","last_reported":1761174541,"current_range_meters":4800,"station_id":"ce4bhnp2rcd13ifvqgvg","pricing_plan_id":"cebpf4jnsgd1na2vs0mg"},{"bike_id":"41616ae1-2a08-4621-a1fb-5f69a79d18d3","system_id":"levelo_inurba_marseille","lat":43.28925,"lon":5.3804,"is_reserved":false,"is_disabled":false,"rental_uris":{"android":"levelo://app?vid=41616ae1-2a08-4621-a1fb-5f69a79d18d3","ios":"levelo://app?vid=41616ae1-2a08-4621-a1fb-5f69a79d18d3"},"vehicle_type_id":"4","last_reported":1761174541,"current_range_meters":4800,"station_id":"ce4bh4p2rcd13ifvqe1g","pricing_plan_id":"cebpf4jnsgd1na2vs0mg"},{"bike_id":"66bec76d-d7e9-4a1e-a715-39e56334bf96","system_id":"levelo_inurba_marseille","lat":43.2829,"lon":5.39646,"is_reserved":false,"is_disabled":false,"rental_uris":{"android":"levelo://app?vid=66bec76d-d7e9-4a1e-a715-39e56334bf96","ios":"levelo://app?vid=66bec76d-d7e9-4a1e-a715-39e56334bf96"},"vehicle_type_id":"4","last_reported":1761174541,"current_range_meters":5600,"station_id":"","pricing_plan_id":"cebpf4jnsgd1na2vs0mg"},{"bike_id":"3d068a7d-8c2c-4f97-8d7d-54140fa95800","system_id":"levelo_inurba_marseille","lat":43.273583,"lon":5.39879,"is_reserved":false,"is_disabled":false,"rental_uris":{"android":"levelo://app?vid=3d068a7d-8c2c-4f97-8d7d-54140fa95800","ios":"levelo://app?vid=3d068a7d-8c2c-4f97-8d7d-54140fa95800"},"vehicle_type_id":"4","last_reported":1761174541,"current_range_meters":5600,"station_id":"","pricing_plan_id":"cebpf4jnsgd1na2vs0mg"},{"bike_id":"d11d5ebd-6e05-4007-bbc3-6120c3704d71","system_id":"levelo_inurba_marseille","lat":43.27923,"lon":5.39591,"is_reserved":false,"is_disabled":false,"rental_uris":{"android":"levelo://app?vid=d11d5ebd-6e05-4007-bbc3-6120c3704d71","ios":"levelo://app?vid=d11d5ebd-6e05-4007-bbc3-6120c3704d71"},"vehicle_type_id":"4","last_reported":1761174541,"current_range_meters":5600,"station_id":"ce4bhf92rcd13ifvqf40","pricing_plan_id":"cebpf4jnsgd1na2vs0mg"},{"bike_id":"fa3ab366-a9d6-4f9a-8ab0-0ac96ab266f1","system_id":"levelo_inurba_marseille","lat":43.31998,"lon":5.38162,"is_reserved":false,"is_disabled":false,"rental_uris":{"android":"levelo://app?vid=fa3ab366-a9d6-4f9a-8ab0-0ac96ab266f1","ios":"levelo://app?vid=fa3ab366-a9d6-4f9a-8ab0-0ac96ab266f1"},"vehicle_type_id":"4","last_reported":1761174541,"current_range_meters":6400,"station_id":"ce4bhr12rcd13ifvqhpg","pricing_plan_id":"cebpf4jnsgd1na2vs0mg"},{"bike_id":"3201e625-69d5-420e-838c-f4c3f44666ef","system_id":"levelo_inurba_marseille","lat":43.33775,"lon":5.37438,"is_reserved":false,"is_disabled":false,"rental_uris":{"android":"levelo://app?vid=3201e625-69d5-420e-838c-f4c3f44666ef","ios":"levelo://app?vid=3201e625-69d5-420e-838c-f4c3f44666ef"},"vehicle_type_id":"4","last_reported":1761174541,"current_range_meters":6400,"station_id":"","pricing_plan_id":"cebpf4jnsgd1na2vs0mg"},{"bike_id":"2b812646-b6d2-423a-8819-b87e8de55263","system_id":"levelo_inurba_marseille","lat":43.24075,"lon":5.37756,"is_reserved":false,"is_disabled":false,"rental_uris":{"android":"levelo://app?vid=2b812646-b6d2-423a-8819-b87e8de55263","ios":"levelo://app?vid=2b812646-b6d2-423a-8819-b87e8de55263"},"vehicle_type_id":"4","last_reported":1761174541,"current_range_meters":6400,"station_id":"ce4bhnp2rcd13ifvqgvg","pricing_plan_id":"cebpf4jnsgd1na2vs0mg"},{"bike_id":"158efa80-12ab-4b7d-8a51-8d3a468fcc07","system_id":"levelo_inurba_marseille","lat":43.21202,"lon":5.3508,"is_reserved":false,"is_disabled":true,"rental_uris":{"android":"levelo://app?vid=158efa80-12ab-4b7d-8a51-8d3a468fcc07","ios":"levelo://app?vid=158efa80-12ab-4b7d-8a51-8d3a468fcc07"},"vehicle_type_id":"4","last_reported":1761174541,"current_range_meters":6400,"station_id":"","pricing_plan_id":"cebpf4jnsgd1na2vs0mg"},{"bike_id":"da3c5d5d-639d-4a11-88e1-f7b9c2ad220a","system_id":"levelo_inurba_marseille","lat":43.3175,"lon":5.37751,"is_reserved":false,"is_disabled":true,"rental_uris":{"android":"levelo://app?vid=da3c5d5d-639d-4a11-88e1-f7b9c2ad220a","ios":"levelo://app?vid=da3c5d5d-639d-4a11-88e1-f7b9c2ad220a"},"vehicle_type_id":"4","last_reported":1761174541,"current_range_meters":6400,"station_id":"ce4bgth2rcd13ifvqch0","pricing_plan_id":"cebpf4jnsgd1na2vs0mg"},{"bike_id":"3488e60b-d5ee-484b-96e2-89a37ae4c3bb","system_id":"levelo_inurba_marseille","lat":43.30129,"lon":5.39875,"is_reserved":false,"is_disabled":false,"rental_uris":{"android":"levelo://app?vid=3488e60b-d5ee-484b-96e2-89a37ae4c3bb","ios":"levelo://app?vid=3488e60b-d5ee-484b-96e2-89a37ae4c3bb"},"vehicle_type_id":"4","last_reported":1761174541,"current_range_meters":6400,"station_id":"ce4bh0h2rcd13ifvqd40","pricing_plan_id":"cebpf4jnsgd1na2vs0mg"},{"bike_id":"5170909c-0915-47d6-ab69-6e165aae5206","system_id":"levelo_inurba_marseille","lat":43.278371,"lon":5.39209,"is_reserved":false,"is_disabled":false,"rental_uris":{"android":"levelo://app?vid=5170909c-0915-47d6-ab69-6e165aae5206","ios":"levelo://app?vid=5170909c-0915-47d6-ab69-6e165aae5206"},"vehicle_type_id":"4","last_reported":1761174541,"current_range_meters":6800,"station_id":"ce4bhjp2rcd13ifvqga0","pricing_plan_id":"cebpf4jnsgd1na2vs0mg"},{"bike_id":"563add41-42b5-4a40-a2f4-2f753e2062a9","system_id":"levelo_inurba_marseille","lat":43.28781,"lon":5.36364,"is_reserved":false,"is_disabled":false,"rental_uris":{"android":"levelo://app?vid=563add41-42b5-4a40-a2f4-2f753e2062a9","ios":"levelo://app?vid=563add41-42b5-4a40-a2f4-2f753e2062a9"},"vehicle_type_id":"4","last_reported":1761174541,"current_range_meters":6800,"station_id":"","pricing_plan_id":"cebpf4jnsgd1na2vs0mg"},{"bike_id":"b7e41c34-cad5-468c-aadc-3ef8a1845b5a","system_id":"levelo_inurba_marseille","lat":43.28167,"lon":5.36121,"is_reserved":false,"is_disabled":false,"rental_uris":{"android":"levelo://app?vid=b7e41c34-cad5-468c-aadc-3ef8a1845b5a","ios":"levelo://app?vid=b7e41c34-cad5-468c-aadc-3ef8a1845b5a"},"vehicle_type_id":"4","last_reported":1761174541,"current_range_meters":6800,"station_id":"","pricing_plan_id":"cebpf4jnsgd1na2vs0mg"},{"bike_id":"97585d63-cae0-46a3-8fec-9651d52b3156","system_id":"levelo_inurba_marseille","lat":43.27889,"lon":5.37971,"is_reserved":false,"is_disabled":true,"rental_uris":{"android":"levelo://app?vid=97585d63-cae0-46a3-8fec-9651d52b3156","ios":"levelo://app?vid=97585d63-cae0-46a3-8fec-9651d52b3156"},"vehicle_type_id":"4","last_reported":1761174541,"current_range_meters":6800,"station_id":"ce4bhf92rcd13ifvqf50","pricing_plan_id":"cebpf4jnsgd1na2vs0mg"},{"bike_id":"c78ceb28-c149-49e7-b369-78d6f00dbd37","system_id":"levelo_inurba_marseille","lat":43.31168,"lon":5.37955,"is_reserved":false,"is_disabled":false,"rental_uris":{"android":"levelo://app?vid=c78ceb28-c149-49e7-b369-78d6f00dbd37","ios":"levelo://app?vid=c78ceb28-c149-49e7-b369-78d6f00dbd37"},"vehicle_type_id":"4","last_reported":1761174541,"current_range_meters":6800,"station_id":"","pricing_plan_id":"cebpf4jnsgd1na2vs0mg"},{"bike_id":"a7b06526-aea6-4369-9939-dc263cf58f1c","system_id":"levelo_inurba_marseille","lat":43.27846,"lon":5.39207,"is_reserved":false,"is_disabled":true,"rental_uris":{"android":"levelo://app?vid=a7b06526-aea6-4369-9939-dc263cf58f1c","ios":"levelo://app?vid=a7b06526-aea6-4369-9939-dc263cf58f1c"},"vehicle_type_id":"4","last_reported":1761174541,"current_range_meters":6800,"station_id":"ce4bhjp2rcd13ifvqga0","pricing_plan_id":"cebpf4jnsgd1na2vs0mg"},{"bike_id":"7735958c-2062-48fa-89d3-278ce63c2118","system_id":"levelo_inurba_marseille","lat":43.306563,"lon":5.400869,"is_reserved":false,"is_disabled":false,"rental_uris":{"android":"levelo://app?vid=7735958c-2062-48fa-89d3-278ce63c2118","ios":"levelo://app?vid=7735958c-2062-48fa-89d3-278ce63c2118"},"vehicle_type_id":"4","last_reported":1761174541,"current_range_meters":7200,"station_id":"","pricing_plan_id":"cebpf4jnsgd1na2vs0mg"},{"bike_id":"b8457e49-45d1-4539-8d31-1eb0283df508","system_id":"levelo_inurba_marseille","lat":43.33171,"lon":5.35507,"is_reserved":false,"is_disabled":false,"rental_uris":{"android":"levelo://app?vid=b8457e49-45d1-4539-8d31-1eb0283df508","ios":"levelo://app?vid=b8457e49-45d1-4539-8d31-1eb0283df508"},"vehicle_type_id":"4","last_reported":1761174541,"current_range_meters":7200,"station_id":"","pricing_plan_id":"cebpf4jnsgd1na2vs0mg"},{"bike_id":"b4e93e4c-0e18-44fe-9a18-bf4fc1c14ca7","system_id":"levelo_inurba_marseille","lat":43.26566,"lon":5.37297,"is_reserved":false,"is_disabled":false,"rental_uris":{"android":"levelo://app?vid=b4e93e4c-0e18-44fe-9a18-bf4fc1c14ca7","ios":"levelo://app?vid=b4e93e4c-0e18-44fe-9a18-bf4fc1c14ca7"},"vehicle_type_id":"4","last_reported":1761174541,"current_range_meters":7200,"station_id":"ce4bhg12rcd13ifvqf70","pricing_plan_id":"cebpf4jnsgd1na2vs0mg"},{"bike_id":"097300c8-be25-41b9-bc9c-c1bd3901634c","system_id":"levelo_inurba_marseille","lat":43.25098,"lon":5.39519,"is_reserved":false,"is_disabled":false,"rental_uris":{"android":"levelo://app?vid=097300c8-be25-41b9-bc9c-c1bd3901634c","ios":"levelo://app?vid=097300c8-be25-41b9-bc9c-c1bd3901634c"},"vehicle_type_id":"4","last_reported":1761174541,"current_range_meters":7200,"station_id":"ce4bhm12rcd13ifvqgkg","pricing_plan_id":"cebpf4jnsgd1na2vs0mg"},{"bike_id":"7ffbdf46-1d13-4e32-ad8f-b99766448a99","system_id":"levelo_inurba_marseille","lat":43.31556,"lon":5.38868,"is_reserved":false,"is_disabled":false,"rental_uris":{"android":"levelo://app?vid=7ffbdf46-1d13-4e32-ad8f-b99766448a99","ios":"levelo://app?vid=7ffbdf46-1d13-4e32-ad8f-b99766448a99"},"vehicle_type_id":"4","last_reported":1761174541,"current_range_meters":7200,"station_id":"","pricing_plan_id":"cebpf4jnsgd1na2vs0mg"},{"bike_id":"f13cde0d-45ed-40f4-94c1-3377bc18932c","system_id":"levelo_inurba_marseille","lat":43.30393,"lon":5.42478,"is_reserved":false,"is_disabled":false,"rental_uris":{"android":"levelo://app?vid=f13cde0d-45ed-40f4-94c1-3377bc18932c","ios":"levelo://app?vid=f13cde0d-45ed-40f4-94c1-3377bc18932c"},"vehicle_type_id":"4","last_reported":1761174541,"current_range_meters":7200,"station_id":"ce4bhoh2rcd13ifvqh6g","pricing_plan_id":"cebpf4jnsgd1na2vs0mg"},{"bike_id":"c4432b73-0adb-475d-83b3-18f6e7bba483","system_id":"levelo_inurba_marseille","lat":43.32102,"lon":5.40816,"is_reserved":false,"is_disabled":false,"rental_uris":{"android":"levelo://app?vid=c4432b73-0adb-475d-83b3-18f6e7bba483","ios":"levelo://app?vid=c4432b73-0adb-475d-83b3-18f6e7bba483"},"vehicle_type_id":"4","last_reported":1761174541,"current_range_meters":8000,"station_id":"","pricing_plan_id":"cebpf4jnsgd1na2vs0mg"},{"bike_id":"3b61b380-3926-4755-bae0-9ddfc3d8c480","system_id":"levelo_inurba_marseille","lat":43.24948,"lon":5.4049,"is_reserved":false,"is_disabled":false,"rental_uris":{"android":"levelo://app?vid=3b61b380-3926-4755-bae0-9ddfc3d8c480","ios":"levelo://app?vid=3b61b380-3926-4755-bae0-9ddfc3d8c480"},"vehicle_type_id":"4","last_reported":1761174541,"current_range_meters":8000,"station_id":"st_d2ngiaodas8pm72gd1h0","pricing_plan_id":"cebpf4jnsgd1na2vs0mg"},{"bike_id":"ac1df8dc-41e5-4954-977f-6f21ed12d11a","system_id":"levelo_inurba_marseille","lat":43.21768,"lon":5.34604,"is_reserved":false,"is_disabled":false,"rental_uris":{"android":"levelo://app?vid=ac1df8dc-41e5-4954-977f-6f21ed12d11a","ios":"levelo://app?vid=ac1df8dc-41e5-4954-977f-6f21ed12d11a"},"vehicle_type_id":"4","last_reported":1761174541,"current_range_meters":8400,"station_id":"st_cvj6r9ubvosntc0bgbag","pricing_plan_id":"cebpf4jnsgd1na2vs0mg"},{"bike_id":"4579d17c-c380-4d64-ad08-0f15474b13c4","system_id":"levelo_inurba_marseille","lat":43.253358,"lon":5.421775,"is_reserved":false,"is_disabled":false,"rental_uris":{"android":"levelo://app?vid=4579d17c-c380-4d64-ad08-0f15474b13c4","ios":"levelo://app?vid=4579d17c-c380-4d64-ad08-0f15474b13c4"},"vehicle_type_id":"4","last_reported":1761174541,"current_range_meters":8400,"station_id":"st_d2m65c5bi1j21697t3ng","pricing_plan_id":"cebpf4jnsgd1na2vs0mg"},{"bike_id":"d38bb17a-4ac6-4da6-829b-fc2ffe260364","system_id":"levelo_inurba_marseille","lat":43.318858,"lon":5.407375,"is_reserved":false,"is_disabled":true,"rental_uris":{"android":"levelo://app?vid=d38bb17a-4ac6-4da6-829b-fc2ffe260364","ios":"levelo://app?vid=d38bb17a-4ac6-4da6-829b-fc2ffe260364"},"vehicle_type_id":"4","last_reported":1761174541,"current_range_meters":8400,"station_id":"ce4bhq12rcd13ifvqhig","pricing_plan_id":"cebpf4jnsgd1na2vs0mg"},{"bike_id":"3cac3679-d12c-4ae2-9e19-ec09719573e4","system_id":"levelo_inurba_marseille","lat":43.33608,"lon":5.41038,"is_reserved":false,"is_disabled":false,"rental_uris":{"android":"levelo://app?vid=3cac3679-d12c-4ae2-9e19-ec09719573e4","ios":"levelo://app?vid=3cac3679-d12c-4ae2-9e19-ec09719573e4"},"vehicle_type_id":"4","last_reported":1761174541,"current_range_meters":8400,"station_id":"ce4bhqh2rcd13ifvqhmg","pricing_plan_id":"cebpf4jnsgd1na2vs0mg"},{"bike_id":"f34cc125-0c42-42b1-913f-43595d94e046","system_id":"levelo_inurba_marseille","lat":43.29935,"lon":5.38501,"is_reserved":false,"is_disabled":false,"rental_uris":{"android":"levelo://app?vid=f34cc125-0c42-42b1-913f-43595d94e046","ios":"levelo://app?vid=f34cc125-0c42-42b1-913f-43595d94e046"},"vehicle_type_id":"4","last_reported":1761174541,"current_range_meters":8400,"station_id":"ce4bgj92rcd13ifvqbd0","pricing_plan_id":"cebpf4jnsgd1na2vs0mg"},{"bike_id":"cf536b27-169c-4f1d-b57f-93f456fe9359","system_id":"levelo_inurba_marseille","lat":43.29973,"lon":5.38496,"is_reserved":false,"is_disabled":false,"rental_uris":{"android":"levelo://app?vid=cf536b27-169c-4f1d-b57f-93f456fe9359","ios":"levelo://app?vid=cf536b27-169c-4f1d-b57f-93f456fe9359"},"vehicle_type_id":"4","last_reported":1761174541,"current_range_meters":8800,"station_id":"ce4bgj92rcd13ifvqbd0","pricing_plan_id":"cebpf4jnsgd1na2vs0mg"},{"bike_id":"a943c37a-6409-4447-b550-97ae57482ba0","system_id":"levelo_inurba_marseille","lat":43.28615,"lon":5.37064,"is_reserved":false,"is_disabled":false,"rental_uris":{"android":"levelo://app?vid=a943c37a-6409-4447-b550-97ae57482ba0","ios":"levelo://app?vid=a943c37a-6409-4447-b550-97ae57482ba0"},"vehicle_type_id":"4","last_reported":1761174541,"current_range_meters":8800,"station_id":"ce4bht12rcd13ifvqi60","pricing_plan_id":"cebpf4jnsgd1na2vs0mg"},{"bike_id":"02f7835e-8895-43db-bc46-dc0659a292d5","system_id":"levelo_inurba_marseille","lat":43.29331,"lon":5.3707,"is_reserved":false,"is_disabled":false,"rental_uris":{"android":"levelo://app?vid=02f7835e-8895-43db-bc46-dc0659a292d5","ios":"levelo://app?vid=02f7835e-8895-43db-bc46-dc0659a292d5"},"vehicle_type_id":"4","last_reported":1761174541,"current_range_meters":8800,"station_id":"","pricing_plan_id":"cebpf4jnsgd1na2vs0mg"},{"bike_id":"7d2d5787-0ce3-440b-bd99-871ac3e090ec","system_id":"levelo_inurba_marseille","lat":43.28881,"lon":5.37861,"is_reserved":false,"is_disabled":false,"rental_uris":{"android":"levelo://app?vid=7d2d5787-0ce3-440b-bd99-871ac3e090ec","ios":"levelo://app?vid=7d2d5787-0ce3-440b-bd99-871ac3e090ec"},"vehicle_type_id":"4","last_reported":1761174541,"current_range_meters":9200,"station_id":"","pricing_plan_id":"cebpf4jnsgd1na2vs0mg"},{"bike_id":"99744d50-a57e-4121-92ca-863e54c0cd0b","system_id":"levelo_inurba_marseille","lat":43.28261,"lon":5.35072,"is_reserved":false,"is_disabled":false,"rental_uris":{"android":"levelo://app?vid=99744d50-a57e-4121-92ca-863e54c0cd0b","ios":"levelo://app?vid=99744d50-a57e-4121-92ca-863e54c0cd0b"},"vehicle_type_id":"4","last_reported":1761174541,"current_range_meters":9200,"station_id":"ce4bhbp2rcd13ifvqerg","pricing_plan_id":"cebpf4jnsgd1na2vs0mg"},{"bike_id":"4d3fc0cd-61a7-4d9d-bdcd-9c71bdf921ee","system_id":"levelo_inurba_marseille","lat":43.30783,"lon":5.3816,"is_reserved":false,"is_disabled":false,"rental_uris":{"android":"levelo://app?vid=4d3fc0cd-61a7-4d9d-bdcd-9c71bdf921ee","ios":"levelo://app?vid=4d3fc0cd-61a7-4d9d-bdcd-9c71bdf921ee"},"vehicle_type_id":"4","last_reported":1761174541,"current_range_meters":9200,"station_id":"ce4bgt12rcd13ifvqce0","pricing_plan_id":"cebpf4jnsgd1na2vs0mg"},{"bike_id":"6839f072-ec62-4095-a859-26be424d7b87","system_id":"levelo_inurba_marseille","lat":43.31486,"lon":5.37308,"is_reserved":false,"is_disabled":false,"rental_uris":{"android":"levelo://app?vid=6839f072-ec62-4095-a859-26be424d7b87","ios":"levelo://app?vid=6839f072-ec62-4095-a859-26be424d7b87"},"vehicle_type_id":"4","last_reported":1761174541,"current_range_meters":9200,"station_id":"ce4bgt12rcd13ifvqcd0","pricing_plan_id":"cebpf4jnsgd1na2vs0mg"},{"bike_id":"ff25ea38-015a-49e7-bad0-1b2dce2cffe0","system_id":"levelo_inurba_marseille","lat":43.29634,"lon":5.40596,"is_reserved":false,"is_disabled":false,"rental_uris":{"android":"levelo://app?vid=ff25ea38-015a-49e7-bad0-1b2dce2cffe0","ios":"levelo://app?vid=ff25ea38-015a-49e7-bad0-1b2dce2cffe0"},"vehicle_type_id":"4","last_reported":1761174541,"current_range_meters":9200,"station_id":"ce4bh0h2rcd13ifvqd60","pricing_plan_id":"cebpf4jnsgd1na2vs0mg"},{"bike_id":"f24765d2-3be6-4065-ae28-75cab44ee818","system_id":"levelo_inurba_marseille","lat":43.28376,"lon":5.38636,"is_reserved":false,"is_disabled":false,"rental_uris":{"android":"levelo://app?vid=f24765d2-3be6-4065-ae28-75cab44ee818","ios":"levelo://app?vid=f24765d2-3be6-4065-ae28-75cab44ee818"},"vehicle_type_id":"4","last_reported":1761174541,"current_range_meters":9600,"station_id":"ce4bh492rcd13ifvqdvg","pricing_plan_id":"cebpf4jnsgd1na2vs0mg"},{"bike_id":"44b1ad6b-1a98-4e37-a182-f58df3beccce","system_id":"levelo_inurba_marseille","lat":43.21211,"lon":5.35071,"is_reserved":false,"is_disabled":true,"rental_uris":{"android":"levelo://app?vid=44b1ad6b-1a98-4e37-a182-f58df3beccce","ios":"levelo://app?vid=44b1ad6b-1a98-4e37-a182-f58df3beccce"},"vehicle_type_id":"4","last_reported":1761174541,"current_range_meters":9600,"station_id":"","pricing_plan_id":"cebpf4jnsgd1na2vs0mg"},{"bike_id":"4f5da494-b6ae-4f86-93c7-0d241730466e","system_id":"levelo_inurba_marseille","lat":43.30331,"lon":5.40428,"is_reserved":false,"is_disabled":false,"rental_uris":{"android":"levelo://app?vid=4f5da494-b6ae-4f86-93c7-0d241730466e","ios":"levelo://app?vid=4f5da494-b6ae-4f86-93c7-0d241730466e"},"vehicle_type_id":"4","last_reported":1761174541,"current_range_meters":9600,"station_id":"ce4bh012rcd13ifvqd10","pricing_plan_id":"cebpf4jnsgd1na2vs0mg"},{"bike_id":"89dd87c4-c8d0-4de7-8902-2b0447e67475","system_id":"levelo_inurba_marseille","lat":43.31232,"lon":5.36877,"is_reserved":false,"is_disabled":true,"rental_uris":{"android":"levelo://app?vid=89dd87c4-c8d0-4de7-8902-2b0447e67475","ios":"levelo://app?vid=89dd87c4-c8d0-4de7-8902-2b0447e67475"},"vehicle_type_id":"4","last_reported":1761174541,"current_range_meters":9600,"station_id":"","pricing_plan_id":"cebpf4jnsgd1na2vs0mg"},{"bike_id":"bdb2e266-06fe-4408-875a-4d00460ebc09","system_id":"levelo_inurba_marseille","lat":43.30496,"lon":5.37254,"is_reserved":false,"is_disabled":false,"rental_uris":{"android":"levelo://app?vid=bdb2e266-06fe-4408-875a-4d00460ebc09","ios":"levelo://app?vid=bdb2e266-06fe-4408-875a-4d00460ebc09"},"vehicle_type_id":"4","last_reported":1761174541,"current_range_meters":9600,"station_id":"","pricing_plan_id":"cebpf4jnsgd1na2vs0mg"},{"bike_id":"175d16ed-5d82-4f5c-8472-8c4ab4dd8dce","system_id":"levelo_inurba_marseille","lat":43.29888,"lon":5.38892,"is_reserved":false,"is_disabled":false,"rental_uris":{"android":"levelo://app?vid=175d16ed-5d82-4f5c-8472-8c4ab4dd8dce","ios":"levelo://app?vid=175d16ed-5d82-4f5c-8472-8c4ab4dd8dce"},"vehicle_type_id":"4","last_reported":1761174541,"current_range_meters":10000,"station_id":"ce4bh392rcd13ifvqdl0","pricing_plan_id":"cebpf4jnsgd1na2vs0mg"},{"bike_id":"82576c51-8b9b-43eb-aa43-fc4a18c9ea5b","system_id":"levelo_inurba_marseille","lat":43.21751,"lon":5.34603,"is_reserved":false,"is_disabled":false,"rental_uris":{"android":"levelo://app?vid=82576c51-8b9b-43eb-aa43-fc4a18c9ea5b","ios":"levelo://app?vid=82576c51-8b9b-43eb-aa43-fc4a18c9ea5b"},"vehicle_type_id":"4","last_reported":1761174541,"current_range_meters":10000,"station_id":"st_cvj6r9ubvosntc0bgbag","pricing_plan_id":"cebpf4jnsgd1na2vs0mg"},{"bike_id":"fe5786a2-3cbd-4e30-8ddf-18df8db18ee6","system_id":"levelo_inurba_marseille","lat":43.2999,"lon":5.37173,"is_reserved":false,"is_disabled":true,"rental_uris":{"android":"levelo://app?vid=fe5786a2-3cbd-4e30-8ddf-18df8db18ee6","ios":"levelo://app?vid=fe5786a2-3cbd-4e30-8ddf-18df8db18ee6"},"vehicle_type_id":"4","last_reported":1761174541,"current_range_meters":10000,"station_id":"ce4bgr92rcd13ifvqc7g","pricing_plan_id":"cebpf4jnsgd1na2vs0mg"},{"bike_id":"ff3ba630-dc04-489c-b422-8721b9ddc862","system_id":"levelo_inurba_marseille","lat":43.29825,"lon":5.3776,"is_reserved":false,"is_disabled":false,"rental_uris":{"android":"levelo://app?vid=ff3ba630-dc04-489c-b422-8721b9ddc862","ios":"levelo://app?vid=ff3ba630-dc04-489c-b422-8721b9ddc862"},"vehicle_type_id":"4","last_reported":1761174541,"current_range_meters":10000,"station_id":"","pricing_plan_id":"cebpf4jnsgd1na2vs0mg"},{"bike_id":"30b310ad-ec20-4448-864e-4d11e2b074fa","system_id":"levelo_inurba_marseille","lat":43.24809,"lon":5.37454,"is_reserved":false,"is_disabled":false,"rental_uris":{"android":"levelo://app?vid=30b310ad-ec20-4448-864e-4d11e2b074fa","ios":"levelo://app?vid=30b310ad-ec20-4448-864e-4d11e2b074fa"},"vehicle_type_id":"4","last_reported":1761174541,"current_range_meters":10000,"station_id":"ce4bhgh2rcd13ifvqfb0","pricing_plan_id":"cebpf4jnsgd1na2vs0mg"},{"bike_id":"e53c4311-95e9-4e5e-8599-94eb7fd27d19","system_id":"levelo_inurba_marseille","lat":43.23152,"lon":5.43714,"is_reserved":false,"is_disabled":false,"rental_uris":{"android":"levelo://app?vid=e53c4311-95e9-4e5e-8599-94eb7fd27d19","ios":"levelo://app?vid=e53c4311-95e9-4e5e-8599-94eb7fd27d19"},"vehicle_type_id":"4","last_reported":1761174541,"current_range_meters":10000,"station_id":"ce4bhmp2rcd13ifvqgog","pricing_plan_id":"cebpf4jnsgd1na2vs0mg"},{"bike_id":"65b4c744-81cf-4b0e-9ca1-4121ebb68155","system_id":"levelo_inurba_marseille","lat":43.28354,"lon":5.38098,"is_reserved":false,"is_disabled":false,"rental_uris":{"android":"levelo://app?vid=65b4c744-81cf-4b0e-9ca1-4121ebb68155","ios":"levelo://app?vid=65b4c744-81cf-4b0e-9ca1-4121ebb68155"},"vehicle_type_id":"4","last_reported":1761174541,"current_range_meters":10000,"station_id":"ce4bh412rcd13ifvqdr0","pricing_plan_id":"cebpf4jnsgd1na2vs0mg"},{"bike_id":"27938040-5f97-48c9-b073-25f510f7592c","system_id":"levelo_inurba_marseille","lat":43.31753,"lon":5.38954,"is_reserved":false,"is_disabled":true,"rental_uris":{"android":"levelo://app?vid=27938040-5f97-48c9-b073-25f510f7592c","ios":"levelo://app?vid=27938040-5f97-48c9-b073-25f510f7592c"},"vehicle_type_id":"4","last_reported":1761174541,"current_range_meters":10800,"station_id":"","pricing_plan_id":"cebpf4jnsgd1na2vs0mg"},{"bike_id":"45286300-4feb-4073-a8e3-d12ebb73cea1","system_id":"levelo_inurba_marseille","lat":43.28708,"lon":5.40005,"is_reserved":false,"is_disabled":false,"rental_uris":{"android":"levelo://app?vid=45286300-4feb-4073-a8e3-d12ebb73cea1","ios":"levelo://app?vid=45286300-4feb-4073-a8e3-d12ebb73cea1"},"vehicle_type_id":"4","last_reported":1761174541,"current_range_meters":10800,"station_id":"ce4bho92rcd13ifvqh3g","pricing_plan_id":"cebpf4jnsgd1na2vs0mg"},{"bike_id":"396aaa55-c35f-41fc-8337-93bac25c9dde","system_id":"levelo_inurba_marseille","lat":43.292427,"lon":5.3557,"is_reserved":false,"is_disabled":false,"rental_uris":{"android":"levelo://app?vid=396aaa55-c35f-41fc-8337-93bac25c9dde","ios":"levelo://app?vid=396aaa55-c35f-41fc-8337-93bac25c9dde"},"vehicle_type_id":"4","last_reported":1761174541,"current_range_meters":10800,"station_id":"","pricing_plan_id":"cebpf4jnsgd1na2vs0mg"},{"bike_id":"a8ab25be-6aea-4a7f-aa62-3e926a8af069","system_id":"levelo_inurba_marseille","lat":43.28665,"lon":5.3868,"is_reserved":false,"is_disabled":false,"rental_uris":{"android":"levelo://app?vid=a8ab25be-6aea-4a7f-aa62-3e926a8af069","ios":"levelo://app?vid=a8ab25be-6aea-4a7f-aa62-3e926a8af069"},"vehicle_type_id":"4","last_reported":1761174541,"current_range_meters":10800,"station_id":"ce4bh492rcd13ifvqdug","pricing_plan_id":"cebpf4jnsgd1na2vs0mg"},{"bike_id":"6acf2ae9-136b-4104-8a69-7d816eedd218","system_id":"levelo_inurba_marseille","lat":43.280642,"lon":5.352788,"is_reserved":false,"is_disabled":false,"rental_uris":{"android":"levelo://app?vid=6acf2ae9-136b-4104-8a69-7d816eedd218","ios":"levelo://app?vid=6acf2ae9-136b-4104-8a69-7d816eedd218"},"vehicle_type_id":"4","last_reported":1761174541,"current_range_meters":10800,"station_id":"","pricing_plan_id":"cebpf4jnsgd1na2vs0mg"},{"bike_id":"9880e93c-d19c-40b1-b34a-e56695334737","system_id":"levelo_inurba_marseille","lat":43.30754,"lon":5.42451,"is_reserved":false,"is_disabled":false,"rental_uris":{"android":"levelo://app?vid=9880e93c-d19c-40b1-b34a-e56695334737","ios":"levelo://app?vid=9880e93c-d19c-40b1-b34a-e56695334737"},"vehicle_type_id":"4","last_reported":1761174541,"current_range_meters":10800,"station_id":"st_cvj6ca6bvosntc0bfgr0","pricing_plan_id":"cebpf4jnsgd1na2vs0mg"},{"bike_id":"26bb77a2-e7fc-45b1-a09c-a251319de07e","system_id":"levelo_inurba_marseille","lat":43.29437,"lon":5.39756,"is_reserved":false,"is_disabled":false,"rental_uris":{"android":"levelo://app?vid=26bb77a2-e7fc-45b1-a09c-a251319de07e","ios":"levelo://app?vid=26bb77a2-e7fc-45b1-a09c-a251319de07e"},"vehicle_type_id":"4","last_reported":1761174541,"current_range_meters":11200,"station_id":"ce4bh3h2rcd13ifvqdo0","pricing_plan_id":"cebpf4jnsgd1na2vs0mg"},{"bike_id":"ec60652f-d3c2-400e-8251-0e42407708db","system_id":"levelo_inurba_marseille","lat":43.270647,"lon":5.422638,"is_reserved":false,"is_disabled":false,"rental_uris":{"android":"levelo://app?vid=ec60652f-d3c2-400e-8251-0e42407708db","ios":"levelo://app?vid=ec60652f-d3c2-400e-8251-0e42407708db"},"vehicle_type_id":"4","last_reported":1761174541,"current_range_meters":11200,"station_id":"ce4bhk92rcd13ifvqgb0","pricing_plan_id":"cebpf4jnsgd1na2vs0mg"},{"bike_id":"61c47949-89b9-4c27-95f4-2b581fa26bb6","system_id":"levelo_inurba_marseille","lat":43.23193,"lon":5.39993,"is_reserved":false,"is_disabled":false,"rental_uris":{"android":"levelo://app?vid=61c47949-89b9-4c27-95f4-2b581fa26bb6","ios":"levelo://app?vid=61c47949-89b9-4c27-95f4-2b581fa26bb6"},"vehicle_type_id":"4","last_reported":1761174541,"current_range_meters":11200,"station_id":"ce4bhn12rcd13ifvqgqg","pricing_plan_id":"cebpf4jnsgd1na2vs0mg"},{"bike_id":"003db9b9-c4d5-45c4-90c5-058ef9d1e11f","system_id":"levelo_inurba_marseille","lat":43.30371,"lon":5.4248,"is_reserved":false,"is_disabled":false,"rental_uris":{"android":"levelo://app?vid=003db9b9-c4d5-45c4-90c5-058ef9d1e11f","ios":"levelo://app?vid=003db9b9-c4d5-45c4-90c5-058ef9d1e11f"},"vehicle_type_id":"4","last_reported":1761174541,"current_range_meters":11200,"station_id":"ce4bhoh2rcd13ifvqh6g","pricing_plan_id":"cebpf4jnsgd1na2vs0mg"},{"bike_id":"6cedbdd4-d4fa-45a0-a47a-6925bf95118c","system_id":"levelo_inurba_marseille","lat":43.22944,"lon":5.35377,"is_reserved":false,"is_disabled":false,"rental_uris":{"android":"levelo://app?vid=6cedbdd4-d4fa-45a0-a47a-6925bf95118c","ios":"levelo://app?vid=6cedbdd4-d4fa-45a0-a47a-6925bf95118c"},"vehicle_type_id":"4","last_reported":1761174541,"current_range_meters":11200,"station_id":"cpo3532slgdg3j2ikp40","pricing_plan_id":"cebpf4jnsgd1na2vs0mg"},{"bike_id":"13bf108c-dc59-4a3a-82cd-9cd025b25fdc","system_id":"levelo_inurba_marseille","lat":43.28675,"lon":5.39981,"is_reserved":false,"is_disabled":false,"rental_uris":{"android":"levelo://app?vid=13bf108c-dc59-4a3a-82cd-9cd025b25fdc","ios":"levelo://app?vid=13bf108c-dc59-4a3a-82cd-9cd025b25fdc"},"vehicle_type_id":"4","last_reported":1761174541,"current_range_meters":11200,"station_id":"ce4bho92rcd13ifvqh3g","pricing_plan_id":"cebpf4jnsgd1na2vs0mg"},{"bike_id":"6ef9044a-4649-4fd1-af71-edb7f2803e31","system_id":"levelo_inurba_marseille","lat":43.28672,"lon":5.3868,"is_reserved":false,"is_disabled":false,"rental_uris":{"android":"levelo://app?vid=6ef9044a-4649-4fd1-af71-edb7f2803e31","ios":"levelo://app?vid=6ef9044a-4649-4fd1-af71-edb7f2803e31"},"vehicle_type_id":"4","last_reported":1761174541,"current_range_meters":11200,"station_id":"ce4bh492rcd13ifvqdug","pricing_plan_id":"cebpf4jnsgd1na2vs0mg"},{"bike_id":"45b23ec0-1f26-4a73-bf31-06acd3f194a7","system_id":"levelo_inurba_marseille","lat":43.24281,"lon":5.40265,"is_reserved":false,"is_disabled":false,"rental_uris":{"android":"levelo://app?vid=45b23ec0-1f26-4a73-bf31-06acd3f194a7","ios":"levelo://app?vid=45b23ec0-1f26-4a73-bf31-06acd3f194a7"},"vehicle_type_id":"4","last_reported":1761174541,"current_range_meters":11200,"station_id":"","pricing_plan_id":"cebpf4jnsgd1na2vs0mg"},{"bike_id":"37d01fc8-4b4d-4652-a489-1254eb9d4c80","system_id":"levelo_inurba_marseille","lat":43.34076,"lon":5.40411,"is_reserved":false,"is_disabled":false,"rental_uris":{"android":"levelo://app?vid=37d01fc8-4b4d-4652-a489-1254eb9d4c80","ios":"levelo://app?vid=37d01fc8-4b4d-4652-a489-1254eb9d4c80"},"vehicle_type_id":"4","last_reported":1761174541,"current_range_meters":11200,"station_id":"","pricing_plan_id":"cebpf4jnsgd1na2vs0mg"},{"bike_id":"61f001a3-2cb1-43fb-bfe4-e4a1763b22c1","system_id":"levelo_inurba_marseille","lat":43.27074,"lon":5.4228,"is_reserved":false,"is_disabled":false,"rental_uris":{"android":"levelo://app?vid=61f001a3-2cb1-43fb-bfe4-e4a1763b22c1","ios":"levelo://app?vid=61f001a3-2cb1-43fb-bfe4-e4a1763b22c1"},"vehicle_type_id":"4","last_reported":1761174541,"current_range_meters":11600,"station_id":"ce4bhk92rcd13ifvqgb0","pricing_plan_id":"cebpf4jnsgd1na2vs0mg"},{"bike_id":"3aa8c3e6-230d-4538-ac39-2b944611f536","system_id":"levelo_inurba_marseille","lat":43.31416,"lon":5.36659,"is_reserved":false,"is_disabled":true,"rental_uris":{"android":"levelo://app?vid=3aa8c3e6-230d-4538-ac39-2b944611f536","ios":"levelo://app?vid=3aa8c3e6-230d-4538-ac39-2b944611f536"},"vehicle_type_id":"4","last_reported":1761174541,"current_range_meters":11600,"station_id":"ce4bgr92rcd13ifvqc6g","pricing_plan_id":"cebpf4jnsgd1na2vs0mg"},{"bike_id":"c2f5c17d-56bd-4356-9cc8-a70d64ef916e","system_id":"levelo_inurba_marseille","lat":43.28457,"lon":5.35897,"is_reserved":false,"is_disabled":false,"rental_uris":{"android":"levelo://app?vid=c2f5c17d-56bd-4356-9cc8-a70d64ef916e","ios":"levelo://app?vid=c2f5c17d-56bd-4356-9cc8-a70d64ef916e"},"vehicle_type_id":"4","last_reported":1761174541,"current_range_meters":11600,"station_id":"ce4bhah2rcd13ifvqei0","pricing_plan_id":"cebpf4jnsgd1na2vs0mg"},{"bike_id":"00950afb-c342-47c9-9cac-09e4bd0cd22a","system_id":"levelo_inurba_marseille","lat":43.28714,"lon":5.39991,"is_reserved":false,"is_disabled":false,"rental_uris":{"android":"levelo://app?vid=00950afb-c342-47c9-9cac-09e4bd0cd22a","ios":"levelo://app?vid=00950afb-c342-47c9-9cac-09e4bd0cd22a"},"vehicle_type_id":"4","last_reported":1761174541,"current_range_meters":11600,"station_id":"ce4bho92rcd13ifvqh3g","pricing_plan_id":"cebpf4jnsgd1na2vs0mg"},{"bike_id":"7ab93674-3618-4d2a-bad0-80df678a9a9a","system_id":"levelo_inurba_marseille","lat":43.26084,"lon":5.39398,"is_reserved":false,"is_disabled":false,"rental_uris":{"android":"levelo://app?vid=7ab93674-3618-4d2a-bad0-80df678a9a9a","ios":"levelo://app?vid=7ab93674-3618-4d2a-bad0-80df678a9a9a"},"vehicle_type_id":"4","last_reported":1761174541,"current_range_meters":11600,"station_id":"ce4bhh92rcd13ifvqfj0","pricing_plan_id":"cebpf4jnsgd1na2vs0mg"},{"bike_id":"3abb8715-b1f9-4a86-9202-8230ef14e54d","system_id":"levelo_inurba_marseille","lat":43.284586,"lon":5.358802,"is_reserved":false,"is_disabled":false,"rental_uris":{"android":"levelo://app?vid=3abb8715-b1f9-4a86-9202-8230ef14e54d","ios":"levelo://app?vid=3abb8715-b1f9-4a86-9202-8230ef14e54d"},"vehicle_type_id":"4","last_reported":1761174541,"current_range_meters":12000,"station_id":"ce4bhah2rcd13ifvqei0","pricing_plan_id":"cebpf4jnsgd1na2vs0mg"},{"bike_id":"923d022b-4a85-437d-b152-30f3ec505c40","system_id":"levelo_inurba_marseille","lat":43.27376,"lon":5.36269,"is_reserved":false,"is_disabled":false,"rental_uris":{"android":"levelo://app?vid=923d022b-4a85-437d-b152-30f3ec505c40","ios":"levelo://app?vid=923d022b-4a85-437d-b152-30f3ec505c40"},"vehicle_type_id":"4","last_reported":1761174541,"current_range_meters":12000,"station_id":"ce4bhbh2rcd13ifvqeo0","pricing_plan_id":"cebpf4jnsgd1na2vs0mg"},{"bike_id":"ac4f7d3c-5af7-44ad-8c8b-463d26f4b847","system_id":"levelo_inurba_marseille","lat":43.274451,"lon":5.390878,"is_reserved":false,"is_disabled":false,"rental_uris":{"android":"levelo://app?vid=ac4f7d3c-5af7-44ad-8c8b-463d26f4b847","ios":"levelo://app?vid=ac4f7d3c-5af7-44ad-8c8b-463d26f4b847"},"vehicle_type_id":"4","last_reported":1761174541,"current_range_meters":12000,"station_id":"ce4bhg12rcd13ifvqf80","pricing_plan_id":"cebpf4jnsgd1na2vs0mg"},{"bike_id":"4f39751f-28cc-4f69-954f-5fdde0927635","system_id":"levelo_inurba_marseille","lat":43.24955,"lon":5.40488,"is_reserved":false,"is_disabled":false,"rental_uris":{"android":"levelo://app?vid=4f39751f-28cc-4f69-954f-5fdde0927635","ios":"levelo://app?vid=4f39751f-28cc-4f69-954f-5fdde0927635"},"vehicle_type_id":"4","last_reported":1761174541,"current_range_meters":12000,"station_id":"st_d2ngiaodas8pm72gd1h0","pricing_plan_id":"cebpf4jnsgd1na2vs0mg"},{"bike_id":"b9a05551-3609-4ca8-b148-46ab78d88ed7","system_id":"levelo_inurba_marseille","lat":43.30429,"lon":5.39753,"is_reserved":false,"is_disabled":false,"rental_uris":{"android":"levelo://app?vid=b9a05551-3609-4ca8-b148-46ab78d88ed7","ios":"levelo://app?vid=b9a05551-3609-4ca8-b148-46ab78d88ed7"},"vehicle_type_id":"4","last_reported":1761174541,"current_range_meters":12400,"station_id":"ce4bh092rcd13ifvqd20","pricing_plan_id":"cebpf4jnsgd1na2vs0mg"},{"bike_id":"5b2fb394-b654-4cda-abea-19d87e1a4938","system_id":"levelo_inurba_marseille","lat":43.240822,"lon":5.377519,"is_reserved":false,"is_disabled":false,"rental_uris":{"android":"levelo://app?vid=5b2fb394-b654-4cda-abea-19d87e1a4938","ios":"levelo://app?vid=5b2fb394-b654-4cda-abea-19d87e1a4938"},"vehicle_type_id":"4","last_reported":1761174541,"current_range_meters":12400,"station_id":"ce4bhnp2rcd13ifvqgvg","pricing_plan_id":"cebpf4jnsgd1na2vs0mg"},{"bike_id":"e28b236f-fb13-401b-a0a5-c27a164cc555","system_id":"levelo_inurba_marseille","lat":43.318851,"lon":5.407388,"is_reserved":false,"is_disabled":false,"rental_uris":{"android":"levelo://app?vid=e28b236f-fb13-401b-a0a5-c27a164cc555","ios":"levelo://app?vid=e28b236f-fb13-401b-a0a5-c27a164cc555"},"vehicle_type_id":"4","last_reported":1761174541,"current_range_meters":12400,"station_id":"ce4bhq12rcd13ifvqhig","pricing_plan_id":"cebpf4jnsgd1na2vs0mg"},{"bike_id":"e7709aff-f080-4c40-b225-77642ea3c5cc","system_id":"levelo_inurba_marseille","lat":43.24182,"lon":5.36396,"is_reserved":false,"is_disabled":false,"rental_uris":{"android":"levelo://app?vid=e7709aff-f080-4c40-b225-77642ea3c5cc","ios":"levelo://app?vid=e7709aff-f080-4c40-b225-77642ea3c5cc"},"vehicle_type_id":"4","last_reported":1761174541,"current_range_meters":12400,"station_id":"cpo36qri1sfpv3e86is0","pricing_plan_id":"cebpf4jnsgd1na2vs0mg"},{"bike_id":"11c4e8c3-228b-4c39-b8c0-f49ce3c3e3b2","system_id":"levelo_inurba_marseille","lat":43.29788,"lon":5.39348,"is_reserved":false,"is_disabled":false,"rental_uris":{"android":"levelo://app?vid=11c4e8c3-228b-4c39-b8c0-f49ce3c3e3b2","ios":"levelo://app?vid=11c4e8c3-228b-4c39-b8c0-f49ce3c3e3b2"},"vehicle_type_id":"4","last_reported":1761174541,"current_range_meters":12400,"station_id":"chh1huq6cuj3fo74tm60","pricing_plan_id":"cebpf4jnsgd1na2vs0mg"},{"bike_id":"9870a68d-ae62-4bec-82c3-a7443a850bdc","system_id":"levelo_inurba_marseille","lat":43.31286,"lon":5.37776,"is_reserved":false,"is_disabled":false,"rental_uris":{"android":"levelo://app?vid=9870a68d-ae62-4bec-82c3-a7443a850bdc","ios":"levelo://app?vid=9870a68d-ae62-4bec-82c3-a7443a850bdc"},"vehicle_type_id":"4","last_reported":1761174541,"current_range_meters":12800,"station_id":"","pricing_plan_id":"cebpf4jnsgd1na2vs0mg"},{"bike_id":"07e992db-48e1-481b-a50e-3b491cfc1455","system_id":"levelo_inurba_marseille","lat":43.31991,"lon":5.41291,"is_reserved":false,"is_disabled":false,"rental_uris":{"android":"levelo://app?vid=07e992db-48e1-481b-a50e-3b491cfc1455","ios":"levelo://app?vid=07e992db-48e1-481b-a50e-3b491cfc1455"},"vehicle_type_id":"4","last_reported":1761174541,"current_range_meters":12800,"station_id":"","pricing_plan_id":"cebpf4jnsgd1na2vs0mg"},{"bike_id":"4eae2ec4-8862-466e-a3d9-395cca4276d0","system_id":"levelo_inurba_marseille","lat":43.30302,"lon":5.375262,"is_reserved":false,"is_disabled":false,"rental_uris":{"android":"levelo://app?vid=4eae2ec4-8862-466e-a3d9-395cca4276d0","ios":"levelo://app?vid=4eae2ec4-8862-466e-a3d9-395cca4276d0"},"vehicle_type_id":"4","last_reported":1761174541,"current_range_meters":12800,"station_id":"","pricing_plan_id":"cebpf4jnsgd1na2vs0mg"},{"bike_id":"1656396b-ce0e-470e-9f40-d432e00c8827","system_id":"levelo_inurba_marseille","lat":43.29621,"lon":5.40454,"is_reserved":false,"is_disabled":false,"rental_uris":{"android":"levelo://app?vid=1656396b-ce0e-470e-9f40-d432e00c8827","ios":"levelo://app?vid=1656396b-ce0e-470e-9f40-d432e00c8827"},"vehicle_type_id":"4","last_reported":1761174541,"current_range_meters":13600,"station_id":"","pricing_plan_id":"cebpf4jnsgd1na2vs0mg"},{"bike_id":"2f86c0e7-791d-40d3-86dc-3a2c4a57947d","system_id":"levelo_inurba_marseille","lat":43.310866,"lon":5.424336,"is_reserved":false,"is_disabled":false,"rental_uris":{"android":"levelo://app?vid=2f86c0e7-791d-40d3-86dc-3a2c4a57947d","ios":"levelo://app?vid=2f86c0e7-791d-40d3-86dc-3a2c4a57947d"},"vehicle_type_id":"4","last_reported":1761174541,"current_range_meters":13600,"station_id":"ce4bhp92rcd13ifvqhag","pricing_plan_id":"cebpf4jnsgd1na2vs0mg"},{"bike_id":"7dc3a787-7b14-4505-8e32-0b28349ba8b9","system_id":"levelo_inurba_marseille","lat":43.287063,"lon":5.362525,"is_reserved":false,"is_disabled":false,"rental_uris":{"android":"levelo://app?vid=7dc3a787-7b14-4505-8e32-0b28349ba8b9","ios":"levelo://app?vid=7dc3a787-7b14-4505-8e32-0b28349ba8b9"},"vehicle_type_id":"4","last_reported":1761174541,"current_range_meters":13600,"station_id":"","pricing_plan_id":"cebpf4jnsgd1na2vs0mg"},{"bike_id":"5c5f86d4-45e0-4ad5-a478-5119cd222b7f","system_id":"levelo_inurba_marseille","lat":43.33153,"lon":5.38159,"is_reserved":false,"is_disabled":false,"rental_uris":{"android":"levelo://app?vid=5c5f86d4-45e0-4ad5-a478-5119cd222b7f","ios":"levelo://app?vid=5c5f86d4-45e0-4ad5-a478-5119cd222b7f"},"vehicle_type_id":"4","last_reported":1761174541,"current_range_meters":13600,"station_id":"","pricing_plan_id":"cebpf4jnsgd1na2vs0mg"},{"bike_id":"2430fe19-8bd8-48cd-95eb-8fddbc013eb4","system_id":"levelo_inurba_marseille","lat":43.30594,"lon":5.37214,"is_reserved":false,"is_disabled":false,"rental_uris":{"android":"levelo://app?vid=2430fe19-8bd8-48cd-95eb-8fddbc013eb4","ios":"levelo://app?vid=2430fe19-8bd8-48cd-95eb-8fddbc013eb4"},"vehicle_type_id":"4","last_reported":1761174541,"current_range_meters":14000,"station_id":"ce4bgqh2rcd13ifvqc4g","pricing_plan_id":"cebpf4jnsgd1na2vs0mg"},{"bike_id":"7ca9991e-0bc4-4fc5-ad7c-19f19203c013","system_id":"levelo_inurba_marseille","lat":43.31173,"lon":5.38721,"is_reserved":false,"is_disabled":false,"rental_uris":{"android":"levelo://app?vid=7ca9991e-0bc4-4fc5-ad7c-19f19203c013","ios":"levelo://app?vid=7ca9991e-0bc4-4fc5-ad7c-19f19203c013"},"vehicle_type_id":"4","last_reported":1761174541,"current_range_meters":14000,"station_id":"ce4bgv12rcd13ifvqcp0","pricing_plan_id":"cebpf4jnsgd1na2vs0mg"},{"bike_id":"1f70c7ed-fb60-4795-b932-255c2f1bb7ec","system_id":"levelo_inurba_marseille","lat":43.25089,"lon":5.39517,"is_reserved":false,"is_disabled":false,"rental_uris":{"android":"levelo://app?vid=1f70c7ed-fb60-4795-b932-255c2f1bb7ec","ios":"levelo://app?vid=1f70c7ed-fb60-4795-b932-255c2f1bb7ec"},"vehicle_type_id":"4","last_reported":1761174541,"current_range_meters":14000,"station_id":"ce4bhm12rcd13ifvqgkg","pricing_plan_id":"cebpf4jnsgd1na2vs0mg"},{"bike_id":"618a9c44-e479-45b6-b144-58d3228e3132","system_id":"levelo_inurba_marseille","lat":43.24643,"lon":5.38916,"is_reserved":false,"is_disabled":false,"rental_uris":{"android":"levelo://app?vid=618a9c44-e479-45b6-b144-58d3228e3132","ios":"levelo://app?vid=618a9c44-e479-45b6-b144-58d3228e3132"},"vehicle_type_id":"4","last_reported":1761174541,"current_range_meters":14000,"station_id":"ce4bhg12rcd13ifvqf60","pricing_plan_id":"cebpf4jnsgd1na2vs0mg"},{"bike_id":"fb37625d-3902-4db9-ba89-286bc2a0d223","system_id":"levelo_inurba_marseille","lat":43.26489,"lon":5.39558,"is_reserved":false,"is_disabled":false,"rental_uris":{"android":"levelo://app?vid=fb37625d-3902-4db9-ba89-286bc2a0d223","ios":"levelo://app?vid=fb37625d-3902-4db9-ba89-286bc2a0d223"},"vehicle_type_id":"4","last_reported":1761174541,"current_range_meters":14400,"station_id":"ce4bhi12rcd13ifvqfq0","pricing_plan_id":"cebpf4jnsgd1na2vs0mg"},{"bike_id":"e26a4ba5-d1f0-450a-a9c3-d00a5fad899d","system_id":"levelo_inurba_marseille","lat":43.241658,"lon":5.363934,"is_reserved":false,"is_disabled":false,"rental_uris":{"android":"levelo://app?vid=e26a4ba5-d1f0-450a-a9c3-d00a5fad899d","ios":"levelo://app?vid=e26a4ba5-d1f0-450a-a9c3-d00a5fad899d"},"vehicle_type_id":"4","last_reported":1761174541,"current_range_meters":14400,"station_id":"cpo36qri1sfpv3e86is0","pricing_plan_id":"cebpf4jnsgd1na2vs0mg"},{"bike_id":"7961ff2e-a5e5-4ebf-9fb8-9e88b6a1c2f2","system_id":"levelo_inurba_marseille","lat":43.239621,"lon":5.366247,"is_reserved":false,"is_disabled":false,"rental_uris":{"android":"levelo://app?vid=7961ff2e-a5e5-4ebf-9fb8-9e88b6a1c2f2","ios":"levelo://app?vid=7961ff2e-a5e5-4ebf-9fb8-9e88b6a1c2f2"},"vehicle_type_id":"4","last_reported":1761174541,"current_range_meters":14400,"station_id":"ce4bhi12rcd13ifvqfp0","pricing_plan_id":"cebpf4jnsgd1na2vs0mg"},{"bike_id":"56880329-4c76-4c4e-84a7-3c605e225585","system_id":"levelo_inurba_marseille","lat":43.33731,"lon":5.39182,"is_reserved":false,"is_disabled":false,"rental_uris":{"android":"levelo://app?vid=56880329-4c76-4c4e-84a7-3c605e225585","ios":"levelo://app?vid=56880329-4c76-4c4e-84a7-3c605e225585"},"vehicle_type_id":"4","last_reported":1761174541,"current_range_meters":14400,"station_id":"ce4bhr92rcd13ifvqhsg","pricing_plan_id":"cebpf4jnsgd1na2vs0mg"},{"bike_id":"b3b13e92-d401-45af-ad84-a41c7bbeb5fe","system_id":"levelo_inurba_marseille","lat":43.2946,"lon":5.37965,"is_reserved":false,"is_disabled":false,"rental_uris":{"android":"levelo://app?vid=b3b13e92-d401-45af-ad84-a41c7bbeb5fe","ios":"levelo://app?vid=b3b13e92-d401-45af-ad84-a41c7bbeb5fe"},"vehicle_type_id":"4","last_reported":1761174541,"current_range_meters":14400,"station_id":"","pricing_plan_id":"cebpf4jnsgd1na2vs0mg"},{"bike_id":"12560c82-fdef-4887-a8c4-b201c21f8929","system_id":"levelo_inurba_marseille","lat":43.29875,"lon":5.38925,"is_reserved":false,"is_disabled":false,"rental_uris":{"android":"levelo://app?vid=12560c82-fdef-4887-a8c4-b201c21f8929","ios":"levelo://app?vid=12560c82-fdef-4887-a8c4-b201c21f8929"},"vehicle_type_id":"4","last_reported":1761174541,"current_range_meters":14400,"station_id":"ce4bh392rcd13ifvqdl0","pricing_plan_id":"cebpf4jnsgd1na2vs0mg"},{"bike_id":"c8c0fa58-a519-4343-9887-b0c694f93aef","system_id":"levelo_inurba_marseille","lat":43.28869,"lon":5.42516,"is_reserved":false,"is_disabled":false,"rental_uris":{"android":"levelo://app?vid=c8c0fa58-a519-4343-9887-b0c694f93aef","ios":"levelo://app?vid=c8c0fa58-a519-4343-9887-b0c694f93aef"},"vehicle_type_id":"4","last_reported":1761174541,"current_range_meters":14800,"station_id":"st_d3b462108ojc7389ooeg","pricing_plan_id":"cebpf4jnsgd1na2vs0mg"},{"bike_id":"6b9158cc-993e-4fdb-bafb-7fa32e0adab3","system_id":"levelo_inurba_marseille","lat":43.21748,"lon":5.34616,"is_reserved":false,"is_disabled":false,"rental_uris":{"android":"levelo://app?vid=6b9158cc-993e-4fdb-bafb-7fa32e0adab3","ios":"levelo://app?vid=6b9158cc-993e-4fdb-bafb-7fa32e0adab3"},"vehicle_type_id":"4","last_reported":1761174541,"current_range_meters":14800,"station_id":"","pricing_plan_id":"cebpf4jnsgd1na2vs0mg"},{"bike_id":"fa0be1b3-ac79-46dd-bbc1-835a3fafa9e1","system_id":"levelo_inurba_marseille","lat":43.30095,"lon":5.39076,"is_reserved":false,"is_disabled":false,"rental_uris":{"android":"levelo://app?vid=fa0be1b3-ac79-46dd-bbc1-835a3fafa9e1","ios":"levelo://app?vid=fa0be1b3-ac79-46dd-bbc1-835a3fafa9e1"},"vehicle_type_id":"4","last_reported":1761174541,"current_range_meters":14800,"station_id":"ce4bh192rcd13ifvqdb0","pricing_plan_id":"cebpf4jnsgd1na2vs0mg"},{"bike_id":"cf06ee6f-d420-499d-8dee-1fab4c8be77b","system_id":"levelo_inurba_marseille","lat":43.301286,"lon":5.38775,"is_reserved":false,"is_disabled":false,"rental_uris":{"android":"levelo://app?vid=cf06ee6f-d420-499d-8dee-1fab4c8be77b","ios":"levelo://app?vid=cf06ee6f-d420-499d-8dee-1fab4c8be77b"},"vehicle_type_id":"4","last_reported":1761174541,"current_range_meters":14800,"station_id":"","pricing_plan_id":"cebpf4jnsgd1na2vs0mg"},{"bike_id":"4103b0b2-546e-43ea-b374-66493bab0d28","system_id":"levelo_inurba_marseille","lat":43.303757,"lon":5.424879,"is_reserved":false,"is_disabled":false,"rental_uris":{"android":"levelo://app?vid=4103b0b2-546e-43ea-b374-66493bab0d28","ios":"levelo://app?vid=4103b0b2-546e-43ea-b374-66493bab0d28"},"vehicle_type_id":"4","last_reported":1761174541,"current_range_meters":14800,"station_id":"ce4bgj92rcd13ifvqbd0","pricing_plan_id":"cebpf4jnsgd1na2vs0mg"},{"bike_id":"70fa2860-b41f-46c7-a7ad-3df619e0baff","system_id":"levelo_inurba_marseille","lat":43.29197,"lon":5.39322,"is_reserved":false,"is_disabled":false,"rental_uris":{"android":"levelo://app?vid=70fa2860-b41f-46c7-a7ad-3df619e0baff","ios":"levelo://app?vid=70fa2860-b41f-46c7-a7ad-3df619e0baff"},"vehicle_type_id":"4","last_reported":1761174541,"current_range_meters":14800,"station_id":"ce4bh192rcd13ifvqdd0","pricing_plan_id":"cebpf4jnsgd1na2vs0mg"},{"bike_id":"1a6eff8a-be16-4df3-b0d1-f4fe19248da8","system_id":"levelo_inurba_marseille","lat":43.2848,"lon":5.38415,"is_reserved":false,"is_disabled":false,"rental_uris":{"android":"levelo://app?vid=1a6eff8a-be16-4df3-b0d1-f4fe19248da8","ios":"levelo://app?vid=1a6eff8a-be16-4df3-b0d1-f4fe19248da8"},"vehicle_type_id":"4","last_reported":1761174541,"current_range_meters":14800,"station_id":"ce4bh512rcd13ifvqe3g","pricing_plan_id":"cebpf4jnsgd1na2vs0mg"},{"bike_id":"ff3839d3-16ac-4aa9-9120-d4030bd2a260","system_id":"levelo_inurba_marseille","lat":43.297916,"lon":5.393304,"is_reserved":false,"is_disabled":true,"rental_uris":{"android":"levelo://app?vid=ff3839d3-16ac-4aa9-9120-d4030bd2a260","ios":"levelo://app?vid=ff3839d3-16ac-4aa9-9120-d4030bd2a260"},"vehicle_type_id":"4","last_reported":1761174541,"current_range_meters":14800,"station_id":"chh1huq6cuj3fo74tm60","pricing_plan_id":"cebpf4jnsgd1na2vs0mg"},{"bike_id":"d59bf119-d6cb-4ad0-8809-efcb4f8dd276","system_id":"levelo_inurba_marseille","lat":43.29846,"lon":5.44902,"is_reserved":false,"is_disabled":false,"rental_uris":{"android":"levelo://app?vid=d59bf119-d6cb-4ad0-8809-efcb4f8dd276","ios":"levelo://app?vid=d59bf119-d6cb-4ad0-8809-efcb4f8dd276"},"vehicle_type_id":"4","last_reported":1761174541,"current_range_meters":14800,"station_id":"","pricing_plan_id":"cebpf4jnsgd1na2vs0mg"},{"bike_id":"c775e1ea-9a62-4435-8d4f-004bf2c26047","system_id":"levelo_inurba_marseille","lat":43.29822,"lon":5.44063,"is_reserved":false,"is_disabled":false,"rental_uris":{"android":"levelo://app?vid=c775e1ea-9a62-4435-8d4f-004bf2c26047","ios":"levelo://app?vid=c775e1ea-9a62-4435-8d4f-004bf2c26047"},"vehicle_type_id":"4","last_reported":1761174541,"current_range_meters":15200,"station_id":"st_d3jp68qikq2c7381ktn0","pricing_plan_id":"cebpf4jnsgd1na2vs0mg"},{"bike_id":"61525fe3-26d4-4c5c-a075-e59599c296c4","system_id":"levelo_inurba_marseille","lat":43.31446,"lon":5.39292,"is_reserved":false,"is_disabled":false,"rental_uris":{"android":"levelo://app?vid=61525fe3-26d4-4c5c-a075-e59599c296c4","ios":"levelo://app?vid=61525fe3-26d4-4c5c-a075-e59599c296c4"},"vehicle_type_id":"4","last_reported":1761174541,"current_range_meters":15200,"station_id":"","pricing_plan_id":"cebpf4jnsgd1na2vs0mg"},{"bike_id":"8dd0e992-9a57-4983-9434-91e35fe5beec","system_id":"levelo_inurba_marseille","lat":43.34153,"lon":5.40919,"is_reserved":false,"is_disabled":false,"rental_uris":{"android":"levelo://app?vid=8dd0e992-9a57-4983-9434-91e35fe5beec","ios":"levelo://app?vid=8dd0e992-9a57-4983-9434-91e35fe5beec"},"vehicle_type_id":"4","last_reported":1761174541,"current_range_meters":15200,"station_id":"ce4bhqh2rcd13ifvqhlg","pricing_plan_id":"cebpf4jnsgd1na2vs0mg"},{"bike_id":"5e71c951-2201-4bb3-a1b7-87f675638a00","system_id":"levelo_inurba_marseille","lat":43.30429,"lon":5.3974,"is_reserved":false,"is_disabled":false,"rental_uris":{"android":"levelo://app?vid=5e71c951-2201-4bb3-a1b7-87f675638a00","ios":"levelo://app?vid=5e71c951-2201-4bb3-a1b7-87f675638a00"},"vehicle_type_id":"4","last_reported":1761174541,"current_range_meters":15200,"station_id":"ce4bh092rcd13ifvqd20","pricing_plan_id":"cebpf4jnsgd1na2vs0mg"},{"bike_id":"06ab88d4-144b-4a0a-a5ee-f9fa11ce49bb","system_id":"levelo_inurba_marseille","lat":43.26571,"lon":5.40325,"is_reserved":false,"is_disabled":false,"rental_uris":{"android":"levelo://app?vid=06ab88d4-144b-4a0a-a5ee-f9fa11ce49bb","ios":"levelo://app?vid=06ab88d4-144b-4a0a-a5ee-f9fa11ce49bb"},"vehicle_type_id":"4","last_reported":1761174541,"current_range_meters":16000,"station_id":"ce4bhmp2rcd13ifvqgng","pricing_plan_id":"cebpf4jnsgd1na2vs0mg"},{"bike_id":"80a39850-5de5-48f2-9aca-05460555379b","system_id":"levelo_inurba_marseille","lat":43.28939,"lon":5.36404,"is_reserved":false,"is_disabled":false,"rental_uris":{"android":"levelo://app?vid=80a39850-5de5-48f2-9aca-05460555379b","ios":"levelo://app?vid=80a39850-5de5-48f2-9aca-05460555379b"},"vehicle_type_id":"4","last_reported":1761174541,"current_range_meters":16000,"station_id":"ce4bhc92rcd13ifvqetg","pricing_plan_id":"cebpf4jnsgd1na2vs0mg"},{"bike_id":"f538f63b-5046-43e0-b976-b5f9d5d4e253","system_id":"levelo_inurba_marseille","lat":43.29794,"lon":5.39348,"is_reserved":false,"is_disabled":false,"rental_uris":{"android":"levelo://app?vid=f538f63b-5046-43e0-b976-b5f9d5d4e253","ios":"levelo://app?vid=f538f63b-5046-43e0-b976-b5f9d5d4e253"},"vehicle_type_id":"4","last_reported":1761174541,"current_range_meters":16000,"station_id":"chh1huq6cuj3fo74tm60","pricing_plan_id":"cebpf4jnsgd1na2vs0mg"},{"bike_id":"e60b0896-e96f-44aa-8531-9b9887fb3d4b","system_id":"levelo_inurba_marseille","lat":43.308,"lon":5.3816,"is_reserved":false,"is_disabled":false,"rental_uris":{"android":"levelo://app?vid=e60b0896-e96f-44aa-8531-9b9887fb3d4b","ios":"levelo://app?vid=e60b0896-e96f-44aa-8531-9b9887fb3d4b"},"vehicle_type_id":"4","last_reported":1761174541,"current_range_meters":16000,"station_id":"ce4bgt12rcd13ifvqce0","pricing_plan_id":"cebpf4jnsgd1na2vs0mg"},{"bike_id":"96a5d1da-e2b5-492e-99b1-8e18fe8e283b","system_id":"levelo_inurba_marseille","lat":43.30895,"lon":5.39651,"is_reserved":false,"is_disabled":false,"rental_uris":{"android":"levelo://app?vid=96a5d1da-e2b5-492e-99b1-8e18fe8e283b","ios":"levelo://app?vid=96a5d1da-e2b5-492e-99b1-8e18fe8e283b"},"vehicle_type_id":"4","last_reported":1761174541,"current_range_meters":16400,"station_id":"ce4bh012rcd13ifvqcv0","pricing_plan_id":"cebpf4jnsgd1na2vs0mg"},{"bike_id":"71d530ff-c617-4500-862e-2196508ef7cb","system_id":"levelo_inurba_marseille","lat":43.23795,"lon":5.36628,"is_reserved":false,"is_disabled":false,"rental_uris":{"android":"levelo://app?vid=71d530ff-c617-4500-862e-2196508ef7cb","ios":"levelo://app?vid=71d530ff-c617-4500-862e-2196508ef7cb"},"vehicle_type_id":"4","last_reported":1761174541,"current_range_meters":16400,"station_id":"st_d3nk18o9ro0c73en2l3g","pricing_plan_id":"cebpf4jnsgd1na2vs0mg"},{"bike_id":"91d630cc-6558-474d-911d-2ff4a104ddb1","system_id":"levelo_inurba_marseille","lat":43.31755,"lon":5.39027,"is_reserved":false,"is_disabled":false,"rental_uris":{"android":"levelo://app?vid=91d630cc-6558-474d-911d-2ff4a104ddb1","ios":"levelo://app?vid=91d630cc-6558-474d-911d-2ff4a104ddb1"},"vehicle_type_id":"4","last_reported":1761174541,"current_range_meters":16400,"station_id":"ce4bhqp2rcd13ifvqhng","pricing_plan_id":"cebpf4jnsgd1na2vs0mg"},{"bike_id":"0198280f-05b0-401c-b9f2-7586dff77353","system_id":"levelo_inurba_marseille","lat":43.28905,"lon":5.37795,"is_reserved":false,"is_disabled":false,"rental_uris":{"android":"levelo://app?vid=0198280f-05b0-401c-b9f2-7586dff77353","ios":"levelo://app?vid=0198280f-05b0-401c-b9f2-7586dff77353"},"vehicle_type_id":"4","last_reported":1761174541,"current_range_meters":16400,"station_id":"","pricing_plan_id":"cebpf4jnsgd1na2vs0mg"},{"bike_id":"22556366-5b35-4879-b6f5-b944bfc8418c","system_id":"levelo_inurba_marseille","lat":43.30174,"lon":5.38106,"is_reserved":false,"is_disabled":true,"rental_uris":{"android":"levelo://app?vid=22556366-5b35-4879-b6f5-b944bfc8418c","ios":"levelo://app?vid=22556366-5b35-4879-b6f5-b944bfc8418c"},"vehicle_type_id":"4","last_reported":1761174541,"current_range_meters":16400,"station_id":"ce4bgjp2rcd13ifvqbh0","pricing_plan_id":"cebpf4jnsgd1na2vs0mg"},{"bike_id":"3897eca1-df66-40f6-982c-73ca7a4916df","system_id":"levelo_inurba_marseille","lat":43.28468,"lon":5.35886,"is_reserved":false,"is_disabled":false,"rental_uris":{"android":"levelo://app?vid=3897eca1-df66-40f6-982c-73ca7a4916df","ios":"levelo://app?vid=3897eca1-df66-40f6-982c-73ca7a4916df"},"vehicle_type_id":"4","last_reported":1761174541,"current_range_meters":16400,"station_id":"ce4bhah2rcd13ifvqei0","pricing_plan_id":"cebpf4jnsgd1na2vs0mg"},{"bike_id":"bda3ed1a-3199-4eb8-8229-577855d09dbb","system_id":"levelo_inurba_marseille","lat":43.3163,"lon":5.37876,"is_reserved":false,"is_disabled":false,"rental_uris":{"android":"levelo://app?vid=bda3ed1a-3199-4eb8-8229-577855d09dbb","ios":"levelo://app?vid=bda3ed1a-3199-4eb8-8229-577855d09dbb"},"vehicle_type_id":"4","last_reported":1761174541,"current_range_meters":16400,"station_id":"","pricing_plan_id":"cebpf4jnsgd1na2vs0mg"},{"bike_id":"1aaa028d-93d8-4a20-8355-7a4b17d8620a","system_id":"levelo_inurba_marseille","lat":43.27628,"lon":5.39209,"is_reserved":false,"is_disabled":false,"rental_uris":{"android":"levelo://app?vid=1aaa028d-93d8-4a20-8355-7a4b17d8620a","ios":"levelo://app?vid=1aaa028d-93d8-4a20-8355-7a4b17d8620a"},"vehicle_type_id":"4","last_reported":1761174541,"current_range_meters":16400,"station_id":"","pricing_plan_id":"cebpf4jnsgd1na2vs0mg"},{"bike_id":"b47656b5-24c6-4cdc-ad67-1d843e8edbeb","system_id":"levelo_inurba_marseille","lat":43.30752,"lon":5.4244,"is_reserved":false,"is_disabled":false,"rental_uris":{"android":"levelo://app?vid=b47656b5-24c6-4cdc-ad67-1d843e8edbeb","ios":"levelo://app?vid=b47656b5-24c6-4cdc-ad67-1d843e8edbeb"},"vehicle_type_id":"4","last_reported":1761174541,"current_range_meters":16400,"station_id":"st_cvj6ca6bvosntc0bfgr0","pricing_plan_id":"cebpf4jnsgd1na2vs0mg"},{"bike_id":"9393f9ef-7253-457f-bdcb-e284d908af29","system_id":"levelo_inurba_marseille","lat":43.288503,"lon":5.358526,"is_reserved":false,"is_disabled":false,"rental_uris":{"android":"levelo://app?vid=9393f9ef-7253-457f-bdcb-e284d908af29","ios":"levelo://app?vid=9393f9ef-7253-457f-bdcb-e284d908af29"},"vehicle_type_id":"4","last_reported":1761174541,"current_range_meters":16400,"station_id":"ce4bhb12rcd13ifvqem0","pricing_plan_id":"cebpf4jnsgd1na2vs0mg"},{"bike_id":"d9247930-f477-4727-872b-24c5b02f6614","system_id":"levelo_inurba_marseille","lat":43.27176,"lon":5.409967,"is_reserved":false,"is_disabled":false,"rental_uris":{"android":"levelo://app?vid=d9247930-f477-4727-872b-24c5b02f6614","ios":"levelo://app?vid=d9247930-f477-4727-872b-24c5b02f6614"},"vehicle_type_id":"4","last_reported":1761174541,"current_range_meters":16400,"station_id":"ce4bhl12rcd13ifvqgf0","pricing_plan_id":"cebpf4jnsgd1na2vs0mg"},{"bike_id":"4b9cc68c-d09f-49e6-964a-67a75198ff94","system_id":"levelo_inurba_marseille","lat":43.24633,"lon":5.43143,"is_reserved":false,"is_disabled":false,"rental_uris":{"android":"levelo://app?vid=4b9cc68c-d09f-49e6-964a-67a75198ff94","ios":"levelo://app?vid=4b9cc68c-d09f-49e6-964a-67a75198ff94"},"vehicle_type_id":"4","last_reported":1761174541,"current_range_meters":16400,"station_id":"st_d2m6c4gdas8pm72e190g","pricing_plan_id":"cebpf4jnsgd1na2vs0mg"},{"bike_id":"9a1972b5-72a6-4763-9884-2f966099622e","system_id":"levelo_inurba_marseille","lat":43.299424,"lon":5.375447,"is_reserved":false,"is_disabled":false,"rental_uris":{"android":"levelo://app?vid=9a1972b5-72a6-4763-9884-2f966099622e","ios":"levelo://app?vid=9a1972b5-72a6-4763-9884-2f966099622e"},"vehicle_type_id":"4","last_reported":1761174541,"current_range_meters":16800,"station_id":"","pricing_plan_id":"cebpf4jnsgd1na2vs0mg"},{"bike_id":"e1927214-042b-4ff4-88d7-8c0645f3fb8b","system_id":"levelo_inurba_marseille","lat":43.24083,"lon":5.37753,"is_reserved":false,"is_disabled":false,"rental_uris":{"android":"levelo://app?vid=e1927214-042b-4ff4-88d7-8c0645f3fb8b","ios":"levelo://app?vid=e1927214-042b-4ff4-88d7-8c0645f3fb8b"},"vehicle_type_id":"4","last_reported":1761174541,"current_range_meters":16800,"station_id":"ce4bhnp2rcd13ifvqgvg","pricing_plan_id":"cebpf4jnsgd1na2vs0mg"},{"bike_id":"6b5213dd-3dbc-4ddd-995d-998bf1c25ee9","system_id":"levelo_inurba_marseille","lat":43.27945,"lon":5.41039,"is_reserved":false,"is_disabled":false,"rental_uris":{"android":"levelo://app?vid=6b5213dd-3dbc-4ddd-995d-998bf1c25ee9","ios":"levelo://app?vid=6b5213dd-3dbc-4ddd-995d-998bf1c25ee9"},"vehicle_type_id":"4","last_reported":1761174541,"current_range_meters":16800,"station_id":"ce4bhnp2rcd13ifvqh0g","pricing_plan_id":"cebpf4jnsgd1na2vs0mg"},{"bike_id":"2a22829e-2bd6-41ec-a3e5-ef826e7425d3","system_id":"levelo_inurba_marseille","lat":43.32132,"lon":5.3679,"is_reserved":false,"is_disabled":false,"rental_uris":{"android":"levelo://app?vid=2a22829e-2bd6-41ec-a3e5-ef826e7425d3","ios":"levelo://app?vid=2a22829e-2bd6-41ec-a3e5-ef826e7425d3"},"vehicle_type_id":"4","last_reported":1761174541,"current_range_meters":16800,"station_id":"ce4bhrh2rcd13ifvqhug","pricing_plan_id":"cebpf4jnsgd1na2vs0mg"},{"bike_id":"f738dad2-aa9f-48e2-b9c7-33d00555522f","system_id":"levelo_inurba_marseille","lat":43.28719,"lon":5.37951,"is_reserved":false,"is_disabled":false,"rental_uris":{"android":"levelo://app?vid=f738dad2-aa9f-48e2-b9c7-33d00555522f","ios":"levelo://app?vid=f738dad2-aa9f-48e2-b9c7-33d00555522f"},"vehicle_type_id":"4","last_reported":1761174541,"current_range_meters":16800,"station_id":"ce4bh9p2rcd13ifvqec0","pricing_plan_id":"cebpf4jnsgd1na2vs0mg"},{"bike_id":"091bb67f-06fd-4814-930e-4f4c12d7814f","system_id":"levelo_inurba_marseille","lat":43.30144,"lon":5.38064,"is_reserved":false,"is_disabled":false,"rental_uris":{"android":"levelo://app?vid=091bb67f-06fd-4814-930e-4f4c12d7814f","ios":"levelo://app?vid=091bb67f-06fd-4814-930e-4f4c12d7814f"},"vehicle_type_id":"4","last_reported":1761174541,"current_range_meters":16800,"station_id":"ce4bgjp2rcd13ifvqbh0","pricing_plan_id":"cebpf4jnsgd1na2vs0mg"},{"bike_id":"ad4434c9-a63f-4918-bbf1-9890acd597bb","system_id":"levelo_inurba_marseille","lat":43.28155,"lon":5.42645,"is_reserved":false,"is_disabled":false,"rental_uris":{"android":"levelo://app?vid=ad4434c9-a63f-4918-bbf1-9890acd597bb","ios":"levelo://app?vid=ad4434c9-a63f-4918-bbf1-9890acd597bb"},"vehicle_type_id":"4","last_reported":1761174541,"current_range_meters":16800,"station_id":"ce4bhnh2rcd13ifvqgug","pricing_plan_id":"cebpf4jnsgd1na2vs0mg"},{"bike_id":"f30d474c-592d-470d-816b-bf7526dcf767","system_id":"levelo_inurba_marseille","lat":43.30798,"lon":5.38151,"is_reserved":false,"is_disabled":false,"rental_uris":{"android":"levelo://app?vid=f30d474c-592d-470d-816b-bf7526dcf767","ios":"levelo://app?vid=f30d474c-592d-470d-816b-bf7526dcf767"},"vehicle_type_id":"4","last_reported":1761174541,"current_range_meters":17200,"station_id":"ce4bgt12rcd13ifvqce0","pricing_plan_id":"cebpf4jnsgd1na2vs0mg"},{"bike_id":"6d3b8921-c6fa-4ed9-8ab6-03cc87ad2c24","system_id":"levelo_inurba_marseille","lat":43.294469,"lon":5.39789,"is_reserved":false,"is_disabled":false,"rental_uris":{"android":"levelo://app?vid=6d3b8921-c6fa-4ed9-8ab6-03cc87ad2c24","ios":"levelo://app?vid=6d3b8921-c6fa-4ed9-8ab6-03cc87ad2c24"},"vehicle_type_id":"4","last_reported":1761174541,"current_range_meters":17200,"station_id":"ce4bh3h2rcd13ifvqdo0","pricing_plan_id":"cebpf4jnsgd1na2vs0mg"},{"bike_id":"13ffca06-ecc4-46ee-aa82-6818647126c8","system_id":"levelo_inurba_marseille","lat":43.29907,"lon":5.43672,"is_reserved":false,"is_disabled":false,"rental_uris":{"android":"levelo://app?vid=13ffca06-ecc4-46ee-aa82-6818647126c8","ios":"levelo://app?vid=13ffca06-ecc4-46ee-aa82-6818647126c8"},"vehicle_type_id":"4","last_reported":1761174541,"current_range_meters":17200,"station_id":"ce4bhpp2rcd13ifvqhfg","pricing_plan_id":"cebpf4jnsgd1na2vs0mg"},{"bike_id":"7a5af68a-59cb-461b-b7ea-e73b980858f9","system_id":"levelo_inurba_marseille","lat":43.28572,"lon":5.39481,"is_reserved":false,"is_disabled":true,"rental_uris":{"android":"levelo://app?vid=7a5af68a-59cb-461b-b7ea-e73b980858f9","ios":"levelo://app?vid=7a5af68a-59cb-461b-b7ea-e73b980858f9"},"vehicle_type_id":"4","last_reported":1761174541,"current_range_meters":17200,"station_id":"ce4bh292rcd13ifvqdg0","pricing_plan_id":"cebpf4jnsgd1na2vs0mg"},{"bike_id":"fe30cecb-f264-4fe0-b4a7-fca9a34f6ed4","system_id":"levelo_inurba_marseille","lat":43.290305,"lon":5.372418,"is_reserved":false,"is_disabled":false,"rental_uris":{"android":"levelo://app?vid=fe30cecb-f264-4fe0-b4a7-fca9a34f6ed4","ios":"levelo://app?vid=fe30cecb-f264-4fe0-b4a7-fca9a34f6ed4"},"vehicle_type_id":"4","last_reported":1761174541,"current_range_meters":17200,"station_id":"","pricing_plan_id":"cebpf4jnsgd1na2vs0mg"},{"bike_id":"0afa2c00-1677-4518-b3aa-69d766698fd1","system_id":"levelo_inurba_marseille","lat":43.26793,"lon":5.39413,"is_reserved":false,"is_disabled":false,"rental_uris":{"android":"levelo://app?vid=0afa2c00-1677-4518-b3aa-69d766698fd1","ios":"levelo://app?vid=0afa2c00-1677-4518-b3aa-69d766698fd1"},"vehicle_type_id":"4","last_reported":1761174541,"current_range_meters":17200,"station_id":"ce4bhh12rcd13ifvqfg0","pricing_plan_id":"cebpf4jnsgd1na2vs0mg"},{"bike_id":"10609d54-fa50-4660-a63b-2fa8b465fd96","system_id":"levelo_inurba_marseille","lat":43.31074,"lon":5.38359,"is_reserved":false,"is_disabled":false,"rental_uris":{"android":"levelo://app?vid=10609d54-fa50-4660-a63b-2fa8b465fd96","ios":"levelo://app?vid=10609d54-fa50-4660-a63b-2fa8b465fd96"},"vehicle_type_id":"4","last_reported":1761174541,"current_range_meters":17600,"station_id":"ce4bgv92rcd13ifvqcr0","pricing_plan_id":"cebpf4jnsgd1na2vs0mg"},{"bike_id":"a1f7d5b0-2e77-4333-81b4-1529fcc43d84","system_id":"levelo_inurba_marseille","lat":43.29037,"lon":5.3997,"is_reserved":false,"is_disabled":false,"rental_uris":{"android":"levelo://app?vid=a1f7d5b0-2e77-4333-81b4-1529fcc43d84","ios":"levelo://app?vid=a1f7d5b0-2e77-4333-81b4-1529fcc43d84"},"vehicle_type_id":"4","last_reported":1761174541,"current_range_meters":17600,"station_id":"ce4bh392rcd13ifvqdm0","pricing_plan_id":"cebpf4jnsgd1na2vs0mg"},{"bike_id":"b87fc3a5-bdf6-4164-96ab-cf07ec751d26","system_id":"levelo_inurba_marseille","lat":43.27323,"lon":5.39075,"is_reserved":false,"is_disabled":false,"rental_uris":{"android":"levelo://app?vid=b87fc3a5-bdf6-4164-96ab-cf07ec751d26","ios":"levelo://app?vid=b87fc3a5-bdf6-4164-96ab-cf07ec751d26"},"vehicle_type_id":"4","last_reported":1761174541,"current_range_meters":17600,"station_id":"ce4bhgp2rcd13ifvqfe0","pricing_plan_id":"cebpf4jnsgd1na2vs0mg"},{"bike_id":"4ef0489f-e7b2-4aa8-950b-34bfa22a7c0e","system_id":"levelo_inurba_marseille","lat":43.2885,"lon":5.35838,"is_reserved":false,"is_disabled":false,"rental_uris":{"android":"levelo://app?vid=4ef0489f-e7b2-4aa8-950b-34bfa22a7c0e","ios":"levelo://app?vid=4ef0489f-e7b2-4aa8-950b-34bfa22a7c0e"},"vehicle_type_id":"4","last_reported":1761174541,"current_range_meters":17600,"station_id":"ce4bhb12rcd13ifvqem0","pricing_plan_id":"cebpf4jnsgd1na2vs0mg"},{"bike_id":"9c023054-f387-47db-bf1d-2774b5d6d642","system_id":"levelo_inurba_marseille","lat":43.31709,"lon":5.38189,"is_reserved":false,"is_disabled":false,"rental_uris":{"android":"levelo://app?vid=9c023054-f387-47db-bf1d-2774b5d6d642","ios":"levelo://app?vid=9c023054-f387-47db-bf1d-2774b5d6d642"},"vehicle_type_id":"4","last_reported":1761174541,"current_range_meters":17600,"station_id":"","pricing_plan_id":"cebpf4jnsgd1na2vs0mg"},{"bike_id":"26ecfd90-2879-4ffd-b3cb-633752b421a5","system_id":"levelo_inurba_marseille","lat":43.26558,"lon":5.37259,"is_reserved":false,"is_disabled":false,"rental_uris":{"android":"levelo://app?vid=26ecfd90-2879-4ffd-b3cb-633752b421a5","ios":"levelo://app?vid=26ecfd90-2879-4ffd-b3cb-633752b421a5"},"vehicle_type_id":"4","last_reported":1761174541,"current_range_meters":18000,"station_id":"ce4bhg12rcd13ifvqf70","pricing_plan_id":"cebpf4jnsgd1na2vs0mg"},{"bike_id":"035ca1d7-233f-4f69-9569-4f3393764361","system_id":"levelo_inurba_marseille","lat":43.30888,"lon":5.3732,"is_reserved":false,"is_disabled":false,"rental_uris":{"android":"levelo://app?vid=035ca1d7-233f-4f69-9569-4f3393764361","ios":"levelo://app?vid=035ca1d7-233f-4f69-9569-4f3393764361"},"vehicle_type_id":"4","last_reported":1761174541,"current_range_meters":18000,"station_id":"","pricing_plan_id":"cebpf4jnsgd1na2vs0mg"},{"bike_id":"8bcacd78-80de-4026-af75-b37ebe3030fe","system_id":"levelo_inurba_marseille","lat":43.334756,"lon":5.404255,"is_reserved":false,"is_disabled":false,"rental_uris":{"android":"levelo://app?vid=8bcacd78-80de-4026-af75-b37ebe3030fe","ios":"levelo://app?vid=8bcacd78-80de-4026-af75-b37ebe3030fe"},"vehicle_type_id":"4","last_reported":1761174541,"current_range_meters":18000,"station_id":"","pricing_plan_id":"cebpf4jnsgd1na2vs0mg"},{"bike_id":"b284a5b8-145b-4b18-970a-f541b5c0ebef","system_id":"levelo_inurba_marseille","lat":43.28551,"lon":5.39426,"is_reserved":false,"is_disabled":false,"rental_uris":{"android":"levelo://app?vid=b284a5b8-145b-4b18-970a-f541b5c0ebef","ios":"levelo://app?vid=b284a5b8-145b-4b18-970a-f541b5c0ebef"},"vehicle_type_id":"4","last_reported":1761174541,"current_range_meters":18000,"station_id":"","pricing_plan_id":"cebpf4jnsgd1na2vs0mg"},{"bike_id":"749eacd6-346c-4dec-8797-07d92fbf774a","system_id":"levelo_inurba_marseille","lat":43.25399,"lon":5.41897,"is_reserved":false,"is_disabled":false,"rental_uris":{"android":"levelo://app?vid=749eacd6-346c-4dec-8797-07d92fbf774a","ios":"levelo://app?vid=749eacd6-346c-4dec-8797-07d92fbf774a"},"vehicle_type_id":"4","last_reported":1761174541,"current_range_meters":18000,"station_id":"","pricing_plan_id":"cebpf4jnsgd1na2vs0mg"},{"bike_id":"e769906a-6115-425c-84a0-aab1fda48d3f","system_id":"levelo_inurba_marseille","lat":43.29672,"lon":5.375662,"is_reserved":false,"is_disabled":false,"rental_uris":{"android":"levelo://app?vid=e769906a-6115-425c-84a0-aab1fda48d3f","ios":"levelo://app?vid=e769906a-6115-425c-84a0-aab1fda48d3f"},"vehicle_type_id":"4","last_reported":1761174541,"current_range_meters":18800,"station_id":"","pricing_plan_id":"cebpf4jnsgd1na2vs0mg"},{"bike_id":"6a9a788f-a6ec-4256-a75f-9f62b85ffbe8","system_id":"levelo_inurba_marseille","lat":43.30954,"lon":5.39052,"is_reserved":false,"is_disabled":false,"rental_uris":{"android":"levelo://app?vid=6a9a788f-a6ec-4256-a75f-9f62b85ffbe8","ios":"levelo://app?vid=6a9a788f-a6ec-4256-a75f-9f62b85ffbe8"},"vehicle_type_id":"4","last_reported":1761174541,"current_range_meters":18800,"station_id":"ce4bgup2rcd13ifvqco0","pricing_plan_id":"cebpf4jnsgd1na2vs0mg"},{"bike_id":"d0cfa56f-3af1-43db-898a-65d7ae6ed4a7","system_id":"levelo_inurba_marseille","lat":43.309402,"lon":5.401401,"is_reserved":false,"is_disabled":false,"rental_uris":{"android":"levelo://app?vid=d0cfa56f-3af1-43db-898a-65d7ae6ed4a7","ios":"levelo://app?vid=d0cfa56f-3af1-43db-898a-65d7ae6ed4a7"},"vehicle_type_id":"4","last_reported":1761174541,"current_range_meters":18800,"station_id":"ce4bgvp2rcd13ifvqct0","pricing_plan_id":"cebpf4jnsgd1na2vs0mg"},{"bike_id":"03946b55-ed1f-44cd-85ca-fa5b74d76c1f","system_id":"levelo_inurba_marseille","lat":43.2945,"lon":5.39736,"is_reserved":false,"is_disabled":false,"rental_uris":{"android":"levelo://app?vid=03946b55-ed1f-44cd-85ca-fa5b74d76c1f","ios":"levelo://app?vid=03946b55-ed1f-44cd-85ca-fa5b74d76c1f"},"vehicle_type_id":"4","last_reported":1761174541,"current_range_meters":18800,"station_id":"ce4bh3h2rcd13ifvqdo0","pricing_plan_id":"cebpf4jnsgd1na2vs0mg"},{"bike_id":"1996ea89-9471-4d12-8066-1a9d0b7c69da","system_id":"levelo_inurba_marseille","lat":43.24421,"lon":5.37075,"is_reserved":false,"is_disabled":false,"rental_uris":{"android":"levelo://app?vid=1996ea89-9471-4d12-8066-1a9d0b7c69da","ios":"levelo://app?vid=1996ea89-9471-4d12-8066-1a9d0b7c69da"},"vehicle_type_id":"4","last_reported":1761174541,"current_range_meters":18800,"station_id":"ce4bhhh2rcd13ifvqfk0","pricing_plan_id":"cebpf4jnsgd1na2vs0mg"},{"bike_id":"692a999f-f646-43fe-b949-d58fd32447f4","system_id":"levelo_inurba_marseille","lat":43.32244,"lon":5.39424,"is_reserved":false,"is_disabled":false,"rental_uris":{"android":"levelo://app?vid=692a999f-f646-43fe-b949-d58fd32447f4","ios":"levelo://app?vid=692a999f-f646-43fe-b949-d58fd32447f4"},"vehicle_type_id":"4","last_reported":1761174541,"current_range_meters":18800,"station_id":"","pricing_plan_id":"cebpf4jnsgd1na2vs0mg"},{"bike_id":"23eef07a-fdc9-4985-900c-8ba5658eaf97","system_id":"levelo_inurba_marseille","lat":43.25397,"lon":5.41884,"is_reserved":false,"is_disabled":false,"rental_uris":{"android":"levelo://app?vid=23eef07a-fdc9-4985-900c-8ba5658eaf97","ios":"levelo://app?vid=23eef07a-fdc9-4985-900c-8ba5658eaf97"},"vehicle_type_id":"4","last_reported":1761174541,"current_range_meters":18800,"station_id":"","pricing_plan_id":"cebpf4jnsgd1na2vs0mg"},{"bike_id":"48562a0e-d0e5-4cb2-86a4-5c961e6cb6e1","system_id":"levelo_inurba_marseille","lat":43.30546,"lon":5.38437,"is_reserved":false,"is_disabled":false,"rental_uris":{"android":"levelo://app?vid=48562a0e-d0e5-4cb2-86a4-5c961e6cb6e1","ios":"levelo://app?vid=48562a0e-d0e5-4cb2-86a4-5c961e6cb6e1"},"vehicle_type_id":"4","last_reported":1761174541,"current_range_meters":18800,"station_id":"ce4bgg92rcd13ifvqb30","pricing_plan_id":"cebpf4jnsgd1na2vs0mg"},{"bike_id":"6fdf1595-0579-49a4-987f-35f0abdeef02","system_id":"levelo_inurba_marseille","lat":43.28002,"lon":5.41672,"is_reserved":false,"is_disabled":false,"rental_uris":{"android":"levelo://app?vid=6fdf1595-0579-49a4-987f-35f0abdeef02","ios":"levelo://app?vid=6fdf1595-0579-49a4-987f-35f0abdeef02"},"vehicle_type_id":"4","last_reported":1761174541,"current_range_meters":19200,"station_id":"ce4bho12rcd13ifvqh1g","pricing_plan_id":"cebpf4jnsgd1na2vs0mg"},{"bike_id":"96939117-35ce-41f0-9af0-fcff4726b36a","system_id":"levelo_inurba_marseille","lat":43.30373,"lon":5.4248,"is_reserved":false,"is_disabled":false,"rental_uris":{"android":"levelo://app?vid=96939117-35ce-41f0-9af0-fcff4726b36a","ios":"levelo://app?vid=96939117-35ce-41f0-9af0-fcff4726b36a"},"vehicle_type_id":"4","last_reported":1761174541,"current_range_meters":19200,"station_id":"ce4bhoh2rcd13ifvqh6g","pricing_plan_id":"cebpf4jnsgd1na2vs0mg"},{"bike_id":"ac1e97c4-1a0f-4420-ace3-a5edbbc94490","system_id":"levelo_inurba_marseille","lat":43.24666,"lon":5.38164,"is_reserved":false,"is_disabled":false,"rental_uris":{"android":"levelo://app?vid=ac1e97c4-1a0f-4420-ace3-a5edbbc94490","ios":"levelo://app?vid=ac1e97c4-1a0f-4420-ace3-a5edbbc94490"},"vehicle_type_id":"4","last_reported":1761174541,"current_range_meters":19200,"station_id":"ce4bhih2rcd13ifvqfr0","pricing_plan_id":"cebpf4jnsgd1na2vs0mg"},{"bike_id":"e986eb56-ca00-4dbf-ada0-578bc3d8f529","system_id":"levelo_inurba_marseille","lat":43.27323,"lon":5.41422,"is_reserved":false,"is_disabled":false,"rental_uris":{"android":"levelo://app?vid=e986eb56-ca00-4dbf-ada0-578bc3d8f529","ios":"levelo://app?vid=e986eb56-ca00-4dbf-ada0-578bc3d8f529"},"vehicle_type_id":"4","last_reported":1761174541,"current_range_meters":19200,"station_id":"","pricing_plan_id":"cebpf4jnsgd1na2vs0mg"},{"bike_id":"4b57f639-91e4-4b76-b70a-71ec481a791c","system_id":"levelo_inurba_marseille","lat":43.25122,"lon":5.40343,"is_reserved":false,"is_disabled":false,"rental_uris":{"android":"levelo://app?vid=4b57f639-91e4-4b76-b70a-71ec481a791c","ios":"levelo://app?vid=4b57f639-91e4-4b76-b70a-71ec481a791c"},"vehicle_type_id":"4","last_reported":1761174541,"current_range_meters":19200,"station_id":"ce4bhlh2rcd13ifvqgig","pricing_plan_id":"cebpf4jnsgd1na2vs0mg"},{"bike_id":"a64f1eab-29ca-4ba7-8b03-6c3c12ada45c","system_id":"levelo_inurba_marseille","lat":43.24396,"lon":5.37059,"is_reserved":false,"is_disabled":false,"rental_uris":{"android":"levelo://app?vid=a64f1eab-29ca-4ba7-8b03-6c3c12ada45c","ios":"levelo://app?vid=a64f1eab-29ca-4ba7-8b03-6c3c12ada45c"},"vehicle_type_id":"4","last_reported":1761174541,"current_range_meters":19200,"station_id":"ce4bhhh2rcd13ifvqfk0","pricing_plan_id":"cebpf4jnsgd1na2vs0mg"},{"bike_id":"078081c6-88c0-4f2d-a619-261bfa8b66b2","system_id":"levelo_inurba_marseille","lat":43.29807,"lon":5.43918,"is_reserved":false,"is_disabled":false,"rental_uris":{"android":"levelo://app?vid=078081c6-88c0-4f2d-a619-261bfa8b66b2","ios":"levelo://app?vid=078081c6-88c0-4f2d-a619-261bfa8b66b2"},"vehicle_type_id":"4","last_reported":1761174541,"current_range_meters":19200,"station_id":"","pricing_plan_id":"cebpf4jnsgd1na2vs0mg"},{"bike_id":"525b721a-f9b4-4b0f-8ecc-92b3eb62e176","system_id":"levelo_inurba_marseille","lat":43.29259,"lon":5.40908,"is_reserved":false,"is_disabled":false,"rental_uris":{"android":"levelo://app?vid=525b721a-f9b4-4b0f-8ecc-92b3eb62e176","ios":"levelo://app?vid=525b721a-f9b4-4b0f-8ecc-92b3eb62e176"},"vehicle_type_id":"4","last_reported":1761174541,"current_range_meters":19200,"station_id":"ce4bh192rcd13ifvqdc0","pricing_plan_id":"cebpf4jnsgd1na2vs0mg"},{"bike_id":"08f56b83-c155-4673-8754-24a82492b8d8","system_id":"levelo_inurba_marseille","lat":43.28462,"lon":5.35893,"is_reserved":false,"is_disabled":false,"rental_uris":{"android":"levelo://app?vid=08f56b83-c155-4673-8754-24a82492b8d8","ios":"levelo://app?vid=08f56b83-c155-4673-8754-24a82492b8d8"},"vehicle_type_id":"4","last_reported":1761174541,"current_range_meters":19200,"station_id":"ce4bhah2rcd13ifvqei0","pricing_plan_id":"cebpf4jnsgd1na2vs0mg"},{"bike_id":"0e693f24-b475-4e05-8789-fe144bc148e8","system_id":"levelo_inurba_marseille","lat":43.288428,"lon":5.425238,"is_reserved":false,"is_disabled":false,"rental_uris":{"android":"levelo://app?vid=0e693f24-b475-4e05-8789-fe144bc148e8","ios":"levelo://app?vid=0e693f24-b475-4e05-8789-fe144bc148e8"},"vehicle_type_id":"4","last_reported":1761174541,"current_range_meters":19200,"station_id":"st_d3b462108ojc7389ooeg","pricing_plan_id":"cebpf4jnsgd1na2vs0mg"},{"bike_id":"7b113150-9a3e-408d-be60-f73dcbe6efbf","system_id":"levelo_inurba_marseille","lat":43.24808,"lon":5.37465,"is_reserved":false,"is_disabled":false,"rental_uris":{"android":"levelo://app?vid=7b113150-9a3e-408d-be60-f73dcbe6efbf","ios":"levelo://app?vid=7b113150-9a3e-408d-be60-f73dcbe6efbf"},"vehicle_type_id":"4","last_reported":1761174541,"current_range_meters":19200,"station_id":"ce4bhgh2rcd13ifvqfb0","pricing_plan_id":"cebpf4jnsgd1na2vs0mg"},{"bike_id":"bd6dc95a-a163-4881-9acc-941af1bf377a","system_id":"levelo_inurba_marseille","lat":43.30927,"lon":5.40156,"is_reserved":false,"is_disabled":false,"rental_uris":{"android":"levelo://app?vid=bd6dc95a-a163-4881-9acc-941af1bf377a","ios":"levelo://app?vid=bd6dc95a-a163-4881-9acc-941af1bf377a"},"vehicle_type_id":"4","last_reported":1761174541,"current_range_meters":19200,"station_id":"ce4bgvp2rcd13ifvqct0","pricing_plan_id":"cebpf4jnsgd1na2vs0mg"},{"bike_id":"05fe6669-308a-4fe7-b1fc-601cee92a2d3","system_id":"levelo_inurba_marseille","lat":43.28943,"lon":5.36397,"is_reserved":false,"is_disabled":false,"rental_uris":{"android":"levelo://app?vid=05fe6669-308a-4fe7-b1fc-601cee92a2d3","ios":"levelo://app?vid=05fe6669-308a-4fe7-b1fc-601cee92a2d3"},"vehicle_type_id":"4","last_reported":1761174541,"current_range_meters":19600,"station_id":"ce4bhc92rcd13ifvqetg","pricing_plan_id":"cebpf4jnsgd1na2vs0mg"},{"bike_id":"2172ef7f-240b-4c72-bf8d-26c79cc1f73d","system_id":"levelo_inurba_marseille","lat":43.29914,"lon":5.4367,"is_reserved":false,"is_disabled":false,"rental_uris":{"android":"levelo://app?vid=2172ef7f-240b-4c72-bf8d-26c79cc1f73d","ios":"levelo://app?vid=2172ef7f-240b-4c72-bf8d-26c79cc1f73d"},"vehicle_type_id":"4","last_reported":1761174541,"current_range_meters":19600,"station_id":"ce4bhpp2rcd13ifvqhfg","pricing_plan_id":"cebpf4jnsgd1na2vs0mg"},{"bike_id":"a9a61b44-666b-4993-9682-a45f642cd881","system_id":"levelo_inurba_marseille","lat":43.30534,"lon":5.36701,"is_reserved":false,"is_disabled":false,"rental_uris":{"android":"levelo://app?vid=a9a61b44-666b-4993-9682-a45f642cd881","ios":"levelo://app?vid=a9a61b44-666b-4993-9682-a45f642cd881"},"vehicle_type_id":"4","last_reported":1761174541,"current_range_meters":19600,"station_id":"ce4bgrp2rcd13ifvqc9g","pricing_plan_id":"cebpf4jnsgd1na2vs0mg"},{"bike_id":"2b7bd532-1ae3-4d40-83fc-9389b1e0a3b2","system_id":"levelo_inurba_marseille","lat":43.30447,"lon":5.38884,"is_reserved":false,"is_disabled":false,"rental_uris":{"android":"levelo://app?vid=2b7bd532-1ae3-4d40-83fc-9389b1e0a3b2","ios":"levelo://app?vid=2b7bd532-1ae3-4d40-83fc-9389b1e0a3b2"},"vehicle_type_id":"4","last_reported":1761174541,"current_range_meters":19600,"station_id":"ce4bgk12rcd13ifvqbi0","pricing_plan_id":"cebpf4jnsgd1na2vs0mg"},{"bike_id":"6b37a1b8-5eb3-475e-b683-fd0eb1dbf02a","system_id":"levelo_inurba_marseille","lat":43.248044,"lon":5.374465,"is_reserved":false,"is_disabled":true,"rental_uris":{"android":"levelo://app?vid=6b37a1b8-5eb3-475e-b683-fd0eb1dbf02a","ios":"levelo://app?vid=6b37a1b8-5eb3-475e-b683-fd0eb1dbf02a"},"vehicle_type_id":"4","last_reported":1761174541,"current_range_meters":19600,"station_id":"ce4bhgh2rcd13ifvqfb0","pricing_plan_id":"cebpf4jnsgd1na2vs0mg"},{"bike_id":"75eebb0f-2447-4bf8-b846-45b5b359059b","system_id":"levelo_inurba_marseille","lat":43.33762,"lon":5.37487,"is_reserved":false,"is_disabled":false,"rental_uris":{"android":"levelo://app?vid=75eebb0f-2447-4bf8-b846-45b5b359059b","ios":"levelo://app?vid=75eebb0f-2447-4bf8-b846-45b5b359059b"},"vehicle_type_id":"4","last_reported":1761174541,"current_range_meters":19600,"station_id":"","pricing_plan_id":"cebpf4jnsgd1na2vs0mg"},{"bike_id":"ff3fcf70-c183-4046-b310-5c316a40bd51","system_id":"levelo_inurba_marseille","lat":43.30737,"lon":5.4244,"is_reserved":false,"is_disabled":false,"rental_uris":{"android":"levelo://app?vid=ff3fcf70-c183-4046-b310-5c316a40bd51","ios":"levelo://app?vid=ff3fcf70-c183-4046-b310-5c316a40bd51"},"vehicle_type_id":"4","last_reported":1761174541,"current_range_meters":19600,"station_id":"st_cvj6ca6bvosntc0bfgr0","pricing_plan_id":"cebpf4jnsgd1na2vs0mg"},{"bike_id":"de6614d3-f5d0-4631-a6ac-aad439cfe511","system_id":"levelo_inurba_marseille","lat":43.2455,"lon":5.39523,"is_reserved":false,"is_disabled":true,"rental_uris":{"android":"levelo://app?vid=de6614d3-f5d0-4631-a6ac-aad439cfe511","ios":"levelo://app?vid=de6614d3-f5d0-4631-a6ac-aad439cfe511"},"vehicle_type_id":"4","last_reported":1761174541,"current_range_meters":19600,"station_id":"ce4bhlp2rcd13ifvqgjg","pricing_plan_id":"cebpf4jnsgd1na2vs0mg"},{"bike_id":"acc8e669-59fd-41b5-a62c-75f02877880c","system_id":"levelo_inurba_marseille","lat":43.261953,"lon":5.379165,"is_reserved":false,"is_disabled":false,"rental_uris":{"android":"levelo://app?vid=acc8e669-59fd-41b5-a62c-75f02877880c","ios":"levelo://app?vid=acc8e669-59fd-41b5-a62c-75f02877880c"},"vehicle_type_id":"4","last_reported":1761174541,"current_range_meters":19600,"station_id":"ce4bhjp2rcd13ifvqg90","pricing_plan_id":"cebpf4jnsgd1na2vs0mg"},{"bike_id":"30e607b6-a141-496c-8d0f-6ef5bfa3d192","system_id":"levelo_inurba_marseille","lat":43.27995,"lon":5.41658,"is_reserved":false,"is_disabled":false,"rental_uris":{"android":"levelo://app?vid=30e607b6-a141-496c-8d0f-6ef5bfa3d192","ios":"levelo://app?vid=30e607b6-a141-496c-8d0f-6ef5bfa3d192"},"vehicle_type_id":"4","last_reported":1761174541,"current_range_meters":19600,"station_id":"ce4bho12rcd13ifvqh1g","pricing_plan_id":"cebpf4jnsgd1na2vs0mg"},{"bike_id":"206ce9bb-93f8-4a08-b561-f32d594a1852","system_id":"levelo_inurba_marseille","lat":43.298237,"lon":5.440651,"is_reserved":false,"is_disabled":false,"rental_uris":{"android":"levelo://app?vid=206ce9bb-93f8-4a08-b561-f32d594a1852","ios":"levelo://app?vid=206ce9bb-93f8-4a08-b561-f32d594a1852"},"vehicle_type_id":"4","last_reported":1761174541,"current_range_meters":20000,"station_id":"st_d3jp68qikq2c7381ktn0","pricing_plan_id":"cebpf4jnsgd1na2vs0mg"},{"bike_id":"c446ae36-ccac-459c-9cf5-91b99d58f28d","system_id":"levelo_inurba_marseille","lat":43.308047,"lon":5.38144,"is_reserved":false,"is_disabled":false,"rental_uris":{"android":"levelo://app?vid=c446ae36-ccac-459c-9cf5-91b99d58f28d","ios":"levelo://app?vid=c446ae36-ccac-459c-9cf5-91b99d58f28d"},"vehicle_type_id":"4","last_reported":1761174541,"current_range_meters":20000,"station_id":"ce4bgt12rcd13ifvqce0","pricing_plan_id":"cebpf4jnsgd1na2vs0mg"},{"bike_id":"25510b45-08cd-431b-9096-a61c2284a027","system_id":"levelo_inurba_marseille","lat":43.31686,"lon":5.38207,"is_reserved":false,"is_disabled":false,"rental_uris":{"android":"levelo://app?vid=25510b45-08cd-431b-9096-a61c2284a027","ios":"levelo://app?vid=25510b45-08cd-431b-9096-a61c2284a027"},"vehicle_type_id":"4","last_reported":1761174541,"current_range_meters":20000,"station_id":"","pricing_plan_id":"cebpf4jnsgd1na2vs0mg"},{"bike_id":"5c57c97f-5b4e-4169-89b1-842474be16a9","system_id":"levelo_inurba_marseille","lat":43.27919,"lon":5.39578,"is_reserved":false,"is_disabled":false,"rental_uris":{"android":"levelo://app?vid=5c57c97f-5b4e-4169-89b1-842474be16a9","ios":"levelo://app?vid=5c57c97f-5b4e-4169-89b1-842474be16a9"},"vehicle_type_id":"4","last_reported":1761174541,"current_range_meters":20000,"station_id":"ce4bhf92rcd13ifvqf40","pricing_plan_id":"cebpf4jnsgd1na2vs0mg"},{"bike_id":"d9ecb998-ceaa-4a39-8aba-9f0e44069447","system_id":"levelo_inurba_marseille","lat":43.32147,"lon":5.38731,"is_reserved":false,"is_disabled":false,"rental_uris":{"android":"levelo://app?vid=d9ecb998-ceaa-4a39-8aba-9f0e44069447","ios":"levelo://app?vid=d9ecb998-ceaa-4a39-8aba-9f0e44069447"},"vehicle_type_id":"4","last_reported":1761174541,"current_range_meters":20000,"station_id":"","pricing_plan_id":"cebpf4jnsgd1na2vs0mg"},{"bike_id":"33041920-f691-4885-a5ca-db3ff3ddcbe6","system_id":"levelo_inurba_marseille","lat":43.28699,"lon":5.39982,"is_reserved":false,"is_disabled":false,"rental_uris":{"android":"levelo://app?vid=33041920-f691-4885-a5ca-db3ff3ddcbe6","ios":"levelo://app?vid=33041920-f691-4885-a5ca-db3ff3ddcbe6"},"vehicle_type_id":"4","last_reported":1761174541,"current_range_meters":20400,"station_id":"ce4bho92rcd13ifvqh3g","pricing_plan_id":"cebpf4jnsgd1na2vs0mg"},{"bike_id":"43cd42b2-26f4-4feb-b82d-fb6695a07276","system_id":"levelo_inurba_marseille","lat":43.29808,"lon":5.40392,"is_reserved":false,"is_disabled":false,"rental_uris":{"android":"levelo://app?vid=43cd42b2-26f4-4feb-b82d-fb6695a07276","ios":"levelo://app?vid=43cd42b2-26f4-4feb-b82d-fb6695a07276"},"vehicle_type_id":"4","last_reported":1761174541,"current_range_meters":20400,"station_id":"ce4bh112rcd13ifvqd90","pricing_plan_id":"cebpf4jnsgd1na2vs0mg"},{"bike_id":"0a4d81c6-2647-4e67-bde2-b7adbc7ef2ba","system_id":"levelo_inurba_marseille","lat":43.28546,"lon":5.44096,"is_reserved":false,"is_disabled":false,"rental_uris":{"android":"levelo://app?vid=0a4d81c6-2647-4e67-bde2-b7adbc7ef2ba","ios":"levelo://app?vid=0a4d81c6-2647-4e67-bde2-b7adbc7ef2ba"},"vehicle_type_id":"4","last_reported":1761174541,"current_range_meters":20400,"station_id":"st_d3j3df2ikq2c7380ej80","pricing_plan_id":"cebpf4jnsgd1na2vs0mg"},{"bike_id":"3e4783b6-28d8-4737-a4ef-6a1b0da02476","system_id":"levelo_inurba_marseille","lat":43.29447,"lon":5.40714,"is_reserved":false,"is_disabled":false,"rental_uris":{"android":"levelo://app?vid=3e4783b6-28d8-4737-a4ef-6a1b0da02476","ios":"levelo://app?vid=3e4783b6-28d8-4737-a4ef-6a1b0da02476"},"vehicle_type_id":"4","last_reported":1761174541,"current_range_meters":20400,"station_id":"","pricing_plan_id":"cebpf4jnsgd1na2vs0mg"},{"bike_id":"db62d190-c22a-4925-ba39-cc016d40373f","system_id":"levelo_inurba_marseille","lat":43.28937,"lon":5.36641,"is_reserved":false,"is_disabled":false,"rental_uris":{"android":"levelo://app?vid=db62d190-c22a-4925-ba39-cc016d40373f","ios":"levelo://app?vid=db62d190-c22a-4925-ba39-cc016d40373f"},"vehicle_type_id":"4","last_reported":1761174541,"current_range_meters":20400,"station_id":"ce4bhap2rcd13ifvqek0","pricing_plan_id":"cebpf4jnsgd1na2vs0mg"},{"bike_id":"6552118e-9997-496d-8ae3-3aae82824535","system_id":"levelo_inurba_marseille","lat":43.32246,"lon":5.38357,"is_reserved":false,"is_disabled":false,"rental_uris":{"android":"levelo://app?vid=6552118e-9997-496d-8ae3-3aae82824535","ios":"levelo://app?vid=6552118e-9997-496d-8ae3-3aae82824535"},"vehicle_type_id":"4","last_reported":1761174541,"current_range_meters":20400,"station_id":"","pricing_plan_id":"cebpf4jnsgd1na2vs0mg"},{"bike_id":"e437460d-805d-4c07-9b55-237013e207ed","system_id":"levelo_inurba_marseille","lat":43.30838,"lon":5.38129,"is_reserved":false,"is_disabled":false,"rental_uris":{"android":"levelo://app?vid=e437460d-805d-4c07-9b55-237013e207ed","ios":"levelo://app?vid=e437460d-805d-4c07-9b55-237013e207ed"},"vehicle_type_id":"4","last_reported":1761174541,"current_range_meters":20400,"station_id":"ce4bgt12rcd13ifvqce0","pricing_plan_id":"cebpf4jnsgd1na2vs0mg"},{"bike_id":"fe0fa878-05b2-4088-8530-cf27cc53196f","system_id":"levelo_inurba_marseille","lat":43.28118,"lon":5.3974,"is_reserved":false,"is_disabled":false,"rental_uris":{"android":"levelo://app?vid=fe0fa878-05b2-4088-8530-cf27cc53196f","ios":"levelo://app?vid=fe0fa878-05b2-4088-8530-cf27cc53196f"},"vehicle_type_id":"4","last_reported":1761174541,"current_range_meters":20400,"station_id":"ce4bho12rcd13ifvqh2g","pricing_plan_id":"cebpf4jnsgd1na2vs0mg"},{"bike_id":"e161184c-b47c-41c2-9784-a1463e3f31bf","system_id":"levelo_inurba_marseille","lat":43.31543,"lon":5.38032,"is_reserved":false,"is_disabled":false,"rental_uris":{"android":"levelo://app?vid=e161184c-b47c-41c2-9784-a1463e3f31bf","ios":"levelo://app?vid=e161184c-b47c-41c2-9784-a1463e3f31bf"},"vehicle_type_id":"4","last_reported":1761174541,"current_range_meters":20400,"station_id":"ce4bhsp2rcd13ifvqi50","pricing_plan_id":"cebpf4jnsgd1na2vs0mg"},{"bike_id":"a6c158d3-c11f-4b54-ac22-f8128d53e5c6","system_id":"levelo_inurba_marseille","lat":43.27555,"lon":5.38429,"is_reserved":false,"is_disabled":true,"rental_uris":{"android":"levelo://app?vid=a6c158d3-c11f-4b54-ac22-f8128d53e5c6","ios":"levelo://app?vid=a6c158d3-c11f-4b54-ac22-f8128d53e5c6"},"vehicle_type_id":"4","last_reported":1761174541,"current_range_meters":20800,"station_id":"ce4bhh92rcd13ifvqfi0","pricing_plan_id":"cebpf4jnsgd1na2vs0mg"},{"bike_id":"f16108c6-3a83-4773-928d-c6fa826112dd","system_id":"levelo_inurba_marseille","lat":43.30444,"lon":5.38901,"is_reserved":false,"is_disabled":false,"rental_uris":{"android":"levelo://app?vid=f16108c6-3a83-4773-928d-c6fa826112dd","ios":"levelo://app?vid=f16108c6-3a83-4773-928d-c6fa826112dd"},"vehicle_type_id":"4","last_reported":1761174541,"current_range_meters":20800,"station_id":"ce4bgk12rcd13ifvqbi0","pricing_plan_id":"cebpf4jnsgd1na2vs0mg"},{"bike_id":"8088b0f4-1c20-4920-be3a-c236ef3a0c3a","system_id":"levelo_inurba_marseille","lat":43.30552,"lon":5.38404,"is_reserved":false,"is_disabled":false,"rental_uris":{"android":"levelo://app?vid=8088b0f4-1c20-4920-be3a-c236ef3a0c3a","ios":"levelo://app?vid=8088b0f4-1c20-4920-be3a-c236ef3a0c3a"},"vehicle_type_id":"4","last_reported":1761174541,"current_range_meters":20800,"station_id":"ce4bgg92rcd13ifvqb30","pricing_plan_id":"cebpf4jnsgd1na2vs0mg"},{"bike_id":"f8c755d7-1bb8-4fcd-bb3f-74aeb49951cc","system_id":"levelo_inurba_marseille","lat":43.31377,"lon":5.37894,"is_reserved":false,"is_disabled":false,"rental_uris":{"android":"levelo://app?vid=f8c755d7-1bb8-4fcd-bb3f-74aeb49951cc","ios":"levelo://app?vid=f8c755d7-1bb8-4fcd-bb3f-74aeb49951cc"},"vehicle_type_id":"4","last_reported":1761174541,"current_range_meters":20800,"station_id":"","pricing_plan_id":"cebpf4jnsgd1na2vs0mg"},{"bike_id":"a1baab7a-51a3-4c09-a4a0-3d48be18c38b","system_id":"levelo_inurba_marseille","lat":43.2784,"lon":5.39207,"is_reserved":false,"is_disabled":false,"rental_uris":{"android":"levelo://app?vid=a1baab7a-51a3-4c09-a4a0-3d48be18c38b","ios":"levelo://app?vid=a1baab7a-51a3-4c09-a4a0-3d48be18c38b"},"vehicle_type_id":"4","last_reported":1761174541,"current_range_meters":20800,"station_id":"ce4bhjp2rcd13ifvqga0","pricing_plan_id":"cebpf4jnsgd1na2vs0mg"},{"bike_id":"2cd81037-3f76-464f-886c-e8714d61d459","system_id":"levelo_inurba_marseille","lat":43.23192,"lon":5.35542,"is_reserved":false,"is_disabled":false,"rental_uris":{"android":"levelo://app?vid=2cd81037-3f76-464f-886c-e8714d61d459","ios":"levelo://app?vid=2cd81037-3f76-464f-886c-e8714d61d459"},"vehicle_type_id":"4","last_reported":1761174541,"current_range_meters":20800,"station_id":"ce4bhu92rcd13ifvqi70","pricing_plan_id":"cebpf4jnsgd1na2vs0mg"},{"bike_id":"aa12142d-6046-4678-9de0-87739bcdf2f4","system_id":"levelo_inurba_marseille","lat":43.31495,"lon":5.37315,"is_reserved":false,"is_disabled":false,"rental_uris":{"android":"levelo://app?vid=aa12142d-6046-4678-9de0-87739bcdf2f4","ios":"levelo://app?vid=aa12142d-6046-4678-9de0-87739bcdf2f4"},"vehicle_type_id":"4","last_reported":1761174541,"current_range_meters":20800,"station_id":"ce4bgt12rcd13ifvqcd0","pricing_plan_id":"cebpf4jnsgd1na2vs0mg"},{"bike_id":"6250ac27-ee37-41d1-bc0f-a615c7912f4a","system_id":"levelo_inurba_marseille","lat":43.32374,"lon":5.36781,"is_reserved":false,"is_disabled":false,"rental_uris":{"android":"levelo://app?vid=6250ac27-ee37-41d1-bc0f-a615c7912f4a","ios":"levelo://app?vid=6250ac27-ee37-41d1-bc0f-a615c7912f4a"},"vehicle_type_id":"4","last_reported":1761174541,"current_range_meters":21600,"station_id":"ce4bhsh2rcd13ifvqi2g","pricing_plan_id":"cebpf4jnsgd1na2vs0mg"},{"bike_id":"75552eb5-38a2-43ca-9291-cacb859b6f73","system_id":"levelo_inurba_marseille","lat":43.284215,"lon":5.349847,"is_reserved":false,"is_disabled":false,"rental_uris":{"android":"levelo://app?vid=75552eb5-38a2-43ca-9291-cacb859b6f73","ios":"levelo://app?vid=75552eb5-38a2-43ca-9291-cacb859b6f73"},"vehicle_type_id":"4","last_reported":1761174541,"current_range_meters":21600,"station_id":"","pricing_plan_id":"cebpf4jnsgd1na2vs0mg"},{"bike_id":"ba758c6c-e7ec-4971-8d5b-04a556881f85","system_id":"levelo_inurba_marseille","lat":43.2409,"lon":5.37743,"is_reserved":false,"is_disabled":false,"rental_uris":{"android":"levelo://app?vid=ba758c6c-e7ec-4971-8d5b-04a556881f85","ios":"levelo://app?vid=ba758c6c-e7ec-4971-8d5b-04a556881f85"},"vehicle_type_id":"4","last_reported":1761174541,"current_range_meters":21600,"station_id":"ce4bhnp2rcd13ifvqgvg","pricing_plan_id":"cebpf4jnsgd1na2vs0mg"},{"bike_id":"5db0d44d-18b4-422a-9766-a3218057e91c","system_id":"levelo_inurba_marseille","lat":43.22929,"lon":5.35382,"is_reserved":false,"is_disabled":false,"rental_uris":{"android":"levelo://app?vid=5db0d44d-18b4-422a-9766-a3218057e91c","ios":"levelo://app?vid=5db0d44d-18b4-422a-9766-a3218057e91c"},"vehicle_type_id":"4","last_reported":1761174541,"current_range_meters":21600,"station_id":"cpo3532slgdg3j2ikp40","pricing_plan_id":"cebpf4jnsgd1na2vs0mg"},{"bike_id":"fd02326d-bd67-43a3-886c-2bc96a184b95","system_id":"levelo_inurba_marseille","lat":43.2509,"lon":5.39513,"is_reserved":false,"is_disabled":false,"rental_uris":{"android":"levelo://app?vid=fd02326d-bd67-43a3-886c-2bc96a184b95","ios":"levelo://app?vid=fd02326d-bd67-43a3-886c-2bc96a184b95"},"vehicle_type_id":"4","last_reported":1761174541,"current_range_meters":21600,"station_id":"ce4bhm12rcd13ifvqgkg","pricing_plan_id":"cebpf4jnsgd1na2vs0mg"},{"bike_id":"88a081c8-feff-4a32-aa72-5352839a2f7c","system_id":"levelo_inurba_marseille","lat":43.25107,"lon":5.39515,"is_reserved":false,"is_disabled":false,"rental_uris":{"android":"levelo://app?vid=88a081c8-feff-4a32-aa72-5352839a2f7c","ios":"levelo://app?vid=88a081c8-feff-4a32-aa72-5352839a2f7c"},"vehicle_type_id":"4","last_reported":1761174541,"current_range_meters":21600,"station_id":"ce4bhm12rcd13ifvqgkg","pricing_plan_id":"cebpf4jnsgd1na2vs0mg"},{"bike_id":"1e081ccf-3d57-4233-a9b7-51a4764814c0","system_id":"levelo_inurba_marseille","lat":43.29784,"lon":5.39334,"is_reserved":false,"is_disabled":false,"rental_uris":{"android":"levelo://app?vid=1e081ccf-3d57-4233-a9b7-51a4764814c0","ios":"levelo://app?vid=1e081ccf-3d57-4233-a9b7-51a4764814c0"},"vehicle_type_id":"4","last_reported":1761174541,"current_range_meters":21600,"station_id":"chh1huq6cuj3fo74tm60","pricing_plan_id":"cebpf4jnsgd1na2vs0mg"},{"bike_id":"05d4c5bf-5987-489d-85ae-be49589b581a","system_id":"levelo_inurba_marseille","lat":43.28417,"lon":5.37531,"is_reserved":false,"is_disabled":false,"rental_uris":{"android":"levelo://app?vid=05d4c5bf-5987-489d-85ae-be49589b581a","ios":"levelo://app?vid=05d4c5bf-5987-489d-85ae-be49589b581a"},"vehicle_type_id":"4","last_reported":1761174541,"current_range_meters":21600,"station_id":"ce4bh412rcd13ifvqds0","pricing_plan_id":"cebpf4jnsgd1na2vs0mg"},{"bike_id":"62f0a2f8-d352-4580-a096-e8ce56ffccdb","system_id":"levelo_inurba_marseille","lat":43.32108,"lon":5.36801,"is_reserved":false,"is_disabled":false,"rental_uris":{"android":"levelo://app?vid=62f0a2f8-d352-4580-a096-e8ce56ffccdb","ios":"levelo://app?vid=62f0a2f8-d352-4580-a096-e8ce56ffccdb"},"vehicle_type_id":"4","last_reported":1761174541,"current_range_meters":22000,"station_id":"ce4bhrh2rcd13ifvqhug","pricing_plan_id":"cebpf4jnsgd1na2vs0mg"},{"bike_id":"9ac0b099-f6f4-4b44-8b55-14f2e3522ea3","system_id":"levelo_inurba_marseille","lat":43.26207,"lon":5.40415,"is_reserved":false,"is_disabled":false,"rental_uris":{"android":"levelo://app?vid=9ac0b099-f6f4-4b44-8b55-14f2e3522ea3","ios":"levelo://app?vid=9ac0b099-f6f4-4b44-8b55-14f2e3522ea3"},"vehicle_type_id":"4","last_reported":1761174541,"current_range_meters":22000,"station_id":"ce4bhmh2rcd13ifvqgmg","pricing_plan_id":"cebpf4jnsgd1na2vs0mg"},{"bike_id":"63d2ead4-e81e-4e90-85c6-a4ce2bb0559a","system_id":"levelo_inurba_marseille","lat":43.30945,"lon":5.40125,"is_reserved":false,"is_disabled":false,"rental_uris":{"android":"levelo://app?vid=63d2ead4-e81e-4e90-85c6-a4ce2bb0559a","ios":"levelo://app?vid=63d2ead4-e81e-4e90-85c6-a4ce2bb0559a"},"vehicle_type_id":"4","last_reported":1761174541,"current_range_meters":22000,"station_id":"ce4bgvp2rcd13ifvqct0","pricing_plan_id":"cebpf4jnsgd1na2vs0mg"},{"bike_id":"c8502f66-5aa1-421b-b797-2526e155b859","system_id":"levelo_inurba_marseille","lat":43.2846,"lon":5.35895,"is_reserved":false,"is_disabled":false,"rental_uris":{"android":"levelo://app?vid=c8502f66-5aa1-421b-b797-2526e155b859","ios":"levelo://app?vid=c8502f66-5aa1-421b-b797-2526e155b859"},"vehicle_type_id":"4","last_reported":1761174541,"current_range_meters":22000,"station_id":"ce4bhah2rcd13ifvqei0","pricing_plan_id":"cebpf4jnsgd1na2vs0mg"},{"bike_id":"76a6542e-c77e-4034-95bc-09e4b937c107","system_id":"levelo_inurba_marseille","lat":43.29028,"lon":5.39969,"is_reserved":false,"is_disabled":false,"rental_uris":{"android":"levelo://app?vid=76a6542e-c77e-4034-95bc-09e4b937c107","ios":"levelo://app?vid=76a6542e-c77e-4034-95bc-09e4b937c107"},"vehicle_type_id":"4","last_reported":1761174541,"current_range_meters":22000,"station_id":"ce4bh392rcd13ifvqdm0","pricing_plan_id":"cebpf4jnsgd1na2vs0mg"},{"bike_id":"efec5d4f-0237-4c5b-8fe2-6beafb931f9e","system_id":"levelo_inurba_marseille","lat":43.25343,"lon":5.42167,"is_reserved":false,"is_disabled":false,"rental_uris":{"android":"levelo://app?vid=efec5d4f-0237-4c5b-8fe2-6beafb931f9e","ios":"levelo://app?vid=efec5d4f-0237-4c5b-8fe2-6beafb931f9e"},"vehicle_type_id":"4","last_reported":1761174541,"current_range_meters":22400,"station_id":"st_d2m65c5bi1j21697t3ng","pricing_plan_id":"cebpf4jnsgd1na2vs0mg"},