{"last_updated":1741288040,"ttl":60,"version":"2.2","data":{"bikes":[{"bike_id":"3bb4709f-5d40-42f6-ad96-bfdc9b994e88","system_id":"levelo_inurba_marseille","lat":43.317636,"lon":5.390144,"is_reserved":false,"is_disabled":false,"rental_uris":{"android":"levelo://app?vid=3bb4709f-5d40-42f6-ad96-bfdc9b994e88","ios":"levelo://app?vid=3bb4709f-5d40-42f6-ad96-bfdc9b994e88"},"vehicle_type_id":"4","last_reported":1741288040,"current_range_meters":2800,"station_id":"ce4bhqp2rcd13ifvqhng","pricing_plan_id":"cebpf4jnsgd1na2vs0mg"},{"bike_id":"309344d5-9c5d-4e81-94ac-4c20f1013ff0","system_id":"levelo_inurba_marseille","lat":43.28032,"lon":5.36943,"is_reserved":false,"is_disabled":false,"rental_uris":{"android":"levelo://app?vid=309344d5-9c5d-4e81-94ac-4c20f1013ff0","ios":"levelo://app?vid=309344d5-9c5d-4e81-94ac-4c20f1013ff0"},"vehicle_type_id":"4","last_reported":1741288040,"current_range_meters":2800,"station_id":"ce4bha12rcd13ifvqef0","pricing_plan_id":"cebpf4jnsgd1na2vs0mg"},{"bike_id":"9413c010-0cd1-41b8-bfec-86f00033f12c","system_id":"levelo_inurba_marseille","lat":43.31218,"lon":5.41672,"is_reserved":false,"is_disabled":false,"rental_uris":{"android":"levelo://app?vid=9413c010-0cd1-41b8-bfec-86f00033f12c","ios":"levelo://app?vid=9413c010-0cd1-41b8-bfec-86f00033f12c"},"vehicle_type_id":"4","last_reported":1741288040,"current_range_meters":2800,"station_id":"","pricing_plan_id":"cebpf4jnsgd1na2vs0mg"},{"bike_id":"be8f2f0b-bfa2-4b7d-b9be-c3ab89c4dae0","system_id":"levelo_inurba_marseille","lat":43.29899,"lon":5.43656,"is_reserved":false,"is_disabled":false,"rental_uris":{"android":"levelo://app?vid=be8f2f0b-bfa2-4b7d-b9be-c3ab89c4dae0","ios":"levelo://app?vid=be8f2f0b-bfa2-4b7d-b9be-c3ab89c4dae0"},"vehicle_type_id":"4","last_reported":1741288040,"current_range_meters":3200,"station_id":"ce4bhpp2rcd13ifvqhfg","pricing_plan_id":"cebpf4jnsgd1na2vs0mg"},{"bike_id":"11733df9-2bed-405d-9c69-cb76134cdb99","system_id":"levelo_inurba_marseille","lat":43.28403,"lon":5.37508,"is_reserved":false,"is_disabled":false,"rental_uris":{"android":"levelo://app?vid=11733df9-2bed-405d-9c69-cb76134cdb99","ios":"levelo://app?vid=11733df9-2bed-405d-9c69-cb76134cdb99"},"vehicle_type_id":"4","last_reported":1741288040,"current_range_meters":3200,"station_id":"ce4bh412rcd13ifvqds0","pricing_plan_id":"cebpf4jnsgd1na2vs0mg"},{"bike_id":"030085c6-037d-4de4-b06f-79952f3babe0","system_id":"levelo_inurba_marseille","lat":43.27942,"lon":5.4104,"is_reserved":false,"is_disabled":false,"rental_uris":{"android":"levelo://app?vid=030085c6-037d-4de4-b06f-79952f3babe0","ios":"levelo://app?vid=030085c6-037d-4de4-b06f-79952f3babe0"},"vehicle_type_id":"4","last_reported":1741288040,"current_range_meters":3200,"station_id":"ce4bhnp2rcd13ifvqh0g","pricing_plan_id":"cebpf4jnsgd1na2vs0mg"},{"bike_id":"81a29f2b-d6e3-4f26-93c4-215002ea1ac4","system_id":"levelo_inurba_marseille","lat":43.28611,"lon":5.35103,"is_reserved":false,"is_disabled":false,"rental_uris":{"android":"levelo://app?vid=81a29f2b-d6e3-4f26-93c4-215002ea1ac4","ios":"levelo://app?vid=81a29f2b-d6e3-4f26-93c4-215002ea1ac4"},"vehicle_type_id":"4","last_reported":1741288040,"current_range_meters":3200,"station_id":"ce4bhch2rcd13ifvqeug","pricing_plan_id":"cebpf4jnsgd1na2vs0mg"},{"bike_id":"bb23cb2d-0f81-490d-a49f-0c4bd643e814","system_id":"levelo_inurba_marseille","lat":43.2903,"lon":5.35906,"is_reserved":false,"is_disabled":false,"rental_uris":{"android":"levelo://app?vid=bb23cb2d-0f81-490d-a49f-0c4bd643e814","ios":"levelo://app?vid=bb23cb2d-0f81-490d-a49f-0c4bd643e814"},"vehicle_type_id":"4","last_reported":1741288040,"current_range_meters":3200,"station_id":"ce4bha92rcd13ifvqeg0","pricing_plan_id":"cebpf4jnsgd1na2vs0mg"},{"bike_id":"15b2c671-ced1-4f53-b3e9-49b2b908b06e","system_id":"levelo_inurba_marseille","lat":43.27808,"lon":5.40716,"is_reserved":false,"is_disabled":false,"rental_uris":{"android":"levelo://app?vid=15b2c671-ced1-4f53-b3e9-49b2b908b06e","ios":"levelo://app?vid=15b2c671-ced1-4f53-b3e9-49b2b908b06e"},"vehicle_type_id":"4","last_reported":1741288040,"current_range_meters":3200,"station_id":"ce4bhnh2rcd13ifvqgtg","pricing_plan_id":"cebpf4jnsgd1na2vs0mg"},{"bike_id":"15697444-a5bc-4ea4-8528-db1cb3e8c5df","system_id":"levelo_inurba_marseille","lat":43.2917,"lon":5.37153,"is_reserved":false,"is_disabled":false,"rental_uris":{"android":"levelo://app?vid=15697444-a5bc-4ea4-8528-db1cb3e8c5df","ios":"levelo://app?vid=15697444-a5bc-4ea4-8528-db1cb3e8c5df"},"vehicle_type_id":"4","last_reported":1741288040,"current_range_meters":3600,"station_id":"ce4bha92rcd13ifvqeh0","pricing_plan_id":"cebpf4jnsgd1na2vs0mg"},{"bike_id":"6d963bf5-438a-4f1b-877b-794bfc4bb2bc","system_id":"levelo_inurba_marseille","lat":43.27894,"lon":5.3544,"is_reserved":false,"is_disabled":false,"rental_uris":{"android":"levelo://app?vid=6d963bf5-438a-4f1b-877b-794bfc4bb2bc","ios":"levelo://app?vid=6d963bf5-438a-4f1b-877b-794bfc4bb2bc"},"vehicle_type_id":"4","last_reported":1741288040,"current_range_meters":3600,"station_id":"","pricing_plan_id":"cebpf4jnsgd1na2vs0mg"},{"bike_id":"62685cc3-4e22-41d5-a116-f0bdf7ca7003","system_id":"levelo_inurba_marseille","lat":43.25,"lon":5.38928,"is_reserved":false,"is_disabled":false,"rental_uris":{"android":"levelo://app?vid=62685cc3-4e22-41d5-a116-f0bdf7ca7003","ios":"levelo://app?vid=62685cc3-4e22-41d5-a116-f0bdf7ca7003"},"vehicle_type_id":"4","last_reported":1741288040,"current_range_meters":3600,"station_id":"ce4bhgp2rcd13ifvqfd0","pricing_plan_id":"cebpf4jnsgd1na2vs0mg"},{"bike_id":"ebf8161a-cab7-4028-b35f-3388767cbc46","system_id":"levelo_inurba_marseille","lat":43.23073,"lon":5.35491,"is_reserved":false,"is_disabled":false,"rental_uris":{"android":"levelo://app?vid=ebf8161a-cab7-4028-b35f-3388767cbc46","ios":"levelo://app?vid=ebf8161a-cab7-4028-b35f-3388767cbc46"},"vehicle_type_id":"4","last_reported":1741288040,"current_range_meters":3600,"station_id":"cpo3342slgdg3j2ifvpg","pricing_plan_id":"cebpf4jnsgd1na2vs0mg"},{"bike_id":"d0aaaad0-c40d-4c82-8c4f-21caac8c3b07","system_id":"levelo_inurba_marseille","lat":43.29419,"lon":5.38621,"is_reserved":false,"is_disabled":false,"rental_uris":{"android":"levelo://app?vid=d0aaaad0-c40d-4c82-8c4f-21caac8c3b07","ios":"levelo://app?vid=d0aaaad0-c40d-4c82-8c4f-21caac8c3b07"},"vehicle_type_id":"4","last_reported":1741288040,"current_range_meters":3600,"station_id":"ce4bh2h2rcd13ifvqdh0","pricing_plan_id":"cebpf4jnsgd1na2vs0mg"},{"bike_id":"35d8f733-a815-420c-b2d7-50240d32c017","system_id":"levelo_inurba_marseille","lat":43.2319,"lon":5.39994,"is_reserved":false,"is_disabled":false,"rental_uris":{"android":"levelo://app?vid=35d8f733-a815-420c-b2d7-50240d32c017","ios":"levelo://app?vid=35d8f733-a815-420c-b2d7-50240d32c017"},"vehicle_type_id":"4","last_reported":1741288040,"current_range_meters":3600,"station_id":"ce4bhn12rcd13ifvqgqg","pricing_plan_id":"cebpf4jnsgd1na2vs0mg"},{"bike_id":"cbc4ae21-57aa-4860-b8be-0037b6a5f2de","system_id":"levelo_inurba_marseille","lat":43.27807,"lon":5.40716,"is_reserved":false,"is_disabled":false,"rental_uris":{"android":"levelo://app?vid=cbc4ae21-57aa-4860-b8be-0037b6a5f2de","ios":"levelo://app?vid=cbc4ae21-57aa-4860-b8be-0037b6a5f2de"},"vehicle_type_id":"4","last_reported":1741288040,"current_range_meters":4000,"station_id":"ce4bhnh2rcd13ifvqgtg","pricing_plan_id":"cebpf4jnsgd1na2vs0mg"},{"bike_id":"c2abc49b-6aad-4fe9-95bc-fe25ddd54526","system_id":"levelo_inurba_marseille","lat":43.28161,"lon":5.42653,"is_reserved":false,"is_disabled":false,"rental_uris":{"android":"levelo://app?vid=c2abc49b-6aad-4fe9-95bc-fe25ddd54526","ios":"levelo://app?vid=c2abc49b-6aad-4fe9-95bc-fe25ddd54526"},"vehicle_type_id":"4","last_reported":1741288040,"current_range_meters":4000,"station_id":"ce4bhnh2rcd13ifvqgug","pricing_plan_id":"cebpf4jnsgd1na2vs0mg"},{"bike_id":"16531981-9eef-4076-b9f6-c7be5d49086a","system_id":"levelo_inurba_marseille","lat":43.27972,"lon":5.3873,"is_reserved":false,"is_disabled":false,"rental_uris":{"android":"levelo://app?vid=16531981-9eef-4076-b9f6-c7be5d49086a","ios":"levelo://app?vid=16531981-9eef-4076-b9f6-c7be5d49086a"},"vehicle_type_id":"4","last_reported":1741288040,"current_range_meters":4000,"station_id":"ce4bhg12rcd13ifvqf80","pricing_plan_id":"cebpf4jnsgd1na2vs0mg"},{"bike_id":"2d9eb859-04d7-42d9-b764-2d1cdec1d0f4","system_id":"levelo_inurba_marseille","lat":43.27807,"lon":5.40717,"is_reserved":false,"is_disabled":false,"rental_uris":{"android":"levelo://app?vid=2d9eb859-04d7-42d9-b764-2d1cdec1d0f4","ios":"levelo://app?vid=2d9eb859-04d7-42d9-b764-2d1cdec1d0f4"},"vehicle_type_id":"4","last_reported":1741288040,"current_range_meters":4000,"station_id":"ce4bhnh2rcd13ifvqgtg","pricing_plan_id":"cebpf4jnsgd1na2vs0mg"},{"bike_id":"5335ccc2-c2fe-4324-aa16-1eec29e362db","system_id":"levelo_inurba_marseille","lat":43.294,"lon":5.382167,"is_reserved":false,"is_disabled":false,"rental_uris":{"android":"levelo://app?vid=5335ccc2-c2fe-4324-aa16-1eec29e362db","ios":"levelo://app?vid=5335ccc2-c2fe-4324-aa16-1eec29e362db"},"vehicle_type_id":"4","last_reported":1741288040,"current_range_meters":4400,"station_id":"","pricing_plan_id":"cebpf4jnsgd1na2vs0mg"},{"bike_id":"c3fcf62d-6557-4147-9ff4-b6f29350be85","system_id":"levelo_inurba_marseille","lat":43.30908,"lon":5.36857,"is_reserved":false,"is_disabled":false,"rental_uris":{"android":"levelo://app?vid=c3fcf62d-6557-4147-9ff4-b6f29350be85","ios":"levelo://app?vid=c3fcf62d-6557-4147-9ff4-b6f29350be85"},"vehicle_type_id":"4","last_reported":1741288040,"current_range_meters":4400,"station_id":"ce4bgn92rcd13ifvqbvg","pricing_plan_id":"cebpf4jnsgd1na2vs0mg"},{"bike_id":"626e63a1-80a7-49e3-a68b-f9a73b301081","system_id":"levelo_inurba_marseille","lat":43.29248,"lon":5.3845,"is_reserved":false,"is_disabled":false,"rental_uris":{"android":"levelo://app?vid=626e63a1-80a7-49e3-a68b-f9a73b301081","ios":"levelo://app?vid=626e63a1-80a7-49e3-a68b-f9a73b301081"},"vehicle_type_id":"4","last_reported":1741288040,"current_range_meters":4400,"station_id":"ce4bh692rcd13ifvqea0","pricing_plan_id":"cebpf4jnsgd1na2vs0mg"},{"bike_id":"7109743d-aea4-4505-a44c-e7aa1c524ffd","system_id":"levelo_inurba_marseille","lat":43.25577,"lon":5.38229,"is_reserved":false,"is_disabled":false,"rental_uris":{"android":"levelo://app?vid=7109743d-aea4-4505-a44c-e7aa1c524ffd","ios":"levelo://app?vid=7109743d-aea4-4505-a44c-e7aa1c524ffd"},"vehicle_type_id":"4","last_reported":1741288040,"current_range_meters":4400,"station_id":"ce4bhih2rcd13ifvqfs0","pricing_plan_id":"cebpf4jnsgd1na2vs0mg"},{"bike_id":"e1b4870c-4797-469a-a270-01b945a1e477","system_id":"levelo_inurba_marseille","lat":43.28671,"lon":5.36357,"is_reserved":false,"is_disabled":false,"rental_uris":{"android":"levelo://app?vid=e1b4870c-4797-469a-a270-01b945a1e477","ios":"levelo://app?vid=e1b4870c-4797-469a-a270-01b945a1e477"},"vehicle_type_id":"4","last_reported":1741288040,"current_range_meters":4400,"station_id":"ce4bhah2rcd13ifvqej0","pricing_plan_id":"cebpf4jnsgd1na2vs0mg"},{"bike_id":"03c512e6-ff70-4997-839f-5302adce0f33","system_id":"levelo_inurba_marseille","lat":43.29789,"lon":5.39349,"is_reserved":false,"is_disabled":false,"rental_uris":{"android":"levelo://app?vid=03c512e6-ff70-4997-839f-5302adce0f33","ios":"levelo://app?vid=03c512e6-ff70-4997-839f-5302adce0f33"},"vehicle_type_id":"4","last_reported":1741288040,"current_range_meters":4000,"station_id":"chh1huq6cuj3fo74tm60","pricing_plan_id":"cebpf4jnsgd1na2vs0mg"},{"bike_id":"a86a9862-a26a-440e-9609-d25e31a3aee9","system_id":"levelo_inurba_marseille","lat":43.27841,"lon":5.40704,"is_reserved":false,"is_disabled":false,"rental_uris":{"android":"levelo://app?vid=a86a9862-a26a-440e-9609-d25e31a3aee9","ios":"levelo://app?vid=a86a9862-a26a-440e-9609-d25e31a3aee9"},"vehicle_type_id":"4","last_reported":1741288040,"current_range_meters":4800,"station_id":"ce4bhnh2rcd13ifvqgtg","pricing_plan_id":"cebpf4jnsgd1na2vs0mg"},{"bike_id":"c0b192e7-14e9-4f46-ab2a-ef4c70fc66fc","system_id":"levelo_inurba_marseille","lat":43.2928,"lon":5.38444,"is_reserved":false,"is_disabled":false,"rental_uris":{"android":"levelo://app?vid=c0b192e7-14e9-4f46-ab2a-ef4c70fc66fc","ios":"levelo://app?vid=c0b192e7-14e9-4f46-ab2a-ef4c70fc66fc"},"vehicle_type_id":"4","last_reported":1741288040,"current_range_meters":4800,"station_id":"ce4bh692rcd13ifvqea0","pricing_plan_id":"cebpf4jnsgd1na2vs0mg"},{"bike_id":"0e6e8b37-bc0e-44ac-8d41-b349bf0d2aa9","system_id":"levelo_inurba_marseille","lat":43.28729,"lon":5.37928,"is_reserved":false,"is_disabled":false,"rental_uris":{"android":"levelo://app?vid=0e6e8b37-bc0e-44ac-8d41-b349bf0d2aa9","ios":"levelo://app?vid=0e6e8b37-bc0e-44ac-8d41-b349bf0d2aa9"},"vehicle_type_id":"4","last_reported":1741288040,"current_range_meters":4800,"station_id":"ce4bh9p2rcd13ifvqec0","pricing_plan_id":"cebpf4jnsgd1na2vs0mg"},{"bike_id":"8a05a125-02ab-48ea-87fc-e24d98451368","system_id":"levelo_inurba_marseille","lat":43.27811,"lon":5.40716,"is_reserved":false,"is_disabled":false,"rental_uris":{"android":"levelo://app?vid=8a05a125-02ab-48ea-87fc-e24d98451368","ios":"levelo://app?vid=8a05a125-02ab-48ea-87fc-e24d98451368"},"vehicle_type_id":"4","last_reported":1741288040,"current_range_meters":4800,"station_id":"ce4bhnh2rcd13ifvqgtg","pricing_plan_id":"cebpf4jnsgd1na2vs0mg"},{"bike_id":"49a752f3-9985-4360-a13c-98c3cb8b8d26","system_id":"levelo_inurba_marseille","lat":43.28662,"lon":5.36359,"is_reserved":false,"is_disabled":false,"rental_uris":{"android":"levelo://app?vid=49a752f3-9985-4360-a13c-98c3cb8b8d26","ios":"levelo://app?vid=49a752f3-9985-4360-a13c-98c3cb8b8d26"},"vehicle_type_id":"4","last_reported":1741288040,"current_range_meters":5600,"station_id":"ce4bhah2rcd13ifvqej0","pricing_plan_id":"cebpf4jnsgd1na2vs0mg"},{"bike_id":"f732301c-5814-4217-889c-43168a540117","system_id":"levelo_inurba_marseille","lat":43.25577,"lon":5.38239,"is_reserved":false,"is_disabled":false,"rental_uris":{"android":"levelo://app?vid=f732301c-5814-4217-889c-43168a540117","ios":"levelo://app?vid=f732301c-5814-4217-889c-43168a540117"},"vehicle_type_id":"4","last_reported":1741288040,"current_range_meters":5600,"station_id":"ce4bhih2rcd13ifvqfs0","pricing_plan_id":"cebpf4jnsgd1na2vs0mg"},{"bike_id":"81064c80-a963-4228-aef8-89fe1f7f9e89","system_id":"levelo_inurba_marseille","lat":43.29882,"lon":5.38912,"is_reserved":false,"is_disabled":false,"rental_uris":{"android":"levelo://app?vid=81064c80-a963-4228-aef8-89fe1f7f9e89","ios":"levelo://app?vid=81064c80-a963-4228-aef8-89fe1f7f9e89"},"vehicle_type_id":"4","last_reported":1741288040,"current_range_meters":5600,"station_id":"ce4bh392rcd13ifvqdl0","pricing_plan_id":"cebpf4jnsgd1na2vs0mg"},{"bike_id":"3f12716e-8080-4cb4-8f2c-396848d01e84","system_id":"levelo_inurba_marseille","lat":43.29519,"lon":5.394,"is_reserved":false,"is_disabled":false,"rental_uris":{"android":"levelo://app?vid=3f12716e-8080-4cb4-8f2c-396848d01e84","ios":"levelo://app?vid=3f12716e-8080-4cb4-8f2c-396848d01e84"},"vehicle_type_id":"4","last_reported":1741288040,"current_range_meters":5600,"station_id":"ce4bh292rcd13ifvqdf0","pricing_plan_id":"cebpf4jnsgd1na2vs0mg"},{"bike_id":"341ee159-d1fc-4531-8421-e66e3883ad57","system_id":"levelo_inurba_marseille","lat":43.29197,"lon":5.39322,"is_reserved":false,"is_disabled":false,"rental_uris":{"android":"levelo://app?vid=341ee159-d1fc-4531-8421-e66e3883ad57","ios":"levelo://app?vid=341ee159-d1fc-4531-8421-e66e3883ad57"},"vehicle_type_id":"4","last_reported":1741288040,"current_range_meters":5600,"station_id":"ce4bh192rcd13ifvqdd0","pricing_plan_id":"cebpf4jnsgd1na2vs0mg"},{"bike_id":"4a521407-4338-45ca-b0c1-d65fa6a435d0","system_id":"levelo_inurba_marseille","lat":43.30959,"lon":5.39036,"is_reserved":false,"is_disabled":false,"rental_uris":{"android":"levelo://app?vid=4a521407-4338-45ca-b0c1-d65fa6a435d0","ios":"levelo://app?vid=4a521407-4338-45ca-b0c1-d65fa6a435d0"},"vehicle_type_id":"4","last_reported":1741288040,"current_range_meters":5600,"station_id":"ce4bgup2rcd13ifvqco0","pricing_plan_id":"cebpf4jnsgd1na2vs0mg"},{"bike_id":"ee534a5e-8078-4c21-aac0-0384fd32dca7","system_id":"levelo_inurba_marseille","lat":43.29197,"lon":5.36046,"is_reserved":false,"is_disabled":false,"rental_uris":{"android":"levelo://app?vid=ee534a5e-8078-4c21-aac0-0384fd32dca7","ios":"levelo://app?vid=ee534a5e-8078-4c21-aac0-0384fd32dca7"},"vehicle_type_id":"4","last_reported":1741288040,"current_range_meters":6000,"station_id":"ce4bhbh2rcd13ifvqeqg","pricing_plan_id":"cebpf4jnsgd1na2vs0mg"},{"bike_id":"3e28e9f6-3296-41c5-b8b5-d93e3f407e39","system_id":"levelo_inurba_marseille","lat":43.29693,"lon":5.36592,"is_reserved":false,"is_disabled":false,"rental_uris":{"android":"levelo://app?vid=3e28e9f6-3296-41c5-b8b5-d93e3f407e39","ios":"levelo://app?vid=3e28e9f6-3296-41c5-b8b5-d93e3f407e39"},"vehicle_type_id":"4","last_reported":1741288040,"current_range_meters":6000,"station_id":"ce4bgn12rcd13ifvqbt0","pricing_plan_id":"cebpf4jnsgd1na2vs0mg"},{"bike_id":"ea81972b-8597-4685-9797-12c32ca52780","system_id":"levelo_inurba_marseille","lat":43.31222,"lon":5.36845,"is_reserved":false,"is_disabled":false,"rental_uris":{"android":"levelo://app?vid=ea81972b-8597-4685-9797-12c32ca52780","ios":"levelo://app?vid=ea81972b-8597-4685-9797-12c32ca52780"},"vehicle_type_id":"4","last_reported":1741288040,"current_range_meters":6000,"station_id":"ce4bgl92rcd13ifvqbq0","pricing_plan_id":"cebpf4jnsgd1na2vs0mg"},{"bike_id":"49af381c-03c2-4987-a33c-943eed36c3de","system_id":"levelo_inurba_marseille","lat":43.22931,"lon":5.35365,"is_reserved":false,"is_disabled":false,"rental_uris":{"android":"levelo://app?vid=49af381c-03c2-4987-a33c-943eed36c3de","ios":"levelo://app?vid=49af381c-03c2-4987-a33c-943eed36c3de"},"vehicle_type_id":"4","last_reported":1741288040,"current_range_meters":6000,"station_id":"cpo3532slgdg3j2ikp40","pricing_plan_id":"cebpf4jnsgd1na2vs0mg"},{"bike_id":"85619d78-08e2-4af5-a784-af1a433afa2f","system_id":"levelo_inurba_marseille","lat":43.24071,"lon":5.37765,"is_reserved":false,"is_disabled":false,"rental_uris":{"android":"levelo://app?vid=85619d78-08e2-4af5-a784-af1a433afa2f","ios":"levelo://app?vid=85619d78-08e2-4af5-a784-af1a433afa2f"},"vehicle_type_id":"4","last_reported":1741288040,"current_range_meters":6000,"station_id":"ce4bhnp2rcd13ifvqgvg","pricing_plan_id":"cebpf4jnsgd1na2vs0mg"},{"bike_id":"879f687a-7880-4200-9746-b497e5fe108a","system_id":"levelo_inurba_marseille","lat":43.28413,"lon":5.37511,"is_reserved":false,"is_disabled":false,"rental_uris":{"android":"levelo://app?vid=879f687a-7880-4200-9746-b497e5fe108a","ios":"levelo://app?vid=879f687a-7880-4200-9746-b497e5fe108a"},"vehicle_type_id":"4","last_reported":1741288040,"current_range_meters":6000,"station_id":"ce4bh412rcd13ifvqds0","pricing_plan_id":"cebpf4jnsgd1na2vs0mg"},{"bike_id":"e7eebde5-fcc4-45e5-8030-60a1af2f3d7c","system_id":"levelo_inurba_marseille","lat":43.28463,"lon":5.35883,"is_reserved":false,"is_disabled":false,"rental_uris":{"android":"levelo://app?vid=e7eebde5-fcc4-45e5-8030-60a1af2f3d7c","ios":"levelo://app?vid=e7eebde5-fcc4-45e5-8030-60a1af2f3d7c"},"vehicle_type_id":"4","last_reported":1741288040,"current_range_meters":6000,"station_id":"ce4bhah2rcd13ifvqei0","pricing_plan_id":"cebpf4jnsgd1na2vs0mg"},{"bike_id":"32c31e77-7745-468c-9bf1-d34f12860043","system_id":"levelo_inurba_marseille","lat":43.31536,"lon":5.38043,"is_reserved":false,"is_disabled":false,"rental_uris":{"android":"levelo://app?vid=32c31e77-7745-468c-9bf1-d34f12860043","ios":"levelo://app?vid=32c31e77-7745-468c-9bf1-d34f12860043"},"vehicle_type_id":"4","last_reported":1741288040,"current_range_meters":6400,"station_id":"ce4bhsp2rcd13ifvqi50","pricing_plan_id":"cebpf4jnsgd1na2vs0mg"},{"bike_id":"98f22fbe-0d1f-4db7-8826-1934539aa916","system_id":"levelo_inurba_marseille","lat":43.29219,"lon":5.36071,"is_reserved":false,"is_disabled":false,"rental_uris":{"android":"levelo://app?vid=98f22fbe-0d1f-4db7-8826-1934539aa916","ios":"levelo://app?vid=98f22fbe-0d1f-4db7-8826-1934539aa916"},"vehicle_type_id":"4","last_reported":1741288040,"current_range_meters":6400,"station_id":"ce4bhbh2rcd13ifvqeqg","pricing_plan_id":"cebpf4jnsgd1na2vs0mg"},{"bike_id":"08ff056a-b34e-4531-821e-1fd43876ccc9","system_id":"levelo_inurba_marseille","lat":43.29251,"lon":5.38446,"is_reserved":false,"is_disabled":false,"rental_uris":{"android":"levelo://app?vid=08ff056a-b34e-4531-821e-1fd43876ccc9","ios":"levelo://app?vid=08ff056a-b34e-4531-821e-1fd43876ccc9"},"vehicle_type_id":"4","last_reported":1741288040,"current_range_meters":6400,"station_id":"ce4bh692rcd13ifvqea0","pricing_plan_id":"cebpf4jnsgd1na2vs0mg"},{"bike_id":"e1e0eb5f-c791-45ae-b822-7d565cfdb359","system_id":"levelo_inurba_marseille","lat":43.30594,"lon":5.39358,"is_reserved":false,"is_disabled":false,"rental_uris":{"android":"levelo://app?vid=e1e0eb5f-c791-45ae-b822-7d565cfdb359","ios":"levelo://app?vid=e1e0eb5f-c791-45ae-b822-7d565cfdb359"},"vehicle_type_id":"4","last_reported":1741288040,"current_range_meters":6400,"station_id":"ce4bh0p2rcd13ifvqd80","pricing_plan_id":"cebpf4jnsgd1na2vs0mg"},{"bike_id":"e114ceab-4b21-42b6-9fae-4f2c1b25c044","system_id":"levelo_inurba_marseille","lat":43.28774,"lon":5.37846,"is_reserved":false,"is_disabled":false,"rental_uris":{"android":"levelo://app?vid=e114ceab-4b21-42b6-9fae-4f2c1b25c044","ios":"levelo://app?vid=e114ceab-4b21-42b6-9fae-4f2c1b25c044"},"vehicle_type_id":"4","last_reported":1741288040,"current_range_meters":6400,"station_id":"","pricing_plan_id":"cebpf4jnsgd1na2vs0mg"},{"bike_id":"12a0f8a0-f887-4da5-868b-03d02ec00711","system_id":"levelo_inurba_marseille","lat":43.31355,"lon":5.38491,"is_reserved":false,"is_disabled":false,"rental_uris":{"android":"levelo://app?vid=12a0f8a0-f887-4da5-868b-03d02ec00711","ios":"levelo://app?vid=12a0f8a0-f887-4da5-868b-03d02ec00711"},"vehicle_type_id":"4","last_reported":1741288040,"current_range_meters":6400,"station_id":"ce4bgt92rcd13ifvqcf0","pricing_plan_id":"cebpf4jnsgd1na2vs0mg"},{"bike_id":"740df627-5ddd-4847-9d55-a8f5b4da2f4e","system_id":"levelo_inurba_marseille","lat":43.31602,"lon":5.40553,"is_reserved":false,"is_disabled":false,"rental_uris":{"android":"levelo://app?vid=740df627-5ddd-4847-9d55-a8f5b4da2f4e","ios":"levelo://app?vid=740df627-5ddd-4847-9d55-a8f5b4da2f4e"},"vehicle_type_id":"4","last_reported":1741288040,"current_range_meters":6400,"station_id":"","pricing_plan_id":"cebpf4jnsgd1na2vs0mg"},{"bike_id":"b0b5c115-e7b0-4f98-b875-a0a9a4fec19f","system_id":"levelo_inurba_marseille","lat":43.27939,"lon":5.41046,"is_reserved":false,"is_disabled":false,"rental_uris":{"android":"levelo://app?vid=b0b5c115-e7b0-4f98-b875-a0a9a4fec19f","ios":"levelo://app?vid=b0b5c115-e7b0-4f98-b875-a0a9a4fec19f"},"vehicle_type_id":"4","last_reported":1741288040,"current_range_meters":6400,"station_id":"ce4bhnp2rcd13ifvqh0g","pricing_plan_id":"cebpf4jnsgd1na2vs0mg"},{"bike_id":"ef97e956-481c-4cc7-9a35-76bd87314731","system_id":"levelo_inurba_marseille","lat":43.31067,"lon":5.38363,"is_reserved":false,"is_disabled":false,"rental_uris":{"android":"levelo://app?vid=ef97e956-481c-4cc7-9a35-76bd87314731","ios":"levelo://app?vid=ef97e956-481c-4cc7-9a35-76bd87314731"},"vehicle_type_id":"4","last_reported":1741288040,"current_range_meters":6800,"station_id":"ce4bgv92rcd13ifvqcr0","pricing_plan_id":"cebpf4jnsgd1na2vs0mg"},{"bike_id":"2e721d88-f10e-4225-8de2-e247e40b1a83","system_id":"levelo_inurba_marseille","lat":43.24079,"lon":5.37761,"is_reserved":false,"is_disabled":false,"rental_uris":{"android":"levelo://app?vid=2e721d88-f10e-4225-8de2-e247e40b1a83","ios":"levelo://app?vid=2e721d88-f10e-4225-8de2-e247e40b1a83"},"vehicle_type_id":"4","last_reported":1741288040,"current_range_meters":6800,"station_id":"ce4bhnp2rcd13ifvqgvg","pricing_plan_id":"cebpf4jnsgd1na2vs0mg"},{"bike_id":"da7dafd6-12b5-497f-9f5f-37f9c9ffc16b","system_id":"levelo_inurba_marseille","lat":43.26569,"lon":5.39013,"is_reserved":false,"is_disabled":false,"rental_uris":{"android":"levelo://app?vid=da7dafd6-12b5-497f-9f5f-37f9c9ffc16b","ios":"levelo://app?vid=da7dafd6-12b5-497f-9f5f-37f9c9ffc16b"},"vehicle_type_id":"4","last_reported":1741288040,"current_range_meters":6800,"station_id":"ce4bhe12rcd13ifvqf30","pricing_plan_id":"cebpf4jnsgd1na2vs0mg"},{"bike_id":"03c3dc7c-8ee4-444d-b4cb-ba42a05873bd","system_id":"levelo_inurba_marseille","lat":43.22928,"lon":5.35374,"is_reserved":false,"is_disabled":false,"rental_uris":{"android":"levelo://app?vid=03c3dc7c-8ee4-444d-b4cb-ba42a05873bd","ios":"levelo://app?vid=03c3dc7c-8ee4-444d-b4cb-ba42a05873bd"},"vehicle_type_id":"4","last_reported":1741288040,"current_range_meters":6800,"station_id":"cpo3532slgdg3j2ikp40","pricing_plan_id":"cebpf4jnsgd1na2vs0mg"},{"bike_id":"0eb333c2-3d5e-4230-9ffc-81730b2a7e6c","system_id":"levelo_inurba_marseille","lat":43.29263,"lon":5.38437,"is_reserved":false,"is_disabled":false,"rental_uris":{"android":"levelo://app?vid=0eb333c2-3d5e-4230-9ffc-81730b2a7e6c","ios":"levelo://app?vid=0eb333c2-3d5e-4230-9ffc-81730b2a7e6c"},"vehicle_type_id":"4","last_reported":1741288040,"current_range_meters":6800,"station_id":"ce4bh692rcd13ifvqea0","pricing_plan_id":"cebpf4jnsgd1na2vs0mg"},{"bike_id":"3fffc9cd-f418-41de-9fba-0cc23722d684","system_id":"levelo_inurba_marseille","lat":43.23067,"lon":5.35495,"is_reserved":false,"is_disabled":false,"rental_uris":{"android":"levelo://app?vid=3fffc9cd-f418-41de-9fba-0cc23722d684","ios":"levelo://app?vid=3fffc9cd-f418-41de-9fba-0cc23722d684"},"vehicle_type_id":"4","last_reported":1741288040,"current_range_meters":6800,"station_id":"cpo3342slgdg3j2ifvpg","pricing_plan_id":"cebpf4jnsgd1na2vs0mg"},{"bike_id":"63ea7740-a1be-4771-bf22-5c0507713738","system_id":"levelo_inurba_marseille","lat":43.29863,"lon":5.39742,"is_reserved":false,"is_disabled":false,"rental_uris":{"android":"levelo://app?vid=63ea7740-a1be-4771-bf22-5c0507713738","ios":"levelo://app?vid=63ea7740-a1be-4771-bf22-5c0507713738"},"vehicle_type_id":"4","last_reported":1741288040,"current_range_meters":6400,"station_id":"ce4bh0h2rcd13ifvqd50","pricing_plan_id":"cebpf4jnsgd1na2vs0mg"},{"bike_id":"fadc5597-2f44-411e-bbc9-b698e9edf980","system_id":"levelo_inurba_marseille","lat":43.27974,"lon":5.41053,"is_reserved":false,"is_disabled":false,"rental_uris":{"android":"levelo://app?vid=fadc5597-2f44-411e-bbc9-b698e9edf980","ios":"levelo://app?vid=fadc5597-2f44-411e-bbc9-b698e9edf980"},"vehicle_type_id":"4","last_reported":1741288040,"current_range_meters":6800,"station_id":"ce4bhnp2rcd13ifvqh0g","pricing_plan_id":"cebpf4jnsgd1na2vs0mg"},{"bike_id":"48be3c18-589c-4708-8ab4-90ce9c9983a1","system_id":"levelo_inurba_marseille","lat":43.24081,"lon":5.37751,"is_reserved":false,"is_disabled":false,"rental_uris":{"android":"levelo://app?vid=48be3c18-589c-4708-8ab4-90ce9c9983a1","ios":"levelo://app?vid=48be3c18-589c-4708-8ab4-90ce9c9983a1"},"vehicle_type_id":"4","last_reported":1741288040,"current_range_meters":6800,"station_id":"ce4bhnp2rcd13ifvqgvg","pricing_plan_id":"cebpf4jnsgd1na2vs0mg"},{"bike_id":"30b8be40-3d2e-4f7d-a831-74ba3450c49d","system_id":"levelo_inurba_marseille","lat":43.2606,"lon":5.39402,"is_reserved":false,"is_disabled":false,"rental_uris":{"android":"levelo://app?vid=30b8be40-3d2e-4f7d-a831-74ba3450c49d","ios":"levelo://app?vid=30b8be40-3d2e-4f7d-a831-74ba3450c49d"},"vehicle_type_id":"4","last_reported":1741288040,"current_range_meters":6800,"station_id":"ce4bhh92rcd13ifvqfj0","pricing_plan_id":"cebpf4jnsgd1na2vs0mg"},{"bike_id":"1fbe9059-0f0d-426f-9625-0873b7758175","system_id":"levelo_inurba_marseille","lat":43.29874,"lon":5.39754,"is_reserved":false,"is_disabled":false,"rental_uris":{"android":"levelo://app?vid=1fbe9059-0f0d-426f-9625-0873b7758175","ios":"levelo://app?vid=1fbe9059-0f0d-426f-9625-0873b7758175"},"vehicle_type_id":"4","last_reported":1741288040,"current_range_meters":7200,"station_id":"ce4bh0h2rcd13ifvqd50","pricing_plan_id":"cebpf4jnsgd1na2vs0mg"},{"bike_id":"3424a2b3-eeb4-4456-9ce8-27a60a68dd9c","system_id":"levelo_inurba_marseille","lat":43.30925,"lon":5.40155,"is_reserved":false,"is_disabled":false,"rental_uris":{"android":"levelo://app?vid=3424a2b3-eeb4-4456-9ce8-27a60a68dd9c","ios":"levelo://app?vid=3424a2b3-eeb4-4456-9ce8-27a60a68dd9c"},"vehicle_type_id":"4","last_reported":1741288040,"current_range_meters":7200,"station_id":"ce4bgvp2rcd13ifvqct0","pricing_plan_id":"cebpf4jnsgd1na2vs0mg"},{"bike_id":"77ae1912-8e6f-489b-99a2-9bc231f96cf9","system_id":"levelo_inurba_marseille","lat":43.25579,"lon":5.38219,"is_reserved":false,"is_disabled":false,"rental_uris":{"android":"levelo://app?vid=77ae1912-8e6f-489b-99a2-9bc231f96cf9","ios":"levelo://app?vid=77ae1912-8e6f-489b-99a2-9bc231f96cf9"},"vehicle_type_id":"4","last_reported":1741288040,"current_range_meters":7200,"station_id":"ce4bhih2rcd13ifvqfs0","pricing_plan_id":"cebpf4jnsgd1na2vs0mg"},{"bike_id":"bd012427-fc8f-4fad-a296-ffd84f9acf1e","system_id":"levelo_inurba_marseille","lat":43.31072,"lon":5.38365,"is_reserved":false,"is_disabled":false,"rental_uris":{"android":"levelo://app?vid=bd012427-fc8f-4fad-a296-ffd84f9acf1e","ios":"levelo://app?vid=bd012427-fc8f-4fad-a296-ffd84f9acf1e"},"vehicle_type_id":"4","last_reported":1741288040,"current_range_meters":7200,"station_id":"ce4bgv92rcd13ifvqcr0","pricing_plan_id":"cebpf4jnsgd1na2vs0mg"},{"bike_id":"6055d6b6-b351-41fa-94d5-880dfc9846d8","system_id":"levelo_inurba_marseille","lat":43.2319,"lon":5.35559,"is_reserved":false,"is_disabled":false,"rental_uris":{"android":"levelo://app?vid=6055d6b6-b351-41fa-94d5-880dfc9846d8","ios":"levelo://app?vid=6055d6b6-b351-41fa-94d5-880dfc9846d8"},"vehicle_type_id":"4","last_reported":1741288040,"current_range_meters":7200,"station_id":"ce4bhu92rcd13ifvqi70","pricing_plan_id":"cebpf4jnsgd1na2vs0mg"},{"bike_id":"7877505a-9750-4cb4-b3f0-ea17361ee221","system_id":"levelo_inurba_marseille","lat":43.27805,"lon":5.40707,"is_reserved":false,"is_disabled":false,"rental_uris":{"android":"levelo://app?vid=7877505a-9750-4cb4-b3f0-ea17361ee221","ios":"levelo://app?vid=7877505a-9750-4cb4-b3f0-ea17361ee221"},"vehicle_type_id":"4","last_reported":1741288040,"current_range_meters":7200,"station_id":"ce4bhnh2rcd13ifvqgtg","pricing_plan_id":"cebpf4jnsgd1na2vs0mg"},{"bike_id":"9bfe4e82-241b-4620-b471-d226beb88b23","system_id":"levelo_inurba_marseille","lat":43.22922,"lon":5.35378,"is_reserved":false,"is_disabled":false,"rental_uris":{"android":"levelo://app?vid=9bfe4e82-241b-4620-b471-d226beb88b23","ios":"levelo://app?vid=9bfe4e82-241b-4620-b471-d226beb88b23"},"vehicle_type_id":"4","last_reported":1741288040,"current_range_meters":7200,"station_id":"cpo3532slgdg3j2ikp40","pricing_plan_id":"cebpf4jnsgd1na2vs0mg"},{"bike_id":"7b3dc7b9-ed95-4fac-b8db-fb164e0e0a08","system_id":"levelo_inurba_marseille","lat":43.27492,"lon":5.42467,"is_reserved":false,"is_disabled":true,"rental_uris":{"android":"levelo://app?vid=7b3dc7b9-ed95-4fac-b8db-fb164e0e0a08","ios":"levelo://app?vid=7b3dc7b9-ed95-4fac-b8db-fb164e0e0a08"},"vehicle_type_id":"4","last_reported":1741288040,"current_range_meters":7200,"station_id":"ce4bhn92rcd13ifvqgrg","pricing_plan_id":"cebpf4jnsgd1na2vs0mg"},{"bike_id":"853154b5-8925-42f6-b73b-a83a6335302f","system_id":"levelo_inurba_marseille","lat":43.28718,"lon":5.36097,"is_reserved":false,"is_disabled":false,"rental_uris":{"android":"levelo://app?vid=853154b5-8925-42f6-b73b-a83a6335302f","ios":"levelo://app?vid=853154b5-8925-42f6-b73b-a83a6335302f"},"vehicle_type_id":"4","last_reported":1741288040,"current_range_meters":8000,"station_id":"cki0cbj6b192h4jlfktg","pricing_plan_id":"cebpf4jnsgd1na2vs0mg"},{"bike_id":"dcf219e7-3c29-4e81-8928-2d2a94e39442","system_id":"levelo_inurba_marseille","lat":43.27972,"lon":5.38755,"is_reserved":false,"is_disabled":false,"rental_uris":{"android":"levelo://app?vid=dcf219e7-3c29-4e81-8928-2d2a94e39442","ios":"levelo://app?vid=dcf219e7-3c29-4e81-8928-2d2a94e39442"},"vehicle_type_id":"4","last_reported":1741288040,"current_range_meters":8000,"station_id":"ce4bhg12rcd13ifvqf80","pricing_plan_id":"cebpf4jnsgd1na2vs0mg"},{"bike_id":"fd58e227-be2e-4eff-a5f3-1890c8f37b75","system_id":"levelo_inurba_marseille","lat":43.251093,"lon":5.403237,"is_reserved":false,"is_disabled":false,"rental_uris":{"android":"levelo://app?vid=fd58e227-be2e-4eff-a5f3-1890c8f37b75","ios":"levelo://app?vid=fd58e227-be2e-4eff-a5f3-1890c8f37b75"},"vehicle_type_id":"4","last_reported":1741288040,"current_range_meters":8000,"station_id":"ce4bhlh2rcd13ifvqgig","pricing_plan_id":"cebpf4jnsgd1na2vs0mg"},{"bike_id":"d7a5d08e-79ec-4432-b725-515b67d87ba1","system_id":"levelo_inurba_marseille","lat":43.23183,"lon":5.39992,"is_reserved":false,"is_disabled":false,"rental_uris":{"android":"levelo://app?vid=d7a5d08e-79ec-4432-b725-515b67d87ba1","ios":"levelo://app?vid=d7a5d08e-79ec-4432-b725-515b67d87ba1"},"vehicle_type_id":"4","last_reported":1741288040,"current_range_meters":8000,"station_id":"ce4bhn12rcd13ifvqgqg","pricing_plan_id":"cebpf4jnsgd1na2vs0mg"},{"bike_id":"15e69f14-2f1a-4871-8548-5b03d9ec7068","system_id":"levelo_inurba_marseille","lat":43.30921,"lon":5.40166,"is_reserved":false,"is_disabled":false,"rental_uris":{"android":"levelo://app?vid=15e69f14-2f1a-4871-8548-5b03d9ec7068","ios":"levelo://app?vid=15e69f14-2f1a-4871-8548-5b03d9ec7068"},"vehicle_type_id":"4","last_reported":1741288040,"current_range_meters":8000,"station_id":"ce4bgvp2rcd13ifvqct0","pricing_plan_id":"cebpf4jnsgd1na2vs0mg"},{"bike_id":"d2fd960f-0af3-4bf9-bd6a-b0c4aa4544af","system_id":"levelo_inurba_marseille","lat":43.2319,"lon":5.39976,"is_reserved":false,"is_disabled":false,"rental_uris":{"android":"levelo://app?vid=d2fd960f-0af3-4bf9-bd6a-b0c4aa4544af","ios":"levelo://app?vid=d2fd960f-0af3-4bf9-bd6a-b0c4aa4544af"},"vehicle_type_id":"4","last_reported":1741288040,"current_range_meters":8000,"station_id":"ce4bhn12rcd13ifvqgqg","pricing_plan_id":"cebpf4jnsgd1na2vs0mg"},{"bike_id":"7bdf6528-cded-4e31-bdcd-05e5503236cb","system_id":"levelo_inurba_marseille","lat":43.30802,"lon":5.4352,"is_reserved":false,"is_disabled":false,"rental_uris":{"android":"levelo://app?vid=7bdf6528-cded-4e31-bdcd-05e5503236cb","ios":"levelo://app?vid=7bdf6528-cded-4e31-bdcd-05e5503236cb"},"vehicle_type_id":"4","last_reported":1741288040,"current_range_meters":8000,"station_id":"ce4bhph2rcd13ifvqheg","pricing_plan_id":"cebpf4jnsgd1na2vs0mg"},{"bike_id":"c02718d2-20cf-4c51-b231-08ba621c84d3","system_id":"levelo_inurba_marseille","lat":43.278,"lon":5.40726,"is_reserved":false,"is_disabled":false,"rental_uris":{"android":"levelo://app?vid=c02718d2-20cf-4c51-b231-08ba621c84d3","ios":"levelo://app?vid=c02718d2-20cf-4c51-b231-08ba621c84d3"},"vehicle_type_id":"4","last_reported":1741288040,"current_range_meters":8000,"station_id":"ce4bhnh2rcd13ifvqgtg","pricing_plan_id":"cebpf4jnsgd1na2vs0mg"},{"bike_id":"190dd6cb-533e-4681-a747-9e41c3808569","system_id":"levelo_inurba_marseille","lat":43.28718,"lon":5.36099,"is_reserved":false,"is_disabled":false,"rental_uris":{"android":"levelo://app?vid=190dd6cb-533e-4681-a747-9e41c3808569","ios":"levelo://app?vid=190dd6cb-533e-4681-a747-9e41c3808569"},"vehicle_type_id":"4","last_reported":1741288040,"current_range_meters":8000,"station_id":"cki0cbj6b192h4jlfktg","pricing_plan_id":"cebpf4jnsgd1na2vs0mg"},{"bike_id":"36b54d24-1e09-4fde-8ac4-d001b8d521c9","system_id":"levelo_inurba_marseille","lat":43.29277,"lon":5.36843,"is_reserved":false,"is_disabled":false,"rental_uris":{"android":"levelo://app?vid=36b54d24-1e09-4fde-8ac4-d001b8d521c9","ios":"levelo://app?vid=36b54d24-1e09-4fde-8ac4-d001b8d521c9"},"vehicle_type_id":"4","last_reported":1741288040,"current_range_meters":8000,"station_id":"ce4bhbp2rcd13ifvqesg","pricing_plan_id":"cebpf4jnsgd1na2vs0mg"},{"bike_id":"083e7ec6-84d3-443e-99c3-6f9383b9efd9","system_id":"levelo_inurba_marseille","lat":43.29047,"lon":5.37173,"is_reserved":false,"is_disabled":false,"rental_uris":{"android":"levelo://app?vid=083e7ec6-84d3-443e-99c3-6f9383b9efd9","ios":"levelo://app?vid=083e7ec6-84d3-443e-99c3-6f9383b9efd9"},"vehicle_type_id":"4","last_reported":1741288040,"current_range_meters":8000,"station_id":"ce4bh5p2rcd13ifvqe4g","pricing_plan_id":"cebpf4jnsgd1na2vs0mg"},{"bike_id":"e0c0bec3-454a-410d-a60f-3aed516ec149","system_id":"levelo_inurba_marseille","lat":43.23151,"lon":5.35557,"is_reserved":false,"is_disabled":false,"rental_uris":{"android":"levelo://app?vid=e0c0bec3-454a-410d-a60f-3aed516ec149","ios":"levelo://app?vid=e0c0bec3-454a-410d-a60f-3aed516ec149"},"vehicle_type_id":"4","last_reported":1741288040,"current_range_meters":8400,"station_id":"ce4bhu92rcd13ifvqi70","pricing_plan_id":"cebpf4jnsgd1na2vs0mg"},{"bike_id":"a378dced-492c-4642-9256-1628606dc9a1","system_id":"levelo_inurba_marseille","lat":43.32355,"lon":5.38872,"is_reserved":false,"is_disabled":false,"rental_uris":{"android":"levelo://app?vid=a378dced-492c-4642-9256-1628606dc9a1","ios":"levelo://app?vid=a378dced-492c-4642-9256-1628606dc9a1"},"vehicle_type_id":"4","last_reported":1741288040,"current_range_meters":11200,"station_id":"ce4bhqp2rcd13ifvqhog","pricing_plan_id":"cebpf4jnsgd1na2vs0mg"},{"bike_id":"f9fc3450-00c1-46c4-a8f0-75d5054525a7","system_id":"levelo_inurba_marseille","lat":43.23963,"lon":5.36636,"is_reserved":false,"is_disabled":false,"rental_uris":{"android":"levelo://app?vid=f9fc3450-00c1-46c4-a8f0-75d5054525a7","ios":"levelo://app?vid=f9fc3450-00c1-46c4-a8f0-75d5054525a7"},"vehicle_type_id":"4","last_reported":1741288040,"current_range_meters":8400,"station_id":"ce4bhi12rcd13ifvqfp0","pricing_plan_id":"cebpf4jnsgd1na2vs0mg"},{"bike_id":"3adf3a08-5f39-42a9-8621-f1cea4d97a0f","system_id":"levelo_inurba_marseille","lat":43.25828,"lon":5.39444,"is_reserved":false,"is_disabled":false,"rental_uris":{"android":"levelo://app?vid=3adf3a08-5f39-42a9-8621-f1cea4d97a0f","ios":"levelo://app?vid=3adf3a08-5f39-42a9-8621-f1cea4d97a0f"},"vehicle_type_id":"4","last_reported":1741288040,"current_range_meters":8400,"station_id":"ce4bhip2rcd13ifvqft0","pricing_plan_id":"cebpf4jnsgd1na2vs0mg"},{"bike_id":"88d55705-11a3-4e8d-984b-1fcdc0cb6706","system_id":"levelo_inurba_marseille","lat":43.28927,"lon":5.36393,"is_reserved":false,"is_disabled":false,"rental_uris":{"android":"levelo://app?vid=88d55705-11a3-4e8d-984b-1fcdc0cb6706","ios":"levelo://app?vid=88d55705-11a3-4e8d-984b-1fcdc0cb6706"},"vehicle_type_id":"4","last_reported":1741288040,"current_range_meters":8400,"station_id":"ce4bhc92rcd13ifvqetg","pricing_plan_id":"cebpf4jnsgd1na2vs0mg"},{"bike_id":"fdde8103-1f2a-4455-bcfa-e1d74ecb0194","system_id":"levelo_inurba_marseille","lat":43.2783,"lon":5.40611,"is_reserved":false,"is_disabled":false,"rental_uris":{"android":"levelo://app?vid=fdde8103-1f2a-4455-bcfa-e1d74ecb0194","ios":"levelo://app?vid=fdde8103-1f2a-4455-bcfa-e1d74ecb0194"},"vehicle_type_id":"4","last_reported":1741288040,"current_range_meters":8400,"station_id":"","pricing_plan_id":"cebpf4jnsgd1na2vs0mg"},{"bike_id":"4f51255d-6aae-4cc7-b5d3-5a8135597e1e","system_id":"levelo_inurba_marseille","lat":43.28933,"lon":5.3964,"is_reserved":false,"is_disabled":false,"rental_uris":{"android":"levelo://app?vid=4f51255d-6aae-4cc7-b5d3-5a8135597e1e","ios":"levelo://app?vid=4f51255d-6aae-4cc7-b5d3-5a8135597e1e"},"vehicle_type_id":"4","last_reported":1741288040,"current_range_meters":8000,"station_id":"ce4bh3h2rcd13ifvqdn0","pricing_plan_id":"cebpf4jnsgd1na2vs0mg"},{"bike_id":"524470ee-5afb-4f8a-b4b1-91fa19aa2b60","system_id":"levelo_inurba_marseille","lat":43.24545,"lon":5.39526,"is_reserved":false,"is_disabled":true,"rental_uris":{"android":"levelo://app?vid=524470ee-5afb-4f8a-b4b1-91fa19aa2b60","ios":"levelo://app?vid=524470ee-5afb-4f8a-b4b1-91fa19aa2b60"},"vehicle_type_id":"4","last_reported":1741288040,"current_range_meters":8400,"station_id":"ce4bhlp2rcd13ifvqgjg","pricing_plan_id":"cebpf4jnsgd1na2vs0mg"},{"bike_id":"a57d327e-a815-44bc-98d4-6d905c7e60af","system_id":"levelo_inurba_marseille","lat":43.32048,"lon":5.41543,"is_reserved":false,"is_disabled":false,"rental_uris":{"android":"levelo://app?vid=a57d327e-a815-44bc-98d4-6d905c7e60af","ios":"levelo://app?vid=a57d327e-a815-44bc-98d4-6d905c7e60af"},"vehicle_type_id":"4","last_reported":1741288040,"current_range_meters":8400,"station_id":"ce4bhq92rcd13ifvqhkg","pricing_plan_id":"cebpf4jnsgd1na2vs0mg"},{"bike_id":"24fed381-61cf-4846-9932-4e6bdd4afd57","system_id":"levelo_inurba_marseille","lat":43.27619,"lon":5.36113,"is_reserved":false,"is_disabled":false,"rental_uris":{"android":"levelo://app?vid=24fed381-61cf-4846-9932-4e6bdd4afd57","ios":"levelo://app?vid=24fed381-61cf-4846-9932-4e6bdd4afd57"},"vehicle_type_id":"4","last_reported":1741288040,"current_range_meters":8400,"station_id":"ce4bgj92rcd13ifvqbe0","pricing_plan_id":"cebpf4jnsgd1na2vs0mg"},{"bike_id":"a6ae1522-5517-4631-a014-5d5304ba98d1","system_id":"levelo_inurba_marseille","lat":43.324593,"lon":5.367134,"is_reserved":false,"is_disabled":false,"rental_uris":{"android":"levelo://app?vid=a6ae1522-5517-4631-a014-5d5304ba98d1","ios":"levelo://app?vid=a6ae1522-5517-4631-a014-5d5304ba98d1"},"vehicle_type_id":"4","last_reported":1741288040,"current_range_meters":8000,"station_id":"ce4bhs12rcd13ifvqhvg","pricing_plan_id":"cebpf4jnsgd1na2vs0mg"},{"bike_id":"af75fed2-4595-4d49-b027-8a0d0bac651b","system_id":"levelo_inurba_marseille","lat":43.3138,"lon":5.38535,"is_reserved":false,"is_disabled":false,"rental_uris":{"android":"levelo://app?vid=af75fed2-4595-4d49-b027-8a0d0bac651b","ios":"levelo://app?vid=af75fed2-4595-4d49-b027-8a0d0bac651b"},"vehicle_type_id":"4","last_reported":1741288040,"current_range_meters":11600,"station_id":"ce4bgt92rcd13ifvqcf0","pricing_plan_id":"cebpf4jnsgd1na2vs0mg"},{"bike_id":"84e08939-1d3c-40f9-9f06-3f4762cc7f07","system_id":"levelo_inurba_marseille","lat":43.24535,"lon":5.39524,"is_reserved":false,"is_disabled":false,"rental_uris":{"android":"levelo://app?vid=84e08939-1d3c-40f9-9f06-3f4762cc7f07","ios":"levelo://app?vid=84e08939-1d3c-40f9-9f06-3f4762cc7f07"},"vehicle_type_id":"4","last_reported":1741288040,"current_range_meters":8800,"station_id":"ce4bhlp2rcd13ifvqgjg","pricing_plan_id":"cebpf4jnsgd1na2vs0mg"},{"bike_id":"efeda49a-f35a-4f3e-b5a4-cebb6b14d314","system_id":"levelo_inurba_marseille","lat":43.25576,"lon":5.38231,"is_reserved":false,"is_disabled":false,"rental_uris":{"android":"levelo://app?vid=efeda49a-f35a-4f3e-b5a4-cebb6b14d314","ios":"levelo://app?vid=efeda49a-f35a-4f3e-b5a4-cebb6b14d314"},"vehicle_type_id":"4","last_reported":1741288040,"current_range_meters":8800,"station_id":"ce4bhih2rcd13ifvqfs0","pricing_plan_id":"cebpf4jnsgd1na2vs0mg"},{"bike_id":"7fc4c930-26da-4834-83c2-27074e7648d6","system_id":"levelo_inurba_marseille","lat":43.28447,"lon":5.35899,"is_reserved":false,"is_disabled":false,"rental_uris":{"android":"levelo://app?vid=7fc4c930-26da-4834-83c2-27074e7648d6","ios":"levelo://app?vid=7fc4c930-26da-4834-83c2-27074e7648d6"},"vehicle_type_id":"4","last_reported":1741288040,"current_range_meters":8800,"station_id":"ce4bhah2rcd13ifvqei0","pricing_plan_id":"cebpf4jnsgd1na2vs0mg"},{"bike_id":"fd570e3e-777b-4122-9306-c335bf003eb6","system_id":"levelo_inurba_marseille","lat":43.23188,"lon":5.39981,"is_reserved":false,"is_disabled":false,"rental_uris":{"android":"levelo://app?vid=fd570e3e-777b-4122-9306-c335bf003eb6","ios":"levelo://app?vid=fd570e3e-777b-4122-9306-c335bf003eb6"},"vehicle_type_id":"4","last_reported":1741288040,"current_range_meters":8800,"station_id":"ce4bhn12rcd13ifvqgqg","pricing_plan_id":"cebpf4jnsgd1na2vs0mg"},{"bike_id":"9bd588a8-e2d5-4857-a200-140076574e87","system_id":"levelo_inurba_marseille","lat":43.29525,"lon":5.38545,"is_reserved":false,"is_disabled":false,"rental_uris":{"android":"levelo://app?vid=9bd588a8-e2d5-4857-a200-140076574e87","ios":"levelo://app?vid=9bd588a8-e2d5-4857-a200-140076574e87"},"vehicle_type_id":"4","last_reported":1741288040,"current_range_meters":8800,"station_id":"ce4bgih2rcd13ifvqba0","pricing_plan_id":"cebpf4jnsgd1na2vs0mg"},{"bike_id":"df113ea8-feb2-4385-8a82-b0cb6feddff9","system_id":"levelo_inurba_marseille","lat":43.29609,"lon":5.38107,"is_reserved":false,"is_disabled":false,"rental_uris":{"android":"levelo://app?vid=df113ea8-feb2-4385-8a82-b0cb6feddff9","ios":"levelo://app?vid=df113ea8-feb2-4385-8a82-b0cb6feddff9"},"vehicle_type_id":"4","last_reported":1741288040,"current_range_meters":8800,"station_id":"ce4bgl12rcd13ifvqbo0","pricing_plan_id":"cebpf4jnsgd1na2vs0mg"},{"bike_id":"81220ab9-fb8e-4638-a084-692a6595df85","system_id":"levelo_inurba_marseille","lat":43.26177,"lon":5.42072,"is_reserved":false,"is_disabled":false,"rental_uris":{"android":"levelo://app?vid=81220ab9-fb8e-4638-a084-692a6595df85","ios":"levelo://app?vid=81220ab9-fb8e-4638-a084-692a6595df85"},"vehicle_type_id":"4","last_reported":1741288040,"current_range_meters":8800,"station_id":"","pricing_plan_id":"cebpf4jnsgd1na2vs0mg"},{"bike_id":"e5e35869-8407-4767-b62b-86cdda42312a","system_id":"levelo_inurba_marseille","lat":43.2985,"lon":5.36285,"is_reserved":false,"is_disabled":false,"rental_uris":{"android":"levelo://app?vid=e5e35869-8407-4767-b62b-86cdda42312a","ios":"levelo://app?vid=e5e35869-8407-4767-b62b-86cdda42312a"},"vehicle_type_id":"4","last_reported":1741288040,"current_range_meters":8800,"station_id":"ce4bgpp2rcd13ifvqc3g","pricing_plan_id":"cebpf4jnsgd1na2vs0mg"},{"bike_id":"23973cd3-6d83-43dc-a4ba-3c088c29f533","system_id":"levelo_inurba_marseille","lat":43.2438,"lon":5.37062,"is_reserved":false,"is_disabled":false,"rental_uris":{"android":"levelo://app?vid=23973cd3-6d83-43dc-a4ba-3c088c29f533","ios":"levelo://app?vid=23973cd3-6d83-43dc-a4ba-3c088c29f533"},"vehicle_type_id":"4","last_reported":1741288040,"current_range_meters":8800,"station_id":"ce4bhhh2rcd13ifvqfk0","pricing_plan_id":"cebpf4jnsgd1na2vs0mg"},{"bike_id":"36f9c09d-1267-474b-8ea9-678c6522e05d","system_id":"levelo_inurba_marseille","lat":43.30891,"lon":5.37198,"is_reserved":false,"is_disabled":false,"rental_uris":{"android":"levelo://app?vid=36f9c09d-1267-474b-8ea9-678c6522e05d","ios":"levelo://app?vid=36f9c09d-1267-474b-8ea9-678c6522e05d"},"vehicle_type_id":"4","last_reported":1741288040,"current_range_meters":9200,"station_id":"ce4bguh2rcd13ifvqckg","pricing_plan_id":"cebpf4jnsgd1na2vs0mg"},{"bike_id":"a5a4b5f7-af1d-4cbb-96c0-ed7082a89574","system_id":"levelo_inurba_marseille","lat":43.28668,"lon":5.38654,"is_reserved":false,"is_disabled":false,"rental_uris":{"android":"levelo://app?vid=a5a4b5f7-af1d-4cbb-96c0-ed7082a89574","ios":"levelo://app?vid=a5a4b5f7-af1d-4cbb-96c0-ed7082a89574"},"vehicle_type_id":"4","last_reported":1741288040,"current_range_meters":9200,"station_id":"ce4bh492rcd13ifvqdug","pricing_plan_id":"cebpf4jnsgd1na2vs0mg"},{"bike_id":"3c5e0350-07a6-4d3d-b526-00ffb41b6d3e","system_id":"levelo_inurba_marseille","lat":43.27946,"lon":5.41043,"is_reserved":false,"is_disabled":false,"rental_uris":{"android":"levelo://app?vid=3c5e0350-07a6-4d3d-b526-00ffb41b6d3e","ios":"levelo://app?vid=3c5e0350-07a6-4d3d-b526-00ffb41b6d3e"},"vehicle_type_id":"4","last_reported":1741288040,"current_range_meters":9200,"station_id":"ce4bhnp2rcd13ifvqh0g","pricing_plan_id":"cebpf4jnsgd1na2vs0mg"},{"bike_id":"679c7f74-4ce0-477f-9136-7002a38ab6b0","system_id":"levelo_inurba_marseille","lat":43.32657,"lon":5.40995,"is_reserved":false,"is_disabled":false,"rental_uris":{"android":"levelo://app?vid=679c7f74-4ce0-477f-9136-7002a38ab6b0","ios":"levelo://app?vid=679c7f74-4ce0-477f-9136-7002a38ab6b0"},"vehicle_type_id":"4","last_reported":1741288040,"current_range_meters":9200,"station_id":"ce4bhpp2rcd13ifvqhgg","pricing_plan_id":"cebpf4jnsgd1na2vs0mg"},{"bike_id":"40c94d0a-1fc9-41d3-a412-c8d9def6d024","system_id":"levelo_inurba_marseille","lat":43.28436,"lon":5.39216,"is_reserved":false,"is_disabled":false,"rental_uris":{"android":"levelo://app?vid=40c94d0a-1fc9-41d3-a412-c8d9def6d024","ios":"levelo://app?vid=40c94d0a-1fc9-41d3-a412-c8d9def6d024"},"vehicle_type_id":"4","last_reported":1741288040,"current_range_meters":9200,"station_id":"ce4bhoh2rcd13ifvqh5g","pricing_plan_id":"cebpf4jnsgd1na2vs0mg"},{"bike_id":"7f1905bf-da4d-4f13-af14-c5d46804e585","system_id":"levelo_inurba_marseille","lat":43.23184,"lon":5.35563,"is_reserved":false,"is_disabled":false,"rental_uris":{"android":"levelo://app?vid=7f1905bf-da4d-4f13-af14-c5d46804e585","ios":"levelo://app?vid=7f1905bf-da4d-4f13-af14-c5d46804e585"},"vehicle_type_id":"4","last_reported":1741288040,"current_range_meters":9200,"station_id":"ce4bhu92rcd13ifvqi70","pricing_plan_id":"cebpf4jnsgd1na2vs0mg"},{"bike_id":"edabaed4-d10a-4194-89d4-67c882bd8b0f","system_id":"levelo_inurba_marseille","lat":43.2923,"lon":5.36095,"is_reserved":false,"is_disabled":false,"rental_uris":{"android":"levelo://app?vid=edabaed4-d10a-4194-89d4-67c882bd8b0f","ios":"levelo://app?vid=edabaed4-d10a-4194-89d4-67c882bd8b0f"},"vehicle_type_id":"4","last_reported":1741288040,"current_range_meters":9200,"station_id":"ce4bhbh2rcd13ifvqeqg","pricing_plan_id":"cebpf4jnsgd1na2vs0mg"},{"bike_id":"c5d9a748-fb84-4751-9008-dc4467d9ed9a","system_id":"levelo_inurba_marseille","lat":43.23228,"lon":5.3555,"is_reserved":false,"is_disabled":false,"rental_uris":{"android":"levelo://app?vid=c5d9a748-fb84-4751-9008-dc4467d9ed9a","ios":"levelo://app?vid=c5d9a748-fb84-4751-9008-dc4467d9ed9a"},"vehicle_type_id":"4","last_reported":1741288040,"current_range_meters":9200,"station_id":"ce4bhu92rcd13ifvqi70","pricing_plan_id":"cebpf4jnsgd1na2vs0mg"},{"bike_id":"ea6eee3d-2c55-460c-9141-1f9bfdcb5675","system_id":"levelo_inurba_marseille","lat":43.24388,"lon":5.37059,"is_reserved":false,"is_disabled":false,"rental_uris":{"android":"levelo://app?vid=ea6eee3d-2c55-460c-9141-1f9bfdcb5675","ios":"levelo://app?vid=ea6eee3d-2c55-460c-9141-1f9bfdcb5675"},"vehicle_type_id":"4","last_reported":1741288040,"current_range_meters":9200,"station_id":"ce4bhhh2rcd13ifvqfk0","pricing_plan_id":"cebpf4jnsgd1na2vs0mg"},{"bike_id":"32d1f900-0344-4b56-aaa5-564d19ec802c","system_id":"levelo_inurba_marseille","lat":43.27936,"lon":5.41053,"is_reserved":false,"is_disabled":false,"rental_uris":{"android":"levelo://app?vid=32d1f900-0344-4b56-aaa5-564d19ec802c","ios":"levelo://app?vid=32d1f900-0344-4b56-aaa5-564d19ec802c"},"vehicle_type_id":"4","last_reported":1741288040,"current_range_meters":9200,"station_id":"ce4bhnp2rcd13ifvqh0g","pricing_plan_id":"cebpf4jnsgd1na2vs0mg"},{"bike_id":"7c939ae0-ed6f-4bd7-9c1c-c257744f8e26","system_id":"levelo_inurba_marseille","lat":43.32501,"lon":5.41107,"is_reserved":false,"is_disabled":false,"rental_uris":{"android":"levelo://app?vid=7c939ae0-ed6f-4bd7-9c1c-c257744f8e26","ios":"levelo://app?vid=7c939ae0-ed6f-4bd7-9c1c-c257744f8e26"},"vehicle_type_id":"4","last_reported":1741288040,"current_range_meters":9200,"station_id":"ce4bhpp2rcd13ifvqhgg","pricing_plan_id":"cebpf4jnsgd1na2vs0mg"},{"bike_id":"ece0fc27-b0c0-45b5-b10d-2ffe0342e001","system_id":"levelo_inurba_marseille","lat":43.2781,"lon":5.40712,"is_reserved":false,"is_disabled":false,"rental_uris":{"android":"levelo://app?vid=ece0fc27-b0c0-45b5-b10d-2ffe0342e001","ios":"levelo://app?vid=ece0fc27-b0c0-45b5-b10d-2ffe0342e001"},"vehicle_type_id":"4","last_reported":1741288040,"current_range_meters":9600,"station_id":"ce4bhnh2rcd13ifvqgtg","pricing_plan_id":"cebpf4jnsgd1na2vs0mg"},{"bike_id":"c28f4cb7-95df-4866-866d-7d4dfba92055","system_id":"levelo_inurba_marseille","lat":43.27812,"lon":5.40709,"is_reserved":false,"is_disabled":false,"rental_uris":{"android":"levelo://app?vid=c28f4cb7-95df-4866-866d-7d4dfba92055","ios":"levelo://app?vid=c28f4cb7-95df-4866-866d-7d4dfba92055"},"vehicle_type_id":"4","last_reported":1741288040,"current_range_meters":9600,"station_id":"ce4bhnh2rcd13ifvqgtg","pricing_plan_id":"cebpf4jnsgd1na2vs0mg"},{"bike_id":"c262f8cf-6400-4efd-af91-c8aabadab203","system_id":"levelo_inurba_marseille","lat":43.23185,"lon":5.39992,"is_reserved":false,"is_disabled":false,"rental_uris":{"android":"levelo://app?vid=c262f8cf-6400-4efd-af91-c8aabadab203","ios":"levelo://app?vid=c262f8cf-6400-4efd-af91-c8aabadab203"},"vehicle_type_id":"4","last_reported":1741288040,"current_range_meters":9600,"station_id":"ce4bhn12rcd13ifvqgqg","pricing_plan_id":"cebpf4jnsgd1na2vs0mg"},{"bike_id":"1b34c58c-f011-43f3-baac-47c6cf7523c0","system_id":"levelo_inurba_marseille","lat":43.29928,"lon":5.43617,"is_reserved":false,"is_disabled":false,"rental_uris":{"android":"levelo://app?vid=1b34c58c-f011-43f3-baac-47c6cf7523c0","ios":"levelo://app?vid=1b34c58c-f011-43f3-baac-47c6cf7523c0"},"vehicle_type_id":"4","last_reported":1741288040,"current_range_meters":9600,"station_id":"ce4bhpp2rcd13ifvqhfg","pricing_plan_id":"cebpf4jnsgd1na2vs0mg"},{"bike_id":"3102355c-b118-4cc0-9e0e-4ed3c70cf1b4","system_id":"levelo_inurba_marseille","lat":43.2894,"lon":5.36638,"is_reserved":false,"is_disabled":false,"rental_uris":{"android":"levelo://app?vid=3102355c-b118-4cc0-9e0e-4ed3c70cf1b4","ios":"levelo://app?vid=3102355c-b118-4cc0-9e0e-4ed3c70cf1b4"},"vehicle_type_id":"4","last_reported":1741288040,"current_range_meters":9600,"station_id":"ce4bhap2rcd13ifvqek0","pricing_plan_id":"cebpf4jnsgd1na2vs0mg"},{"bike_id":"c0c0e7d1-0979-4a5e-8d52-e763072835a3","system_id":"levelo_inurba_marseille","lat":43.26804,"lon":5.4025,"is_reserved":false,"is_disabled":false,"rental_uris":{"android":"levelo://app?vid=c0c0e7d1-0979-4a5e-8d52-e763072835a3","ios":"levelo://app?vid=c0c0e7d1-0979-4a5e-8d52-e763072835a3"},"vehicle_type_id":"4","last_reported":1741288040,"current_range_meters":9600,"station_id":"ce501612rcd8frsf0b60","pricing_plan_id":"cebpf4jnsgd1na2vs0mg"},{"bike_id":"5f7bf85d-6244-4650-8527-7f59a902fc40","system_id":"levelo_inurba_marseille","lat":43.29257,"lon":5.38448,"is_reserved":false,"is_disabled":false,"rental_uris":{"android":"levelo://app?vid=5f7bf85d-6244-4650-8527-7f59a902fc40","ios":"levelo://app?vid=5f7bf85d-6244-4650-8527-7f59a902fc40"},"vehicle_type_id":"4","last_reported":1741288040,"current_range_meters":9600,"station_id":"ce4bh692rcd13ifvqea0","pricing_plan_id":"cebpf4jnsgd1na2vs0mg"},{"bike_id":"73362880-09b8-4ba2-9311-be3f278d61ca","system_id":"levelo_inurba_marseille","lat":43.25502,"lon":5.37648,"is_reserved":false,"is_disabled":false,"rental_uris":{"android":"levelo://app?vid=73362880-09b8-4ba2-9311-be3f278d61ca","ios":"levelo://app?vid=73362880-09b8-4ba2-9311-be3f278d61ca"},"vehicle_type_id":"4","last_reported":1741288040,"current_range_meters":9600,"station_id":"ce4bhh12rcd13ifvqff0","pricing_plan_id":"cebpf4jnsgd1na2vs0mg"},{"bike_id":"6fd708a1-6fe3-42af-8b13-a41ed31d8dcd","system_id":"levelo_inurba_marseille","lat":43.29203,"lon":5.36066,"is_reserved":false,"is_disabled":false,"rental_uris":{"android":"levelo://app?vid=6fd708a1-6fe3-42af-8b13-a41ed31d8dcd","ios":"levelo://app?vid=6fd708a1-6fe3-42af-8b13-a41ed31d8dcd"},"vehicle_type_id":"4","last_reported":1741288040,"current_range_meters":9600,"station_id":"ce4bhbh2rcd13ifvqeqg","pricing_plan_id":"cebpf4jnsgd1na2vs0mg"},{"bike_id":"a6a152b5-8aab-4c82-b82d-e07034bbdf6f","system_id":"levelo_inurba_marseille","lat":43.29905,"lon":5.43654,"is_reserved":false,"is_disabled":false,"rental_uris":{"android":"levelo://app?vid=a6a152b5-8aab-4c82-b82d-e07034bbdf6f","ios":"levelo://app?vid=a6a152b5-8aab-4c82-b82d-e07034bbdf6f"},"vehicle_type_id":"4","last_reported":1741288040,"current_range_meters":10000,"station_id":"ce4bhpp2rcd13ifvqhfg","pricing_plan_id":"cebpf4jnsgd1na2vs0mg"},{"bike_id":"c755d43e-7f00-4887-b50a-4a7b8baf19f8","system_id":"levelo_inurba_marseille","lat":43.27562,"lon":5.38433,"is_reserved":false,"is_disabled":false,"rental_uris":{"android":"levelo://app?vid=c755d43e-7f00-4887-b50a-4a7b8baf19f8","ios":"levelo://app?vid=c755d43e-7f00-4887-b50a-4a7b8baf19f8"},"vehicle_type_id":"4","last_reported":1741288040,"current_range_meters":9600,"station_id":"ce4bhh92rcd13ifvqfi0","pricing_plan_id":"cebpf4jnsgd1na2vs0mg"},{"bike_id":"d9b4e821-0c42-42c8-b88c-ec7f1d7ab942","system_id":"levelo_inurba_marseille","lat":43.24072,"lon":5.37723,"is_reserved":false,"is_disabled":false,"rental_uris":{"android":"levelo://app?vid=d9b4e821-0c42-42c8-b88c-ec7f1d7ab942","ios":"levelo://app?vid=d9b4e821-0c42-42c8-b88c-ec7f1d7ab942"},"vehicle_type_id":"4","last_reported":1741288040,"current_range_meters":10000,"station_id":"ce4bhnp2rcd13ifvqgvg","pricing_plan_id":"cebpf4jnsgd1na2vs0mg"},{"bike_id":"e6974836-95c1-42aa-8242-455133048dfc","system_id":"levelo_inurba_marseille","lat":43.27788,"lon":5.407,"is_reserved":false,"is_disabled":false,"rental_uris":{"android":"levelo://app?vid=e6974836-95c1-42aa-8242-455133048dfc","ios":"levelo://app?vid=e6974836-95c1-42aa-8242-455133048dfc"},"vehicle_type_id":"4","last_reported":1741288040,"current_range_meters":10000,"station_id":"ce4bhnh2rcd13ifvqgtg","pricing_plan_id":"cebpf4jnsgd1na2vs0mg"},{"bike_id":"ac35eafe-694d-4f2e-8a01-27a84122fe0b","system_id":"levelo_inurba_marseille","lat":43.31505,"lon":5.39093,"is_reserved":false,"is_disabled":false,"rental_uris":{"android":"levelo://app?vid=ac35eafe-694d-4f2e-8a01-27a84122fe0b","ios":"levelo://app?vid=ac35eafe-694d-4f2e-8a01-27a84122fe0b"},"vehicle_type_id":"4","last_reported":1741288040,"current_range_meters":10000,"station_id":"","pricing_plan_id":"cebpf4jnsgd1na2vs0mg"},{"bike_id":"f927a9c8-5d84-472f-b8fd-88f2fc3bc3e6","system_id":"levelo_inurba_marseille","lat":43.29899,"lon":5.43712,"is_reserved":false,"is_disabled":false,"rental_uris":{"android":"levelo://app?vid=f927a9c8-5d84-472f-b8fd-88f2fc3bc3e6","ios":"levelo://app?vid=f927a9c8-5d84-472f-b8fd-88f2fc3bc3e6"},"vehicle_type_id":"4","last_reported":1741288040,"current_range_meters":10000,"station_id":"ce4bhpp2rcd13ifvqhfg","pricing_plan_id":"cebpf4jnsgd1na2vs0mg"},{"bike_id":"72b2c94b-f07a-43ce-9b67-7b7b6c9a789a","system_id":"levelo_inurba_marseille","lat":43.30796,"lon":5.43522,"is_reserved":false,"is_disabled":false,"rental_uris":{"android":"levelo://app?vid=72b2c94b-f07a-43ce-9b67-7b7b6c9a789a","ios":"levelo://app?vid=72b2c94b-f07a-43ce-9b67-7b7b6c9a789a"},"vehicle_type_id":"4","last_reported":1741288040,"current_range_meters":10000,"station_id":"ce4bhph2rcd13ifvqheg","pricing_plan_id":"cebpf4jnsgd1na2vs0mg"},{"bike_id":"fc015b68-0e75-44d3-9c95-c4808cb32a5b","system_id":"levelo_inurba_marseille","lat":43.29552,"lon":5.42263,"is_reserved":false,"is_disabled":false,"rental_uris":{"android":"levelo://app?vid=fc015b68-0e75-44d3-9c95-c4808cb32a5b","ios":"levelo://app?vid=fc015b68-0e75-44d3-9c95-c4808cb32a5b"},"vehicle_type_id":"4","last_reported":1741288040,"current_range_meters":10000,"station_id":"ce4bhph2rcd13ifvqhdg","pricing_plan_id":"cebpf4jnsgd1na2vs0mg"},{"bike_id":"2e465f2c-1791-4f63-9cf1-d363ad936f7f","system_id":"levelo_inurba_marseille","lat":43.28616,"lon":5.35099,"is_reserved":false,"is_disabled":true,"rental_uris":{"android":"levelo://app?vid=2e465f2c-1791-4f63-9cf1-d363ad936f7f","ios":"levelo://app?vid=2e465f2c-1791-4f63-9cf1-d363ad936f7f"},"vehicle_type_id":"4","last_reported":1741288040,"current_range_meters":10000,"station_id":"ce4bhch2rcd13ifvqeug","pricing_plan_id":"cebpf4jnsgd1na2vs0mg"},{"bike_id":"0aed1368-9058-4cd7-9d7a-1842c9f2c003","system_id":"levelo_inurba_marseille","lat":43.29543,"lon":5.4228,"is_reserved":false,"is_disabled":false,"rental_uris":{"android":"levelo://app?vid=0aed1368-9058-4cd7-9d7a-1842c9f2c003","ios":"levelo://app?vid=0aed1368-9058-4cd7-9d7a-1842c9f2c003"},"vehicle_type_id":"4","last_reported":1741288040,"current_range_meters":10000,"station_id":"ce4bhph2rcd13ifvqhdg","pricing_plan_id":"cebpf4jnsgd1na2vs0mg"},{"bike_id":"97a05247-5721-447e-88b3-2c304093b592","system_id":"levelo_inurba_marseille","lat":43.29265,"lon":5.38428,"is_reserved":false,"is_disabled":false,"rental_uris":{"android":"levelo://app?vid=97a05247-5721-447e-88b3-2c304093b592","ios":"levelo://app?vid=97a05247-5721-447e-88b3-2c304093b592"},"vehicle_type_id":"4","last_reported":1741288040,"current_range_meters":10000,"station_id":"ce4bh692rcd13ifvqea0","pricing_plan_id":"cebpf4jnsgd1na2vs0mg"},{"bike_id":"b2c94af5-bdff-4efc-819d-12cc6aa4c843","system_id":"levelo_inurba_marseille","lat":43.24065,"lon":5.3776,"is_reserved":false,"is_disabled":false,"rental_uris":{"android":"levelo://app?vid=b2c94af5-bdff-4efc-819d-12cc6aa4c843","ios":"levelo://app?vid=b2c94af5-bdff-4efc-819d-12cc6aa4c843"},"vehicle_type_id":"4","last_reported":1741288040,"current_range_meters":10800,"station_id":"ce4bhnp2rcd13ifvqgvg","pricing_plan_id":"cebpf4jnsgd1na2vs0mg"},{"bike_id":"3d66c2fb-a05b-4d2b-aa0a-d9b4207a54c0","system_id":"levelo_inurba_marseille","lat":43.31265,"lon":5.40178,"is_reserved":false,"is_disabled":false,"rental_uris":{"android":"levelo://app?vid=3d66c2fb-a05b-4d2b-aa0a-d9b4207a54c0","ios":"levelo://app?vid=3d66c2fb-a05b-4d2b-aa0a-d9b4207a54c0"},"vehicle_type_id":"4","last_reported":1741288040,"current_range_meters":10800,"station_id":"ce4bh092rcd13ifvqd30","pricing_plan_id":"cebpf4jnsgd1na2vs0mg"},{"bike_id":"fd861d10-43b0-46dd-bd6b-4683aeb97e79","system_id":"levelo_inurba_marseille","lat":43.29273,"lon":5.3685,"is_reserved":false,"is_disabled":false,"rental_uris":{"android":"levelo://app?vid=fd861d10-43b0-46dd-bd6b-4683aeb97e79","ios":"levelo://app?vid=fd861d10-43b0-46dd-bd6b-4683aeb97e79"},"vehicle_type_id":"4","last_reported":1741288040,"current_range_meters":10800,"station_id":"ce4bhbp2rcd13ifvqesg","pricing_plan_id":"cebpf4jnsgd1na2vs0mg"},{"bike_id":"0236009d-b83e-4481-b97e-6a8e1f189885","system_id":"levelo_inurba_marseille","lat":43.29804,"lon":5.38156,"is_reserved":false,"is_disabled":false,"rental_uris":{"android":"levelo://app?vid=0236009d-b83e-4481-b97e-6a8e1f189885","ios":"levelo://app?vid=0236009d-b83e-4481-b97e-6a8e1f189885"},"vehicle_type_id":"4","last_reported":1741288040,"current_range_meters":10800,"station_id":"ce4bgip2rcd13ifvqbb0","pricing_plan_id":"cebpf4jnsgd1na2vs0mg"},{"bike_id":"6016bdb3-4e9f-416b-88df-1ab71f5d0176","system_id":"levelo_inurba_marseille","lat":43.31333,"lon":5.39701,"is_reserved":false,"is_disabled":false,"rental_uris":{"android":"levelo://app?vid=6016bdb3-4e9f-416b-88df-1ab71f5d0176","ios":"levelo://app?vid=6016bdb3-4e9f-416b-88df-1ab71f5d0176"},"vehicle_type_id":"4","last_reported":1741288040,"current_range_meters":10800,"station_id":"ce4bgvp2rcd13ifvqcu0","pricing_plan_id":"cebpf4jnsgd1na2vs0mg"},{"bike_id":"ff3228ef-c722-4531-aa41-dd0456ac2a39","system_id":"levelo_inurba_marseille","lat":43.23185,"lon":5.39987,"is_reserved":false,"is_disabled":false,"rental_uris":{"android":"levelo://app?vid=ff3228ef-c722-4531-aa41-dd0456ac2a39","ios":"levelo://app?vid=ff3228ef-c722-4531-aa41-dd0456ac2a39"},"vehicle_type_id":"4","last_reported":1741288040,"current_range_meters":10800,"station_id":"ce4bhn12rcd13ifvqgqg","pricing_plan_id":"cebpf4jnsgd1na2vs0mg"},{"bike_id":"d0d1b861-fc7b-4e26-bf94-3473241b8993","system_id":"levelo_inurba_marseille","lat":43.232,"lon":5.40007,"is_reserved":false,"is_disabled":false,"rental_uris":{"android":"levelo://app?vid=d0d1b861-fc7b-4e26-bf94-3473241b8993","ios":"levelo://app?vid=d0d1b861-fc7b-4e26-bf94-3473241b8993"},"vehicle_type_id":"4","last_reported":1741288040,"current_range_meters":10800,"station_id":"ce4bhn12rcd13ifvqgqg","pricing_plan_id":"cebpf4jnsgd1na2vs0mg"},{"bike_id":"2c52f924-7d19-4c01-aa30-972c417dceac","system_id":"levelo_inurba_marseille","lat":43.2834,"lon":5.38113,"is_reserved":false,"is_disabled":false,"rental_uris":{"android":"levelo://app?vid=2c52f924-7d19-4c01-aa30-972c417dceac","ios":"levelo://app?vid=2c52f924-7d19-4c01-aa30-972c417dceac"},"vehicle_type_id":"4","last_reported":1741288040,"current_range_meters":10800,"station_id":"ce4bh412rcd13ifvqdr0","pricing_plan_id":"cebpf4jnsgd1na2vs0mg"},{"bike_id":"2184aaa4-c79a-4050-b8c9-a39c7017d650","system_id":"levelo_inurba_marseille","lat":43.29897,"lon":5.43671,"is_reserved":false,"is_disabled":false,"rental_uris":{"android":"levelo://app?vid=2184aaa4-c79a-4050-b8c9-a39c7017d650","ios":"levelo://app?vid=2184aaa4-c79a-4050-b8c9-a39c7017d650"},"vehicle_type_id":"4","last_reported":1741288040,"current_range_meters":10800,"station_id":"ce4bhpp2rcd13ifvqhfg","pricing_plan_id":"cebpf4jnsgd1na2vs0mg"},{"bike_id":"0e90f4f5-e529-4169-8fe2-0c2d000db9d7","system_id":"levelo_inurba_marseille","lat":43.25573,"lon":5.38232,"is_reserved":false,"is_disabled":false,"rental_uris":{"android":"levelo://app?vid=0e90f4f5-e529-4169-8fe2-0c2d000db9d7","ios":"levelo://app?vid=0e90f4f5-e529-4169-8fe2-0c2d000db9d7"},"vehicle_type_id":"4","last_reported":1741288040,"current_range_meters":10800,"station_id":"ce4bhih2rcd13ifvqfs0","pricing_plan_id":"cebpf4jnsgd1na2vs0mg"},{"bike_id":"35a472ec-3549-4e4c-912e-efd3d4ea7543","system_id":"levelo_inurba_marseille","lat":43.29706,"lon":5.36586,"is_reserved":false,"is_disabled":false,"rental_uris":{"android":"levelo://app?vid=35a472ec-3549-4e4c-912e-efd3d4ea7543","ios":"levelo://app?vid=35a472ec-3549-4e4c-912e-efd3d4ea7543"},"vehicle_type_id":"4","last_reported":1741288040,"current_range_meters":11200,"station_id":"ce4bgn12rcd13ifvqbt0","pricing_plan_id":"cebpf4jnsgd1na2vs0mg"},{"bike_id":"6152b505-bdaa-4154-9904-8e28b1c35e0b","system_id":"levelo_inurba_marseille","lat":43.27813,"lon":5.40713,"is_reserved":false,"is_disabled":false,"rental_uris":{"android":"levelo://app?vid=6152b505-bdaa-4154-9904-8e28b1c35e0b","ios":"levelo://app?vid=6152b505-bdaa-4154-9904-8e28b1c35e0b"},"vehicle_type_id":"4","last_reported":1741288040,"current_range_meters":10800,"station_id":"ce4bhnh2rcd13ifvqgtg","pricing_plan_id":"cebpf4jnsgd1na2vs0mg"},{"bike_id":"357f6b0d-7429-4870-b5b1-c540923d954d","system_id":"levelo_inurba_marseille","lat":43.23075,"lon":5.35497,"is_reserved":false,"is_disabled":false,"rental_uris":{"android":"levelo://app?vid=357f6b0d-7429-4870-b5b1-c540923d954d","ios":"levelo://app?vid=357f6b0d-7429-4870-b5b1-c540923d954d"},"vehicle_type_id":"4","last_reported":1741288040,"current_range_meters":10800,"station_id":"cpo3342slgdg3j2ifvpg","pricing_plan_id":"cebpf4jnsgd1na2vs0mg"},{"bike_id":"cabb07a6-46a1-4c80-8c0e-246d39f3c13d","system_id":"levelo_inurba_marseille","lat":43.29243,"lon":5.38432,"is_reserved":false,"is_disabled":true,"rental_uris":{"android":"levelo://app?vid=cabb07a6-46a1-4c80-8c0e-246d39f3c13d","ios":"levelo://app?vid=cabb07a6-46a1-4c80-8c0e-246d39f3c13d"},"vehicle_type_id":"4","last_reported":1741288040,"current_range_meters":10800,"station_id":"ce4bh692rcd13ifvqea0","pricing_plan_id":"cebpf4jnsgd1na2vs0mg"},{"bike_id":"296eb840-e482-48be-8297-a6cabf40a009","system_id":"levelo_inurba_marseille","lat":43.30589,"lon":5.3724,"is_reserved":false,"is_disabled":false,"rental_uris":{"android":"levelo://app?vid=296eb840-e482-48be-8297-a6cabf40a009","ios":"levelo://app?vid=296eb840-e482-48be-8297-a6cabf40a009"},"vehicle_type_id":"4","last_reported":1741288040,"current_range_meters":10800,"station_id":"ce4bgqh2rcd13ifvqc4g","pricing_plan_id":"cebpf4jnsgd1na2vs0mg"},{"bike_id":"37c27920-b361-4f2e-ac9e-e7b92ca498bc","system_id":"levelo_inurba_marseille","lat":43.28147,"lon":5.42645,"is_reserved":false,"is_disabled":false,"rental_uris":{"android":"levelo://app?vid=37c27920-b361-4f2e-ac9e-e7b92ca498bc","ios":"levelo://app?vid=37c27920-b361-4f2e-ac9e-e7b92ca498bc"},"vehicle_type_id":"4","last_reported":1741288040,"current_range_meters":11200,"station_id":"ce4bhnh2rcd13ifvqgug","pricing_plan_id":"cebpf4jnsgd1na2vs0mg"},{"bike_id":"1febbc94-cf8a-4a7e-900e-1f2ddb4b67c0","system_id":"levelo_inurba_marseille","lat":43.32339,"lon":5.40621,"is_reserved":false,"is_disabled":false,"rental_uris":{"android":"levelo://app?vid=1febbc94-cf8a-4a7e-900e-1f2ddb4b67c0","ios":"levelo://app?vid=1febbc94-cf8a-4a7e-900e-1f2ddb4b67c0"},"vehicle_type_id":"4","last_reported":1741288040,"current_range_meters":11200,"station_id":"ce4bhq92rcd13ifvqhjg","pricing_plan_id":"cebpf4jnsgd1na2vs0mg"},{"bike_id":"4f9aea12-c3ec-474b-90e7-82ed9afc20bd","system_id":"levelo_inurba_marseille","lat":43.28149,"lon":5.4265,"is_reserved":false,"is_disabled":false,"rental_uris":{"android":"levelo://app?vid=4f9aea12-c3ec-474b-90e7-82ed9afc20bd","ios":"levelo://app?vid=4f9aea12-c3ec-474b-90e7-82ed9afc20bd"},"vehicle_type_id":"4","last_reported":1741288040,"current_range_meters":10800,"station_id":"ce4bhnh2rcd13ifvqgug","pricing_plan_id":"cebpf4jnsgd1na2vs0mg"},{"bike_id":"4bb8ec19-fa9e-4bc2-9ced-8316005f4173","system_id":"levelo_inurba_marseille","lat":43.27938,"lon":5.39569,"is_reserved":false,"is_disabled":true,"rental_uris":{"android":"levelo://app?vid=4bb8ec19-fa9e-4bc2-9ced-8316005f4173","ios":"levelo://app?vid=4bb8ec19-fa9e-4bc2-9ced-8316005f4173"},"vehicle_type_id":"4","last_reported":1741288040,"current_range_meters":11200,"station_id":"ce4bhf92rcd13ifvqf40","pricing_plan_id":"cebpf4jnsgd1na2vs0mg"},{"bike_id":"702555d1-1b27-4a14-8455-df6cf07d3c8b","system_id":"levelo_inurba_marseille","lat":43.29818,"lon":5.40396,"is_reserved":false,"is_disabled":false,"rental_uris":{"android":"levelo://app?vid=702555d1-1b27-4a14-8455-df6cf07d3c8b","ios":"levelo://app?vid=702555d1-1b27-4a14-8455-df6cf07d3c8b"},"vehicle_type_id":"4","last_reported":1741288040,"current_range_meters":11200,"station_id":"ce4bh112rcd13ifvqd90","pricing_plan_id":"cebpf4jnsgd1na2vs0mg"},{"bike_id":"df4d9136-2639-4cb2-914e-74f2e0212b67","system_id":"levelo_inurba_marseille","lat":43.30124,"lon":5.38799,"is_reserved":false,"is_disabled":false,"rental_uris":{"android":"levelo://app?vid=df4d9136-2639-4cb2-914e-74f2e0212b67","ios":"levelo://app?vid=df4d9136-2639-4cb2-914e-74f2e0212b67"},"vehicle_type_id":"4","last_reported":1741288040,"current_range_meters":11200,"station_id":"ce4bghh2rcd13ifvqb60","pricing_plan_id":"cebpf4jnsgd1na2vs0mg"},{"bike_id":"c1656396-75d3-4710-ae02-7b97f2b7b124","system_id":"levelo_inurba_marseille","lat":43.28097,"lon":5.3785,"is_reserved":false,"is_disabled":false,"rental_uris":{"android":"levelo://app?vid=c1656396-75d3-4710-ae02-7b97f2b7b124","ios":"levelo://app?vid=c1656396-75d3-4710-ae02-7b97f2b7b124"},"vehicle_type_id":"4","last_reported":1741288040,"current_range_meters":11200,"station_id":"ce4bha12rcd13ifvqee0","pricing_plan_id":"cebpf4jnsgd1na2vs0mg"},{"bike_id":"e8c2da37-0000-4b54-8fb4-f1cf9133e66b","system_id":"levelo_inurba_marseille","lat":43.31322,"lon":5.39687,"is_reserved":false,"is_disabled":false,"rental_uris":{"android":"levelo://app?vid=e8c2da37-0000-4b54-8fb4-f1cf9133e66b","ios":"levelo://app?vid=e8c2da37-0000-4b54-8fb4-f1cf9133e66b"},"vehicle_type_id":"4","last_reported":1741288040,"current_range_meters":11200,"station_id":"ce4bgvp2rcd13ifvqcu0","pricing_plan_id":"cebpf4jnsgd1na2vs0mg"},{"bike_id":"a9f52ccc-daa9-402d-aaa3-e14961e3809b","system_id":"levelo_inurba_marseille","lat":43.28733,"lon":5.37943,"is_reserved":false,"is_disabled":false,"rental_uris":{"android":"levelo://app?vid=a9f52ccc-daa9-402d-aaa3-e14961e3809b","ios":"levelo://app?vid=a9f52ccc-daa9-402d-aaa3-e14961e3809b"},"vehicle_type_id":"4","last_reported":1741288040,"current_range_meters":10800,"station_id":"ce4bh9p2rcd13ifvqec0","pricing_plan_id":"cebpf4jnsgd1na2vs0mg"},{"bike_id":"f643bbf3-f968-40f0-874f-e3a9ce3cba57","system_id":"levelo_inurba_marseille","lat":43.28733,"lon":5.36101,"is_reserved":false,"is_disabled":false,"rental_uris":{"android":"levelo://app?vid=f643bbf3-f968-40f0-874f-e3a9ce3cba57","ios":"levelo://app?vid=f643bbf3-f968-40f0-874f-e3a9ce3cba57"},"vehicle_type_id":"4","last_reported":1741288040,"current_range_meters":11600,"station_id":"cki0cbj6b192h4jlfktg","pricing_plan_id":"cebpf4jnsgd1na2vs0mg"},{"bike_id":"688b3ed7-0cda-457f-a90e-f4b2f9150ab2","system_id":"levelo_inurba_marseille","lat":43.28668,"lon":5.36344,"is_reserved":false,"is_disabled":false,"rental_uris":{"android":"levelo://app?vid=688b3ed7-0cda-457f-a90e-f4b2f9150ab2","ios":"levelo://app?vid=688b3ed7-0cda-457f-a90e-f4b2f9150ab2"},"vehicle_type_id":"4","last_reported":1741288040,"current_range_meters":11600,"station_id":"ce4bhah2rcd13ifvqej0","pricing_plan_id":"cebpf4jnsgd1na2vs0mg"},{"bike_id":"fd6bf063-8e87-4ef4-9a46-6d05f0a76ef1","system_id":"levelo_inurba_marseille","lat":43.32655,"lon":5.41002,"is_reserved":false,"is_disabled":false,"rental_uris":{"android":"levelo://app?vid=fd6bf063-8e87-4ef4-9a46-6d05f0a76ef1","ios":"levelo://app?vid=fd6bf063-8e87-4ef4-9a46-6d05f0a76ef1"},"vehicle_type_id":"4","last_reported":1741288040,"current_range_meters":11600,"station_id":"ce4bhpp2rcd13ifvqhgg","pricing_plan_id":"cebpf4jnsgd1na2vs0mg"},{"bike_id":"7aec6485-40f5-472e-8a34-0c0c217518ca","system_id":"levelo_inurba_marseille","lat":43.29253,"lon":5.38443,"is_reserved":false,"is_disabled":false,"rental_uris":{"android":"levelo://app?vid=7aec6485-40f5-472e-8a34-0c0c217518ca","ios":"levelo://app?vid=7aec6485-40f5-472e-8a34-0c0c217518ca"},"vehicle_type_id":"4","last_reported":1741288040,"current_range_meters":11600,"station_id":"ce4bh692rcd13ifvqea0","pricing_plan_id":"cebpf4jnsgd1na2vs0mg"},{"bike_id":"a154972e-1b21-457e-9ce0-d42cc93d36db","system_id":"levelo_inurba_marseille","lat":43.291927,"lon":5.393093,"is_reserved":false,"is_disabled":false,"rental_uris":{"android":"levelo://app?vid=a154972e-1b21-457e-9ce0-d42cc93d36db","ios":"levelo://app?vid=a154972e-1b21-457e-9ce0-d42cc93d36db"},"vehicle_type_id":"4","last_reported":1741288040,"current_range_meters":11600,"station_id":"ce4bh192rcd13ifvqdd0","pricing_plan_id":"cebpf4jnsgd1na2vs0mg"},{"bike_id":"6603ede6-0fc3-402a-a7f1-4867ec6d1183","system_id":"levelo_inurba_marseille","lat":43.28943,"lon":5.36658,"is_reserved":false,"is_disabled":false,"rental_uris":{"android":"levelo://app?vid=6603ede6-0fc3-402a-a7f1-4867ec6d1183","ios":"levelo://app?vid=6603ede6-0fc3-402a-a7f1-4867ec6d1183"},"vehicle_type_id":"4","last_reported":1741288040,"current_range_meters":11200,"station_id":"ce4bhap2rcd13ifvqek0","pricing_plan_id":"cebpf4jnsgd1na2vs0mg"},{"bike_id":"862997bb-99b0-481d-930c-4929d29ffa0a","system_id":"levelo_inurba_marseille","lat":43.27071,"lon":5.42278,"is_reserved":false,"is_disabled":false,"rental_uris":{"android":"levelo://app?vid=862997bb-99b0-481d-930c-4929d29ffa0a","ios":"levelo://app?vid=862997bb-99b0-481d-930c-4929d29ffa0a"},"vehicle_type_id":"4","last_reported":1741288040,"current_range_meters":11600,"station_id":"ce4bhk92rcd13ifvqgb0","pricing_plan_id":"cebpf4jnsgd1na2vs0mg"},{"bike_id":"1f7c4bb1-0194-47d1-be3c-0a052d75d078","system_id":"levelo_inurba_marseille","lat":43.30882,"lon":5.39647,"is_reserved":false,"is_disabled":false,"rental_uris":{"android":"levelo://app?vid=1f7c4bb1-0194-47d1-be3c-0a052d75d078","ios":"levelo://app?vid=1f7c4bb1-0194-47d1-be3c-0a052d75d078"},"vehicle_type_id":"4","last_reported":1741288040,"current_range_meters":11600,"station_id":"ce4bh012rcd13ifvqcv0","pricing_plan_id":"cebpf4jnsgd1na2vs0mg"},{"bike_id":"6d879114-1a23-4268-b087-befdc259ce98","system_id":"levelo_inurba_marseille","lat":43.251187,"lon":5.403161,"is_reserved":false,"is_disabled":false,"rental_uris":{"android":"levelo://app?vid=6d879114-1a23-4268-b087-befdc259ce98","ios":"levelo://app?vid=6d879114-1a23-4268-b087-befdc259ce98"},"vehicle_type_id":"4","last_reported":1741288040,"current_range_meters":12000,"station_id":"ce4bhlh2rcd13ifvqgig","pricing_plan_id":"cebpf4jnsgd1na2vs0mg"},{"bike_id":"549f0e20-712f-455b-8868-0f3f9588d3f7","system_id":"levelo_inurba_marseille","lat":43.23183,"lon":5.39978,"is_reserved":false,"is_disabled":false,"rental_uris":{"android":"levelo://app?vid=549f0e20-712f-455b-8868-0f3f9588d3f7","ios":"levelo://app?vid=549f0e20-712f-455b-8868-0f3f9588d3f7"},"vehicle_type_id":"4","last_reported":1741288040,"current_range_meters":12000,"station_id":"ce4bhn12rcd13ifvqgqg","pricing_plan_id":"cebpf4jnsgd1na2vs0mg"},{"bike_id":"d015e1e7-8b4f-4898-a841-104d62c0d9ad","system_id":"levelo_inurba_marseille","lat":43.23193,"lon":5.3997,"is_reserved":false,"is_disabled":false,"rental_uris":{"android":"levelo://app?vid=d015e1e7-8b4f-4898-a841-104d62c0d9ad","ios":"levelo://app?vid=d015e1e7-8b4f-4898-a841-104d62c0d9ad"},"vehicle_type_id":"4","last_reported":1741288040,"current_range_meters":12000,"station_id":"ce4bhn12rcd13ifvqgqg","pricing_plan_id":"cebpf4jnsgd1na2vs0mg"},{"bike_id":"03341ac4-86bb-44de-bc88-ab4a56fc83d3","system_id":"levelo_inurba_marseille","lat":43.28042,"lon":5.36926,"is_reserved":false,"is_disabled":false,"rental_uris":{"android":"levelo://app?vid=03341ac4-86bb-44de-bc88-ab4a56fc83d3","ios":"levelo://app?vid=03341ac4-86bb-44de-bc88-ab4a56fc83d3"},"vehicle_type_id":"4","last_reported":1741288040,"current_range_meters":12000,"station_id":"ce4bha12rcd13ifvqef0","pricing_plan_id":"cebpf4jnsgd1na2vs0mg"},{"bike_id":"60d92ef0-a063-4fae-9002-1dd32b156a57","system_id":"levelo_inurba_marseille","lat":43.29207,"lon":5.36073,"is_reserved":false,"is_disabled":false,"rental_uris":{"android":"levelo://app?vid=60d92ef0-a063-4fae-9002-1dd32b156a57","ios":"levelo://app?vid=60d92ef0-a063-4fae-9002-1dd32b156a57"},"vehicle_type_id":"4","last_reported":1741288040,"current_range_meters":12000,"station_id":"ce4bhbh2rcd13ifvqeqg","pricing_plan_id":"cebpf4jnsgd1na2vs0mg"},{"bike_id":"4c4f40ce-b677-4958-a34a-41f58f94190b","system_id":"levelo_inurba_marseille","lat":43.23168,"lon":5.39988,"is_reserved":false,"is_disabled":false,"rental_uris":{"android":"levelo://app?vid=4c4f40ce-b677-4958-a34a-41f58f94190b","ios":"levelo://app?vid=4c4f40ce-b677-4958-a34a-41f58f94190b"},"vehicle_type_id":"4","last_reported":1741288040,"current_range_meters":12400,"station_id":"ce4bhn12rcd13ifvqgqg","pricing_plan_id":"cebpf4jnsgd1na2vs0mg"},{"bike_id":"450fec99-cedd-4c3b-a355-1b95b571f4ec","system_id":"levelo_inurba_marseille","lat":43.27954,"lon":5.41058,"is_reserved":false,"is_disabled":false,"rental_uris":{"android":"levelo://app?vid=450fec99-cedd-4c3b-a355-1b95b571f4ec","ios":"levelo://app?vid=450fec99-cedd-4c3b-a355-1b95b571f4ec"},"vehicle_type_id":"4","last_reported":1741288040,"current_range_meters":12400,"station_id":"ce4bhnp2rcd13ifvqh0g","pricing_plan_id":"cebpf4jnsgd1na2vs0mg"},{"bike_id":"9f0f0224-b72b-4ee3-a38d-b5ba80204629","system_id":"levelo_inurba_marseille","lat":43.23189,"lon":5.35566,"is_reserved":false,"is_disabled":false,"rental_uris":{"android":"levelo://app?vid=9f0f0224-b72b-4ee3-a38d-b5ba80204629","ios":"levelo://app?vid=9f0f0224-b72b-4ee3-a38d-b5ba80204629"},"vehicle_type_id":"4","last_reported":1741288040,"current_range_meters":12400,"station_id":"ce4bhu92rcd13ifvqi70","pricing_plan_id":"cebpf4jnsgd1na2vs0mg"},{"bike_id":"c16ccb51-1ff7-4b93-8e4d-d5c1c6809677","system_id":"levelo_inurba_marseille","lat":43.30404,"lon":5.41279,"is_reserved":false,"is_disabled":false,"rental_uris":{"android":"levelo://app?vid=c16ccb51-1ff7-4b93-8e4d-d5c1c6809677","ios":"levelo://app?vid=c16ccb51-1ff7-4b93-8e4d-d5c1c6809677"},"vehicle_type_id":"4","last_reported":1741288040,"current_range_meters":12400,"station_id":"ce4bhop2rcd13ifvqh8g","pricing_plan_id":"cebpf4jnsgd1na2vs0mg"},{"bike_id":"ac8f1aad-ac5d-4ca9-acd0-7e13c7b9c1c5","system_id":"levelo_inurba_marseille","lat":43.27563,"lon":5.38433,"is_reserved":false,"is_disabled":false,"rental_uris":{"android":"levelo://app?vid=ac8f1aad-ac5d-4ca9-acd0-7e13c7b9c1c5","ios":"levelo://app?vid=ac8f1aad-ac5d-4ca9-acd0-7e13c7b9c1c5"},"vehicle_type_id":"4","last_reported":1741288040,"current_range_meters":12400,"station_id":"ce4bhh92rcd13ifvqfi0","pricing_plan_id":"cebpf4jnsgd1na2vs0mg"},{"bike_id":"be9b83a6-6264-4fb1-973d-988ca67efbc5","system_id":"levelo_inurba_marseille","lat":43.2895,"lon":5.36632,"is_reserved":false,"is_disabled":false,"rental_uris":{"android":"levelo://app?vid=be9b83a6-6264-4fb1-973d-988ca67efbc5","ios":"levelo://app?vid=be9b83a6-6264-4fb1-973d-988ca67efbc5"},"vehicle_type_id":"4","last_reported":1741288040,"current_range_meters":12400,"station_id":"ce4bhap2rcd13ifvqek0","pricing_plan_id":"cebpf4jnsgd1na2vs0mg"},{"bike_id":"6b823cd9-6884-4089-a6b1-788568d48c6a","system_id":"levelo_inurba_marseille","lat":43.29785,"lon":5.39344,"is_reserved":false,"is_disabled":false,"rental_uris":{"android":"levelo://app?vid=6b823cd9-6884-4089-a6b1-788568d48c6a","ios":"levelo://app?vid=6b823cd9-6884-4089-a6b1-788568d48c6a"},"vehicle_type_id":"4","last_reported":1741288040,"current_range_meters":12400,"station_id":"chh1huq6cuj3fo74tm60","pricing_plan_id":"cebpf4jnsgd1na2vs0mg"},{"bike_id":"fcae6bd0-5750-4715-bf9a-89225188d7e8","system_id":"levelo_inurba_marseille","lat":43.31059,"lon":5.38354,"is_reserved":false,"is_disabled":false,"rental_uris":{"android":"levelo://app?vid=fcae6bd0-5750-4715-bf9a-89225188d7e8","ios":"levelo://app?vid=fcae6bd0-5750-4715-bf9a-89225188d7e8"},"vehicle_type_id":"4","last_reported":1741288040,"current_range_meters":12800,"station_id":"ce4bgv92rcd13ifvqcr0","pricing_plan_id":"cebpf4jnsgd1na2vs0mg"},{"bike_id":"396ef886-32f5-49c3-af2d-0edbd02c0ead","system_id":"levelo_inurba_marseille","lat":43.29299,"lon":5.37456,"is_reserved":false,"is_disabled":false,"rental_uris":{"android":"levelo://app?vid=396ef886-32f5-49c3-af2d-0edbd02c0ead","ios":"levelo://app?vid=396ef886-32f5-49c3-af2d-0edbd02c0ead"},"vehicle_type_id":"4","last_reported":1741288040,"current_range_meters":12800,"station_id":"ce4bgi12rcd13ifvqb70","pricing_plan_id":"cebpf4jnsgd1na2vs0mg"},{"bike_id":"6813769b-3a6f-4713-af02-ebbb93dcc205","system_id":"levelo_inurba_marseille","lat":43.31062,"lon":5.38344,"is_reserved":false,"is_disabled":false,"rental_uris":{"android":"levelo://app?vid=6813769b-3a6f-4713-af02-ebbb93dcc205","ios":"levelo://app?vid=6813769b-3a6f-4713-af02-ebbb93dcc205"},"vehicle_type_id":"4","last_reported":1741288040,"current_range_meters":12800,"station_id":"ce4bgv92rcd13ifvqcr0","pricing_plan_id":"cebpf4jnsgd1na2vs0mg"},{"bike_id":"ad5fb7ad-ba47-4edd-b772-4e61664aca22","system_id":"levelo_inurba_marseille","lat":43.29224,"lon":5.36075,"is_reserved":false,"is_disabled":false,"rental_uris":{"android":"levelo://app?vid=ad5fb7ad-ba47-4edd-b772-4e61664aca22","ios":"levelo://app?vid=ad5fb7ad-ba47-4edd-b772-4e61664aca22"},"vehicle_type_id":"4","last_reported":1741288040,"current_range_meters":12800,"station_id":"ce4bhbh2rcd13ifvqeqg","pricing_plan_id":"cebpf4jnsgd1na2vs0mg"},{"bike_id":"2e110824-24c3-4263-8557-cb5a2c89b25b","system_id":"levelo_inurba_marseille","lat":43.25572,"lon":5.38244,"is_reserved":false,"is_disabled":false,"rental_uris":{"android":"levelo://app?vid=2e110824-24c3-4263-8557-cb5a2c89b25b","ios":"levelo://app?vid=2e110824-24c3-4263-8557-cb5a2c89b25b"},"vehicle_type_id":"4","last_reported":1741288040,"current_range_meters":12800,"station_id":"ce4bhih2rcd13ifvqfs0","pricing_plan_id":"cebpf4jnsgd1na2vs0mg"},{"bike_id":"753c3868-b740-440a-b4b0-83d6a6a96476","system_id":"levelo_inurba_marseille","lat":43.29261,"lon":5.38441,"is_reserved":false,"is_disabled":false,"rental_uris":{"android":"levelo://app?vid=753c3868-b740-440a-b4b0-83d6a6a96476","ios":"levelo://app?vid=753c3868-b740-440a-b4b0-83d6a6a96476"},"vehicle_type_id":"4","last_reported":1741288040,"current_range_meters":12800,"station_id":"ce4bh692rcd13ifvqea0","pricing_plan_id":"cebpf4jnsgd1na2vs0mg"},{"bike_id":"3aee71a7-e479-43e8-a4bf-6b6d0f74e218","system_id":"levelo_inurba_marseille","lat":43.29266,"lon":5.37632,"is_reserved":false,"is_disabled":false,"rental_uris":{"android":"levelo://app?vid=3aee71a7-e479-43e8-a4bf-6b6d0f74e218","ios":"levelo://app?vid=3aee71a7-e479-43e8-a4bf-6b6d0f74e218"},"vehicle_type_id":"4","last_reported":1741288040,"current_range_meters":13600,"station_id":"ce4bgi12rcd13ifvqb80","pricing_plan_id":"cebpf4jnsgd1na2vs0mg"},{"bike_id":"d7899a1c-6eb5-4d14-a39c-eae49ad3b796","system_id":"levelo_inurba_marseille","lat":43.31349,"lon":5.38514,"is_reserved":false,"is_disabled":false,"rental_uris":{"android":"levelo://app?vid=d7899a1c-6eb5-4d14-a39c-eae49ad3b796","ios":"levelo://app?vid=d7899a1c-6eb5-4d14-a39c-eae49ad3b796"},"vehicle_type_id":"4","last_reported":1741288040,"current_range_meters":13600,"station_id":"ce4bgt92rcd13ifvqcf0","pricing_plan_id":"cebpf4jnsgd1na2vs0mg"},{"bike_id":"2b1de8ba-6297-479a-97e0-c4ffcb43060b","system_id":"levelo_inurba_marseille","lat":43.23179,"lon":5.39983,"is_reserved":false,"is_disabled":false,"rental_uris":{"android":"levelo://app?vid=2b1de8ba-6297-479a-97e0-c4ffcb43060b","ios":"levelo://app?vid=2b1de8ba-6297-479a-97e0-c4ffcb43060b"},"vehicle_type_id":"4","last_reported":1741288040,"current_range_meters":13600,"station_id":"ce4bhn12rcd13ifvqgqg","pricing_plan_id":"cebpf4jnsgd1na2vs0mg"},{"bike_id":"764f3258-213a-4186-b4ff-850e4e5fe869","system_id":"levelo_inurba_marseille","lat":43.30408,"lon":5.4128,"is_reserved":false,"is_disabled":false,"rental_uris":{"android":"levelo://app?vid=764f3258-213a-4186-b4ff-850e4e5fe869","ios":"levelo://app?vid=764f3258-213a-4186-b4ff-850e4e5fe869"},"vehicle_type_id":"4","last_reported":1741288040,"current_range_meters":13600,"station_id":"ce4bhop2rcd13ifvqh8g","pricing_plan_id":"cebpf4jnsgd1na2vs0mg"},{"bike_id":"16b01717-2ca3-4307-8047-d1c2c98a6c61","system_id":"levelo_inurba_marseille","lat":43.29448,"lon":5.3864,"is_reserved":false,"is_disabled":false,"rental_uris":{"android":"levelo://app?vid=16b01717-2ca3-4307-8047-d1c2c98a6c61","ios":"levelo://app?vid=16b01717-2ca3-4307-8047-d1c2c98a6c61"},"vehicle_type_id":"4","last_reported":1741288040,"current_range_meters":13600,"station_id":"ce4bh2h2rcd13ifvqdh0","pricing_plan_id":"cebpf4jnsgd1na2vs0mg"},{"bike_id":"a52bc66f-c5a8-483d-8b54-4b1d2c6d48dd","system_id":"levelo_inurba_marseille","lat":43.3065,"lon":5.40102,"is_reserved":false,"is_disabled":false,"rental_uris":{"android":"levelo://app?vid=a52bc66f-c5a8-483d-8b54-4b1d2c6d48dd","ios":"levelo://app?vid=a52bc66f-c5a8-483d-8b54-4b1d2c6d48dd"},"vehicle_type_id":"4","last_reported":1741288040,"current_range_meters":12800,"station_id":"ce4bh112rcd13ifvqda0","pricing_plan_id":"cebpf4jnsgd1na2vs0mg"},{"bike_id":"290c8b70-6e8b-4809-85f6-02c11d1978c8","system_id":"levelo_inurba_marseille","lat":43.29549,"lon":5.37519,"is_reserved":false,"is_disabled":false,"rental_uris":{"android":"levelo://app?vid=290c8b70-6e8b-4809-85f6-02c11d1978c8","ios":"levelo://app?vid=290c8b70-6e8b-4809-85f6-02c11d1978c8"},"vehicle_type_id":"4","last_reported":1741288040,"current_range_meters":13600,"station_id":"ce4bgh92rcd13ifvqb50","pricing_plan_id":"cebpf4jnsgd1na2vs0mg"},{"bike_id":"e1b133e5-1e38-43f1-98ca-09441b485a5f","system_id":"levelo_inurba_marseille","lat":43.25592,"lon":5.38279,"is_reserved":false,"is_disabled":false,"rental_uris":{"android":"levelo://app?vid=e1b133e5-1e38-43f1-98ca-09441b485a5f","ios":"levelo://app?vid=e1b133e5-1e38-43f1-98ca-09441b485a5f"},"vehicle_type_id":"4","last_reported":1741288040,"current_range_meters":13600,"station_id":"ce4bhih2rcd13ifvqfs0","pricing_plan_id":"cebpf4jnsgd1na2vs0mg"},{"bike_id":"dc4941f8-cf6e-4611-b0d6-3f64b4d6fa84","system_id":"levelo_inurba_marseille","lat":43.2781,"lon":5.40702,"is_reserved":false,"is_disabled":false,"rental_uris":{"android":"levelo://app?vid=dc4941f8-cf6e-4611-b0d6-3f64b4d6fa84","ios":"levelo://app?vid=dc4941f8-cf6e-4611-b0d6-3f64b4d6fa84"},"vehicle_type_id":"4","last_reported":1741288040,"current_range_meters":13600,"station_id":"ce4bhnh2rcd13ifvqgtg","pricing_plan_id":"cebpf4jnsgd1na2vs0mg"},{"bike_id":"e08736a8-6702-4333-92c6-3fd3fc5174f1","system_id":"levelo_inurba_marseille","lat":43.29194,"lon":5.35808,"is_reserved":false,"is_disabled":false,"rental_uris":{"android":"levelo://app?vid=e08736a8-6702-4333-92c6-3fd3fc5174f1","ios":"levelo://app?vid=e08736a8-6702-4333-92c6-3fd3fc5174f1"},"vehicle_type_id":"4","last_reported":1741288040,"current_range_meters":13600,"station_id":"ce4bhb12rcd13ifvqel0","pricing_plan_id":"cebpf4jnsgd1na2vs0mg"},{"bike_id":"b898c67e-7398-48cd-9f30-d5697cd93943","system_id":"levelo_inurba_marseille","lat":43.28566,"lon":5.39503,"is_reserved":false,"is_disabled":false,"rental_uris":{"android":"levelo://app?vid=b898c67e-7398-48cd-9f30-d5697cd93943","ios":"levelo://app?vid=b898c67e-7398-48cd-9f30-d5697cd93943"},"vehicle_type_id":"4","last_reported":1741288040,"current_range_meters":11200,"station_id":"ce4bh292rcd13ifvqdg0","pricing_plan_id":"cebpf4jnsgd1na2vs0mg"},{"bike_id":"8bd4b128-b85d-4e21-ad3f-ceffde0e548c","system_id":"levelo_inurba_marseille","lat":43.31338,"lon":5.3968,"is_reserved":false,"is_disabled":false,"rental_uris":{"android":"levelo://app?vid=8bd4b128-b85d-4e21-ad3f-ceffde0e548c","ios":"levelo://app?vid=8bd4b128-b85d-4e21-ad3f-ceffde0e548c"},"vehicle_type_id":"4","last_reported":1741288040,"current_range_meters":14000,"station_id":"ce4bgvp2rcd13ifvqcu0","pricing_plan_id":"cebpf4jnsgd1na2vs0mg"},{"bike_id":"b13ccbee-f8ac-4762-a3a1-561782d8d5f5","system_id":"levelo_inurba_marseille","lat":43.27951,"lon":5.41044,"is_reserved":false,"is_disabled":false,"rental_uris":{"android":"levelo://app?vid=b13ccbee-f8ac-4762-a3a1-561782d8d5f5","ios":"levelo://app?vid=b13ccbee-f8ac-4762-a3a1-561782d8d5f5"},"vehicle_type_id":"4","last_reported":1741288040,"current_range_meters":14000,"station_id":"ce4bhnp2rcd13ifvqh0g","pricing_plan_id":"cebpf4jnsgd1na2vs0mg"},{"bike_id":"0ef8af70-399c-4e20-a37e-aff37b2e779f","system_id":"levelo_inurba_marseille","lat":43.30605,"lon":5.37237,"is_reserved":false,"is_disabled":false,"rental_uris":{"android":"levelo://app?vid=0ef8af70-399c-4e20-a37e-aff37b2e779f","ios":"levelo://app?vid=0ef8af70-399c-4e20-a37e-aff37b2e779f"},"vehicle_type_id":"4","last_reported":1741288040,"current_range_meters":14000,"station_id":"ce4bgqh2rcd13ifvqc4g","pricing_plan_id":"cebpf4jnsgd1na2vs0mg"},{"bike_id":"e3364b9d-9dd7-4f73-af01-ea4eaec7ee55","system_id":"levelo_inurba_marseille","lat":43.30387,"lon":5.38881,"is_reserved":false,"is_disabled":false,"rental_uris":{"android":"levelo://app?vid=e3364b9d-9dd7-4f73-af01-ea4eaec7ee55","ios":"levelo://app?vid=e3364b9d-9dd7-4f73-af01-ea4eaec7ee55"},"vehicle_type_id":"4","last_reported":1741288040,"current_range_meters":14000,"station_id":"ce4bgk12rcd13ifvqbi0","pricing_plan_id":"cebpf4jnsgd1na2vs0mg"},{"bike_id":"c387ac36-ac40-4510-b6fd-416a1a68b886","system_id":"levelo_inurba_marseille","lat":43.28926,"lon":5.36389,"is_reserved":false,"is_disabled":false,"rental_uris":{"android":"levelo://app?vid=c387ac36-ac40-4510-b6fd-416a1a68b886","ios":"levelo://app?vid=c387ac36-ac40-4510-b6fd-416a1a68b886"},"vehicle_type_id":"4","last_reported":1741288040,"current_range_meters":14400,"station_id":"ce4bhc92rcd13ifvqetg","pricing_plan_id":"cebpf4jnsgd1na2vs0mg"},{"bike_id":"da4ad5a4-7d47-4e82-b42b-6041e54ba5e9","system_id":"levelo_inurba_marseille","lat":43.2893,"lon":5.38387,"is_reserved":false,"is_disabled":false,"rental_uris":{"android":"levelo://app?vid=da4ad5a4-7d47-4e82-b42b-6041e54ba5e9","ios":"levelo://app?vid=da4ad5a4-7d47-4e82-b42b-6041e54ba5e9"},"vehicle_type_id":"4","last_reported":1741288040,"current_range_meters":14400,"station_id":"ce4bh612rcd13ifvqe6g","pricing_plan_id":"cebpf4jnsgd1na2vs0mg"},{"bike_id":"1ee79b01-e45f-4797-9a4b-d0f97c244688","system_id":"levelo_inurba_marseille","lat":43.26932,"lon":5.40255,"is_reserved":false,"is_disabled":false,"rental_uris":{"android":"levelo://app?vid=1ee79b01-e45f-4797-9a4b-d0f97c244688","ios":"levelo://app?vid=1ee79b01-e45f-4797-9a4b-d0f97c244688"},"vehicle_type_id":"4","last_reported":1741288040,"current_range_meters":14400,"station_id":"cjm6bp8fraef2m0cb0m0","pricing_plan_id":"cebpf4jnsgd1na2vs0mg"},{"bike_id":"a22b5d37-5904-4845-8e19-afb775030a94","system_id":"levelo_inurba_marseille","lat":43.29037,"lon":5.37166,"is_reserved":false,"is_disabled":false,"rental_uris":{"android":"levelo://app?vid=a22b5d37-5904-4845-8e19-afb775030a94","ios":"levelo://app?vid=a22b5d37-5904-4845-8e19-afb775030a94"},"vehicle_type_id":"4","last_reported":1741288040,"current_range_meters":14400,"station_id":"ce4bh5p2rcd13ifvqe4g","pricing_plan_id":"cebpf4jnsgd1na2vs0mg"},{"bike_id":"2bf9485e-de87-466c-a213-313681c6760e","system_id":"levelo_inurba_marseille","lat":43.28148,"lon":5.42643,"is_reserved":false,"is_disabled":false,"rental_uris":{"android":"levelo://app?vid=2bf9485e-de87-466c-a213-313681c6760e","ios":"levelo://app?vid=2bf9485e-de87-466c-a213-313681c6760e"},"vehicle_type_id":"4","last_reported":1741288040,"current_range_meters":14400,"station_id":"ce4bhnh2rcd13ifvqgug","pricing_plan_id":"cebpf4jnsgd1na2vs0mg"},{"bike_id":"04e7b57b-04a2-49f6-bb5e-9a277b095d3b","system_id":"levelo_inurba_marseille","lat":43.296082,"lon":5.424281,"is_reserved":false,"is_disabled":false,"rental_uris":{"android":"levelo://app?vid=04e7b57b-04a2-49f6-bb5e-9a277b095d3b","ios":"levelo://app?vid=04e7b57b-04a2-49f6-bb5e-9a277b095d3b"},"vehicle_type_id":"4","last_reported":1741288040,"current_range_meters":14400,"station_id":"ce4bhph2rcd13ifvqhdg","pricing_plan_id":"cebpf4jnsgd1na2vs0mg"},{"bike_id":"dd1656d4-1155-44af-98eb-e63022b2f728","system_id":"levelo_inurba_marseille","lat":43.31327,"lon":5.39695,"is_reserved":false,"is_disabled":false,"rental_uris":{"android":"levelo://app?vid=dd1656d4-1155-44af-98eb-e63022b2f728","ios":"levelo://app?vid=dd1656d4-1155-44af-98eb-e63022b2f728"},"vehicle_type_id":"4","last_reported":1741288040,"current_range_meters":14400,"station_id":"ce4bgvp2rcd13ifvqcu0","pricing_plan_id":"cebpf4jnsgd1na2vs0mg"},{"bike_id":"d05adb99-d1c3-4eb0-92b6-6ca3d8640804","system_id":"levelo_inurba_marseille","lat":43.29723,"lon":5.36597,"is_reserved":false,"is_disabled":false,"rental_uris":{"android":"levelo://app?vid=d05adb99-d1c3-4eb0-92b6-6ca3d8640804","ios":"levelo://app?vid=d05adb99-d1c3-4eb0-92b6-6ca3d8640804"},"vehicle_type_id":"4","last_reported":1741288040,"current_range_meters":14400,"station_id":"ce4bgn12rcd13ifvqbt0","pricing_plan_id":"cebpf4jnsgd1na2vs0mg"},{"bike_id":"424763cc-a0bf-4af1-8d08-423b0473b3a9","system_id":"levelo_inurba_marseille","lat":43.29566,"lon":5.37498,"is_reserved":false,"is_disabled":true,"rental_uris":{"android":"levelo://app?vid=424763cc-a0bf-4af1-8d08-423b0473b3a9","ios":"levelo://app?vid=424763cc-a0bf-4af1-8d08-423b0473b3a9"},"vehicle_type_id":"4","last_reported":1741288040,"current_range_meters":14400,"station_id":"","pricing_plan_id":"cebpf4jnsgd1na2vs0mg"},{"bike_id":"985324b2-53ea-4df0-8c32-5d6941d2d733","system_id":"levelo_inurba_marseille","lat":43.25578,"lon":5.38242,"is_reserved":false,"is_disabled":false,"rental_uris":{"android":"levelo://app?vid=985324b2-53ea-4df0-8c32-5d6941d2d733","ios":"levelo://app?vid=985324b2-53ea-4df0-8c32-5d6941d2d733"},"vehicle_type_id":"4","last_reported":1741288040,"current_range_meters":14400,"station_id":"ce4bhih2rcd13ifvqfs0","pricing_plan_id":"cebpf4jnsgd1na2vs0mg"},{"bike_id":"93bb103e-58b2-48b5-afd8-f51fb36f6c06","system_id":"levelo_inurba_marseille","lat":43.28696,"lon":5.37393,"is_reserved":false,"is_disabled":false,"rental_uris":{"android":"levelo://app?vid=93bb103e-58b2-48b5-afd8-f51fb36f6c06","ios":"levelo://app?vid=93bb103e-58b2-48b5-afd8-f51fb36f6c06"},"vehicle_type_id":"4","last_reported":1741288040,"current_range_meters":14400,"station_id":"ce4bh3p2rcd13ifvqdq0","pricing_plan_id":"cebpf4jnsgd1na2vs0mg"},{"bike_id":"05e3ebe2-86f3-43af-bac6-a08bb0ae4bd3","system_id":"levelo_inurba_marseille","lat":43.28834,"lon":5.3931,"is_reserved":false,"is_disabled":false,"rental_uris":{"android":"levelo://app?vid=05e3ebe2-86f3-43af-bac6-a08bb0ae4bd3","ios":"levelo://app?vid=05e3ebe2-86f3-43af-bac6-a08bb0ae4bd3"},"vehicle_type_id":"4","last_reported":1741288040,"current_range_meters":14800,"station_id":"ce4bh2p2rcd13ifvqdi0","pricing_plan_id":"cebpf4jnsgd1na2vs0mg"},{"bike_id":"2d31bd33-7bbc-485d-a4dd-59c0e816926e","system_id":"levelo_inurba_marseille","lat":43.25823,"lon":5.39439,"is_reserved":false,"is_disabled":false,"rental_uris":{"android":"levelo://app?vid=2d31bd33-7bbc-485d-a4dd-59c0e816926e","ios":"levelo://app?vid=2d31bd33-7bbc-485d-a4dd-59c0e816926e"},"vehicle_type_id":"4","last_reported":1741288040,"current_range_meters":14800,"station_id":"ce4bhip2rcd13ifvqft0","pricing_plan_id":"cebpf4jnsgd1na2vs0mg"},{"bike_id":"6fa00e7f-b2e6-493f-9e09-fa4265430227","system_id":"levelo_inurba_marseille","lat":43.23962,"lon":5.36629,"is_reserved":false,"is_disabled":false,"rental_uris":{"android":"levelo://app?vid=6fa00e7f-b2e6-493f-9e09-fa4265430227","ios":"levelo://app?vid=6fa00e7f-b2e6-493f-9e09-fa4265430227"},"vehicle_type_id":"4","last_reported":1741288040,"current_range_meters":14800,"station_id":"ce4bhi12rcd13ifvqfp0","pricing_plan_id":"cebpf4jnsgd1na2vs0mg"},{"bike_id":"5657d731-d688-4ca8-8429-b9c071f5f731","system_id":"levelo_inurba_marseille","lat":43.28459,"lon":5.35893,"is_reserved":false,"is_disabled":false,"rental_uris":{"android":"levelo://app?vid=5657d731-d688-4ca8-8429-b9c071f5f731","ios":"levelo://app?vid=5657d731-d688-4ca8-8429-b9c071f5f731"},"vehicle_type_id":"4","last_reported":1741288040,"current_range_meters":14800,"station_id":"ce4bhah2rcd13ifvqei0","pricing_plan_id":"cebpf4jnsgd1na2vs0mg"},{"bike_id":"0cf88f31-fbc6-4ae4-9b82-6e87904e890d","system_id":"levelo_inurba_marseille","lat":43.29193,"lon":5.35805,"is_reserved":false,"is_disabled":false,"rental_uris":{"android":"levelo://app?vid=0cf88f31-fbc6-4ae4-9b82-6e87904e890d","ios":"levelo://app?vid=0cf88f31-fbc6-4ae4-9b82-6e87904e890d"},"vehicle_type_id":"4","last_reported":1741288040,"current_range_meters":14400,"station_id":"ce4bhb12rcd13ifvqel0","pricing_plan_id":"cebpf4jnsgd1na2vs0mg"},{"bike_id":"e9a9cbf7-93f2-4ef7-b4f4-301c0fda5af8","system_id":"levelo_inurba_marseille","lat":43.24998,"lon":5.38933,"is_reserved":false,"is_disabled":false,"rental_uris":{"android":"levelo://app?vid=e9a9cbf7-93f2-4ef7-b4f4-301c0fda5af8","ios":"levelo://app?vid=e9a9cbf7-93f2-4ef7-b4f4-301c0fda5af8"},"vehicle_type_id":"4","last_reported":1741288040,"current_range_meters":14800,"station_id":"ce4bhgp2rcd13ifvqfd0","pricing_plan_id":"cebpf4jnsgd1na2vs0mg"},{"bike_id":"daa48c53-c5de-46aa-94fc-655cbd710c8c","system_id":"levelo_inurba_marseille","lat":43.2297,"lon":5.35386,"is_reserved":false,"is_disabled":false,"rental_uris":{"android":"levelo://app?vid=daa48c53-c5de-46aa-94fc-655cbd710c8c","ios":"levelo://app?vid=daa48c53-c5de-46aa-94fc-655cbd710c8c"},"vehicle_type_id":"4","last_reported":1741288040,"current_range_meters":14800,"station_id":"cpo3532slgdg3j2ikp40","pricing_plan_id":"cebpf4jnsgd1na2vs0mg"},{"bike_id":"0b16ce8c-1ea4-4054-969d-56ae882c6611","system_id":"levelo_inurba_marseille","lat":43.28928,"lon":5.38401,"is_reserved":false,"is_disabled":false,"rental_uris":{"android":"levelo://app?vid=0b16ce8c-1ea4-4054-969d-56ae882c6611","ios":"levelo://app?vid=0b16ce8c-1ea4-4054-969d-56ae882c6611"},"vehicle_type_id":"4","last_reported":1741288040,"current_range_meters":14800,"station_id":"ce4bh612rcd13ifvqe6g","pricing_plan_id":"cebpf4jnsgd1na2vs0mg"},{"bike_id":"23fd01b3-a5b9-4def-8318-003ef97cf778","system_id":"levelo_inurba_marseille","lat":43.3303,"lon":5.39019,"is_reserved":false,"is_disabled":false,"rental_uris":{"android":"levelo://app?vid=23fd01b3-a5b9-4def-8318-003ef97cf778","ios":"levelo://app?vid=23fd01b3-a5b9-4def-8318-003ef97cf778"},"vehicle_type_id":"4","last_reported":1741288040,"current_range_meters":14800,"station_id":"ce4bhr92rcd13ifvqhrg","pricing_plan_id":"cebpf4jnsgd1na2vs0mg"},{"bike_id":"a8540840-8687-40db-9521-0af09292b365","system_id":"levelo_inurba_marseille","lat":43.28146,"lon":5.42633,"is_reserved":false,"is_disabled":false,"rental_uris":{"android":"levelo://app?vid=a8540840-8687-40db-9521-0af09292b365","ios":"levelo://app?vid=a8540840-8687-40db-9521-0af09292b365"},"vehicle_type_id":"4","last_reported":1741288040,"current_range_meters":15200,"station_id":"ce4bhnh2rcd13ifvqgug","pricing_plan_id":"cebpf4jnsgd1na2vs0mg"},{"bike_id":"6a1366c1-41ed-4dda-b62f-b12cda709bc4","system_id":"levelo_inurba_marseille","lat":43.32368,"lon":5.38878,"is_reserved":false,"is_disabled":false,"rental_uris":{"android":"levelo://app?vid=6a1366c1-41ed-4dda-b62f-b12cda709bc4","ios":"levelo://app?vid=6a1366c1-41ed-4dda-b62f-b12cda709bc4"},"vehicle_type_id":"4","last_reported":1741288040,"current_range_meters":15200,"station_id":"ce4bhqp2rcd13ifvqhog","pricing_plan_id":"cebpf4jnsgd1na2vs0mg"},{"bike_id":"e029f95d-4a38-40bc-b8ec-afbec81dc9f8","system_id":"levelo_inurba_marseille","lat":43.27621,"lon":5.39754,"is_reserved":false,"is_disabled":false,"rental_uris":{"android":"levelo://app?vid=e029f95d-4a38-40bc-b8ec-afbec81dc9f8","ios":"levelo://app?vid=e029f95d-4a38-40bc-b8ec-afbec81dc9f8"},"vehicle_type_id":"4","last_reported":1741288040,"current_range_meters":15200,"station_id":"ce4bgvp2rcd13ifvqct0","pricing_plan_id":"cebpf4jnsgd1na2vs0mg"},