{"last_updated":1699707998,"ttl":30,"version":"2.2","data":{"bikes":[{"bike_id":"b629e02c-3f16-414b-ab03-30db5c333aeb","system_id":"levelo_inurba_marseille","lat":43.316779,"lon":5.368086,"is_reserved":false,"is_disabled":false,"rental_uris":{"android":"levelo://app?vid=b629e02c-3f16-414b-ab03-30db5c333aeb","ios":"levelo://app?vid=b629e02c-3f16-414b-ab03-30db5c333aeb"},"vehicle_type_id":"4","last_reported":1699707998,"current_range_meters":22800,"station_id":"","pricing_plan_id":"free"},{"bike_id":"a303c1eb-c1f9-4f91-8e86-71c806c20ac5","system_id":"levelo_inurba_marseille","lat":43.311595,"lon":5.372786,"is_reserved":false,"is_disabled":false,"rental_uris":{"android":"levelo://app?vid=a303c1eb-c1f9-4f91-8e86-71c806c20ac5","ios":"levelo://app?vid=a303c1eb-c1f9-4f91-8e86-71c806c20ac5"},"vehicle_type_id":"4","last_reported":1699707998,"current_range_meters":28400,"station_id":"","pricing_plan_id":"free"},{"bike_id":"6c28fa73-3589-41c4-b0c2-15e5fb6a392b","system_id":"levelo_inurba_marseille","lat":43.314811,"lon":5.373104,"is_reserved":false,"is_disabled":false,"rental_uris":{"android":"levelo://app?vid=6c28fa73-3589-41c4-b0c2-15e5fb6a392b","ios":"levelo://app?vid=6c28fa73-3589-41c4-b0c2-15e5fb6a392b"},"vehicle_type_id":"4","last_reported":1699707998,"current_range_meters":5600,"station_id":"ce4bgt12rcd13ifvqcd0","pricing_plan_id":"free"},{"bike_id":"18b61f3a-86b8-42c9-b8b3-8adced6f44dd","system_id":"levelo_inurba_marseille","lat":43.308811,"lon":5.371961,"is_reserved":false,"is_disabled":false,"rental_uris":{"android":"levelo://app?vid=18b61f3a-86b8-42c9-b8b3-8adced6f44dd","ios":"levelo://app?vid=18b61f3a-86b8-42c9-b8b3-8adced6f44dd"},"vehicle_type_id":"4","last_reported":1699707998,"current_range_meters":7600,"station_id":"ce4bguh2rcd13ifvqckg","pricing_plan_id":"free"},{"bike_id":"09c238c1-65aa-4c41-8eb1-5d57f16fa144","system_id":"levelo_inurba_marseille","lat":43.30547,"lon":5.36533,"is_reserved":false,"is_disabled":false,"rental_uris":{"android":"levelo://app?vid=09c238c1-65aa-4c41-8eb1-5d57f16fa144","ios":"levelo://app?vid=09c238c1-65aa-4c41-8eb1-5d57f16fa144"},"vehicle_type_id":"4","last_reported":1699707998,"current_range_meters":0,"station_id":"ce4bgs12rcd13ifvqcag","pricing_plan_id":"free"},{"bike_id":"dcb0797a-e1e2-4d1a-85c3-01eff8543ca4","system_id":"levelo_inurba_marseille","lat":43.30542,"lon":5.36553,"is_reserved":false,"is_disabled":false,"rental_uris":{"android":"levelo://app?vid=dcb0797a-e1e2-4d1a-85c3-01eff8543ca4","ios":"levelo://app?vid=dcb0797a-e1e2-4d1a-85c3-01eff8543ca4"},"vehicle_type_id":"4","last_reported":1699707998,"current_range_meters":30000,"station_id":"ce4bgs12rcd13ifvqcag","pricing_plan_id":"free"},{"bike_id":"dad0ca86-5b45-42dc-a461-406b8a0b541d","system_id":"levelo_inurba_marseille","lat":43.305706,"lon":5.365654,"is_reserved":false,"is_disabled":false,"rental_uris":{"android":"levelo://app?vid=dad0ca86-5b45-42dc-a461-406b8a0b541d","ios":"levelo://app?vid=dad0ca86-5b45-42dc-a461-406b8a0b541d"},"vehicle_type_id":"4","last_reported":1699707998,"current_range_meters":31200,"station_id":"ce4bgs12rcd13ifvqcag","pricing_plan_id":"free"},{"bike_id":"edbd5dc5-8f58-437e-87ca-3e73b267cd09","system_id":"levelo_inurba_marseille","lat":43.3054,"lon":5.36547,"is_reserved":false,"is_disabled":false,"rental_uris":{"android":"levelo://app?vid=edbd5dc5-8f58-437e-87ca-3e73b267cd09","ios":"levelo://app?vid=edbd5dc5-8f58-437e-87ca-3e73b267cd09"},"vehicle_type_id":"4","last_reported":1699707998,"current_range_meters":19600,"station_id":"ce4bgs12rcd13ifvqcag","pricing_plan_id":"free"},{"bike_id":"e34c6567-6a3b-4c97-a30d-48ba0f27f7f3","system_id":"levelo_inurba_marseille","lat":43.305706,"lon":5.365654,"is_reserved":false,"is_disabled":false,"rental_uris":{"android":"levelo://app?vid=e34c6567-6a3b-4c97-a30d-48ba0f27f7f3","ios":"levelo://app?vid=e34c6567-6a3b-4c97-a30d-48ba0f27f7f3"},"vehicle_type_id":"4","last_reported":1699707998,"current_range_meters":30000,"station_id":"ce4bgs12rcd13ifvqcag","pricing_plan_id":"free"},{"bike_id":"3c000b8c-dd0b-4388-a9b9-31bf2e640845","system_id":"levelo_inurba_marseille","lat":43.3054,"lon":5.36529,"is_reserved":false,"is_disabled":false,"rental_uris":{"android":"levelo://app?vid=3c000b8c-dd0b-4388-a9b9-31bf2e640845","ios":"levelo://app?vid=3c000b8c-dd0b-4388-a9b9-31bf2e640845"},"vehicle_type_id":"4","last_reported":1699707998,"current_range_meters":31200,"station_id":"ce4bgs12rcd13ifvqcag","pricing_plan_id":"free"},{"bike_id":"13e119fe-8ea2-4b39-96ef-28669a5071bc","system_id":"levelo_inurba_marseille","lat":43.305706,"lon":5.365654,"is_reserved":false,"is_disabled":false,"rental_uris":{"android":"levelo://app?vid=13e119fe-8ea2-4b39-96ef-28669a5071bc","ios":"levelo://app?vid=13e119fe-8ea2-4b39-96ef-28669a5071bc"},"vehicle_type_id":"4","last_reported":1699707998,"current_range_meters":8000,"station_id":"ce4bgs12rcd13ifvqcag","pricing_plan_id":"free"},{"bike_id":"76b359af-c20b-45d0-a1df-78f4c9a6553a","system_id":"levelo_inurba_marseille","lat":43.305714,"lon":5.365633,"is_reserved":false,"is_disabled":false,"rental_uris":{"android":"levelo://app?vid=76b359af-c20b-45d0-a1df-78f4c9a6553a","ios":"levelo://app?vid=76b359af-c20b-45d0-a1df-78f4c9a6553a"},"vehicle_type_id":"4","last_reported":1699707998,"current_range_meters":18800,"station_id":"ce4bgs12rcd13ifvqcag","pricing_plan_id":"free"},{"bike_id":"9c4d3cf8-3332-4b36-82f1-6c417af5357f","system_id":"levelo_inurba_marseille","lat":43.305989,"lon":5.37225,"is_reserved":false,"is_disabled":false,"rental_uris":{"android":"levelo://app?vid=9c4d3cf8-3332-4b36-82f1-6c417af5357f","ios":"levelo://app?vid=9c4d3cf8-3332-4b36-82f1-6c417af5357f"},"vehicle_type_id":"4","last_reported":1699707998,"current_range_meters":24800,"station_id":"ce4bgqh2rcd13ifvqc4g","pricing_plan_id":"free"},{"bike_id":"ad317c86-feb4-43d0-862b-48b364deb1bc","system_id":"levelo_inurba_marseille","lat":43.305989,"lon":5.37225,"is_reserved":false,"is_disabled":false,"rental_uris":{"android":"levelo://app?vid=ad317c86-feb4-43d0-862b-48b364deb1bc","ios":"levelo://app?vid=ad317c86-feb4-43d0-862b-48b364deb1bc"},"vehicle_type_id":"4","last_reported":1699707998,"current_range_meters":23200,"station_id":"ce4bgqh2rcd13ifvqc4g","pricing_plan_id":"free"},{"bike_id":"47857fe6-1cd9-4031-84ed-cc5c75cc7c7c","system_id":"levelo_inurba_marseille","lat":43.305989,"lon":5.37225,"is_reserved":false,"is_disabled":false,"rental_uris":{"android":"levelo://app?vid=47857fe6-1cd9-4031-84ed-cc5c75cc7c7c","ios":"levelo://app?vid=47857fe6-1cd9-4031-84ed-cc5c75cc7c7c"},"vehicle_type_id":"4","last_reported":1699707998,"current_range_meters":28000,"station_id":"ce4bgqh2rcd13ifvqc4g","pricing_plan_id":"free"},{"bike_id":"c6998501-a70c-48c1-a7d9-9124e71998b4","system_id":"levelo_inurba_marseille","lat":43.311125,"lon":5.377624,"is_reserved":false,"is_disabled":false,"rental_uris":{"android":"levelo://app?vid=c6998501-a70c-48c1-a7d9-9124e71998b4","ios":"levelo://app?vid=c6998501-a70c-48c1-a7d9-9124e71998b4"},"vehicle_type_id":"4","last_reported":1699707998,"current_range_meters":18800,"station_id":"ce4bgt92rcd13ifvqcg0","pricing_plan_id":"free"},{"bike_id":"2fec0233-b332-4236-8832-d301b45eacc1","system_id":"levelo_inurba_marseille","lat":43.307945,"lon":5.376487,"is_reserved":false,"is_disabled":false,"rental_uris":{"android":"levelo://app?vid=2fec0233-b332-4236-8832-d301b45eacc1","ios":"levelo://app?vid=2fec0233-b332-4236-8832-d301b45eacc1"},"vehicle_type_id":"4","last_reported":1699707998,"current_range_meters":22000,"station_id":"ce4bgv92rcd13ifvqcq0","pricing_plan_id":"free"},{"bike_id":"57053367-5328-4d78-8951-737f56b37ed9","system_id":"levelo_inurba_marseille","lat":43.319924,"lon":5.373389,"is_reserved":false,"is_disabled":false,"rental_uris":{"android":"levelo://app?vid=57053367-5328-4d78-8951-737f56b37ed9","ios":"levelo://app?vid=57053367-5328-4d78-8951-737f56b37ed9"},"vehicle_type_id":"4","last_reported":1699707998,"current_range_meters":18800,"station_id":"","pricing_plan_id":"free"},{"bike_id":"5f1e6b11-1789-4dd7-98fb-81bb537d86e0","system_id":"levelo_inurba_marseille","lat":43.301939,"lon":5.366286,"is_reserved":false,"is_disabled":false,"rental_uris":{"android":"levelo://app?vid=5f1e6b11-1789-4dd7-98fb-81bb537d86e0","ios":"levelo://app?vid=5f1e6b11-1789-4dd7-98fb-81bb537d86e0"},"vehicle_type_id":"4","last_reported":1699707998,"current_range_meters":30000,"station_id":"ce4bgrh2rcd13ifvqc8g","pricing_plan_id":"free"},{"bike_id":"a26a672c-8f86-40f5-9e8e-9856cf399a24","system_id":"levelo_inurba_marseille","lat":43.308012,"lon":5.381511,"is_reserved":false,"is_disabled":false,"rental_uris":{"android":"levelo://app?vid=a26a672c-8f86-40f5-9e8e-9856cf399a24","ios":"levelo://app?vid=a26a672c-8f86-40f5-9e8e-9856cf399a24"},"vehicle_type_id":"4","last_reported":1699707998,"current_range_meters":27200,"station_id":"ce4bgt12rcd13ifvqce0","pricing_plan_id":"free"},{"bike_id":"98ef171c-d24b-466e-9803-d05a2ec48514","system_id":"levelo_inurba_marseille","lat":43.304606,"lon":5.379026,"is_reserved":false,"is_disabled":false,"rental_uris":{"android":"levelo://app?vid=98ef171c-d24b-466e-9803-d05a2ec48514","ios":"levelo://app?vid=98ef171c-d24b-466e-9803-d05a2ec48514"},"vehicle_type_id":"4","last_reported":1699707998,"current_range_meters":19600,"station_id":"ce4bgup2rcd13ifvqcn0","pricing_plan_id":"free"},{"bike_id":"83e94430-af8a-4757-9355-7c65e7423134","system_id":"levelo_inurba_marseille","lat":43.304606,"lon":5.379026,"is_reserved":false,"is_disabled":false,"rental_uris":{"android":"levelo://app?vid=83e94430-af8a-4757-9355-7c65e7423134","ios":"levelo://app?vid=83e94430-af8a-4757-9355-7c65e7423134"},"vehicle_type_id":"4","last_reported":1699707998,"current_range_meters":27600,"station_id":"ce4bgup2rcd13ifvqcn0","pricing_plan_id":"free"},{"bike_id":"bc0adf06-9cc1-4c6d-a6f7-68e39b66ea92","system_id":"levelo_inurba_marseille","lat":43.324789,"lon":5.365589,"is_reserved":false,"is_disabled":false,"rental_uris":{"android":"levelo://app?vid=bc0adf06-9cc1-4c6d-a6f7-68e39b66ea92","ios":"levelo://app?vid=bc0adf06-9cc1-4c6d-a6f7-68e39b66ea92"},"vehicle_type_id":"4","last_reported":1699707998,"current_range_meters":400,"station_id":"ce4bhs12rcd13ifvqhvg","pricing_plan_id":"free"},{"bike_id":"8ef52193-4a3c-4256-8c92-d02dc1148f05","system_id":"levelo_inurba_marseille","lat":43.324771,"lon":5.36557,"is_reserved":false,"is_disabled":false,"rental_uris":{"android":"levelo://app?vid=8ef52193-4a3c-4256-8c92-d02dc1148f05","ios":"levelo://app?vid=8ef52193-4a3c-4256-8c92-d02dc1148f05"},"vehicle_type_id":"4","last_reported":1699707998,"current_range_meters":12400,"station_id":"ce4bhs12rcd13ifvqhvg","pricing_plan_id":"free"},{"bike_id":"6d921910-7583-44ce-a501-d2bd35ed1655","system_id":"levelo_inurba_marseille","lat":43.302784,"lon":5.377158,"is_reserved":false,"is_disabled":false,"rental_uris":{"android":"levelo://app?vid=6d921910-7583-44ce-a501-d2bd35ed1655","ios":"levelo://app?vid=6d921910-7583-44ce-a501-d2bd35ed1655"},"vehicle_type_id":"4","last_reported":1699707998,"current_range_meters":23200,"station_id":"ce4bguh2rcd13ifvqcj0","pricing_plan_id":"free"},{"bike_id":"3dfdc2f4-8851-4848-8441-1e9a9546fe42","system_id":"levelo_inurba_marseille","lat":43.31644,"lon":5.38331,"is_reserved":false,"is_disabled":false,"rental_uris":{"android":"levelo://app?vid=3dfdc2f4-8851-4848-8441-1e9a9546fe42","ios":"levelo://app?vid=3dfdc2f4-8851-4848-8441-1e9a9546fe42"},"vehicle_type_id":"4","last_reported":1699707998,"current_range_meters":18000,"station_id":"","pricing_plan_id":"free"},{"bike_id":"3819deec-fe3d-41c7-8346-2b107cb07054","system_id":"levelo_inurba_marseille","lat":43.315237,"lon":5.383797,"is_reserved":false,"is_disabled":false,"rental_uris":{"android":"levelo://app?vid=3819deec-fe3d-41c7-8346-2b107cb07054","ios":"levelo://app?vid=3819deec-fe3d-41c7-8346-2b107cb07054"},"vehicle_type_id":"4","last_reported":1699707998,"current_range_meters":400,"station_id":"","pricing_plan_id":"free"},{"bike_id":"055d48ac-cd6e-4b83-891f-87ec0be83ccd","system_id":"levelo_inurba_marseille","lat":43.32188,"lon":5.37875,"is_reserved":false,"is_disabled":false,"rental_uris":{"android":"levelo://app?vid=055d48ac-cd6e-4b83-891f-87ec0be83ccd","ios":"levelo://app?vid=055d48ac-cd6e-4b83-891f-87ec0be83ccd"},"vehicle_type_id":"4","last_reported":1699707998,"current_range_meters":22800,"station_id":"","pricing_plan_id":"free"},{"bike_id":"69166d53-ec8e-4a0a-864c-7a29f7650dd8","system_id":"levelo_inurba_marseille","lat":43.321146,"lon":5.38002,"is_reserved":false,"is_disabled":false,"rental_uris":{"android":"levelo://app?vid=69166d53-ec8e-4a0a-864c-7a29f7650dd8","ios":"levelo://app?vid=69166d53-ec8e-4a0a-864c-7a29f7650dd8"},"vehicle_type_id":"4","last_reported":1699707998,"current_range_meters":18800,"station_id":"","pricing_plan_id":"free"},{"bike_id":"13d78257-2559-4a10-97b8-aaa7032179bc","system_id":"levelo_inurba_marseille","lat":43.319975,"lon":5.381519,"is_reserved":false,"is_disabled":false,"rental_uris":{"android":"levelo://app?vid=13d78257-2559-4a10-97b8-aaa7032179bc","ios":"levelo://app?vid=13d78257-2559-4a10-97b8-aaa7032179bc"},"vehicle_type_id":"4","last_reported":1699707998,"current_range_meters":4400,"station_id":"","pricing_plan_id":"free"},{"bike_id":"1d35a465-99e7-4ca1-8241-7a14bfa0a31f","system_id":"levelo_inurba_marseille","lat":43.31995,"lon":5.38163,"is_reserved":false,"is_disabled":false,"rental_uris":{"android":"levelo://app?vid=1d35a465-99e7-4ca1-8241-7a14bfa0a31f","ios":"levelo://app?vid=1d35a465-99e7-4ca1-8241-7a14bfa0a31f"},"vehicle_type_id":"4","last_reported":1699707998,"current_range_meters":20800,"station_id":"ce4bhr12rcd13ifvqhpg","pricing_plan_id":"free"},{"bike_id":"208275be-793f-4080-9e26-163f2342456b","system_id":"levelo_inurba_marseille","lat":43.313571,"lon":5.384829,"is_reserved":false,"is_disabled":false,"rental_uris":{"android":"levelo://app?vid=208275be-793f-4080-9e26-163f2342456b","ios":"levelo://app?vid=208275be-793f-4080-9e26-163f2342456b"},"vehicle_type_id":"4","last_reported":1699707998,"current_range_meters":6000,"station_id":"ce4bgt92rcd13ifvqcf0","pricing_plan_id":"free"},{"bike_id":"2aa07dbd-abc3-43b6-a1fa-b3b25d3cf066","system_id":"levelo_inurba_marseille","lat":43.32148,"lon":5.38202,"is_reserved":false,"is_disabled":false,"rental_uris":{"android":"levelo://app?vid=2aa07dbd-abc3-43b6-a1fa-b3b25d3cf066","ios":"levelo://app?vid=2aa07dbd-abc3-43b6-a1fa-b3b25d3cf066"},"vehicle_type_id":"4","last_reported":1699707998,"current_range_meters":0,"station_id":"","pricing_plan_id":"free"},{"bike_id":"607012e5-1535-47a7-93cf-715ae66f4ccb","system_id":"levelo_inurba_marseille","lat":43.298433,"lon":5.362774,"is_reserved":false,"is_disabled":false,"rental_uris":{"android":"levelo://app?vid=607012e5-1535-47a7-93cf-715ae66f4ccb","ios":"levelo://app?vid=607012e5-1535-47a7-93cf-715ae66f4ccb"},"vehicle_type_id":"4","last_reported":1699707998,"current_range_meters":24800,"station_id":"ce4bgpp2rcd13ifvqc3g","pricing_plan_id":"free"},{"bike_id":"677c3fd1-baf0-4011-aaf0-f17b49518d6b","system_id":"levelo_inurba_marseille","lat":43.298433,"lon":5.362774,"is_reserved":false,"is_disabled":false,"rental_uris":{"android":"levelo://app?vid=677c3fd1-baf0-4011-aaf0-f17b49518d6b","ios":"levelo://app?vid=677c3fd1-baf0-4011-aaf0-f17b49518d6b"},"vehicle_type_id":"4","last_reported":1699707998,"current_range_meters":12800,"station_id":"ce4bgpp2rcd13ifvqc3g","pricing_plan_id":"free"},{"bike_id":"8950f55a-e75d-4fac-9a7c-f529bc0580a5","system_id":"levelo_inurba_marseille","lat":43.320464,"lon":5.384144,"is_reserved":false,"is_disabled":false,"rental_uris":{"android":"levelo://app?vid=8950f55a-e75d-4fac-9a7c-f529bc0580a5","ios":"levelo://app?vid=8950f55a-e75d-4fac-9a7c-f529bc0580a5"},"vehicle_type_id":"4","last_reported":1699707998,"current_range_meters":13200,"station_id":"","pricing_plan_id":"free"},{"bike_id":"3976a99f-ee7c-4528-bcbc-d2d3082610c6","system_id":"levelo_inurba_marseille","lat":43.311722,"lon":5.387247,"is_reserved":false,"is_disabled":false,"rental_uris":{"android":"levelo://app?vid=3976a99f-ee7c-4528-bcbc-d2d3082610c6","ios":"levelo://app?vid=3976a99f-ee7c-4528-bcbc-d2d3082610c6"},"vehicle_type_id":"4","last_reported":1699707998,"current_range_meters":16800,"station_id":"ce4bgv12rcd13ifvqcp0","pricing_plan_id":"free"},{"bike_id":"ae2ab2bc-af64-403d-84f2-a914c919781a","system_id":"levelo_inurba_marseille","lat":43.297774,"lon":5.370875,"is_reserved":false,"is_disabled":false,"rental_uris":{"android":"levelo://app?vid=ae2ab2bc-af64-403d-84f2-a914c919781a","ios":"levelo://app?vid=ae2ab2bc-af64-403d-84f2-a914c919781a"},"vehicle_type_id":"4","last_reported":1699707998,"current_range_meters":27600,"station_id":"ce4bgop2rcd13ifvqc1g","pricing_plan_id":"free"},{"bike_id":"ffa3d12e-e568-4149-bd16-287a6171bb9f","system_id":"levelo_inurba_marseille","lat":43.297794,"lon":5.370888,"is_reserved":false,"is_disabled":false,"rental_uris":{"android":"levelo://app?vid=ffa3d12e-e568-4149-bd16-287a6171bb9f","ios":"levelo://app?vid=ffa3d12e-e568-4149-bd16-287a6171bb9f"},"vehicle_type_id":"4","last_reported":1699707998,"current_range_meters":22000,"station_id":"ce4bgop2rcd13ifvqc1g","pricing_plan_id":"free"},{"bike_id":"f551169d-4e8e-42c6-90f6-141f2626e386","system_id":"levelo_inurba_marseille","lat":43.297794,"lon":5.370888,"is_reserved":false,"is_disabled":false,"rental_uris":{"android":"levelo://app?vid=f551169d-4e8e-42c6-90f6-141f2626e386","ios":"levelo://app?vid=f551169d-4e8e-42c6-90f6-141f2626e386"},"vehicle_type_id":"4","last_reported":1699707998,"current_range_meters":13600,"station_id":"ce4bgop2rcd13ifvqc1g","pricing_plan_id":"free"},{"bike_id":"aa2fc36b-73f6-4396-9725-4e39b5173726","system_id":"levelo_inurba_marseille","lat":43.322872,"lon":5.382756,"is_reserved":false,"is_disabled":false,"rental_uris":{"android":"levelo://app?vid=aa2fc36b-73f6-4396-9725-4e39b5173726","ios":"levelo://app?vid=aa2fc36b-73f6-4396-9725-4e39b5173726"},"vehicle_type_id":"4","last_reported":1699707998,"current_range_meters":26400,"station_id":"ce4bhr12rcd13ifvqhqg","pricing_plan_id":"free"},{"bike_id":"3fc29c95-14f8-466b-984e-30e97660fd5f","system_id":"levelo_inurba_marseille","lat":43.32831,"lon":5.36676,"is_reserved":false,"is_disabled":false,"rental_uris":{"android":"levelo://app?vid=3fc29c95-14f8-466b-984e-30e97660fd5f","ios":"levelo://app?vid=3fc29c95-14f8-466b-984e-30e97660fd5f"},"vehicle_type_id":"4","last_reported":1699707998,"current_range_meters":0,"station_id":"ce4bhs92rcd13ifvqi0g","pricing_plan_id":"free"},{"bike_id":"ebd5adb5-a29a-4c9f-99c1-76856e661863","system_id":"levelo_inurba_marseille","lat":43.297163,"lon":5.365866,"is_reserved":false,"is_disabled":false,"rental_uris":{"android":"levelo://app?vid=ebd5adb5-a29a-4c9f-99c1-76856e661863","ios":"levelo://app?vid=ebd5adb5-a29a-4c9f-99c1-76856e661863"},"vehicle_type_id":"4","last_reported":1699707998,"current_range_meters":6000,"station_id":"ce4bgn12rcd13ifvqbt0","pricing_plan_id":"free"},{"bike_id":"33d6a1d7-e19b-454a-a7e2-f4ece8fe705c","system_id":"levelo_inurba_marseille","lat":43.296131,"lon":5.370791,"is_reserved":false,"is_disabled":false,"rental_uris":{"android":"levelo://app?vid=33d6a1d7-e19b-454a-a7e2-f4ece8fe705c","ios":"levelo://app?vid=33d6a1d7-e19b-454a-a7e2-f4ece8fe705c"},"vehicle_type_id":"4","last_reported":1699707998,"current_range_meters":25600,"station_id":"ce4bgnh2rcd13ifvqc0g","pricing_plan_id":"free"},{"bike_id":"0fcdbfac-4b4c-4e02-b219-b20e1a920488","system_id":"levelo_inurba_marseille","lat":43.296131,"lon":5.370791,"is_reserved":false,"is_disabled":false,"rental_uris":{"android":"levelo://app?vid=0fcdbfac-4b4c-4e02-b219-b20e1a920488","ios":"levelo://app?vid=0fcdbfac-4b4c-4e02-b219-b20e1a920488"},"vehicle_type_id":"4","last_reported":1699707998,"current_range_meters":30800,"station_id":"ce4bgnh2rcd13ifvqc0g","pricing_plan_id":"free"},{"bike_id":"0b2ee6fa-cc30-4585-a66c-fd4895bfeebe","system_id":"levelo_inurba_marseille","lat":43.29625,"lon":5.37146,"is_reserved":false,"is_disabled":false,"rental_uris":{"android":"levelo://app?vid=0b2ee6fa-cc30-4585-a66c-fd4895bfeebe","ios":"levelo://app?vid=0b2ee6fa-cc30-4585-a66c-fd4895bfeebe"},"vehicle_type_id":"4","last_reported":1699707998,"current_range_meters":12800,"station_id":"ce4bgnh2rcd13ifvqc0g","pricing_plan_id":"free"},{"bike_id":"d447991a-59b4-4778-a190-7d2b0920a414","system_id":"levelo_inurba_marseille","lat":43.32215,"lon":5.38613,"is_reserved":false,"is_disabled":false,"rental_uris":{"android":"levelo://app?vid=d447991a-59b4-4778-a190-7d2b0920a414","ios":"levelo://app?vid=d447991a-59b4-4778-a190-7d2b0920a414"},"vehicle_type_id":"4","last_reported":1699707998,"current_range_meters":20800,"station_id":"","pricing_plan_id":"free"},{"bike_id":"24e9f6a8-6aaa-42f2-8d06-1ce4e20bdf1d","system_id":"levelo_inurba_marseille","lat":43.29573,"lon":5.367355,"is_reserved":false,"is_disabled":false,"rental_uris":{"android":"levelo://app?vid=24e9f6a8-6aaa-42f2-8d06-1ce4e20bdf1d","ios":"levelo://app?vid=24e9f6a8-6aaa-42f2-8d06-1ce4e20bdf1d"},"vehicle_type_id":"4","last_reported":1699707998,"current_range_meters":5200,"station_id":"ce4bgph2rcd13ifvqc2g","pricing_plan_id":"free"},{"bike_id":"0d97873f-f667-4235-8e48-de98ed47578e","system_id":"levelo_inurba_marseille","lat":43.29573,"lon":5.367355,"is_reserved":false,"is_disabled":false,"rental_uris":{"android":"levelo://app?vid=0d97873f-f667-4235-8e48-de98ed47578e","ios":"levelo://app?vid=0d97873f-f667-4235-8e48-de98ed47578e"},"vehicle_type_id":"4","last_reported":1699707998,"current_range_meters":10800,"station_id":"ce4bgph2rcd13ifvqc2g","pricing_plan_id":"free"},{"bike_id":"01a54170-7410-4190-b976-2b7deffb9d25","system_id":"levelo_inurba_marseille","lat":43.29573,"lon":5.367355,"is_reserved":false,"is_disabled":false,"rental_uris":{"android":"levelo://app?vid=01a54170-7410-4190-b976-2b7deffb9d25","ios":"levelo://app?vid=01a54170-7410-4190-b976-2b7deffb9d25"},"vehicle_type_id":"4","last_reported":1699707998,"current_range_meters":9600,"station_id":"ce4bgph2rcd13ifvqc2g","pricing_plan_id":"free"},{"bike_id":"d3262b5f-75eb-4ca0-bd30-0c0489742055","system_id":"levelo_inurba_marseille","lat":43.29573,"lon":5.367355,"is_reserved":false,"is_disabled":false,"rental_uris":{"android":"levelo://app?vid=d3262b5f-75eb-4ca0-bd30-0c0489742055","ios":"levelo://app?vid=d3262b5f-75eb-4ca0-bd30-0c0489742055"},"vehicle_type_id":"4","last_reported":1699707998,"current_range_meters":15600,"station_id":"ce4bgph2rcd13ifvqc2g","pricing_plan_id":"free"},{"bike_id":"32050b34-7614-4af1-9ef2-f6bf783acb84","system_id":"levelo_inurba_marseille","lat":43.296045,"lon":5.371045,"is_reserved":false,"is_disabled":false,"rental_uris":{"android":"levelo://app?vid=32050b34-7614-4af1-9ef2-f6bf783acb84","ios":"levelo://app?vid=32050b34-7614-4af1-9ef2-f6bf783acb84"},"vehicle_type_id":"4","last_reported":1699707998,"current_range_meters":21600,"station_id":"ce4bgnh2rcd13ifvqc0g","pricing_plan_id":"free"},{"bike_id":"408e1bba-ac1b-479c-ad30-32026784c873","system_id":"levelo_inurba_marseille","lat":43.2966,"lon":5.37463,"is_reserved":false,"is_disabled":false,"rental_uris":{"android":"levelo://app?vid=408e1bba-ac1b-479c-ad30-32026784c873","ios":"levelo://app?vid=408e1bba-ac1b-479c-ad30-32026784c873"},"vehicle_type_id":"4","last_reported":1699707998,"current_range_meters":16000,"station_id":"","pricing_plan_id":"free"},{"bike_id":"1f299bdc-d50e-4354-a74b-317f17ec3796","system_id":"levelo_inurba_marseille","lat":43.299028,"lon":5.381509,"is_reserved":false,"is_disabled":false,"rental_uris":{"android":"levelo://app?vid=1f299bdc-d50e-4354-a74b-317f17ec3796","ios":"levelo://app?vid=1f299bdc-d50e-4354-a74b-317f17ec3796"},"vehicle_type_id":"4","last_reported":1699707998,"current_range_meters":11200,"station_id":"ce4bgj12rcd13ifvqbc0","pricing_plan_id":"free"},{"bike_id":"feff7d8e-9456-4b4b-b917-4f91bb23e023","system_id":"levelo_inurba_marseille","lat":43.3175,"lon":5.39022,"is_reserved":false,"is_disabled":false,"rental_uris":{"android":"levelo://app?vid=feff7d8e-9456-4b4b-b917-4f91bb23e023","ios":"levelo://app?vid=feff7d8e-9456-4b4b-b917-4f91bb23e023"},"vehicle_type_id":"4","last_reported":1699707998,"current_range_meters":18800,"station_id":"","pricing_plan_id":"free"},{"bike_id":"d0caf18e-280c-46e7-bc23-37ff0f9df7c2","system_id":"levelo_inurba_marseille","lat":43.298037,"lon":5.381066,"is_reserved":false,"is_disabled":false,"rental_uris":{"android":"levelo://app?vid=d0caf18e-280c-46e7-bc23-37ff0f9df7c2","ios":"levelo://app?vid=d0caf18e-280c-46e7-bc23-37ff0f9df7c2"},"vehicle_type_id":"4","last_reported":1699707998,"current_range_meters":27600,"station_id":"ce4bgip2rcd13ifvqbb0","pricing_plan_id":"free"},{"bike_id":"a7a7ff0e-b047-4041-b6a4-8d896ea2812a","system_id":"levelo_inurba_marseille","lat":43.295748,"lon":5.37522,"is_reserved":false,"is_disabled":false,"rental_uris":{"android":"levelo://app?vid=a7a7ff0e-b047-4041-b6a4-8d896ea2812a","ios":"levelo://app?vid=a7a7ff0e-b047-4041-b6a4-8d896ea2812a"},"vehicle_type_id":"4","last_reported":1699707998,"current_range_meters":10800,"station_id":"ce4bgh92rcd13ifvqb50","pricing_plan_id":"free"},{"bike_id":"4112fa8a-3158-4f0c-84df-b0bb2a9e49b5","system_id":"levelo_inurba_marseille","lat":43.304274,"lon":5.388873,"is_reserved":false,"is_disabled":false,"rental_uris":{"android":"levelo://app?vid=4112fa8a-3158-4f0c-84df-b0bb2a9e49b5","ios":"levelo://app?vid=4112fa8a-3158-4f0c-84df-b0bb2a9e49b5"},"vehicle_type_id":"4","last_reported":1699707998,"current_range_meters":28400,"station_id":"ce4bgk12rcd13ifvqbi0","pricing_plan_id":"free"},{"bike_id":"dbbb40dc-7dd1-4560-9413-33fe9cdb3774","system_id":"levelo_inurba_marseille","lat":43.30421,"lon":5.38893,"is_reserved":false,"is_disabled":false,"rental_uris":{"android":"levelo://app?vid=dbbb40dc-7dd1-4560-9413-33fe9cdb3774","ios":"levelo://app?vid=dbbb40dc-7dd1-4560-9413-33fe9cdb3774"},"vehicle_type_id":"4","last_reported":1699707998,"current_range_meters":27200,"station_id":"ce4bgk12rcd13ifvqbi0","pricing_plan_id":"free"},{"bike_id":"7eee2dab-8ed3-4177-969f-67bd82424ffe","system_id":"levelo_inurba_marseille","lat":43.29978,"lon":5.38486,"is_reserved":false,"is_disabled":false,"rental_uris":{"android":"levelo://app?vid=7eee2dab-8ed3-4177-969f-67bd82424ffe","ios":"levelo://app?vid=7eee2dab-8ed3-4177-969f-67bd82424ffe"},"vehicle_type_id":"4","last_reported":1699707998,"current_range_meters":0,"station_id":"ce4bgj92rcd13ifvqbd0","pricing_plan_id":"free"},{"bike_id":"312a67da-32d1-49d5-a777-2364cb07c8e5","system_id":"levelo_inurba_marseille","lat":43.295279,"lon":5.375048,"is_reserved":false,"is_disabled":false,"rental_uris":{"android":"levelo://app?vid=312a67da-32d1-49d5-a777-2364cb07c8e5","ios":"levelo://app?vid=312a67da-32d1-49d5-a777-2364cb07c8e5"},"vehicle_type_id":"4","last_reported":1699707998,"current_range_meters":27600,"station_id":"ce4bgkp2rcd13ifvqbmg","pricing_plan_id":"free"},{"bike_id":"ca7f80a2-d52d-4ed5-9f83-d7c812ee6176","system_id":"levelo_inurba_marseille","lat":43.299717,"lon":5.384845,"is_reserved":false,"is_disabled":false,"rental_uris":{"android":"levelo://app?vid=ca7f80a2-d52d-4ed5-9f83-d7c812ee6176","ios":"levelo://app?vid=ca7f80a2-d52d-4ed5-9f83-d7c812ee6176"},"vehicle_type_id":"4","last_reported":1699707998,"current_range_meters":6800,"station_id":"ce4bgj92rcd13ifvqbd0","pricing_plan_id":"free"},{"bike_id":"c2c4617a-c4e0-4da4-9345-a85a8d1145e4","system_id":"levelo_inurba_marseille","lat":43.299717,"lon":5.384845,"is_reserved":false,"is_disabled":false,"rental_uris":{"android":"levelo://app?vid=c2c4617a-c4e0-4da4-9345-a85a8d1145e4","ios":"levelo://app?vid=c2c4617a-c4e0-4da4-9345-a85a8d1145e4"},"vehicle_type_id":"4","last_reported":1699707998,"current_range_meters":18400,"station_id":"ce4bgj92rcd13ifvqbd0","pricing_plan_id":"free"},{"bike_id":"515814cb-848a-4ab1-b3bf-df42cb802f4a","system_id":"levelo_inurba_marseille","lat":43.299717,"lon":5.384845,"is_reserved":false,"is_disabled":false,"rental_uris":{"android":"levelo://app?vid=515814cb-848a-4ab1-b3bf-df42cb802f4a","ios":"levelo://app?vid=515814cb-848a-4ab1-b3bf-df42cb802f4a"},"vehicle_type_id":"4","last_reported":1699707998,"current_range_meters":0,"station_id":"ce4bgj92rcd13ifvqbd0","pricing_plan_id":"free"},{"bike_id":"e9325b3d-089b-4c76-9b16-0552f50b747b","system_id":"levelo_inurba_marseille","lat":43.31283,"lon":5.39368,"is_reserved":false,"is_disabled":false,"rental_uris":{"android":"levelo://app?vid=e9325b3d-089b-4c76-9b16-0552f50b747b","ios":"levelo://app?vid=e9325b3d-089b-4c76-9b16-0552f50b747b"},"vehicle_type_id":"4","last_reported":1699707998,"current_range_meters":0,"station_id":"","pricing_plan_id":"free"},{"bike_id":"5e0fe5e6-0d38-462b-963e-5a4a8934abd8","system_id":"levelo_inurba_marseille","lat":43.29601,"lon":5.381084,"is_reserved":false,"is_disabled":false,"rental_uris":{"android":"levelo://app?vid=5e0fe5e6-0d38-462b-963e-5a4a8934abd8","ios":"levelo://app?vid=5e0fe5e6-0d38-462b-963e-5a4a8934abd8"},"vehicle_type_id":"4","last_reported":1699707998,"current_range_meters":8400,"station_id":"ce4bgl12rcd13ifvqbo0","pricing_plan_id":"free"},{"bike_id":"9b6eac52-f94a-40df-bf0f-270cdeb94973","system_id":"levelo_inurba_marseille","lat":43.2928,"lon":5.36852,"is_reserved":false,"is_disabled":false,"rental_uris":{"android":"levelo://app?vid=9b6eac52-f94a-40df-bf0f-270cdeb94973","ios":"levelo://app?vid=9b6eac52-f94a-40df-bf0f-270cdeb94973"},"vehicle_type_id":"4","last_reported":1699707998,"current_range_meters":24400,"station_id":"ce4bhbp2rcd13ifvqesg","pricing_plan_id":"free"},{"bike_id":"e27db277-7896-4964-b83a-f4ba53ae9cac","system_id":"levelo_inurba_marseille","lat":43.293259,"lon":5.371586,"is_reserved":false,"is_disabled":false,"rental_uris":{"android":"levelo://app?vid=e27db277-7896-4964-b83a-f4ba53ae9cac","ios":"levelo://app?vid=e27db277-7896-4964-b83a-f4ba53ae9cac"},"vehicle_type_id":"4","last_reported":1699707998,"current_range_meters":0,"station_id":"ce4bgh92rcd13ifvqb40","pricing_plan_id":"free"},{"bike_id":"34cb1bf1-cb64-4404-82ae-0cf0da020e6f","system_id":"levelo_inurba_marseille","lat":43.292749,"lon":5.368402,"is_reserved":false,"is_disabled":false,"rental_uris":{"android":"levelo://app?vid=34cb1bf1-cb64-4404-82ae-0cf0da020e6f","ios":"levelo://app?vid=34cb1bf1-cb64-4404-82ae-0cf0da020e6f"},"vehicle_type_id":"4","last_reported":1699707998,"current_range_meters":5200,"station_id":"ce4bhbp2rcd13ifvqesg","pricing_plan_id":"free"},{"bike_id":"11ae63ce-3392-4417-aacc-2eaa22cf8373","system_id":"levelo_inurba_marseille","lat":43.29275,"lon":5.36839,"is_reserved":false,"is_disabled":false,"rental_uris":{"android":"levelo://app?vid=11ae63ce-3392-4417-aacc-2eaa22cf8373","ios":"levelo://app?vid=11ae63ce-3392-4417-aacc-2eaa22cf8373"},"vehicle_type_id":"4","last_reported":1699707998,"current_range_meters":22400,"station_id":"ce4bhbp2rcd13ifvqesg","pricing_plan_id":"free"},{"bike_id":"1f2edeec-835f-4188-b75a-b19c37bb1dac","system_id":"levelo_inurba_marseille","lat":43.30109,"lon":5.3894,"is_reserved":false,"is_disabled":false,"rental_uris":{"android":"levelo://app?vid=1f2edeec-835f-4188-b75a-b19c37bb1dac","ios":"levelo://app?vid=1f2edeec-835f-4188-b75a-b19c37bb1dac"},"vehicle_type_id":"4","last_reported":1699707998,"current_range_meters":6000,"station_id":"","pricing_plan_id":"free"},{"bike_id":"86dde724-7c0c-4439-b131-80ddc5ad9d7b","system_id":"levelo_inurba_marseille","lat":43.292749,"lon":5.368402,"is_reserved":false,"is_disabled":false,"rental_uris":{"android":"levelo://app?vid=86dde724-7c0c-4439-b131-80ddc5ad9d7b","ios":"levelo://app?vid=86dde724-7c0c-4439-b131-80ddc5ad9d7b"},"vehicle_type_id":"4","last_reported":1699707998,"current_range_meters":27200,"station_id":"ce4bhbp2rcd13ifvqesg","pricing_plan_id":"free"},{"bike_id":"d0f04ea6-52ee-49ed-a4bd-5f34d02462d8","system_id":"levelo_inurba_marseille","lat":43.292981,"lon":5.37451,"is_reserved":false,"is_disabled":false,"rental_uris":{"android":"levelo://app?vid=d0f04ea6-52ee-49ed-a4bd-5f34d02462d8","ios":"levelo://app?vid=d0f04ea6-52ee-49ed-a4bd-5f34d02462d8"},"vehicle_type_id":"4","last_reported":1699707998,"current_range_meters":13600,"station_id":"ce4bgi12rcd13ifvqb70","pricing_plan_id":"free"},{"bike_id":"b752f184-48bf-432e-a873-c601785bb722","system_id":"levelo_inurba_marseille","lat":43.29295,"lon":5.37457,"is_reserved":false,"is_disabled":false,"rental_uris":{"android":"levelo://app?vid=b752f184-48bf-432e-a873-c601785bb722","ios":"levelo://app?vid=b752f184-48bf-432e-a873-c601785bb722"},"vehicle_type_id":"4","last_reported":1699707998,"current_range_meters":0,"station_id":"ce4bgi12rcd13ifvqb70","pricing_plan_id":"free"},{"bike_id":"8e821820-ebb6-4e8b-a8c0-043fc736702d","system_id":"levelo_inurba_marseille","lat":43.30301,"lon":5.3921,"is_reserved":false,"is_disabled":false,"rental_uris":{"android":"levelo://app?vid=8e821820-ebb6-4e8b-a8c0-043fc736702d","ios":"levelo://app?vid=8e821820-ebb6-4e8b-a8c0-043fc736702d"},"vehicle_type_id":"4","last_reported":1699707998,"current_range_meters":7600,"station_id":"ce4bgkh2rcd13ifvqbk0","pricing_plan_id":"free"},{"bike_id":"63eae9a0-75b6-482e-93f1-ac48daabe2f4","system_id":"levelo_inurba_marseille","lat":43.300852,"lon":5.390859,"is_reserved":false,"is_disabled":false,"rental_uris":{"android":"levelo://app?vid=63eae9a0-75b6-482e-93f1-ac48daabe2f4","ios":"levelo://app?vid=63eae9a0-75b6-482e-93f1-ac48daabe2f4"},"vehicle_type_id":"4","last_reported":1699707998,"current_range_meters":26400,"station_id":"ce4bh192rcd13ifvqdb0","pricing_plan_id":"free"},{"bike_id":"21d73c54-cbad-4a64-b92d-116a58948781","system_id":"levelo_inurba_marseille","lat":43.292311,"lon":5.360731,"is_reserved":false,"is_disabled":false,"rental_uris":{"android":"levelo://app?vid=21d73c54-cbad-4a64-b92d-116a58948781","ios":"levelo://app?vid=21d73c54-cbad-4a64-b92d-116a58948781"},"vehicle_type_id":"4","last_reported":1699707998,"current_range_meters":25600,"station_id":"ce4bhbh2rcd13ifvqeqg","pricing_plan_id":"free"},{"bike_id":"64a04acb-31f7-4ccc-b201-5f20d14bd295","system_id":"levelo_inurba_marseille","lat":43.29882,"lon":5.38901,"is_reserved":false,"is_disabled":false,"rental_uris":{"android":"levelo://app?vid=64a04acb-31f7-4ccc-b201-5f20d14bd295","ios":"levelo://app?vid=64a04acb-31f7-4ccc-b201-5f20d14bd295"},"vehicle_type_id":"4","last_reported":1699707998,"current_range_meters":25200,"station_id":"ce4bh392rcd13ifvqdl0","pricing_plan_id":"free"},{"bike_id":"15437cf1-9c74-4662-9890-cb1230c59129","system_id":"levelo_inurba_marseille","lat":43.291994,"lon":5.357886,"is_reserved":false,"is_disabled":false,"rental_uris":{"android":"levelo://app?vid=15437cf1-9c74-4662-9890-cb1230c59129","ios":"levelo://app?vid=15437cf1-9c74-4662-9890-cb1230c59129"},"vehicle_type_id":"4","last_reported":1699707998,"current_range_meters":31200,"station_id":"ce4bhb12rcd13ifvqel0","pricing_plan_id":"free"},{"bike_id":"3aab0ec3-e40e-4a50-876a-a2f5bf6ca1be","system_id":"levelo_inurba_marseille","lat":43.309038,"lon":5.396546,"is_reserved":false,"is_disabled":false,"rental_uris":{"android":"levelo://app?vid=3aab0ec3-e40e-4a50-876a-a2f5bf6ca1be","ios":"levelo://app?vid=3aab0ec3-e40e-4a50-876a-a2f5bf6ca1be"},"vehicle_type_id":"4","last_reported":1699707998,"current_range_meters":23600,"station_id":"ce4bh012rcd13ifvqcv0","pricing_plan_id":"free"},{"bike_id":"30323e43-d1ab-4d74-9e51-d3e68bb77aaa","system_id":"levelo_inurba_marseille","lat":43.29013,"lon":5.36524,"is_reserved":false,"is_disabled":false,"rental_uris":{"android":"levelo://app?vid=30323e43-d1ab-4d74-9e51-d3e68bb77aaa","ios":"levelo://app?vid=30323e43-d1ab-4d74-9e51-d3e68bb77aaa"},"vehicle_type_id":"4","last_reported":1699707998,"current_range_meters":25200,"station_id":"","pricing_plan_id":"free"},{"bike_id":"87b60c7c-a63c-4285-b44c-c094c38b7c30","system_id":"levelo_inurba_marseille","lat":43.28942,"lon":5.36628,"is_reserved":false,"is_disabled":false,"rental_uris":{"android":"levelo://app?vid=87b60c7c-a63c-4285-b44c-c094c38b7c30","ios":"levelo://app?vid=87b60c7c-a63c-4285-b44c-c094c38b7c30"},"vehicle_type_id":"4","last_reported":1699707998,"current_range_meters":22400,"station_id":"ce4bhap2rcd13ifvqek0","pricing_plan_id":"free"},{"bike_id":"bdcb74f2-c87c-4b21-b2b2-3bd4f166f8d1","system_id":"levelo_inurba_marseille","lat":43.289184,"lon":5.366408,"is_reserved":false,"is_disabled":false,"rental_uris":{"android":"levelo://app?vid=bdcb74f2-c87c-4b21-b2b2-3bd4f166f8d1","ios":"levelo://app?vid=bdcb74f2-c87c-4b21-b2b2-3bd4f166f8d1"},"vehicle_type_id":"4","last_reported":1699707998,"current_range_meters":24400,"station_id":"ce4bhap2rcd13ifvqek0","pricing_plan_id":"free"},{"bike_id":"d4536e4a-b54f-4e57-bfb7-2d5681d4b1ee","system_id":"levelo_inurba_marseille","lat":43.289344,"lon":5.366386,"is_reserved":false,"is_disabled":false,"rental_uris":{"android":"levelo://app?vid=d4536e4a-b54f-4e57-bfb7-2d5681d4b1ee","ios":"levelo://app?vid=d4536e4a-b54f-4e57-bfb7-2d5681d4b1ee"},"vehicle_type_id":"4","last_reported":1699707998,"current_range_meters":0,"station_id":"ce4bhap2rcd13ifvqek0","pricing_plan_id":"free"},{"bike_id":"486c3cf8-6617-4869-a4cb-4eeafbd88b99","system_id":"levelo_inurba_marseille","lat":43.289184,"lon":5.366408,"is_reserved":false,"is_disabled":false,"rental_uris":{"android":"levelo://app?vid=486c3cf8-6617-4869-a4cb-4eeafbd88b99","ios":"levelo://app?vid=486c3cf8-6617-4869-a4cb-4eeafbd88b99"},"vehicle_type_id":"4","last_reported":1699707998,"current_range_meters":11200,"station_id":"ce4bhap2rcd13ifvqek0","pricing_plan_id":"free"},{"bike_id":"c78ba399-5203-4a5b-bfcc-f37bff14bf82","system_id":"levelo_inurba_marseille","lat":43.304296,"lon":5.397513,"is_reserved":false,"is_disabled":false,"rental_uris":{"android":"levelo://app?vid=c78ba399-5203-4a5b-bfcc-f37bff14bf82","ios":"levelo://app?vid=c78ba399-5203-4a5b-bfcc-f37bff14bf82"},"vehicle_type_id":"4","last_reported":1699707998,"current_range_meters":29200,"station_id":"ce4bh092rcd13ifvqd20","pricing_plan_id":"free"},{"bike_id":"c673604e-2915-4333-b654-0f01707b6745","system_id":"levelo_inurba_marseille","lat":43.28944,"lon":5.36379,"is_reserved":false,"is_disabled":false,"rental_uris":{"android":"levelo://app?vid=c673604e-2915-4333-b654-0f01707b6745","ios":"levelo://app?vid=c673604e-2915-4333-b654-0f01707b6745"},"vehicle_type_id":"4","last_reported":1699707998,"current_range_meters":20800,"station_id":"ce4bhc92rcd13ifvqetg","pricing_plan_id":"free"},{"bike_id":"cd13bfcb-f064-4b59-b1e1-0a16e7356500","system_id":"levelo_inurba_marseille","lat":43.2894,"lon":5.36401,"is_reserved":false,"is_disabled":false,"rental_uris":{"android":"levelo://app?vid=cd13bfcb-f064-4b59-b1e1-0a16e7356500","ios":"levelo://app?vid=cd13bfcb-f064-4b59-b1e1-0a16e7356500"},"vehicle_type_id":"4","last_reported":1699707998,"current_range_meters":14400,"station_id":"ce4bhc92rcd13ifvqetg","pricing_plan_id":"free"},{"bike_id":"e7fb3592-7d10-4148-a0f2-4baab938bb5f","system_id":"levelo_inurba_marseille","lat":43.28939,"lon":5.36389,"is_reserved":false,"is_disabled":false,"rental_uris":{"android":"levelo://app?vid=e7fb3592-7d10-4148-a0f2-4baab938bb5f","ios":"levelo://app?vid=e7fb3592-7d10-4148-a0f2-4baab938bb5f"},"vehicle_type_id":"4","last_reported":1699707998,"current_range_meters":25200,"station_id":"ce4bhc92rcd13ifvqetg","pricing_plan_id":"free"},{"bike_id":"0ae6fd29-6726-42a5-bddb-6e0d33e634e0","system_id":"levelo_inurba_marseille","lat":43.289468,"lon":5.363719,"is_reserved":false,"is_disabled":false,"rental_uris":{"android":"levelo://app?vid=0ae6fd29-6726-42a5-bddb-6e0d33e634e0","ios":"levelo://app?vid=0ae6fd29-6726-42a5-bddb-6e0d33e634e0"},"vehicle_type_id":"4","last_reported":1699707998,"current_range_meters":19200,"station_id":"ce4bhc92rcd13ifvqetg","pricing_plan_id":"free"},{"bike_id":"9f2d1520-40dc-465f-a949-2d600757b715","system_id":"levelo_inurba_marseille","lat":43.294153,"lon":5.386305,"is_reserved":false,"is_disabled":false,"rental_uris":{"android":"levelo://app?vid=9f2d1520-40dc-465f-a949-2d600757b715","ios":"levelo://app?vid=9f2d1520-40dc-465f-a949-2d600757b715"},"vehicle_type_id":"4","last_reported":1699707998,"current_range_meters":13200,"station_id":"ce4bh2h2rcd13ifvqdh0","pricing_plan_id":"free"},{"bike_id":"db4cfc3c-aad4-4da1-9987-dda4b5eff934","system_id":"levelo_inurba_marseille","lat":43.33043,"lon":5.38924,"is_reserved":false,"is_disabled":false,"rental_uris":{"android":"levelo://app?vid=db4cfc3c-aad4-4da1-9987-dda4b5eff934","ios":"levelo://app?vid=db4cfc3c-aad4-4da1-9987-dda4b5eff934"},"vehicle_type_id":"4","last_reported":1699707998,"current_range_meters":12400,"station_id":"ce4bhr92rcd13ifvqhrg","pricing_plan_id":"free"},{"bike_id":"de620a8c-ed43-4549-a022-62b5a104619b","system_id":"levelo_inurba_marseille","lat":43.290995,"lon":5.381361,"is_reserved":false,"is_disabled":false,"rental_uris":{"android":"levelo://app?vid=de620a8c-ed43-4549-a022-62b5a104619b","ios":"levelo://app?vid=de620a8c-ed43-4549-a022-62b5a104619b"},"vehicle_type_id":"4","last_reported":1699707998,"current_range_meters":2400,"station_id":"ce4bh512rcd13ifvqe2g","pricing_plan_id":"free"},{"bike_id":"83862952-1376-4c12-9b74-3e20e4d6da1e","system_id":"levelo_inurba_marseille","lat":43.297922,"lon":5.393496,"is_reserved":false,"is_disabled":false,"rental_uris":{"android":"levelo://app?vid=83862952-1376-4c12-9b74-3e20e4d6da1e","ios":"levelo://app?vid=83862952-1376-4c12-9b74-3e20e4d6da1e"},"vehicle_type_id":"4","last_reported":1699707998,"current_range_meters":0,"station_id":"chh1huq6cuj3fo74tm60","pricing_plan_id":"free"},{"bike_id":"697fee07-62df-44e5-861b-24bcc599bc59","system_id":"levelo_inurba_marseille","lat":43.33757,"lon":5.374365,"is_reserved":false,"is_disabled":false,"rental_uris":{"android":"levelo://app?vid=697fee07-62df-44e5-861b-24bcc599bc59","ios":"levelo://app?vid=697fee07-62df-44e5-861b-24bcc599bc59"},"vehicle_type_id":"4","last_reported":1699707998,"current_range_meters":26400,"station_id":"","pricing_plan_id":"free"},{"bike_id":"7809b0ae-a108-402e-98cc-5fb0226081c4","system_id":"levelo_inurba_marseille","lat":43.306412,"lon":5.401035,"is_reserved":false,"is_disabled":false,"rental_uris":{"android":"levelo://app?vid=7809b0ae-a108-402e-98cc-5fb0226081c4","ios":"levelo://app?vid=7809b0ae-a108-402e-98cc-5fb0226081c4"},"vehicle_type_id":"4","last_reported":1699707998,"current_range_meters":12800,"station_id":"ce4bh112rcd13ifvqda0","pricing_plan_id":"free"},{"bike_id":"61c9606b-5e0c-419f-a3b5-4fe4d535e889","system_id":"levelo_inurba_marseille","lat":43.33037,"lon":5.392367,"is_reserved":false,"is_disabled":false,"rental_uris":{"android":"levelo://app?vid=61c9606b-5e0c-419f-a3b5-4fe4d535e889","ios":"levelo://app?vid=61c9606b-5e0c-419f-a3b5-4fe4d535e889"},"vehicle_type_id":"4","last_reported":1699707998,"current_range_meters":10400,"station_id":"","pricing_plan_id":"free"},{"bike_id":"87bc58d1-5fc2-4816-b5a4-e8235284a33f","system_id":"levelo_inurba_marseille","lat":43.28727,"lon":5.36078,"is_reserved":false,"is_disabled":false,"rental_uris":{"android":"levelo://app?vid=87bc58d1-5fc2-4816-b5a4-e8235284a33f","ios":"levelo://app?vid=87bc58d1-5fc2-4816-b5a4-e8235284a33f"},"vehicle_type_id":"4","last_reported":1699707998,"current_range_meters":31200,"station_id":"cki0cbj6b192h4jlfktg","pricing_plan_id":"free"},{"bike_id":"49d668cc-4cce-443d-a98f-05e5f388cfea","system_id":"levelo_inurba_marseille","lat":43.286593,"lon":5.363346,"is_reserved":false,"is_disabled":false,"rental_uris":{"android":"levelo://app?vid=49d668cc-4cce-443d-a98f-05e5f388cfea","ios":"levelo://app?vid=49d668cc-4cce-443d-a98f-05e5f388cfea"},"vehicle_type_id":"4","last_reported":1699707998,"current_range_meters":26000,"station_id":"ce4bhah2rcd13ifvqej0","pricing_plan_id":"free"},{"bike_id":"4b9f6492-51eb-4769-a5df-c2f54a1e749a","system_id":"levelo_inurba_marseille","lat":43.286593,"lon":5.363346,"is_reserved":false,"is_disabled":false,"rental_uris":{"android":"levelo://app?vid=4b9f6492-51eb-4769-a5df-c2f54a1e749a","ios":"levelo://app?vid=4b9f6492-51eb-4769-a5df-c2f54a1e749a"},"vehicle_type_id":"4","last_reported":1699707998,"current_range_meters":11600,"station_id":"ce4bhah2rcd13ifvqej0","pricing_plan_id":"free"},{"bike_id":"52540b6a-a703-4fbb-9ac0-bf71d2291a64","system_id":"levelo_inurba_marseille","lat":43.289286,"lon":5.38394,"is_reserved":false,"is_disabled":false,"rental_uris":{"android":"levelo://app?vid=52540b6a-a703-4fbb-9ac0-bf71d2291a64","ios":"levelo://app?vid=52540b6a-a703-4fbb-9ac0-bf71d2291a64"},"vehicle_type_id":"4","last_reported":1699707998,"current_range_meters":7600,"station_id":"ce4bh612rcd13ifvqe6g","pricing_plan_id":"free"},{"bike_id":"e2de9e0e-1345-40d6-a5e3-e81bc106e283","system_id":"levelo_inurba_marseille","lat":43.28926,"lon":5.38392,"is_reserved":false,"is_disabled":false,"rental_uris":{"android":"levelo://app?vid=e2de9e0e-1345-40d6-a5e3-e81bc106e283","ios":"levelo://app?vid=e2de9e0e-1345-40d6-a5e3-e81bc106e283"},"vehicle_type_id":"4","last_reported":1699707998,"current_range_meters":30000,"station_id":"ce4bh612rcd13ifvqe6g","pricing_plan_id":"free"},{"bike_id":"d2c0b799-b723-4423-bdc1-56240bc6ad82","system_id":"levelo_inurba_marseille","lat":43.286039,"lon":5.370681,"is_reserved":false,"is_disabled":false,"rental_uris":{"android":"levelo://app?vid=d2c0b799-b723-4423-bdc1-56240bc6ad82","ios":"levelo://app?vid=d2c0b799-b723-4423-bdc1-56240bc6ad82"},"vehicle_type_id":"4","last_reported":1699707998,"current_range_meters":10000,"station_id":"ce4bht12rcd13ifvqi60","pricing_plan_id":"free"},{"bike_id":"03816db3-a55f-4285-b71a-b34530e0cc15","system_id":"levelo_inurba_marseille","lat":43.286039,"lon":5.370679,"is_reserved":false,"is_disabled":false,"rental_uris":{"android":"levelo://app?vid=03816db3-a55f-4285-b71a-b34530e0cc15","ios":"levelo://app?vid=03816db3-a55f-4285-b71a-b34530e0cc15"},"vehicle_type_id":"4","last_reported":1699707998,"current_range_meters":18800,"station_id":"ce4bht12rcd13ifvqi60","pricing_plan_id":"free"},{"bike_id":"d4fd9050-939c-4e7d-a2a8-491795b109fb","system_id":"levelo_inurba_marseille","lat":43.304278,"lon":5.388868,"is_reserved":false,"is_disabled":false,"rental_uris":{"android":"levelo://app?vid=d4fd9050-939c-4e7d-a2a8-491795b109fb","ios":"levelo://app?vid=d4fd9050-939c-4e7d-a2a8-491795b109fb"},"vehicle_type_id":"4","last_reported":1699707998,"current_range_meters":30800,"station_id":"ce4bgk12rcd13ifvqbi0","pricing_plan_id":"free"},{"bike_id":"191bc348-b1e1-4ff9-8045-f247e6a9665d","system_id":"levelo_inurba_marseille","lat":43.299847,"lon":5.400937,"is_reserved":false,"is_disabled":false,"rental_uris":{"android":"levelo://app?vid=191bc348-b1e1-4ff9-8045-f247e6a9665d","ios":"levelo://app?vid=191bc348-b1e1-4ff9-8045-f247e6a9665d"},"vehicle_type_id":"4","last_reported":1699707998,"current_range_meters":24800,"station_id":"ce4bgpp2rcd13ifvqc3g","pricing_plan_id":"free"},{"bike_id":"9f3cc0cc-d7a2-49fd-b834-176b54d9323a","system_id":"levelo_inurba_marseille","lat":43.31676,"lon":5.405057,"is_reserved":false,"is_disabled":false,"rental_uris":{"android":"levelo://app?vid=9f3cc0cc-d7a2-49fd-b834-176b54d9323a","ios":"levelo://app?vid=9f3cc0cc-d7a2-49fd-b834-176b54d9323a"},"vehicle_type_id":"4","last_reported":1699707998,"current_range_meters":0,"station_id":"","pricing_plan_id":"free"},{"bike_id":"e57449c2-d088-47cf-8bf2-271593713c89","system_id":"levelo_inurba_marseille","lat":43.328576,"lon":5.398841,"is_reserved":false,"is_disabled":false,"rental_uris":{"android":"levelo://app?vid=e57449c2-d088-47cf-8bf2-271593713c89","ios":"levelo://app?vid=e57449c2-d088-47cf-8bf2-271593713c89"},"vehicle_type_id":"4","last_reported":1699707998,"current_range_meters":8000,"station_id":"","pricing_plan_id":"free"},{"bike_id":"43ddd57b-205a-4061-a847-1e510dec67db","system_id":"levelo_inurba_marseille","lat":43.294314,"lon":5.397498,"is_reserved":false,"is_disabled":false,"rental_uris":{"android":"levelo://app?vid=43ddd57b-205a-4061-a847-1e510dec67db","ios":"levelo://app?vid=43ddd57b-205a-4061-a847-1e510dec67db"},"vehicle_type_id":"4","last_reported":1699707998,"current_range_meters":22000,"station_id":"ce4bh3h2rcd13ifvqdo0","pricing_plan_id":"free"},{"bike_id":"80fcc837-da59-44f4-b189-b47ba0ff7254","system_id":"levelo_inurba_marseille","lat":43.319179,"lon":5.407725,"is_reserved":false,"is_disabled":false,"rental_uris":{"android":"levelo://app?vid=80fcc837-da59-44f4-b189-b47ba0ff7254","ios":"levelo://app?vid=80fcc837-da59-44f4-b189-b47ba0ff7254"},"vehicle_type_id":"4","last_reported":1699707998,"current_range_meters":30400,"station_id":"ce4bhq12rcd13ifvqhig","pricing_plan_id":"free"},{"bike_id":"030625bd-f8ba-4389-9944-df2973894a22","system_id":"levelo_inurba_marseille","lat":43.325731,"lon":5.404186,"is_reserved":false,"is_disabled":false,"rental_uris":{"android":"levelo://app?vid=030625bd-f8ba-4389-9944-df2973894a22","ios":"levelo://app?vid=030625bd-f8ba-4389-9944-df2973894a22"},"vehicle_type_id":"4","last_reported":1699707998,"current_range_meters":3600,"station_id":"","pricing_plan_id":"free"},{"bike_id":"0b083c6d-d1d4-4abb-84f8-baa4bad07eff","system_id":"levelo_inurba_marseille","lat":43.2872,"lon":5.38911,"is_reserved":false,"is_disabled":false,"rental_uris":{"android":"levelo://app?vid=0b083c6d-d1d4-4abb-84f8-baa4bad07eff","ios":"levelo://app?vid=0b083c6d-d1d4-4abb-84f8-baa4bad07eff"},"vehicle_type_id":"4","last_reported":1699707998,"current_range_meters":3200,"station_id":"","pricing_plan_id":"free"},{"bike_id":"8f73f349-a272-4ad6-b8fd-7b017ee1ab31","system_id":"levelo_inurba_marseille","lat":43.337168,"lon":5.391825,"is_reserved":false,"is_disabled":false,"rental_uris":{"android":"levelo://app?vid=8f73f349-a272-4ad6-b8fd-7b017ee1ab31","ios":"levelo://app?vid=8f73f349-a272-4ad6-b8fd-7b017ee1ab31"},"vehicle_type_id":"4","last_reported":1699707998,"current_range_meters":28800,"station_id":"ce4bhr92rcd13ifvqhsg","pricing_plan_id":"free"},{"bike_id":"463cdd20-e27b-4e61-83ef-db5e2fb049c5","system_id":"levelo_inurba_marseille","lat":43.323464,"lon":5.406297,"is_reserved":false,"is_disabled":false,"rental_uris":{"android":"levelo://app?vid=463cdd20-e27b-4e61-83ef-db5e2fb049c5","ios":"levelo://app?vid=463cdd20-e27b-4e61-83ef-db5e2fb049c5"},"vehicle_type_id":"4","last_reported":1699707998,"current_range_meters":22800,"station_id":"ce4bhq92rcd13ifvqhjg","pricing_plan_id":"free"},{"bike_id":"7752aa1d-a03d-4994-bbc3-5a5758c7288f","system_id":"levelo_inurba_marseille","lat":43.323464,"lon":5.406297,"is_reserved":false,"is_disabled":false,"rental_uris":{"android":"levelo://app?vid=7752aa1d-a03d-4994-bbc3-5a5758c7288f","ios":"levelo://app?vid=7752aa1d-a03d-4994-bbc3-5a5758c7288f"},"vehicle_type_id":"4","last_reported":1699707998,"current_range_meters":28400,"station_id":"ce4bhq92rcd13ifvqhjg","pricing_plan_id":"free"},{"bike_id":"db99b615-09b9-41c5-acea-9701251132a3","system_id":"levelo_inurba_marseille","lat":43.323464,"lon":5.406297,"is_reserved":false,"is_disabled":false,"rental_uris":{"android":"levelo://app?vid=db99b615-09b9-41c5-acea-9701251132a3","ios":"levelo://app?vid=db99b615-09b9-41c5-acea-9701251132a3"},"vehicle_type_id":"4","last_reported":1699707998,"current_range_meters":24000,"station_id":"ce4bhq92rcd13ifvqhjg","pricing_plan_id":"free"},{"bike_id":"cc902496-375b-4537-bce9-f2064eb90e0d","system_id":"levelo_inurba_marseille","lat":43.284793,"lon":5.384119,"is_reserved":false,"is_disabled":false,"rental_uris":{"android":"levelo://app?vid=cc902496-375b-4537-bce9-f2064eb90e0d","ios":"levelo://app?vid=cc902496-375b-4537-bce9-f2064eb90e0d"},"vehicle_type_id":"4","last_reported":1699707998,"current_range_meters":10400,"station_id":"ce4bh512rcd13ifvqe3g","pricing_plan_id":"free"},{"bike_id":"09597bf5-3db8-47fe-bfb1-599a8c233e42","system_id":"levelo_inurba_marseille","lat":43.284793,"lon":5.384113,"is_reserved":false,"is_disabled":false,"rental_uris":{"android":"levelo://app?vid=09597bf5-3db8-47fe-bfb1-599a8c233e42","ios":"levelo://app?vid=09597bf5-3db8-47fe-bfb1-599a8c233e42"},"vehicle_type_id":"4","last_reported":1699707998,"current_range_meters":28400,"station_id":"ce4bh512rcd13ifvqe3g","pricing_plan_id":"free"},{"bike_id":"f107d31e-d5e8-44f9-90a4-8c6f0698aef5","system_id":"levelo_inurba_marseille","lat":43.28481,"lon":5.38417,"is_reserved":false,"is_disabled":false,"rental_uris":{"android":"levelo://app?vid=f107d31e-d5e8-44f9-90a4-8c6f0698aef5","ios":"levelo://app?vid=f107d31e-d5e8-44f9-90a4-8c6f0698aef5"},"vehicle_type_id":"4","last_reported":1699707998,"current_range_meters":0,"station_id":"ce4bh512rcd13ifvqe3g","pricing_plan_id":"free"},{"bike_id":"5db4b7dc-c372-4e1b-bbcd-f9a5a23f2a5f","system_id":"levelo_inurba_marseille","lat":43.284793,"lon":5.384119,"is_reserved":false,"is_disabled":false,"rental_uris":{"android":"levelo://app?vid=5db4b7dc-c372-4e1b-bbcd-f9a5a23f2a5f","ios":"levelo://app?vid=5db4b7dc-c372-4e1b-bbcd-f9a5a23f2a5f"},"vehicle_type_id":"4","last_reported":1699707998,"current_range_meters":9200,"station_id":"ce4bh512rcd13ifvqe3g","pricing_plan_id":"free"},{"bike_id":"8f76a6e2-6078-43f0-a4f2-2f44f0029997","system_id":"levelo_inurba_marseille","lat":43.284787,"lon":5.384116,"is_reserved":false,"is_disabled":false,"rental_uris":{"android":"levelo://app?vid=8f76a6e2-6078-43f0-a4f2-2f44f0029997","ios":"levelo://app?vid=8f76a6e2-6078-43f0-a4f2-2f44f0029997"},"vehicle_type_id":"4","last_reported":1699707998,"current_range_meters":21200,"station_id":"ce4bh512rcd13ifvqe3g","pricing_plan_id":"free"},{"bike_id":"345dc93a-3fe4-4735-9005-853ff8a2adbd","system_id":"levelo_inurba_marseille","lat":43.297946,"lon":5.404063,"is_reserved":false,"is_disabled":false,"rental_uris":{"android":"levelo://app?vid=345dc93a-3fe4-4735-9005-853ff8a2adbd","ios":"levelo://app?vid=345dc93a-3fe4-4735-9005-853ff8a2adbd"},"vehicle_type_id":"4","last_reported":1699707998,"current_range_meters":1200,"station_id":"ce4bh112rcd13ifvqd90","pricing_plan_id":"free"},{"bike_id":"0f60b7ec-6f8d-4b08-b40d-5b318352ae92","system_id":"levelo_inurba_marseille","lat":43.33441,"lon":5.397577,"is_reserved":false,"is_disabled":false,"rental_uris":{"android":"levelo://app?vid=0f60b7ec-6f8d-4b08-b40d-5b318352ae92","ios":"levelo://app?vid=0f60b7ec-6f8d-4b08-b40d-5b318352ae92"},"vehicle_type_id":"4","last_reported":1699707998,"current_range_meters":31200,"station_id":"","pricing_plan_id":"free"},{"bike_id":"c64f5757-5a1b-42ea-b930-2cc06848498b","system_id":"levelo_inurba_marseille","lat":43.284217,"lon":5.349697,"is_reserved":false,"is_disabled":false,"rental_uris":{"android":"levelo://app?vid=c64f5757-5a1b-42ea-b930-2cc06848498b","ios":"levelo://app?vid=c64f5757-5a1b-42ea-b930-2cc06848498b"},"vehicle_type_id":"4","last_reported":1699707998,"current_range_meters":31200,"station_id":"ce4bhbh2rcd13ifvqepg","pricing_plan_id":"free"},{"bike_id":"694cc18d-6823-481a-9d09-67d990c2d197","system_id":"levelo_inurba_marseille","lat":43.324289,"lon":5.407562,"is_reserved":false,"is_disabled":false,"rental_uris":{"android":"levelo://app?vid=694cc18d-6823-481a-9d09-67d990c2d197","ios":"levelo://app?vid=694cc18d-6823-481a-9d09-67d990c2d197"},"vehicle_type_id":"4","last_reported":1699707998,"current_range_meters":0,"station_id":"","pricing_plan_id":"free"},{"bike_id":"b6cfce89-7573-4680-8305-db72d0f63703","system_id":"levelo_inurba_marseille","lat":43.292724,"lon":5.401131,"is_reserved":false,"is_disabled":false,"rental_uris":{"android":"levelo://app?vid=b6cfce89-7573-4680-8305-db72d0f63703","ios":"levelo://app?vid=b6cfce89-7573-4680-8305-db72d0f63703"},"vehicle_type_id":"4","last_reported":1699707998,"current_range_meters":15200,"station_id":"ce4bh312rcd13ifvqdk0","pricing_plan_id":"free"},{"bike_id":"d0189253-b9a0-40e2-bc0a-c8b88c9bb4e7","system_id":"levelo_inurba_marseille","lat":43.28278,"lon":5.35055,"is_reserved":false,"is_disabled":false,"rental_uris":{"android":"levelo://app?vid=d0189253-b9a0-40e2-bc0a-c8b88c9bb4e7","ios":"levelo://app?vid=d0189253-b9a0-40e2-bc0a-c8b88c9bb4e7"},"vehicle_type_id":"4","last_reported":1699707998,"current_range_meters":1200,"station_id":"ce4bhbp2rcd13ifvqerg","pricing_plan_id":"free"},{"bike_id":"2bd628aa-166d-4276-b938-b5f6a234c4fc","system_id":"levelo_inurba_marseille","lat":43.282754,"lon":5.350519,"is_reserved":false,"is_disabled":false,"rental_uris":{"android":"levelo://app?vid=2bd628aa-166d-4276-b938-b5f6a234c4fc","ios":"levelo://app?vid=2bd628aa-166d-4276-b938-b5f6a234c4fc"},"vehicle_type_id":"4","last_reported":1699707998,"current_range_meters":10800,"station_id":"ce4bhbp2rcd13ifvqerg","pricing_plan_id":"free"},{"bike_id":"c890c582-afb5-47c4-80d2-f492ed8ecf66","system_id":"levelo_inurba_marseille","lat":43.282754,"lon":5.350519,"is_reserved":false,"is_disabled":false,"rental_uris":{"android":"levelo://app?vid=c890c582-afb5-47c4-80d2-f492ed8ecf66","ios":"levelo://app?vid=c890c582-afb5-47c4-80d2-f492ed8ecf66"},"vehicle_type_id":"4","last_reported":1699707998,"current_range_meters":18000,"station_id":"ce4bhbp2rcd13ifvqerg","pricing_plan_id":"free"},{"bike_id":"a1e6b664-11d3-4864-befe-72c8f3fc5395","system_id":"levelo_inurba_marseille","lat":43.282744,"lon":5.350533,"is_reserved":false,"is_disabled":false,"rental_uris":{"android":"levelo://app?vid=a1e6b664-11d3-4864-befe-72c8f3fc5395","ios":"levelo://app?vid=a1e6b664-11d3-4864-befe-72c8f3fc5395"},"vehicle_type_id":"4","last_reported":1699707998,"current_range_meters":16800,"station_id":"ce4bhbp2rcd13ifvqerg","pricing_plan_id":"free"},{"bike_id":"d2e1c182-e1a0-40d7-aa79-fd32a4860312","system_id":"levelo_inurba_marseille","lat":43.282744,"lon":5.350533,"is_reserved":false,"is_disabled":false,"rental_uris":{"android":"levelo://app?vid=d2e1c182-e1a0-40d7-aa79-fd32a4860312","ios":"levelo://app?vid=d2e1c182-e1a0-40d7-aa79-fd32a4860312"},"vehicle_type_id":"4","last_reported":1699707998,"current_range_meters":15200,"station_id":"ce4bhbp2rcd13ifvqerg","pricing_plan_id":"free"},{"bike_id":"d7092834-c248-4006-8f07-7df253f24225","system_id":"levelo_inurba_marseille","lat":43.282754,"lon":5.350519,"is_reserved":false,"is_disabled":false,"rental_uris":{"android":"levelo://app?vid=d7092834-c248-4006-8f07-7df253f24225","ios":"levelo://app?vid=d7092834-c248-4006-8f07-7df253f24225"},"vehicle_type_id":"4","last_reported":1699707998,"current_range_meters":0,"station_id":"ce4bhbp2rcd13ifvqerg","pricing_plan_id":"free"},{"bike_id":"499af4eb-1f5c-4194-8eca-7951af05578a","system_id":"levelo_inurba_marseille","lat":43.282744,"lon":5.350533,"is_reserved":false,"is_disabled":false,"rental_uris":{"android":"levelo://app?vid=499af4eb-1f5c-4194-8eca-7951af05578a","ios":"levelo://app?vid=499af4eb-1f5c-4194-8eca-7951af05578a"},"vehicle_type_id":"4","last_reported":1699707998,"current_range_meters":20000,"station_id":"ce4bhbp2rcd13ifvqerg","pricing_plan_id":"free"},{"bike_id":"bed18f76-069e-49d9-9540-c67f3a0868f1","system_id":"levelo_inurba_marseille","lat":43.282744,"lon":5.350533,"is_reserved":false,"is_disabled":false,"rental_uris":{"android":"levelo://app?vid=bed18f76-069e-49d9-9540-c67f3a0868f1","ios":"levelo://app?vid=bed18f76-069e-49d9-9540-c67f3a0868f1"},"vehicle_type_id":"4","last_reported":1699707998,"current_range_meters":4000,"station_id":"ce4bhbp2rcd13ifvqerg","pricing_plan_id":"free"},{"bike_id":"3c9c78e9-149a-4836-b379-4609d575068d","system_id":"levelo_inurba_marseille","lat":43.28038,"lon":5.36938,"is_reserved":false,"is_disabled":false,"rental_uris":{"android":"levelo://app?vid=3c9c78e9-149a-4836-b379-4609d575068d","ios":"levelo://app?vid=3c9c78e9-149a-4836-b379-4609d575068d"},"vehicle_type_id":"4","last_reported":1699707998,"current_range_meters":0,"station_id":"ce4bha12rcd13ifvqef0","pricing_plan_id":"free"},{"bike_id":"eabc3dc3-278e-4f51-9a13-ff90ff91602a","system_id":"levelo_inurba_marseille","lat":43.290461,"lon":5.39966,"is_reserved":false,"is_disabled":false,"rental_uris":{"android":"levelo://app?vid=eabc3dc3-278e-4f51-9a13-ff90ff91602a","ios":"levelo://app?vid=eabc3dc3-278e-4f51-9a13-ff90ff91602a"},"vehicle_type_id":"4","last_reported":1699707998,"current_range_meters":0,"station_id":"ce4bh392rcd13ifvqdm0","pricing_plan_id":"free"},{"bike_id":"f964c2e1-38c5-46d1-ae36-5476df39b2d9","system_id":"levelo_inurba_marseille","lat":43.296263,"lon":5.40601,"is_reserved":false,"is_disabled":false,"rental_uris":{"android":"levelo://app?vid=f964c2e1-38c5-46d1-ae36-5476df39b2d9","ios":"levelo://app?vid=f964c2e1-38c5-46d1-ae36-5476df39b2d9"},"vehicle_type_id":"4","last_reported":1699707998,"current_range_meters":3600,"station_id":"ce4bh0h2rcd13ifvqd60","pricing_plan_id":"free"},{"bike_id":"c5269fde-c094-4163-a2ac-a6350e774e3c","system_id":"levelo_inurba_marseille","lat":43.323447,"lon":5.41003,"is_reserved":false,"is_disabled":false,"rental_uris":{"android":"levelo://app?vid=c5269fde-c094-4163-a2ac-a6350e774e3c","ios":"levelo://app?vid=c5269fde-c094-4163-a2ac-a6350e774e3c"},"vehicle_type_id":"4","last_reported":1699707998,"current_range_meters":5600,"station_id":"","pricing_plan_id":"free"},{"bike_id":"05eab23e-de22-491e-ab36-c83f59a39e8b","system_id":"levelo_inurba_marseille","lat":43.284462,"lon":5.392121,"is_reserved":false,"is_disabled":false,"rental_uris":{"android":"levelo://app?vid=05eab23e-de22-491e-ab36-c83f59a39e8b","ios":"levelo://app?vid=05eab23e-de22-491e-ab36-c83f59a39e8b"},"vehicle_type_id":"4","last_reported":1699707998,"current_range_meters":16800,"station_id":"ce4bhoh2rcd13ifvqh5g","pricing_plan_id":"free"},{"bike_id":"380edb4b-3a8e-458f-ab43-907945c44b4d","system_id":"levelo_inurba_marseille","lat":43.326597,"lon":5.40996,"is_reserved":false,"is_disabled":false,"rental_uris":{"android":"levelo://app?vid=380edb4b-3a8e-458f-ab43-907945c44b4d","ios":"levelo://app?vid=380edb4b-3a8e-458f-ab43-907945c44b4d"},"vehicle_type_id":"4","last_reported":1699707998,"current_range_meters":30400,"station_id":"ce4bhpp2rcd13ifvqhgg","pricing_plan_id":"free"},{"bike_id":"15c3b931-df92-4c44-b0ea-55bbe86b102f","system_id":"levelo_inurba_marseille","lat":43.279087,"lon":5.380114,"is_reserved":false,"is_disabled":false,"rental_uris":{"android":"levelo://app?vid=15c3b931-df92-4c44-b0ea-55bbe86b102f","ios":"levelo://app?vid=15c3b931-df92-4c44-b0ea-55bbe86b102f"},"vehicle_type_id":"4","last_reported":1699707998,"current_range_meters":26400,"station_id":"ce4bhf92rcd13ifvqf50","pricing_plan_id":"free"},{"bike_id":"feca28d2-7019-4e39-96be-d7938cc29597","system_id":"levelo_inurba_marseille","lat":43.32435,"lon":5.4137,"is_reserved":false,"is_disabled":false,"rental_uris":{"android":"levelo://app?vid=feca28d2-7019-4e39-96be-d7938cc29597","ios":"levelo://app?vid=feca28d2-7019-4e39-96be-d7938cc29597"},"vehicle_type_id":"4","last_reported":1699707998,"current_range_meters":21600,"station_id":"","pricing_plan_id":"free"},{"bike_id":"584d6e01-ce3b-49a4-8966-2f6a9a839b81","system_id":"levelo_inurba_marseille","lat":43.320045,"lon":5.415046,"is_reserved":false,"is_disabled":false,"rental_uris":{"android":"levelo://app?vid=584d6e01-ce3b-49a4-8966-2f6a9a839b81","ios":"levelo://app?vid=584d6e01-ce3b-49a4-8966-2f6a9a839b81"},"vehicle_type_id":"4","last_reported":1699707998,"current_range_meters":2000,"station_id":"ce4bhq92rcd13ifvqhkg","pricing_plan_id":"free"},{"bike_id":"e9e94162-5842-46a0-88ed-c90d1606cd56","system_id":"levelo_inurba_marseille","lat":43.299577,"lon":5.413277,"is_reserved":false,"is_disabled":false,"rental_uris":{"android":"levelo://app?vid=e9e94162-5842-46a0-88ed-c90d1606cd56","ios":"levelo://app?vid=e9e94162-5842-46a0-88ed-c90d1606cd56"},"vehicle_type_id":"4","last_reported":1699707998,"current_range_meters":28400,"station_id":"ce4bhp12rcd13ifvqh9g","pricing_plan_id":"free"},{"bike_id":"243938bf-5a1d-4986-b616-9fedbb0dde6b","system_id":"levelo_inurba_marseille","lat":43.292569,"lon":5.409107,"is_reserved":false,"is_disabled":false,"rental_uris":{"android":"levelo://app?vid=243938bf-5a1d-4986-b616-9fedbb0dde6b","ios":"levelo://app?vid=243938bf-5a1d-4986-b616-9fedbb0dde6b"},"vehicle_type_id":"4","last_reported":1699707998,"current_range_meters":22400,"station_id":"ce4bh192rcd13ifvqdc0","pricing_plan_id":"free"},{"bike_id":"3e75e756-f7a3-4bff-b00e-8686b1fd122d","system_id":"levelo_inurba_marseille","lat":43.27917,"lon":5.38783,"is_reserved":false,"is_disabled":false,"rental_uris":{"android":"levelo://app?vid=3e75e756-f7a3-4bff-b00e-8686b1fd122d","ios":"levelo://app?vid=3e75e756-f7a3-4bff-b00e-8686b1fd122d"},"vehicle_type_id":"4","last_reported":1699707998,"current_range_meters":0,"station_id":"","pricing_plan_id":"free"},{"bike_id":"02594767-6e66-4248-8052-13eb62b6de1a","system_id":"levelo_inurba_marseille","lat":43.303837,"lon":5.418724,"is_reserved":false,"is_disabled":false,"rental_uris":{"android":"levelo://app?vid=02594767-6e66-4248-8052-13eb62b6de1a","ios":"levelo://app?vid=02594767-6e66-4248-8052-13eb62b6de1a"},"vehicle_type_id":"4","last_reported":1699707998,"current_range_meters":28000,"station_id":"ce4bhop2rcd13ifvqh7g","pricing_plan_id":"free"},{"bike_id":"853a6c71-3199-44ed-85d1-d4edc229dfeb","system_id":"levelo_inurba_marseille","lat":43.303837,"lon":5.418724,"is_reserved":false,"is_disabled":false,"rental_uris":{"android":"levelo://app?vid=853a6c71-3199-44ed-85d1-d4edc229dfeb","ios":"levelo://app?vid=853a6c71-3199-44ed-85d1-d4edc229dfeb"},"vehicle_type_id":"4","last_reported":1699707998,"current_range_meters":28000,"station_id":"ce4bhop2rcd13ifvqh7g","pricing_plan_id":"free"},{"bike_id":"119d2046-5910-491d-9d05-acd2988427fe","system_id":"levelo_inurba_marseille","lat":43.273613,"lon":5.362705,"is_reserved":false,"is_disabled":false,"rental_uris":{"android":"levelo://app?vid=119d2046-5910-491d-9d05-acd2988427fe","ios":"levelo://app?vid=119d2046-5910-491d-9d05-acd2988427fe"},"vehicle_type_id":"4","last_reported":1699707998,"current_range_meters":10000,"station_id":"ce4bhbh2rcd13ifvqeo0","pricing_plan_id":"free"},{"bike_id":"839e590e-1bc9-430f-8284-4b3d2f839211","system_id":"levelo_inurba_marseille","lat":43.273613,"lon":5.362705,"is_reserved":false,"is_disabled":false,"rental_uris":{"android":"levelo://app?vid=839e590e-1bc9-430f-8284-4b3d2f839211","ios":"levelo://app?vid=839e590e-1bc9-430f-8284-4b3d2f839211"},"vehicle_type_id":"4","last_reported":1699707998,"current_range_meters":9200,"station_id":"ce4bhbh2rcd13ifvqeo0","pricing_plan_id":"free"},{"bike_id":"ab829a5e-fec0-4edf-b898-3d7dd72b764b","system_id":"levelo_inurba_marseille","lat":43.273609,"lon":5.362708,"is_reserved":false,"is_disabled":false,"rental_uris":{"android":"levelo://app?vid=ab829a5e-fec0-4edf-b898-3d7dd72b764b","ios":"levelo://app?vid=ab829a5e-fec0-4edf-b898-3d7dd72b764b"},"vehicle_type_id":"4","last_reported":1699707998,"current_range_meters":11200,"station_id":"ce4bhbh2rcd13ifvqeo0","pricing_plan_id":"free"},{"bike_id":"19000bb6-4acf-461b-a05a-19a2f3fb2d30","system_id":"levelo_inurba_marseille","lat":43.273609,"lon":5.362708,"is_reserved":false,"is_disabled":false,"rental_uris":{"android":"levelo://app?vid=19000bb6-4acf-461b-a05a-19a2f3fb2d30","ios":"levelo://app?vid=19000bb6-4acf-461b-a05a-19a2f3fb2d30"},"vehicle_type_id":"4","last_reported":1699707998,"current_range_meters":23600,"station_id":"ce4bhbh2rcd13ifvqeo0","pricing_plan_id":"free"},{"bike_id":"b8e418ba-b2b9-4264-9e7d-abfbf7003ddb","system_id":"levelo_inurba_marseille","lat":43.33612,"lon":5.410321,"is_reserved":false,"is_disabled":false,"rental_uris":{"android":"levelo://app?vid=b8e418ba-b2b9-4264-9e7d-abfbf7003ddb","ios":"levelo://app?vid=b8e418ba-b2b9-4264-9e7d-abfbf7003ddb"},"vehicle_type_id":"4","last_reported":1699707998,"current_range_meters":26000,"station_id":"ce4bhqh2rcd13ifvqhmg","pricing_plan_id":"free"},{"bike_id":"68ffca5c-f92e-4d2b-b812-3edfa190d5ea","system_id":"levelo_inurba_marseille","lat":43.278275,"lon":5.396505,"is_reserved":false,"is_disabled":false,"rental_uris":{"android":"levelo://app?vid=68ffca5c-f92e-4d2b-b812-3edfa190d5ea","ios":"levelo://app?vid=68ffca5c-f92e-4d2b-b812-3edfa190d5ea"},"vehicle_type_id":"4","last_reported":1699707998,"current_range_meters":8800,"station_id":"","pricing_plan_id":"free"},{"bike_id":"a65a7f67-7c24-4c20-93bb-323926b438c2","system_id":"levelo_inurba_marseille","lat":43.310785,"lon":5.424305,"is_reserved":false,"is_disabled":false,"rental_uris":{"android":"levelo://app?vid=a65a7f67-7c24-4c20-93bb-323926b438c2","ios":"levelo://app?vid=a65a7f67-7c24-4c20-93bb-323926b438c2"},"vehicle_type_id":"4","last_reported":1699707998,"current_range_meters":29200,"station_id":"ce4bhp92rcd13ifvqhag","pricing_plan_id":"free"},{"bike_id":"1bfe5d8a-7a5a-4bba-a2a3-6e36635a0cd3","system_id":"levelo_inurba_marseille","lat":43.310785,"lon":5.424305,"is_reserved":false,"is_disabled":false,"rental_uris":{"android":"levelo://app?vid=1bfe5d8a-7a5a-4bba-a2a3-6e36635a0cd3","ios":"levelo://app?vid=1bfe5d8a-7a5a-4bba-a2a3-6e36635a0cd3"},"vehicle_type_id":"4","last_reported":1699707998,"current_range_meters":30000,"station_id":"ce4bhp92rcd13ifvqhag","pricing_plan_id":"free"},{"bike_id":"e60a634e-3754-4216-b096-4c2a988539e2","system_id":"levelo_inurba_marseille","lat":43.317121,"lon":5.423936,"is_reserved":false,"is_disabled":false,"rental_uris":{"android":"levelo://app?vid=e60a634e-3754-4216-b096-4c2a988539e2","ios":"levelo://app?vid=e60a634e-3754-4216-b096-4c2a988539e2"},"vehicle_type_id":"4","last_reported":1699707998,"current_range_meters":27600,"station_id":"ce4bhp92rcd13ifvqhbg","pricing_plan_id":"free"},{"bike_id":"0d681346-e0f1-4070-a412-b2a213624dad","system_id":"levelo_inurba_marseille","lat":43.273129,"lon":5.390725,"is_reserved":false,"is_disabled":false,"rental_uris":{"android":"levelo://app?vid=0d681346-e0f1-4070-a412-b2a213624dad","ios":"levelo://app?vid=0d681346-e0f1-4070-a412-b2a213624dad"},"vehicle_type_id":"4","last_reported":1699707998,"current_range_meters":9600,"station_id":"ce4bhgp2rcd13ifvqfe0","pricing_plan_id":"free"},{"bike_id":"c97d2c21-4f21-4407-8a87-60fac7028d2e","system_id":"levelo_inurba_marseille","lat":43.273129,"lon":5.390725,"is_reserved":false,"is_disabled":false,"rental_uris":{"android":"levelo://app?vid=c97d2c21-4f21-4407-8a87-60fac7028d2e","ios":"levelo://app?vid=c97d2c21-4f21-4407-8a87-60fac7028d2e"},"vehicle_type_id":"4","last_reported":1699707998,"current_range_meters":6400,"station_id":"ce4bhgp2rcd13ifvqfe0","pricing_plan_id":"free"},{"bike_id":"3f0e4165-a7f1-4a77-b849-f052e1b96e5f","system_id":"levelo_inurba_marseille","lat":43.30415,"lon":5.42539,"is_reserved":false,"is_disabled":false,"rental_uris":{"android":"levelo://app?vid=3f0e4165-a7f1-4a77-b849-f052e1b96e5f","ios":"levelo://app?vid=3f0e4165-a7f1-4a77-b849-f052e1b96e5f"},"vehicle_type_id":"4","last_reported":1699707998,"current_range_meters":10400,"station_id":"ce4bhoh2rcd13ifvqh6g","pricing_plan_id":"free"},{"bike_id":"d4908982-fcd1-462a-9e00-c8c18e3630d6","system_id":"levelo_inurba_marseille","lat":43.30418,"lon":5.42541,"is_reserved":false,"is_disabled":false,"rental_uris":{"android":"levelo://app?vid=d4908982-fcd1-462a-9e00-c8c18e3630d6","ios":"levelo://app?vid=d4908982-fcd1-462a-9e00-c8c18e3630d6"},"vehicle_type_id":"4","last_reported":1699707998,"current_range_meters":26800,"station_id":"ce4bhoh2rcd13ifvqh6g","pricing_plan_id":"free"},{"bike_id":"1defa9c2-4510-4c52-aea5-eb05292a2cfe","system_id":"levelo_inurba_marseille","lat":43.295511,"lon":5.422926,"is_reserved":false,"is_disabled":false,"rental_uris":{"android":"levelo://app?vid=1defa9c2-4510-4c52-aea5-eb05292a2cfe","ios":"levelo://app?vid=1defa9c2-4510-4c52-aea5-eb05292a2cfe"},"vehicle_type_id":"4","last_reported":1699707998,"current_range_meters":30800,"station_id":"ce4bhph2rcd13ifvqhdg","pricing_plan_id":"free"},{"bike_id":"cee80ecd-01a2-4fb2-a92a-7ebeb592e2ce","system_id":"levelo_inurba_marseille","lat":43.295523,"lon":5.422926,"is_reserved":false,"is_disabled":false,"rental_uris":{"android":"levelo://app?vid=cee80ecd-01a2-4fb2-a92a-7ebeb592e2ce","ios":"levelo://app?vid=cee80ecd-01a2-4fb2-a92a-7ebeb592e2ce"},"vehicle_type_id":"4","last_reported":1699707998,"current_range_meters":18000,"station_id":"ce4bhph2rcd13ifvqhdg","pricing_plan_id":"free"},{"bike_id":"81434698-a347-4914-be12-f18786f27bc7","system_id":"levelo_inurba_marseille","lat":43.295511,"lon":5.422926,"is_reserved":false,"is_disabled":false,"rental_uris":{"android":"levelo://app?vid=81434698-a347-4914-be12-f18786f27bc7","ios":"levelo://app?vid=81434698-a347-4914-be12-f18786f27bc7"},"vehicle_type_id":"4","last_reported":1699707998,"current_range_meters":28800,"station_id":"ce4bhph2rcd13ifvqhdg","pricing_plan_id":"free"},{"bike_id":"7f7029a1-fbb1-49c4-a3b6-097f36482fc1","system_id":"levelo_inurba_marseille","lat":43.295523,"lon":5.422926,"is_reserved":false,"is_disabled":false,"rental_uris":{"android":"levelo://app?vid=7f7029a1-fbb1-49c4-a3b6-097f36482fc1","ios":"levelo://app?vid=7f7029a1-fbb1-49c4-a3b6-097f36482fc1"},"vehicle_type_id":"4","last_reported":1699707998,"current_range_meters":31600,"station_id":"ce4bhph2rcd13ifvqhdg","pricing_plan_id":"free"},{"bike_id":"f0225545-efde-4617-939f-f42eb783a5c4","system_id":"levelo_inurba_marseille","lat":43.295511,"lon":5.422926,"is_reserved":false,"is_disabled":false,"rental_uris":{"android":"levelo://app?vid=f0225545-efde-4617-939f-f42eb783a5c4","ios":"levelo://app?vid=f0225545-efde-4617-939f-f42eb783a5c4"},"vehicle_type_id":"4","last_reported":1699707998,"current_range_meters":31200,"station_id":"ce4bhph2rcd13ifvqhdg","pricing_plan_id":"free"},{"bike_id":"c19994d0-f0ba-4e87-8166-5c3d1ea48abc","system_id":"levelo_inurba_marseille","lat":43.272124,"lon":5.391768,"is_reserved":false,"is_disabled":false,"rental_uris":{"android":"levelo://app?vid=c19994d0-f0ba-4e87-8166-5c3d1ea48abc","ios":"levelo://app?vid=c19994d0-f0ba-4e87-8166-5c3d1ea48abc"},"vehicle_type_id":"4","last_reported":1699707998,"current_range_meters":0,"station_id":"ce4bhhp2rcd13ifvqfm0","pricing_plan_id":"free"},{"bike_id":"b0967213-199c-465b-8da2-6828e3f66042","system_id":"levelo_inurba_marseille","lat":43.272124,"lon":5.391768,"is_reserved":false,"is_disabled":false,"rental_uris":{"android":"levelo://app?vid=b0967213-199c-465b-8da2-6828e3f66042","ios":"levelo://app?vid=b0967213-199c-465b-8da2-6828e3f66042"},"vehicle_type_id":"4","last_reported":1699707998,"current_range_meters":11600,"station_id":"ce4bhhp2rcd13ifvqfm0","pricing_plan_id":"free"},{"bike_id":"44304aca-e6d5-4c12-8f99-a44d0d628fbe","system_id":"levelo_inurba_marseille","lat":43.272124,"lon":5.391768,"is_reserved":false,"is_disabled":false,"rental_uris":{"android":"levelo://app?vid=44304aca-e6d5-4c12-8f99-a44d0d628fbe","ios":"levelo://app?vid=44304aca-e6d5-4c12-8f99-a44d0d628fbe"},"vehicle_type_id":"4","last_reported":1699707998,"current_range_meters":16400,"station_id":"ce4bhhp2rcd13ifvqfm0","pricing_plan_id":"free"},{"bike_id":"abb1e5c6-0986-4ed4-bcb2-6a2b2eda6d35","system_id":"levelo_inurba_marseille","lat":43.27197,"lon":5.39192,"is_reserved":false,"is_disabled":false,"rental_uris":{"android":"levelo://app?vid=abb1e5c6-0986-4ed4-bcb2-6a2b2eda6d35","ios":"levelo://app?vid=abb1e5c6-0986-4ed4-bcb2-6a2b2eda6d35"},"vehicle_type_id":"4","last_reported":1699707998,"current_range_meters":4800,"station_id":"ce4bhhp2rcd13ifvqfm0","pricing_plan_id":"free"},{"bike_id":"71e768a2-9b49-49d8-bb9b-827044bbb7f7","system_id":"levelo_inurba_marseille","lat":43.27203,"lon":5.39295,"is_reserved":false,"is_disabled":false,"rental_uris":{"android":"levelo://app?vid=71e768a2-9b49-49d8-bb9b-827044bbb7f7","ios":"levelo://app?vid=71e768a2-9b49-49d8-bb9b-827044bbb7f7"},"vehicle_type_id":"4","last_reported":1699707998,"current_range_meters":19200,"station_id":"","pricing_plan_id":"free"},{"bike_id":"aebdbd15-9a4b-4008-b1e5-cb312b99324a","system_id":"levelo_inurba_marseille","lat":43.278128,"lon":5.407195,"is_reserved":false,"is_disabled":false,"rental_uris":{"android":"levelo://app?vid=aebdbd15-9a4b-4008-b1e5-cb312b99324a","ios":"levelo://app?vid=aebdbd15-9a4b-4008-b1e5-cb312b99324a"},"vehicle_type_id":"4","last_reported":1699707998,"current_range_meters":19200,"station_id":"ce4bhnh2rcd13ifvqgtg","pricing_plan_id":"free"},{"bike_id":"8335ff5a-15e8-47e3-9fe4-e0e999c55e90","system_id":"levelo_inurba_marseille","lat":43.278128,"lon":5.407195,"is_reserved":false,"is_disabled":false,"rental_uris":{"android":"levelo://app?vid=8335ff5a-15e8-47e3-9fe4-e0e999c55e90","ios":"levelo://app?vid=8335ff5a-15e8-47e3-9fe4-e0e999c55e90"},"vehicle_type_id":"4","last_reported":1699707998,"current_range_meters":31600,"station_id":"ce4bhnh2rcd13ifvqgtg","pricing_plan_id":"free"},{"bike_id":"ae04ca22-f06c-4771-ac62-587c012bd67f","system_id":"levelo_inurba_marseille","lat":43.278128,"lon":5.407195,"is_reserved":false,"is_disabled":false,"rental_uris":{"android":"levelo://app?vid=ae04ca22-f06c-4771-ac62-587c012bd67f","ios":"levelo://app?vid=ae04ca22-f06c-4771-ac62-587c012bd67f"},"vehicle_type_id":"4","last_reported":1699707998,"current_range_meters":27600,"station_id":"ce4bhnh2rcd13ifvqgtg","pricing_plan_id":"free"},{"bike_id":"8cd95166-498b-43e0-98e3-91407cc38d5f","system_id":"levelo_inurba_marseille","lat":43.278128,"lon":5.407195,"is_reserved":false,"is_disabled":false,"rental_uris":{"android":"levelo://app?vid=8cd95166-498b-43e0-98e3-91407cc38d5f","ios":"levelo://app?vid=8cd95166-498b-43e0-98e3-91407cc38d5f"},"vehicle_type_id":"4","last_reported":1699707998,"current_range_meters":31200,"station_id":"ce4bhnh2rcd13ifvqgtg","pricing_plan_id":"free"},{"bike_id":"49cf5f03-15c2-4ed3-8eaf-3525bc3b4cd3","system_id":"levelo_inurba_marseille","lat":43.27949,"lon":5.41052,"is_reserved":false,"is_disabled":false,"rental_uris":{"android":"levelo://app?vid=49cf5f03-15c2-4ed3-8eaf-3525bc3b4cd3","ios":"levelo://app?vid=49cf5f03-15c2-4ed3-8eaf-3525bc3b4cd3"},"vehicle_type_id":"4","last_reported":1699707998,"current_range_meters":17200,"station_id":"ce4bhnp2rcd13ifvqh0g","pricing_plan_id":"free"},{"bike_id":"12925d43-3748-4f92-aeb6-f22cc6311452","system_id":"levelo_inurba_marseille","lat":43.27946,"lon":5.41052,"is_reserved":false,"is_disabled":false,"rental_uris":{"android":"levelo://app?vid=12925d43-3748-4f92-aeb6-f22cc6311452","ios":"levelo://app?vid=12925d43-3748-4f92-aeb6-f22cc6311452"},"vehicle_type_id":"4","last_reported":1699707998,"current_range_meters":27200,"station_id":"ce4bhnp2rcd13ifvqh0g","pricing_plan_id":"free"},{"bike_id":"29d6a0fb-6d72-4c4d-802e-b630352d79e7","system_id":"levelo_inurba_marseille","lat":43.26551,"lon":5.37277,"is_reserved":false,"is_disabled":false,"rental_uris":{"android":"levelo://app?vid=29d6a0fb-6d72-4c4d-802e-b630352d79e7","ios":"levelo://app?vid=29d6a0fb-6d72-4c4d-802e-b630352d79e7"},"vehicle_type_id":"4","last_reported":1699707998,"current_range_meters":10800,"station_id":"ce4bhg12rcd13ifvqf70","pricing_plan_id":"free"},{"bike_id":"4221bc7f-880d-4817-8ec1-d51f5883c835","system_id":"levelo_inurba_marseille","lat":43.27981,"lon":5.41657,"is_reserved":false,"is_disabled":false,"rental_uris":{"android":"levelo://app?vid=4221bc7f-880d-4817-8ec1-d51f5883c835","ios":"levelo://app?vid=4221bc7f-880d-4817-8ec1-d51f5883c835"},"vehicle_type_id":"4","last_reported":1699707998,"current_range_meters":4000,"station_id":"ce4bho12rcd13ifvqh1g","pricing_plan_id":"free"},{"bike_id":"67fc9379-a7d0-44a6-b63b-c9bfa3042660","system_id":"levelo_inurba_marseille","lat":43.265714,"lon":5.372891,"is_reserved":false,"is_disabled":false,"rental_uris":{"android":"levelo://app?vid=67fc9379-a7d0-44a6-b63b-c9bfa3042660","ios":"levelo://app?vid=67fc9379-a7d0-44a6-b63b-c9bfa3042660"},"vehicle_type_id":"4","last_reported":1699707998,"current_range_meters":20000,"station_id":"ce4bhg12rcd13ifvqf70","pricing_plan_id":"free"},{"bike_id":"4a292ae7-9835-446e-8b54-d725bd34bcfb","system_id":"levelo_inurba_marseille","lat":43.267966,"lon":5.393976,"is_reserved":false,"is_disabled":false,"rental_uris":{"android":"levelo://app?vid=4a292ae7-9835-446e-8b54-d725bd34bcfb","ios":"levelo://app?vid=4a292ae7-9835-446e-8b54-d725bd34bcfb"},"vehicle_type_id":"4","last_reported":1699707998,"current_range_meters":16400,"station_id":"ce4bhh12rcd13ifvqfg0","pricing_plan_id":"free"},{"bike_id":"6762f2d9-3ec3-4c0d-abe2-c63444387352","system_id":"levelo_inurba_marseille","lat":43.265569,"lon":5.390047,"is_reserved":false,"is_disabled":false,"rental_uris":{"android":"levelo://app?vid=6762f2d9-3ec3-4c0d-abe2-c63444387352","ios":"levelo://app?vid=6762f2d9-3ec3-4c0d-abe2-c63444387352"},"vehicle_type_id":"4","last_reported":1699707998,"current_range_meters":23600,"station_id":"ce4bhe12rcd13ifvqf30","pricing_plan_id":"free"},{"bike_id":"bd27c88a-17c7-4942-9328-d5af030180e0","system_id":"levelo_inurba_marseille","lat":43.26936,"lon":5.40259,"is_reserved":false,"is_disabled":false,"rental_uris":{"android":"levelo://app?vid=bd27c88a-17c7-4942-9328-d5af030180e0","ios":"levelo://app?vid=bd27c88a-17c7-4942-9328-d5af030180e0"},"vehicle_type_id":"4","last_reported":1699707998,"current_range_meters":21200,"station_id":"cjm6bp8fraef2m0cb0m0","pricing_plan_id":"free"},{"bike_id":"99d1910d-a84d-4eaf-bf7a-e5a15d325b53","system_id":"levelo_inurba_marseille","lat":43.331823,"lon":5.431664,"is_reserved":false,"is_disabled":false,"rental_uris":{"android":"levelo://app?vid=99d1910d-a84d-4eaf-bf7a-e5a15d325b53","ios":"levelo://app?vid=99d1910d-a84d-4eaf-bf7a-e5a15d325b53"},"vehicle_type_id":"4","last_reported":1699707998,"current_range_meters":0,"station_id":"","pricing_plan_id":"free"},{"bike_id":"32a054d8-821e-4355-a004-f2618f7b698a","system_id":"levelo_inurba_marseille","lat":43.261782,"lon":5.374515,"is_reserved":false,"is_disabled":false,"rental_uris":{"android":"levelo://app?vid=32a054d8-821e-4355-a004-f2618f7b698a","ios":"levelo://app?vid=32a054d8-821e-4355-a004-f2618f7b698a"},"vehicle_type_id":"4","last_reported":1699707998,"current_range_meters":0,"station_id":"ce4bhgp2rcd13ifvqfc0","pricing_plan_id":"free"},{"bike_id":"25fa0bdc-ead4-4271-87e1-d70b6eb9d2a9","system_id":"levelo_inurba_marseille","lat":43.31711,"lon":5.43697,"is_reserved":false,"is_disabled":false,"rental_uris":{"android":"levelo://app?vid=25fa0bdc-ead4-4271-87e1-d70b6eb9d2a9","ios":"levelo://app?vid=25fa0bdc-ead4-4271-87e1-d70b6eb9d2a9"},"vehicle_type_id":"4","last_reported":1699707998,"current_range_meters":30000,"station_id":"ce4bhp92rcd13ifvqhcg","pricing_plan_id":"free"},{"bike_id":"16f17151-fe60-4a21-be1c-c787ed957961","system_id":"levelo_inurba_marseille","lat":43.31707,"lon":5.437,"is_reserved":false,"is_disabled":false,"rental_uris":{"android":"levelo://app?vid=16f17151-fe60-4a21-be1c-c787ed957961","ios":"levelo://app?vid=16f17151-fe60-4a21-be1c-c787ed957961"},"vehicle_type_id":"4","last_reported":1699707998,"current_range_meters":0,"station_id":"ce4bhp92rcd13ifvqhcg","pricing_plan_id":"free"},{"bike_id":"2636e977-2fde-4dd7-badd-ade0d731525e","system_id":"levelo_inurba_marseille","lat":43.31712,"lon":5.43704,"is_reserved":false,"is_disabled":false,"rental_uris":{"android":"levelo://app?vid=2636e977-2fde-4dd7-badd-ade0d731525e","ios":"levelo://app?vid=2636e977-2fde-4dd7-badd-ade0d731525e"},"vehicle_type_id":"4","last_reported":1699707998,"current_range_meters":27200,"station_id":"ce4bhp92rcd13ifvqhcg","pricing_plan_id":"free"},{"bike_id":"95731d1b-1325-456a-8700-83d72dbaf979","system_id":"levelo_inurba_marseille","lat":43.317118,"lon":5.437051,"is_reserved":false,"is_disabled":false,"rental_uris":{"android":"levelo://app?vid=95731d1b-1325-456a-8700-83d72dbaf979","ios":"levelo://app?vid=95731d1b-1325-456a-8700-83d72dbaf979"},"vehicle_type_id":"4","last_reported":1699707998,"current_range_meters":25200,"station_id":"ce4bhp92rcd13ifvqhcg","pricing_plan_id":"free"},{"bike_id":"bef08dd6-08fb-4ad0-a374-190a501ac04e","system_id":"levelo_inurba_marseille","lat":43.26181,"lon":5.37443,"is_reserved":false,"is_disabled":false,"rental_uris":{"android":"levelo://app?vid=bef08dd6-08fb-4ad0-a374-190a501ac04e","ios":"levelo://app?vid=bef08dd6-08fb-4ad0-a374-190a501ac04e"},"vehicle_type_id":"4","last_reported":1699707998,"current_range_meters":12400,"station_id":"ce4bhgp2rcd13ifvqfc0","pricing_plan_id":"free"},{"bike_id":"a33e46e3-395d-4942-861c-eefa15a53ca1","system_id":"levelo_inurba_marseille","lat":43.2719,"lon":5.40994,"is_reserved":false,"is_disabled":false,"rental_uris":{"android":"levelo://app?vid=a33e46e3-395d-4942-861c-eefa15a53ca1","ios":"levelo://app?vid=a33e46e3-395d-4942-861c-eefa15a53ca1"},"vehicle_type_id":"4","last_reported":1699707998,"current_range_meters":17600,"station_id":"ce4bhl12rcd13ifvqgf0","pricing_plan_id":"free"},{"bike_id":"073c78f1-5988-42de-9908-e6684d8dd2a4","system_id":"levelo_inurba_marseille","lat":43.262012,"lon":5.379307,"is_reserved":false,"is_disabled":false,"rental_uris":{"android":"levelo://app?vid=073c78f1-5988-42de-9908-e6684d8dd2a4","ios":"levelo://app?vid=073c78f1-5988-42de-9908-e6684d8dd2a4"},"vehicle_type_id":"4","last_reported":1699707998,"current_range_meters":16400,"station_id":"ce4bhjp2rcd13ifvqg90","pricing_plan_id":"free"},{"bike_id":"2b15f780-6bb5-4ebf-b7a4-ff9edfe55031","system_id":"levelo_inurba_marseille","lat":43.271368,"lon":5.40928,"is_reserved":false,"is_disabled":false,"rental_uris":{"android":"levelo://app?vid=2b15f780-6bb5-4ebf-b7a4-ff9edfe55031","ios":"levelo://app?vid=2b15f780-6bb5-4ebf-b7a4-ff9edfe55031"},"vehicle_type_id":"4","last_reported":1699707998,"current_range_meters":18800,"station_id":"ce4bhl12rcd13ifvqgf0","pricing_plan_id":"free"},{"bike_id":"897651de-6e8c-4fdb-aba4-35c6a73431f3","system_id":"levelo_inurba_marseille","lat":43.271368,"lon":5.40928,"is_reserved":false,"is_disabled":false,"rental_uris":{"android":"levelo://app?vid=897651de-6e8c-4fdb-aba4-35c6a73431f3","ios":"levelo://app?vid=897651de-6e8c-4fdb-aba4-35c6a73431f3"},"vehicle_type_id":"4","last_reported":1699707998,"current_range_meters":31600,"station_id":"ce4bhl12rcd13ifvqgf0","pricing_plan_id":"free"},{"bike_id":"0fd3a3df-de53-4cc6-a45e-d2f19afa79da","system_id":"levelo_inurba_marseille","lat":43.271368,"lon":5.40928,"is_reserved":false,"is_disabled":false,"rental_uris":{"android":"levelo://app?vid=0fd3a3df-de53-4cc6-a45e-d2f19afa79da","ios":"levelo://app?vid=0fd3a3df-de53-4cc6-a45e-d2f19afa79da"},"vehicle_type_id":"4","last_reported":1699707998,"current_range_meters":19600,"station_id":"ce4bhl12rcd13ifvqgf0","pricing_plan_id":"free"},{"bike_id":"1ffd2a4a-f052-4e8c-99fb-80e30e501178","system_id":"levelo_inurba_marseille","lat":43.29898,"lon":5.43665,"is_reserved":false,"is_disabled":false,"rental_uris":{"android":"levelo://app?vid=1ffd2a4a-f052-4e8c-99fb-80e30e501178","ios":"levelo://app?vid=1ffd2a4a-f052-4e8c-99fb-80e30e501178"},"vehicle_type_id":"4","last_reported":1699707998,"current_range_meters":16400,"station_id":"ce4bhpp2rcd13ifvqhfg","pricing_plan_id":"free"},{"bike_id":"8a4087ee-eb27-456c-aa78-99b81d1568ae","system_id":"levelo_inurba_marseille","lat":43.298961,"lon":5.436687,"is_reserved":false,"is_disabled":false,"rental_uris":{"android":"levelo://app?vid=8a4087ee-eb27-456c-aa78-99b81d1568ae","ios":"levelo://app?vid=8a4087ee-eb27-456c-aa78-99b81d1568ae"},"vehicle_type_id":"4","last_reported":1699707998,"current_range_meters":0,"station_id":"ce4bhpp2rcd13ifvqhfg","pricing_plan_id":"free"},{"bike_id":"c48c9371-7c30-4897-8647-06790164a180","system_id":"levelo_inurba_marseille","lat":43.26501,"lon":5.39732,"is_reserved":false,"is_disabled":false,"rental_uris":{"android":"levelo://app?vid=c48c9371-7c30-4897-8647-06790164a180","ios":"levelo://app?vid=c48c9371-7c30-4897-8647-06790164a180"},"vehicle_type_id":"4","last_reported":1699707998,"current_range_meters":0,"station_id":"","pricing_plan_id":"free"},{"bike_id":"3b5bfcfe-b7e3-4624-abf7-d21c0c861046","system_id":"levelo_inurba_marseille","lat":43.281834,"lon":5.425586,"is_reserved":false,"is_disabled":false,"rental_uris":{"android":"levelo://app?vid=3b5bfcfe-b7e3-4624-abf7-d21c0c861046","ios":"levelo://app?vid=3b5bfcfe-b7e3-4624-abf7-d21c0c861046"},"vehicle_type_id":"4","last_reported":1699707998,"current_range_meters":4000,"station_id":"","pricing_plan_id":"free"},{"bike_id":"5ecf5105-9ce0-4363-9c5d-0dd62fbcad50","system_id":"levelo_inurba_marseille","lat":43.260219,"lon":5.37546,"is_reserved":false,"is_disabled":false,"rental_uris":{"android":"levelo://app?vid=5ecf5105-9ce0-4363-9c5d-0dd62fbcad50","ios":"levelo://app?vid=5ecf5105-9ce0-4363-9c5d-0dd62fbcad50"},"vehicle_type_id":"4","last_reported":1699707998,"current_range_meters":5200,"station_id":"ce4bhgh2rcd13ifvqfa0","pricing_plan_id":"free"},{"bike_id":"4f6880f4-3164-4fc2-9cf7-3c1358040f10","system_id":"levelo_inurba_marseille","lat":43.290501,"lon":5.433305,"is_reserved":false,"is_disabled":false,"rental_uris":{"android":"levelo://app?vid=4f6880f4-3164-4fc2-9cf7-3c1358040f10","ios":"levelo://app?vid=4f6880f4-3164-4fc2-9cf7-3c1358040f10"},"vehicle_type_id":"4","last_reported":1699707998,"current_range_meters":19600,"station_id":"","pricing_plan_id":"free"},{"bike_id":"f75a763b-95f1-49f3-b144-e93d006f365a","system_id":"levelo_inurba_marseille","lat":43.28154,"lon":5.42643,"is_reserved":false,"is_disabled":false,"rental_uris":{"android":"levelo://app?vid=f75a763b-95f1-49f3-b144-e93d006f365a","ios":"levelo://app?vid=f75a763b-95f1-49f3-b144-e93d006f365a"},"vehicle_type_id":"4","last_reported":1699707998,"current_range_meters":26000,"station_id":"ce4bhnh2rcd13ifvqgug","pricing_plan_id":"free"},{"bike_id":"8e58de32-b404-4e3e-aeb2-04800eae0ab4","system_id":"levelo_inurba_marseille","lat":43.281548,"lon":5.42643,"is_reserved":false,"is_disabled":false,"rental_uris":{"android":"levelo://app?vid=8e58de32-b404-4e3e-aeb2-04800eae0ab4","ios":"levelo://app?vid=8e58de32-b404-4e3e-aeb2-04800eae0ab4"},"vehicle_type_id":"4","last_reported":1699707998,"current_range_meters":27200,"station_id":"ce4bhnh2rcd13ifvqgug","pricing_plan_id":"free"},{"bike_id":"1ed73a19-67b5-4669-8526-685c80708e99","system_id":"levelo_inurba_marseille","lat":43.281548,"lon":5.42643,"is_reserved":false,"is_disabled":false,"rental_uris":{"android":"levelo://app?vid=1ed73a19-67b5-4669-8526-685c80708e99","ios":"levelo://app?vid=1ed73a19-67b5-4669-8526-685c80708e99"},"vehicle_type_id":"4","last_reported":1699707998,"current_range_meters":4000,"station_id":"ce4bhnh2rcd13ifvqgug","pricing_plan_id":"free"},{"bike_id":"d84a791a-b843-43b4-a691-95ffd5d73c91","system_id":"levelo_inurba_marseille","lat":43.2607,"lon":5.393983,"is_reserved":false,"is_disabled":false,"rental_uris":{"android":"levelo://app?vid=d84a791a-b843-43b4-a691-95ffd5d73c91","ios":"levelo://app?vid=d84a791a-b843-43b4-a691-95ffd5d73c91"},"vehicle_type_id":"4","last_reported":1699707998,"current_range_meters":14400,"station_id":"ce4bhh92rcd13ifvqfj0","pricing_plan_id":"free"},{"bike_id":"7929fe62-478b-45ed-a32f-4cee63794674","system_id":"levelo_inurba_marseille","lat":43.275005,"lon":5.424511,"is_reserved":false,"is_disabled":false,"rental_uris":{"android":"levelo://app?vid=7929fe62-478b-45ed-a32f-4cee63794674","ios":"levelo://app?vid=7929fe62-478b-45ed-a32f-4cee63794674"},"vehicle_type_id":"4","last_reported":1699707998,"current_range_meters":17600,"station_id":"","pricing_plan_id":"free"},{"bike_id":"dfada0c1-863a-4817-a533-0c76ff2f0ccb","system_id":"levelo_inurba_marseille","lat":43.275028,"lon":5.424534,"is_reserved":false,"is_disabled":false,"rental_uris":{"android":"levelo://app?vid=dfada0c1-863a-4817-a533-0c76ff2f0ccb","ios":"levelo://app?vid=dfada0c1-863a-4817-a533-0c76ff2f0ccb"},"vehicle_type_id":"4","last_reported":1699707998,"current_range_meters":28400,"station_id":"ce4bhn92rcd13ifvqgrg","pricing_plan_id":"free"},{"bike_id":"2b55add7-47d6-42b5-8bd9-3d59c32c9c9f","system_id":"levelo_inurba_marseille","lat":43.260909,"lon":5.397591,"is_reserved":false,"is_disabled":false,"rental_uris":{"android":"levelo://app?vid=2b55add7-47d6-42b5-8bd9-3d59c32c9c9f","ios":"levelo://app?vid=2b55add7-47d6-42b5-8bd9-3d59c32c9c9f"},"vehicle_type_id":"4","last_reported":1699707998,"current_range_meters":400,"station_id":"ce4bhi12rcd13ifvqfq0","pricing_plan_id":"free"},{"bike_id":"ddfc4e6f-ed56-4b54-8eb9-4a568a50b9d1","system_id":"levelo_inurba_marseille","lat":43.25583,"lon":5.38226,"is_reserved":false,"is_disabled":false,"rental_uris":{"android":"levelo://app?vid=ddfc4e6f-ed56-4b54-8eb9-4a568a50b9d1","ios":"levelo://app?vid=ddfc4e6f-ed56-4b54-8eb9-4a568a50b9d1"},"vehicle_type_id":"4","last_reported":1699707998,"current_range_meters":21600,"station_id":"ce4bhih2rcd13ifvqfs0","pricing_plan_id":"free"},{"bike_id":"de9a1f5c-868e-473a-b21e-fde6a7279dac","system_id":"levelo_inurba_marseille","lat":43.25582,"lon":5.3823,"is_reserved":false,"is_disabled":false,"rental_uris":{"android":"levelo://app?vid=de9a1f5c-868e-473a-b21e-fde6a7279dac","ios":"levelo://app?vid=de9a1f5c-868e-473a-b21e-fde6a7279dac"},"vehicle_type_id":"4","last_reported":1699707998,"current_range_meters":11600,"station_id":"ce4bhih2rcd13ifvqfs0","pricing_plan_id":"free"},{"bike_id":"7c6605e8-248d-44b3-a40f-82d4d152b51e","system_id":"levelo_inurba_marseille","lat":43.25581,"lon":5.38229,"is_reserved":false,"is_disabled":false,"rental_uris":{"android":"levelo://app?vid=7c6605e8-248d-44b3-a40f-82d4d152b51e","ios":"levelo://app?vid=7c6605e8-248d-44b3-a40f-82d4d152b51e"},"vehicle_type_id":"4","last_reported":1699707998,"current_range_meters":11600,"station_id":"ce4bhih2rcd13ifvqfs0","pricing_plan_id":"free"},{"bike_id":"6733c60e-5a01-41f4-8cd2-3aa18ae7da79","system_id":"levelo_inurba_marseille","lat":43.2558,"lon":5.3823,"is_reserved":false,"is_disabled":false,"rental_uris":{"android":"levelo://app?vid=6733c60e-5a01-41f4-8cd2-3aa18ae7da79","ios":"levelo://app?vid=6733c60e-5a01-41f4-8cd2-3aa18ae7da79"},"vehicle_type_id":"4","last_reported":1699707998,"current_range_meters":0,"station_id":"ce4bhih2rcd13ifvqfs0","pricing_plan_id":"free"},{"bike_id":"2aa6c4b1-a67d-43b7-9eb1-fe5b5bec91bf","system_id":"levelo_inurba_marseille","lat":43.333214,"lon":5.441627,"is_reserved":false,"is_disabled":false,"rental_uris":{"android":"levelo://app?vid=2aa6c4b1-a67d-43b7-9eb1-fe5b5bec91bf","ios":"levelo://app?vid=2aa6c4b1-a67d-43b7-9eb1-fe5b5bec91bf"},"vehicle_type_id":"4","last_reported":1699707998,"current_range_meters":9600,"station_id":"","pricing_plan_id":"free"},{"bike_id":"013ff483-9008-436a-955c-520ea8ac1c1f","system_id":"levelo_inurba_marseille","lat":43.255,"lon":5.37649,"is_reserved":false,"is_disabled":false,"rental_uris":{"android":"levelo://app?vid=013ff483-9008-436a-955c-520ea8ac1c1f","ios":"levelo://app?vid=013ff483-9008-436a-955c-520ea8ac1c1f"},"vehicle_type_id":"4","last_reported":1699707998,"current_range_meters":29200,"station_id":"ce4bhh12rcd13ifvqff0","pricing_plan_id":"free"},{"bike_id":"d1be4948-3db8-46c6-a0e9-4eb9877553a6","system_id":"levelo_inurba_marseille","lat":43.25499,"lon":5.37648,"is_reserved":false,"is_disabled":false,"rental_uris":{"android":"levelo://app?vid=d1be4948-3db8-46c6-a0e9-4eb9877553a6","ios":"levelo://app?vid=d1be4948-3db8-46c6-a0e9-4eb9877553a6"},"vehicle_type_id":"4","last_reported":1699707998,"current_range_meters":24000,"station_id":"ce4bhh12rcd13ifvqff0","pricing_plan_id":"free"},{"bike_id":"052ca91f-90dc-4c9c-b44b-e3d3dec03229","system_id":"levelo_inurba_marseille","lat":43.25499,"lon":5.37649,"is_reserved":false,"is_disabled":false,"rental_uris":{"android":"levelo://app?vid=052ca91f-90dc-4c9c-b44b-e3d3dec03229","ios":"levelo://app?vid=052ca91f-90dc-4c9c-b44b-e3d3dec03229"},"vehicle_type_id":"4","last_reported":1699707998,"current_range_meters":16800,"station_id":"ce4bhh12rcd13ifvqff0","pricing_plan_id":"free"},{"bike_id":"be9b8679-ca80-407d-8651-81518013ac26","system_id":"levelo_inurba_marseille","lat":43.254947,"lon":5.376454,"is_reserved":false,"is_disabled":false,"rental_uris":{"android":"levelo://app?vid=be9b8679-ca80-407d-8651-81518013ac26","ios":"levelo://app?vid=be9b8679-ca80-407d-8651-81518013ac26"},"vehicle_type_id":"4","last_reported":1699707998,"current_range_meters":23200,"station_id":"ce4bhh12rcd13ifvqff0","pricing_plan_id":"free"},{"bike_id":"36095984-6e6a-4399-9b47-9d9ca2c2bea1","system_id":"levelo_inurba_marseille","lat":43.254947,"lon":5.376454,"is_reserved":false,"is_disabled":false,"rental_uris":{"android":"levelo://app?vid=36095984-6e6a-4399-9b47-9d9ca2c2bea1","ios":"levelo://app?vid=36095984-6e6a-4399-9b47-9d9ca2c2bea1"},"vehicle_type_id":"4","last_reported":1699707998,"current_range_meters":30400,"station_id":"ce4bhh12rcd13ifvqff0","pricing_plan_id":"free"},{"bike_id":"9bc17ba6-6e4c-4226-904b-3176c2c76a8a","system_id":"levelo_inurba_marseille","lat":43.254947,"lon":5.376454,"is_reserved":false,"is_disabled":false,"rental_uris":{"android":"levelo://app?vid=9bc17ba6-6e4c-4226-904b-3176c2c76a8a","ios":"levelo://app?vid=9bc17ba6-6e4c-4226-904b-3176c2c76a8a"},"vehicle_type_id":"4","last_reported":1699707998,"current_range_meters":11200,"station_id":"ce4bhh12rcd13ifvqff0","pricing_plan_id":"free"},{"bike_id":"d8599002-1e4e-4a9f-9e22-da9f812e154c","system_id":"levelo_inurba_marseille","lat":43.25489,"lon":5.37646,"is_reserved":false,"is_disabled":false,"rental_uris":{"android":"levelo://app?vid=d8599002-1e4e-4a9f-9e22-da9f812e154c","ios":"levelo://app?vid=d8599002-1e4e-4a9f-9e22-da9f812e154c"},"vehicle_type_id":"4","last_reported":1699707998,"current_range_meters":16000,"station_id":"ce4bhh12rcd13ifvqff0","pricing_plan_id":"free"},{"bike_id":"d93b3053-2e6a-4e44-b8b4-864c5ebb2ed9","system_id":"levelo_inurba_marseille","lat":43.270721,"lon":5.422764,"is_reserved":false,"is_disabled":false,"rental_uris":{"android":"levelo://app?vid=d93b3053-2e6a-4e44-b8b4-864c5ebb2ed9","ios":"levelo://app?vid=d93b3053-2e6a-4e44-b8b4-864c5ebb2ed9"},"vehicle_type_id":"4","last_reported":1699707998,"current_range_meters":20400,"station_id":"ce4bhk92rcd13ifvqgb0","pricing_plan_id":"free"},{"bike_id":"ab7874a0-e460-4f49-b04e-e54d89849503","system_id":"levelo_inurba_marseille","lat":43.270721,"lon":5.422764,"is_reserved":false,"is_disabled":false,"rental_uris":{"android":"levelo://app?vid=ab7874a0-e460-4f49-b04e-e54d89849503","ios":"levelo://app?vid=ab7874a0-e460-4f49-b04e-e54d89849503"},"vehicle_type_id":"4","last_reported":1699707998,"current_range_meters":8000,"station_id":"ce4bhk92rcd13ifvqgb0","pricing_plan_id":"free"},{"bike_id":"44390b9c-67db-4d9d-b523-11efba851141","system_id":"levelo_inurba_marseille","lat":43.27067,"lon":5.42279,"is_reserved":false,"is_disabled":false,"rental_uris":{"android":"levelo://app?vid=44390b9c-67db-4d9d-b523-11efba851141","ios":"levelo://app?vid=44390b9c-67db-4d9d-b523-11efba851141"},"vehicle_type_id":"4","last_reported":1699707998,"current_range_meters":12000,"station_id":"ce4bhk92rcd13ifvqgb0","pricing_plan_id":"free"},{"bike_id":"d259d256-5cde-4589-808b-d42cea11517b","system_id":"levelo_inurba_marseille","lat":43.258658,"lon":5.398935,"is_reserved":false,"is_disabled":false,"rental_uris":{"android":"levelo://app?vid=d259d256-5cde-4589-808b-d42cea11517b","ios":"levelo://app?vid=d259d256-5cde-4589-808b-d42cea11517b"},"vehicle_type_id":"4","last_reported":1699707998,"current_range_meters":21200,"station_id":"ce4bhl92rcd13ifvqghg","pricing_plan_id":"free"},{"bike_id":"6ffd27f5-663b-40ce-918a-4964d837ee8a","system_id":"levelo_inurba_marseille","lat":43.258658,"lon":5.398935,"is_reserved":false,"is_disabled":false,"rental_uris":{"android":"levelo://app?vid=6ffd27f5-663b-40ce-918a-4964d837ee8a","ios":"levelo://app?vid=6ffd27f5-663b-40ce-918a-4964d837ee8a"},"vehicle_type_id":"4","last_reported":1699707998,"current_range_meters":23200,"station_id":"ce4bhl92rcd13ifvqghg","pricing_plan_id":"free"},{"bike_id":"35da9cdd-1a75-4aa3-a974-38c00a0d24c6","system_id":"levelo_inurba_marseille","lat":43.269319,"lon":5.389397,"is_reserved":false,"is_disabled":false,"rental_uris":{"android":"levelo://app?vid=35da9cdd-1a75-4aa3-a974-38c00a0d24c6","ios":"levelo://app?vid=35da9cdd-1a75-4aa3-a974-38c00a0d24c6"},"vehicle_type_id":"4","last_reported":1699707998,"current_range_meters":31200,"station_id":"ce4bhhh2rcd13ifvqfl0","pricing_plan_id":"free"},{"bike_id":"32f164ca-0f8d-47b4-b141-3b01d043da1d","system_id":"levelo_inurba_marseille","lat":43.257079,"lon":5.411051,"is_reserved":false,"is_disabled":false,"rental_uris":{"android":"levelo://app?vid=32f164ca-0f8d-47b4-b141-3b01d043da1d","ios":"levelo://app?vid=32f164ca-0f8d-47b4-b141-3b01d043da1d"},"vehicle_type_id":"4","last_reported":1699707998,"current_range_meters":14400,"station_id":"ce4bhkp2rcd13ifvqgd0","pricing_plan_id":"free"},{"bike_id":"06d99c79-cf00-4671-ac85-e4894f4fbf12","system_id":"levelo_inurba_marseille","lat":43.250023,"lon":5.38919,"is_reserved":false,"is_disabled":false,"rental_uris":{"android":"levelo://app?vid=06d99c79-cf00-4671-ac85-e4894f4fbf12","ios":"levelo://app?vid=06d99c79-cf00-4671-ac85-e4894f4fbf12"},