{"last_updated":1774889811,"ttl":60,"version":"2.2","data":{"bikes":[{"bike_id":"ce79aae3-74aa-41a9-b53c-877edb578324","system_id":"levelo_inurba_marseille","lat":43.31116,"lon":5.37757,"is_reserved":false,"is_disabled":false,"rental_uris":{"android":"levelo://app?vid=ce79aae3-74aa-41a9-b53c-877edb578324","ios":"levelo://app?vid=ce79aae3-74aa-41a9-b53c-877edb578324"},"vehicle_type_id":"4","last_reported":1774889811,"current_range_meters":2800,"station_id":"ce4bgt92rcd13ifvqcg0","pricing_plan_id":"cebpf4jnsgd1na2vs0mg"},{"bike_id":"e4956c66-fba0-45d5-a7d2-90ca01f34637","system_id":"levelo_inurba_marseille","lat":43.21747,"lon":5.34605,"is_reserved":false,"is_disabled":false,"rental_uris":{"android":"levelo://app?vid=e4956c66-fba0-45d5-a7d2-90ca01f34637","ios":"levelo://app?vid=e4956c66-fba0-45d5-a7d2-90ca01f34637"},"vehicle_type_id":"4","last_reported":1774889811,"current_range_meters":2800,"station_id":"st_cvj6r9ubvosntc0bgbag","pricing_plan_id":"cebpf4jnsgd1na2vs0mg"},{"bike_id":"84c713b7-0b63-4bb8-a6ee-a50270e8a2cc","system_id":"levelo_inurba_marseille","lat":43.29531,"lon":5.38666,"is_reserved":false,"is_disabled":false,"rental_uris":{"android":"levelo://app?vid=84c713b7-0b63-4bb8-a6ee-a50270e8a2cc","ios":"levelo://app?vid=84c713b7-0b63-4bb8-a6ee-a50270e8a2cc"},"vehicle_type_id":"4","last_reported":1774889811,"current_range_meters":2800,"station_id":"","pricing_plan_id":"cebpf4jnsgd1na2vs0mg"},{"bike_id":"9a1e331d-1d6d-423e-90aa-210c6d33f5be","system_id":"levelo_inurba_marseille","lat":43.33269,"lon":5.37919,"is_reserved":false,"is_disabled":false,"rental_uris":{"android":"levelo://app?vid=9a1e331d-1d6d-423e-90aa-210c6d33f5be","ios":"levelo://app?vid=9a1e331d-1d6d-423e-90aa-210c6d33f5be"},"vehicle_type_id":"4","last_reported":1774889811,"current_range_meters":2800,"station_id":"","pricing_plan_id":"cebpf4jnsgd1na2vs0mg"},{"bike_id":"e49a7db9-8c8d-4468-beb2-155e84b5c983","system_id":"levelo_inurba_marseille","lat":43.28937,"lon":5.36628,"is_reserved":false,"is_disabled":true,"rental_uris":{"android":"levelo://app?vid=e49a7db9-8c8d-4468-beb2-155e84b5c983","ios":"levelo://app?vid=e49a7db9-8c8d-4468-beb2-155e84b5c983"},"vehicle_type_id":"4","last_reported":1774889811,"current_range_meters":2800,"station_id":"ce4bhap2rcd13ifvqek0","pricing_plan_id":"cebpf4jnsgd1na2vs0mg"},{"bike_id":"4518d333-ae46-4f3f-82be-3d499b7bb7d5","system_id":"levelo_inurba_marseille","lat":43.23376,"lon":5.41266,"is_reserved":false,"is_disabled":true,"rental_uris":{"android":"levelo://app?vid=4518d333-ae46-4f3f-82be-3d499b7bb7d5","ios":"levelo://app?vid=4518d333-ae46-4f3f-82be-3d499b7bb7d5"},"vehicle_type_id":"4","last_reported":1774889811,"current_range_meters":2800,"station_id":"","pricing_plan_id":"cebpf4jnsgd1na2vs0mg"},{"bike_id":"1b53ca04-2915-4392-bfd7-41e754b1dc49","system_id":"levelo_inurba_marseille","lat":43.28697,"lon":5.37393,"is_reserved":false,"is_disabled":false,"rental_uris":{"android":"levelo://app?vid=1b53ca04-2915-4392-bfd7-41e754b1dc49","ios":"levelo://app?vid=1b53ca04-2915-4392-bfd7-41e754b1dc49"},"vehicle_type_id":"4","last_reported":1774889811,"current_range_meters":2800,"station_id":"ce4bh3p2rcd13ifvqdq0","pricing_plan_id":"cebpf4jnsgd1na2vs0mg"},{"bike_id":"4e7f29d2-357a-487f-8923-aaf06a756027","system_id":"levelo_inurba_marseille","lat":43.28477,"lon":5.48393,"is_reserved":false,"is_disabled":false,"rental_uris":{"android":"levelo://app?vid=4e7f29d2-357a-487f-8923-aaf06a756027","ios":"levelo://app?vid=4e7f29d2-357a-487f-8923-aaf06a756027"},"vehicle_type_id":"4","last_reported":1774889811,"current_range_meters":2800,"station_id":"","pricing_plan_id":"cebpf4jnsgd1na2vs0mg"},{"bike_id":"0ff0e0b3-6da5-4b04-a7b1-1f2a88e41774","system_id":"levelo_inurba_marseille","lat":43.24165,"lon":5.36418,"is_reserved":false,"is_disabled":false,"rental_uris":{"android":"levelo://app?vid=0ff0e0b3-6da5-4b04-a7b1-1f2a88e41774","ios":"levelo://app?vid=0ff0e0b3-6da5-4b04-a7b1-1f2a88e41774"},"vehicle_type_id":"4","last_reported":1774889811,"current_range_meters":2800,"station_id":"cpo36qri1sfpv3e86is0","pricing_plan_id":"cebpf4jnsgd1na2vs0mg"},{"bike_id":"4a794366-f84e-45c5-be1e-6c97edad2aa7","system_id":"levelo_inurba_marseille","lat":43.28112,"lon":5.3783,"is_reserved":false,"is_disabled":false,"rental_uris":{"android":"levelo://app?vid=4a794366-f84e-45c5-be1e-6c97edad2aa7","ios":"levelo://app?vid=4a794366-f84e-45c5-be1e-6c97edad2aa7"},"vehicle_type_id":"4","last_reported":1774889811,"current_range_meters":2800,"station_id":"ce4bha12rcd13ifvqee0","pricing_plan_id":"cebpf4jnsgd1na2vs0mg"},{"bike_id":"3d39cc54-5679-4104-b3fe-5d5297abd24c","system_id":"levelo_inurba_marseille","lat":43.2962,"lon":5.37721,"is_reserved":false,"is_disabled":false,"rental_uris":{"android":"levelo://app?vid=3d39cc54-5679-4104-b3fe-5d5297abd24c","ios":"levelo://app?vid=3d39cc54-5679-4104-b3fe-5d5297abd24c"},"vehicle_type_id":"4","last_reported":1774889811,"current_range_meters":2800,"station_id":"ce4bgi92rcd13ifvqb90","pricing_plan_id":"cebpf4jnsgd1na2vs0mg"},{"bike_id":"28af8d2b-5bac-433a-894a-9e17123ae234","system_id":"levelo_inurba_marseille","lat":43.28536,"lon":5.44107,"is_reserved":false,"is_disabled":false,"rental_uris":{"android":"levelo://app?vid=28af8d2b-5bac-433a-894a-9e17123ae234","ios":"levelo://app?vid=28af8d2b-5bac-433a-894a-9e17123ae234"},"vehicle_type_id":"4","last_reported":1774889811,"current_range_meters":2800,"station_id":"st_d3j3df2ikq2c7380ej80","pricing_plan_id":"cebpf4jnsgd1na2vs0mg"},{"bike_id":"a414408a-e973-473e-845d-cacf421a20dd","system_id":"levelo_inurba_marseille","lat":43.29294,"lon":5.3746,"is_reserved":false,"is_disabled":false,"rental_uris":{"android":"levelo://app?vid=a414408a-e973-473e-845d-cacf421a20dd","ios":"levelo://app?vid=a414408a-e973-473e-845d-cacf421a20dd"},"vehicle_type_id":"4","last_reported":1774889811,"current_range_meters":2800,"station_id":"ce4bgi12rcd13ifvqb70","pricing_plan_id":"cebpf4jnsgd1na2vs0mg"},{"bike_id":"553dea78-cf39-4985-9615-b06af2d4c1a1","system_id":"levelo_inurba_marseille","lat":43.26782,"lon":5.39414,"is_reserved":false,"is_disabled":false,"rental_uris":{"android":"levelo://app?vid=553dea78-cf39-4985-9615-b06af2d4c1a1","ios":"levelo://app?vid=553dea78-cf39-4985-9615-b06af2d4c1a1"},"vehicle_type_id":"4","last_reported":1774889811,"current_range_meters":2800,"station_id":"ce4bhh12rcd13ifvqfg0","pricing_plan_id":"cebpf4jnsgd1na2vs0mg"},{"bike_id":"803f4719-04a4-494d-919f-f0c60480260b","system_id":"levelo_inurba_marseille","lat":43.24807,"lon":5.37462,"is_reserved":false,"is_disabled":false,"rental_uris":{"android":"levelo://app?vid=803f4719-04a4-494d-919f-f0c60480260b","ios":"levelo://app?vid=803f4719-04a4-494d-919f-f0c60480260b"},"vehicle_type_id":"4","last_reported":1774889811,"current_range_meters":3200,"station_id":"ce4bhgh2rcd13ifvqfb0","pricing_plan_id":"cebpf4jnsgd1na2vs0mg"},{"bike_id":"6e7b1c4b-d2ff-41ea-9c95-d4f2e534680c","system_id":"levelo_inurba_marseille","lat":43.32219,"lon":5.4381,"is_reserved":false,"is_disabled":false,"rental_uris":{"android":"levelo://app?vid=6e7b1c4b-d2ff-41ea-9c95-d4f2e534680c","ios":"levelo://app?vid=6e7b1c4b-d2ff-41ea-9c95-d4f2e534680c"},"vehicle_type_id":"4","last_reported":1774889811,"current_range_meters":3200,"station_id":"","pricing_plan_id":"cebpf4jnsgd1na2vs0mg"},{"bike_id":"b8ec0b9a-6353-4141-ad88-1aae2c10ae31","system_id":"levelo_inurba_marseille","lat":43.29077,"lon":5.43088,"is_reserved":false,"is_disabled":false,"rental_uris":{"android":"levelo://app?vid=b8ec0b9a-6353-4141-ad88-1aae2c10ae31","ios":"levelo://app?vid=b8ec0b9a-6353-4141-ad88-1aae2c10ae31"},"vehicle_type_id":"4","last_reported":1774889811,"current_range_meters":3200,"station_id":"","pricing_plan_id":"cebpf4jnsgd1na2vs0mg"},{"bike_id":"0beeb1a7-3c04-43a2-a7f8-69beb8048854","system_id":"levelo_inurba_marseille","lat":43.24668,"lon":5.38191,"is_reserved":false,"is_disabled":false,"rental_uris":{"android":"levelo://app?vid=0beeb1a7-3c04-43a2-a7f8-69beb8048854","ios":"levelo://app?vid=0beeb1a7-3c04-43a2-a7f8-69beb8048854"},"vehicle_type_id":"4","last_reported":1774889811,"current_range_meters":3200,"station_id":"ce4bhih2rcd13ifvqfr0","pricing_plan_id":"cebpf4jnsgd1na2vs0mg"},{"bike_id":"909e8bc2-87f9-4577-abd0-11c34bae68f5","system_id":"levelo_inurba_marseille","lat":43.27059,"lon":5.4026,"is_reserved":false,"is_disabled":false,"rental_uris":{"android":"levelo://app?vid=909e8bc2-87f9-4577-abd0-11c34bae68f5","ios":"levelo://app?vid=909e8bc2-87f9-4577-abd0-11c34bae68f5"},"vehicle_type_id":"4","last_reported":1774889811,"current_range_meters":3200,"station_id":"ce4bhk92rcd13ifvqgc0","pricing_plan_id":"cebpf4jnsgd1na2vs0mg"},{"bike_id":"de8f1408-72c5-446c-8071-56aadb6e6964","system_id":"levelo_inurba_marseille","lat":43.29602,"lon":5.37725,"is_reserved":false,"is_disabled":false,"rental_uris":{"android":"levelo://app?vid=de8f1408-72c5-446c-8071-56aadb6e6964","ios":"levelo://app?vid=de8f1408-72c5-446c-8071-56aadb6e6964"},"vehicle_type_id":"4","last_reported":1774889811,"current_range_meters":3200,"station_id":"ce4bgi92rcd13ifvqb90","pricing_plan_id":"cebpf4jnsgd1na2vs0mg"},{"bike_id":"4a809fad-5492-4b32-89e8-0d7fe5f4866a","system_id":"levelo_inurba_marseille","lat":43.29967,"lon":5.38493,"is_reserved":false,"is_disabled":false,"rental_uris":{"android":"levelo://app?vid=4a809fad-5492-4b32-89e8-0d7fe5f4866a","ios":"levelo://app?vid=4a809fad-5492-4b32-89e8-0d7fe5f4866a"},"vehicle_type_id":"4","last_reported":1774889811,"current_range_meters":3200,"station_id":"ce4bgj92rcd13ifvqbd0","pricing_plan_id":"cebpf4jnsgd1na2vs0mg"},{"bike_id":"e7370f00-6303-497a-9066-a9c60a96920b","system_id":"levelo_inurba_marseille","lat":43.29036,"lon":5.38647,"is_reserved":false,"is_disabled":false,"rental_uris":{"android":"levelo://app?vid=e7370f00-6303-497a-9066-a9c60a96920b","ios":"levelo://app?vid=e7370f00-6303-497a-9066-a9c60a96920b"},"vehicle_type_id":"4","last_reported":1774889811,"current_range_meters":3200,"station_id":"ce4bh4p2rcd13ifvqe0g","pricing_plan_id":"cebpf4jnsgd1na2vs0mg"},{"bike_id":"31ac12fa-37a8-4d51-87ad-cda712355fae","system_id":"levelo_inurba_marseille","lat":43.28271,"lon":5.35063,"is_reserved":false,"is_disabled":false,"rental_uris":{"android":"levelo://app?vid=31ac12fa-37a8-4d51-87ad-cda712355fae","ios":"levelo://app?vid=31ac12fa-37a8-4d51-87ad-cda712355fae"},"vehicle_type_id":"4","last_reported":1774889811,"current_range_meters":3200,"station_id":"ce4bhbp2rcd13ifvqerg","pricing_plan_id":"cebpf4jnsgd1na2vs0mg"},{"bike_id":"2e2f6f92-a6a4-45c0-97c3-957e3d8f2b5d","system_id":"levelo_inurba_marseille","lat":43.29361,"lon":5.38317,"is_reserved":false,"is_disabled":false,"rental_uris":{"android":"levelo://app?vid=2e2f6f92-a6a4-45c0-97c3-957e3d8f2b5d","ios":"levelo://app?vid=2e2f6f92-a6a4-45c0-97c3-957e3d8f2b5d"},"vehicle_type_id":"4","last_reported":1774889811,"current_range_meters":3600,"station_id":"","pricing_plan_id":"cebpf4jnsgd1na2vs0mg"},{"bike_id":"96040565-d584-40a3-a575-8f522be23279","system_id":"levelo_inurba_marseille","lat":43.30538,"lon":5.36569,"is_reserved":false,"is_disabled":false,"rental_uris":{"android":"levelo://app?vid=96040565-d584-40a3-a575-8f522be23279","ios":"levelo://app?vid=96040565-d584-40a3-a575-8f522be23279"},"vehicle_type_id":"4","last_reported":1774889811,"current_range_meters":3600,"station_id":"ce4bgs12rcd13ifvqcag","pricing_plan_id":"cebpf4jnsgd1na2vs0mg"},{"bike_id":"9eabfd96-7e72-49d9-bead-507fbe4a7a0f","system_id":"levelo_inurba_marseille","lat":43.32644,"lon":5.40875,"is_reserved":false,"is_disabled":false,"rental_uris":{"android":"levelo://app?vid=9eabfd96-7e72-49d9-bead-507fbe4a7a0f","ios":"levelo://app?vid=9eabfd96-7e72-49d9-bead-507fbe4a7a0f"},"vehicle_type_id":"4","last_reported":1774889811,"current_range_meters":3600,"station_id":"","pricing_plan_id":"cebpf4jnsgd1na2vs0mg"},{"bike_id":"ce7a3b24-907c-4d1b-affa-a23d750b357b","system_id":"levelo_inurba_marseille","lat":43.28475,"lon":5.48394,"is_reserved":false,"is_disabled":false,"rental_uris":{"android":"levelo://app?vid=ce7a3b24-907c-4d1b-affa-a23d750b357b","ios":"levelo://app?vid=ce7a3b24-907c-4d1b-affa-a23d750b357b"},"vehicle_type_id":"4","last_reported":1774889811,"current_range_meters":3600,"station_id":"","pricing_plan_id":"cebpf4jnsgd1na2vs0mg"},{"bike_id":"da39566b-528a-4da7-85dd-50af8ec4d807","system_id":"levelo_inurba_marseille","lat":43.29038,"lon":5.39971,"is_reserved":false,"is_disabled":false,"rental_uris":{"android":"levelo://app?vid=da39566b-528a-4da7-85dd-50af8ec4d807","ios":"levelo://app?vid=da39566b-528a-4da7-85dd-50af8ec4d807"},"vehicle_type_id":"4","last_reported":1774889811,"current_range_meters":3600,"station_id":"ce4bh392rcd13ifvqdm0","pricing_plan_id":"cebpf4jnsgd1na2vs0mg"},{"bike_id":"be6bb507-1bc6-47f0-aac0-ea5e65f549f9","system_id":"levelo_inurba_marseille","lat":43.279325,"lon":5.382663,"is_reserved":false,"is_disabled":false,"rental_uris":{"android":"levelo://app?vid=be6bb507-1bc6-47f0-aac0-ea5e65f549f9","ios":"levelo://app?vid=be6bb507-1bc6-47f0-aac0-ea5e65f549f9"},"vehicle_type_id":"4","last_reported":1774889811,"current_range_meters":3600,"station_id":"ce4bhh92rcd13ifvqfi0","pricing_plan_id":"cebpf4jnsgd1na2vs0mg"},{"bike_id":"f49642d7-0c88-4377-92f6-f3b93aee0876","system_id":"levelo_inurba_marseille","lat":43.29603,"lon":5.38073,"is_reserved":false,"is_disabled":true,"rental_uris":{"android":"levelo://app?vid=f49642d7-0c88-4377-92f6-f3b93aee0876","ios":"levelo://app?vid=f49642d7-0c88-4377-92f6-f3b93aee0876"},"vehicle_type_id":"4","last_reported":1774889811,"current_range_meters":3600,"station_id":"ce4bgl12rcd13ifvqbo0","pricing_plan_id":"cebpf4jnsgd1na2vs0mg"},{"bike_id":"9c7c2a96-2ac3-4d03-a99b-a41d4bc6788c","system_id":"levelo_inurba_marseille","lat":43.28222,"lon":5.39043,"is_reserved":false,"is_disabled":false,"rental_uris":{"android":"levelo://app?vid=9c7c2a96-2ac3-4d03-a99b-a41d4bc6788c","ios":"levelo://app?vid=9c7c2a96-2ac3-4d03-a99b-a41d4bc6788c"},"vehicle_type_id":"4","last_reported":1774889811,"current_range_meters":3600,"station_id":"ce4bhn92rcd13ifvqgsg","pricing_plan_id":"cebpf4jnsgd1na2vs0mg"},{"bike_id":"7a2b56a7-f555-4392-aa36-707d0509abdc","system_id":"levelo_inurba_marseille","lat":43.25187,"lon":5.41956,"is_reserved":false,"is_disabled":false,"rental_uris":{"android":"levelo://app?vid=7a2b56a7-f555-4392-aa36-707d0509abdc","ios":"levelo://app?vid=7a2b56a7-f555-4392-aa36-707d0509abdc"},"vehicle_type_id":"4","last_reported":1774889811,"current_range_meters":3600,"station_id":"","pricing_plan_id":"cebpf4jnsgd1na2vs0mg"},{"bike_id":"441a5a22-ec2a-4ce2-8293-b451324771f7","system_id":"levelo_inurba_marseille","lat":43.29841,"lon":5.36252,"is_reserved":false,"is_disabled":false,"rental_uris":{"android":"levelo://app?vid=441a5a22-ec2a-4ce2-8293-b451324771f7","ios":"levelo://app?vid=441a5a22-ec2a-4ce2-8293-b451324771f7"},"vehicle_type_id":"4","last_reported":1774889811,"current_range_meters":3600,"station_id":"ce4bgpp2rcd13ifvqc3g","pricing_plan_id":"cebpf4jnsgd1na2vs0mg"},{"bike_id":"883c794f-d68e-4d52-948a-e0e4d264c091","system_id":"levelo_inurba_marseille","lat":43.25574,"lon":5.3824,"is_reserved":false,"is_disabled":false,"rental_uris":{"android":"levelo://app?vid=883c794f-d68e-4d52-948a-e0e4d264c091","ios":"levelo://app?vid=883c794f-d68e-4d52-948a-e0e4d264c091"},"vehicle_type_id":"4","last_reported":1774889811,"current_range_meters":4000,"station_id":"ce4bhih2rcd13ifvqfs0","pricing_plan_id":"cebpf4jnsgd1na2vs0mg"},{"bike_id":"ac8e1b03-ace2-4e5e-ab76-ff39d3481b2e","system_id":"levelo_inurba_marseille","lat":43.29516,"lon":5.3905,"is_reserved":false,"is_disabled":false,"rental_uris":{"android":"levelo://app?vid=ac8e1b03-ace2-4e5e-ab76-ff39d3481b2e","ios":"levelo://app?vid=ac8e1b03-ace2-4e5e-ab76-ff39d3481b2e"},"vehicle_type_id":"4","last_reported":1774889811,"current_range_meters":4000,"station_id":"ce4bh3p2rcd13ifvqdp0","pricing_plan_id":"cebpf4jnsgd1na2vs0mg"},{"bike_id":"dbc917c4-91bc-4425-9406-e24d33c16284","system_id":"levelo_inurba_marseille","lat":43.33561,"lon":5.37455,"is_reserved":false,"is_disabled":false,"rental_uris":{"android":"levelo://app?vid=dbc917c4-91bc-4425-9406-e24d33c16284","ios":"levelo://app?vid=dbc917c4-91bc-4425-9406-e24d33c16284"},"vehicle_type_id":"4","last_reported":1774889811,"current_range_meters":4000,"station_id":"st_d46tts09ee8s73dlu43g","pricing_plan_id":"cebpf4jnsgd1na2vs0mg"},{"bike_id":"64ac9f96-b56e-4d2a-b677-8d920133e407","system_id":"levelo_inurba_marseille","lat":43.24818,"lon":5.37455,"is_reserved":false,"is_disabled":false,"rental_uris":{"android":"levelo://app?vid=64ac9f96-b56e-4d2a-b677-8d920133e407","ios":"levelo://app?vid=64ac9f96-b56e-4d2a-b677-8d920133e407"},"vehicle_type_id":"4","last_reported":1774889811,"current_range_meters":4000,"station_id":"ce4bhgh2rcd13ifvqfb0","pricing_plan_id":"cebpf4jnsgd1na2vs0mg"},{"bike_id":"3e86744e-c66a-4ea7-85ad-946d60b38d9b","system_id":"levelo_inurba_marseille","lat":43.24176,"lon":5.36409,"is_reserved":false,"is_disabled":false,"rental_uris":{"android":"levelo://app?vid=3e86744e-c66a-4ea7-85ad-946d60b38d9b","ios":"levelo://app?vid=3e86744e-c66a-4ea7-85ad-946d60b38d9b"},"vehicle_type_id":"4","last_reported":1774889811,"current_range_meters":4000,"station_id":"cpo36qri1sfpv3e86is0","pricing_plan_id":"cebpf4jnsgd1na2vs0mg"},{"bike_id":"b312d2ec-5ed7-4f46-9519-99b8985d3462","system_id":"levelo_inurba_marseille","lat":43.30408,"lon":5.41295,"is_reserved":false,"is_disabled":false,"rental_uris":{"android":"levelo://app?vid=b312d2ec-5ed7-4f46-9519-99b8985d3462","ios":"levelo://app?vid=b312d2ec-5ed7-4f46-9519-99b8985d3462"},"vehicle_type_id":"4","last_reported":1774889811,"current_range_meters":4000,"station_id":"ce4bhop2rcd13ifvqh8g","pricing_plan_id":"cebpf4jnsgd1na2vs0mg"},{"bike_id":"e4ac35e4-8859-436b-9a81-4c436fcedcff","system_id":"levelo_inurba_marseille","lat":43.28536,"lon":5.44195,"is_reserved":false,"is_disabled":false,"rental_uris":{"android":"levelo://app?vid=e4ac35e4-8859-436b-9a81-4c436fcedcff","ios":"levelo://app?vid=e4ac35e4-8859-436b-9a81-4c436fcedcff"},"vehicle_type_id":"4","last_reported":1774889811,"current_range_meters":4000,"station_id":"","pricing_plan_id":"cebpf4jnsgd1na2vs0mg"},{"bike_id":"5f95b65e-d716-4b38-8190-e6dc057b7ee7","system_id":"levelo_inurba_marseille","lat":43.24655,"lon":5.38162,"is_reserved":false,"is_disabled":false,"rental_uris":{"android":"levelo://app?vid=5f95b65e-d716-4b38-8190-e6dc057b7ee7","ios":"levelo://app?vid=5f95b65e-d716-4b38-8190-e6dc057b7ee7"},"vehicle_type_id":"4","last_reported":1774889811,"current_range_meters":4000,"station_id":"ce4bhih2rcd13ifvqfr0","pricing_plan_id":"cebpf4jnsgd1na2vs0mg"},{"bike_id":"738782ca-c8c2-418b-b307-98fefa500e66","system_id":"levelo_inurba_marseille","lat":43.30895,"lon":5.39634,"is_reserved":false,"is_disabled":false,"rental_uris":{"android":"levelo://app?vid=738782ca-c8c2-418b-b307-98fefa500e66","ios":"levelo://app?vid=738782ca-c8c2-418b-b307-98fefa500e66"},"vehicle_type_id":"4","last_reported":1774889811,"current_range_meters":4000,"station_id":"ce4bh012rcd13ifvqcv0","pricing_plan_id":"cebpf4jnsgd1na2vs0mg"},{"bike_id":"d0688594-5180-441a-bbed-d94c30e2886b","system_id":"levelo_inurba_marseille","lat":43.27909,"lon":5.38004,"is_reserved":false,"is_disabled":false,"rental_uris":{"android":"levelo://app?vid=d0688594-5180-441a-bbed-d94c30e2886b","ios":"levelo://app?vid=d0688594-5180-441a-bbed-d94c30e2886b"},"vehicle_type_id":"4","last_reported":1774889811,"current_range_meters":4000,"station_id":"ce4bhf92rcd13ifvqf50","pricing_plan_id":"cebpf4jnsgd1na2vs0mg"},{"bike_id":"403e7e79-633c-4972-a710-f5ca7d74ea71","system_id":"levelo_inurba_marseille","lat":43.30407,"lon":5.39728,"is_reserved":false,"is_disabled":false,"rental_uris":{"android":"levelo://app?vid=403e7e79-633c-4972-a710-f5ca7d74ea71","ios":"levelo://app?vid=403e7e79-633c-4972-a710-f5ca7d74ea71"},"vehicle_type_id":"4","last_reported":1774889811,"current_range_meters":4000,"station_id":"","pricing_plan_id":"cebpf4jnsgd1na2vs0mg"},{"bike_id":"cee9b460-3960-4431-84b1-f885e5c227d3","system_id":"levelo_inurba_marseille","lat":43.26567,"lon":5.39031,"is_reserved":false,"is_disabled":false,"rental_uris":{"android":"levelo://app?vid=cee9b460-3960-4431-84b1-f885e5c227d3","ios":"levelo://app?vid=cee9b460-3960-4431-84b1-f885e5c227d3"},"vehicle_type_id":"4","last_reported":1774889811,"current_range_meters":4400,"station_id":"ce4bhe12rcd13ifvqf30","pricing_plan_id":"cebpf4jnsgd1na2vs0mg"},{"bike_id":"7ff5e948-0e94-496d-8b12-67c7c2774e67","system_id":"levelo_inurba_marseille","lat":43.28538,"lon":5.44096,"is_reserved":false,"is_disabled":false,"rental_uris":{"android":"levelo://app?vid=7ff5e948-0e94-496d-8b12-67c7c2774e67","ios":"levelo://app?vid=7ff5e948-0e94-496d-8b12-67c7c2774e67"},"vehicle_type_id":"4","last_reported":1774889811,"current_range_meters":4400,"station_id":"st_d3j3df2ikq2c7380ej80","pricing_plan_id":"cebpf4jnsgd1na2vs0mg"},{"bike_id":"e027651c-1b58-49be-8465-35e7c80537f6","system_id":"levelo_inurba_marseille","lat":43.2865,"lon":5.35071,"is_reserved":false,"is_disabled":false,"rental_uris":{"android":"levelo://app?vid=e027651c-1b58-49be-8465-35e7c80537f6","ios":"levelo://app?vid=e027651c-1b58-49be-8465-35e7c80537f6"},"vehicle_type_id":"4","last_reported":1774889811,"current_range_meters":4400,"station_id":"ce4bhch2rcd13ifvqeug","pricing_plan_id":"cebpf4jnsgd1na2vs0mg"},{"bike_id":"25935fd8-662d-438b-8a78-ddcbba487562","system_id":"levelo_inurba_marseille","lat":43.2961,"lon":5.37756,"is_reserved":false,"is_disabled":false,"rental_uris":{"android":"levelo://app?vid=25935fd8-662d-438b-8a78-ddcbba487562","ios":"levelo://app?vid=25935fd8-662d-438b-8a78-ddcbba487562"},"vehicle_type_id":"4","last_reported":1774889811,"current_range_meters":4400,"station_id":"ce4bgi92rcd13ifvqb90","pricing_plan_id":"cebpf4jnsgd1na2vs0mg"},{"bike_id":"96b45d31-bef5-4eeb-8979-9268c25a6fe7","system_id":"levelo_inurba_marseille","lat":43.31192,"lon":5.36916,"is_reserved":false,"is_disabled":false,"rental_uris":{"android":"levelo://app?vid=96b45d31-bef5-4eeb-8979-9268c25a6fe7","ios":"levelo://app?vid=96b45d31-bef5-4eeb-8979-9268c25a6fe7"},"vehicle_type_id":"4","last_reported":1774889811,"current_range_meters":4400,"station_id":"","pricing_plan_id":"cebpf4jnsgd1na2vs0mg"},{"bike_id":"91eafa08-026f-40c5-b5de-6910a52e733d","system_id":"levelo_inurba_marseille","lat":43.24447,"lon":5.4256,"is_reserved":false,"is_disabled":false,"rental_uris":{"android":"levelo://app?vid=91eafa08-026f-40c5-b5de-6910a52e733d","ios":"levelo://app?vid=91eafa08-026f-40c5-b5de-6910a52e733d"},"vehicle_type_id":"4","last_reported":1774889811,"current_range_meters":4400,"station_id":"st_d4a3vfp97mjs738cd8kg","pricing_plan_id":"cebpf4jnsgd1na2vs0mg"},{"bike_id":"5bbb2a73-11b5-4f9d-a5b1-5b51513103cb","system_id":"levelo_inurba_marseille","lat":43.28617,"lon":5.35114,"is_reserved":false,"is_disabled":false,"rental_uris":{"android":"levelo://app?vid=5bbb2a73-11b5-4f9d-a5b1-5b51513103cb","ios":"levelo://app?vid=5bbb2a73-11b5-4f9d-a5b1-5b51513103cb"},"vehicle_type_id":"4","last_reported":1774889811,"current_range_meters":4400,"station_id":"ce4bhch2rcd13ifvqeug","pricing_plan_id":"cebpf4jnsgd1na2vs0mg"},{"bike_id":"29bfe38f-a06a-4a80-8b82-42d779e72426","system_id":"levelo_inurba_marseille","lat":43.2954,"lon":5.39057,"is_reserved":false,"is_disabled":false,"rental_uris":{"android":"levelo://app?vid=29bfe38f-a06a-4a80-8b82-42d779e72426","ios":"levelo://app?vid=29bfe38f-a06a-4a80-8b82-42d779e72426"},"vehicle_type_id":"4","last_reported":1774889811,"current_range_meters":4400,"station_id":"ce4bh3p2rcd13ifvqdp0","pricing_plan_id":"cebpf4jnsgd1na2vs0mg"},{"bike_id":"e734a3bb-59b0-4237-8f87-541581bd4f21","system_id":"levelo_inurba_marseille","lat":43.318866,"lon":5.407389,"is_reserved":false,"is_disabled":false,"rental_uris":{"android":"levelo://app?vid=e734a3bb-59b0-4237-8f87-541581bd4f21","ios":"levelo://app?vid=e734a3bb-59b0-4237-8f87-541581bd4f21"},"vehicle_type_id":"4","last_reported":1774889811,"current_range_meters":4400,"station_id":"ce4bhq12rcd13ifvqhig","pricing_plan_id":"cebpf4jnsgd1na2vs0mg"},{"bike_id":"dc79fefa-d554-4ea7-b0f6-dfb50b76419c","system_id":"levelo_inurba_marseille","lat":43.25837,"lon":5.39422,"is_reserved":false,"is_disabled":false,"rental_uris":{"android":"levelo://app?vid=dc79fefa-d554-4ea7-b0f6-dfb50b76419c","ios":"levelo://app?vid=dc79fefa-d554-4ea7-b0f6-dfb50b76419c"},"vehicle_type_id":"4","last_reported":1774889811,"current_range_meters":4400,"station_id":"ce4bhip2rcd13ifvqft0","pricing_plan_id":"cebpf4jnsgd1na2vs0mg"},{"bike_id":"83934499-17cb-427b-97a1-aaf49058c2de","system_id":"levelo_inurba_marseille","lat":43.25573,"lon":5.38232,"is_reserved":false,"is_disabled":false,"rental_uris":{"android":"levelo://app?vid=83934499-17cb-427b-97a1-aaf49058c2de","ios":"levelo://app?vid=83934499-17cb-427b-97a1-aaf49058c2de"},"vehicle_type_id":"4","last_reported":1774889811,"current_range_meters":4400,"station_id":"ce4bhih2rcd13ifvqfs0","pricing_plan_id":"cebpf4jnsgd1na2vs0mg"},{"bike_id":"0386b701-bda8-4b42-9b32-1775fe1662ea","system_id":"levelo_inurba_marseille","lat":43.30438,"lon":5.38888,"is_reserved":false,"is_disabled":false,"rental_uris":{"android":"levelo://app?vid=0386b701-bda8-4b42-9b32-1775fe1662ea","ios":"levelo://app?vid=0386b701-bda8-4b42-9b32-1775fe1662ea"},"vehicle_type_id":"4","last_reported":1774889811,"current_range_meters":4800,"station_id":"ce4bgk12rcd13ifvqbi0","pricing_plan_id":"cebpf4jnsgd1na2vs0mg"},{"bike_id":"88900821-ac79-4ee5-8fc9-e889474b5abd","system_id":"levelo_inurba_marseille","lat":43.28627,"lon":5.3507,"is_reserved":false,"is_disabled":false,"rental_uris":{"android":"levelo://app?vid=88900821-ac79-4ee5-8fc9-e889474b5abd","ios":"levelo://app?vid=88900821-ac79-4ee5-8fc9-e889474b5abd"},"vehicle_type_id":"4","last_reported":1774889811,"current_range_meters":4800,"station_id":"ce4bhch2rcd13ifvqeug","pricing_plan_id":"cebpf4jnsgd1na2vs0mg"},{"bike_id":"c86d845d-a9a1-4000-acdd-408b4f74bb9d","system_id":"levelo_inurba_marseille","lat":43.31353,"lon":5.36727,"is_reserved":false,"is_disabled":false,"rental_uris":{"android":"levelo://app?vid=c86d845d-a9a1-4000-acdd-408b4f74bb9d","ios":"levelo://app?vid=c86d845d-a9a1-4000-acdd-408b4f74bb9d"},"vehicle_type_id":"4","last_reported":1774889811,"current_range_meters":4800,"station_id":"ce4bgr92rcd13ifvqc6g","pricing_plan_id":"cebpf4jnsgd1na2vs0mg"},{"bike_id":"e514b04b-9f50-4119-bfb2-7f19c4fc4c24","system_id":"levelo_inurba_marseille","lat":43.27171,"lon":5.40546,"is_reserved":false,"is_disabled":false,"rental_uris":{"android":"levelo://app?vid=e514b04b-9f50-4119-bfb2-7f19c4fc4c24","ios":"levelo://app?vid=e514b04b-9f50-4119-bfb2-7f19c4fc4c24"},"vehicle_type_id":"4","last_reported":1774889811,"current_range_meters":4800,"station_id":"","pricing_plan_id":"cebpf4jnsgd1na2vs0mg"},{"bike_id":"096f130d-cd54-47a5-bd0a-235914e47f3f","system_id":"levelo_inurba_marseille","lat":43.28116,"lon":5.37847,"is_reserved":false,"is_disabled":false,"rental_uris":{"android":"levelo://app?vid=096f130d-cd54-47a5-bd0a-235914e47f3f","ios":"levelo://app?vid=096f130d-cd54-47a5-bd0a-235914e47f3f"},"vehicle_type_id":"4","last_reported":1774889811,"current_range_meters":4800,"station_id":"ce4bha12rcd13ifvqee0","pricing_plan_id":"cebpf4jnsgd1na2vs0mg"},{"bike_id":"f16b920d-4760-44fd-92f5-b6cf293c8515","system_id":"levelo_inurba_marseille","lat":43.23198,"lon":5.35551,"is_reserved":false,"is_disabled":false,"rental_uris":{"android":"levelo://app?vid=f16b920d-4760-44fd-92f5-b6cf293c8515","ios":"levelo://app?vid=f16b920d-4760-44fd-92f5-b6cf293c8515"},"vehicle_type_id":"4","last_reported":1774889811,"current_range_meters":4800,"station_id":"ce4bhu92rcd13ifvqi70","pricing_plan_id":"cebpf4jnsgd1na2vs0mg"},{"bike_id":"6bf2f77d-8f33-4b61-a21d-730e410e658a","system_id":"levelo_inurba_marseille","lat":43.23186,"lon":5.35569,"is_reserved":false,"is_disabled":false,"rental_uris":{"android":"levelo://app?vid=6bf2f77d-8f33-4b61-a21d-730e410e658a","ios":"levelo://app?vid=6bf2f77d-8f33-4b61-a21d-730e410e658a"},"vehicle_type_id":"4","last_reported":1774889811,"current_range_meters":4800,"station_id":"ce4bhu92rcd13ifvqi70","pricing_plan_id":"cebpf4jnsgd1na2vs0mg"},{"bike_id":"1f7507c0-1d57-4435-a922-7c4f891a00c7","system_id":"levelo_inurba_marseille","lat":43.28792,"lon":5.35994,"is_reserved":false,"is_disabled":false,"rental_uris":{"android":"levelo://app?vid=1f7507c0-1d57-4435-a922-7c4f891a00c7","ios":"levelo://app?vid=1f7507c0-1d57-4435-a922-7c4f891a00c7"},"vehicle_type_id":"4","last_reported":1774889811,"current_range_meters":4800,"station_id":"","pricing_plan_id":"cebpf4jnsgd1na2vs0mg"},{"bike_id":"9e91609e-7fe2-4a3b-88fa-3fff71ba2f1d","system_id":"levelo_inurba_marseille","lat":43.26374,"lon":5.4109,"is_reserved":false,"is_disabled":false,"rental_uris":{"android":"levelo://app?vid=9e91609e-7fe2-4a3b-88fa-3fff71ba2f1d","ios":"levelo://app?vid=9e91609e-7fe2-4a3b-88fa-3fff71ba2f1d"},"vehicle_type_id":"4","last_reported":1774889811,"current_range_meters":4800,"station_id":"st_d4e5ca6na9uc73bfl5fg","pricing_plan_id":"cebpf4jnsgd1na2vs0mg"},{"bike_id":"70d1dfba-9338-4b62-aa2c-a1ae06998d5f","system_id":"levelo_inurba_marseille","lat":43.29247,"lon":5.38444,"is_reserved":false,"is_disabled":false,"rental_uris":{"android":"levelo://app?vid=70d1dfba-9338-4b62-aa2c-a1ae06998d5f","ios":"levelo://app?vid=70d1dfba-9338-4b62-aa2c-a1ae06998d5f"},"vehicle_type_id":"4","last_reported":1774889811,"current_range_meters":4800,"station_id":"ce4bh692rcd13ifvqea0","pricing_plan_id":"cebpf4jnsgd1na2vs0mg"},{"bike_id":"5b3e99ae-abbe-4a3b-ae6d-f300c405b974","system_id":"levelo_inurba_marseille","lat":43.30615,"lon":5.37239,"is_reserved":false,"is_disabled":false,"rental_uris":{"android":"levelo://app?vid=5b3e99ae-abbe-4a3b-ae6d-f300c405b974","ios":"levelo://app?vid=5b3e99ae-abbe-4a3b-ae6d-f300c405b974"},"vehicle_type_id":"4","last_reported":1774889811,"current_range_meters":4800,"station_id":"ce4bgqh2rcd13ifvqc4g","pricing_plan_id":"cebpf4jnsgd1na2vs0mg"},{"bike_id":"3054983a-1a1c-4947-aa35-bcfaa4fa8110","system_id":"levelo_inurba_marseille","lat":43.2534,"lon":5.42162,"is_reserved":false,"is_disabled":false,"rental_uris":{"android":"levelo://app?vid=3054983a-1a1c-4947-aa35-bcfaa4fa8110","ios":"levelo://app?vid=3054983a-1a1c-4947-aa35-bcfaa4fa8110"},"vehicle_type_id":"4","last_reported":1774889811,"current_range_meters":5600,"station_id":"st_d2m65c5bi1j21697t3ng","pricing_plan_id":"cebpf4jnsgd1na2vs0mg"},{"bike_id":"ca22943a-5084-4d52-8de5-951e8b6fe4f6","system_id":"levelo_inurba_marseille","lat":43.28276,"lon":5.35042,"is_reserved":false,"is_disabled":false,"rental_uris":{"android":"levelo://app?vid=ca22943a-5084-4d52-8de5-951e8b6fe4f6","ios":"levelo://app?vid=ca22943a-5084-4d52-8de5-951e8b6fe4f6"},"vehicle_type_id":"4","last_reported":1774889811,"current_range_meters":5600,"station_id":"ce4bhbp2rcd13ifvqerg","pricing_plan_id":"cebpf4jnsgd1na2vs0mg"},{"bike_id":"8fe0a03c-4e82-4784-aa8b-df4777cad097","system_id":"levelo_inurba_marseille","lat":43.3132,"lon":5.39699,"is_reserved":false,"is_disabled":false,"rental_uris":{"android":"levelo://app?vid=8fe0a03c-4e82-4784-aa8b-df4777cad097","ios":"levelo://app?vid=8fe0a03c-4e82-4784-aa8b-df4777cad097"},"vehicle_type_id":"4","last_reported":1774889811,"current_range_meters":5600,"station_id":"ce4bgvp2rcd13ifvqcu0","pricing_plan_id":"cebpf4jnsgd1na2vs0mg"},{"bike_id":"120d2fdf-12b3-4cc8-a702-4d55e159dea6","system_id":"levelo_inurba_marseille","lat":43.288502,"lon":5.39321,"is_reserved":false,"is_disabled":false,"rental_uris":{"android":"levelo://app?vid=120d2fdf-12b3-4cc8-a702-4d55e159dea6","ios":"levelo://app?vid=120d2fdf-12b3-4cc8-a702-4d55e159dea6"},"vehicle_type_id":"4","last_reported":1774889811,"current_range_meters":5600,"station_id":"","pricing_plan_id":"cebpf4jnsgd1na2vs0mg"},{"bike_id":"2e473b1d-39dc-4686-a52e-6eb05e99392b","system_id":"levelo_inurba_marseille","lat":43.28409,"lon":5.35004,"is_reserved":false,"is_disabled":false,"rental_uris":{"android":"levelo://app?vid=2e473b1d-39dc-4686-a52e-6eb05e99392b","ios":"levelo://app?vid=2e473b1d-39dc-4686-a52e-6eb05e99392b"},"vehicle_type_id":"4","last_reported":1774889811,"current_range_meters":5600,"station_id":"ce4bhbh2rcd13ifvqepg","pricing_plan_id":"cebpf4jnsgd1na2vs0mg"},{"bike_id":"010bf32e-cc19-4e06-8c2c-56182f905b80","system_id":"levelo_inurba_marseille","lat":43.26211,"lon":5.3744,"is_reserved":false,"is_disabled":false,"rental_uris":{"android":"levelo://app?vid=010bf32e-cc19-4e06-8c2c-56182f905b80","ios":"levelo://app?vid=010bf32e-cc19-4e06-8c2c-56182f905b80"},"vehicle_type_id":"4","last_reported":1774889811,"current_range_meters":5600,"station_id":"ce4bhgp2rcd13ifvqfc0","pricing_plan_id":"cebpf4jnsgd1na2vs0mg"},{"bike_id":"976b0837-858d-49b8-8bb1-6a4b9d308b37","system_id":"levelo_inurba_marseille","lat":43.31044,"lon":5.3937,"is_reserved":false,"is_disabled":false,"rental_uris":{"android":"levelo://app?vid=976b0837-858d-49b8-8bb1-6a4b9d308b37","ios":"levelo://app?vid=976b0837-858d-49b8-8bb1-6a4b9d308b37"},"vehicle_type_id":"4","last_reported":1774889811,"current_range_meters":5600,"station_id":"","pricing_plan_id":"cebpf4jnsgd1na2vs0mg"},{"bike_id":"722178ea-9ec4-4a61-a4f3-4a88327f65c6","system_id":"levelo_inurba_marseille","lat":43.32359,"lon":5.3674,"is_reserved":false,"is_disabled":false,"rental_uris":{"android":"levelo://app?vid=722178ea-9ec4-4a61-a4f3-4a88327f65c6","ios":"levelo://app?vid=722178ea-9ec4-4a61-a4f3-4a88327f65c6"},"vehicle_type_id":"4","last_reported":1774889811,"current_range_meters":5600,"station_id":"ce4bhsh2rcd13ifvqi2g","pricing_plan_id":"cebpf4jnsgd1na2vs0mg"},{"bike_id":"ec87d9a7-61ba-4d2b-8661-0d9849cd20a1","system_id":"levelo_inurba_marseille","lat":43.24472,"lon":5.42548,"is_reserved":false,"is_disabled":false,"rental_uris":{"android":"levelo://app?vid=ec87d9a7-61ba-4d2b-8661-0d9849cd20a1","ios":"levelo://app?vid=ec87d9a7-61ba-4d2b-8661-0d9849cd20a1"},"vehicle_type_id":"4","last_reported":1774889811,"current_range_meters":5600,"station_id":"st_d4a3vfp97mjs738cd8kg","pricing_plan_id":"cebpf4jnsgd1na2vs0mg"},{"bike_id":"8489331d-8f95-4b36-a026-08bb56c1991f","system_id":"levelo_inurba_marseille","lat":43.23781,"lon":5.36644,"is_reserved":false,"is_disabled":false,"rental_uris":{"android":"levelo://app?vid=8489331d-8f95-4b36-a026-08bb56c1991f","ios":"levelo://app?vid=8489331d-8f95-4b36-a026-08bb56c1991f"},"vehicle_type_id":"4","last_reported":1774889811,"current_range_meters":5600,"station_id":"st_d3nk18o9ro0c73en2l3g","pricing_plan_id":"cebpf4jnsgd1na2vs0mg"},{"bike_id":"609a3f51-95d7-4bff-9fb9-07e7f142b6aa","system_id":"levelo_inurba_marseille","lat":43.29729,"lon":5.37031,"is_reserved":false,"is_disabled":false,"rental_uris":{"android":"levelo://app?vid=609a3f51-95d7-4bff-9fb9-07e7f142b6aa","ios":"levelo://app?vid=609a3f51-95d7-4bff-9fb9-07e7f142b6aa"},"vehicle_type_id":"4","last_reported":1774889811,"current_range_meters":5600,"station_id":"","pricing_plan_id":"cebpf4jnsgd1na2vs0mg"},{"bike_id":"fc32dc7e-6e7a-49b4-bf5c-5e107dd0a161","system_id":"levelo_inurba_marseille","lat":43.25396,"lon":5.41904,"is_reserved":false,"is_disabled":false,"rental_uris":{"android":"levelo://app?vid=fc32dc7e-6e7a-49b4-bf5c-5e107dd0a161","ios":"levelo://app?vid=fc32dc7e-6e7a-49b4-bf5c-5e107dd0a161"},"vehicle_type_id":"4","last_reported":1774889811,"current_range_meters":5600,"station_id":"","pricing_plan_id":"cebpf4jnsgd1na2vs0mg"},{"bike_id":"34f528ae-d358-4eff-85c8-f2efd8d77151","system_id":"levelo_inurba_marseille","lat":43.23914,"lon":5.37482,"is_reserved":false,"is_disabled":false,"rental_uris":{"android":"levelo://app?vid=34f528ae-d358-4eff-85c8-f2efd8d77151","ios":"levelo://app?vid=34f528ae-d358-4eff-85c8-f2efd8d77151"},"vehicle_type_id":"4","last_reported":1774889811,"current_range_meters":5600,"station_id":"st_d6sm7csbq4hs73f8fpjg","pricing_plan_id":"cebpf4jnsgd1na2vs0mg"},{"bike_id":"af5a7a48-c090-4231-9c1d-d3c469ae99de","system_id":"levelo_inurba_marseille","lat":43.31226,"lon":5.36863,"is_reserved":false,"is_disabled":false,"rental_uris":{"android":"levelo://app?vid=af5a7a48-c090-4231-9c1d-d3c469ae99de","ios":"levelo://app?vid=af5a7a48-c090-4231-9c1d-d3c469ae99de"},"vehicle_type_id":"4","last_reported":1774889811,"current_range_meters":6000,"station_id":"ce4bgl92rcd13ifvqbq0","pricing_plan_id":"cebpf4jnsgd1na2vs0mg"},{"bike_id":"79b83cac-f53e-4728-8f51-39d9470d2b57","system_id":"levelo_inurba_marseille","lat":43.2978,"lon":5.39358,"is_reserved":false,"is_disabled":false,"rental_uris":{"android":"levelo://app?vid=79b83cac-f53e-4728-8f51-39d9470d2b57","ios":"levelo://app?vid=79b83cac-f53e-4728-8f51-39d9470d2b57"},"vehicle_type_id":"4","last_reported":1774889811,"current_range_meters":6000,"station_id":"chh1huq6cuj3fo74tm60","pricing_plan_id":"cebpf4jnsgd1na2vs0mg"},{"bike_id":"53f142a0-3955-4808-b4c6-e1524bc3e079","system_id":"levelo_inurba_marseille","lat":43.21198,"lon":5.35067,"is_reserved":false,"is_disabled":false,"rental_uris":{"android":"levelo://app?vid=53f142a0-3955-4808-b4c6-e1524bc3e079","ios":"levelo://app?vid=53f142a0-3955-4808-b4c6-e1524bc3e079"},"vehicle_type_id":"4","last_reported":1774889811,"current_range_meters":6000,"station_id":"st_cvj6sg6p6f1abm77japg","pricing_plan_id":"cebpf4jnsgd1na2vs0mg"},{"bike_id":"085c38b5-98f5-41a6-a385-8b6d28bfb2c1","system_id":"levelo_inurba_marseille","lat":43.22531,"lon":5.34846,"is_reserved":false,"is_disabled":false,"rental_uris":{"android":"levelo://app?vid=085c38b5-98f5-41a6-a385-8b6d28bfb2c1","ios":"levelo://app?vid=085c38b5-98f5-41a6-a385-8b6d28bfb2c1"},"vehicle_type_id":"4","last_reported":1774889811,"current_range_meters":6000,"station_id":"st_cvj5dfep6f1abm77gieg","pricing_plan_id":"cebpf4jnsgd1na2vs0mg"},{"bike_id":"b90caad3-7060-4253-981e-42cd0d5fd64b","system_id":"levelo_inurba_marseille","lat":43.2845,"lon":5.48452,"is_reserved":false,"is_disabled":false,"rental_uris":{"android":"levelo://app?vid=b90caad3-7060-4253-981e-42cd0d5fd64b","ios":"levelo://app?vid=b90caad3-7060-4253-981e-42cd0d5fd64b"},"vehicle_type_id":"4","last_reported":1774889811,"current_range_meters":6000,"station_id":"st_d3svhcjqgbts73a3dn0g","pricing_plan_id":"cebpf4jnsgd1na2vs0mg"},{"bike_id":"2765ad6f-0d51-480a-9a8e-4ce247e5eed4","system_id":"levelo_inurba_marseille","lat":43.28881,"lon":5.35869,"is_reserved":false,"is_disabled":false,"rental_uris":{"android":"levelo://app?vid=2765ad6f-0d51-480a-9a8e-4ce247e5eed4","ios":"levelo://app?vid=2765ad6f-0d51-480a-9a8e-4ce247e5eed4"},"vehicle_type_id":"4","last_reported":1774889811,"current_range_meters":6000,"station_id":"ce4bhb12rcd13ifvqem0","pricing_plan_id":"cebpf4jnsgd1na2vs0mg"},{"bike_id":"3e56278a-47c3-4d27-b2a7-b0223efdc25d","system_id":"levelo_inurba_marseille","lat":43.28405,"lon":5.35,"is_reserved":false,"is_disabled":false,"rental_uris":{"android":"levelo://app?vid=3e56278a-47c3-4d27-b2a7-b0223efdc25d","ios":"levelo://app?vid=3e56278a-47c3-4d27-b2a7-b0223efdc25d"},"vehicle_type_id":"4","last_reported":1774889811,"current_range_meters":6000,"station_id":"ce4bhbh2rcd13ifvqepg","pricing_plan_id":"cebpf4jnsgd1na2vs0mg"},{"bike_id":"bdba0113-b085-4477-ae3d-8c0ba0dfc437","system_id":"levelo_inurba_marseille","lat":43.29225,"lon":5.36073,"is_reserved":false,"is_disabled":false,"rental_uris":{"android":"levelo://app?vid=bdba0113-b085-4477-ae3d-8c0ba0dfc437","ios":"levelo://app?vid=bdba0113-b085-4477-ae3d-8c0ba0dfc437"},"vehicle_type_id":"4","last_reported":1774889811,"current_range_meters":6000,"station_id":"ce4bhbh2rcd13ifvqeqg","pricing_plan_id":"cebpf4jnsgd1na2vs0mg"},{"bike_id":"fe448dd6-41e6-4316-8322-1ef9307a87c2","system_id":"levelo_inurba_marseille","lat":43.23898,"lon":5.37463,"is_reserved":false,"is_disabled":true,"rental_uris":{"android":"levelo://app?vid=fe448dd6-41e6-4316-8322-1ef9307a87c2","ios":"levelo://app?vid=fe448dd6-41e6-4316-8322-1ef9307a87c2"},"vehicle_type_id":"4","last_reported":1774889811,"current_range_meters":6000,"station_id":"st_d6sm7csbq4hs73f8fpjg","pricing_plan_id":"cebpf4jnsgd1na2vs0mg"},{"bike_id":"96386c80-3369-4abb-b3c0-88123ad0f476","system_id":"levelo_inurba_marseille","lat":43.29562,"lon":5.39967,"is_reserved":false,"is_disabled":false,"rental_uris":{"android":"levelo://app?vid=96386c80-3369-4abb-b3c0-88123ad0f476","ios":"levelo://app?vid=96386c80-3369-4abb-b3c0-88123ad0f476"},"vehicle_type_id":"4","last_reported":1774889811,"current_range_meters":6000,"station_id":"ce4bh312rcd13ifvqdj0","pricing_plan_id":"cebpf4jnsgd1na2vs0mg"},{"bike_id":"d702f9f6-8c8f-4dee-8b59-b578a0195d00","system_id":"levelo_inurba_marseille","lat":43.3119,"lon":5.3682,"is_reserved":false,"is_disabled":false,"rental_uris":{"android":"levelo://app?vid=d702f9f6-8c8f-4dee-8b59-b578a0195d00","ios":"levelo://app?vid=d702f9f6-8c8f-4dee-8b59-b578a0195d00"},"vehicle_type_id":"4","last_reported":1774889811,"current_range_meters":6000,"station_id":"ce4bgl92rcd13ifvqbq0","pricing_plan_id":"cebpf4jnsgd1na2vs0mg"},{"bike_id":"ac172dce-2d76-4a79-a55e-e3ac1467d3ec","system_id":"levelo_inurba_marseille","lat":43.25336,"lon":5.42174,"is_reserved":false,"is_disabled":false,"rental_uris":{"android":"levelo://app?vid=ac172dce-2d76-4a79-a55e-e3ac1467d3ec","ios":"levelo://app?vid=ac172dce-2d76-4a79-a55e-e3ac1467d3ec"},"vehicle_type_id":"4","last_reported":1774889811,"current_range_meters":6000,"station_id":"st_d2m65c5bi1j21697t3ng","pricing_plan_id":"cebpf4jnsgd1na2vs0mg"},{"bike_id":"4d7d6844-474c-4ae8-b1a0-4778beaee472","system_id":"levelo_inurba_marseille","lat":43.29243,"lon":5.38446,"is_reserved":false,"is_disabled":false,"rental_uris":{"android":"levelo://app?vid=4d7d6844-474c-4ae8-b1a0-4778beaee472","ios":"levelo://app?vid=4d7d6844-474c-4ae8-b1a0-4778beaee472"},"vehicle_type_id":"4","last_reported":1774889811,"current_range_meters":6000,"station_id":"ce4bh692rcd13ifvqea0","pricing_plan_id":"cebpf4jnsgd1na2vs0mg"},{"bike_id":"9f1f371f-cb8c-4e90-9c45-641832bce8fb","system_id":"levelo_inurba_marseille","lat":43.28497,"lon":5.38572,"is_reserved":false,"is_disabled":false,"rental_uris":{"android":"levelo://app?vid=9f1f371f-cb8c-4e90-9c45-641832bce8fb","ios":"levelo://app?vid=9f1f371f-cb8c-4e90-9c45-641832bce8fb"},"vehicle_type_id":"4","last_reported":1774889811,"current_range_meters":6400,"station_id":"ce4bh8p2rcd13ifvqeb0","pricing_plan_id":"cebpf4jnsgd1na2vs0mg"},{"bike_id":"81168108-2732-46c8-8472-7503e4d23d21","system_id":"levelo_inurba_marseille","lat":43.29248,"lon":5.38443,"is_reserved":false,"is_disabled":false,"rental_uris":{"android":"levelo://app?vid=81168108-2732-46c8-8472-7503e4d23d21","ios":"levelo://app?vid=81168108-2732-46c8-8472-7503e4d23d21"},"vehicle_type_id":"4","last_reported":1774889811,"current_range_meters":6400,"station_id":"ce4bh692rcd13ifvqea0","pricing_plan_id":"cebpf4jnsgd1na2vs0mg"},{"bike_id":"c1002c0e-4ac1-425c-8089-960bea241eb8","system_id":"levelo_inurba_marseille","lat":43.2466,"lon":5.38161,"is_reserved":false,"is_disabled":false,"rental_uris":{"android":"levelo://app?vid=c1002c0e-4ac1-425c-8089-960bea241eb8","ios":"levelo://app?vid=c1002c0e-4ac1-425c-8089-960bea241eb8"},"vehicle_type_id":"4","last_reported":1774889811,"current_range_meters":6400,"station_id":"ce4bhih2rcd13ifvqfr0","pricing_plan_id":"cebpf4jnsgd1na2vs0mg"},{"bike_id":"ce0d09ee-b6ae-4168-96a6-a542e3d8d78f","system_id":"levelo_inurba_marseille","lat":43.29535,"lon":5.38545,"is_reserved":false,"is_disabled":false,"rental_uris":{"android":"levelo://app?vid=ce0d09ee-b6ae-4168-96a6-a542e3d8d78f","ios":"levelo://app?vid=ce0d09ee-b6ae-4168-96a6-a542e3d8d78f"},"vehicle_type_id":"4","last_reported":1774889811,"current_range_meters":6400,"station_id":"ce4bgih2rcd13ifvqba0","pricing_plan_id":"cebpf4jnsgd1na2vs0mg"},{"bike_id":"2a64652c-358d-46e8-a495-40b00f28b091","system_id":"levelo_inurba_marseille","lat":43.25115,"lon":5.4032,"is_reserved":false,"is_disabled":false,"rental_uris":{"android":"levelo://app?vid=2a64652c-358d-46e8-a495-40b00f28b091","ios":"levelo://app?vid=2a64652c-358d-46e8-a495-40b00f28b091"},"vehicle_type_id":"4","last_reported":1774889811,"current_range_meters":6400,"station_id":"ce4bhlh2rcd13ifvqgig","pricing_plan_id":"cebpf4jnsgd1na2vs0mg"},{"bike_id":"c65f7cfd-8a23-4398-8054-cc4c9bfe0b68","system_id":"levelo_inurba_marseille","lat":43.25076,"lon":5.40506,"is_reserved":false,"is_disabled":false,"rental_uris":{"android":"levelo://app?vid=c65f7cfd-8a23-4398-8054-cc4c9bfe0b68","ios":"levelo://app?vid=c65f7cfd-8a23-4398-8054-cc4c9bfe0b68"},"vehicle_type_id":"4","last_reported":1774889811,"current_range_meters":6400,"station_id":"","pricing_plan_id":"cebpf4jnsgd1na2vs0mg"},{"bike_id":"e9e7243e-0bf2-4e0d-8c40-7c121652fe74","system_id":"levelo_inurba_marseille","lat":43.29532,"lon":5.38547,"is_reserved":false,"is_disabled":false,"rental_uris":{"android":"levelo://app?vid=e9e7243e-0bf2-4e0d-8c40-7c121652fe74","ios":"levelo://app?vid=e9e7243e-0bf2-4e0d-8c40-7c121652fe74"},"vehicle_type_id":"4","last_reported":1774889811,"current_range_meters":6400,"station_id":"ce4bgih2rcd13ifvqba0","pricing_plan_id":"cebpf4jnsgd1na2vs0mg"},{"bike_id":"e35b24d5-c149-4340-9c14-7bd9a49f88da","system_id":"levelo_inurba_marseille","lat":43.26566,"lon":5.39008,"is_reserved":false,"is_disabled":false,"rental_uris":{"android":"levelo://app?vid=e35b24d5-c149-4340-9c14-7bd9a49f88da","ios":"levelo://app?vid=e35b24d5-c149-4340-9c14-7bd9a49f88da"},"vehicle_type_id":"4","last_reported":1774889811,"current_range_meters":6400,"station_id":"ce4bhe12rcd13ifvqf30","pricing_plan_id":"cebpf4jnsgd1na2vs0mg"},{"bike_id":"0b340273-8df2-4251-b16e-5b4e72023f1c","system_id":"levelo_inurba_marseille","lat":43.30951,"lon":5.39051,"is_reserved":false,"is_disabled":false,"rental_uris":{"android":"levelo://app?vid=0b340273-8df2-4251-b16e-5b4e72023f1c","ios":"levelo://app?vid=0b340273-8df2-4251-b16e-5b4e72023f1c"},"vehicle_type_id":"4","last_reported":1774889811,"current_range_meters":6400,"station_id":"ce4bgup2rcd13ifvqco0","pricing_plan_id":"cebpf4jnsgd1na2vs0mg"},{"bike_id":"7ea68384-f694-4a28-85a7-1a4829b38dc5","system_id":"levelo_inurba_marseille","lat":43.28496,"lon":5.44249,"is_reserved":false,"is_disabled":false,"rental_uris":{"android":"levelo://app?vid=7ea68384-f694-4a28-85a7-1a4829b38dc5","ios":"levelo://app?vid=7ea68384-f694-4a28-85a7-1a4829b38dc5"},"vehicle_type_id":"4","last_reported":1774889811,"current_range_meters":6400,"station_id":"","pricing_plan_id":"cebpf4jnsgd1na2vs0mg"},{"bike_id":"93858380-8afb-453d-8daf-0bf96d8ee1f3","system_id":"levelo_inurba_marseille","lat":43.23797,"lon":5.36635,"is_reserved":false,"is_disabled":false,"rental_uris":{"android":"levelo://app?vid=93858380-8afb-453d-8daf-0bf96d8ee1f3","ios":"levelo://app?vid=93858380-8afb-453d-8daf-0bf96d8ee1f3"},"vehicle_type_id":"4","last_reported":1774889811,"current_range_meters":6400,"station_id":"st_d3nk18o9ro0c73en2l3g","pricing_plan_id":"cebpf4jnsgd1na2vs0mg"},{"bike_id":"29049f9a-cda2-426d-9e6c-1d886e0b8215","system_id":"levelo_inurba_marseille","lat":43.29174,"lon":5.42755,"is_reserved":false,"is_disabled":false,"rental_uris":{"android":"levelo://app?vid=29049f9a-cda2-426d-9e6c-1d886e0b8215","ios":"levelo://app?vid=29049f9a-cda2-426d-9e6c-1d886e0b8215"},"vehicle_type_id":"4","last_reported":1774889811,"current_range_meters":6400,"station_id":"","pricing_plan_id":"cebpf4jnsgd1na2vs0mg"},{"bike_id":"54aa963c-c44d-4dce-bfb2-58f577536c67","system_id":"levelo_inurba_marseille","lat":43.27908,"lon":5.39592,"is_reserved":false,"is_disabled":false,"rental_uris":{"android":"levelo://app?vid=54aa963c-c44d-4dce-bfb2-58f577536c67","ios":"levelo://app?vid=54aa963c-c44d-4dce-bfb2-58f577536c67"},"vehicle_type_id":"4","last_reported":1774889811,"current_range_meters":6400,"station_id":"ce4bhf92rcd13ifvqf40","pricing_plan_id":"cebpf4jnsgd1na2vs0mg"},{"bike_id":"79c6ef5b-7c4d-48e6-9d00-4356a857a203","system_id":"levelo_inurba_marseille","lat":43.29209,"lon":5.36049,"is_reserved":false,"is_disabled":false,"rental_uris":{"android":"levelo://app?vid=79c6ef5b-7c4d-48e6-9d00-4356a857a203","ios":"levelo://app?vid=79c6ef5b-7c4d-48e6-9d00-4356a857a203"},"vehicle_type_id":"4","last_reported":1774889811,"current_range_meters":6400,"station_id":"ce4bhbh2rcd13ifvqeqg","pricing_plan_id":"cebpf4jnsgd1na2vs0mg"},{"bike_id":"a89f1d99-d8e9-45d5-a84b-66647c67f2d5","system_id":"levelo_inurba_marseille","lat":43.26225,"lon":5.40455,"is_reserved":false,"is_disabled":false,"rental_uris":{"android":"levelo://app?vid=a89f1d99-d8e9-45d5-a84b-66647c67f2d5","ios":"levelo://app?vid=a89f1d99-d8e9-45d5-a84b-66647c67f2d5"},"vehicle_type_id":"4","last_reported":1774889811,"current_range_meters":6400,"station_id":"ce4bhmh2rcd13ifvqgmg","pricing_plan_id":"cebpf4jnsgd1na2vs0mg"},{"bike_id":"86db0319-41a7-4493-adee-c184becfe762","system_id":"levelo_inurba_marseille","lat":43.28886,"lon":5.45705,"is_reserved":false,"is_disabled":false,"rental_uris":{"android":"levelo://app?vid=86db0319-41a7-4493-adee-c184becfe762","ios":"levelo://app?vid=86db0319-41a7-4493-adee-c184becfe762"},"vehicle_type_id":"4","last_reported":1774889811,"current_range_meters":6400,"station_id":"","pricing_plan_id":"cebpf4jnsgd1na2vs0mg"},{"bike_id":"5c48f7da-31c3-42e6-9637-518cc59f95e6","system_id":"levelo_inurba_marseille","lat":43.24651,"lon":5.38889,"is_reserved":false,"is_disabled":false,"rental_uris":{"android":"levelo://app?vid=5c48f7da-31c3-42e6-9637-518cc59f95e6","ios":"levelo://app?vid=5c48f7da-31c3-42e6-9637-518cc59f95e6"},"vehicle_type_id":"4","last_reported":1774889811,"current_range_meters":6400,"station_id":"ce4bhg12rcd13ifvqf60","pricing_plan_id":"cebpf4jnsgd1na2vs0mg"},{"bike_id":"602b4b7b-8dc9-4891-9a25-26fd34b63857","system_id":"levelo_inurba_marseille","lat":43.24403,"lon":5.37082,"is_reserved":false,"is_disabled":false,"rental_uris":{"android":"levelo://app?vid=602b4b7b-8dc9-4891-9a25-26fd34b63857","ios":"levelo://app?vid=602b4b7b-8dc9-4891-9a25-26fd34b63857"},"vehicle_type_id":"4","last_reported":1774889811,"current_range_meters":6400,"station_id":"ce4bhhh2rcd13ifvqfk0","pricing_plan_id":"cebpf4jnsgd1na2vs0mg"},{"bike_id":"9984c3a0-a2ba-4f76-ad0b-3c3351fbbd09","system_id":"levelo_inurba_marseille","lat":43.30378,"lon":5.42488,"is_reserved":false,"is_disabled":false,"rental_uris":{"android":"levelo://app?vid=9984c3a0-a2ba-4f76-ad0b-3c3351fbbd09","ios":"levelo://app?vid=9984c3a0-a2ba-4f76-ad0b-3c3351fbbd09"},"vehicle_type_id":"4","last_reported":1774889811,"current_range_meters":6800,"station_id":"ce4bhoh2rcd13ifvqh6g","pricing_plan_id":"cebpf4jnsgd1na2vs0mg"},{"bike_id":"a4051ba5-40a5-44bb-afae-0bbbc9bea9e6","system_id":"levelo_inurba_marseille","lat":43.27999,"lon":5.40024,"is_reserved":false,"is_disabled":false,"rental_uris":{"android":"levelo://app?vid=a4051ba5-40a5-44bb-afae-0bbbc9bea9e6","ios":"levelo://app?vid=a4051ba5-40a5-44bb-afae-0bbbc9bea9e6"},"vehicle_type_id":"4","last_reported":1774889811,"current_range_meters":6800,"station_id":"ce4bho92rcd13ifvqh4g","pricing_plan_id":"cebpf4jnsgd1na2vs0mg"},{"bike_id":"29bac578-e21f-4593-826d-ad124e13c837","system_id":"levelo_inurba_marseille","lat":43.26214,"lon":5.40439,"is_reserved":false,"is_disabled":false,"rental_uris":{"android":"levelo://app?vid=29bac578-e21f-4593-826d-ad124e13c837","ios":"levelo://app?vid=29bac578-e21f-4593-826d-ad124e13c837"},"vehicle_type_id":"4","last_reported":1774889811,"current_range_meters":6800,"station_id":"ce4bhmh2rcd13ifvqgmg","pricing_plan_id":"cebpf4jnsgd1na2vs0mg"},{"bike_id":"6d039579-6144-4c98-bfe7-14bd0007d494","system_id":"levelo_inurba_marseille","lat":43.28421,"lon":5.34976,"is_reserved":false,"is_disabled":false,"rental_uris":{"android":"levelo://app?vid=6d039579-6144-4c98-bfe7-14bd0007d494","ios":"levelo://app?vid=6d039579-6144-4c98-bfe7-14bd0007d494"},"vehicle_type_id":"4","last_reported":1774889811,"current_range_meters":6800,"station_id":"ce4bhbh2rcd13ifvqepg","pricing_plan_id":"cebpf4jnsgd1na2vs0mg"},{"bike_id":"65905f0a-e45a-438a-8a00-0a7e14a19afc","system_id":"levelo_inurba_marseille","lat":43.32361,"lon":5.38863,"is_reserved":false,"is_disabled":false,"rental_uris":{"android":"levelo://app?vid=65905f0a-e45a-438a-8a00-0a7e14a19afc","ios":"levelo://app?vid=65905f0a-e45a-438a-8a00-0a7e14a19afc"},"vehicle_type_id":"4","last_reported":1774889811,"current_range_meters":6800,"station_id":"ce4bhqp2rcd13ifvqhog","pricing_plan_id":"cebpf4jnsgd1na2vs0mg"},{"bike_id":"d18d1d64-79cb-43c0-9d05-6965633e19b3","system_id":"levelo_inurba_marseille","lat":43.25108,"lon":5.40324,"is_reserved":false,"is_disabled":false,"rental_uris":{"android":"levelo://app?vid=d18d1d64-79cb-43c0-9d05-6965633e19b3","ios":"levelo://app?vid=d18d1d64-79cb-43c0-9d05-6965633e19b3"},"vehicle_type_id":"4","last_reported":1774889811,"current_range_meters":6800,"station_id":"ce4bhlh2rcd13ifvqgig","pricing_plan_id":"cebpf4jnsgd1na2vs0mg"},{"bike_id":"57239cfd-9cf0-4ecb-b61f-b52beab6afab","system_id":"levelo_inurba_marseille","lat":43.21772,"lon":5.34556,"is_reserved":false,"is_disabled":false,"rental_uris":{"android":"levelo://app?vid=57239cfd-9cf0-4ecb-b61f-b52beab6afab","ios":"levelo://app?vid=57239cfd-9cf0-4ecb-b61f-b52beab6afab"},"vehicle_type_id":"4","last_reported":1774889811,"current_range_meters":6800,"station_id":"","pricing_plan_id":"cebpf4jnsgd1na2vs0mg"},{"bike_id":"131a88d5-b5b2-4532-b511-14fa6f230522","system_id":"levelo_inurba_marseille","lat":43.33731,"lon":5.39183,"is_reserved":false,"is_disabled":false,"rental_uris":{"android":"levelo://app?vid=131a88d5-b5b2-4532-b511-14fa6f230522","ios":"levelo://app?vid=131a88d5-b5b2-4532-b511-14fa6f230522"},"vehicle_type_id":"4","last_reported":1774889811,"current_range_meters":6800,"station_id":"ce4bhr92rcd13ifvqhsg","pricing_plan_id":"cebpf4jnsgd1na2vs0mg"},{"bike_id":"1227dc61-c55b-43f3-83a0-014c73aacab8","system_id":"levelo_inurba_marseille","lat":43.23961,"lon":5.3664,"is_reserved":false,"is_disabled":false,"rental_uris":{"android":"levelo://app?vid=1227dc61-c55b-43f3-83a0-014c73aacab8","ios":"levelo://app?vid=1227dc61-c55b-43f3-83a0-014c73aacab8"},"vehicle_type_id":"4","last_reported":1774889811,"current_range_meters":6800,"station_id":"ce4bhi12rcd13ifvqfp0","pricing_plan_id":"cebpf4jnsgd1na2vs0mg"},{"bike_id":"53ab5b1d-cae9-45a1-acf9-cea4f7b6ff95","system_id":"levelo_inurba_marseille","lat":43.23053,"lon":5.35487,"is_reserved":false,"is_disabled":false,"rental_uris":{"android":"levelo://app?vid=53ab5b1d-cae9-45a1-acf9-cea4f7b6ff95","ios":"levelo://app?vid=53ab5b1d-cae9-45a1-acf9-cea4f7b6ff95"},"vehicle_type_id":"4","last_reported":1774889811,"current_range_meters":6800,"station_id":"cpo3342slgdg3j2ifvpg","pricing_plan_id":"cebpf4jnsgd1na2vs0mg"},{"bike_id":"40a0aecb-7a10-4d6b-999e-01b2c0b22e92","system_id":"levelo_inurba_marseille","lat":43.28078,"lon":5.39657,"is_reserved":false,"is_disabled":false,"rental_uris":{"android":"levelo://app?vid=40a0aecb-7a10-4d6b-999e-01b2c0b22e92","ios":"levelo://app?vid=40a0aecb-7a10-4d6b-999e-01b2c0b22e92"},"vehicle_type_id":"4","last_reported":1774889811,"current_range_meters":6800,"station_id":"ce4bho12rcd13ifvqh2g","pricing_plan_id":"cebpf4jnsgd1na2vs0mg"},{"bike_id":"f7d02767-52da-4db2-b403-e11366b9f9bf","system_id":"levelo_inurba_marseille","lat":43.28574,"lon":5.35175,"is_reserved":false,"is_disabled":false,"rental_uris":{"android":"levelo://app?vid=f7d02767-52da-4db2-b403-e11366b9f9bf","ios":"levelo://app?vid=f7d02767-52da-4db2-b403-e11366b9f9bf"},"vehicle_type_id":"4","last_reported":1774889811,"current_range_meters":6800,"station_id":"ce4bhch2rcd13ifvqeug","pricing_plan_id":"cebpf4jnsgd1na2vs0mg"},{"bike_id":"78da59b0-3b9e-451e-b0e9-73d43c120666","system_id":"levelo_inurba_marseille","lat":43.293087,"lon":5.375428,"is_reserved":false,"is_disabled":false,"rental_uris":{"android":"levelo://app?vid=78da59b0-3b9e-451e-b0e9-73d43c120666","ios":"levelo://app?vid=78da59b0-3b9e-451e-b0e9-73d43c120666"},"vehicle_type_id":"4","last_reported":1774889811,"current_range_meters":6800,"station_id":"ce4bgh92rcd13ifvqb40","pricing_plan_id":"cebpf4jnsgd1na2vs0mg"},{"bike_id":"c0d049d2-9884-47fd-b25d-2edd239d3046","system_id":"levelo_inurba_marseille","lat":43.28543,"lon":5.44092,"is_reserved":false,"is_disabled":false,"rental_uris":{"android":"levelo://app?vid=c0d049d2-9884-47fd-b25d-2edd239d3046","ios":"levelo://app?vid=c0d049d2-9884-47fd-b25d-2edd239d3046"},"vehicle_type_id":"4","last_reported":1774889811,"current_range_meters":6800,"station_id":"st_d3j3df2ikq2c7380ej80","pricing_plan_id":"cebpf4jnsgd1na2vs0mg"},{"bike_id":"de3208ad-e0aa-43cf-b3d0-9b02dc8b1328","system_id":"levelo_inurba_marseille","lat":43.24161,"lon":5.36396,"is_reserved":false,"is_disabled":false,"rental_uris":{"android":"levelo://app?vid=de3208ad-e0aa-43cf-b3d0-9b02dc8b1328","ios":"levelo://app?vid=de3208ad-e0aa-43cf-b3d0-9b02dc8b1328"},"vehicle_type_id":"4","last_reported":1774889811,"current_range_meters":6800,"station_id":"cpo36qri1sfpv3e86is0","pricing_plan_id":"cebpf4jnsgd1na2vs0mg"},{"bike_id":"aba4a31a-18d2-4cad-bb8c-30bd606f5c4c","system_id":"levelo_inurba_marseille","lat":43.24169,"lon":5.36415,"is_reserved":false,"is_disabled":false,"rental_uris":{"android":"levelo://app?vid=aba4a31a-18d2-4cad-bb8c-30bd606f5c4c","ios":"levelo://app?vid=aba4a31a-18d2-4cad-bb8c-30bd606f5c4c"},"vehicle_type_id":"4","last_reported":1774889811,"current_range_meters":6800,"station_id":"cpo36qri1sfpv3e86is0","pricing_plan_id":"cebpf4jnsgd1na2vs0mg"},{"bike_id":"7a8d1791-fc01-4697-a3bf-965a3efafd99","system_id":"levelo_inurba_marseille","lat":43.30592,"lon":5.39945,"is_reserved":false,"is_disabled":false,"rental_uris":{"android":"levelo://app?vid=7a8d1791-fc01-4697-a3bf-965a3efafd99","ios":"levelo://app?vid=7a8d1791-fc01-4697-a3bf-965a3efafd99"},"vehicle_type_id":"4","last_reported":1774889811,"current_range_meters":6800,"station_id":"","pricing_plan_id":"cebpf4jnsgd1na2vs0mg"},{"bike_id":"c0eec902-074b-4a18-af47-ff048b653a5e","system_id":"levelo_inurba_marseille","lat":43.28484,"lon":5.48385,"is_reserved":false,"is_disabled":false,"rental_uris":{"android":"levelo://app?vid=c0eec902-074b-4a18-af47-ff048b653a5e","ios":"levelo://app?vid=c0eec902-074b-4a18-af47-ff048b653a5e"},"vehicle_type_id":"4","last_reported":1774889811,"current_range_meters":7200,"station_id":"","pricing_plan_id":"cebpf4jnsgd1na2vs0mg"},{"bike_id":"132e7de0-1c60-4e16-8ba9-01efee9304af","system_id":"levelo_inurba_marseille","lat":43.32352,"lon":5.36746,"is_reserved":false,"is_disabled":false,"rental_uris":{"android":"levelo://app?vid=132e7de0-1c60-4e16-8ba9-01efee9304af","ios":"levelo://app?vid=132e7de0-1c60-4e16-8ba9-01efee9304af"},"vehicle_type_id":"4","last_reported":1774889811,"current_range_meters":7200,"station_id":"ce4bhsh2rcd13ifvqi2g","pricing_plan_id":"cebpf4jnsgd1na2vs0mg"},{"bike_id":"8429f855-c4a0-4803-9ce7-0d1fb93dbfe8","system_id":"levelo_inurba_marseille","lat":43.28357,"lon":5.48747,"is_reserved":false,"is_disabled":false,"rental_uris":{"android":"levelo://app?vid=8429f855-c4a0-4803-9ce7-0d1fb93dbfe8","ios":"levelo://app?vid=8429f855-c4a0-4803-9ce7-0d1fb93dbfe8"},"vehicle_type_id":"4","last_reported":1774889811,"current_range_meters":7200,"station_id":"","pricing_plan_id":"cebpf4jnsgd1na2vs0mg"},{"bike_id":"c6f0bfb9-609a-4cc4-9c64-edb005bc49da","system_id":"levelo_inurba_marseille","lat":43.28417,"lon":5.34981,"is_reserved":false,"is_disabled":false,"rental_uris":{"android":"levelo://app?vid=c6f0bfb9-609a-4cc4-9c64-edb005bc49da","ios":"levelo://app?vid=c6f0bfb9-609a-4cc4-9c64-edb005bc49da"},"vehicle_type_id":"4","last_reported":1774889811,"current_range_meters":7200,"station_id":"ce4bhbh2rcd13ifvqepg","pricing_plan_id":"cebpf4jnsgd1na2vs0mg"},{"bike_id":"046881a8-ab16-4490-bda4-767f874d1bc8","system_id":"levelo_inurba_marseille","lat":43.287178,"lon":5.360977,"is_reserved":false,"is_disabled":false,"rental_uris":{"android":"levelo://app?vid=046881a8-ab16-4490-bda4-767f874d1bc8","ios":"levelo://app?vid=046881a8-ab16-4490-bda4-767f874d1bc8"},"vehicle_type_id":"4","last_reported":1774889811,"current_range_meters":7200,"station_id":"","pricing_plan_id":"cebpf4jnsgd1na2vs0mg"},{"bike_id":"b6cc933c-6bc2-4eef-9a7c-4e6a85131db4","system_id":"levelo_inurba_marseille","lat":43.24166,"lon":5.36393,"is_reserved":false,"is_disabled":false,"rental_uris":{"android":"levelo://app?vid=b6cc933c-6bc2-4eef-9a7c-4e6a85131db4","ios":"levelo://app?vid=b6cc933c-6bc2-4eef-9a7c-4e6a85131db4"},"vehicle_type_id":"4","last_reported":1774889811,"current_range_meters":7200,"station_id":"cpo36qri1sfpv3e86is0","pricing_plan_id":"cebpf4jnsgd1na2vs0mg"},{"bike_id":"ccf225b1-f4e7-468c-b7be-f7e3965c10ed","system_id":"levelo_inurba_marseille","lat":43.26207,"lon":5.37927,"is_reserved":false,"is_disabled":false,"rental_uris":{"android":"levelo://app?vid=ccf225b1-f4e7-468c-b7be-f7e3965c10ed","ios":"levelo://app?vid=ccf225b1-f4e7-468c-b7be-f7e3965c10ed"},"vehicle_type_id":"4","last_reported":1774889811,"current_range_meters":7200,"station_id":"ce4bhjp2rcd13ifvqg90","pricing_plan_id":"cebpf4jnsgd1na2vs0mg"},{"bike_id":"8ca144fd-8060-45ae-afcb-c5e8ccc088bf","system_id":"levelo_inurba_marseille","lat":43.29527,"lon":5.38552,"is_reserved":false,"is_disabled":false,"rental_uris":{"android":"levelo://app?vid=8ca144fd-8060-45ae-afcb-c5e8ccc088bf","ios":"levelo://app?vid=8ca144fd-8060-45ae-afcb-c5e8ccc088bf"},"vehicle_type_id":"4","last_reported":1774889811,"current_range_meters":7200,"station_id":"ce4bgih2rcd13ifvqba0","pricing_plan_id":"cebpf4jnsgd1na2vs0mg"},{"bike_id":"0dff1657-701a-46a5-aa66-060096e7915a","system_id":"levelo_inurba_marseille","lat":43.27359,"lon":5.36246,"is_reserved":false,"is_disabled":false,"rental_uris":{"android":"levelo://app?vid=0dff1657-701a-46a5-aa66-060096e7915a","ios":"levelo://app?vid=0dff1657-701a-46a5-aa66-060096e7915a"},"vehicle_type_id":"4","last_reported":1774889811,"current_range_meters":7200,"station_id":"ce4bhbh2rcd13ifvqeo0","pricing_plan_id":"cebpf4jnsgd1na2vs0mg"},{"bike_id":"c7686f7e-b5e1-4c8a-b91c-cf38c3111ad1","system_id":"levelo_inurba_marseille","lat":43.28698,"lon":5.37385,"is_reserved":false,"is_disabled":false,"rental_uris":{"android":"levelo://app?vid=c7686f7e-b5e1-4c8a-b91c-cf38c3111ad1","ios":"levelo://app?vid=c7686f7e-b5e1-4c8a-b91c-cf38c3111ad1"},"vehicle_type_id":"4","last_reported":1774889811,"current_range_meters":7200,"station_id":"ce4bh3p2rcd13ifvqdq0","pricing_plan_id":"cebpf4jnsgd1na2vs0mg"},{"bike_id":"d653ed05-f213-45fd-84c6-b781deb83672","system_id":"levelo_inurba_marseille","lat":43.22552,"lon":5.41638,"is_reserved":false,"is_disabled":false,"rental_uris":{"android":"levelo://app?vid=d653ed05-f213-45fd-84c6-b781deb83672","ios":"levelo://app?vid=d653ed05-f213-45fd-84c6-b781deb83672"},"vehicle_type_id":"4","last_reported":1774889811,"current_range_meters":7200,"station_id":"st_d2o4gvlbi1j2169b742g","pricing_plan_id":"cebpf4jnsgd1na2vs0mg"},{"bike_id":"989bebe7-8615-4cd7-aeef-fec5c5f64679","system_id":"levelo_inurba_marseille","lat":43.24378,"lon":5.3705,"is_reserved":false,"is_disabled":false,"rental_uris":{"android":"levelo://app?vid=989bebe7-8615-4cd7-aeef-fec5c5f64679","ios":"levelo://app?vid=989bebe7-8615-4cd7-aeef-fec5c5f64679"},"vehicle_type_id":"4","last_reported":1774889811,"current_range_meters":7200,"station_id":"ce4bhhh2rcd13ifvqfk0","pricing_plan_id":"cebpf4jnsgd1na2vs0mg"},{"bike_id":"fa2139d7-56b5-4664-870b-94753042ac1d","system_id":"levelo_inurba_marseille","lat":43.21222,"lon":5.35061,"is_reserved":false,"is_disabled":false,"rental_uris":{"android":"levelo://app?vid=fa2139d7-56b5-4664-870b-94753042ac1d","ios":"levelo://app?vid=fa2139d7-56b5-4664-870b-94753042ac1d"},"vehicle_type_id":"4","last_reported":1774889811,"current_range_meters":7200,"station_id":"","pricing_plan_id":"cebpf4jnsgd1na2vs0mg"},{"bike_id":"0f20fa83-5694-4393-a47b-7caf9e918801","system_id":"levelo_inurba_marseille","lat":43.29158,"lon":5.42619,"is_reserved":false,"is_disabled":false,"rental_uris":{"android":"levelo://app?vid=0f20fa83-5694-4393-a47b-7caf9e918801","ios":"levelo://app?vid=0f20fa83-5694-4393-a47b-7caf9e918801"},"vehicle_type_id":"4","last_reported":1774889811,"current_range_meters":7200,"station_id":"","pricing_plan_id":"cebpf4jnsgd1na2vs0mg"},{"bike_id":"97ce69f1-7181-466d-9bc2-d076363b5f27","system_id":"levelo_inurba_marseille","lat":43.24166,"lon":5.36399,"is_reserved":false,"is_disabled":false,"rental_uris":{"android":"levelo://app?vid=97ce69f1-7181-466d-9bc2-d076363b5f27","ios":"levelo://app?vid=97ce69f1-7181-466d-9bc2-d076363b5f27"},"vehicle_type_id":"4","last_reported":1774889811,"current_range_meters":7200,"station_id":"cpo36qri1sfpv3e86is0","pricing_plan_id":"cebpf4jnsgd1na2vs0mg"},{"bike_id":"0d37362c-bb26-4434-bae9-46e62ccc0bed","system_id":"levelo_inurba_marseille","lat":43.29251,"lon":5.40902,"is_reserved":false,"is_disabled":false,"rental_uris":{"android":"levelo://app?vid=0d37362c-bb26-4434-bae9-46e62ccc0bed","ios":"levelo://app?vid=0d37362c-bb26-4434-bae9-46e62ccc0bed"},"vehicle_type_id":"4","last_reported":1774889811,"current_range_meters":7200,"station_id":"ce4bh192rcd13ifvqdc0","pricing_plan_id":"cebpf4jnsgd1na2vs0mg"},{"bike_id":"97c39884-24ca-43ee-b263-5b5f3c69e1a7","system_id":"levelo_inurba_marseille","lat":43.29936,"lon":5.3654,"is_reserved":false,"is_disabled":false,"rental_uris":{"android":"levelo://app?vid=97c39884-24ca-43ee-b263-5b5f3c69e1a7","ios":"levelo://app?vid=97c39884-24ca-43ee-b263-5b5f3c69e1a7"},"vehicle_type_id":"4","last_reported":1774889811,"current_range_meters":7200,"station_id":"ce4bgm92rcd13ifvqbr0","pricing_plan_id":"cebpf4jnsgd1na2vs0mg"},{"bike_id":"90c5083d-61d7-4212-893f-2dfc58168774","system_id":"levelo_inurba_marseille","lat":43.24169,"lon":5.36418,"is_reserved":false,"is_disabled":false,"rental_uris":{"android":"levelo://app?vid=90c5083d-61d7-4212-893f-2dfc58168774","ios":"levelo://app?vid=90c5083d-61d7-4212-893f-2dfc58168774"},"vehicle_type_id":"4","last_reported":1774889811,"current_range_meters":7200,"station_id":"cpo36qri1sfpv3e86is0","pricing_plan_id":"cebpf4jnsgd1na2vs0mg"},{"bike_id":"3ac0129c-9c97-4af6-b6ad-c66c14a5c227","system_id":"levelo_inurba_marseille","lat":43.28498,"lon":5.48366,"is_reserved":false,"is_disabled":false,"rental_uris":{"android":"levelo://app?vid=3ac0129c-9c97-4af6-b6ad-c66c14a5c227","ios":"levelo://app?vid=3ac0129c-9c97-4af6-b6ad-c66c14a5c227"},"vehicle_type_id":"4","last_reported":1774889811,"current_range_meters":7200,"station_id":"","pricing_plan_id":"cebpf4jnsgd1na2vs0mg"},{"bike_id":"4fd75370-2320-45c7-81ee-34d83a9abf30","system_id":"levelo_inurba_marseille","lat":43.24997,"lon":5.38931,"is_reserved":false,"is_disabled":false,"rental_uris":{"android":"levelo://app?vid=4fd75370-2320-45c7-81ee-34d83a9abf30","ios":"levelo://app?vid=4fd75370-2320-45c7-81ee-34d83a9abf30"},"vehicle_type_id":"4","last_reported":1774889811,"current_range_meters":7200,"station_id":"ce4bhgp2rcd13ifvqfd0","pricing_plan_id":"cebpf4jnsgd1na2vs0mg"},{"bike_id":"1f8b06bb-3f91-46ec-ae05-36fb92f0336b","system_id":"levelo_inurba_marseille","lat":43.26396,"lon":5.39886,"is_reserved":false,"is_disabled":false,"rental_uris":{"android":"levelo://app?vid=1f8b06bb-3f91-46ec-ae05-36fb92f0336b","ios":"levelo://app?vid=1f8b06bb-3f91-46ec-ae05-36fb92f0336b"},"vehicle_type_id":"4","last_reported":1774889811,"current_range_meters":7200,"station_id":"","pricing_plan_id":"cebpf4jnsgd1na2vs0mg"},{"bike_id":"41a61e5b-f2ef-44d0-9a7b-11b5dec7fa89","system_id":"levelo_inurba_marseille","lat":43.269412,"lon":5.402425,"is_reserved":false,"is_disabled":false,"rental_uris":{"android":"levelo://app?vid=41a61e5b-f2ef-44d0-9a7b-11b5dec7fa89","ios":"levelo://app?vid=41a61e5b-f2ef-44d0-9a7b-11b5dec7fa89"},"vehicle_type_id":"4","last_reported":1774889811,"current_range_meters":7200,"station_id":"cjm6bp8fraef2m0cb0m0","pricing_plan_id":"cebpf4jnsgd1na2vs0mg"},{"bike_id":"71983624-569c-45d9-9fb5-891a7993a82a","system_id":"levelo_inurba_marseille","lat":43.28393,"lon":5.35017,"is_reserved":false,"is_disabled":false,"rental_uris":{"android":"levelo://app?vid=71983624-569c-45d9-9fb5-891a7993a82a","ios":"levelo://app?vid=71983624-569c-45d9-9fb5-891a7993a82a"},"vehicle_type_id":"4","last_reported":1774889811,"current_range_meters":7200,"station_id":"ce4bhbh2rcd13ifvqepg","pricing_plan_id":"cebpf4jnsgd1na2vs0mg"},{"bike_id":"321b3eaa-1069-4b90-8621-c923db7c2f03","system_id":"levelo_inurba_marseille","lat":43.28448,"lon":5.39204,"is_reserved":false,"is_disabled":false,"rental_uris":{"android":"levelo://app?vid=321b3eaa-1069-4b90-8621-c923db7c2f03","ios":"levelo://app?vid=321b3eaa-1069-4b90-8621-c923db7c2f03"},"vehicle_type_id":"4","last_reported":1774889811,"current_range_meters":8000,"station_id":"ce4bhoh2rcd13ifvqh5g","pricing_plan_id":"cebpf4jnsgd1na2vs0mg"},{"bike_id":"7b8a360b-9a4f-4e21-a724-c9ba6d306f02","system_id":"levelo_inurba_marseille","lat":43.2862,"lon":5.35102,"is_reserved":false,"is_disabled":false,"rental_uris":{"android":"levelo://app?vid=7b8a360b-9a4f-4e21-a724-c9ba6d306f02","ios":"levelo://app?vid=7b8a360b-9a4f-4e21-a724-c9ba6d306f02"},"vehicle_type_id":"4","last_reported":1774889811,"current_range_meters":8000,"station_id":"ce4bhch2rcd13ifvqeug","pricing_plan_id":"cebpf4jnsgd1na2vs0mg"},{"bike_id":"4977f95e-718a-4120-8926-2364059fe1a3","system_id":"levelo_inurba_marseille","lat":43.26684,"lon":5.38267,"is_reserved":false,"is_disabled":false,"rental_uris":{"android":"levelo://app?vid=4977f95e-718a-4120-8926-2364059fe1a3","ios":"levelo://app?vid=4977f95e-718a-4120-8926-2364059fe1a3"},"vehicle_type_id":"4","last_reported":1774889811,"current_range_meters":8000,"station_id":"","pricing_plan_id":"cebpf4jnsgd1na2vs0mg"},{"bike_id":"1f50d665-ad56-4564-8bce-5cff2a4e2b4f","system_id":"levelo_inurba_marseille","lat":43.24168,"lon":5.39813,"is_reserved":false,"is_disabled":false,"rental_uris":{"android":"levelo://app?vid=1f50d665-ad56-4564-8bce-5cff2a4e2b4f","ios":"levelo://app?vid=1f50d665-ad56-4564-8bce-5cff2a4e2b4f"},"vehicle_type_id":"4","last_reported":1774889811,"current_range_meters":8000,"station_id":"","pricing_plan_id":"cebpf4jnsgd1na2vs0mg"},{"bike_id":"9aaf8231-70bd-4c0f-9334-e020b4227cf4","system_id":"levelo_inurba_marseille","lat":43.24659,"lon":5.38894,"is_reserved":false,"is_disabled":false,"rental_uris":{"android":"levelo://app?vid=9aaf8231-70bd-4c0f-9334-e020b4227cf4","ios":"levelo://app?vid=9aaf8231-70bd-4c0f-9334-e020b4227cf4"},"vehicle_type_id":"4","last_reported":1774889811,"current_range_meters":8000,"station_id":"ce4bhg12rcd13ifvqf60","pricing_plan_id":"cebpf4jnsgd1na2vs0mg"},{"bike_id":"addbd213-8c85-43f7-89d4-56af19d36f8a","system_id":"levelo_inurba_marseille","lat":43.30207,"lon":5.39464,"is_reserved":false,"is_disabled":false,"rental_uris":{"android":"levelo://app?vid=addbd213-8c85-43f7-89d4-56af19d36f8a","ios":"levelo://app?vid=addbd213-8c85-43f7-89d4-56af19d36f8a"},"vehicle_type_id":"4","last_reported":1774889811,"current_range_meters":8000,"station_id":"ce4bh0p2rcd13ifvqd70","pricing_plan_id":"cebpf4jnsgd1na2vs0mg"},{"bike_id":"bbea286a-6e48-49d8-bcfc-d69bfefa013e","system_id":"levelo_inurba_marseille","lat":43.28649,"lon":5.35136,"is_reserved":false,"is_disabled":false,"rental_uris":{"android":"levelo://app?vid=bbea286a-6e48-49d8-bcfc-d69bfefa013e","ios":"levelo://app?vid=bbea286a-6e48-49d8-bcfc-d69bfefa013e"},"vehicle_type_id":"4","last_reported":1774889811,"current_range_meters":8000,"station_id":"ce4bhch2rcd13ifvqeug","pricing_plan_id":"cebpf4jnsgd1na2vs0mg"},{"bike_id":"b2fedf6b-2cd3-4ea3-9573-b48aa9b36329","system_id":"levelo_inurba_marseille","lat":43.2862,"lon":5.35114,"is_reserved":false,"is_disabled":false,"rental_uris":{"android":"levelo://app?vid=b2fedf6b-2cd3-4ea3-9573-b48aa9b36329","ios":"levelo://app?vid=b2fedf6b-2cd3-4ea3-9573-b48aa9b36329"},"vehicle_type_id":"4","last_reported":1774889811,"current_range_meters":8000,"station_id":"ce4bhch2rcd13ifvqeug","pricing_plan_id":"cebpf4jnsgd1na2vs0mg"},{"bike_id":"3a6cd128-2bd9-4487-82c3-2d64dde17ac7","system_id":"levelo_inurba_marseille","lat":43.31182,"lon":5.39084,"is_reserved":false,"is_disabled":false,"rental_uris":{"android":"levelo://app?vid=3a6cd128-2bd9-4487-82c3-2d64dde17ac7","ios":"levelo://app?vid=3a6cd128-2bd9-4487-82c3-2d64dde17ac7"},"vehicle_type_id":"4","last_reported":1774889811,"current_range_meters":8000,"station_id":"","pricing_plan_id":"cebpf4jnsgd1na2vs0mg"},{"bike_id":"9805c95b-690f-4ff4-a83b-12c9a47aff25","system_id":"levelo_inurba_marseille","lat":43.31291,"lon":5.40159,"is_reserved":false,"is_disabled":false,"rental_uris":{"android":"levelo://app?vid=9805c95b-690f-4ff4-a83b-12c9a47aff25","ios":"levelo://app?vid=9805c95b-690f-4ff4-a83b-12c9a47aff25"},"vehicle_type_id":"4","last_reported":1774889811,"current_range_meters":8000,"station_id":"ce4bh092rcd13ifvqd30","pricing_plan_id":"cebpf4jnsgd1na2vs0mg"},{"bike_id":"15acd291-793b-48f8-8353-72eff2f6467d","system_id":"levelo_inurba_marseille","lat":43.26921,"lon":5.403,"is_reserved":false,"is_disabled":false,"rental_uris":{"android":"levelo://app?vid=15acd291-793b-48f8-8353-72eff2f6467d","ios":"levelo://app?vid=15acd291-793b-48f8-8353-72eff2f6467d"},"vehicle_type_id":"4","last_reported":1774889811,"current_range_meters":8000,"station_id":"cjm6bp8fraef2m0cb0m0","pricing_plan_id":"cebpf4jnsgd1na2vs0mg"},{"bike_id":"c67c5d5c-6a86-4840-bc88-5726340ce24f","system_id":"levelo_inurba_marseille","lat":43.23895,"lon":5.37461,"is_reserved":false,"is_disabled":false,"rental_uris":{"android":"levelo://app?vid=c67c5d5c-6a86-4840-bc88-5726340ce24f","ios":"levelo://app?vid=c67c5d5c-6a86-4840-bc88-5726340ce24f"},"vehicle_type_id":"4","last_reported":1774889811,"current_range_meters":8000,"station_id":"st_d6sm7csbq4hs73f8fpjg","pricing_plan_id":"cebpf4jnsgd1na2vs0mg"},{"bike_id":"106f0fd9-f174-4827-994c-587ea2f816de","system_id":"levelo_inurba_marseille","lat":43.25572,"lon":5.38239,"is_reserved":false,"is_disabled":false,"rental_uris":{"android":"levelo://app?vid=106f0fd9-f174-4827-994c-587ea2f816de","ios":"levelo://app?vid=106f0fd9-f174-4827-994c-587ea2f816de"},"vehicle_type_id":"4","last_reported":1774889811,"current_range_meters":8000,"station_id":"ce4bhih2rcd13ifvqfs0","pricing_plan_id":"cebpf4jnsgd1na2vs0mg"},{"bike_id":"bd22810e-4e9c-45ac-8057-6360dc8fe6a3","system_id":"levelo_inurba_marseille","lat":43.24171,"lon":5.36383,"is_reserved":false,"is_disabled":false,"rental_uris":{"android":"levelo://app?vid=bd22810e-4e9c-45ac-8057-6360dc8fe6a3","ios":"levelo://app?vid=bd22810e-4e9c-45ac-8057-6360dc8fe6a3"},"vehicle_type_id":"4","last_reported":1774889811,"current_range_meters":8000,"station_id":"cpo36qri1sfpv3e86is0","pricing_plan_id":"cebpf4jnsgd1na2vs0mg"},{"bike_id":"8d26c30b-3847-405c-8066-75bf15658130","system_id":"levelo_inurba_marseille","lat":43.29845,"lon":5.36489,"is_reserved":false,"is_disabled":false,"rental_uris":{"android":"levelo://app?vid=8d26c30b-3847-405c-8066-75bf15658130","ios":"levelo://app?vid=8d26c30b-3847-405c-8066-75bf15658130"},"vehicle_type_id":"4","last_reported":1774889811,"current_range_meters":8000,"station_id":"","pricing_plan_id":"cebpf4jnsgd1na2vs0mg"},{"bike_id":"e2491530-7c3b-41df-80e0-1a5c4af36aa4","system_id":"levelo_inurba_marseille","lat":43.23785,"lon":5.36639,"is_reserved":false,"is_disabled":false,"rental_uris":{"android":"levelo://app?vid=e2491530-7c3b-41df-80e0-1a5c4af36aa4","ios":"levelo://app?vid=e2491530-7c3b-41df-80e0-1a5c4af36aa4"},"vehicle_type_id":"4","last_reported":1774889811,"current_range_meters":8000,"station_id":"st_d3nk18o9ro0c73en2l3g","pricing_plan_id":"cebpf4jnsgd1na2vs0mg"},{"bike_id":"4c0ad3b2-eaa3-4ff7-aeac-f17179188f8e","system_id":"levelo_inurba_marseille","lat":43.3256,"lon":5.41058,"is_reserved":false,"is_disabled":false,"rental_uris":{"android":"levelo://app?vid=4c0ad3b2-eaa3-4ff7-aeac-f17179188f8e","ios":"levelo://app?vid=4c0ad3b2-eaa3-4ff7-aeac-f17179188f8e"},"vehicle_type_id":"4","last_reported":1774889811,"current_range_meters":8000,"station_id":"","pricing_plan_id":"cebpf4jnsgd1na2vs0mg"},{"bike_id":"cace6a75-41af-4909-a80a-68d60c5c1a04","system_id":"levelo_inurba_marseille","lat":43.28419,"lon":5.34985,"is_reserved":false,"is_disabled":false,"rental_uris":{"android":"levelo://app?vid=cace6a75-41af-4909-a80a-68d60c5c1a04","ios":"levelo://app?vid=cace6a75-41af-4909-a80a-68d60c5c1a04"},"vehicle_type_id":"4","last_reported":1774889811,"current_range_meters":8000,"station_id":"ce4bhbh2rcd13ifvqepg","pricing_plan_id":"cebpf4jnsgd1na2vs0mg"},{"bike_id":"fbb8d1ee-af97-443e-a94c-eaf376f4d550","system_id":"levelo_inurba_marseille","lat":43.2995,"lon":5.36667,"is_reserved":false,"is_disabled":false,"rental_uris":{"android":"levelo://app?vid=fbb8d1ee-af97-443e-a94c-eaf376f4d550","ios":"levelo://app?vid=fbb8d1ee-af97-443e-a94c-eaf376f4d550"},"vehicle_type_id":"4","last_reported":1774889811,"current_range_meters":8000,"station_id":"","pricing_plan_id":"cebpf4jnsgd1na2vs0mg"},{"bike_id":"89a0bc68-cfb1-4cc3-9ca3-8bc63c189a9a","system_id":"levelo_inurba_marseille","lat":43.28406,"lon":5.37517,"is_reserved":false,"is_disabled":false,"rental_uris":{"android":"levelo://app?vid=89a0bc68-cfb1-4cc3-9ca3-8bc63c189a9a","ios":"levelo://app?vid=89a0bc68-cfb1-4cc3-9ca3-8bc63c189a9a"},"vehicle_type_id":"4","last_reported":1774889811,"current_range_meters":8000,"station_id":"ce4bh412rcd13ifvqds0","pricing_plan_id":"cebpf4jnsgd1na2vs0mg"},{"bike_id":"9f7fbee3-9149-4f57-8968-86391aa1057d","system_id":"levelo_inurba_marseille","lat":43.304611,"lon":5.379185,"is_reserved":false,"is_disabled":false,"rental_uris":{"android":"levelo://app?vid=9f7fbee3-9149-4f57-8968-86391aa1057d","ios":"levelo://app?vid=9f7fbee3-9149-4f57-8968-86391aa1057d"},"vehicle_type_id":"4","last_reported":1774889811,"current_range_meters":8000,"station_id":"ce4bgup2rcd13ifvqcn0","pricing_plan_id":"cebpf4jnsgd1na2vs0mg"},{"bike_id":"ceb41b00-c2c0-443f-a60a-c1393af9423e","system_id":"levelo_inurba_marseille","lat":43.28036,"lon":5.36947,"is_reserved":false,"is_disabled":false,"rental_uris":{"android":"levelo://app?vid=ceb41b00-c2c0-443f-a60a-c1393af9423e","ios":"levelo://app?vid=ceb41b00-c2c0-443f-a60a-c1393af9423e"},"vehicle_type_id":"4","last_reported":1774889811,"current_range_meters":8000,"station_id":"ce4bha12rcd13ifvqef0","pricing_plan_id":"cebpf4jnsgd1na2vs0mg"},{"bike_id":"85167df3-a8b0-42b8-aaef-059b9ae1c990","system_id":"levelo_inurba_marseille","lat":43.2496,"lon":5.40493,"is_reserved":false,"is_disabled":false,"rental_uris":{"android":"levelo://app?vid=85167df3-a8b0-42b8-aaef-059b9ae1c990","ios":"levelo://app?vid=85167df3-a8b0-42b8-aaef-059b9ae1c990"},"vehicle_type_id":"4","last_reported":1774889811,"current_range_meters":8000,"station_id":"st_d2ngiaodas8pm72gd1h0","pricing_plan_id":"cebpf4jnsgd1na2vs0mg"},{"bike_id":"60d8d7f9-420f-4307-ae07-113fa1e09a16","system_id":"levelo_inurba_marseille","lat":43.25055,"lon":5.39735,"is_reserved":false,"is_disabled":false,"rental_uris":{"android":"levelo://app?vid=60d8d7f9-420f-4307-ae07-113fa1e09a16","ios":"levelo://app?vid=60d8d7f9-420f-4307-ae07-113fa1e09a16"},"vehicle_type_id":"4","last_reported":1774889811,"current_range_meters":8000,"station_id":"","pricing_plan_id":"cebpf4jnsgd1na2vs0mg"},{"bike_id":"8b4108a6-c7e2-4043-b547-cb1e59a8963a","system_id":"levelo_inurba_marseille","lat":43.24331,"lon":5.40855,"is_reserved":false,"is_disabled":false,"rental_uris":{"android":"levelo://app?vid=8b4108a6-c7e2-4043-b547-cb1e59a8963a","ios":"levelo://app?vid=8b4108a6-c7e2-4043-b547-cb1e59a8963a"},"vehicle_type_id":"4","last_reported":1774889811,"current_range_meters":8000,"station_id":"","pricing_plan_id":"cebpf4jnsgd1na2vs0mg"},{"bike_id":"03ec0070-1d93-4ac5-87d3-21d47edad7cd","system_id":"levelo_inurba_marseille","lat":43.23782,"lon":5.36612,"is_reserved":false,"is_disabled":false,"rental_uris":{"android":"levelo://app?vid=03ec0070-1d93-4ac5-87d3-21d47edad7cd","ios":"levelo://app?vid=03ec0070-1d93-4ac5-87d3-21d47edad7cd"},"vehicle_type_id":"4","last_reported":1774889811,"current_range_meters":8400,"station_id":"st_d3nk18o9ro0c73en2l3g","pricing_plan_id":"cebpf4jnsgd1na2vs0mg"},{"bike_id":"815b682f-ef7e-45f5-ab90-7392d98720d6","system_id":"levelo_inurba_marseille","lat":43.26051,"lon":5.394,"is_reserved":false,"is_disabled":false,"rental_uris":{"android":"levelo://app?vid=815b682f-ef7e-45f5-ab90-7392d98720d6","ios":"levelo://app?vid=815b682f-ef7e-45f5-ab90-7392d98720d6"},"vehicle_type_id":"4","last_reported":1774889811,"current_range_meters":8400,"station_id":"ce4bhh92rcd13ifvqfj0","pricing_plan_id":"cebpf4jnsgd1na2vs0mg"},{"bike_id":"7cefc45d-38f5-45cf-a99c-dfb4be1018fe","system_id":"levelo_inurba_marseille","lat":43.24454,"lon":5.42538,"is_reserved":false,"is_disabled":false,"rental_uris":{"android":"levelo://app?vid=7cefc45d-38f5-45cf-a99c-dfb4be1018fe","ios":"levelo://app?vid=7cefc45d-38f5-45cf-a99c-dfb4be1018fe"},"vehicle_type_id":"4","last_reported":1774889811,"current_range_meters":8400,"station_id":"st_d4a3vfp97mjs738cd8kg","pricing_plan_id":"cebpf4jnsgd1na2vs0mg"},{"bike_id":"ae548caf-5934-4d8d-ac36-61d301c2be03","system_id":"levelo_inurba_marseille","lat":43.32365,"lon":5.38889,"is_reserved":false,"is_disabled":false,"rental_uris":{"android":"levelo://app?vid=ae548caf-5934-4d8d-ac36-61d301c2be03","ios":"levelo://app?vid=ae548caf-5934-4d8d-ac36-61d301c2be03"},"vehicle_type_id":"4","last_reported":1774889811,"current_range_meters":8400,"station_id":"ce4bhqp2rcd13ifvqhog","pricing_plan_id":"cebpf4jnsgd1na2vs0mg"},{"bike_id":"602a1f3c-8896-45c5-bb9a-81f659a2fe66","system_id":"levelo_inurba_marseille","lat":43.29003,"lon":5.35614,"is_reserved":false,"is_disabled":false,"rental_uris":{"android":"levelo://app?vid=602a1f3c-8896-45c5-bb9a-81f659a2fe66","ios":"levelo://app?vid=602a1f3c-8896-45c5-bb9a-81f659a2fe66"},"vehicle_type_id":"4","last_reported":1774889811,"current_range_meters":8400,"station_id":"ce4bhb92rcd13ifvqen0","pricing_plan_id":"cebpf4jnsgd1na2vs0mg"},{"bike_id":"94ebd6be-fb80-4ec3-8693-d1f514f30182","system_id":"levelo_inurba_marseille","lat":43.30522,"lon":5.36715,"is_reserved":false,"is_disabled":false,"rental_uris":{"android":"levelo://app?vid=94ebd6be-fb80-4ec3-8693-d1f514f30182","ios":"levelo://app?vid=94ebd6be-fb80-4ec3-8693-d1f514f30182"},"vehicle_type_id":"4","last_reported":1774889811,"current_range_meters":8400,"station_id":"ce4bgrp2rcd13ifvqc9g","pricing_plan_id":"cebpf4jnsgd1na2vs0mg"},{"bike_id":"fe2c2d4e-ad0a-4ad1-b727-7e9a7d4ef824","system_id":"levelo_inurba_marseille","lat":43.2847,"lon":5.48399,"is_reserved":false,"is_disabled":false,"rental_uris":{"android":"levelo://app?vid=fe2c2d4e-ad0a-4ad1-b727-7e9a7d4ef824","ios":"levelo://app?vid=fe2c2d4e-ad0a-4ad1-b727-7e9a7d4ef824"},"vehicle_type_id":"4","last_reported":1774889811,"current_range_meters":8400,"station_id":"","pricing_plan_id":"cebpf4jnsgd1na2vs0mg"},{"bike_id":"30982c57-51e0-4b89-b111-0e7570cec00e","system_id":"levelo_inurba_marseille","lat":43.29709,"lon":5.37691,"is_reserved":false,"is_disabled":false,"rental_uris":{"android":"levelo://app?vid=30982c57-51e0-4b89-b111-0e7570cec00e","ios":"levelo://app?vid=30982c57-51e0-4b89-b111-0e7570cec00e"},"vehicle_type_id":"4","last_reported":1774889811,"current_range_meters":8400,"station_id":"ce4bgkh2rcd13ifvqbl0","pricing_plan_id":"cebpf4jnsgd1na2vs0mg"},{"bike_id":"b76ab760-2f25-4959-915b-80bb65ba23d6","system_id":"levelo_inurba_marseille","lat":43.29802,"lon":5.40398,"is_reserved":false,"is_disabled":false,"rental_uris":{"android":"levelo://app?vid=b76ab760-2f25-4959-915b-80bb65ba23d6","ios":"levelo://app?vid=b76ab760-2f25-4959-915b-80bb65ba23d6"},"vehicle_type_id":"4","last_reported":1774889811,"current_range_meters":8400,"station_id":"ce4bh112rcd13ifvqd90","pricing_plan_id":"cebpf4jnsgd1na2vs0mg"},{"bike_id":"5ae1cde3-c020-448f-8cff-83f80611c531","system_id":"levelo_inurba_marseille","lat":43.24463,"lon":5.42561,"is_reserved":false,"is_disabled":false,"rental_uris":{"android":"levelo://app?vid=5ae1cde3-c020-448f-8cff-83f80611c531","ios":"levelo://app?vid=5ae1cde3-c020-448f-8cff-83f80611c531"},"vehicle_type_id":"4","last_reported":1774889811,"current_range_meters":8400,"station_id":"st_d4a3vfp97mjs738cd8kg","pricing_plan_id":"cebpf4jnsgd1na2vs0mg"},{"bike_id":"6cb80350-a12f-414d-8a45-edb4d9decdf0","system_id":"levelo_inurba_marseille","lat":43.28528,"lon":5.4411,"is_reserved":false,"is_disabled":false,"rental_uris":{"android":"levelo://app?vid=6cb80350-a12f-414d-8a45-edb4d9decdf0","ios":"levelo://app?vid=6cb80350-a12f-414d-8a45-edb4d9decdf0"},"vehicle_type_id":"4","last_reported":1774889811,"current_range_meters":8400,"station_id":"st_d3j3df2ikq2c7380ej80","pricing_plan_id":"cebpf4jnsgd1na2vs0mg"},{"bike_id":"7184a380-209b-41c2-8ab0-a2b9726f4dcd","system_id":"levelo_inurba_marseille","lat":43.3013,"lon":5.38799,"is_reserved":false,"is_disabled":false,"rental_uris":{"android":"levelo://app?vid=7184a380-209b-41c2-8ab0-a2b9726f4dcd","ios":"levelo://app?vid=7184a380-209b-41c2-8ab0-a2b9726f4dcd"},"vehicle_type_id":"4","last_reported":1774889811,"current_range_meters":8400,"station_id":"ce4bghh2rcd13ifvqb60","pricing_plan_id":"cebpf4jnsgd1na2vs0mg"},{"bike_id":"77329701-df86-416d-9b49-4f833d10a2ba","system_id":"levelo_inurba_marseille","lat":43.29199,"lon":5.39326,"is_reserved":false,"is_disabled":false,"rental_uris":{"android":"levelo://app?vid=77329701-df86-416d-9b49-4f833d10a2ba","ios":"levelo://app?vid=77329701-df86-416d-9b49-4f833d10a2ba"},"vehicle_type_id":"4","last_reported":1774889811,"current_range_meters":8400,"station_id":"ce4bh192rcd13ifvqdd0","pricing_plan_id":"cebpf4jnsgd1na2vs0mg"},{"bike_id":"15a149b4-fb14-4160-a5bc-59c7d6093a30","system_id":"levelo_inurba_marseille","lat":43.25581,"lon":5.38233,"is_reserved":false,"is_disabled":false,"rental_uris":{"android":"levelo://app?vid=15a149b4-fb14-4160-a5bc-59c7d6093a30","ios":"levelo://app?vid=15a149b4-fb14-4160-a5bc-59c7d6093a30"},"vehicle_type_id":"4","last_reported":1774889811,"current_range_meters":8400,"station_id":"ce4bhih2rcd13ifvqfs0","pricing_plan_id":"cebpf4jnsgd1na2vs0mg"},{"bike_id":"cb88b7c0-158f-47d6-b62a-c3ee88f004a1","system_id":"levelo_inurba_marseille","lat":43.24465,"lon":5.42572,"is_reserved":false,"is_disabled":false,"rental_uris":{"android":"levelo://app?vid=cb88b7c0-158f-47d6-b62a-c3ee88f004a1","ios":"levelo://app?vid=cb88b7c0-158f-47d6-b62a-c3ee88f004a1"},"vehicle_type_id":"4","last_reported":1774889811,"current_range_meters":8400,"station_id":"st_d4a3vfp97mjs738cd8kg","pricing_plan_id":"cebpf4jnsgd1na2vs0mg"},{"bike_id":"e0980a7d-5c5e-45ea-b041-54b136cd5f91","system_id":"levelo_inurba_marseille","lat":43.29785,"lon":5.39359,"is_reserved":false,"is_disabled":false,"rental_uris":{"android":"levelo://app?vid=e0980a7d-5c5e-45ea-b041-54b136cd5f91","ios":"levelo://app?vid=e0980a7d-5c5e-45ea-b041-54b136cd5f91"},"vehicle_type_id":"4","last_reported":1774889811,"current_range_meters":8400,"station_id":"chh1huq6cuj3fo74tm60","pricing_plan_id":"cebpf4jnsgd1na2vs0mg"},{"bike_id":"227cc43c-6fb3-476a-abb2-74c924061fb2","system_id":"levelo_inurba_marseille","lat":43.22561,"lon":5.41637,"is_reserved":false,"is_disabled":false,"rental_uris":{"android":"levelo://app?vid=227cc43c-6fb3-476a-abb2-74c924061fb2","ios":"levelo://app?vid=227cc43c-6fb3-476a-abb2-74c924061fb2"},"vehicle_type_id":"4","last_reported":1774889811,"current_range_meters":8400,"station_id":"st_d2o4gvlbi1j2169b742g","pricing_plan_id":"cebpf4jnsgd1na2vs0mg"},{"bike_id":"ec7f1113-7689-4025-9f13-3d4deb94a203","system_id":"levelo_inurba_marseille","lat":43.31052,"lon":5.38584,"is_reserved":false,"is_disabled":false,"rental_uris":{"android":"levelo://app?vid=ec7f1113-7689-4025-9f13-3d4deb94a203","ios":"levelo://app?vid=ec7f1113-7689-4025-9f13-3d4deb94a203"},"vehicle_type_id":"4","last_reported":1774889811,"current_range_meters":8400,"station_id":"","pricing_plan_id":"cebpf4jnsgd1na2vs0mg"},{"bike_id":"f54bfc49-c52e-433a-9661-97eeb8e5a586","system_id":"levelo_inurba_marseille","lat":43.23785,"lon":5.36601,"is_reserved":false,"is_disabled":false,"rental_uris":{"android":"levelo://app?vid=f54bfc49-c52e-433a-9661-97eeb8e5a586","ios":"levelo://app?vid=f54bfc49-c52e-433a-9661-97eeb8e5a586"},"vehicle_type_id":"4","last_reported":1774889811,"current_range_meters":8400,"station_id":"st_d3nk18o9ro0c73en2l3g","pricing_plan_id":"cebpf4jnsgd1na2vs0mg"},{"bike_id":"a823a51b-c93b-49fa-bb83-17cfc447b63d","system_id":"levelo_inurba_marseille","lat":43.24179,"lon":5.39737,"is_reserved":false,"is_disabled":false,"rental_uris":{"android":"levelo://app?vid=a823a51b-c93b-49fa-bb83-17cfc447b63d","ios":"levelo://app?vid=a823a51b-c93b-49fa-bb83-17cfc447b63d"},"vehicle_type_id":"4","last_reported":1774889811,"current_range_meters":8400,"station_id":"ce4bhn12rcd13ifvqgpg","pricing_plan_id":"cebpf4jnsgd1na2vs0mg"},{"bike_id":"100a69e6-c6ac-4d44-b106-6a5d91893219","system_id":"levelo_inurba_marseille","lat":43.31283,"lon":5.40157,"is_reserved":false,"is_disabled":false,"rental_uris":{"android":"levelo://app?vid=100a69e6-c6ac-4d44-b106-6a5d91893219","ios":"levelo://app?vid=100a69e6-c6ac-4d44-b106-6a5d91893219"},"vehicle_type_id":"4","last_reported":1774889811,"current_range_meters":8400,"station_id":"ce4bh092rcd13ifvqd30","pricing_plan_id":"cebpf4jnsgd1na2vs0mg"},{"bike_id":"d175c754-8563-4b72-ba16-a3e037f90e46","system_id":"levelo_inurba_marseille","lat":43.27118,"lon":5.39181,"is_reserved":false,"is_disabled":false,"rental_uris":{"android":"levelo://app?vid=d175c754-8563-4b72-ba16-a3e037f90e46","ios":"levelo://app?vid=d175c754-8563-4b72-ba16-a3e037f90e46"},"vehicle_type_id":"4","last_reported":1774889811,"current_range_meters":8400,"station_id":"","pricing_plan_id":"cebpf4jnsgd1na2vs0mg"},{"bike_id":"cde37b3d-5bf8-45ad-ae5c-441c1680e201","system_id":"levelo_inurba_marseille","lat":43.2791,"lon":5.39112,"is_reserved":false,"is_disabled":false,"rental_uris":{"android":"levelo://app?vid=cde37b3d-5bf8-45ad-ae5c-441c1680e201","ios":"levelo://app?vid=cde37b3d-5bf8-45ad-ae5c-441c1680e201"},"vehicle_type_id":"4","last_reported":1774889811,"current_range_meters":8800,"station_id":"","pricing_plan_id":"cebpf4jnsgd1na2vs0mg"},{"bike_id":"ebc5a8f2-adee-43cf-a918-532422fc9668","system_id":"levelo_inurba_marseille","lat":43.28697,"lon":5.37368,"is_reserved":false,"is_disabled":false,"rental_uris":{"android":"levelo://app?vid=ebc5a8f2-adee-43cf-a918-532422fc9668","ios":"levelo://app?vid=ebc5a8f2-adee-43cf-a918-532422fc9668"},"vehicle_type_id":"4","last_reported":1774889811,"current_range_meters":8800,"station_id":"ce4bh3p2rcd13ifvqdq0","pricing_plan_id":"cebpf4jnsgd1na2vs0mg"},{"bike_id":"10063e3f-8609-45d7-a82d-682af1ae1436","system_id":"levelo_inurba_marseille","lat":43.29099,"lon":5.42894,"is_reserved":false,"is_disabled":false,"rental_uris":{"android":"levelo://app?vid=10063e3f-8609-45d7-a82d-682af1ae1436","ios":"levelo://app?vid=10063e3f-8609-45d7-a82d-682af1ae1436"},"vehicle_type_id":"4","last_reported":1774889811,"current_range_meters":8800,"station_id":"","pricing_plan_id":"cebpf4jnsgd1na2vs0mg"},{"bike_id":"eac6a123-5f69-4eb4-aa4b-cdeaecf10b56","system_id":"levelo_inurba_marseille","lat":43.3054,"lon":5.3656,"is_reserved":false,"is_disabled":false,"rental_uris":{"android":"levelo://app?vid=eac6a123-5f69-4eb4-aa4b-cdeaecf10b56","ios":"levelo://app?vid=eac6a123-5f69-4eb4-aa4b-cdeaecf10b56"},"vehicle_type_id":"4","last_reported":1774889811,"current_range_meters":8800,"station_id":"ce4bgs12rcd13ifvqcag","pricing_plan_id":"cebpf4jnsgd1na2vs0mg"},{"bike_id":"f2ac8faa-b8e8-4025-bb6d-4e45873c4422","system_id":"levelo_inurba_marseille","lat":43.23141,"lon":5.43747,"is_reserved":false,"is_disabled":false,"rental_uris":{"android":"levelo://app?vid=f2ac8faa-b8e8-4025-bb6d-4e45873c4422","ios":"levelo://app?vid=f2ac8faa-b8e8-4025-bb6d-4e45873c4422"},"vehicle_type_id":"4","last_reported":1774889811,"current_range_meters":8800,"station_id":"ce4bhmp2rcd13ifvqgog","pricing_plan_id":"cebpf4jnsgd1na2vs0mg"},{"bike_id":"9c1440ce-c955-43db-9800-7794805da744","system_id":"levelo_inurba_marseille","lat":43.23967,"lon":5.36632,"is_reserved":false,"is_disabled":false,"rental_uris":{"android":"levelo://app?vid=9c1440ce-c955-43db-9800-7794805da744","ios":"levelo://app?vid=9c1440ce-c955-43db-9800-7794805da744"},"vehicle_type_id":"4","last_reported":1774889811,"current_range_meters":8800,"station_id":"ce4bhi12rcd13ifvqfp0","pricing_plan_id":"cebpf4jnsgd1na2vs0mg"},{"bike_id":"d7883b73-8385-4d54-af8f-41aa7b0e53e6","system_id":"levelo_inurba_marseille","lat":43.29613,"lon":5.37751,"is_reserved":false,"is_disabled":false,"rental_uris":{"android":"levelo://app?vid=d7883b73-8385-4d54-af8f-41aa7b0e53e6","ios":"levelo://app?vid=d7883b73-8385-4d54-af8f-41aa7b0e53e6"},"vehicle_type_id":"4","last_reported":1774889811,"current_range_meters":8800,"station_id":"ce4bgi92rcd13ifvqb90","pricing_plan_id":"cebpf4jnsgd1na2vs0mg"},{"bike_id":"9242d501-3d1d-4160-bfd4-987b21104a16","system_id":"levelo_inurba_marseille","lat":43.27817,"lon":5.39215,"is_reserved":false,"is_disabled":false,"rental_uris":{"android":"levelo://app?vid=9242d501-3d1d-4160-bfd4-987b21104a16","ios":"levelo://app?vid=9242d501-3d1d-4160-bfd4-987b21104a16"},"vehicle_type_id":"4","last_reported":1774889811,"current_range_meters":8800,"station_id":"ce4bhjp2rcd13ifvqga0","pricing_plan_id":"cebpf4jnsgd1na2vs0mg"},{"bike_id":"25ae6a55-5d09-4313-9508-83cc6c6339b8","system_id":"levelo_inurba_marseille","lat":43.28476,"lon":5.484,"is_reserved":false,"is_disabled":false,"rental_uris":{"android":"levelo://app?vid=25ae6a55-5d09-4313-9508-83cc6c6339b8","ios":"levelo://app?vid=25ae6a55-5d09-4313-9508-83cc6c6339b8"},"vehicle_type_id":"4","last_reported":1774889811,"current_range_meters":8800,"station_id":"","pricing_plan_id":"cebpf4jnsgd1na2vs0mg"},{"bike_id":"b2b591dc-5ca3-4209-a4f5-ec0bcb94b74b","system_id":"levelo_inurba_marseille","lat":43.2799,"lon":5.40025,"is_reserved":false,"is_disabled":false,"rental_uris":{"android":"levelo://app?vid=b2b591dc-5ca3-4209-a4f5-ec0bcb94b74b","ios":"levelo://app?vid=b2b591dc-5ca3-4209-a4f5-ec0bcb94b74b"},"vehicle_type_id":"4","last_reported":1774889811,"current_range_meters":8800,"station_id":"ce4bho92rcd13ifvqh4g","pricing_plan_id":"cebpf4jnsgd1na2vs0mg"},{"bike_id":"27a1b1fb-84f9-4e50-a2f4-3bdf93b48162","system_id":"levelo_inurba_marseille","lat":43.30094,"lon":5.38763,"is_reserved":false,"is_disabled":false,"rental_uris":{"android":"levelo://app?vid=27a1b1fb-84f9-4e50-a2f4-3bdf93b48162","ios":"levelo://app?vid=27a1b1fb-84f9-4e50-a2f4-3bdf93b48162"},"vehicle_type_id":"4","last_reported":1774889811,"current_range_meters":8800,"station_id":"","pricing_plan_id":"cebpf4jnsgd1na2vs0mg"},{"bike_id":"f7bbba91-ee9a-4abe-bd88-c64afed9737f","system_id":"levelo_inurba_marseille","lat":43.23186,"lon":5.35554,"is_reserved":false,"is_disabled":false,"rental_uris":{"android":"levelo://app?vid=f7bbba91-ee9a-4abe-bd88-c64afed9737f","ios":"levelo://app?vid=f7bbba91-ee9a-4abe-bd88-c64afed9737f"},"vehicle_type_id":"4","last_reported":1774889811,"current_range_meters":8800,"station_id":"ce4bhu92rcd13ifvqi70","pricing_plan_id":"cebpf4jnsgd1na2vs0mg"},{"bike_id":"b69b7ee0-eb68-4e40-9110-6ed5a17a58dc","system_id":"levelo_inurba_marseille","lat":43.28417,"lon":5.34986,"is_reserved":false,"is_disabled":false,"rental_uris":{"android":"levelo://app?vid=b69b7ee0-eb68-4e40-9110-6ed5a17a58dc","ios":"levelo://app?vid=b69b7ee0-eb68-4e40-9110-6ed5a17a58dc"},"vehicle_type_id":"4","last_reported":1774889811,"current_range_meters":8800,"station_id":"ce4bhbh2rcd13ifvqepg","pricing_plan_id":"cebpf4jnsgd1na2vs0mg"},{"bike_id":"7807e959-548b-4573-9349-6f8ad219a4a5","system_id":"levelo_inurba_marseille","lat":43.24173,"lon":5.36398,"is_reserved":false,"is_disabled":false,"rental_uris":{"android":"levelo://app?vid=7807e959-548b-4573-9349-6f8ad219a4a5","ios":"levelo://app?vid=7807e959-548b-4573-9349-6f8ad219a4a5"},"vehicle_type_id":"4","last_reported":1774889811,"current_range_meters":8800,"station_id":"cpo36qri1sfpv3e86is0","pricing_plan_id":"cebpf4jnsgd1na2vs0mg"},{"bike_id":"b17d7378-cf21-4e61-b413-3d456cc35e32","system_id":"levelo_inurba_marseille","lat":43.29296,"lon":5.3746,"is_reserved":false,"is_disabled":false,"rental_uris":{"android":"levelo://app?vid=b17d7378-cf21-4e61-b413-3d456cc35e32","ios":"levelo://app?vid=b17d7378-cf21-4e61-b413-3d456cc35e32"},"vehicle_type_id":"4","last_reported":1774889811,"current_range_meters":8800,"station_id":"ce4bgi12rcd13ifvqb70","pricing_plan_id":"cebpf4jnsgd1na2vs0mg"},{"bike_id":"0f03fe65-1391-4609-a841-bad6b9abf810","system_id":"levelo_inurba_marseille","lat":43.28152,"lon":5.42651,"is_reserved":false,"is_disabled":false,"rental_uris":{"android":"levelo://app?vid=0f03fe65-1391-4609-a841-bad6b9abf810","ios":"levelo://app?vid=0f03fe65-1391-4609-a841-bad6b9abf810"},"vehicle_type_id":"4","last_reported":1774889811,"current_range_meters":8800,"station_id":"ce4bhnh2rcd13ifvqgug","pricing_plan_id":"cebpf4jnsgd1na2vs0mg"},{"bike_id":"e42d3e56-93c6-4275-80a3-8603e69d5f38","system_id":"levelo_inurba_marseille","lat":43.29936,"lon":5.36553,"is_reserved":false,"is_disabled":false,"rental_uris":{"android":"levelo://app?vid=e42d3e56-93c6-4275-80a3-8603e69d5f38","ios":"levelo://app?vid=e42d3e56-93c6-4275-80a3-8603e69d5f38"},"vehicle_type_id":"4","last_reported":1774889811,"current_range_meters":8800,"station_id":"ce4bgm92rcd13ifvqbr0","pricing_plan_id":"cebpf4jnsgd1na2vs0mg"},{"bike_id":"8a1f00fe-baa7-466d-896d-1d3a6b1e9478","system_id":"levelo_inurba_marseille","lat":43.31041,"lon":5.39355,"is_reserved":false,"is_disabled":false,"rental_uris":{"android":"levelo://app?vid=8a1f00fe-baa7-466d-896d-1d3a6b1e9478","ios":"levelo://app?vid=8a1f00fe-baa7-466d-896d-1d3a6b1e9478"},"vehicle_type_id":"4","last_reported":1774889811,"current_range_meters":8800,"station_id":"","pricing_plan_id":"cebpf4jnsgd1na2vs0mg"},{"bike_id":"01a9a234-6a55-4224-944b-bedc2d1771d3","system_id":"levelo_inurba_marseille","lat":43.25002,"lon":5.3893,"is_reserved":false,"is_disabled":false,"rental_uris":{"android":"levelo://app?vid=01a9a234-6a55-4224-944b-bedc2d1771d3","ios":"levelo://app?vid=01a9a234-6a55-4224-944b-bedc2d1771d3"},"vehicle_type_id":"4","last_reported":1774889811,"current_range_meters":8800,"station_id":"ce4bhgp2rcd13ifvqfd0","pricing_plan_id":"cebpf4jnsgd1na2vs0mg"},{"bike_id":"980b49e1-7838-406a-b3b0-d9335d82794b","system_id":"levelo_inurba_marseille","lat":43.289366,"lon":5.3664,"is_reserved":false,"is_disabled":false,"rental_uris":{"android":"levelo://app?vid=980b49e1-7838-406a-b3b0-d9335d82794b","ios":"levelo://app?vid=980b49e1-7838-406a-b3b0-d9335d82794b"},"vehicle_type_id":"4","last_reported":1774889811,"current_range_meters":8800,"station_id":"ce4bhap2rcd13ifvqek0","pricing_plan_id":"cebpf4jnsgd1na2vs0mg"},{"bike_id":"a5b0a470-48eb-462f-b31f-f84556d208b5","system_id":"levelo_inurba_marseille","lat":43.25035,"lon":5.37542,"is_reserved":false,"is_disabled":false,"rental_uris":{"android":"levelo://app?vid=a5b0a470-48eb-462f-b31f-f84556d208b5","ios":"levelo://app?vid=a5b0a470-48eb-462f-b31f-f84556d208b5"},"vehicle_type_id":"4","last_reported":1774889811,"current_range_meters":8800,"station_id":"","pricing_plan_id":"cebpf4jnsgd1na2vs0mg"},{"bike_id":"ead3007a-584a-406f-9553-549135a653dd","system_id":"levelo_inurba_marseille","lat":43.2606,"lon":5.39401,"is_reserved":false,"is_disabled":false,"rental_uris":{"android":"levelo://app?vid=ead3007a-584a-406f-9553-549135a653dd","ios":"levelo://app?vid=ead3007a-584a-406f-9553-549135a653dd"},"vehicle_type_id":"4","last_reported":1774889811,"current_range_meters":8800,"station_id":"ce4bhh92rcd13ifvqfj0","pricing_plan_id":"cebpf4jnsgd1na2vs0mg"},{"bike_id":"58376dc3-6156-4c2a-a8ad-2e72154a91bf","system_id":"levelo_inurba_marseille","lat":43.24182,"lon":5.39739,"is_reserved":false,"is_disabled":false,"rental_uris":{"android":"levelo://app?vid=58376dc3-6156-4c2a-a8ad-2e72154a91bf","ios":"levelo://app?vid=58376dc3-6156-4c2a-a8ad-2e72154a91bf"},"vehicle_type_id":"4","last_reported":1774889811,"current_range_meters":8800,"station_id":"ce4bhn12rcd13ifvqgpg","pricing_plan_id":"cebpf4jnsgd1na2vs0mg"},{"bike_id":"e61a3b02-8828-47a8-8796-a0480c283119","system_id":"levelo_inurba_marseille","lat":43.22933,"lon":5.35382,"is_reserved":false,"is_disabled":false,"rental_uris":{"android":"levelo://app?vid=e61a3b02-8828-47a8-8796-a0480c283119","ios":"levelo://app?vid=e61a3b02-8828-47a8-8796-a0480c283119"},"vehicle_type_id":"4","last_reported":1774889811,"current_range_meters":8800,"station_id":"cpo3532slgdg3j2ikp40","pricing_plan_id":"cebpf4jnsgd1na2vs0mg"},