{"last_updated":1741695558,"ttl":60,"version":"2.2","data":{"bikes":[{"bike_id":"e3565dcf-4d34-49d7-919b-1234920ea466","system_id":"levelo_inurba_marseille","lat":43.33746,"lon":5.3745,"is_reserved":false,"is_disabled":false,"rental_uris":{"android":"levelo://app?vid=e3565dcf-4d34-49d7-919b-1234920ea466","ios":"levelo://app?vid=e3565dcf-4d34-49d7-919b-1234920ea466"},"vehicle_type_id":"4","last_reported":1741695558,"current_range_meters":22400,"station_id":"","pricing_plan_id":"cebpf4jnsgd1na2vs0mg"},{"bike_id":"62b3a7b8-8202-4684-8ab1-a7c1ed31d3f6","system_id":"levelo_inurba_marseille","lat":43.31108,"lon":5.37498,"is_reserved":false,"is_disabled":true,"rental_uris":{"android":"levelo://app?vid=62b3a7b8-8202-4684-8ab1-a7c1ed31d3f6","ios":"levelo://app?vid=62b3a7b8-8202-4684-8ab1-a7c1ed31d3f6"},"vehicle_type_id":"4","last_reported":1741695558,"current_range_meters":0,"station_id":"","pricing_plan_id":"cebpf4jnsgd1na2vs0mg"},{"bike_id":"ee1d2ad1-36ca-49dd-a328-f2a9a9994ecb","system_id":"levelo_inurba_marseille","lat":43.310869,"lon":5.38131,"is_reserved":false,"is_disabled":true,"rental_uris":{"android":"levelo://app?vid=ee1d2ad1-36ca-49dd-a328-f2a9a9994ecb","ios":"levelo://app?vid=ee1d2ad1-36ca-49dd-a328-f2a9a9994ecb"},"vehicle_type_id":"4","last_reported":1741695558,"current_range_meters":0,"station_id":"","pricing_plan_id":"cebpf4jnsgd1na2vs0mg"},{"bike_id":"19bbe8da-d7df-496e-a677-cbaab925cf5e","system_id":"levelo_inurba_marseille","lat":43.24878,"lon":5.42555,"is_reserved":false,"is_disabled":true,"rental_uris":{"android":"levelo://app?vid=19bbe8da-d7df-496e-a677-cbaab925cf5e","ios":"levelo://app?vid=19bbe8da-d7df-496e-a677-cbaab925cf5e"},"vehicle_type_id":"4","last_reported":1741695558,"current_range_meters":0,"station_id":"","pricing_plan_id":"cebpf4jnsgd1na2vs0mg"},{"bike_id":"6a00c328-746a-424c-873d-9d91f3d92b69","system_id":"levelo_inurba_marseille","lat":43.31332,"lon":5.37605,"is_reserved":false,"is_disabled":true,"rental_uris":{"android":"levelo://app?vid=6a00c328-746a-424c-873d-9d91f3d92b69","ios":"levelo://app?vid=6a00c328-746a-424c-873d-9d91f3d92b69"},"vehicle_type_id":"4","last_reported":1741695558,"current_range_meters":0,"station_id":"","pricing_plan_id":"cebpf4jnsgd1na2vs0mg"},{"bike_id":"b1c5289e-62d3-4d2a-9dc7-be1d45c64715","system_id":"levelo_inurba_marseille","lat":43.27267,"lon":5.39033,"is_reserved":false,"is_disabled":true,"rental_uris":{"android":"levelo://app?vid=b1c5289e-62d3-4d2a-9dc7-be1d45c64715","ios":"levelo://app?vid=b1c5289e-62d3-4d2a-9dc7-be1d45c64715"},"vehicle_type_id":"4","last_reported":1741695558,"current_range_meters":0,"station_id":"","pricing_plan_id":"cebpf4jnsgd1na2vs0mg"},{"bike_id":"824482b2-4e91-4b8d-9096-34651ad4c15b","system_id":"levelo_inurba_marseille","lat":43.24506,"lon":5.42419,"is_reserved":false,"is_disabled":true,"rental_uris":{"android":"levelo://app?vid=824482b2-4e91-4b8d-9096-34651ad4c15b","ios":"levelo://app?vid=824482b2-4e91-4b8d-9096-34651ad4c15b"},"vehicle_type_id":"4","last_reported":1741695558,"current_range_meters":0,"station_id":"","pricing_plan_id":"cebpf4jnsgd1na2vs0mg"},{"bike_id":"5c9413ff-eb50-40e0-9474-9e1a89aeea30","system_id":"levelo_inurba_marseille","lat":43.30244,"lon":5.40027,"is_reserved":false,"is_disabled":true,"rental_uris":{"android":"levelo://app?vid=5c9413ff-eb50-40e0-9474-9e1a89aeea30","ios":"levelo://app?vid=5c9413ff-eb50-40e0-9474-9e1a89aeea30"},"vehicle_type_id":"4","last_reported":1741695558,"current_range_meters":0,"station_id":"ce4bgvh2rcd13ifvqcs0","pricing_plan_id":"cebpf4jnsgd1na2vs0mg"},{"bike_id":"1db667de-264e-46d0-864c-74dfc0a209eb","system_id":"levelo_inurba_marseille","lat":43.30591,"lon":5.39363,"is_reserved":false,"is_disabled":true,"rental_uris":{"android":"levelo://app?vid=1db667de-264e-46d0-864c-74dfc0a209eb","ios":"levelo://app?vid=1db667de-264e-46d0-864c-74dfc0a209eb"},"vehicle_type_id":"4","last_reported":1741695558,"current_range_meters":0,"station_id":"ce4bh0p2rcd13ifvqd80","pricing_plan_id":"cebpf4jnsgd1na2vs0mg"},{"bike_id":"27a81ae8-2db8-457f-b320-1ad76b2c0006","system_id":"levelo_inurba_marseille","lat":43.28413,"lon":5.37517,"is_reserved":false,"is_disabled":true,"rental_uris":{"android":"levelo://app?vid=27a81ae8-2db8-457f-b320-1ad76b2c0006","ios":"levelo://app?vid=27a81ae8-2db8-457f-b320-1ad76b2c0006"},"vehicle_type_id":"4","last_reported":1741695558,"current_range_meters":0,"station_id":"ce4bh412rcd13ifvqds0","pricing_plan_id":"cebpf4jnsgd1na2vs0mg"},{"bike_id":"1243f8d2-1183-485a-ad21-2011fe4b1fcf","system_id":"levelo_inurba_marseille","lat":43.30133,"lon":5.38846,"is_reserved":false,"is_disabled":true,"rental_uris":{"android":"levelo://app?vid=1243f8d2-1183-485a-ad21-2011fe4b1fcf","ios":"levelo://app?vid=1243f8d2-1183-485a-ad21-2011fe4b1fcf"},"vehicle_type_id":"4","last_reported":1741695558,"current_range_meters":0,"station_id":"ce4bhb92rcd13ifvqen0","pricing_plan_id":"cebpf4jnsgd1na2vs0mg"},{"bike_id":"f40f7bb4-ed76-4348-9a71-0e1d147b007a","system_id":"levelo_inurba_marseille","lat":43.2558,"lon":5.38233,"is_reserved":false,"is_disabled":true,"rental_uris":{"android":"levelo://app?vid=f40f7bb4-ed76-4348-9a71-0e1d147b007a","ios":"levelo://app?vid=f40f7bb4-ed76-4348-9a71-0e1d147b007a"},"vehicle_type_id":"4","last_reported":1741695558,"current_range_meters":0,"station_id":"ce4bhih2rcd13ifvqfs0","pricing_plan_id":"cebpf4jnsgd1na2vs0mg"},{"bike_id":"94220dd8-e02d-425c-b517-fc72a9de2c1d","system_id":"levelo_inurba_marseille","lat":43.25934,"lon":5.40896,"is_reserved":false,"is_disabled":true,"rental_uris":{"android":"levelo://app?vid=94220dd8-e02d-425c-b517-fc72a9de2c1d","ios":"levelo://app?vid=94220dd8-e02d-425c-b517-fc72a9de2c1d"},"vehicle_type_id":"4","last_reported":1741695558,"current_range_meters":0,"station_id":"ce4bhm92rcd13ifvqglg","pricing_plan_id":"cebpf4jnsgd1na2vs0mg"},{"bike_id":"9bf93ad7-d79b-441b-8498-e34ef27a53f9","system_id":"levelo_inurba_marseille","lat":43.23142,"lon":5.43743,"is_reserved":false,"is_disabled":true,"rental_uris":{"android":"levelo://app?vid=9bf93ad7-d79b-441b-8498-e34ef27a53f9","ios":"levelo://app?vid=9bf93ad7-d79b-441b-8498-e34ef27a53f9"},"vehicle_type_id":"4","last_reported":1741695558,"current_range_meters":0,"station_id":"ce4bhmp2rcd13ifvqgog","pricing_plan_id":"cebpf4jnsgd1na2vs0mg"},{"bike_id":"d648d639-591d-4930-bed8-c3a5a75584f8","system_id":"levelo_inurba_marseille","lat":43.26918,"lon":5.40248,"is_reserved":false,"is_disabled":true,"rental_uris":{"android":"levelo://app?vid=d648d639-591d-4930-bed8-c3a5a75584f8","ios":"levelo://app?vid=d648d639-591d-4930-bed8-c3a5a75584f8"},"vehicle_type_id":"4","last_reported":1741695558,"current_range_meters":0,"station_id":"cjm6bp8fraef2m0cb0m0","pricing_plan_id":"cebpf4jnsgd1na2vs0mg"},{"bike_id":"d4306020-64ff-4903-ba94-24356049a48f","system_id":"levelo_inurba_marseille","lat":43.30588,"lon":5.39336,"is_reserved":false,"is_disabled":true,"rental_uris":{"android":"levelo://app?vid=d4306020-64ff-4903-ba94-24356049a48f","ios":"levelo://app?vid=d4306020-64ff-4903-ba94-24356049a48f"},"vehicle_type_id":"4","last_reported":1741695558,"current_range_meters":400,"station_id":"ce4bh0p2rcd13ifvqd80","pricing_plan_id":"cebpf4jnsgd1na2vs0mg"},{"bike_id":"aa32829a-4494-4833-8165-37e521b3f039","system_id":"levelo_inurba_marseille","lat":43.25111,"lon":5.40308,"is_reserved":false,"is_disabled":true,"rental_uris":{"android":"levelo://app?vid=aa32829a-4494-4833-8165-37e521b3f039","ios":"levelo://app?vid=aa32829a-4494-4833-8165-37e521b3f039"},"vehicle_type_id":"4","last_reported":1741695558,"current_range_meters":400,"station_id":"ce4bhlh2rcd13ifvqgig","pricing_plan_id":"cebpf4jnsgd1na2vs0mg"},{"bike_id":"c2f5044f-01b5-4df7-bfd0-7616353a5198","system_id":"levelo_inurba_marseille","lat":43.28696,"lon":5.39969,"is_reserved":false,"is_disabled":true,"rental_uris":{"android":"levelo://app?vid=c2f5044f-01b5-4df7-bfd0-7616353a5198","ios":"levelo://app?vid=c2f5044f-01b5-4df7-bfd0-7616353a5198"},"vehicle_type_id":"4","last_reported":1741695558,"current_range_meters":400,"station_id":"ce4bho92rcd13ifvqh3g","pricing_plan_id":"cebpf4jnsgd1na2vs0mg"},{"bike_id":"9304249e-ea54-4fea-b75b-04bc5885393e","system_id":"levelo_inurba_marseille","lat":43.33601,"lon":5.41044,"is_reserved":false,"is_disabled":true,"rental_uris":{"android":"levelo://app?vid=9304249e-ea54-4fea-b75b-04bc5885393e","ios":"levelo://app?vid=9304249e-ea54-4fea-b75b-04bc5885393e"},"vehicle_type_id":"4","last_reported":1741695558,"current_range_meters":800,"station_id":"ce4bhqh2rcd13ifvqhmg","pricing_plan_id":"cebpf4jnsgd1na2vs0mg"},{"bike_id":"4a06ed47-d7ac-43ad-b1bb-8bdec7dfa41f","system_id":"levelo_inurba_marseille","lat":43.30302,"lon":5.39214,"is_reserved":false,"is_disabled":true,"rental_uris":{"android":"levelo://app?vid=4a06ed47-d7ac-43ad-b1bb-8bdec7dfa41f","ios":"levelo://app?vid=4a06ed47-d7ac-43ad-b1bb-8bdec7dfa41f"},"vehicle_type_id":"4","last_reported":1741695558,"current_range_meters":1200,"station_id":"ce4bgkh2rcd13ifvqbk0","pricing_plan_id":"cebpf4jnsgd1na2vs0mg"},{"bike_id":"0c05d915-d9f3-4b33-abce-3cf4132886a7","system_id":"levelo_inurba_marseille","lat":43.29407,"lon":5.38622,"is_reserved":false,"is_disabled":true,"rental_uris":{"android":"levelo://app?vid=0c05d915-d9f3-4b33-abce-3cf4132886a7","ios":"levelo://app?vid=0c05d915-d9f3-4b33-abce-3cf4132886a7"},"vehicle_type_id":"4","last_reported":1741695558,"current_range_meters":1200,"station_id":"ce4bh2h2rcd13ifvqdh0","pricing_plan_id":"cebpf4jnsgd1na2vs0mg"},{"bike_id":"23b8382e-d49d-4e5c-9daf-adf6403db438","system_id":"levelo_inurba_marseille","lat":43.29967,"lon":5.38494,"is_reserved":false,"is_disabled":true,"rental_uris":{"android":"levelo://app?vid=23b8382e-d49d-4e5c-9daf-adf6403db438","ios":"levelo://app?vid=23b8382e-d49d-4e5c-9daf-adf6403db438"},"vehicle_type_id":"4","last_reported":1741695558,"current_range_meters":1600,"station_id":"ce4bgj92rcd13ifvqbd0","pricing_plan_id":"cebpf4jnsgd1na2vs0mg"},{"bike_id":"ff9b7f9a-2bb2-4f7e-bac5-42aaff6f8409","system_id":"levelo_inurba_marseille","lat":43.3117,"lon":5.38712,"is_reserved":false,"is_disabled":true,"rental_uris":{"android":"levelo://app?vid=ff9b7f9a-2bb2-4f7e-bac5-42aaff6f8409","ios":"levelo://app?vid=ff9b7f9a-2bb2-4f7e-bac5-42aaff6f8409"},"vehicle_type_id":"4","last_reported":1741695558,"current_range_meters":1600,"station_id":"ce4bgv12rcd13ifvqcp0","pricing_plan_id":"cebpf4jnsgd1na2vs0mg"},{"bike_id":"ffabacd6-59d5-4e93-b987-7e83309d9413","system_id":"levelo_inurba_marseille","lat":43.29752,"lon":5.40063,"is_reserved":false,"is_disabled":true,"rental_uris":{"android":"levelo://app?vid=ffabacd6-59d5-4e93-b987-7e83309d9413","ios":"levelo://app?vid=ffabacd6-59d5-4e93-b987-7e83309d9413"},"vehicle_type_id":"4","last_reported":1741695558,"current_range_meters":2000,"station_id":"","pricing_plan_id":"cebpf4jnsgd1na2vs0mg"},{"bike_id":"3be60041-488e-4af6-8661-a255fc7cb964","system_id":"levelo_inurba_marseille","lat":43.29262,"lon":5.40138,"is_reserved":false,"is_disabled":true,"rental_uris":{"android":"levelo://app?vid=3be60041-488e-4af6-8661-a255fc7cb964","ios":"levelo://app?vid=3be60041-488e-4af6-8661-a255fc7cb964"},"vehicle_type_id":"4","last_reported":1741695558,"current_range_meters":2000,"station_id":"ce4bh312rcd13ifvqdk0","pricing_plan_id":"cebpf4jnsgd1na2vs0mg"},{"bike_id":"3fc702ed-329f-4307-b932-fa074e478481","system_id":"levelo_inurba_marseille","lat":43.32504,"lon":5.3656,"is_reserved":false,"is_disabled":true,"rental_uris":{"android":"levelo://app?vid=3fc702ed-329f-4307-b932-fa074e478481","ios":"levelo://app?vid=3fc702ed-329f-4307-b932-fa074e478481"},"vehicle_type_id":"4","last_reported":1741695558,"current_range_meters":2000,"station_id":"ce4bhs12rcd13ifvqhvg","pricing_plan_id":"cebpf4jnsgd1na2vs0mg"},{"bike_id":"ab9bebfc-db10-400a-9edb-ebc5ae8b88cc","system_id":"levelo_inurba_marseille","lat":43.29709,"lon":5.37687,"is_reserved":false,"is_disabled":false,"rental_uris":{"android":"levelo://app?vid=ab9bebfc-db10-400a-9edb-ebc5ae8b88cc","ios":"levelo://app?vid=ab9bebfc-db10-400a-9edb-ebc5ae8b88cc"},"vehicle_type_id":"4","last_reported":1741695558,"current_range_meters":2800,"station_id":"ce4bgkh2rcd13ifvqbl0","pricing_plan_id":"cebpf4jnsgd1na2vs0mg"},{"bike_id":"c3f96380-ea33-49be-874a-a6c480de7ad2","system_id":"levelo_inurba_marseille","lat":43.25001,"lon":5.38913,"is_reserved":false,"is_disabled":false,"rental_uris":{"android":"levelo://app?vid=c3f96380-ea33-49be-874a-a6c480de7ad2","ios":"levelo://app?vid=c3f96380-ea33-49be-874a-a6c480de7ad2"},"vehicle_type_id":"4","last_reported":1741695558,"current_range_meters":2800,"station_id":"ce4bhgp2rcd13ifvqfd0","pricing_plan_id":"cebpf4jnsgd1na2vs0mg"},{"bike_id":"85858945-288d-4d7b-aac5-8cf9d060c580","system_id":"levelo_inurba_marseille","lat":43.32359,"lon":5.36763,"is_reserved":false,"is_disabled":false,"rental_uris":{"android":"levelo://app?vid=85858945-288d-4d7b-aac5-8cf9d060c580","ios":"levelo://app?vid=85858945-288d-4d7b-aac5-8cf9d060c580"},"vehicle_type_id":"4","last_reported":1741695558,"current_range_meters":2800,"station_id":"ce4bhsh2rcd13ifvqi2g","pricing_plan_id":"cebpf4jnsgd1na2vs0mg"},{"bike_id":"097b4cac-d86d-4970-9950-1fb4c483d5d3","system_id":"levelo_inurba_marseille","lat":43.26942,"lon":5.40274,"is_reserved":false,"is_disabled":false,"rental_uris":{"android":"levelo://app?vid=097b4cac-d86d-4970-9950-1fb4c483d5d3","ios":"levelo://app?vid=097b4cac-d86d-4970-9950-1fb4c483d5d3"},"vehicle_type_id":"4","last_reported":1741695558,"current_range_meters":2800,"station_id":"cjm6bp8fraef2m0cb0m0","pricing_plan_id":"cebpf4jnsgd1na2vs0mg"},{"bike_id":"f23d0c31-4424-4601-a1b1-0f5c2df8fb8c","system_id":"levelo_inurba_marseille","lat":43.29193,"lon":5.39314,"is_reserved":false,"is_disabled":false,"rental_uris":{"android":"levelo://app?vid=f23d0c31-4424-4601-a1b1-0f5c2df8fb8c","ios":"levelo://app?vid=f23d0c31-4424-4601-a1b1-0f5c2df8fb8c"},"vehicle_type_id":"4","last_reported":1741695558,"current_range_meters":3200,"station_id":"ce4bh192rcd13ifvqdd0","pricing_plan_id":"cebpf4jnsgd1na2vs0mg"},{"bike_id":"b6eceb47-4161-4dcc-af15-d009400f0b07","system_id":"levelo_inurba_marseille","lat":43.30934,"lon":5.40146,"is_reserved":false,"is_disabled":false,"rental_uris":{"android":"levelo://app?vid=b6eceb47-4161-4dcc-af15-d009400f0b07","ios":"levelo://app?vid=b6eceb47-4161-4dcc-af15-d009400f0b07"},"vehicle_type_id":"4","last_reported":1741695558,"current_range_meters":3600,"station_id":"ce4bgvp2rcd13ifvqct0","pricing_plan_id":"cebpf4jnsgd1na2vs0mg"},{"bike_id":"6028a6f6-473f-492c-8f4c-f47b2e9754aa","system_id":"levelo_inurba_marseille","lat":43.29573,"lon":5.39969,"is_reserved":false,"is_disabled":false,"rental_uris":{"android":"levelo://app?vid=6028a6f6-473f-492c-8f4c-f47b2e9754aa","ios":"levelo://app?vid=6028a6f6-473f-492c-8f4c-f47b2e9754aa"},"vehicle_type_id":"4","last_reported":1741695558,"current_range_meters":3600,"station_id":"ce4bh312rcd13ifvqdj0","pricing_plan_id":"cebpf4jnsgd1na2vs0mg"},{"bike_id":"49594509-d78f-4eec-8f83-6bc06d42a803","system_id":"levelo_inurba_marseille","lat":43.29019,"lon":5.39977,"is_reserved":false,"is_disabled":false,"rental_uris":{"android":"levelo://app?vid=49594509-d78f-4eec-8f83-6bc06d42a803","ios":"levelo://app?vid=49594509-d78f-4eec-8f83-6bc06d42a803"},"vehicle_type_id":"4","last_reported":1741695558,"current_range_meters":3600,"station_id":"ce4bh392rcd13ifvqdm0","pricing_plan_id":"cebpf4jnsgd1na2vs0mg"},{"bike_id":"c31a0876-0e0e-44c7-aab1-2d2f848f9001","system_id":"levelo_inurba_marseille","lat":43.24543,"lon":5.3952,"is_reserved":false,"is_disabled":false,"rental_uris":{"android":"levelo://app?vid=c31a0876-0e0e-44c7-aab1-2d2f848f9001","ios":"levelo://app?vid=c31a0876-0e0e-44c7-aab1-2d2f848f9001"},"vehicle_type_id":"4","last_reported":1741695558,"current_range_meters":3600,"station_id":"ce4bhlp2rcd13ifvqgjg","pricing_plan_id":"cebpf4jnsgd1na2vs0mg"},{"bike_id":"b104001a-10f7-4c93-b613-2b76cb885027","system_id":"levelo_inurba_marseille","lat":43.31149,"lon":5.37093,"is_reserved":false,"is_disabled":false,"rental_uris":{"android":"levelo://app?vid=b104001a-10f7-4c93-b613-2b76cb885027","ios":"levelo://app?vid=b104001a-10f7-4c93-b613-2b76cb885027"},"vehicle_type_id":"4","last_reported":1741695558,"current_range_meters":4000,"station_id":"","pricing_plan_id":"cebpf4jnsgd1na2vs0mg"},{"bike_id":"5d44eec5-0f76-4d9d-87c9-f425c19e364b","system_id":"levelo_inurba_marseille","lat":43.25084,"lon":5.39501,"is_reserved":false,"is_disabled":false,"rental_uris":{"android":"levelo://app?vid=5d44eec5-0f76-4d9d-87c9-f425c19e364b","ios":"levelo://app?vid=5d44eec5-0f76-4d9d-87c9-f425c19e364b"},"vehicle_type_id":"4","last_reported":1741695558,"current_range_meters":4000,"station_id":"ce4bhm12rcd13ifvqgkg","pricing_plan_id":"cebpf4jnsgd1na2vs0mg"},{"bike_id":"7f08542c-3622-4bee-8852-d0974c0ec085","system_id":"levelo_inurba_marseille","lat":43.24184,"lon":5.36319,"is_reserved":false,"is_disabled":false,"rental_uris":{"android":"levelo://app?vid=7f08542c-3622-4bee-8852-d0974c0ec085","ios":"levelo://app?vid=7f08542c-3622-4bee-8852-d0974c0ec085"},"vehicle_type_id":"4","last_reported":1741695558,"current_range_meters":4400,"station_id":"","pricing_plan_id":"cebpf4jnsgd1na2vs0mg"},{"bike_id":"2fbb2f0e-b64e-445e-a2b3-ee5227dc63e4","system_id":"levelo_inurba_marseille","lat":43.26924,"lon":5.36693,"is_reserved":false,"is_disabled":false,"rental_uris":{"android":"levelo://app?vid=2fbb2f0e-b64e-445e-a2b3-ee5227dc63e4","ios":"levelo://app?vid=2fbb2f0e-b64e-445e-a2b3-ee5227dc63e4"},"vehicle_type_id":"4","last_reported":1741695558,"current_range_meters":4800,"station_id":"","pricing_plan_id":"cebpf4jnsgd1na2vs0mg"},{"bike_id":"57459a89-9940-43e2-b338-37288545e391","system_id":"levelo_inurba_marseille","lat":43.30424,"lon":5.38877,"is_reserved":false,"is_disabled":false,"rental_uris":{"android":"levelo://app?vid=57459a89-9940-43e2-b338-37288545e391","ios":"levelo://app?vid=57459a89-9940-43e2-b338-37288545e391"},"vehicle_type_id":"4","last_reported":1741695558,"current_range_meters":4800,"station_id":"ce4bgk12rcd13ifvqbi0","pricing_plan_id":"cebpf4jnsgd1na2vs0mg"},{"bike_id":"c1d26c2d-ebb8-4f69-af43-916ffd87e2de","system_id":"levelo_inurba_marseille","lat":43.30297,"lon":5.39214,"is_reserved":false,"is_disabled":false,"rental_uris":{"android":"levelo://app?vid=c1d26c2d-ebb8-4f69-af43-916ffd87e2de","ios":"levelo://app?vid=c1d26c2d-ebb8-4f69-af43-916ffd87e2de"},"vehicle_type_id":"4","last_reported":1741695558,"current_range_meters":4800,"station_id":"ce4bgkh2rcd13ifvqbk0","pricing_plan_id":"cebpf4jnsgd1na2vs0mg"},{"bike_id":"4ae1e88c-e839-49b8-9e94-ea984108ca22","system_id":"levelo_inurba_marseille","lat":43.30427,"lon":5.39746,"is_reserved":false,"is_disabled":false,"rental_uris":{"android":"levelo://app?vid=4ae1e88c-e839-49b8-9e94-ea984108ca22","ios":"levelo://app?vid=4ae1e88c-e839-49b8-9e94-ea984108ca22"},"vehicle_type_id":"4","last_reported":1741695558,"current_range_meters":4800,"station_id":"ce4bh092rcd13ifvqd20","pricing_plan_id":"cebpf4jnsgd1na2vs0mg"},{"bike_id":"04ec183c-91b8-462d-a27e-3a575fa79c37","system_id":"levelo_inurba_marseille","lat":43.26567,"lon":5.39002,"is_reserved":false,"is_disabled":false,"rental_uris":{"android":"levelo://app?vid=04ec183c-91b8-462d-a27e-3a575fa79c37","ios":"levelo://app?vid=04ec183c-91b8-462d-a27e-3a575fa79c37"},"vehicle_type_id":"4","last_reported":1741695558,"current_range_meters":4800,"station_id":"ce4bhe12rcd13ifvqf30","pricing_plan_id":"cebpf4jnsgd1na2vs0mg"},{"bike_id":"3ddad719-1d99-4248-81e8-11ff52d4c2ad","system_id":"levelo_inurba_marseille","lat":43.24075,"lon":5.37758,"is_reserved":false,"is_disabled":false,"rental_uris":{"android":"levelo://app?vid=3ddad719-1d99-4248-81e8-11ff52d4c2ad","ios":"levelo://app?vid=3ddad719-1d99-4248-81e8-11ff52d4c2ad"},"vehicle_type_id":"4","last_reported":1741695558,"current_range_meters":4800,"station_id":"ce4bhnp2rcd13ifvqgvg","pricing_plan_id":"cebpf4jnsgd1na2vs0mg"},{"bike_id":"1f72adc6-3d1a-4fad-a905-cb9dcd596e26","system_id":"levelo_inurba_marseille","lat":43.2384,"lon":5.43576,"is_reserved":false,"is_disabled":false,"rental_uris":{"android":"levelo://app?vid=1f72adc6-3d1a-4fad-a905-cb9dcd596e26","ios":"levelo://app?vid=1f72adc6-3d1a-4fad-a905-cb9dcd596e26"},"vehicle_type_id":"4","last_reported":1741695558,"current_range_meters":5600,"station_id":"","pricing_plan_id":"cebpf4jnsgd1na2vs0mg"},{"bike_id":"641e1e08-9bc4-4492-812b-197b499ff3ea","system_id":"levelo_inurba_marseille","lat":43.30548,"lon":5.3669,"is_reserved":false,"is_disabled":false,"rental_uris":{"android":"levelo://app?vid=641e1e08-9bc4-4492-812b-197b499ff3ea","ios":"levelo://app?vid=641e1e08-9bc4-4492-812b-197b499ff3ea"},"vehicle_type_id":"4","last_reported":1741695558,"current_range_meters":5600,"station_id":"ce4bgrp2rcd13ifvqc9g","pricing_plan_id":"cebpf4jnsgd1na2vs0mg"},{"bike_id":"53345374-62cd-4cde-8448-e19f44d3073b","system_id":"levelo_inurba_marseille","lat":43.299755,"lon":5.371818,"is_reserved":false,"is_disabled":false,"rental_uris":{"android":"levelo://app?vid=53345374-62cd-4cde-8448-e19f44d3073b","ios":"levelo://app?vid=53345374-62cd-4cde-8448-e19f44d3073b"},"vehicle_type_id":"4","last_reported":1741695558,"current_range_meters":5600,"station_id":"ce4bhap2rcd13ifvqek0","pricing_plan_id":"cebpf4jnsgd1na2vs0mg"},{"bike_id":"4f0370e9-4ecb-48a3-a3dc-47efe18ea0f8","system_id":"levelo_inurba_marseille","lat":43.27494,"lon":5.4246,"is_reserved":false,"is_disabled":false,"rental_uris":{"android":"levelo://app?vid=4f0370e9-4ecb-48a3-a3dc-47efe18ea0f8","ios":"levelo://app?vid=4f0370e9-4ecb-48a3-a3dc-47efe18ea0f8"},"vehicle_type_id":"4","last_reported":1741695558,"current_range_meters":5600,"station_id":"ce4bhn92rcd13ifvqgrg","pricing_plan_id":"cebpf4jnsgd1na2vs0mg"},{"bike_id":"87ddaf85-1fbb-46e2-9b87-9664a6062f9a","system_id":"levelo_inurba_marseille","lat":43.26549,"lon":5.37289,"is_reserved":false,"is_disabled":false,"rental_uris":{"android":"levelo://app?vid=87ddaf85-1fbb-46e2-9b87-9664a6062f9a","ios":"levelo://app?vid=87ddaf85-1fbb-46e2-9b87-9664a6062f9a"},"vehicle_type_id":"4","last_reported":1741695558,"current_range_meters":6000,"station_id":"ce4bhg12rcd13ifvqf70","pricing_plan_id":"cebpf4jnsgd1na2vs0mg"},{"bike_id":"43f29997-d29c-4cec-b6d6-7b2c65fc38b7","system_id":"levelo_inurba_marseille","lat":43.2695,"lon":5.38629,"is_reserved":false,"is_disabled":false,"rental_uris":{"android":"levelo://app?vid=43f29997-d29c-4cec-b6d6-7b2c65fc38b7","ios":"levelo://app?vid=43f29997-d29c-4cec-b6d6-7b2c65fc38b7"},"vehicle_type_id":"4","last_reported":1741695558,"current_range_meters":6000,"station_id":"ce4bhh92rcd13ifvqfh0","pricing_plan_id":"cebpf4jnsgd1na2vs0mg"},{"bike_id":"240b31d1-b7e9-47d6-84e5-30b2c8ae593f","system_id":"levelo_inurba_marseille","lat":43.2718,"lon":5.40983,"is_reserved":false,"is_disabled":false,"rental_uris":{"android":"levelo://app?vid=240b31d1-b7e9-47d6-84e5-30b2c8ae593f","ios":"levelo://app?vid=240b31d1-b7e9-47d6-84e5-30b2c8ae593f"},"vehicle_type_id":"4","last_reported":1741695558,"current_range_meters":6000,"station_id":"ce4bhl12rcd13ifvqgf0","pricing_plan_id":"cebpf4jnsgd1na2vs0mg"},{"bike_id":"8491cda4-d252-4bdf-b67e-48c1786b57b0","system_id":"levelo_inurba_marseille","lat":43.23147,"lon":5.4372,"is_reserved":false,"is_disabled":false,"rental_uris":{"android":"levelo://app?vid=8491cda4-d252-4bdf-b67e-48c1786b57b0","ios":"levelo://app?vid=8491cda4-d252-4bdf-b67e-48c1786b57b0"},"vehicle_type_id":"4","last_reported":1741695558,"current_range_meters":6000,"station_id":"ce4bhmp2rcd13ifvqgog","pricing_plan_id":"cebpf4jnsgd1na2vs0mg"},{"bike_id":"4db736b9-68d3-4f2a-9431-002ce7a44183","system_id":"levelo_inurba_marseille","lat":43.23144,"lon":5.43709,"is_reserved":false,"is_disabled":false,"rental_uris":{"android":"levelo://app?vid=4db736b9-68d3-4f2a-9431-002ce7a44183","ios":"levelo://app?vid=4db736b9-68d3-4f2a-9431-002ce7a44183"},"vehicle_type_id":"4","last_reported":1741695558,"current_range_meters":6000,"station_id":"ce4bhmp2rcd13ifvqgog","pricing_plan_id":"cebpf4jnsgd1na2vs0mg"},{"bike_id":"e264bbf1-a3da-4755-ac73-54ac664caacb","system_id":"levelo_inurba_marseille","lat":43.29276,"lon":5.36843,"is_reserved":false,"is_disabled":false,"rental_uris":{"android":"levelo://app?vid=e264bbf1-a3da-4755-ac73-54ac664caacb","ios":"levelo://app?vid=e264bbf1-a3da-4755-ac73-54ac664caacb"},"vehicle_type_id":"4","last_reported":1741695558,"current_range_meters":6400,"station_id":"ce4bhbp2rcd13ifvqesg","pricing_plan_id":"cebpf4jnsgd1na2vs0mg"},{"bike_id":"7f57e9e8-2862-42b3-b2f3-5988b8e30cb8","system_id":"levelo_inurba_marseille","lat":43.2511,"lon":5.40317,"is_reserved":false,"is_disabled":false,"rental_uris":{"android":"levelo://app?vid=7f57e9e8-2862-42b3-b2f3-5988b8e30cb8","ios":"levelo://app?vid=7f57e9e8-2862-42b3-b2f3-5988b8e30cb8"},"vehicle_type_id":"4","last_reported":1741695558,"current_range_meters":6400,"station_id":"ce4bhlh2rcd13ifvqgig","pricing_plan_id":"cebpf4jnsgd1na2vs0mg"},{"bike_id":"eda074eb-77af-4e4c-901c-478d03102cf3","system_id":"levelo_inurba_marseille","lat":43.3357,"lon":5.40964,"is_reserved":false,"is_disabled":false,"rental_uris":{"android":"levelo://app?vid=eda074eb-77af-4e4c-901c-478d03102cf3","ios":"levelo://app?vid=eda074eb-77af-4e4c-901c-478d03102cf3"},"vehicle_type_id":"4","last_reported":1741695558,"current_range_meters":6800,"station_id":"","pricing_plan_id":"cebpf4jnsgd1na2vs0mg"},{"bike_id":"58e479a9-c3a4-4826-ad96-179cb000b7c3","system_id":"levelo_inurba_marseille","lat":43.31356,"lon":5.3669,"is_reserved":false,"is_disabled":false,"rental_uris":{"android":"levelo://app?vid=58e479a9-c3a4-4826-ad96-179cb000b7c3","ios":"levelo://app?vid=58e479a9-c3a4-4826-ad96-179cb000b7c3"},"vehicle_type_id":"4","last_reported":1741695558,"current_range_meters":6800,"station_id":"ce4bgr92rcd13ifvqc6g","pricing_plan_id":"cebpf4jnsgd1na2vs0mg"},{"bike_id":"af7cad9e-fa8d-48b7-9985-2a246121bd34","system_id":"levelo_inurba_marseille","lat":43.28618,"lon":5.35087,"is_reserved":false,"is_disabled":false,"rental_uris":{"android":"levelo://app?vid=af7cad9e-fa8d-48b7-9985-2a246121bd34","ios":"levelo://app?vid=af7cad9e-fa8d-48b7-9985-2a246121bd34"},"vehicle_type_id":"4","last_reported":1741695558,"current_range_meters":6800,"station_id":"ce4bhch2rcd13ifvqeug","pricing_plan_id":"cebpf4jnsgd1na2vs0mg"},{"bike_id":"edb857b4-1bfb-4342-b5b8-95cfecfaa77c","system_id":"levelo_inurba_marseille","lat":43.25004,"lon":5.38923,"is_reserved":false,"is_disabled":false,"rental_uris":{"android":"levelo://app?vid=edb857b4-1bfb-4342-b5b8-95cfecfaa77c","ios":"levelo://app?vid=edb857b4-1bfb-4342-b5b8-95cfecfaa77c"},"vehicle_type_id":"4","last_reported":1741695558,"current_range_meters":6800,"station_id":"ce4bhgp2rcd13ifvqfd0","pricing_plan_id":"cebpf4jnsgd1na2vs0mg"},{"bike_id":"c86d68f5-55ee-4a68-ba82-758fa1373f1d","system_id":"levelo_inurba_marseille","lat":43.31715,"lon":5.43703,"is_reserved":false,"is_disabled":false,"rental_uris":{"android":"levelo://app?vid=c86d68f5-55ee-4a68-ba82-758fa1373f1d","ios":"levelo://app?vid=c86d68f5-55ee-4a68-ba82-758fa1373f1d"},"vehicle_type_id":"4","last_reported":1741695558,"current_range_meters":6800,"station_id":"ce4bhp92rcd13ifvqhcg","pricing_plan_id":"cebpf4jnsgd1na2vs0mg"},{"bike_id":"e1fb214b-50ac-4f88-a289-c135b5a642f9","system_id":"levelo_inurba_marseille","lat":43.31376,"lon":5.36698,"is_reserved":false,"is_disabled":false,"rental_uris":{"android":"levelo://app?vid=e1fb214b-50ac-4f88-a289-c135b5a642f9","ios":"levelo://app?vid=e1fb214b-50ac-4f88-a289-c135b5a642f9"},"vehicle_type_id":"4","last_reported":1741695558,"current_range_meters":7200,"station_id":"ce4bgr92rcd13ifvqc6g","pricing_plan_id":"cebpf4jnsgd1na2vs0mg"},{"bike_id":"8da402b0-e1a7-4997-84a9-3add6dd81c8d","system_id":"levelo_inurba_marseille","lat":43.29629,"lon":5.377013,"is_reserved":false,"is_disabled":false,"rental_uris":{"android":"levelo://app?vid=8da402b0-e1a7-4997-84a9-3add6dd81c8d","ios":"levelo://app?vid=8da402b0-e1a7-4997-84a9-3add6dd81c8d"},"vehicle_type_id":"4","last_reported":1741695558,"current_range_meters":7200,"station_id":"ce4bh4p2rcd13ifvqe0g","pricing_plan_id":"cebpf4jnsgd1na2vs0mg"},{"bike_id":"1e6ac0ad-a5f0-40e3-b4fc-e3939c9cbd1b","system_id":"levelo_inurba_marseille","lat":43.28478,"lon":5.38406,"is_reserved":false,"is_disabled":false,"rental_uris":{"android":"levelo://app?vid=1e6ac0ad-a5f0-40e3-b4fc-e3939c9cbd1b","ios":"levelo://app?vid=1e6ac0ad-a5f0-40e3-b4fc-e3939c9cbd1b"},"vehicle_type_id":"4","last_reported":1741695558,"current_range_meters":7200,"station_id":"ce4bh512rcd13ifvqe3g","pricing_plan_id":"cebpf4jnsgd1na2vs0mg"},{"bike_id":"f1459b28-1738-42f1-b12a-1bb0ad48378e","system_id":"levelo_inurba_marseille","lat":43.24683,"lon":5.38152,"is_reserved":false,"is_disabled":false,"rental_uris":{"android":"levelo://app?vid=f1459b28-1738-42f1-b12a-1bb0ad48378e","ios":"levelo://app?vid=f1459b28-1738-42f1-b12a-1bb0ad48378e"},"vehicle_type_id":"4","last_reported":1741695558,"current_range_meters":7200,"station_id":"ce4bhih2rcd13ifvqfr0","pricing_plan_id":"cebpf4jnsgd1na2vs0mg"},{"bike_id":"42b8606a-5a39-4c18-ab8e-ae2998dcaace","system_id":"levelo_inurba_marseille","lat":43.29872,"lon":5.43654,"is_reserved":false,"is_disabled":false,"rental_uris":{"android":"levelo://app?vid=42b8606a-5a39-4c18-ab8e-ae2998dcaace","ios":"levelo://app?vid=42b8606a-5a39-4c18-ab8e-ae2998dcaace"},"vehicle_type_id":"4","last_reported":1741695558,"current_range_meters":7200,"station_id":"ce4bhpp2rcd13ifvqhfg","pricing_plan_id":"cebpf4jnsgd1na2vs0mg"},{"bike_id":"54afd193-ee95-4f5e-975a-c9018d9dcb98","system_id":"levelo_inurba_marseille","lat":43.323611,"lon":5.367633,"is_reserved":false,"is_disabled":false,"rental_uris":{"android":"levelo://app?vid=54afd193-ee95-4f5e-975a-c9018d9dcb98","ios":"levelo://app?vid=54afd193-ee95-4f5e-975a-c9018d9dcb98"},"vehicle_type_id":"4","last_reported":1741695558,"current_range_meters":7200,"station_id":"ce4bhsh2rcd13ifvqi2g","pricing_plan_id":"cebpf4jnsgd1na2vs0mg"},{"bike_id":"18337703-f499-45da-b8de-dec522f874e6","system_id":"levelo_inurba_marseille","lat":43.3125,"lon":5.40198,"is_reserved":false,"is_disabled":false,"rental_uris":{"android":"levelo://app?vid=18337703-f499-45da-b8de-dec522f874e6","ios":"levelo://app?vid=18337703-f499-45da-b8de-dec522f874e6"},"vehicle_type_id":"4","last_reported":1741695558,"current_range_meters":8000,"station_id":"ce4bh092rcd13ifvqd30","pricing_plan_id":"cebpf4jnsgd1na2vs0mg"},{"bike_id":"ac0fe495-ace6-4ef2-af40-96cf2a722843","system_id":"levelo_inurba_marseille","lat":43.2656,"lon":5.39019,"is_reserved":false,"is_disabled":false,"rental_uris":{"android":"levelo://app?vid=ac0fe495-ace6-4ef2-af40-96cf2a722843","ios":"levelo://app?vid=ac0fe495-ace6-4ef2-af40-96cf2a722843"},"vehicle_type_id":"4","last_reported":1741695558,"current_range_meters":8000,"station_id":"ce4bhe12rcd13ifvqf30","pricing_plan_id":"cebpf4jnsgd1na2vs0mg"},{"bike_id":"4ac2caed-67c0-4a4f-ab4c-86dfa96f88e5","system_id":"levelo_inurba_marseille","lat":43.23152,"lon":5.43702,"is_reserved":false,"is_disabled":false,"rental_uris":{"android":"levelo://app?vid=4ac2caed-67c0-4a4f-ab4c-86dfa96f88e5","ios":"levelo://app?vid=4ac2caed-67c0-4a4f-ab4c-86dfa96f88e5"},"vehicle_type_id":"4","last_reported":1741695558,"current_range_meters":8000,"station_id":"ce4bhmp2rcd13ifvqgog","pricing_plan_id":"cebpf4jnsgd1na2vs0mg"},{"bike_id":"1e27a5ac-4301-4fae-a15d-974556243300","system_id":"levelo_inurba_marseille","lat":43.240738,"lon":5.377516,"is_reserved":false,"is_disabled":false,"rental_uris":{"android":"levelo://app?vid=1e27a5ac-4301-4fae-a15d-974556243300","ios":"levelo://app?vid=1e27a5ac-4301-4fae-a15d-974556243300"},"vehicle_type_id":"4","last_reported":1741695558,"current_range_meters":8000,"station_id":"ce4bhn12rcd13ifvqgqg","pricing_plan_id":"cebpf4jnsgd1na2vs0mg"},{"bike_id":"bcf2c972-114e-411f-8261-6e54fe7e5705","system_id":"levelo_inurba_marseille","lat":43.28165,"lon":5.42646,"is_reserved":false,"is_disabled":false,"rental_uris":{"android":"levelo://app?vid=bcf2c972-114e-411f-8261-6e54fe7e5705","ios":"levelo://app?vid=bcf2c972-114e-411f-8261-6e54fe7e5705"},"vehicle_type_id":"4","last_reported":1741695558,"current_range_meters":8000,"station_id":"ce4bhnh2rcd13ifvqgug","pricing_plan_id":"cebpf4jnsgd1na2vs0mg"},{"bike_id":"258c8b53-3ddf-4a07-8148-e98597ccd50d","system_id":"levelo_inurba_marseille","lat":43.30354,"lon":5.41875,"is_reserved":false,"is_disabled":false,"rental_uris":{"android":"levelo://app?vid=258c8b53-3ddf-4a07-8148-e98597ccd50d","ios":"levelo://app?vid=258c8b53-3ddf-4a07-8148-e98597ccd50d"},"vehicle_type_id":"4","last_reported":1741695558,"current_range_meters":8000,"station_id":"ce4bhop2rcd13ifvqh7g","pricing_plan_id":"cebpf4jnsgd1na2vs0mg"},{"bike_id":"550f4f9f-afbd-4396-bec2-cdce79ad77cc","system_id":"levelo_inurba_marseille","lat":43.32483,"lon":5.36563,"is_reserved":false,"is_disabled":false,"rental_uris":{"android":"levelo://app?vid=550f4f9f-afbd-4396-bec2-cdce79ad77cc","ios":"levelo://app?vid=550f4f9f-afbd-4396-bec2-cdce79ad77cc"},"vehicle_type_id":"4","last_reported":1741695558,"current_range_meters":8000,"station_id":"ce4bhs12rcd13ifvqhvg","pricing_plan_id":"cebpf4jnsgd1na2vs0mg"},{"bike_id":"0957bda8-7bd7-474b-9f42-a0477bdae654","system_id":"levelo_inurba_marseille","lat":43.303121,"lon":5.369029,"is_reserved":false,"is_disabled":false,"rental_uris":{"android":"levelo://app?vid=0957bda8-7bd7-474b-9f42-a0477bdae654","ios":"levelo://app?vid=0957bda8-7bd7-474b-9f42-a0477bdae654"},"vehicle_type_id":"4","last_reported":1741695558,"current_range_meters":8400,"station_id":"ce4bgk12rcd13ifvqbi0","pricing_plan_id":"cebpf4jnsgd1na2vs0mg"},{"bike_id":"1045a121-ba94-4d4a-bb66-89878497dd96","system_id":"levelo_inurba_marseille","lat":43.30966,"lon":5.39098,"is_reserved":false,"is_disabled":false,"rental_uris":{"android":"levelo://app?vid=1045a121-ba94-4d4a-bb66-89878497dd96","ios":"levelo://app?vid=1045a121-ba94-4d4a-bb66-89878497dd96"},"vehicle_type_id":"4","last_reported":1741695558,"current_range_meters":8400,"station_id":"ce4bgup2rcd13ifvqco0","pricing_plan_id":"cebpf4jnsgd1na2vs0mg"},{"bike_id":"af148814-06ce-41a6-83d1-3feb9b4627e3","system_id":"levelo_inurba_marseille","lat":43.29885,"lon":5.38902,"is_reserved":false,"is_disabled":false,"rental_uris":{"android":"levelo://app?vid=af148814-06ce-41a6-83d1-3feb9b4627e3","ios":"levelo://app?vid=af148814-06ce-41a6-83d1-3feb9b4627e3"},"vehicle_type_id":"4","last_reported":1741695558,"current_range_meters":8400,"station_id":"ce4bh392rcd13ifvqdl0","pricing_plan_id":"cebpf4jnsgd1na2vs0mg"},{"bike_id":"01778146-758f-45fe-82c6-b332729010f2","system_id":"levelo_inurba_marseille","lat":43.28342,"lon":5.38098,"is_reserved":false,"is_disabled":false,"rental_uris":{"android":"levelo://app?vid=01778146-758f-45fe-82c6-b332729010f2","ios":"levelo://app?vid=01778146-758f-45fe-82c6-b332729010f2"},"vehicle_type_id":"4","last_reported":1741695558,"current_range_meters":8400,"station_id":"ce4bh412rcd13ifvqdr0","pricing_plan_id":"cebpf4jnsgd1na2vs0mg"},{"bike_id":"b1530bc4-cab8-4dc4-9db7-554b80117599","system_id":"levelo_inurba_marseille","lat":43.29033,"lon":5.35927,"is_reserved":false,"is_disabled":false,"rental_uris":{"android":"levelo://app?vid=b1530bc4-cab8-4dc4-9db7-554b80117599","ios":"levelo://app?vid=b1530bc4-cab8-4dc4-9db7-554b80117599"},"vehicle_type_id":"4","last_reported":1741695558,"current_range_meters":8400,"station_id":"ce4bha92rcd13ifvqeg0","pricing_plan_id":"cebpf4jnsgd1na2vs0mg"},{"bike_id":"7967c65f-c8a6-43c6-9b08-5a1f5b9319e4","system_id":"levelo_inurba_marseille","lat":43.286124,"lon":5.35101,"is_reserved":false,"is_disabled":false,"rental_uris":{"android":"levelo://app?vid=7967c65f-c8a6-43c6-9b08-5a1f5b9319e4","ios":"levelo://app?vid=7967c65f-c8a6-43c6-9b08-5a1f5b9319e4"},"vehicle_type_id":"4","last_reported":1741695558,"current_range_meters":8400,"station_id":"ce4bhch2rcd13ifvqeug","pricing_plan_id":"cebpf4jnsgd1na2vs0mg"},{"bike_id":"e6bfedde-b8d3-483f-9c12-e45beb87d7c9","system_id":"levelo_inurba_marseille","lat":43.23138,"lon":5.43711,"is_reserved":false,"is_disabled":false,"rental_uris":{"android":"levelo://app?vid=e6bfedde-b8d3-483f-9c12-e45beb87d7c9","ios":"levelo://app?vid=e6bfedde-b8d3-483f-9c12-e45beb87d7c9"},"vehicle_type_id":"4","last_reported":1741695558,"current_range_meters":8400,"station_id":"ce4bhmp2rcd13ifvqgog","pricing_plan_id":"cebpf4jnsgd1na2vs0mg"},{"bike_id":"cbd6f8ee-d91a-4c06-a50f-8aefa40d8ceb","system_id":"levelo_inurba_marseille","lat":43.29893,"lon":5.4368,"is_reserved":false,"is_disabled":false,"rental_uris":{"android":"levelo://app?vid=cbd6f8ee-d91a-4c06-a50f-8aefa40d8ceb","ios":"levelo://app?vid=cbd6f8ee-d91a-4c06-a50f-8aefa40d8ceb"},"vehicle_type_id":"4","last_reported":1741695558,"current_range_meters":8400,"station_id":"ce4bhpp2rcd13ifvqhfg","pricing_plan_id":"cebpf4jnsgd1na2vs0mg"},{"bike_id":"e228d01d-c572-45e7-beed-8bbc538e7fd0","system_id":"levelo_inurba_marseille","lat":43.28106,"lon":5.37823,"is_reserved":false,"is_disabled":false,"rental_uris":{"android":"levelo://app?vid=e228d01d-c572-45e7-beed-8bbc538e7fd0","ios":"levelo://app?vid=e228d01d-c572-45e7-beed-8bbc538e7fd0"},"vehicle_type_id":"4","last_reported":1741695558,"current_range_meters":8800,"station_id":"ce4bha12rcd13ifvqee0","pricing_plan_id":"cebpf4jnsgd1na2vs0mg"},{"bike_id":"8dc2c2dc-de0f-4fd2-b739-faf253fff5e5","system_id":"levelo_inurba_marseille","lat":43.23138,"lon":5.43727,"is_reserved":false,"is_disabled":false,"rental_uris":{"android":"levelo://app?vid=8dc2c2dc-de0f-4fd2-b739-faf253fff5e5","ios":"levelo://app?vid=8dc2c2dc-de0f-4fd2-b739-faf253fff5e5"},"vehicle_type_id":"4","last_reported":1741695558,"current_range_meters":8800,"station_id":"ce4bhmp2rcd13ifvqgog","pricing_plan_id":"cebpf4jnsgd1na2vs0mg"},{"bike_id":"acc1658b-7ea3-44a5-a65b-40f1faa0438d","system_id":"levelo_inurba_marseille","lat":43.32543,"lon":5.41472,"is_reserved":false,"is_disabled":false,"rental_uris":{"android":"levelo://app?vid=acc1658b-7ea3-44a5-a65b-40f1faa0438d","ios":"levelo://app?vid=acc1658b-7ea3-44a5-a65b-40f1faa0438d"},"vehicle_type_id":"4","last_reported":1741695558,"current_range_meters":8800,"station_id":"ce4bhq12rcd13ifvqhhg","pricing_plan_id":"cebpf4jnsgd1na2vs0mg"},{"bike_id":"80771939-f406-42f7-81c5-33180fd8a338","system_id":"levelo_inurba_marseille","lat":43.23196,"lon":5.35543,"is_reserved":false,"is_disabled":false,"rental_uris":{"android":"levelo://app?vid=80771939-f406-42f7-81c5-33180fd8a338","ios":"levelo://app?vid=80771939-f406-42f7-81c5-33180fd8a338"},"vehicle_type_id":"4","last_reported":1741695558,"current_range_meters":8800,"station_id":"ce4bhu92rcd13ifvqi70","pricing_plan_id":"cebpf4jnsgd1na2vs0mg"},{"bike_id":"09bbb690-af86-458c-bbad-70d10e2033ee","system_id":"levelo_inurba_marseille","lat":43.23063,"lon":5.35484,"is_reserved":false,"is_disabled":false,"rental_uris":{"android":"levelo://app?vid=09bbb690-af86-458c-bbad-70d10e2033ee","ios":"levelo://app?vid=09bbb690-af86-458c-bbad-70d10e2033ee"},"vehicle_type_id":"4","last_reported":1741695558,"current_range_meters":8800,"station_id":"cpo3342slgdg3j2ifvpg","pricing_plan_id":"cebpf4jnsgd1na2vs0mg"},{"bike_id":"3ea904db-c7e8-465c-be4e-6856556f7331","system_id":"levelo_inurba_marseille","lat":43.30133,"lon":5.38798,"is_reserved":false,"is_disabled":false,"rental_uris":{"android":"levelo://app?vid=3ea904db-c7e8-465c-be4e-6856556f7331","ios":"levelo://app?vid=3ea904db-c7e8-465c-be4e-6856556f7331"},"vehicle_type_id":"4","last_reported":1741695558,"current_range_meters":9200,"station_id":"ce4bghh2rcd13ifvqb60","pricing_plan_id":"cebpf4jnsgd1na2vs0mg"},{"bike_id":"7149a3a6-c294-4380-b503-11be24516f33","system_id":"levelo_inurba_marseille","lat":43.30944,"lon":5.36817,"is_reserved":false,"is_disabled":false,"rental_uris":{"android":"levelo://app?vid=7149a3a6-c294-4380-b503-11be24516f33","ios":"levelo://app?vid=7149a3a6-c294-4380-b503-11be24516f33"},"vehicle_type_id":"4","last_reported":1741695558,"current_range_meters":9200,"station_id":"ce4bgn92rcd13ifvqbvg","pricing_plan_id":"cebpf4jnsgd1na2vs0mg"},{"bike_id":"0c94086f-e387-4c95-bd6b-ff1031391f41","system_id":"levelo_inurba_marseille","lat":43.30551,"lon":5.36537,"is_reserved":false,"is_disabled":false,"rental_uris":{"android":"levelo://app?vid=0c94086f-e387-4c95-bd6b-ff1031391f41","ios":"levelo://app?vid=0c94086f-e387-4c95-bd6b-ff1031391f41"},"vehicle_type_id":"4","last_reported":1741695558,"current_range_meters":9200,"station_id":"ce4bgs12rcd13ifvqcag","pricing_plan_id":"cebpf4jnsgd1na2vs0mg"},{"bike_id":"3ca56b60-8a3a-46ea-8590-53e067cbe778","system_id":"levelo_inurba_marseille","lat":43.29103,"lon":5.38118,"is_reserved":false,"is_disabled":false,"rental_uris":{"android":"levelo://app?vid=3ca56b60-8a3a-46ea-8590-53e067cbe778","ios":"levelo://app?vid=3ca56b60-8a3a-46ea-8590-53e067cbe778"},"vehicle_type_id":"4","last_reported":1741695558,"current_range_meters":9200,"station_id":"ce4bh512rcd13ifvqe2g","pricing_plan_id":"cebpf4jnsgd1na2vs0mg"},{"bike_id":"f939654e-1bc2-4130-9859-f7b0b16b242b","system_id":"levelo_inurba_marseille","lat":43.26953,"lon":5.38623,"is_reserved":false,"is_disabled":false,"rental_uris":{"android":"levelo://app?vid=f939654e-1bc2-4130-9859-f7b0b16b242b","ios":"levelo://app?vid=f939654e-1bc2-4130-9859-f7b0b16b242b"},"vehicle_type_id":"4","last_reported":1741695558,"current_range_meters":9200,"station_id":"ce4bhh92rcd13ifvqfh0","pricing_plan_id":"cebpf4jnsgd1na2vs0mg"},{"bike_id":"4c72d302-7bdc-4e5a-9753-06e1f61a5d6d","system_id":"levelo_inurba_marseille","lat":43.25821,"lon":5.39438,"is_reserved":false,"is_disabled":false,"rental_uris":{"android":"levelo://app?vid=4c72d302-7bdc-4e5a-9753-06e1f61a5d6d","ios":"levelo://app?vid=4c72d302-7bdc-4e5a-9753-06e1f61a5d6d"},"vehicle_type_id":"4","last_reported":1741695558,"current_range_meters":9200,"station_id":"ce4bhip2rcd13ifvqft0","pricing_plan_id":"cebpf4jnsgd1na2vs0mg"},{"bike_id":"1920f354-c4b5-4d1a-bc6f-aba0c6cd151e","system_id":"levelo_inurba_marseille","lat":43.27806,"lon":5.40712,"is_reserved":false,"is_disabled":false,"rental_uris":{"android":"levelo://app?vid=1920f354-c4b5-4d1a-bc6f-aba0c6cd151e","ios":"levelo://app?vid=1920f354-c4b5-4d1a-bc6f-aba0c6cd151e"},"vehicle_type_id":"4","last_reported":1741695558,"current_range_meters":9200,"station_id":"ce4bhnh2rcd13ifvqgtg","pricing_plan_id":"cebpf4jnsgd1na2vs0mg"},{"bike_id":"ae8af7b7-c05b-4384-9261-7a9f39e0a5b5","system_id":"levelo_inurba_marseille","lat":43.32497,"lon":5.36551,"is_reserved":false,"is_disabled":false,"rental_uris":{"android":"levelo://app?vid=ae8af7b7-c05b-4384-9261-7a9f39e0a5b5","ios":"levelo://app?vid=ae8af7b7-c05b-4384-9261-7a9f39e0a5b5"},"vehicle_type_id":"4","last_reported":1741695558,"current_range_meters":9200,"station_id":"ce4bhs12rcd13ifvqhvg","pricing_plan_id":"cebpf4jnsgd1na2vs0mg"},{"bike_id":"ffb286e2-62fa-45b6-a590-5e88edf52383","system_id":"levelo_inurba_marseille","lat":43.29288,"lon":5.37419,"is_reserved":false,"is_disabled":false,"rental_uris":{"android":"levelo://app?vid=ffb286e2-62fa-45b6-a590-5e88edf52383","ios":"levelo://app?vid=ffb286e2-62fa-45b6-a590-5e88edf52383"},"vehicle_type_id":"4","last_reported":1741695558,"current_range_meters":9600,"station_id":"","pricing_plan_id":"cebpf4jnsgd1na2vs0mg"},{"bike_id":"9ec52ed9-9c0e-4e61-a378-5327e3711632","system_id":"levelo_inurba_marseille","lat":43.2473,"lon":5.41154,"is_reserved":false,"is_disabled":false,"rental_uris":{"android":"levelo://app?vid=9ec52ed9-9c0e-4e61-a378-5327e3711632","ios":"levelo://app?vid=9ec52ed9-9c0e-4e61-a378-5327e3711632"},"vehicle_type_id":"4","last_reported":1741695558,"current_range_meters":9600,"station_id":"","pricing_plan_id":"cebpf4jnsgd1na2vs0mg"},{"bike_id":"301c8de4-8782-48bb-ba23-25ee745d055a","system_id":"levelo_inurba_marseille","lat":43.26958,"lon":5.38635,"is_reserved":false,"is_disabled":false,"rental_uris":{"android":"levelo://app?vid=301c8de4-8782-48bb-ba23-25ee745d055a","ios":"levelo://app?vid=301c8de4-8782-48bb-ba23-25ee745d055a"},"vehicle_type_id":"4","last_reported":1741695558,"current_range_meters":9600,"station_id":"ce4bhh92rcd13ifvqfh0","pricing_plan_id":"cebpf4jnsgd1na2vs0mg"},{"bike_id":"c30a5f55-cc1b-4590-b8ef-3b9f2512cc45","system_id":"levelo_inurba_marseille","lat":43.26056,"lon":5.39389,"is_reserved":false,"is_disabled":false,"rental_uris":{"android":"levelo://app?vid=c30a5f55-cc1b-4590-b8ef-3b9f2512cc45","ios":"levelo://app?vid=c30a5f55-cc1b-4590-b8ef-3b9f2512cc45"},"vehicle_type_id":"4","last_reported":1741695558,"current_range_meters":9600,"station_id":"ce4bhh92rcd13ifvqfj0","pricing_plan_id":"cebpf4jnsgd1na2vs0mg"},{"bike_id":"427a5140-db09-4677-b279-7aa81f57e4f1","system_id":"levelo_inurba_marseille","lat":43.25825,"lon":5.39433,"is_reserved":false,"is_disabled":false,"rental_uris":{"android":"levelo://app?vid=427a5140-db09-4677-b279-7aa81f57e4f1","ios":"levelo://app?vid=427a5140-db09-4677-b279-7aa81f57e4f1"},"vehicle_type_id":"4","last_reported":1741695558,"current_range_meters":9600,"station_id":"ce4bhip2rcd13ifvqft0","pricing_plan_id":"cebpf4jnsgd1na2vs0mg"},{"bike_id":"27459785-4edf-4f27-b842-1984a62c6dde","system_id":"levelo_inurba_marseille","lat":43.25079,"lon":5.39514,"is_reserved":false,"is_disabled":false,"rental_uris":{"android":"levelo://app?vid=27459785-4edf-4f27-b842-1984a62c6dde","ios":"levelo://app?vid=27459785-4edf-4f27-b842-1984a62c6dde"},"vehicle_type_id":"4","last_reported":1741695558,"current_range_meters":9600,"station_id":"ce4bhm12rcd13ifvqgkg","pricing_plan_id":"cebpf4jnsgd1na2vs0mg"},{"bike_id":"a59c3b76-ec70-4a13-9fa3-9aed2abe470d","system_id":"levelo_inurba_marseille","lat":43.30143,"lon":5.38791,"is_reserved":false,"is_disabled":false,"rental_uris":{"android":"levelo://app?vid=a59c3b76-ec70-4a13-9fa3-9aed2abe470d","ios":"levelo://app?vid=a59c3b76-ec70-4a13-9fa3-9aed2abe470d"},"vehicle_type_id":"4","last_reported":1741695558,"current_range_meters":10000,"station_id":"ce4bghh2rcd13ifvqb60","pricing_plan_id":"cebpf4jnsgd1na2vs0mg"},{"bike_id":"0d9431e1-f868-427a-acb7-8ddd048ba317","system_id":"levelo_inurba_marseille","lat":43.29852,"lon":5.36274,"is_reserved":false,"is_disabled":false,"rental_uris":{"android":"levelo://app?vid=0d9431e1-f868-427a-acb7-8ddd048ba317","ios":"levelo://app?vid=0d9431e1-f868-427a-acb7-8ddd048ba317"},"vehicle_type_id":"4","last_reported":1741695558,"current_range_meters":10000,"station_id":"ce4bgpp2rcd13ifvqc3g","pricing_plan_id":"cebpf4jnsgd1na2vs0mg"},{"bike_id":"b041638a-9328-4d5f-bf17-146c05f71d4b","system_id":"levelo_inurba_marseille","lat":43.29274,"lon":5.36848,"is_reserved":false,"is_disabled":false,"rental_uris":{"android":"levelo://app?vid=b041638a-9328-4d5f-bf17-146c05f71d4b","ios":"levelo://app?vid=b041638a-9328-4d5f-bf17-146c05f71d4b"},"vehicle_type_id":"4","last_reported":1741695558,"current_range_meters":10000,"station_id":"ce4bhbp2rcd13ifvqesg","pricing_plan_id":"cebpf4jnsgd1na2vs0mg"},{"bike_id":"c835eee2-01bf-4ff1-a164-4c90e0a065d9","system_id":"levelo_inurba_marseille","lat":43.24998,"lon":5.38932,"is_reserved":false,"is_disabled":false,"rental_uris":{"android":"levelo://app?vid=c835eee2-01bf-4ff1-a164-4c90e0a065d9","ios":"levelo://app?vid=c835eee2-01bf-4ff1-a164-4c90e0a065d9"},"vehicle_type_id":"4","last_reported":1741695558,"current_range_meters":10000,"station_id":"ce4bhgp2rcd13ifvqfd0","pricing_plan_id":"cebpf4jnsgd1na2vs0mg"},{"bike_id":"1118824c-8a47-4408-ba38-d35bafacbe41","system_id":"levelo_inurba_marseille","lat":43.26225,"lon":5.40475,"is_reserved":false,"is_disabled":false,"rental_uris":{"android":"levelo://app?vid=1118824c-8a47-4408-ba38-d35bafacbe41","ios":"levelo://app?vid=1118824c-8a47-4408-ba38-d35bafacbe41"},"vehicle_type_id":"4","last_reported":1741695558,"current_range_meters":10000,"station_id":"ce4bhmh2rcd13ifvqgmg","pricing_plan_id":"cebpf4jnsgd1na2vs0mg"},{"bike_id":"a1afebd4-af2a-4e30-af2e-1c83772cdf3d","system_id":"levelo_inurba_marseille","lat":43.23152,"lon":5.43707,"is_reserved":false,"is_disabled":false,"rental_uris":{"android":"levelo://app?vid=a1afebd4-af2a-4e30-af2e-1c83772cdf3d","ios":"levelo://app?vid=a1afebd4-af2a-4e30-af2e-1c83772cdf3d"},"vehicle_type_id":"4","last_reported":1741695558,"current_range_meters":10000,"station_id":"ce4bhmp2rcd13ifvqgog","pricing_plan_id":"cebpf4jnsgd1na2vs0mg"},{"bike_id":"2137ad52-6623-49fc-bde1-0240a93037cb","system_id":"levelo_inurba_marseille","lat":43.31998,"lon":5.38166,"is_reserved":false,"is_disabled":false,"rental_uris":{"android":"levelo://app?vid=2137ad52-6623-49fc-bde1-0240a93037cb","ios":"levelo://app?vid=2137ad52-6623-49fc-bde1-0240a93037cb"},"vehicle_type_id":"4","last_reported":1741695558,"current_range_meters":10000,"station_id":"ce4bhr12rcd13ifvqhpg","pricing_plan_id":"cebpf4jnsgd1na2vs0mg"},{"bike_id":"f640465e-8c9e-425a-8e36-08d8d5201bf6","system_id":"levelo_inurba_marseille","lat":43.232,"lon":5.35548,"is_reserved":false,"is_disabled":false,"rental_uris":{"android":"levelo://app?vid=f640465e-8c9e-425a-8e36-08d8d5201bf6","ios":"levelo://app?vid=f640465e-8c9e-425a-8e36-08d8d5201bf6"},"vehicle_type_id":"4","last_reported":1741695558,"current_range_meters":10000,"station_id":"ce4bhu92rcd13ifvqi70","pricing_plan_id":"cebpf4jnsgd1na2vs0mg"},{"bike_id":"58d1b5b3-d322-4418-97d0-3066ec3d9afc","system_id":"levelo_inurba_marseille","lat":43.23194,"lon":5.35547,"is_reserved":false,"is_disabled":false,"rental_uris":{"android":"levelo://app?vid=58d1b5b3-d322-4418-97d0-3066ec3d9afc","ios":"levelo://app?vid=58d1b5b3-d322-4418-97d0-3066ec3d9afc"},"vehicle_type_id":"4","last_reported":1741695558,"current_range_meters":10000,"station_id":"ce4bhu92rcd13ifvqi70","pricing_plan_id":"cebpf4jnsgd1na2vs0mg"},{"bike_id":"2c1fac1b-7deb-4276-b5a7-c1ca47daa5d4","system_id":"levelo_inurba_marseille","lat":43.29617,"lon":5.3716,"is_reserved":false,"is_disabled":false,"rental_uris":{"android":"levelo://app?vid=2c1fac1b-7deb-4276-b5a7-c1ca47daa5d4","ios":"levelo://app?vid=2c1fac1b-7deb-4276-b5a7-c1ca47daa5d4"},"vehicle_type_id":"4","last_reported":1741695558,"current_range_meters":10800,"station_id":"ce4bgnh2rcd13ifvqc0g","pricing_plan_id":"cebpf4jnsgd1na2vs0mg"},{"bike_id":"c5c75030-882b-4d3f-83dc-7d7ff8aa51fa","system_id":"levelo_inurba_marseille","lat":43.30541,"lon":5.3671,"is_reserved":false,"is_disabled":false,"rental_uris":{"android":"levelo://app?vid=c5c75030-882b-4d3f-83dc-7d7ff8aa51fa","ios":"levelo://app?vid=c5c75030-882b-4d3f-83dc-7d7ff8aa51fa"},"vehicle_type_id":"4","last_reported":1741695558,"current_range_meters":10800,"station_id":"ce4bgrp2rcd13ifvqc9g","pricing_plan_id":"cebpf4jnsgd1na2vs0mg"},{"bike_id":"a5c7d98a-715d-43e8-a33d-2d65e32c7035","system_id":"levelo_inurba_marseille","lat":43.30092,"lon":5.39075,"is_reserved":false,"is_disabled":false,"rental_uris":{"android":"levelo://app?vid=a5c7d98a-715d-43e8-a33d-2d65e32c7035","ios":"levelo://app?vid=a5c7d98a-715d-43e8-a33d-2d65e32c7035"},"vehicle_type_id":"4","last_reported":1741695558,"current_range_meters":10800,"station_id":"ce4bh192rcd13ifvqdb0","pricing_plan_id":"cebpf4jnsgd1na2vs0mg"},{"bike_id":"d1dab548-e6e0-4589-ba56-49c689da7b0c","system_id":"levelo_inurba_marseille","lat":43.28026,"lon":5.36939,"is_reserved":false,"is_disabled":false,"rental_uris":{"android":"levelo://app?vid=d1dab548-e6e0-4589-ba56-49c689da7b0c","ios":"levelo://app?vid=d1dab548-e6e0-4589-ba56-49c689da7b0c"},"vehicle_type_id":"4","last_reported":1741695558,"current_range_meters":10800,"station_id":"ce4bha12rcd13ifvqef0","pricing_plan_id":"cebpf4jnsgd1na2vs0mg"},{"bike_id":"fab34b6b-d990-4fc8-903a-fd90724230f6","system_id":"levelo_inurba_marseille","lat":43.279,"lon":5.38017,"is_reserved":false,"is_disabled":false,"rental_uris":{"android":"levelo://app?vid=fab34b6b-d990-4fc8-903a-fd90724230f6","ios":"levelo://app?vid=fab34b6b-d990-4fc8-903a-fd90724230f6"},"vehicle_type_id":"4","last_reported":1741695558,"current_range_meters":10800,"station_id":"ce4bhf92rcd13ifvqf50","pricing_plan_id":"cebpf4jnsgd1na2vs0mg"},{"bike_id":"bfe76b26-4cce-4a8d-8e2e-190cbae21f24","system_id":"levelo_inurba_marseille","lat":43.27173,"lon":5.41012,"is_reserved":false,"is_disabled":false,"rental_uris":{"android":"levelo://app?vid=bfe76b26-4cce-4a8d-8e2e-190cbae21f24","ios":"levelo://app?vid=bfe76b26-4cce-4a8d-8e2e-190cbae21f24"},"vehicle_type_id":"4","last_reported":1741695558,"current_range_meters":10800,"station_id":"ce4bhl12rcd13ifvqgf0","pricing_plan_id":"cebpf4jnsgd1na2vs0mg"},{"bike_id":"847b7ee0-0e84-437d-8853-9e88ceccf4e3","system_id":"levelo_inurba_marseille","lat":43.23145,"lon":5.43706,"is_reserved":false,"is_disabled":false,"rental_uris":{"android":"levelo://app?vid=847b7ee0-0e84-437d-8853-9e88ceccf4e3","ios":"levelo://app?vid=847b7ee0-0e84-437d-8853-9e88ceccf4e3"},"vehicle_type_id":"4","last_reported":1741695558,"current_range_meters":10800,"station_id":"ce4bhmp2rcd13ifvqgog","pricing_plan_id":"cebpf4jnsgd1na2vs0mg"},{"bike_id":"b5bd7c3a-18cd-4306-b805-ab83f2e5ffdd","system_id":"levelo_inurba_marseille","lat":43.30537,"lon":5.38415,"is_reserved":false,"is_disabled":false,"rental_uris":{"android":"levelo://app?vid=b5bd7c3a-18cd-4306-b805-ab83f2e5ffdd","ios":"levelo://app?vid=b5bd7c3a-18cd-4306-b805-ab83f2e5ffdd"},"vehicle_type_id":"4","last_reported":1741695558,"current_range_meters":11200,"station_id":"ce4bgg92rcd13ifvqb30","pricing_plan_id":"cebpf4jnsgd1na2vs0mg"},{"bike_id":"3ae61295-bc03-4023-ba04-98e819a6f8af","system_id":"levelo_inurba_marseille","lat":43.30133,"lon":5.38783,"is_reserved":false,"is_disabled":false,"rental_uris":{"android":"levelo://app?vid=3ae61295-bc03-4023-ba04-98e819a6f8af","ios":"levelo://app?vid=3ae61295-bc03-4023-ba04-98e819a6f8af"},"vehicle_type_id":"4","last_reported":1741695558,"current_range_meters":11200,"station_id":"ce4bghh2rcd13ifvqb60","pricing_plan_id":"cebpf4jnsgd1na2vs0mg"},{"bike_id":"1ee9dbf5-b0e2-4af5-8fd1-f41f66f7bf91","system_id":"levelo_inurba_marseille","lat":43.30802,"lon":5.38169,"is_reserved":false,"is_disabled":false,"rental_uris":{"android":"levelo://app?vid=1ee9dbf5-b0e2-4af5-8fd1-f41f66f7bf91","ios":"levelo://app?vid=1ee9dbf5-b0e2-4af5-8fd1-f41f66f7bf91"},"vehicle_type_id":"4","last_reported":1741695558,"current_range_meters":11200,"station_id":"ce4bgt12rcd13ifvqce0","pricing_plan_id":"cebpf4jnsgd1na2vs0mg"},{"bike_id":"cb59f03e-872a-4a44-82ef-2486ec991c39","system_id":"levelo_inurba_marseille","lat":43.29188,"lon":5.39317,"is_reserved":false,"is_disabled":false,"rental_uris":{"android":"levelo://app?vid=cb59f03e-872a-4a44-82ef-2486ec991c39","ios":"levelo://app?vid=cb59f03e-872a-4a44-82ef-2486ec991c39"},"vehicle_type_id":"4","last_reported":1741695558,"current_range_meters":11200,"station_id":"ce4bh192rcd13ifvqdd0","pricing_plan_id":"cebpf4jnsgd1na2vs0mg"},{"bike_id":"a1baa104-25a2-4e51-9168-d1bb7caf90a4","system_id":"levelo_inurba_marseille","lat":43.274205,"lon":5.394193,"is_reserved":false,"is_disabled":false,"rental_uris":{"android":"levelo://app?vid=a1baa104-25a2-4e51-9168-d1bb7caf90a4","ios":"levelo://app?vid=a1baa104-25a2-4e51-9168-d1bb7caf90a4"},"vehicle_type_id":"4","last_reported":1741695558,"current_range_meters":11200,"station_id":"ce4bhdp2rcd13ifvqf20","pricing_plan_id":"cebpf4jnsgd1na2vs0mg"},{"bike_id":"02ccda15-ca98-4f66-a5ee-609c485d624e","system_id":"levelo_inurba_marseille","lat":43.23959,"lon":5.36622,"is_reserved":false,"is_disabled":false,"rental_uris":{"android":"levelo://app?vid=02ccda15-ca98-4f66-a5ee-609c485d624e","ios":"levelo://app?vid=02ccda15-ca98-4f66-a5ee-609c485d624e"},"vehicle_type_id":"4","last_reported":1741695558,"current_range_meters":11200,"station_id":"ce4bhi12rcd13ifvqfp0","pricing_plan_id":"cebpf4jnsgd1na2vs0mg"},{"bike_id":"2ae747a9-608f-4608-9361-20110b5d9c32","system_id":"levelo_inurba_marseille","lat":43.32672,"lon":5.4098,"is_reserved":false,"is_disabled":false,"rental_uris":{"android":"levelo://app?vid=2ae747a9-608f-4608-9361-20110b5d9c32","ios":"levelo://app?vid=2ae747a9-608f-4608-9361-20110b5d9c32"},"vehicle_type_id":"4","last_reported":1741695558,"current_range_meters":11200,"station_id":"ce4bhpp2rcd13ifvqhgg","pricing_plan_id":"cebpf4jnsgd1na2vs0mg"},{"bike_id":"51bead88-7696-4efb-9522-148994f0510e","system_id":"levelo_inurba_marseille","lat":43.3254,"lon":5.41457,"is_reserved":false,"is_disabled":false,"rental_uris":{"android":"levelo://app?vid=51bead88-7696-4efb-9522-148994f0510e","ios":"levelo://app?vid=51bead88-7696-4efb-9522-148994f0510e"},"vehicle_type_id":"4","last_reported":1741695558,"current_range_meters":11200,"station_id":"ce4bhq12rcd13ifvqhhg","pricing_plan_id":"cebpf4jnsgd1na2vs0mg"},{"bike_id":"00c1831f-b118-43d5-b540-1071bde4864a","system_id":"levelo_inurba_marseille","lat":43.3414,"lon":5.409047,"is_reserved":false,"is_disabled":false,"rental_uris":{"android":"levelo://app?vid=00c1831f-b118-43d5-b540-1071bde4864a","ios":"levelo://app?vid=00c1831f-b118-43d5-b540-1071bde4864a"},"vehicle_type_id":"4","last_reported":1741695558,"current_range_meters":11200,"station_id":"ce4bhqh2rcd13ifvqhlg","pricing_plan_id":"cebpf4jnsgd1na2vs0mg"},{"bike_id":"6bf2a12c-8e2e-4305-995a-5ba524d947aa","system_id":"levelo_inurba_marseille","lat":43.31693,"lon":5.40463,"is_reserved":false,"is_disabled":false,"rental_uris":{"android":"levelo://app?vid=6bf2a12c-8e2e-4305-995a-5ba524d947aa","ios":"levelo://app?vid=6bf2a12c-8e2e-4305-995a-5ba524d947aa"},"vehicle_type_id":"4","last_reported":1741695558,"current_range_meters":11600,"station_id":"ce4bh012rcd13ifvqd00","pricing_plan_id":"cebpf4jnsgd1na2vs0mg"},{"bike_id":"9acab34d-76c9-4fd5-bed6-0265a89df8bb","system_id":"levelo_inurba_marseille","lat":43.25733,"lon":5.411136,"is_reserved":false,"is_disabled":false,"rental_uris":{"android":"levelo://app?vid=9acab34d-76c9-4fd5-bed6-0265a89df8bb","ios":"levelo://app?vid=9acab34d-76c9-4fd5-bed6-0265a89df8bb"},"vehicle_type_id":"4","last_reported":1741695558,"current_range_meters":11600,"station_id":"ce4bhkp2rcd13ifvqgd0","pricing_plan_id":"cebpf4jnsgd1na2vs0mg"},{"bike_id":"602d068b-17ec-4c43-a941-51f4b635d1bf","system_id":"levelo_inurba_marseille","lat":43.25922,"lon":5.40884,"is_reserved":false,"is_disabled":false,"rental_uris":{"android":"levelo://app?vid=602d068b-17ec-4c43-a941-51f4b635d1bf","ios":"levelo://app?vid=602d068b-17ec-4c43-a941-51f4b635d1bf"},"vehicle_type_id":"4","last_reported":1741695558,"current_range_meters":11600,"station_id":"ce4bhm92rcd13ifvqglg","pricing_plan_id":"cebpf4jnsgd1na2vs0mg"},{"bike_id":"69af4c50-9077-436a-8c73-2ffdc4c386f1","system_id":"levelo_inurba_marseille","lat":43.24172,"lon":5.3973,"is_reserved":false,"is_disabled":false,"rental_uris":{"android":"levelo://app?vid=69af4c50-9077-436a-8c73-2ffdc4c386f1","ios":"levelo://app?vid=69af4c50-9077-436a-8c73-2ffdc4c386f1"},"vehicle_type_id":"4","last_reported":1741695558,"current_range_meters":11600,"station_id":"ce4bhn12rcd13ifvqgpg","pricing_plan_id":"cebpf4jnsgd1na2vs0mg"},{"bike_id":"415e7a31-245d-4ead-9f33-dad092a04302","system_id":"levelo_inurba_marseille","lat":43.23061,"lon":5.35488,"is_reserved":false,"is_disabled":false,"rental_uris":{"android":"levelo://app?vid=415e7a31-245d-4ead-9f33-dad092a04302","ios":"levelo://app?vid=415e7a31-245d-4ead-9f33-dad092a04302"},"vehicle_type_id":"4","last_reported":1741695558,"current_range_meters":11600,"station_id":"cpo3342slgdg3j2ifvpg","pricing_plan_id":"cebpf4jnsgd1na2vs0mg"},{"bike_id":"adbda3f8-bf28-42b6-b199-11ee1a621649","system_id":"levelo_inurba_marseille","lat":43.33778,"lon":5.37443,"is_reserved":false,"is_disabled":false,"rental_uris":{"android":"levelo://app?vid=adbda3f8-bf28-42b6-b199-11ee1a621649","ios":"levelo://app?vid=adbda3f8-bf28-42b6-b199-11ee1a621649"},"vehicle_type_id":"4","last_reported":1741695558,"current_range_meters":12000,"station_id":"","pricing_plan_id":"cebpf4jnsgd1na2vs0mg"},{"bike_id":"fb629ba8-b376-4f9a-a280-fa2aa29efcd1","system_id":"levelo_inurba_marseille","lat":43.29864,"lon":5.36303,"is_reserved":false,"is_disabled":false,"rental_uris":{"android":"levelo://app?vid=fb629ba8-b376-4f9a-a280-fa2aa29efcd1","ios":"levelo://app?vid=fb629ba8-b376-4f9a-a280-fa2aa29efcd1"},"vehicle_type_id":"4","last_reported":1741695558,"current_range_meters":12000,"station_id":"ce4bgpp2rcd13ifvqc3g","pricing_plan_id":"cebpf4jnsgd1na2vs0mg"},{"bike_id":"38daf861-7460-433c-a5dc-fc4a3cb19056","system_id":"levelo_inurba_marseille","lat":43.29037,"lon":5.39961,"is_reserved":false,"is_disabled":false,"rental_uris":{"android":"levelo://app?vid=38daf861-7460-433c-a5dc-fc4a3cb19056","ios":"levelo://app?vid=38daf861-7460-433c-a5dc-fc4a3cb19056"},"vehicle_type_id":"4","last_reported":1741695558,"current_range_meters":12000,"station_id":"ce4bh392rcd13ifvqdm0","pricing_plan_id":"cebpf4jnsgd1na2vs0mg"},{"bike_id":"9d5c6f66-5ffc-4f1c-98ec-076956a105d4","system_id":"levelo_inurba_marseille","lat":43.28717,"lon":5.37939,"is_reserved":false,"is_disabled":false,"rental_uris":{"android":"levelo://app?vid=9d5c6f66-5ffc-4f1c-98ec-076956a105d4","ios":"levelo://app?vid=9d5c6f66-5ffc-4f1c-98ec-076956a105d4"},"vehicle_type_id":"4","last_reported":1741695558,"current_range_meters":12000,"station_id":"ce4bh9p2rcd13ifvqec0","pricing_plan_id":"cebpf4jnsgd1na2vs0mg"},{"bike_id":"c66cc751-cdfa-4024-91c9-be58dad0ac0d","system_id":"levelo_inurba_marseille","lat":43.274938,"lon":5.4245,"is_reserved":false,"is_disabled":false,"rental_uris":{"android":"levelo://app?vid=c66cc751-cdfa-4024-91c9-be58dad0ac0d","ios":"levelo://app?vid=c66cc751-cdfa-4024-91c9-be58dad0ac0d"},"vehicle_type_id":"4","last_reported":1741695558,"current_range_meters":12000,"station_id":"ce4bhn92rcd13ifvqgrg","pricing_plan_id":"cebpf4jnsgd1na2vs0mg"},{"bike_id":"716492ae-81b6-4ed5-8177-f4759b370b67","system_id":"levelo_inurba_marseille","lat":43.28142,"lon":5.42635,"is_reserved":false,"is_disabled":false,"rental_uris":{"android":"levelo://app?vid=716492ae-81b6-4ed5-8177-f4759b370b67","ios":"levelo://app?vid=716492ae-81b6-4ed5-8177-f4759b370b67"},"vehicle_type_id":"4","last_reported":1741695558,"current_range_meters":12000,"station_id":"ce4bhnh2rcd13ifvqgug","pricing_plan_id":"cebpf4jnsgd1na2vs0mg"},{"bike_id":"6f3d7979-1941-425d-a7ad-7098bdc17d80","system_id":"levelo_inurba_marseille","lat":43.31368,"lon":5.36705,"is_reserved":false,"is_disabled":false,"rental_uris":{"android":"levelo://app?vid=6f3d7979-1941-425d-a7ad-7098bdc17d80","ios":"levelo://app?vid=6f3d7979-1941-425d-a7ad-7098bdc17d80"},"vehicle_type_id":"4","last_reported":1741695558,"current_range_meters":12400,"station_id":"ce4bgr92rcd13ifvqc6g","pricing_plan_id":"cebpf4jnsgd1na2vs0mg"},{"bike_id":"45d592e5-fdf7-4be7-bced-227e70ddd348","system_id":"levelo_inurba_marseille","lat":43.28698,"lon":5.37394,"is_reserved":false,"is_disabled":false,"rental_uris":{"android":"levelo://app?vid=45d592e5-fdf7-4be7-bced-227e70ddd348","ios":"levelo://app?vid=45d592e5-fdf7-4be7-bced-227e70ddd348"},"vehicle_type_id":"4","last_reported":1741695558,"current_range_meters":12400,"station_id":"ce4bh3p2rcd13ifvqdq0","pricing_plan_id":"cebpf4jnsgd1na2vs0mg"},{"bike_id":"b51a0751-de40-4eb8-8c06-ed58eda7f912","system_id":"levelo_inurba_marseille","lat":43.23182,"lon":5.39984,"is_reserved":false,"is_disabled":false,"rental_uris":{"android":"levelo://app?vid=b51a0751-de40-4eb8-8c06-ed58eda7f912","ios":"levelo://app?vid=b51a0751-de40-4eb8-8c06-ed58eda7f912"},"vehicle_type_id":"4","last_reported":1741695558,"current_range_meters":12400,"station_id":"ce4bhn12rcd13ifvqgqg","pricing_plan_id":"cebpf4jnsgd1na2vs0mg"},{"bike_id":"7f58d9e5-acbe-40df-8048-40fec1830ecf","system_id":"levelo_inurba_marseille","lat":43.32481,"lon":5.36565,"is_reserved":false,"is_disabled":false,"rental_uris":{"android":"levelo://app?vid=7f58d9e5-acbe-40df-8048-40fec1830ecf","ios":"levelo://app?vid=7f58d9e5-acbe-40df-8048-40fec1830ecf"},"vehicle_type_id":"4","last_reported":1741695558,"current_range_meters":12400,"station_id":"ce4bhs12rcd13ifvqhvg","pricing_plan_id":"cebpf4jnsgd1na2vs0mg"},{"bike_id":"2931d81f-abb3-45b8-9224-dc3fce2fae31","system_id":"levelo_inurba_marseille","lat":43.32352,"lon":5.36748,"is_reserved":false,"is_disabled":false,"rental_uris":{"android":"levelo://app?vid=2931d81f-abb3-45b8-9224-dc3fce2fae31","ios":"levelo://app?vid=2931d81f-abb3-45b8-9224-dc3fce2fae31"},"vehicle_type_id":"4","last_reported":1741695558,"current_range_meters":12400,"station_id":"ce4bhsh2rcd13ifvqi2g","pricing_plan_id":"cebpf4jnsgd1na2vs0mg"},{"bike_id":"2cdec81d-2593-4153-a426-2f527f1b29e2","system_id":"levelo_inurba_marseille","lat":43.23595,"lon":5.391,"is_reserved":false,"is_disabled":false,"rental_uris":{"android":"levelo://app?vid=2cdec81d-2593-4153-a426-2f527f1b29e2","ios":"levelo://app?vid=2cdec81d-2593-4153-a426-2f527f1b29e2"},"vehicle_type_id":"4","last_reported":1741695558,"current_range_meters":12800,"station_id":"","pricing_plan_id":"cebpf4jnsgd1na2vs0mg"},{"bike_id":"228482f1-6808-4ced-8b21-3f22c088c97f","system_id":"levelo_inurba_marseille","lat":43.28188,"lon":5.40253,"is_reserved":false,"is_disabled":false,"rental_uris":{"android":"levelo://app?vid=228482f1-6808-4ced-8b21-3f22c088c97f","ios":"levelo://app?vid=228482f1-6808-4ced-8b21-3f22c088c97f"},"vehicle_type_id":"4","last_reported":1741695558,"current_range_meters":12800,"station_id":"","pricing_plan_id":"cebpf4jnsgd1na2vs0mg"},{"bike_id":"9bf658d3-ba50-404d-b88f-62cb9f7005aa","system_id":"levelo_inurba_marseille","lat":43.28349,"lon":5.38108,"is_reserved":false,"is_disabled":false,"rental_uris":{"android":"levelo://app?vid=9bf658d3-ba50-404d-b88f-62cb9f7005aa","ios":"levelo://app?vid=9bf658d3-ba50-404d-b88f-62cb9f7005aa"},"vehicle_type_id":"4","last_reported":1741695558,"current_range_meters":12800,"station_id":"ce4bh412rcd13ifvqdr0","pricing_plan_id":"cebpf4jnsgd1na2vs0mg"},{"bike_id":"20c1e358-1c7f-4912-9588-5a74dcb84090","system_id":"levelo_inurba_marseille","lat":43.2501,"lon":5.38926,"is_reserved":false,"is_disabled":false,"rental_uris":{"android":"levelo://app?vid=20c1e358-1c7f-4912-9588-5a74dcb84090","ios":"levelo://app?vid=20c1e358-1c7f-4912-9588-5a74dcb84090"},"vehicle_type_id":"4","last_reported":1741695558,"current_range_meters":12800,"station_id":"ce4bhgp2rcd13ifvqfd0","pricing_plan_id":"cebpf4jnsgd1na2vs0mg"},{"bike_id":"f3bb8725-4b68-4c77-94ca-e14587dc5a22","system_id":"levelo_inurba_marseille","lat":43.24171,"lon":5.39744,"is_reserved":false,"is_disabled":false,"rental_uris":{"android":"levelo://app?vid=f3bb8725-4b68-4c77-94ca-e14587dc5a22","ios":"levelo://app?vid=f3bb8725-4b68-4c77-94ca-e14587dc5a22"},"vehicle_type_id":"4","last_reported":1741695558,"current_range_meters":12800,"station_id":"ce4bhn12rcd13ifvqgpg","pricing_plan_id":"cebpf4jnsgd1na2vs0mg"},{"bike_id":"f73e1436-2829-4d1f-ab79-6598fa5aede2","system_id":"levelo_inurba_marseille","lat":43.29891,"lon":5.43657,"is_reserved":false,"is_disabled":false,"rental_uris":{"android":"levelo://app?vid=f73e1436-2829-4d1f-ab79-6598fa5aede2","ios":"levelo://app?vid=f73e1436-2829-4d1f-ab79-6598fa5aede2"},"vehicle_type_id":"4","last_reported":1741695558,"current_range_meters":12800,"station_id":"ce4bhpp2rcd13ifvqhfg","pricing_plan_id":"cebpf4jnsgd1na2vs0mg"},{"bike_id":"7efac877-4bac-4d33-81c2-5e8339d415d6","system_id":"levelo_inurba_marseille","lat":43.31367,"lon":5.36684,"is_reserved":false,"is_disabled":false,"rental_uris":{"android":"levelo://app?vid=7efac877-4bac-4d33-81c2-5e8339d415d6","ios":"levelo://app?vid=7efac877-4bac-4d33-81c2-5e8339d415d6"},"vehicle_type_id":"4","last_reported":1741695558,"current_range_meters":13600,"station_id":"ce4bgr92rcd13ifvqc6g","pricing_plan_id":"cebpf4jnsgd1na2vs0mg"},{"bike_id":"1f4164dd-d377-44a5-b6ae-b5c9910d9cf7","system_id":"levelo_inurba_marseille","lat":43.30537,"lon":5.36688,"is_reserved":false,"is_disabled":false,"rental_uris":{"android":"levelo://app?vid=1f4164dd-d377-44a5-b6ae-b5c9910d9cf7","ios":"levelo://app?vid=1f4164dd-d377-44a5-b6ae-b5c9910d9cf7"},"vehicle_type_id":"4","last_reported":1741695558,"current_range_meters":13600,"station_id":"ce4bgrp2rcd13ifvqc9g","pricing_plan_id":"cebpf4jnsgd1na2vs0mg"},{"bike_id":"fbc068b5-4371-486b-95fc-1a361a0431d7","system_id":"levelo_inurba_marseille","lat":43.28931,"lon":5.36628,"is_reserved":false,"is_disabled":false,"rental_uris":{"android":"levelo://app?vid=fbc068b5-4371-486b-95fc-1a361a0431d7","ios":"levelo://app?vid=fbc068b5-4371-486b-95fc-1a361a0431d7"},"vehicle_type_id":"4","last_reported":1741695558,"current_range_meters":13600,"station_id":"ce4bhap2rcd13ifvqek0","pricing_plan_id":"cebpf4jnsgd1na2vs0mg"},{"bike_id":"21a98077-97a5-4182-b1fc-3570e927fac1","system_id":"levelo_inurba_marseille","lat":43.25819,"lon":5.39432,"is_reserved":false,"is_disabled":false,"rental_uris":{"android":"levelo://app?vid=21a98077-97a5-4182-b1fc-3570e927fac1","ios":"levelo://app?vid=21a98077-97a5-4182-b1fc-3570e927fac1"},"vehicle_type_id":"4","last_reported":1741695558,"current_range_meters":13600,"station_id":"ce4bhip2rcd13ifvqft0","pricing_plan_id":"cebpf4jnsgd1na2vs0mg"},{"bike_id":"9776d519-3376-4f51-aaa3-2da63911d7cc","system_id":"levelo_inurba_marseille","lat":43.25099,"lon":5.39533,"is_reserved":false,"is_disabled":false,"rental_uris":{"android":"levelo://app?vid=9776d519-3376-4f51-aaa3-2da63911d7cc","ios":"levelo://app?vid=9776d519-3376-4f51-aaa3-2da63911d7cc"},"vehicle_type_id":"4","last_reported":1741695558,"current_range_meters":13600,"station_id":"ce4bhm12rcd13ifvqgkg","pricing_plan_id":"cebpf4jnsgd1na2vs0mg"},{"bike_id":"943220f6-3a5c-48e4-bbb8-5f3a96da2531","system_id":"levelo_inurba_marseille","lat":43.33601,"lon":5.41034,"is_reserved":false,"is_disabled":false,"rental_uris":{"android":"levelo://app?vid=943220f6-3a5c-48e4-bbb8-5f3a96da2531","ios":"levelo://app?vid=943220f6-3a5c-48e4-bbb8-5f3a96da2531"},"vehicle_type_id":"4","last_reported":1741695558,"current_range_meters":13600,"station_id":"ce4bhqh2rcd13ifvqhmg","pricing_plan_id":"cebpf4jnsgd1na2vs0mg"},{"bike_id":"49df56db-4d94-4280-8959-ca31e2b2712f","system_id":"levelo_inurba_marseille","lat":43.30426,"lon":5.39742,"is_reserved":false,"is_disabled":false,"rental_uris":{"android":"levelo://app?vid=49df56db-4d94-4280-8959-ca31e2b2712f","ios":"levelo://app?vid=49df56db-4d94-4280-8959-ca31e2b2712f"},"vehicle_type_id":"4","last_reported":1741695558,"current_range_meters":14000,"station_id":"ce4bh092rcd13ifvqd20","pricing_plan_id":"cebpf4jnsgd1na2vs0mg"},{"bike_id":"508cd141-21d4-47ef-8e3b-54647e6ce898","system_id":"levelo_inurba_marseille","lat":43.28346,"lon":5.38104,"is_reserved":false,"is_disabled":false,"rental_uris":{"android":"levelo://app?vid=508cd141-21d4-47ef-8e3b-54647e6ce898","ios":"levelo://app?vid=508cd141-21d4-47ef-8e3b-54647e6ce898"},"vehicle_type_id":"4","last_reported":1741695558,"current_range_meters":14000,"station_id":"ce4bh412rcd13ifvqdr0","pricing_plan_id":"cebpf4jnsgd1na2vs0mg"},{"bike_id":"1a75ad20-7edc-4ab1-b0e2-c543442f6b10","system_id":"levelo_inurba_marseille","lat":43.29268,"lon":5.38447,"is_reserved":false,"is_disabled":false,"rental_uris":{"android":"levelo://app?vid=1a75ad20-7edc-4ab1-b0e2-c543442f6b10","ios":"levelo://app?vid=1a75ad20-7edc-4ab1-b0e2-c543442f6b10"},"vehicle_type_id":"4","last_reported":1741695558,"current_range_meters":14000,"station_id":"ce4bh692rcd13ifvqea0","pricing_plan_id":"cebpf4jnsgd1na2vs0mg"},{"bike_id":"6556e06c-6549-4e05-88e4-bae45352e58b","system_id":"levelo_inurba_marseille","lat":43.27051,"lon":5.40264,"is_reserved":false,"is_disabled":false,"rental_uris":{"android":"levelo://app?vid=6556e06c-6549-4e05-88e4-bae45352e58b","ios":"levelo://app?vid=6556e06c-6549-4e05-88e4-bae45352e58b"},"vehicle_type_id":"4","last_reported":1741695558,"current_range_meters":14000,"station_id":"ce4bhk92rcd13ifvqgc0","pricing_plan_id":"cebpf4jnsgd1na2vs0mg"},{"bike_id":"d927fc07-dae3-4a33-823e-664a59ce84fe","system_id":"levelo_inurba_marseille","lat":43.28157,"lon":5.42648,"is_reserved":false,"is_disabled":false,"rental_uris":{"android":"levelo://app?vid=d927fc07-dae3-4a33-823e-664a59ce84fe","ios":"levelo://app?vid=d927fc07-dae3-4a33-823e-664a59ce84fe"},"vehicle_type_id":"4","last_reported":1741695558,"current_range_meters":14000,"station_id":"ce4bhnh2rcd13ifvqgug","pricing_plan_id":"cebpf4jnsgd1na2vs0mg"},{"bike_id":"d4e230d3-2796-44b9-99c1-086141e32430","system_id":"levelo_inurba_marseille","lat":43.26804,"lon":5.40272,"is_reserved":false,"is_disabled":false,"rental_uris":{"android":"levelo://app?vid=d4e230d3-2796-44b9-99c1-086141e32430","ios":"levelo://app?vid=d4e230d3-2796-44b9-99c1-086141e32430"},"vehicle_type_id":"4","last_reported":1741695558,"current_range_meters":14000,"station_id":"ce501612rcd8frsf0b60","pricing_plan_id":"cebpf4jnsgd1na2vs0mg"},{"bike_id":"37e6d503-9d47-4d9d-a3fc-9e83bcf4b4a1","system_id":"levelo_inurba_marseille","lat":43.29304,"lon":5.37448,"is_reserved":false,"is_disabled":false,"rental_uris":{"android":"levelo://app?vid=37e6d503-9d47-4d9d-a3fc-9e83bcf4b4a1","ios":"levelo://app?vid=37e6d503-9d47-4d9d-a3fc-9e83bcf4b4a1"},"vehicle_type_id":"4","last_reported":1741695558,"current_range_meters":14400,"station_id":"ce4bgi12rcd13ifvqb70","pricing_plan_id":"cebpf4jnsgd1na2vs0mg"},{"bike_id":"a3e991cd-2936-493d-9fcb-48f77e04aeb1","system_id":"levelo_inurba_marseille","lat":43.3054,"lon":5.36534,"is_reserved":false,"is_disabled":false,"rental_uris":{"android":"levelo://app?vid=a3e991cd-2936-493d-9fcb-48f77e04aeb1","ios":"levelo://app?vid=a3e991cd-2936-493d-9fcb-48f77e04aeb1"},"vehicle_type_id":"4","last_reported":1741695558,"current_range_meters":14400,"station_id":"ce4bgs12rcd13ifvqcag","pricing_plan_id":"cebpf4jnsgd1na2vs0mg"},{"bike_id":"a268dcbc-ddd2-4b2c-89cc-fbb307910755","system_id":"levelo_inurba_marseille","lat":43.30456,"lon":5.37921,"is_reserved":false,"is_disabled":false,"rental_uris":{"android":"levelo://app?vid=a268dcbc-ddd2-4b2c-89cc-fbb307910755","ios":"levelo://app?vid=a268dcbc-ddd2-4b2c-89cc-fbb307910755"},"vehicle_type_id":"4","last_reported":1741695558,"current_range_meters":14400,"station_id":"ce4bgup2rcd13ifvqcn0","pricing_plan_id":"cebpf4jnsgd1na2vs0mg"},{"bike_id":"8d4071f6-f87f-4534-ba22-1afaef90f9fe","system_id":"levelo_inurba_marseille","lat":43.29575,"lon":5.39976,"is_reserved":false,"is_disabled":false,"rental_uris":{"android":"levelo://app?vid=8d4071f6-f87f-4534-ba22-1afaef90f9fe","ios":"levelo://app?vid=8d4071f6-f87f-4534-ba22-1afaef90f9fe"},"vehicle_type_id":"4","last_reported":1741695558,"current_range_meters":14400,"station_id":"ce4bh312rcd13ifvqdj0","pricing_plan_id":"cebpf4jnsgd1na2vs0mg"},{"bike_id":"0a1847ef-b7e0-4659-b6a6-a86d4826f7c8","system_id":"levelo_inurba_marseille","lat":43.28112,"lon":5.37831,"is_reserved":false,"is_disabled":false,"rental_uris":{"android":"levelo://app?vid=0a1847ef-b7e0-4659-b6a6-a86d4826f7c8","ios":"levelo://app?vid=0a1847ef-b7e0-4659-b6a6-a86d4826f7c8"},"vehicle_type_id":"4","last_reported":1741695558,"current_range_meters":14400,"station_id":"ce4bha12rcd13ifvqee0","pricing_plan_id":"cebpf4jnsgd1na2vs0mg"},{"bike_id":"c1fdf776-5ff6-4f38-96ad-d3bee4a7cebb","system_id":"levelo_inurba_marseille","lat":43.23153,"lon":5.43708,"is_reserved":false,"is_disabled":false,"rental_uris":{"android":"levelo://app?vid=c1fdf776-5ff6-4f38-96ad-d3bee4a7cebb","ios":"levelo://app?vid=c1fdf776-5ff6-4f38-96ad-d3bee4a7cebb"},"vehicle_type_id":"4","last_reported":1741695558,"current_range_meters":14400,"station_id":"ce4bhmp2rcd13ifvqgog","pricing_plan_id":"cebpf4jnsgd1na2vs0mg"},{"bike_id":"5c2aa1ed-67ce-4ac7-a122-1eabfecc0b35","system_id":"levelo_inurba_marseille","lat":43.32099,"lon":5.36774,"is_reserved":false,"is_disabled":false,"rental_uris":{"android":"levelo://app?vid=5c2aa1ed-67ce-4ac7-a122-1eabfecc0b35","ios":"levelo://app?vid=5c2aa1ed-67ce-4ac7-a122-1eabfecc0b35"},"vehicle_type_id":"4","last_reported":1741695558,"current_range_meters":14400,"station_id":"ce4bhrh2rcd13ifvqhug","pricing_plan_id":"cebpf4jnsgd1na2vs0mg"},{"bike_id":"4227f142-720c-4f29-bccf-1e0e1ebee957","system_id":"levelo_inurba_marseille","lat":43.32493,"lon":5.36563,"is_reserved":false,"is_disabled":false,"rental_uris":{"android":"levelo://app?vid=4227f142-720c-4f29-bccf-1e0e1ebee957","ios":"levelo://app?vid=4227f142-720c-4f29-bccf-1e0e1ebee957"},"vehicle_type_id":"4","last_reported":1741695558,"current_range_meters":14400,"station_id":"ce4bhs12rcd13ifvqhvg","pricing_plan_id":"cebpf4jnsgd1na2vs0mg"},{"bike_id":"a5e1c0a0-db07-43b4-9d34-cf2b4cd10c69","system_id":"levelo_inurba_marseille","lat":43.30419,"lon":5.38894,"is_reserved":false,"is_disabled":false,"rental_uris":{"android":"levelo://app?vid=a5e1c0a0-db07-43b4-9d34-cf2b4cd10c69","ios":"levelo://app?vid=a5e1c0a0-db07-43b4-9d34-cf2b4cd10c69"},"vehicle_type_id":"4","last_reported":1741695558,"current_range_meters":14800,"station_id":"ce4bgk12rcd13ifvqbi0","pricing_plan_id":"cebpf4jnsgd1na2vs0mg"},{"bike_id":"262ed5cd-dcd3-4df4-8953-e5f7601271d9","system_id":"levelo_inurba_marseille","lat":43.2697,"lon":5.38608,"is_reserved":false,"is_disabled":false,"rental_uris":{"android":"levelo://app?vid=262ed5cd-dcd3-4df4-8953-e5f7601271d9","ios":"levelo://app?vid=262ed5cd-dcd3-4df4-8953-e5f7601271d9"},"vehicle_type_id":"4","last_reported":1741695558,"current_range_meters":14800,"station_id":"ce4bhh92rcd13ifvqfh0","pricing_plan_id":"cebpf4jnsgd1na2vs0mg"},{"bike_id":"9eee721c-5b08-48db-95ce-dca9dbbb2e98","system_id":"levelo_inurba_marseille","lat":43.317291,"lon":5.405656,"is_reserved":false,"is_disabled":false,"rental_uris":{"android":"levelo://app?vid=9eee721c-5b08-48db-95ce-dca9dbbb2e98","ios":"levelo://app?vid=9eee721c-5b08-48db-95ce-dca9dbbb2e98"},"vehicle_type_id":"4","last_reported":1741695558,"current_range_meters":14800,"station_id":"ce4bhqh2rcd13ifvqhlg","pricing_plan_id":"cebpf4jnsgd1na2vs0mg"},{"bike_id":"4e3ab450-8a07-4dd9-a633-e5bb33e506b2","system_id":"levelo_inurba_marseille","lat":43.29569,"lon":5.3752,"is_reserved":false,"is_disabled":false,"rental_uris":{"android":"levelo://app?vid=4e3ab450-8a07-4dd9-a633-e5bb33e506b2","ios":"levelo://app?vid=4e3ab450-8a07-4dd9-a633-e5bb33e506b2"},"vehicle_type_id":"4","last_reported":1741695558,"current_range_meters":15200,"station_id":"ce4bgh92rcd13ifvqb50","pricing_plan_id":"cebpf4jnsgd1na2vs0mg"},{"bike_id":"90e4636f-5acf-4803-a3ed-f0ba6d29d559","system_id":"levelo_inurba_marseille","lat":43.30456,"lon":5.38883,"is_reserved":false,"is_disabled":false,"rental_uris":{"android":"levelo://app?vid=90e4636f-5acf-4803-a3ed-f0ba6d29d559","ios":"levelo://app?vid=90e4636f-5acf-4803-a3ed-f0ba6d29d559"},"vehicle_type_id":"4","last_reported":1741695558,"current_range_meters":15200,"station_id":"ce4bgk12rcd13ifvqbi0","pricing_plan_id":"cebpf4jnsgd1na2vs0mg"},{"bike_id":"d0a6e9ec-4652-466c-aba2-95bf8d1dfe56","system_id":"levelo_inurba_marseille","lat":43.31225,"lon":5.36867,"is_reserved":false,"is_disabled":false,"rental_uris":{"android":"levelo://app?vid=d0a6e9ec-4652-466c-aba2-95bf8d1dfe56","ios":"levelo://app?vid=d0a6e9ec-4652-466c-aba2-95bf8d1dfe56"},"vehicle_type_id":"4","last_reported":1741695558,"current_range_meters":15200,"station_id":"ce4bgl92rcd13ifvqbq0","pricing_plan_id":"cebpf4jnsgd1na2vs0mg"},{"bike_id":"17b872eb-086c-460e-bcad-782a4a781cf9","system_id":"levelo_inurba_marseille","lat":43.25146,"lon":5.42643,"is_reserved":false,"is_disabled":false,"rental_uris":{"android":"levelo://app?vid=17b872eb-086c-460e-bcad-782a4a781cf9","ios":"levelo://app?vid=17b872eb-086c-460e-bcad-782a4a781cf9"},"vehicle_type_id":"4","last_reported":1741695558,"current_range_meters":16000,"station_id":"","pricing_plan_id":"cebpf4jnsgd1na2vs0mg"},{"bike_id":"c012cb5d-cc6c-48db-8d04-a321ffc6e266","system_id":"levelo_inurba_marseille","lat":43.30546,"lon":5.36708,"is_reserved":false,"is_disabled":false,"rental_uris":{"android":"levelo://app?vid=c012cb5d-cc6c-48db-8d04-a321ffc6e266","ios":"levelo://app?vid=c012cb5d-cc6c-48db-8d04-a321ffc6e266"},"vehicle_type_id":"4","last_reported":1741695558,"current_range_meters":16000,"station_id":"ce4bgrp2rcd13ifvqc9g","pricing_plan_id":"cebpf4jnsgd1na2vs0mg"},{"bike_id":"5b40fcbb-5339-4d09-8622-7ef474631ab1","system_id":"levelo_inurba_marseille","lat":43.30547,"lon":5.36702,"is_reserved":false,"is_disabled":false,"rental_uris":{"android":"levelo://app?vid=5b40fcbb-5339-4d09-8622-7ef474631ab1","ios":"levelo://app?vid=5b40fcbb-5339-4d09-8622-7ef474631ab1"},"vehicle_type_id":"4","last_reported":1741695558,"current_range_meters":16000,"station_id":"ce4bgrp2rcd13ifvqc9g","pricing_plan_id":"cebpf4jnsgd1na2vs0mg"},{"bike_id":"78687f50-8a67-40e6-bc57-3383397bfcc7","system_id":"levelo_inurba_marseille","lat":43.29629,"lon":5.40595,"is_reserved":false,"is_disabled":false,"rental_uris":{"android":"levelo://app?vid=78687f50-8a67-40e6-bc57-3383397bfcc7","ios":"levelo://app?vid=78687f50-8a67-40e6-bc57-3383397bfcc7"},"vehicle_type_id":"4","last_reported":1741695558,"current_range_meters":16000,"station_id":"ce4bh0h2rcd13ifvqd60","pricing_plan_id":"cebpf4jnsgd1na2vs0mg"},{"bike_id":"8e439d6c-4709-4b90-9558-7044571c3619","system_id":"levelo_inurba_marseille","lat":43.2867,"lon":5.38666,"is_reserved":false,"is_disabled":false,"rental_uris":{"android":"levelo://app?vid=8e439d6c-4709-4b90-9558-7044571c3619","ios":"levelo://app?vid=8e439d6c-4709-4b90-9558-7044571c3619"},"vehicle_type_id":"4","last_reported":1741695558,"current_range_meters":16000,"station_id":"ce4bh492rcd13ifvqdug","pricing_plan_id":"cebpf4jnsgd1na2vs0mg"},{"bike_id":"5aa68018-c8d3-4001-93d5-cb797304c92b","system_id":"levelo_inurba_marseille","lat":43.28511,"lon":5.38569,"is_reserved":false,"is_disabled":false,"rental_uris":{"android":"levelo://app?vid=5aa68018-c8d3-4001-93d5-cb797304c92b","ios":"levelo://app?vid=5aa68018-c8d3-4001-93d5-cb797304c92b"},"vehicle_type_id":"4","last_reported":1741695558,"current_range_meters":16000,"station_id":"ce4bh8p2rcd13ifvqeb0","pricing_plan_id":"cebpf4jnsgd1na2vs0mg"},{"bike_id":"21a013da-4b34-4e88-8e76-600cd3ecda3d","system_id":"levelo_inurba_marseille","lat":43.28107,"lon":5.37829,"is_reserved":false,"is_disabled":false,"rental_uris":{"android":"levelo://app?vid=21a013da-4b34-4e88-8e76-600cd3ecda3d","ios":"levelo://app?vid=21a013da-4b34-4e88-8e76-600cd3ecda3d"},"vehicle_type_id":"4","last_reported":1741695558,"current_range_meters":16000,"station_id":"ce4bha12rcd13ifvqee0","pricing_plan_id":"cebpf4jnsgd1na2vs0mg"},{"bike_id":"51772d6c-c0b3-48d9-81cb-ae5466e6f822","system_id":"levelo_inurba_marseille","lat":43.23131,"lon":5.43721,"is_reserved":false,"is_disabled":false,"rental_uris":{"android":"levelo://app?vid=51772d6c-c0b3-48d9-81cb-ae5466e6f822","ios":"levelo://app?vid=51772d6c-c0b3-48d9-81cb-ae5466e6f822"},"vehicle_type_id":"4","last_reported":1741695558,"current_range_meters":16000,"station_id":"ce4bhmp2rcd13ifvqgog","pricing_plan_id":"cebpf4jnsgd1na2vs0mg"},{"bike_id":"803ea8dd-d180-4e7f-8cac-6164ca1b88ff","system_id":"levelo_inurba_marseille","lat":43.27819,"lon":5.40712,"is_reserved":false,"is_disabled":false,"rental_uris":{"android":"levelo://app?vid=803ea8dd-d180-4e7f-8cac-6164ca1b88ff","ios":"levelo://app?vid=803ea8dd-d180-4e7f-8cac-6164ca1b88ff"},"vehicle_type_id":"4","last_reported":1741695558,"current_range_meters":16000,"station_id":"ce4bhnh2rcd13ifvqgtg","pricing_plan_id":"cebpf4jnsgd1na2vs0mg"},{"bike_id":"aac30127-a1e3-4c73-9272-f3afaf1d3a7f","system_id":"levelo_inurba_marseille","lat":43.2412,"lon":5.37781,"is_reserved":false,"is_disabled":false,"rental_uris":{"android":"levelo://app?vid=aac30127-a1e3-4c73-9272-f3afaf1d3a7f","ios":"levelo://app?vid=aac30127-a1e3-4c73-9272-f3afaf1d3a7f"},"vehicle_type_id":"4","last_reported":1741695558,"current_range_meters":16000,"station_id":"ce4bhnp2rcd13ifvqgvg","pricing_plan_id":"cebpf4jnsgd1na2vs0mg"},{"bike_id":"f829a819-671e-4b71-9c22-56c5f8047725","system_id":"levelo_inurba_marseille","lat":43.32348,"lon":5.36742,"is_reserved":false,"is_disabled":false,"rental_uris":{"android":"levelo://app?vid=f829a819-671e-4b71-9c22-56c5f8047725","ios":"levelo://app?vid=f829a819-671e-4b71-9c22-56c5f8047725"},"vehicle_type_id":"4","last_reported":1741695558,"current_range_meters":16000,"station_id":"ce4bhsh2rcd13ifvqi2g","pricing_plan_id":"cebpf4jnsgd1na2vs0mg"},{"bike_id":"03fcef79-f017-4d15-a10d-891c5cd96db2","system_id":"levelo_inurba_marseille","lat":43.230669,"lon":5.354933,"is_reserved":false,"is_disabled":false,"rental_uris":{"android":"levelo://app?vid=03fcef79-f017-4d15-a10d-891c5cd96db2","ios":"levelo://app?vid=03fcef79-f017-4d15-a10d-891c5cd96db2"},"vehicle_type_id":"4","last_reported":1741695558,"current_range_meters":16000,"station_id":"cpo3342slgdg3j2ifvpg","pricing_plan_id":"cebpf4jnsgd1na2vs0mg"},{"bike_id":"28ddcdf4-024a-4f42-80ff-fb3bac3f5f61","system_id":"levelo_inurba_marseille","lat":43.24169,"lon":5.36385,"is_reserved":false,"is_disabled":false,"rental_uris":{"android":"levelo://app?vid=28ddcdf4-024a-4f42-80ff-fb3bac3f5f61","ios":"levelo://app?vid=28ddcdf4-024a-4f42-80ff-fb3bac3f5f61"},"vehicle_type_id":"4","last_reported":1741695558,"current_range_meters":16000,"station_id":"cpo36qri1sfpv3e86is0","pricing_plan_id":"cebpf4jnsgd1na2vs0mg"},{"bike_id":"1a3c4106-0634-49f8-a05b-1dff45cc20b1","system_id":"levelo_inurba_marseille","lat":43.29683,"lon":5.37284,"is_reserved":false,"is_disabled":false,"rental_uris":{"android":"levelo://app?vid=1a3c4106-0634-49f8-a05b-1dff45cc20b1","ios":"levelo://app?vid=1a3c4106-0634-49f8-a05b-1dff45cc20b1"},"vehicle_type_id":"4","last_reported":1741695558,"current_range_meters":16400,"station_id":"ce4bgk12rcd13ifvqbj0","pricing_plan_id":"cebpf4jnsgd1na2vs0mg"},{"bike_id":"d9e9e2ab-40c6-49f5-924e-92afb4b8ff1b","system_id":"levelo_inurba_marseille","lat":43.29968,"lon":5.37169,"is_reserved":false,"is_disabled":false,"rental_uris":{"android":"levelo://app?vid=d9e9e2ab-40c6-49f5-924e-92afb4b8ff1b","ios":"levelo://app?vid=d9e9e2ab-40c6-49f5-924e-92afb4b8ff1b"},"vehicle_type_id":"4","last_reported":1741695558,"current_range_meters":16400,"station_id":"ce4bgr92rcd13ifvqc7g","pricing_plan_id":"cebpf4jnsgd1na2vs0mg"},{"bike_id":"81c0e1ec-e0cb-49fa-b94a-6f6b1c28b3dd","system_id":"levelo_inurba_marseille","lat":43.30137,"lon":5.39876,"is_reserved":false,"is_disabled":false,"rental_uris":{"android":"levelo://app?vid=81c0e1ec-e0cb-49fa-b94a-6f6b1c28b3dd","ios":"levelo://app?vid=81c0e1ec-e0cb-49fa-b94a-6f6b1c28b3dd"},"vehicle_type_id":"4","last_reported":1741695558,"current_range_meters":16400,"station_id":"ce4bh0h2rcd13ifvqd40","pricing_plan_id":"cebpf4jnsgd1na2vs0mg"},{"bike_id":"4f864840-af18-4a00-a857-cc2a34d14dfd","system_id":"levelo_inurba_marseille","lat":43.29268,"lon":5.38449,"is_reserved":false,"is_disabled":false,"rental_uris":{"android":"levelo://app?vid=4f864840-af18-4a00-a857-cc2a34d14dfd","ios":"levelo://app?vid=4f864840-af18-4a00-a857-cc2a34d14dfd"},"vehicle_type_id":"4","last_reported":1741695558,"current_range_meters":16400,"station_id":"ce4bh692rcd13ifvqea0","pricing_plan_id":"cebpf4jnsgd1na2vs0mg"},{"bike_id":"be04fb7b-49e7-491b-ab49-5893cbae4799","system_id":"levelo_inurba_marseille","lat":43.24998,"lon":5.38934,"is_reserved":false,"is_disabled":false,"rental_uris":{"android":"levelo://app?vid=be04fb7b-49e7-491b-ab49-5893cbae4799","ios":"levelo://app?vid=be04fb7b-49e7-491b-ab49-5893cbae4799"},"vehicle_type_id":"4","last_reported":1741695558,"current_range_meters":16400,"station_id":"ce4bhgp2rcd13ifvqfd0","pricing_plan_id":"cebpf4jnsgd1na2vs0mg"},{"bike_id":"2c8ec118-725f-42ab-9ad9-75c9e0deac5b","system_id":"levelo_inurba_marseille","lat":43.26788,"lon":5.39424,"is_reserved":false,"is_disabled":false,"rental_uris":{"android":"levelo://app?vid=2c8ec118-725f-42ab-9ad9-75c9e0deac5b","ios":"levelo://app?vid=2c8ec118-725f-42ab-9ad9-75c9e0deac5b"},"vehicle_type_id":"4","last_reported":1741695558,"current_range_meters":16400,"station_id":"ce4bhh12rcd13ifvqfg0","pricing_plan_id":"cebpf4jnsgd1na2vs0mg"},{"bike_id":"2be53934-8c83-4e5b-9da4-83d4f0cf2e58","system_id":"levelo_inurba_marseille","lat":43.29955,"lon":5.41321,"is_reserved":false,"is_disabled":false,"rental_uris":{"android":"levelo://app?vid=2be53934-8c83-4e5b-9da4-83d4f0cf2e58","ios":"levelo://app?vid=2be53934-8c83-4e5b-9da4-83d4f0cf2e58"},"vehicle_type_id":"4","last_reported":1741695558,"current_range_meters":16400,"station_id":"ce4bhp12rcd13ifvqh9g","pricing_plan_id":"cebpf4jnsgd1na2vs0mg"},{"bike_id":"97a476ec-ebb2-47e9-9d47-3f7832a2c8e6","system_id":"levelo_inurba_marseille","lat":43.29839,"lon":5.36265,"is_reserved":false,"is_disabled":false,"rental_uris":{"android":"levelo://app?vid=97a476ec-ebb2-47e9-9d47-3f7832a2c8e6","ios":"levelo://app?vid=97a476ec-ebb2-47e9-9d47-3f7832a2c8e6"},"vehicle_type_id":"4","last_reported":1741695558,"current_range_meters":16800,"station_id":"ce4bgpp2rcd13ifvqc3g","pricing_plan_id":"cebpf4jnsgd1na2vs0mg"},{"bike_id":"3ed63862-4760-4d54-a66d-6f1d3f4f3f01","system_id":"levelo_inurba_marseille","lat":43.29256,"lon":5.409,"is_reserved":false,"is_disabled":false,"rental_uris":{"android":"levelo://app?vid=3ed63862-4760-4d54-a66d-6f1d3f4f3f01","ios":"levelo://app?vid=3ed63862-4760-4d54-a66d-6f1d3f4f3f01"},"vehicle_type_id":"4","last_reported":1741695558,"current_range_meters":16800,"station_id":"ce4bh192rcd13ifvqdc0","pricing_plan_id":"cebpf4jnsgd1na2vs0mg"},{"bike_id":"4b267abb-42d3-4e68-8cab-eb195e121c04","system_id":"levelo_inurba_marseille","lat":43.28416,"lon":5.374989,"is_reserved":false,"is_disabled":false,"rental_uris":{"android":"levelo://app?vid=4b267abb-42d3-4e68-8cab-eb195e121c04","ios":"levelo://app?vid=4b267abb-42d3-4e68-8cab-eb195e121c04"},"vehicle_type_id":"4","last_reported":1741695558,"current_range_meters":16800,"station_id":"ce4bh9p2rcd13ifvqed0","pricing_plan_id":"cebpf4jnsgd1na2vs0mg"},{"bike_id":"bd61afa9-c73c-4c27-baad-5bbcf752eafb","system_id":"levelo_inurba_marseille","lat":43.26681,"lon":5.3827,"is_reserved":false,"is_disabled":false,"rental_uris":{"android":"levelo://app?vid=bd61afa9-c73c-4c27-baad-5bbcf752eafb","ios":"levelo://app?vid=bd61afa9-c73c-4c27-baad-5bbcf752eafb"},"vehicle_type_id":"4","last_reported":1741695558,"current_range_meters":16800,"station_id":"ce4bhg92rcd13ifvqf90","pricing_plan_id":"cebpf4jnsgd1na2vs0mg"},{"bike_id":"0a995a9a-6122-4f4b-b298-a8b06cbca7e2","system_id":"levelo_inurba_marseille","lat":43.25012,"lon":5.38911,"is_reserved":false,"is_disabled":false,"rental_uris":{"android":"levelo://app?vid=0a995a9a-6122-4f4b-b298-a8b06cbca7e2","ios":"levelo://app?vid=0a995a9a-6122-4f4b-b298-a8b06cbca7e2"},"vehicle_type_id":"4","last_reported":1741695558,"current_range_meters":16800,"station_id":"ce4bhgp2rcd13ifvqfd0","pricing_plan_id":"cebpf4jnsgd1na2vs0mg"},{"bike_id":"f3b197bc-36e4-4968-b987-704264304381","system_id":"levelo_inurba_marseille","lat":43.27066,"lon":5.40246,"is_reserved":false,"is_disabled":false,"rental_uris":{"android":"levelo://app?vid=f3b197bc-36e4-4968-b987-704264304381","ios":"levelo://app?vid=f3b197bc-36e4-4968-b987-704264304381"},"vehicle_type_id":"4","last_reported":1741695558,"current_range_meters":16800,"station_id":"ce4bhk92rcd13ifvqgc0","pricing_plan_id":"cebpf4jnsgd1na2vs0mg"},{"bike_id":"24b4b104-5c89-4fc6-8924-6d1684e13415","system_id":"levelo_inurba_marseille","lat":43.23137,"lon":5.43724,"is_reserved":false,"is_disabled":false,"rental_uris":{"android":"levelo://app?vid=24b4b104-5c89-4fc6-8924-6d1684e13415","ios":"levelo://app?vid=24b4b104-5c89-4fc6-8924-6d1684e13415"},"vehicle_type_id":"4","last_reported":1741695558,"current_range_meters":16800,"station_id":"ce4bhmp2rcd13ifvqgog","pricing_plan_id":"cebpf4jnsgd1na2vs0mg"},{"bike_id":"b44022d5-a3c8-45f9-9984-eaba76929c7b","system_id":"levelo_inurba_marseille","lat":43.27818,"lon":5.40714,"is_reserved":false,"is_disabled":false,"rental_uris":{"android":"levelo://app?vid=b44022d5-a3c8-45f9-9984-eaba76929c7b","ios":"levelo://app?vid=b44022d5-a3c8-45f9-9984-eaba76929c7b"},"vehicle_type_id":"4","last_reported":1741695558,"current_range_meters":16800,"station_id":"ce4bhnh2rcd13ifvqgtg","pricing_plan_id":"cebpf4jnsgd1na2vs0mg"},{"bike_id":"f0118aed-1fc4-4c33-90e9-8d56fe9843d7","system_id":"levelo_inurba_marseille","lat":43.28151,"lon":5.42638,"is_reserved":false,"is_disabled":false,"rental_uris":{"android":"levelo://app?vid=f0118aed-1fc4-4c33-90e9-8d56fe9843d7","ios":"levelo://app?vid=f0118aed-1fc4-4c33-90e9-8d56fe9843d7"},"vehicle_type_id":"4","last_reported":1741695558,"current_range_meters":16800,"station_id":"ce4bhnh2rcd13ifvqgug","pricing_plan_id":"cebpf4jnsgd1na2vs0mg"},{"bike_id":"0e130c23-747d-4350-a164-7f2fcd949fcb","system_id":"levelo_inurba_marseille","lat":43.22937,"lon":5.35372,"is_reserved":false,"is_disabled":false,"rental_uris":{"android":"levelo://app?vid=0e130c23-747d-4350-a164-7f2fcd949fcb","ios":"levelo://app?vid=0e130c23-747d-4350-a164-7f2fcd949fcb"},"vehicle_type_id":"4","last_reported":1741695558,"current_range_meters":16800,"station_id":"cpo3532slgdg3j2ikp40","pricing_plan_id":"cebpf4jnsgd1na2vs0mg"},{"bike_id":"4f23cdcb-4a0c-482b-92b2-ae01477750dd","system_id":"levelo_inurba_marseille","lat":43.29617,"lon":5.37587,"is_reserved":false,"is_disabled":false,"rental_uris":{"android":"levelo://app?vid=4f23cdcb-4a0c-482b-92b2-ae01477750dd","ios":"levelo://app?vid=4f23cdcb-4a0c-482b-92b2-ae01477750dd"},"vehicle_type_id":"4","last_reported":1741695558,"current_range_meters":17200,"station_id":"","pricing_plan_id":"cebpf4jnsgd1na2vs0mg"},{"bike_id":"0373d851-0e68-4e12-aa72-9c00b653dcb5","system_id":"levelo_inurba_marseille","lat":43.314325,"lon":5.376445,"is_reserved":false,"is_disabled":false,"rental_uris":{"android":"levelo://app?vid=0373d851-0e68-4e12-aa72-9c00b653dcb5","ios":"levelo://app?vid=0373d851-0e68-4e12-aa72-9c00b653dcb5"},"vehicle_type_id":"4","last_reported":1741695558,"current_range_meters":17200,"station_id":"","pricing_plan_id":"cebpf4jnsgd1na2vs0mg"},{"bike_id":"1bddbc37-0e00-4efd-b04d-dc4ea5b3009f","system_id":"levelo_inurba_marseille","lat":43.31217,"lon":5.36869,"is_reserved":false,"is_disabled":false,"rental_uris":{"android":"levelo://app?vid=1bddbc37-0e00-4efd-b04d-dc4ea5b3009f","ios":"levelo://app?vid=1bddbc37-0e00-4efd-b04d-dc4ea5b3009f"},"vehicle_type_id":"4","last_reported":1741695558,"current_range_meters":17200,"station_id":"ce4bgl92rcd13ifvqbq0","pricing_plan_id":"cebpf4jnsgd1na2vs0mg"},{"bike_id":"65fe971c-1725-4cc3-9df7-0bb57dc6cbf4","system_id":"levelo_inurba_marseille","lat":43.3089,"lon":5.37188,"is_reserved":false,"is_disabled":false,"rental_uris":{"android":"levelo://app?vid=65fe971c-1725-4cc3-9df7-0bb57dc6cbf4","ios":"levelo://app?vid=65fe971c-1725-4cc3-9df7-0bb57dc6cbf4"},"vehicle_type_id":"4","last_reported":1741695558,"current_range_meters":17200,"station_id":"ce4bguh2rcd13ifvqckg","pricing_plan_id":"cebpf4jnsgd1na2vs0mg"},{"bike_id":"67cfbae0-6839-4434-964a-e83512c80689","system_id":"levelo_inurba_marseille","lat":43.28246,"lon":5.35086,"is_reserved":false,"is_disabled":false,"rental_uris":{"android":"levelo://app?vid=67cfbae0-6839-4434-964a-e83512c80689","ios":"levelo://app?vid=67cfbae0-6839-4434-964a-e83512c80689"},"vehicle_type_id":"4","last_reported":1741695558,"current_range_meters":17200,"station_id":"ce4bhbp2rcd13ifvqerg","pricing_plan_id":"cebpf4jnsgd1na2vs0mg"},{"bike_id":"7de9f880-f538-4802-b9f9-7b23916d9c70","system_id":"levelo_inurba_marseille","lat":43.26566,"lon":5.38999,"is_reserved":false,"is_disabled":false,"rental_uris":{"android":"levelo://app?vid=7de9f880-f538-4802-b9f9-7b23916d9c70","ios":"levelo://app?vid=7de9f880-f538-4802-b9f9-7b23916d9c70"},"vehicle_type_id":"4","last_reported":1741695558,"current_range_meters":17200,"station_id":"ce4bhe12rcd13ifvqf30","pricing_plan_id":"cebpf4jnsgd1na2vs0mg"},{"bike_id":"10f6d00d-cc17-481c-974e-615935f6830b","system_id":"levelo_inurba_marseille","lat":43.25579,"lon":5.38237,"is_reserved":false,"is_disabled":false,"rental_uris":{"android":"levelo://app?vid=10f6d00d-cc17-481c-974e-615935f6830b","ios":"levelo://app?vid=10f6d00d-cc17-481c-974e-615935f6830b"},"vehicle_type_id":"4","last_reported":1741695558,"current_range_meters":17200,"station_id":"ce4bhih2rcd13ifvqfs0","pricing_plan_id":"cebpf4jnsgd1na2vs0mg"},{"bike_id":"ee8e82a7-5b6b-4c9e-a2e6-740bd380c17e","system_id":"levelo_inurba_marseille","lat":43.32487,"lon":5.36576,"is_reserved":false,"is_disabled":false,"rental_uris":{"android":"levelo://app?vid=ee8e82a7-5b6b-4c9e-a2e6-740bd380c17e","ios":"levelo://app?vid=ee8e82a7-5b6b-4c9e-a2e6-740bd380c17e"},"vehicle_type_id":"4","last_reported":1741695558,"current_range_meters":17200,"station_id":"ce4bhs12rcd13ifvqhvg","pricing_plan_id":"cebpf4jnsgd1na2vs0mg"},{"bike_id":"2167c054-9e8b-4b99-9bdf-41f5e2ac86e0","system_id":"levelo_inurba_marseille","lat":43.32489,"lon":5.36552,"is_reserved":false,"is_disabled":false,"rental_uris":{"android":"levelo://app?vid=2167c054-9e8b-4b99-9bdf-41f5e2ac86e0","ios":"levelo://app?vid=2167c054-9e8b-4b99-9bdf-41f5e2ac86e0"},"vehicle_type_id":"4","last_reported":1741695558,"current_range_meters":17200,"station_id":"ce4bhs12rcd13ifvqhvg","pricing_plan_id":"cebpf4jnsgd1na2vs0mg"},{"bike_id":"dde2fbb2-2c86-41c6-a477-392cc352912e","system_id":"levelo_inurba_marseille","lat":43.29304,"lon":5.37441,"is_reserved":false,"is_disabled":false,"rental_uris":{"android":"levelo://app?vid=dde2fbb2-2c86-41c6-a477-392cc352912e","ios":"levelo://app?vid=dde2fbb2-2c86-41c6-a477-392cc352912e"},"vehicle_type_id":"4","last_reported":1741695558,"current_range_meters":17600,"station_id":"ce4bgi12rcd13ifvqb70","pricing_plan_id":"cebpf4jnsgd1na2vs0mg"},{"bike_id":"c4250e82-8c81-4e44-ba6b-37b6bdb4676e","system_id":"levelo_inurba_marseille","lat":43.30539,"lon":5.3669,"is_reserved":false,"is_disabled":false,"rental_uris":{"android":"levelo://app?vid=c4250e82-8c81-4e44-ba6b-37b6bdb4676e","ios":"levelo://app?vid=c4250e82-8c81-4e44-ba6b-37b6bdb4676e"},"vehicle_type_id":"4","last_reported":1741695558,"current_range_meters":17600,"station_id":"ce4bgrp2rcd13ifvqc9g","pricing_plan_id":"cebpf4jnsgd1na2vs0mg"},{"bike_id":"416beafc-1b3e-49c4-ba5a-30424920fe65","system_id":"levelo_inurba_marseille","lat":43.30636,"lon":5.40096,"is_reserved":false,"is_disabled":false,"rental_uris":{"android":"levelo://app?vid=416beafc-1b3e-49c4-ba5a-30424920fe65","ios":"levelo://app?vid=416beafc-1b3e-49c4-ba5a-30424920fe65"},"vehicle_type_id":"4","last_reported":1741695558,"current_range_meters":17600,"station_id":"ce4bh112rcd13ifvqda0","pricing_plan_id":"cebpf4jnsgd1na2vs0mg"},{"bike_id":"96114f57-f074-443d-9ee4-282b0360c01e","system_id":"levelo_inurba_marseille","lat":43.28722,"lon":5.37929,"is_reserved":false,"is_disabled":false,"rental_uris":{"android":"levelo://app?vid=96114f57-f074-443d-9ee4-282b0360c01e","ios":"levelo://app?vid=96114f57-f074-443d-9ee4-282b0360c01e"},"vehicle_type_id":"4","last_reported":1741695558,"current_range_meters":17600,"station_id":"ce4bh9p2rcd13ifvqec0","pricing_plan_id":"cebpf4jnsgd1na2vs0mg"},{"bike_id":"75a77a0a-1b85-4dd3-a8c8-8848bbf371dc","system_id":"levelo_inurba_marseille","lat":43.29043,"lon":5.35901,"is_reserved":false,"is_disabled":false,"rental_uris":{"android":"levelo://app?vid=75a77a0a-1b85-4dd3-a8c8-8848bbf371dc","ios":"levelo://app?vid=75a77a0a-1b85-4dd3-a8c8-8848bbf371dc"},"vehicle_type_id":"4","last_reported":1741695558,"current_range_meters":17600,"station_id":"ce4bha92rcd13ifvqeg0","pricing_plan_id":"cebpf4jnsgd1na2vs0mg"},{"bike_id":"f5408d3e-3158-406a-984c-4b1a67063978","system_id":"levelo_inurba_marseille","lat":43.27206,"lon":5.39185,"is_reserved":false,"is_disabled":false,"rental_uris":{"android":"levelo://app?vid=f5408d3e-3158-406a-984c-4b1a67063978","ios":"levelo://app?vid=f5408d3e-3158-406a-984c-4b1a67063978"},"vehicle_type_id":"4","last_reported":1741695558,"current_range_meters":17600,"station_id":"ce4bhhp2rcd13ifvqfm0","pricing_plan_id":"cebpf4jnsgd1na2vs0mg"},{"bike_id":"ab133eb8-7645-481b-8d68-7b7e97d89317","system_id":"levelo_inurba_marseille","lat":43.23175,"lon":5.39985,"is_reserved":false,"is_disabled":false,"rental_uris":{"android":"levelo://app?vid=ab133eb8-7645-481b-8d68-7b7e97d89317","ios":"levelo://app?vid=ab133eb8-7645-481b-8d68-7b7e97d89317"},"vehicle_type_id":"4","last_reported":1741695558,"current_range_meters":17600,"station_id":"ce4bhn12rcd13ifvqgqg","pricing_plan_id":"cebpf4jnsgd1na2vs0mg"},{"bike_id":"bd202ccc-72fa-4d79-865c-dfee77871377","system_id":"levelo_inurba_marseille","lat":43.32654,"lon":5.40989,"is_reserved":false,"is_disabled":false,"rental_uris":{"android":"levelo://app?vid=bd202ccc-72fa-4d79-865c-dfee77871377","ios":"levelo://app?vid=bd202ccc-72fa-4d79-865c-dfee77871377"},"vehicle_type_id":"4","last_reported":1741695558,"current_range_meters":17600,"station_id":"ce4bhpp2rcd13ifvqhgg","pricing_plan_id":"cebpf4jnsgd1na2vs0mg"},