{"last_updated":1719140749,"ttl":30,"version":"2.2","data":{"bikes":[{"bike_id":"26e42d48-9c3a-4ec9-a43c-c996eec08642","system_id":"levelo_inurba_marseille","lat":43.309076,"lon":5.368465,"is_reserved":false,"is_disabled":false,"rental_uris":{"android":"levelo://app?vid=26e42d48-9c3a-4ec9-a43c-c996eec08642","ios":"levelo://app?vid=26e42d48-9c3a-4ec9-a43c-c996eec08642"},"vehicle_type_id":"4","last_reported":1719140749,"current_range_meters":20800,"station_id":"ce4bgn92rcd13ifvqbvg","pricing_plan_id":"cebpf4jnsgd1na2vs0mg"},{"bike_id":"3049f0aa-a68f-43b5-9b7f-5b9a2a5c7b37","system_id":"levelo_inurba_marseille","lat":43.314811,"lon":5.373103,"is_reserved":false,"is_disabled":false,"rental_uris":{"android":"levelo://app?vid=3049f0aa-a68f-43b5-9b7f-5b9a2a5c7b37","ios":"levelo://app?vid=3049f0aa-a68f-43b5-9b7f-5b9a2a5c7b37"},"vehicle_type_id":"4","last_reported":1719140749,"current_range_meters":30800,"station_id":"ce4bgt12rcd13ifvqcd0","pricing_plan_id":"cebpf4jnsgd1na2vs0mg"},{"bike_id":"61eb1055-856c-40f9-85e0-9309d26cfbbc","system_id":"levelo_inurba_marseille","lat":43.31756,"lon":5.36852,"is_reserved":false,"is_disabled":false,"rental_uris":{"android":"levelo://app?vid=61eb1055-856c-40f9-85e0-9309d26cfbbc","ios":"levelo://app?vid=61eb1055-856c-40f9-85e0-9309d26cfbbc"},"vehicle_type_id":"4","last_reported":1719140749,"current_range_meters":400,"station_id":"","pricing_plan_id":"cebpf4jnsgd1na2vs0mg"},{"bike_id":"20f31c62-307b-4c16-93b6-6fcc5accd677","system_id":"levelo_inurba_marseille","lat":43.31458,"lon":5.373641,"is_reserved":false,"is_disabled":false,"rental_uris":{"android":"levelo://app?vid=20f31c62-307b-4c16-93b6-6fcc5accd677","ios":"levelo://app?vid=20f31c62-307b-4c16-93b6-6fcc5accd677"},"vehicle_type_id":"4","last_reported":1719140749,"current_range_meters":12800,"station_id":"","pricing_plan_id":"cebpf4jnsgd1na2vs0mg"},{"bike_id":"3e6229a9-daa1-4e8e-b7ec-60b28f97252f","system_id":"levelo_inurba_marseille","lat":43.31453,"lon":5.37367,"is_reserved":false,"is_disabled":false,"rental_uris":{"android":"levelo://app?vid=3e6229a9-daa1-4e8e-b7ec-60b28f97252f","ios":"levelo://app?vid=3e6229a9-daa1-4e8e-b7ec-60b28f97252f"},"vehicle_type_id":"4","last_reported":1719140749,"current_range_meters":1600,"station_id":"","pricing_plan_id":"cebpf4jnsgd1na2vs0mg"},{"bike_id":"24d509b5-ef37-465b-b8cc-6a71986a5c4f","system_id":"levelo_inurba_marseille","lat":43.314613,"lon":5.373693,"is_reserved":false,"is_disabled":false,"rental_uris":{"android":"levelo://app?vid=24d509b5-ef37-465b-b8cc-6a71986a5c4f","ios":"levelo://app?vid=24d509b5-ef37-465b-b8cc-6a71986a5c4f"},"vehicle_type_id":"4","last_reported":1719140749,"current_range_meters":23200,"station_id":"","pricing_plan_id":"cebpf4jnsgd1na2vs0mg"},{"bike_id":"77460ccb-960a-4153-8783-e0a172f31a95","system_id":"levelo_inurba_marseille","lat":43.314623,"lon":5.373797,"is_reserved":false,"is_disabled":false,"rental_uris":{"android":"levelo://app?vid=77460ccb-960a-4153-8783-e0a172f31a95","ios":"levelo://app?vid=77460ccb-960a-4153-8783-e0a172f31a95"},"vehicle_type_id":"4","last_reported":1719140749,"current_range_meters":6000,"station_id":"","pricing_plan_id":"cebpf4jnsgd1na2vs0mg"},{"bike_id":"8c64e005-716d-4d28-aeaf-86b2b488336d","system_id":"levelo_inurba_marseille","lat":43.30537,"lon":5.367345,"is_reserved":false,"is_disabled":false,"rental_uris":{"android":"levelo://app?vid=8c64e005-716d-4d28-aeaf-86b2b488336d","ios":"levelo://app?vid=8c64e005-716d-4d28-aeaf-86b2b488336d"},"vehicle_type_id":"4","last_reported":1719140749,"current_range_meters":30400,"station_id":"ce4bgrp2rcd13ifvqc9g","pricing_plan_id":"cebpf4jnsgd1na2vs0mg"},{"bike_id":"f7d5cead-5981-4935-885e-5ae0c1abfadb","system_id":"levelo_inurba_marseille","lat":43.305712,"lon":5.365641,"is_reserved":false,"is_disabled":false,"rental_uris":{"android":"levelo://app?vid=f7d5cead-5981-4935-885e-5ae0c1abfadb","ios":"levelo://app?vid=f7d5cead-5981-4935-885e-5ae0c1abfadb"},"vehicle_type_id":"4","last_reported":1719140749,"current_range_meters":15600,"station_id":"ce4bgs12rcd13ifvqcag","pricing_plan_id":"cebpf4jnsgd1na2vs0mg"},{"bike_id":"77abb5d4-7a98-494e-b410-3fbae5efb918","system_id":"levelo_inurba_marseille","lat":43.305714,"lon":5.365633,"is_reserved":false,"is_disabled":false,"rental_uris":{"android":"levelo://app?vid=77abb5d4-7a98-494e-b410-3fbae5efb918","ios":"levelo://app?vid=77abb5d4-7a98-494e-b410-3fbae5efb918"},"vehicle_type_id":"4","last_reported":1719140749,"current_range_meters":13200,"station_id":"ce4bgs12rcd13ifvqcag","pricing_plan_id":"cebpf4jnsgd1na2vs0mg"},{"bike_id":"e029f6c0-f0bd-4548-bbde-8941f29a48e2","system_id":"levelo_inurba_marseille","lat":43.305714,"lon":5.365633,"is_reserved":false,"is_disabled":false,"rental_uris":{"android":"levelo://app?vid=e029f6c0-f0bd-4548-bbde-8941f29a48e2","ios":"levelo://app?vid=e029f6c0-f0bd-4548-bbde-8941f29a48e2"},"vehicle_type_id":"4","last_reported":1719140749,"current_range_meters":24800,"station_id":"ce4bgs12rcd13ifvqcag","pricing_plan_id":"cebpf4jnsgd1na2vs0mg"},{"bike_id":"a43e7e1e-e283-47ba-bb74-77104a25b45c","system_id":"levelo_inurba_marseille","lat":43.30532,"lon":5.36661,"is_reserved":false,"is_disabled":false,"rental_uris":{"android":"levelo://app?vid=a43e7e1e-e283-47ba-bb74-77104a25b45c","ios":"levelo://app?vid=a43e7e1e-e283-47ba-bb74-77104a25b45c"},"vehicle_type_id":"4","last_reported":1719140749,"current_range_meters":18800,"station_id":"","pricing_plan_id":"cebpf4jnsgd1na2vs0mg"},{"bike_id":"5391e7d1-3033-4fbe-8e5c-6b2143fb4cd2","system_id":"levelo_inurba_marseille","lat":43.305714,"lon":5.365633,"is_reserved":false,"is_disabled":false,"rental_uris":{"android":"levelo://app?vid=5391e7d1-3033-4fbe-8e5c-6b2143fb4cd2","ios":"levelo://app?vid=5391e7d1-3033-4fbe-8e5c-6b2143fb4cd2"},"vehicle_type_id":"4","last_reported":1719140749,"current_range_meters":30000,"station_id":"ce4bgs12rcd13ifvqcag","pricing_plan_id":"cebpf4jnsgd1na2vs0mg"},{"bike_id":"d1d7b2b1-5c30-45d4-9d80-54c0b554cb03","system_id":"levelo_inurba_marseille","lat":43.305706,"lon":5.365654,"is_reserved":false,"is_disabled":false,"rental_uris":{"android":"levelo://app?vid=d1d7b2b1-5c30-45d4-9d80-54c0b554cb03","ios":"levelo://app?vid=d1d7b2b1-5c30-45d4-9d80-54c0b554cb03"},"vehicle_type_id":"4","last_reported":1719140749,"current_range_meters":6800,"station_id":"ce4bgs12rcd13ifvqcag","pricing_plan_id":"cebpf4jnsgd1na2vs0mg"},{"bike_id":"0554d329-a7d3-4a6e-ae90-8bf2551b5d72","system_id":"levelo_inurba_marseille","lat":43.305714,"lon":5.365633,"is_reserved":false,"is_disabled":false,"rental_uris":{"android":"levelo://app?vid=0554d329-a7d3-4a6e-ae90-8bf2551b5d72","ios":"levelo://app?vid=0554d329-a7d3-4a6e-ae90-8bf2551b5d72"},"vehicle_type_id":"4","last_reported":1719140749,"current_range_meters":22400,"station_id":"ce4bgs12rcd13ifvqcag","pricing_plan_id":"cebpf4jnsgd1na2vs0mg"},{"bike_id":"ef33159f-c1a3-4ff3-ac1d-02da80aceebd","system_id":"levelo_inurba_marseille","lat":43.305989,"lon":5.37225,"is_reserved":false,"is_disabled":false,"rental_uris":{"android":"levelo://app?vid=ef33159f-c1a3-4ff3-ac1d-02da80aceebd","ios":"levelo://app?vid=ef33159f-c1a3-4ff3-ac1d-02da80aceebd"},"vehicle_type_id":"4","last_reported":1719140749,"current_range_meters":5600,"station_id":"ce4bgqh2rcd13ifvqc4g","pricing_plan_id":"cebpf4jnsgd1na2vs0mg"},{"bike_id":"d1d4ca09-8bc4-480a-a69e-5df0524f0d22","system_id":"levelo_inurba_marseille","lat":43.31902,"lon":5.37347,"is_reserved":false,"is_disabled":false,"rental_uris":{"android":"levelo://app?vid=d1d4ca09-8bc4-480a-a69e-5df0524f0d22","ios":"levelo://app?vid=d1d4ca09-8bc4-480a-a69e-5df0524f0d22"},"vehicle_type_id":"4","last_reported":1719140749,"current_range_meters":12400,"station_id":"","pricing_plan_id":"cebpf4jnsgd1na2vs0mg"},{"bike_id":"36eac3b1-0efe-4bdf-80fa-aaa634039895","system_id":"levelo_inurba_marseille","lat":43.311131,"lon":5.377651,"is_reserved":false,"is_disabled":false,"rental_uris":{"android":"levelo://app?vid=36eac3b1-0efe-4bdf-80fa-aaa634039895","ios":"levelo://app?vid=36eac3b1-0efe-4bdf-80fa-aaa634039895"},"vehicle_type_id":"4","last_reported":1719140749,"current_range_meters":5200,"station_id":"ce4bgt92rcd13ifvqcg0","pricing_plan_id":"cebpf4jnsgd1na2vs0mg"},{"bike_id":"2fcecd20-15cd-4749-a390-6f6b397e0de8","system_id":"levelo_inurba_marseille","lat":43.320821,"lon":5.371423,"is_reserved":false,"is_disabled":false,"rental_uris":{"android":"levelo://app?vid=2fcecd20-15cd-4749-a390-6f6b397e0de8","ios":"levelo://app?vid=2fcecd20-15cd-4749-a390-6f6b397e0de8"},"vehicle_type_id":"4","last_reported":1719140749,"current_range_meters":18400,"station_id":"","pricing_plan_id":"cebpf4jnsgd1na2vs0mg"},{"bike_id":"2fcc5420-8118-427c-b341-684f85c5fb02","system_id":"levelo_inurba_marseille","lat":43.303046,"lon":5.368981,"is_reserved":false,"is_disabled":false,"rental_uris":{"android":"levelo://app?vid=2fcc5420-8118-427c-b341-684f85c5fb02","ios":"levelo://app?vid=2fcc5420-8118-427c-b341-684f85c5fb02"},"vehicle_type_id":"4","last_reported":1719140749,"current_range_meters":20000,"station_id":"ce4bgqh2rcd13ifvqc5g","pricing_plan_id":"cebpf4jnsgd1na2vs0mg"},{"bike_id":"8731a2b8-a1d5-4fef-a6dd-f2905739695a","system_id":"levelo_inurba_marseille","lat":43.30304,"lon":5.368987,"is_reserved":false,"is_disabled":false,"rental_uris":{"android":"levelo://app?vid=8731a2b8-a1d5-4fef-a6dd-f2905739695a","ios":"levelo://app?vid=8731a2b8-a1d5-4fef-a6dd-f2905739695a"},"vehicle_type_id":"4","last_reported":1719140749,"current_range_meters":30000,"station_id":"ce4bgqh2rcd13ifvqc5g","pricing_plan_id":"cebpf4jnsgd1na2vs0mg"},{"bike_id":"9ddb810a-f78e-4f74-9cac-90e1e032df72","system_id":"levelo_inurba_marseille","lat":43.303046,"lon":5.368981,"is_reserved":false,"is_disabled":false,"rental_uris":{"android":"levelo://app?vid=9ddb810a-f78e-4f74-9cac-90e1e032df72","ios":"levelo://app?vid=9ddb810a-f78e-4f74-9cac-90e1e032df72"},"vehicle_type_id":"4","last_reported":1719140749,"current_range_meters":6400,"station_id":"ce4bgqh2rcd13ifvqc5g","pricing_plan_id":"cebpf4jnsgd1na2vs0mg"},{"bike_id":"5b8007bb-0dd8-4352-b213-d088b8c4b4e0","system_id":"levelo_inurba_marseille","lat":43.315513,"lon":5.380097,"is_reserved":false,"is_disabled":false,"rental_uris":{"android":"levelo://app?vid=5b8007bb-0dd8-4352-b213-d088b8c4b4e0","ios":"levelo://app?vid=5b8007bb-0dd8-4352-b213-d088b8c4b4e0"},"vehicle_type_id":"4","last_reported":1719140749,"current_range_meters":5200,"station_id":"ce4bhsp2rcd13ifvqi50","pricing_plan_id":"cebpf4jnsgd1na2vs0mg"},{"bike_id":"1aa9382d-bd55-4aff-8971-b23615fccdae","system_id":"levelo_inurba_marseille","lat":43.311,"lon":5.38145,"is_reserved":false,"is_disabled":false,"rental_uris":{"android":"levelo://app?vid=1aa9382d-bd55-4aff-8971-b23615fccdae","ios":"levelo://app?vid=1aa9382d-bd55-4aff-8971-b23615fccdae"},"vehicle_type_id":"4","last_reported":1719140749,"current_range_meters":2000,"station_id":"","pricing_plan_id":"cebpf4jnsgd1na2vs0mg"},{"bike_id":"c8d74784-cfa3-4dc0-a55e-c53d6b6b7590","system_id":"levelo_inurba_marseille","lat":43.31294,"lon":5.38177,"is_reserved":false,"is_disabled":false,"rental_uris":{"android":"levelo://app?vid=c8d74784-cfa3-4dc0-a55e-c53d6b6b7590","ios":"levelo://app?vid=c8d74784-cfa3-4dc0-a55e-c53d6b6b7590"},"vehicle_type_id":"4","last_reported":1719140749,"current_range_meters":18000,"station_id":"","pricing_plan_id":"cebpf4jnsgd1na2vs0mg"},{"bike_id":"5e6c6f58-41cc-4ffb-80b5-6a21b0321090","system_id":"levelo_inurba_marseille","lat":43.301939,"lon":5.366286,"is_reserved":false,"is_disabled":false,"rental_uris":{"android":"levelo://app?vid=5e6c6f58-41cc-4ffb-80b5-6a21b0321090","ios":"levelo://app?vid=5e6c6f58-41cc-4ffb-80b5-6a21b0321090"},"vehicle_type_id":"4","last_reported":1719140749,"current_range_meters":22800,"station_id":"ce4bgrh2rcd13ifvqc8g","pricing_plan_id":"cebpf4jnsgd1na2vs0mg"},{"bike_id":"f4a147d6-a933-44f1-b496-8191b1c115dd","system_id":"levelo_inurba_marseille","lat":43.308012,"lon":5.381511,"is_reserved":false,"is_disabled":false,"rental_uris":{"android":"levelo://app?vid=f4a147d6-a933-44f1-b496-8191b1c115dd","ios":"levelo://app?vid=f4a147d6-a933-44f1-b496-8191b1c115dd"},"vehicle_type_id":"4","last_reported":1719140749,"current_range_meters":29200,"station_id":"ce4bgt12rcd13ifvqce0","pricing_plan_id":"cebpf4jnsgd1na2vs0mg"},{"bike_id":"1eaa03c8-0241-43d5-add2-015acd1e0fbf","system_id":"levelo_inurba_marseille","lat":43.31297,"lon":5.38317,"is_reserved":false,"is_disabled":false,"rental_uris":{"android":"levelo://app?vid=1eaa03c8-0241-43d5-add2-015acd1e0fbf","ios":"levelo://app?vid=1eaa03c8-0241-43d5-add2-015acd1e0fbf"},"vehicle_type_id":"4","last_reported":1719140749,"current_range_meters":24400,"station_id":"","pricing_plan_id":"cebpf4jnsgd1na2vs0mg"},{"bike_id":"85824163-7de5-4bff-b4d1-c55e58cfc685","system_id":"levelo_inurba_marseille","lat":43.324771,"lon":5.36557,"is_reserved":false,"is_disabled":false,"rental_uris":{"android":"levelo://app?vid=85824163-7de5-4bff-b4d1-c55e58cfc685","ios":"levelo://app?vid=85824163-7de5-4bff-b4d1-c55e58cfc685"},"vehicle_type_id":"4","last_reported":1719140749,"current_range_meters":17200,"station_id":"ce4bhs12rcd13ifvqhvg","pricing_plan_id":"cebpf4jnsgd1na2vs0mg"},{"bike_id":"e3bdd770-0a5c-4444-8425-2fc432e50efe","system_id":"levelo_inurba_marseille","lat":43.319935,"lon":5.381699,"is_reserved":false,"is_disabled":false,"rental_uris":{"android":"levelo://app?vid=e3bdd770-0a5c-4444-8425-2fc432e50efe","ios":"levelo://app?vid=e3bdd770-0a5c-4444-8425-2fc432e50efe"},"vehicle_type_id":"4","last_reported":1719140749,"current_range_meters":0,"station_id":"ce4bhr12rcd13ifvqhpg","pricing_plan_id":"cebpf4jnsgd1na2vs0mg"},{"bike_id":"c317a959-28de-4240-8af8-3d97f3d5a44f","system_id":"levelo_inurba_marseille","lat":43.31993,"lon":5.38147,"is_reserved":false,"is_disabled":false,"rental_uris":{"android":"levelo://app?vid=c317a959-28de-4240-8af8-3d97f3d5a44f","ios":"levelo://app?vid=c317a959-28de-4240-8af8-3d97f3d5a44f"},"vehicle_type_id":"4","last_reported":1719140749,"current_range_meters":15200,"station_id":"ce4bhr12rcd13ifvqhpg","pricing_plan_id":"cebpf4jnsgd1na2vs0mg"},{"bike_id":"cefe9064-7d05-4b92-87b0-7b4484fc3c23","system_id":"levelo_inurba_marseille","lat":43.319935,"lon":5.381699,"is_reserved":false,"is_disabled":false,"rental_uris":{"android":"levelo://app?vid=cefe9064-7d05-4b92-87b0-7b4484fc3c23","ios":"levelo://app?vid=cefe9064-7d05-4b92-87b0-7b4484fc3c23"},"vehicle_type_id":"4","last_reported":1719140749,"current_range_meters":14800,"station_id":"ce4bhr12rcd13ifvqhpg","pricing_plan_id":"cebpf4jnsgd1na2vs0mg"},{"bike_id":"206b24a4-c48a-4c53-a132-8312e88aec3b","system_id":"levelo_inurba_marseille","lat":43.319935,"lon":5.381699,"is_reserved":false,"is_disabled":false,"rental_uris":{"android":"levelo://app?vid=206b24a4-c48a-4c53-a132-8312e88aec3b","ios":"levelo://app?vid=206b24a4-c48a-4c53-a132-8312e88aec3b"},"vehicle_type_id":"4","last_reported":1719140749,"current_range_meters":24800,"station_id":"ce4bhr12rcd13ifvqhpg","pricing_plan_id":"cebpf4jnsgd1na2vs0mg"},{"bike_id":"c8850ad8-a125-48ba-8116-3150706a7ea2","system_id":"levelo_inurba_marseille","lat":43.313571,"lon":5.384829,"is_reserved":false,"is_disabled":false,"rental_uris":{"android":"levelo://app?vid=c8850ad8-a125-48ba-8116-3150706a7ea2","ios":"levelo://app?vid=c8850ad8-a125-48ba-8116-3150706a7ea2"},"vehicle_type_id":"4","last_reported":1719140749,"current_range_meters":0,"station_id":"ce4bgt92rcd13ifvqcf0","pricing_plan_id":"cebpf4jnsgd1na2vs0mg"},{"bike_id":"40ffe1e5-eff1-4467-b909-1ded7f99ea1d","system_id":"levelo_inurba_marseille","lat":43.313571,"lon":5.384829,"is_reserved":false,"is_disabled":false,"rental_uris":{"android":"levelo://app?vid=40ffe1e5-eff1-4467-b909-1ded7f99ea1d","ios":"levelo://app?vid=40ffe1e5-eff1-4467-b909-1ded7f99ea1d"},"vehicle_type_id":"4","last_reported":1719140749,"current_range_meters":18800,"station_id":"ce4bgt92rcd13ifvqcf0","pricing_plan_id":"cebpf4jnsgd1na2vs0mg"},{"bike_id":"e9350be2-6ac4-4841-b1b8-c13ad5062e1a","system_id":"levelo_inurba_marseille","lat":43.29973,"lon":5.37174,"is_reserved":false,"is_disabled":false,"rental_uris":{"android":"levelo://app?vid=e9350be2-6ac4-4841-b1b8-c13ad5062e1a","ios":"levelo://app?vid=e9350be2-6ac4-4841-b1b8-c13ad5062e1a"},"vehicle_type_id":"4","last_reported":1719140749,"current_range_meters":5600,"station_id":"ce4bgr92rcd13ifvqc7g","pricing_plan_id":"cebpf4jnsgd1na2vs0mg"},{"bike_id":"d7448c4d-4cd9-4305-9970-961726231d97","system_id":"levelo_inurba_marseille","lat":43.298433,"lon":5.362774,"is_reserved":false,"is_disabled":false,"rental_uris":{"android":"levelo://app?vid=d7448c4d-4cd9-4305-9970-961726231d97","ios":"levelo://app?vid=d7448c4d-4cd9-4305-9970-961726231d97"},"vehicle_type_id":"4","last_reported":1719140749,"current_range_meters":6400,"station_id":"ce4bgpp2rcd13ifvqc3g","pricing_plan_id":"cebpf4jnsgd1na2vs0mg"},{"bike_id":"765aade6-664f-4763-90b9-2231a01750c9","system_id":"levelo_inurba_marseille","lat":43.311722,"lon":5.387247,"is_reserved":false,"is_disabled":false,"rental_uris":{"android":"levelo://app?vid=765aade6-664f-4763-90b9-2231a01750c9","ios":"levelo://app?vid=765aade6-664f-4763-90b9-2231a01750c9"},"vehicle_type_id":"4","last_reported":1719140749,"current_range_meters":8800,"station_id":"ce4bgv12rcd13ifvqcp0","pricing_plan_id":"cebpf4jnsgd1na2vs0mg"},{"bike_id":"78bec700-b11f-485d-b3e2-12b76fc4fbb9","system_id":"levelo_inurba_marseille","lat":43.297774,"lon":5.370875,"is_reserved":false,"is_disabled":false,"rental_uris":{"android":"levelo://app?vid=78bec700-b11f-485d-b3e2-12b76fc4fbb9","ios":"levelo://app?vid=78bec700-b11f-485d-b3e2-12b76fc4fbb9"},"vehicle_type_id":"4","last_reported":1719140749,"current_range_meters":24800,"station_id":"ce4bgop2rcd13ifvqc1g","pricing_plan_id":"cebpf4jnsgd1na2vs0mg"},{"bike_id":"0268fcef-449c-4278-ad86-32eaeb932c24","system_id":"levelo_inurba_marseille","lat":43.297794,"lon":5.370888,"is_reserved":false,"is_disabled":false,"rental_uris":{"android":"levelo://app?vid=0268fcef-449c-4278-ad86-32eaeb932c24","ios":"levelo://app?vid=0268fcef-449c-4278-ad86-32eaeb932c24"},"vehicle_type_id":"4","last_reported":1719140749,"current_range_meters":26800,"station_id":"ce4bgop2rcd13ifvqc1g","pricing_plan_id":"cebpf4jnsgd1na2vs0mg"},{"bike_id":"8194fd9a-9aa8-4812-a8b4-1fd34f643f17","system_id":"levelo_inurba_marseille","lat":43.32292,"lon":5.38263,"is_reserved":false,"is_disabled":false,"rental_uris":{"android":"levelo://app?vid=8194fd9a-9aa8-4812-a8b4-1fd34f643f17","ios":"levelo://app?vid=8194fd9a-9aa8-4812-a8b4-1fd34f643f17"},"vehicle_type_id":"4","last_reported":1719140749,"current_range_meters":27200,"station_id":"ce4bhr12rcd13ifvqhqg","pricing_plan_id":"cebpf4jnsgd1na2vs0mg"},{"bike_id":"8be10d32-00e7-4e5e-8f4c-584f3edd3f96","system_id":"levelo_inurba_marseille","lat":43.322872,"lon":5.382756,"is_reserved":false,"is_disabled":false,"rental_uris":{"android":"levelo://app?vid=8be10d32-00e7-4e5e-8f4c-584f3edd3f96","ios":"levelo://app?vid=8be10d32-00e7-4e5e-8f4c-584f3edd3f96"},"vehicle_type_id":"4","last_reported":1719140749,"current_range_meters":8400,"station_id":"ce4bhr12rcd13ifvqhqg","pricing_plan_id":"cebpf4jnsgd1na2vs0mg"},{"bike_id":"4aba6f14-868b-46d1-9dae-c655a7457a26","system_id":"levelo_inurba_marseille","lat":43.322872,"lon":5.382756,"is_reserved":false,"is_disabled":false,"rental_uris":{"android":"levelo://app?vid=4aba6f14-868b-46d1-9dae-c655a7457a26","ios":"levelo://app?vid=4aba6f14-868b-46d1-9dae-c655a7457a26"},"vehicle_type_id":"4","last_reported":1719140749,"current_range_meters":31200,"station_id":"ce4bhr12rcd13ifvqhqg","pricing_plan_id":"cebpf4jnsgd1na2vs0mg"},{"bike_id":"72688683-8fff-46b5-8b29-195e7b59a89b","system_id":"levelo_inurba_marseille","lat":43.29706,"lon":5.3661,"is_reserved":false,"is_disabled":false,"rental_uris":{"android":"levelo://app?vid=72688683-8fff-46b5-8b29-195e7b59a89b","ios":"levelo://app?vid=72688683-8fff-46b5-8b29-195e7b59a89b"},"vehicle_type_id":"4","last_reported":1719140749,"current_range_meters":22800,"station_id":"ce4bgn12rcd13ifvqbt0","pricing_plan_id":"cebpf4jnsgd1na2vs0mg"},{"bike_id":"82996642-921e-4193-afb9-d0f8190d5097","system_id":"levelo_inurba_marseille","lat":43.296131,"lon":5.370773,"is_reserved":false,"is_disabled":false,"rental_uris":{"android":"levelo://app?vid=82996642-921e-4193-afb9-d0f8190d5097","ios":"levelo://app?vid=82996642-921e-4193-afb9-d0f8190d5097"},"vehicle_type_id":"4","last_reported":1719140749,"current_range_meters":30800,"station_id":"ce4bgnh2rcd13ifvqc0g","pricing_plan_id":"cebpf4jnsgd1na2vs0mg"},{"bike_id":"a5a1a228-4b46-4d03-bd46-931a21301746","system_id":"levelo_inurba_marseille","lat":43.29621,"lon":5.37159,"is_reserved":false,"is_disabled":false,"rental_uris":{"android":"levelo://app?vid=a5a1a228-4b46-4d03-bd46-931a21301746","ios":"levelo://app?vid=a5a1a228-4b46-4d03-bd46-931a21301746"},"vehicle_type_id":"4","last_reported":1719140749,"current_range_meters":0,"station_id":"ce4bgnh2rcd13ifvqc0g","pricing_plan_id":"cebpf4jnsgd1na2vs0mg"},{"bike_id":"0ed21750-3a43-4786-98ab-76842e2c3bc0","system_id":"levelo_inurba_marseille","lat":43.29578,"lon":5.367509,"is_reserved":false,"is_disabled":false,"rental_uris":{"android":"levelo://app?vid=0ed21750-3a43-4786-98ab-76842e2c3bc0","ios":"levelo://app?vid=0ed21750-3a43-4786-98ab-76842e2c3bc0"},"vehicle_type_id":"4","last_reported":1719140749,"current_range_meters":26400,"station_id":"ce4bgph2rcd13ifvqc2g","pricing_plan_id":"cebpf4jnsgd1na2vs0mg"},{"bike_id":"6e9a182d-aefb-44ce-ae07-a0635a563b0f","system_id":"levelo_inurba_marseille","lat":43.296921,"lon":5.376579,"is_reserved":false,"is_disabled":false,"rental_uris":{"android":"levelo://app?vid=6e9a182d-aefb-44ce-ae07-a0635a563b0f","ios":"levelo://app?vid=6e9a182d-aefb-44ce-ae07-a0635a563b0f"},"vehicle_type_id":"4","last_reported":1719140749,"current_range_meters":24000,"station_id":"ce4bgkh2rcd13ifvqbl0","pricing_plan_id":"cebpf4jnsgd1na2vs0mg"},{"bike_id":"aa8b3871-6630-4c20-a99c-ea1d7fd559f4","system_id":"levelo_inurba_marseille","lat":43.309589,"lon":5.390258,"is_reserved":false,"is_disabled":false,"rental_uris":{"android":"levelo://app?vid=aa8b3871-6630-4c20-a99c-ea1d7fd559f4","ios":"levelo://app?vid=aa8b3871-6630-4c20-a99c-ea1d7fd559f4"},"vehicle_type_id":"4","last_reported":1719140749,"current_range_meters":15600,"station_id":"ce4bgup2rcd13ifvqco0","pricing_plan_id":"cebpf4jnsgd1na2vs0mg"},{"bike_id":"6876424c-f6f9-4005-867e-6d96edeaa18d","system_id":"levelo_inurba_marseille","lat":43.309589,"lon":5.390258,"is_reserved":false,"is_disabled":false,"rental_uris":{"android":"levelo://app?vid=6876424c-f6f9-4005-867e-6d96edeaa18d","ios":"levelo://app?vid=6876424c-f6f9-4005-867e-6d96edeaa18d"},"vehicle_type_id":"4","last_reported":1719140749,"current_range_meters":19200,"station_id":"ce4bgup2rcd13ifvqco0","pricing_plan_id":"cebpf4jnsgd1na2vs0mg"},{"bike_id":"b2f8c189-9044-422e-b64d-4a088a546d2e","system_id":"levelo_inurba_marseille","lat":43.29558,"lon":5.36265,"is_reserved":false,"is_disabled":false,"rental_uris":{"android":"levelo://app?vid=b2f8c189-9044-422e-b64d-4a088a546d2e","ios":"levelo://app?vid=b2f8c189-9044-422e-b64d-4a088a546d2e"},"vehicle_type_id":"4","last_reported":1719140749,"current_range_meters":19200,"station_id":"","pricing_plan_id":"cebpf4jnsgd1na2vs0mg"},{"bike_id":"d7c21ce2-a776-470c-b443-51e8cb8311e6","system_id":"levelo_inurba_marseille","lat":43.29602,"lon":5.37423,"is_reserved":false,"is_disabled":false,"rental_uris":{"android":"levelo://app?vid=d7c21ce2-a776-470c-b443-51e8cb8311e6","ios":"levelo://app?vid=d7c21ce2-a776-470c-b443-51e8cb8311e6"},"vehicle_type_id":"4","last_reported":1719140749,"current_range_meters":13200,"station_id":"","pricing_plan_id":"cebpf4jnsgd1na2vs0mg"},{"bike_id":"696037b8-e007-4c09-accf-67b81079ba52","system_id":"levelo_inurba_marseille","lat":43.317557,"lon":5.390173,"is_reserved":false,"is_disabled":false,"rental_uris":{"android":"levelo://app?vid=696037b8-e007-4c09-accf-67b81079ba52","ios":"levelo://app?vid=696037b8-e007-4c09-accf-67b81079ba52"},"vehicle_type_id":"4","last_reported":1719140749,"current_range_meters":4000,"station_id":"ce4bhqp2rcd13ifvqhng","pricing_plan_id":"cebpf4jnsgd1na2vs0mg"},{"bike_id":"7b1ac388-5016-4e5d-afa1-99f6bcbe3dd8","system_id":"levelo_inurba_marseille","lat":43.296263,"lon":5.377094,"is_reserved":false,"is_disabled":false,"rental_uris":{"android":"levelo://app?vid=7b1ac388-5016-4e5d-afa1-99f6bcbe3dd8","ios":"levelo://app?vid=7b1ac388-5016-4e5d-afa1-99f6bcbe3dd8"},"vehicle_type_id":"4","last_reported":1719140749,"current_range_meters":22000,"station_id":"ce4bgi92rcd13ifvqb90","pricing_plan_id":"cebpf4jnsgd1na2vs0mg"},{"bike_id":"1bbf8040-fd0d-4044-af91-f92addad5434","system_id":"levelo_inurba_marseille","lat":43.297915,"lon":5.38121,"is_reserved":false,"is_disabled":false,"rental_uris":{"android":"levelo://app?vid=1bbf8040-fd0d-4044-af91-f92addad5434","ios":"levelo://app?vid=1bbf8040-fd0d-4044-af91-f92addad5434"},"vehicle_type_id":"4","last_reported":1719140749,"current_range_meters":31200,"station_id":"ce4bgip2rcd13ifvqbb0","pricing_plan_id":"cebpf4jnsgd1na2vs0mg"},{"bike_id":"187a15dc-f882-4ad6-abd8-4d8f113e9b2e","system_id":"levelo_inurba_marseille","lat":43.296277,"lon":5.377108,"is_reserved":false,"is_disabled":false,"rental_uris":{"android":"levelo://app?vid=187a15dc-f882-4ad6-abd8-4d8f113e9b2e","ios":"levelo://app?vid=187a15dc-f882-4ad6-abd8-4d8f113e9b2e"},"vehicle_type_id":"4","last_reported":1719140749,"current_range_meters":11600,"station_id":"ce4bgi92rcd13ifvqb90","pricing_plan_id":"cebpf4jnsgd1na2vs0mg"},{"bike_id":"33fc50cb-b403-4c2f-968c-abb9c4a19036","system_id":"levelo_inurba_marseille","lat":43.295279,"lon":5.375048,"is_reserved":false,"is_disabled":false,"rental_uris":{"android":"levelo://app?vid=33fc50cb-b403-4c2f-968c-abb9c4a19036","ios":"levelo://app?vid=33fc50cb-b403-4c2f-968c-abb9c4a19036"},"vehicle_type_id":"4","last_reported":1719140749,"current_range_meters":27600,"station_id":"ce4bgkp2rcd13ifvqbmg","pricing_plan_id":"cebpf4jnsgd1na2vs0mg"},{"bike_id":"796154e9-0076-4b59-8c80-ba35b44d446c","system_id":"levelo_inurba_marseille","lat":43.295279,"lon":5.375048,"is_reserved":false,"is_disabled":false,"rental_uris":{"android":"levelo://app?vid=796154e9-0076-4b59-8c80-ba35b44d446c","ios":"levelo://app?vid=796154e9-0076-4b59-8c80-ba35b44d446c"},"vehicle_type_id":"4","last_reported":1719140749,"current_range_meters":3200,"station_id":"ce4bgkp2rcd13ifvqbmg","pricing_plan_id":"cebpf4jnsgd1na2vs0mg"},{"bike_id":"f222e57a-4d34-471d-9fd2-9078bb6fe77c","system_id":"levelo_inurba_marseille","lat":43.32367,"lon":5.388836,"is_reserved":false,"is_disabled":false,"rental_uris":{"android":"levelo://app?vid=f222e57a-4d34-471d-9fd2-9078bb6fe77c","ios":"levelo://app?vid=f222e57a-4d34-471d-9fd2-9078bb6fe77c"},"vehicle_type_id":"4","last_reported":1719140749,"current_range_meters":12800,"station_id":"ce4bhqp2rcd13ifvqhog","pricing_plan_id":"cebpf4jnsgd1na2vs0mg"},{"bike_id":"0cd10e21-afa9-43a3-b8a6-6827d7365746","system_id":"levelo_inurba_marseille","lat":43.32367,"lon":5.388836,"is_reserved":false,"is_disabled":false,"rental_uris":{"android":"levelo://app?vid=0cd10e21-afa9-43a3-b8a6-6827d7365746","ios":"levelo://app?vid=0cd10e21-afa9-43a3-b8a6-6827d7365746"},"vehicle_type_id":"4","last_reported":1719140749,"current_range_meters":9600,"station_id":"ce4bhqp2rcd13ifvqhog","pricing_plan_id":"cebpf4jnsgd1na2vs0mg"},{"bike_id":"9d90f53a-1829-4b35-9d42-f5c5ec0709b2","system_id":"levelo_inurba_marseille","lat":43.293009,"lon":5.374584,"is_reserved":false,"is_disabled":false,"rental_uris":{"android":"levelo://app?vid=9d90f53a-1829-4b35-9d42-f5c5ec0709b2","ios":"levelo://app?vid=9d90f53a-1829-4b35-9d42-f5c5ec0709b2"},"vehicle_type_id":"4","last_reported":1719140749,"current_range_meters":22000,"station_id":"ce4bgi12rcd13ifvqb70","pricing_plan_id":"cebpf4jnsgd1na2vs0mg"},{"bike_id":"d90133ac-d114-4310-b5d9-68383e9c2fd4","system_id":"levelo_inurba_marseille","lat":43.303002,"lon":5.392142,"is_reserved":false,"is_disabled":false,"rental_uris":{"android":"levelo://app?vid=d90133ac-d114-4310-b5d9-68383e9c2fd4","ios":"levelo://app?vid=d90133ac-d114-4310-b5d9-68383e9c2fd4"},"vehicle_type_id":"4","last_reported":1719140749,"current_range_meters":8000,"station_id":"ce4bgkh2rcd13ifvqbk0","pricing_plan_id":"cebpf4jnsgd1na2vs0mg"},{"bike_id":"698b26ef-4282-4407-a2f3-ee5c4cd48ccf","system_id":"levelo_inurba_marseille","lat":43.302992,"lon":5.392136,"is_reserved":false,"is_disabled":false,"rental_uris":{"android":"levelo://app?vid=698b26ef-4282-4407-a2f3-ee5c4cd48ccf","ios":"levelo://app?vid=698b26ef-4282-4407-a2f3-ee5c4cd48ccf"},"vehicle_type_id":"4","last_reported":1719140749,"current_range_meters":4800,"station_id":"ce4bgkh2rcd13ifvqbk0","pricing_plan_id":"cebpf4jnsgd1na2vs0mg"},{"bike_id":"c55ccaf4-0d40-4269-99c5-99b61a17d2be","system_id":"levelo_inurba_marseille","lat":43.302992,"lon":5.392136,"is_reserved":false,"is_disabled":false,"rental_uris":{"android":"levelo://app?vid=c55ccaf4-0d40-4269-99c5-99b61a17d2be","ios":"levelo://app?vid=c55ccaf4-0d40-4269-99c5-99b61a17d2be"},"vehicle_type_id":"4","last_reported":1719140749,"current_range_meters":5600,"station_id":"ce4bgkh2rcd13ifvqbk0","pricing_plan_id":"cebpf4jnsgd1na2vs0mg"},{"bike_id":"945fbab2-4761-41f0-abaf-337522d3b4ab","system_id":"levelo_inurba_marseille","lat":43.291994,"lon":5.357886,"is_reserved":false,"is_disabled":false,"rental_uris":{"android":"levelo://app?vid=945fbab2-4761-41f0-abaf-337522d3b4ab","ios":"levelo://app?vid=945fbab2-4761-41f0-abaf-337522d3b4ab"},"vehicle_type_id":"4","last_reported":1719140749,"current_range_meters":9600,"station_id":"ce4bhb12rcd13ifvqel0","pricing_plan_id":"cebpf4jnsgd1na2vs0mg"},{"bike_id":"13be6814-6beb-4b2a-9e89-f2c28a7c425a","system_id":"levelo_inurba_marseille","lat":43.298764,"lon":5.388973,"is_reserved":false,"is_disabled":false,"rental_uris":{"android":"levelo://app?vid=13be6814-6beb-4b2a-9e89-f2c28a7c425a","ios":"levelo://app?vid=13be6814-6beb-4b2a-9e89-f2c28a7c425a"},"vehicle_type_id":"4","last_reported":1719140749,"current_range_meters":17200,"station_id":"ce4bh392rcd13ifvqdl0","pricing_plan_id":"cebpf4jnsgd1na2vs0mg"},{"bike_id":"ea067f17-597f-43fc-a6f5-a00a299223af","system_id":"levelo_inurba_marseille","lat":43.291675,"lon":5.371583,"is_reserved":false,"is_disabled":false,"rental_uris":{"android":"levelo://app?vid=ea067f17-597f-43fc-a6f5-a00a299223af","ios":"levelo://app?vid=ea067f17-597f-43fc-a6f5-a00a299223af"},"vehicle_type_id":"4","last_reported":1719140749,"current_range_meters":9200,"station_id":"ce4bha92rcd13ifvqeh0","pricing_plan_id":"cebpf4jnsgd1na2vs0mg"},{"bike_id":"b28d6092-b0c5-4230-9eb8-8351c6b3d783","system_id":"levelo_inurba_marseille","lat":43.292005,"lon":5.357875,"is_reserved":false,"is_disabled":false,"rental_uris":{"android":"levelo://app?vid=b28d6092-b0c5-4230-9eb8-8351c6b3d783","ios":"levelo://app?vid=b28d6092-b0c5-4230-9eb8-8351c6b3d783"},"vehicle_type_id":"4","last_reported":1719140749,"current_range_meters":8400,"station_id":"ce4bhb12rcd13ifvqel0","pricing_plan_id":"cebpf4jnsgd1na2vs0mg"},{"bike_id":"af8517d6-9b4e-47f9-919e-07d52968500a","system_id":"levelo_inurba_marseille","lat":43.291994,"lon":5.357886,"is_reserved":false,"is_disabled":false,"rental_uris":{"android":"levelo://app?vid=af8517d6-9b4e-47f9-919e-07d52968500a","ios":"levelo://app?vid=af8517d6-9b4e-47f9-919e-07d52968500a"},"vehicle_type_id":"4","last_reported":1719140749,"current_range_meters":2400,"station_id":"ce4bhb12rcd13ifvqel0","pricing_plan_id":"cebpf4jnsgd1na2vs0mg"},{"bike_id":"e9f8c0c0-ac3d-46e8-9470-e1799570f886","system_id":"levelo_inurba_marseille","lat":43.332079,"lon":5.38068,"is_reserved":false,"is_disabled":false,"rental_uris":{"android":"levelo://app?vid=e9f8c0c0-ac3d-46e8-9470-e1799570f886","ios":"levelo://app?vid=e9f8c0c0-ac3d-46e8-9470-e1799570f886"},"vehicle_type_id":"4","last_reported":1719140749,"current_range_meters":0,"station_id":"","pricing_plan_id":"cebpf4jnsgd1na2vs0mg"},{"bike_id":"2cda695a-2370-476c-b903-1b6129e160a5","system_id":"levelo_inurba_marseille","lat":43.313291,"lon":5.396838,"is_reserved":false,"is_disabled":false,"rental_uris":{"android":"levelo://app?vid=2cda695a-2370-476c-b903-1b6129e160a5","ios":"levelo://app?vid=2cda695a-2370-476c-b903-1b6129e160a5"},"vehicle_type_id":"4","last_reported":1719140749,"current_range_meters":23600,"station_id":"ce4bgvp2rcd13ifvqcu0","pricing_plan_id":"cebpf4jnsgd1na2vs0mg"},{"bike_id":"7c7f9797-0843-48c9-be34-667a0b6a31a7","system_id":"levelo_inurba_marseille","lat":43.29207,"lon":5.35688,"is_reserved":false,"is_disabled":false,"rental_uris":{"android":"levelo://app?vid=7c7f9797-0843-48c9-be34-667a0b6a31a7","ios":"levelo://app?vid=7c7f9797-0843-48c9-be34-667a0b6a31a7"},"vehicle_type_id":"4","last_reported":1719140749,"current_range_meters":18400,"station_id":"","pricing_plan_id":"cebpf4jnsgd1na2vs0mg"},{"bike_id":"bde341ba-659f-4038-92dc-fea3b0a396ad","system_id":"levelo_inurba_marseille","lat":43.290779,"lon":5.371482,"is_reserved":false,"is_disabled":false,"rental_uris":{"android":"levelo://app?vid=bde341ba-659f-4038-92dc-fea3b0a396ad","ios":"levelo://app?vid=bde341ba-659f-4038-92dc-fea3b0a396ad"},"vehicle_type_id":"4","last_reported":1719140749,"current_range_meters":14800,"station_id":"ce4bh5p2rcd13ifvqe4g","pricing_plan_id":"cebpf4jnsgd1na2vs0mg"},{"bike_id":"f03d1769-d6b6-400c-ae33-bf04bd0428ca","system_id":"levelo_inurba_marseille","lat":43.302008,"lon":5.394694,"is_reserved":false,"is_disabled":false,"rental_uris":{"android":"levelo://app?vid=f03d1769-d6b6-400c-ae33-bf04bd0428ca","ios":"levelo://app?vid=f03d1769-d6b6-400c-ae33-bf04bd0428ca"},"vehicle_type_id":"4","last_reported":1719140749,"current_range_meters":7600,"station_id":"ce4bh0p2rcd13ifvqd70","pricing_plan_id":"cebpf4jnsgd1na2vs0mg"},{"bike_id":"e665ecce-5ae9-4518-8c22-4491c61c326e","system_id":"levelo_inurba_marseille","lat":43.290631,"lon":5.359244,"is_reserved":false,"is_disabled":false,"rental_uris":{"android":"levelo://app?vid=e665ecce-5ae9-4518-8c22-4491c61c326e","ios":"levelo://app?vid=e665ecce-5ae9-4518-8c22-4491c61c326e"},"vehicle_type_id":"4","last_reported":1719140749,"current_range_meters":23200,"station_id":"ce4bha92rcd13ifvqeg0","pricing_plan_id":"cebpf4jnsgd1na2vs0mg"},{"bike_id":"f180b868-d820-45fc-aca1-d4fc3792af25","system_id":"levelo_inurba_marseille","lat":43.289184,"lon":5.366408,"is_reserved":false,"is_disabled":false,"rental_uris":{"android":"levelo://app?vid=f180b868-d820-45fc-aca1-d4fc3792af25","ios":"levelo://app?vid=f180b868-d820-45fc-aca1-d4fc3792af25"},"vehicle_type_id":"4","last_reported":1719140749,"current_range_meters":11600,"station_id":"ce4bhap2rcd13ifvqek0","pricing_plan_id":"cebpf4jnsgd1na2vs0mg"},{"bike_id":"047763e2-b006-4ddb-bafd-2583daeb9e53","system_id":"levelo_inurba_marseille","lat":43.292688,"lon":5.38442,"is_reserved":false,"is_disabled":false,"rental_uris":{"android":"levelo://app?vid=047763e2-b006-4ddb-bafd-2583daeb9e53","ios":"levelo://app?vid=047763e2-b006-4ddb-bafd-2583daeb9e53"},"vehicle_type_id":"4","last_reported":1719140749,"current_range_meters":27600,"station_id":"ce4bh692rcd13ifvqea0","pricing_plan_id":"cebpf4jnsgd1na2vs0mg"},{"bike_id":"64c87a81-c087-4858-a76e-6c6809c169e9","system_id":"levelo_inurba_marseille","lat":43.290104,"lon":5.356111,"is_reserved":false,"is_disabled":false,"rental_uris":{"android":"levelo://app?vid=64c87a81-c087-4858-a76e-6c6809c169e9","ios":"levelo://app?vid=64c87a81-c087-4858-a76e-6c6809c169e9"},"vehicle_type_id":"4","last_reported":1719140749,"current_range_meters":14400,"station_id":"ce4bhb92rcd13ifvqen0","pricing_plan_id":"cebpf4jnsgd1na2vs0mg"},{"bike_id":"f796e962-fb4b-4f87-8e94-4bae437be12d","system_id":"levelo_inurba_marseille","lat":43.289743,"lon":5.378304,"is_reserved":false,"is_disabled":false,"rental_uris":{"android":"levelo://app?vid=f796e962-fb4b-4f87-8e94-4bae437be12d","ios":"levelo://app?vid=f796e962-fb4b-4f87-8e94-4bae437be12d"},"vehicle_type_id":"4","last_reported":1719140749,"current_range_meters":0,"station_id":"ce4bh9p2rcd13ifvqed0","pricing_plan_id":"cebpf4jnsgd1na2vs0mg"},{"bike_id":"bc980625-d0a8-42d3-849a-4b688ac51b1b","system_id":"levelo_inurba_marseille","lat":43.330442,"lon":5.389148,"is_reserved":false,"is_disabled":false,"rental_uris":{"android":"levelo://app?vid=bc980625-d0a8-42d3-849a-4b688ac51b1b","ios":"levelo://app?vid=bc980625-d0a8-42d3-849a-4b688ac51b1b"},"vehicle_type_id":"4","last_reported":1719140749,"current_range_meters":29200,"station_id":"ce4bhr92rcd13ifvqhrg","pricing_plan_id":"cebpf4jnsgd1na2vs0mg"},{"bike_id":"5bda5fc4-57a9-4169-9872-74bf4395e70c","system_id":"levelo_inurba_marseille","lat":43.330442,"lon":5.389148,"is_reserved":false,"is_disabled":false,"rental_uris":{"android":"levelo://app?vid=5bda5fc4-57a9-4169-9872-74bf4395e70c","ios":"levelo://app?vid=5bda5fc4-57a9-4169-9872-74bf4395e70c"},"vehicle_type_id":"4","last_reported":1719140749,"current_range_meters":28400,"station_id":"ce4bhr92rcd13ifvqhrg","pricing_plan_id":"cebpf4jnsgd1na2vs0mg"},{"bike_id":"78fa3392-cece-477f-a1b6-5eae50444971","system_id":"levelo_inurba_marseille","lat":43.330442,"lon":5.389148,"is_reserved":false,"is_disabled":false,"rental_uris":{"android":"levelo://app?vid=78fa3392-cece-477f-a1b6-5eae50444971","ios":"levelo://app?vid=78fa3392-cece-477f-a1b6-5eae50444971"},"vehicle_type_id":"4","last_reported":1719140749,"current_range_meters":20000,"station_id":"ce4bhr92rcd13ifvqhrg","pricing_plan_id":"cebpf4jnsgd1na2vs0mg"},{"bike_id":"23d93152-4183-40b9-b6ef-ae6a911a269a","system_id":"levelo_inurba_marseille","lat":43.330442,"lon":5.389148,"is_reserved":false,"is_disabled":false,"rental_uris":{"android":"levelo://app?vid=23d93152-4183-40b9-b6ef-ae6a911a269a","ios":"levelo://app?vid=23d93152-4183-40b9-b6ef-ae6a911a269a"},"vehicle_type_id":"4","last_reported":1719140749,"current_range_meters":400,"station_id":"ce4bhr92rcd13ifvqhrg","pricing_plan_id":"cebpf4jnsgd1na2vs0mg"},{"bike_id":"88e2f51e-e62f-4278-ad1f-4f1a615dea1a","system_id":"levelo_inurba_marseille","lat":43.330442,"lon":5.389148,"is_reserved":false,"is_disabled":false,"rental_uris":{"android":"levelo://app?vid=88e2f51e-e62f-4278-ad1f-4f1a615dea1a","ios":"levelo://app?vid=88e2f51e-e62f-4278-ad1f-4f1a615dea1a"},"vehicle_type_id":"4","last_reported":1719140749,"current_range_meters":31600,"station_id":"ce4bhr92rcd13ifvqhrg","pricing_plan_id":"cebpf4jnsgd1na2vs0mg"},{"bike_id":"68b0fbd6-3f2f-46a0-ae3c-936e3608113e","system_id":"levelo_inurba_marseille","lat":43.330442,"lon":5.389148,"is_reserved":false,"is_disabled":false,"rental_uris":{"android":"levelo://app?vid=68b0fbd6-3f2f-46a0-ae3c-936e3608113e","ios":"levelo://app?vid=68b0fbd6-3f2f-46a0-ae3c-936e3608113e"},"vehicle_type_id":"4","last_reported":1719140749,"current_range_meters":31600,"station_id":"ce4bhr92rcd13ifvqhrg","pricing_plan_id":"cebpf4jnsgd1na2vs0mg"},{"bike_id":"3c0e5953-c3d4-431a-8944-681324a1b6be","system_id":"levelo_inurba_marseille","lat":43.28856,"lon":5.358371,"is_reserved":false,"is_disabled":false,"rental_uris":{"android":"levelo://app?vid=3c0e5953-c3d4-431a-8944-681324a1b6be","ios":"levelo://app?vid=3c0e5953-c3d4-431a-8944-681324a1b6be"},"vehicle_type_id":"4","last_reported":1719140749,"current_range_meters":23600,"station_id":"ce4bhb12rcd13ifvqem0","pricing_plan_id":"cebpf4jnsgd1na2vs0mg"},{"bike_id":"c99c162f-a372-4cce-9172-c368f40bc3ec","system_id":"levelo_inurba_marseille","lat":43.28856,"lon":5.358371,"is_reserved":false,"is_disabled":false,"rental_uris":{"android":"levelo://app?vid=c99c162f-a372-4cce-9172-c368f40bc3ec","ios":"levelo://app?vid=c99c162f-a372-4cce-9172-c368f40bc3ec"},"vehicle_type_id":"4","last_reported":1719140749,"current_range_meters":14000,"station_id":"ce4bhb12rcd13ifvqem0","pricing_plan_id":"cebpf4jnsgd1na2vs0mg"},{"bike_id":"8fb49b2d-6b4f-4250-b569-908461de4274","system_id":"levelo_inurba_marseille","lat":43.28856,"lon":5.358371,"is_reserved":false,"is_disabled":false,"rental_uris":{"android":"levelo://app?vid=8fb49b2d-6b4f-4250-b569-908461de4274","ios":"levelo://app?vid=8fb49b2d-6b4f-4250-b569-908461de4274"},"vehicle_type_id":"4","last_reported":1719140749,"current_range_meters":20000,"station_id":"ce4bhb12rcd13ifvqem0","pricing_plan_id":"cebpf4jnsgd1na2vs0mg"},{"bike_id":"96ecd03b-2a73-4a72-8ea7-de356970d8c4","system_id":"levelo_inurba_marseille","lat":43.291673,"lon":5.38603,"is_reserved":false,"is_disabled":false,"rental_uris":{"android":"levelo://app?vid=96ecd03b-2a73-4a72-8ea7-de356970d8c4","ios":"levelo://app?vid=96ecd03b-2a73-4a72-8ea7-de356970d8c4"},"vehicle_type_id":"4","last_reported":1719140749,"current_range_meters":3200,"station_id":"","pricing_plan_id":"cebpf4jnsgd1na2vs0mg"},{"bike_id":"05092e03-5cef-41c3-9575-df5db7507ebd","system_id":"levelo_inurba_marseille","lat":43.33739,"lon":5.37464,"is_reserved":false,"is_disabled":false,"rental_uris":{"android":"levelo://app?vid=05092e03-5cef-41c3-9575-df5db7507ebd","ios":"levelo://app?vid=05092e03-5cef-41c3-9575-df5db7507ebd"},"vehicle_type_id":"4","last_reported":1719140749,"current_range_meters":16000,"station_id":"","pricing_plan_id":"cebpf4jnsgd1na2vs0mg"},{"bike_id":"a00c218c-138a-4388-aca4-2952a6961815","system_id":"levelo_inurba_marseille","lat":43.337479,"lon":5.37488,"is_reserved":false,"is_disabled":false,"rental_uris":{"android":"levelo://app?vid=a00c218c-138a-4388-aca4-2952a6961815","ios":"levelo://app?vid=a00c218c-138a-4388-aca4-2952a6961815"},"vehicle_type_id":"4","last_reported":1719140749,"current_range_meters":30000,"station_id":"","pricing_plan_id":"cebpf4jnsgd1na2vs0mg"},{"bike_id":"5b5cae36-09e1-4bd0-aeb4-83d37c064d16","system_id":"levelo_inurba_marseille","lat":43.33756,"lon":5.37455,"is_reserved":false,"is_disabled":false,"rental_uris":{"android":"levelo://app?vid=5b5cae36-09e1-4bd0-aeb4-83d37c064d16","ios":"levelo://app?vid=5b5cae36-09e1-4bd0-aeb4-83d37c064d16"},"vehicle_type_id":"4","last_reported":1719140749,"current_range_meters":19200,"station_id":"","pricing_plan_id":"cebpf4jnsgd1na2vs0mg"},{"bike_id":"0e11bbab-a5d9-4098-a6f1-624d89f27c59","system_id":"levelo_inurba_marseille","lat":43.337572,"lon":5.374546,"is_reserved":false,"is_disabled":false,"rental_uris":{"android":"levelo://app?vid=0e11bbab-a5d9-4098-a6f1-624d89f27c59","ios":"levelo://app?vid=0e11bbab-a5d9-4098-a6f1-624d89f27c59"},"vehicle_type_id":"4","last_reported":1719140749,"current_range_meters":20800,"station_id":"","pricing_plan_id":"cebpf4jnsgd1na2vs0mg"},{"bike_id":"db534928-e6a2-47cc-a852-558fe66ed50c","system_id":"levelo_inurba_marseille","lat":43.337583,"lon":5.374633,"is_reserved":false,"is_disabled":false,"rental_uris":{"android":"levelo://app?vid=db534928-e6a2-47cc-a852-558fe66ed50c","ios":"levelo://app?vid=db534928-e6a2-47cc-a852-558fe66ed50c"},"vehicle_type_id":"4","last_reported":1719140749,"current_range_meters":19200,"station_id":"","pricing_plan_id":"cebpf4jnsgd1na2vs0mg"},{"bike_id":"e7be790b-07e4-40f3-b60f-da683b157943","system_id":"levelo_inurba_marseille","lat":43.33033,"lon":5.39238,"is_reserved":false,"is_disabled":false,"rental_uris":{"android":"levelo://app?vid=e7be790b-07e4-40f3-b60f-da683b157943","ios":"levelo://app?vid=e7be790b-07e4-40f3-b60f-da683b157943"},"vehicle_type_id":"4","last_reported":1719140749,"current_range_meters":15600,"station_id":"","pricing_plan_id":"cebpf4jnsgd1na2vs0mg"},{"bike_id":"a77bf3f1-dc55-4e35-8fe0-6292cee970ef","system_id":"levelo_inurba_marseille","lat":43.33035,"lon":5.39239,"is_reserved":false,"is_disabled":false,"rental_uris":{"android":"levelo://app?vid=a77bf3f1-dc55-4e35-8fe0-6292cee970ef","ios":"levelo://app?vid=a77bf3f1-dc55-4e35-8fe0-6292cee970ef"},"vehicle_type_id":"4","last_reported":1719140749,"current_range_meters":18000,"station_id":"","pricing_plan_id":"cebpf4jnsgd1na2vs0mg"},{"bike_id":"1529575d-3c24-4053-9dc4-3fc753c20a3e","system_id":"levelo_inurba_marseille","lat":43.3304,"lon":5.39281,"is_reserved":false,"is_disabled":false,"rental_uris":{"android":"levelo://app?vid=1529575d-3c24-4053-9dc4-3fc753c20a3e","ios":"levelo://app?vid=1529575d-3c24-4053-9dc4-3fc753c20a3e"},"vehicle_type_id":"4","last_reported":1719140749,"current_range_meters":0,"station_id":"","pricing_plan_id":"cebpf4jnsgd1na2vs0mg"},{"bike_id":"4f852001-c747-4477-ab9f-e51f7b2950ee","system_id":"levelo_inurba_marseille","lat":43.286591,"lon":5.363346,"is_reserved":false,"is_disabled":false,"rental_uris":{"android":"levelo://app?vid=4f852001-c747-4477-ab9f-e51f7b2950ee","ios":"levelo://app?vid=4f852001-c747-4477-ab9f-e51f7b2950ee"},"vehicle_type_id":"4","last_reported":1719140749,"current_range_meters":19200,"station_id":"ce4bhah2rcd13ifvqej0","pricing_plan_id":"cebpf4jnsgd1na2vs0mg"},{"bike_id":"5f9f91a7-01d0-461e-ae82-c2044e5254dd","system_id":"levelo_inurba_marseille","lat":43.286961,"lon":5.373785,"is_reserved":false,"is_disabled":false,"rental_uris":{"android":"levelo://app?vid=5f9f91a7-01d0-461e-ae82-c2044e5254dd","ios":"levelo://app?vid=5f9f91a7-01d0-461e-ae82-c2044e5254dd"},"vehicle_type_id":"4","last_reported":1719140749,"current_range_meters":0,"station_id":"ce4bh3p2rcd13ifvqdq0","pricing_plan_id":"cebpf4jnsgd1na2vs0mg"},{"bike_id":"4d3856a2-7810-47bd-a7b4-6b41688d79c3","system_id":"levelo_inurba_marseille","lat":43.286591,"lon":5.363346,"is_reserved":false,"is_disabled":false,"rental_uris":{"android":"levelo://app?vid=4d3856a2-7810-47bd-a7b4-6b41688d79c3","ios":"levelo://app?vid=4d3856a2-7810-47bd-a7b4-6b41688d79c3"},"vehicle_type_id":"4","last_reported":1719140749,"current_range_meters":8800,"station_id":"ce4bhah2rcd13ifvqej0","pricing_plan_id":"cebpf4jnsgd1na2vs0mg"},{"bike_id":"ee99ac3a-5f62-4d60-b7cc-e03bdd74303f","system_id":"levelo_inurba_marseille","lat":43.289307,"lon":5.38406,"is_reserved":false,"is_disabled":false,"rental_uris":{"android":"levelo://app?vid=ee99ac3a-5f62-4d60-b7cc-e03bdd74303f","ios":"levelo://app?vid=ee99ac3a-5f62-4d60-b7cc-e03bdd74303f"},"vehicle_type_id":"4","last_reported":1719140749,"current_range_meters":18800,"station_id":"ce4bh612rcd13ifvqe6g","pricing_plan_id":"cebpf4jnsgd1na2vs0mg"},{"bike_id":"27b61fe1-4caf-44ee-80d2-1406a90b00c7","system_id":"levelo_inurba_marseille","lat":43.290345,"lon":5.38646,"is_reserved":false,"is_disabled":false,"rental_uris":{"android":"levelo://app?vid=27b61fe1-4caf-44ee-80d2-1406a90b00c7","ios":"levelo://app?vid=27b61fe1-4caf-44ee-80d2-1406a90b00c7"},"vehicle_type_id":"4","last_reported":1719140749,"current_range_meters":15600,"station_id":"ce4bh4p2rcd13ifvqe0g","pricing_plan_id":"cebpf4jnsgd1na2vs0mg"},{"bike_id":"da07243a-c347-42c8-964d-1554e59cbc1e","system_id":"levelo_inurba_marseille","lat":43.289258,"lon":5.383976,"is_reserved":false,"is_disabled":false,"rental_uris":{"android":"levelo://app?vid=da07243a-c347-42c8-964d-1554e59cbc1e","ios":"levelo://app?vid=da07243a-c347-42c8-964d-1554e59cbc1e"},"vehicle_type_id":"4","last_reported":1719140749,"current_range_meters":15600,"station_id":"","pricing_plan_id":"cebpf4jnsgd1na2vs0mg"},{"bike_id":"dac31ee9-75bf-4971-94ae-f7876f8aba1c","system_id":"levelo_inurba_marseille","lat":43.302759,"lon":5.400793,"is_reserved":false,"is_disabled":false,"rental_uris":{"android":"levelo://app?vid=dac31ee9-75bf-4971-94ae-f7876f8aba1c","ios":"levelo://app?vid=dac31ee9-75bf-4971-94ae-f7876f8aba1c"},"vehicle_type_id":"4","last_reported":1719140749,"current_range_meters":22800,"station_id":"ce4bgvh2rcd13ifvqcs0","pricing_plan_id":"cebpf4jnsgd1na2vs0mg"},{"bike_id":"9f90ae97-c22a-4e9c-b5eb-2370db36c442","system_id":"levelo_inurba_marseille","lat":43.286039,"lon":5.370679,"is_reserved":false,"is_disabled":false,"rental_uris":{"android":"levelo://app?vid=9f90ae97-c22a-4e9c-b5eb-2370db36c442","ios":"levelo://app?vid=9f90ae97-c22a-4e9c-b5eb-2370db36c442"},"vehicle_type_id":"4","last_reported":1719140749,"current_range_meters":11200,"station_id":"ce4bht12rcd13ifvqi60","pricing_plan_id":"cebpf4jnsgd1na2vs0mg"},{"bike_id":"ed594898-8269-4356-ab40-79973bdb3e01","system_id":"levelo_inurba_marseille","lat":43.287184,"lon":5.37937,"is_reserved":false,"is_disabled":false,"rental_uris":{"android":"levelo://app?vid=ed594898-8269-4356-ab40-79973bdb3e01","ios":"levelo://app?vid=ed594898-8269-4356-ab40-79973bdb3e01"},"vehicle_type_id":"4","last_reported":1719140749,"current_range_meters":23600,"station_id":"ce4bh9p2rcd13ifvqec0","pricing_plan_id":"cebpf4jnsgd1na2vs0mg"},{"bike_id":"eced9578-dad1-466d-87ff-22e1b0f19f9c","system_id":"levelo_inurba_marseille","lat":43.287184,"lon":5.37937,"is_reserved":false,"is_disabled":false,"rental_uris":{"android":"levelo://app?vid=eced9578-dad1-466d-87ff-22e1b0f19f9c","ios":"levelo://app?vid=eced9578-dad1-466d-87ff-22e1b0f19f9c"},"vehicle_type_id":"4","last_reported":1719140749,"current_range_meters":10800,"station_id":"ce4bh9p2rcd13ifvqec0","pricing_plan_id":"cebpf4jnsgd1na2vs0mg"},{"bike_id":"8d5f3e54-9fbf-474b-a062-c218c9300309","system_id":"levelo_inurba_marseille","lat":43.31689,"lon":5.4046,"is_reserved":false,"is_disabled":false,"rental_uris":{"android":"levelo://app?vid=8d5f3e54-9fbf-474b-a062-c218c9300309","ios":"levelo://app?vid=8d5f3e54-9fbf-474b-a062-c218c9300309"},"vehicle_type_id":"4","last_reported":1719140749,"current_range_meters":4400,"station_id":"ce4bh012rcd13ifvqd00","pricing_plan_id":"cebpf4jnsgd1na2vs0mg"},{"bike_id":"9c082f3f-fc27-4a74-a347-626fb17deb50","system_id":"levelo_inurba_marseille","lat":43.31694,"lon":5.404638,"is_reserved":false,"is_disabled":false,"rental_uris":{"android":"levelo://app?vid=9c082f3f-fc27-4a74-a347-626fb17deb50","ios":"levelo://app?vid=9c082f3f-fc27-4a74-a347-626fb17deb50"},"vehicle_type_id":"4","last_reported":1719140749,"current_range_meters":10000,"station_id":"ce4bh012rcd13ifvqd00","pricing_plan_id":"cebpf4jnsgd1na2vs0mg"},{"bike_id":"41ec33a5-b1bb-49bf-b807-32af0030cd8e","system_id":"levelo_inurba_marseille","lat":43.316821,"lon":5.404737,"is_reserved":false,"is_disabled":false,"rental_uris":{"android":"levelo://app?vid=41ec33a5-b1bb-49bf-b807-32af0030cd8e","ios":"levelo://app?vid=41ec33a5-b1bb-49bf-b807-32af0030cd8e"},"vehicle_type_id":"4","last_reported":1719140749,"current_range_meters":31200,"station_id":"ce4bh012rcd13ifvqd00","pricing_plan_id":"cebpf4jnsgd1na2vs0mg"},{"bike_id":"6ba2f68c-5b25-4dff-ad0d-4214d5eba34e","system_id":"levelo_inurba_marseille","lat":43.304953,"lon":5.40471,"is_reserved":false,"is_disabled":false,"rental_uris":{"android":"levelo://app?vid=6ba2f68c-5b25-4dff-ad0d-4214d5eba34e","ios":"levelo://app?vid=6ba2f68c-5b25-4dff-ad0d-4214d5eba34e"},"vehicle_type_id":"4","last_reported":1719140749,"current_range_meters":25600,"station_id":"","pricing_plan_id":"cebpf4jnsgd1na2vs0mg"},{"bike_id":"f5a55236-c12f-4a69-9b8d-3177d6e9b729","system_id":"levelo_inurba_marseille","lat":43.285856,"lon":5.350771,"is_reserved":false,"is_disabled":false,"rental_uris":{"android":"levelo://app?vid=f5a55236-c12f-4a69-9b8d-3177d6e9b729","ios":"levelo://app?vid=f5a55236-c12f-4a69-9b8d-3177d6e9b729"},"vehicle_type_id":"4","last_reported":1719140749,"current_range_meters":20000,"station_id":"ce4bhch2rcd13ifvqeug","pricing_plan_id":"cebpf4jnsgd1na2vs0mg"},{"bike_id":"9dc23ce7-be35-4857-b208-966629b91eec","system_id":"levelo_inurba_marseille","lat":43.285856,"lon":5.350771,"is_reserved":false,"is_disabled":false,"rental_uris":{"android":"levelo://app?vid=9dc23ce7-be35-4857-b208-966629b91eec","ios":"levelo://app?vid=9dc23ce7-be35-4857-b208-966629b91eec"},"vehicle_type_id":"4","last_reported":1719140749,"current_range_meters":11200,"station_id":"ce4bhch2rcd13ifvqeug","pricing_plan_id":"cebpf4jnsgd1na2vs0mg"},{"bike_id":"de85cba1-267b-4f80-97a9-1badc45e131c","system_id":"levelo_inurba_marseille","lat":43.28616,"lon":5.35106,"is_reserved":false,"is_disabled":false,"rental_uris":{"android":"levelo://app?vid=de85cba1-267b-4f80-97a9-1badc45e131c","ios":"levelo://app?vid=de85cba1-267b-4f80-97a9-1badc45e131c"},"vehicle_type_id":"4","last_reported":1719140749,"current_range_meters":4000,"station_id":"ce4bhch2rcd13ifvqeug","pricing_plan_id":"cebpf4jnsgd1na2vs0mg"},{"bike_id":"698d39f0-5c0c-4105-a104-3e070e223ef9","system_id":"levelo_inurba_marseille","lat":43.28616,"lon":5.351,"is_reserved":false,"is_disabled":false,"rental_uris":{"android":"levelo://app?vid=698d39f0-5c0c-4105-a104-3e070e223ef9","ios":"levelo://app?vid=698d39f0-5c0c-4105-a104-3e070e223ef9"},"vehicle_type_id":"4","last_reported":1719140749,"current_range_meters":27200,"station_id":"ce4bhch2rcd13ifvqeug","pricing_plan_id":"cebpf4jnsgd1na2vs0mg"},{"bike_id":"c9c470fe-1fe4-4f85-892e-dab6e5abe329","system_id":"levelo_inurba_marseille","lat":43.285848,"lon":5.350787,"is_reserved":false,"is_disabled":false,"rental_uris":{"android":"levelo://app?vid=c9c470fe-1fe4-4f85-892e-dab6e5abe329","ios":"levelo://app?vid=c9c470fe-1fe4-4f85-892e-dab6e5abe329"},"vehicle_type_id":"4","last_reported":1719140749,"current_range_meters":28400,"station_id":"ce4bhch2rcd13ifvqeug","pricing_plan_id":"cebpf4jnsgd1na2vs0mg"},{"bike_id":"8f9286fe-c252-4625-a10b-fc819d9149d2","system_id":"levelo_inurba_marseille","lat":43.28614,"lon":5.35104,"is_reserved":false,"is_disabled":false,"rental_uris":{"android":"levelo://app?vid=8f9286fe-c252-4625-a10b-fc819d9149d2","ios":"levelo://app?vid=8f9286fe-c252-4625-a10b-fc819d9149d2"},"vehicle_type_id":"4","last_reported":1719140749,"current_range_meters":27200,"station_id":"ce4bhch2rcd13ifvqeug","pricing_plan_id":"cebpf4jnsgd1na2vs0mg"},{"bike_id":"01301b76-ae5d-4a44-bf2c-e71d8ea80bd2","system_id":"levelo_inurba_marseille","lat":43.28614,"lon":5.35099,"is_reserved":false,"is_disabled":false,"rental_uris":{"android":"levelo://app?vid=01301b76-ae5d-4a44-bf2c-e71d8ea80bd2","ios":"levelo://app?vid=01301b76-ae5d-4a44-bf2c-e71d8ea80bd2"},"vehicle_type_id":"4","last_reported":1719140749,"current_range_meters":24800,"station_id":"ce4bhch2rcd13ifvqeug","pricing_plan_id":"cebpf4jnsgd1na2vs0mg"},{"bike_id":"cee2210b-358b-4a98-a99d-8f3f5e4a5155","system_id":"levelo_inurba_marseille","lat":43.2861,"lon":5.35101,"is_reserved":false,"is_disabled":false,"rental_uris":{"android":"levelo://app?vid=cee2210b-358b-4a98-a99d-8f3f5e4a5155","ios":"levelo://app?vid=cee2210b-358b-4a98-a99d-8f3f5e4a5155"},"vehicle_type_id":"4","last_reported":1719140749,"current_range_meters":0,"station_id":"ce4bhch2rcd13ifvqeug","pricing_plan_id":"cebpf4jnsgd1na2vs0mg"},{"bike_id":"6189457d-1db1-424b-9703-f01a8349da9f","system_id":"levelo_inurba_marseille","lat":43.28609,"lon":5.35103,"is_reserved":false,"is_disabled":false,"rental_uris":{"android":"levelo://app?vid=6189457d-1db1-424b-9703-f01a8349da9f","ios":"levelo://app?vid=6189457d-1db1-424b-9703-f01a8349da9f"},"vehicle_type_id":"4","last_reported":1719140749,"current_range_meters":16000,"station_id":"ce4bhch2rcd13ifvqeug","pricing_plan_id":"cebpf4jnsgd1na2vs0mg"},{"bike_id":"6ddb8e77-ca44-49ef-b268-2d9035cbb8e5","system_id":"levelo_inurba_marseille","lat":43.2861,"lon":5.35099,"is_reserved":false,"is_disabled":false,"rental_uris":{"android":"levelo://app?vid=6ddb8e77-ca44-49ef-b268-2d9035cbb8e5","ios":"levelo://app?vid=6ddb8e77-ca44-49ef-b268-2d9035cbb8e5"},"vehicle_type_id":"4","last_reported":1719140749,"current_range_meters":14800,"station_id":"ce4bhch2rcd13ifvqeug","pricing_plan_id":"cebpf4jnsgd1na2vs0mg"},{"bike_id":"28bd3bf6-886d-4869-be62-78cd1f35ce51","system_id":"levelo_inurba_marseille","lat":43.28418,"lon":5.37504,"is_reserved":false,"is_disabled":false,"rental_uris":{"android":"levelo://app?vid=28bd3bf6-886d-4869-be62-78cd1f35ce51","ios":"levelo://app?vid=28bd3bf6-886d-4869-be62-78cd1f35ce51"},"vehicle_type_id":"4","last_reported":1719140749,"current_range_meters":24800,"station_id":"ce4bh412rcd13ifvqds0","pricing_plan_id":"cebpf4jnsgd1na2vs0mg"},{"bike_id":"91696fd7-d4c5-42c5-8d13-73843af7b85c","system_id":"levelo_inurba_marseille","lat":43.283998,"lon":5.375062,"is_reserved":false,"is_disabled":false,"rental_uris":{"android":"levelo://app?vid=91696fd7-d4c5-42c5-8d13-73843af7b85c","ios":"levelo://app?vid=91696fd7-d4c5-42c5-8d13-73843af7b85c"},"vehicle_type_id":"4","last_reported":1719140749,"current_range_meters":13200,"station_id":"ce4bh412rcd13ifvqds0","pricing_plan_id":"cebpf4jnsgd1na2vs0mg"},{"bike_id":"43cb6da9-323f-4be5-b2c4-16b895b6cc95","system_id":"levelo_inurba_marseille","lat":43.28407,"lon":5.37502,"is_reserved":false,"is_disabled":false,"rental_uris":{"android":"levelo://app?vid=43cb6da9-323f-4be5-b2c4-16b895b6cc95","ios":"levelo://app?vid=43cb6da9-323f-4be5-b2c4-16b895b6cc95"},"vehicle_type_id":"4","last_reported":1719140749,"current_range_meters":0,"station_id":"ce4bh412rcd13ifvqds0","pricing_plan_id":"cebpf4jnsgd1na2vs0mg"},{"bike_id":"97a2acac-7dae-48be-ac65-d0f930811ae2","system_id":"levelo_inurba_marseille","lat":43.286595,"lon":5.386795,"is_reserved":false,"is_disabled":false,"rental_uris":{"android":"levelo://app?vid=97a2acac-7dae-48be-ac65-d0f930811ae2","ios":"levelo://app?vid=97a2acac-7dae-48be-ac65-d0f930811ae2"},"vehicle_type_id":"4","last_reported":1719140749,"current_range_meters":3600,"station_id":"ce4bh492rcd13ifvqdug","pricing_plan_id":"cebpf4jnsgd1na2vs0mg"},{"bike_id":"2099f437-d3c1-414c-8281-ef9df04435ff","system_id":"levelo_inurba_marseille","lat":43.286595,"lon":5.386795,"is_reserved":false,"is_disabled":false,"rental_uris":{"android":"levelo://app?vid=2099f437-d3c1-414c-8281-ef9df04435ff","ios":"levelo://app?vid=2099f437-d3c1-414c-8281-ef9df04435ff"},"vehicle_type_id":"4","last_reported":1719140749,"current_range_meters":800,"station_id":"ce4bh492rcd13ifvqdug","pricing_plan_id":"cebpf4jnsgd1na2vs0mg"},{"bike_id":"4c64c572-d00f-41d5-9a30-af239fedcdf8","system_id":"levelo_inurba_marseille","lat":43.319179,"lon":5.407725,"is_reserved":false,"is_disabled":false,"rental_uris":{"android":"levelo://app?vid=4c64c572-d00f-41d5-9a30-af239fedcdf8","ios":"levelo://app?vid=4c64c572-d00f-41d5-9a30-af239fedcdf8"},"vehicle_type_id":"4","last_reported":1719140749,"current_range_meters":29600,"station_id":"ce4bhq12rcd13ifvqhig","pricing_plan_id":"cebpf4jnsgd1na2vs0mg"},{"bike_id":"ada07312-6d89-4269-9d43-04fd7be8912e","system_id":"levelo_inurba_marseille","lat":43.319179,"lon":5.407725,"is_reserved":false,"is_disabled":false,"rental_uris":{"android":"levelo://app?vid=ada07312-6d89-4269-9d43-04fd7be8912e","ios":"levelo://app?vid=ada07312-6d89-4269-9d43-04fd7be8912e"},"vehicle_type_id":"4","last_reported":1719140749,"current_range_meters":28000,"station_id":"ce4bhq12rcd13ifvqhig","pricing_plan_id":"cebpf4jnsgd1na2vs0mg"},{"bike_id":"15865b33-4082-4bf0-beae-4b842a63a0d0","system_id":"levelo_inurba_marseille","lat":43.319179,"lon":5.407725,"is_reserved":false,"is_disabled":false,"rental_uris":{"android":"levelo://app?vid=15865b33-4082-4bf0-beae-4b842a63a0d0","ios":"levelo://app?vid=15865b33-4082-4bf0-beae-4b842a63a0d0"},"vehicle_type_id":"4","last_reported":1719140749,"current_range_meters":26400,"station_id":"ce4bhq12rcd13ifvqhig","pricing_plan_id":"cebpf4jnsgd1na2vs0mg"},{"bike_id":"767b65fd-938d-443b-8d89-f2d3eb508665","system_id":"levelo_inurba_marseille","lat":43.337156,"lon":5.391816,"is_reserved":false,"is_disabled":false,"rental_uris":{"android":"levelo://app?vid=767b65fd-938d-443b-8d89-f2d3eb508665","ios":"levelo://app?vid=767b65fd-938d-443b-8d89-f2d3eb508665"},"vehicle_type_id":"4","last_reported":1719140749,"current_range_meters":16000,"station_id":"ce4bhr92rcd13ifvqhsg","pricing_plan_id":"cebpf4jnsgd1na2vs0mg"},{"bike_id":"2afdc852-be28-4270-bbce-a91db1d281ca","system_id":"levelo_inurba_marseille","lat":43.33715,"lon":5.39183,"is_reserved":false,"is_disabled":false,"rental_uris":{"android":"levelo://app?vid=2afdc852-be28-4270-bbce-a91db1d281ca","ios":"levelo://app?vid=2afdc852-be28-4270-bbce-a91db1d281ca"},"vehicle_type_id":"4","last_reported":1719140749,"current_range_meters":4800,"station_id":"ce4bhr92rcd13ifvqhsg","pricing_plan_id":"cebpf4jnsgd1na2vs0mg"},{"bike_id":"f3afbcfa-fef5-4566-b335-b95d65d96a32","system_id":"levelo_inurba_marseille","lat":43.33717,"lon":5.39185,"is_reserved":false,"is_disabled":false,"rental_uris":{"android":"levelo://app?vid=f3afbcfa-fef5-4566-b335-b95d65d96a32","ios":"levelo://app?vid=f3afbcfa-fef5-4566-b335-b95d65d96a32"},"vehicle_type_id":"4","last_reported":1719140749,"current_range_meters":400,"station_id":"ce4bhr92rcd13ifvqhsg","pricing_plan_id":"cebpf4jnsgd1na2vs0mg"},{"bike_id":"3720418d-da95-43ab-883e-5ec4534758a0","system_id":"levelo_inurba_marseille","lat":43.337237,"lon":5.391806,"is_reserved":false,"is_disabled":false,"rental_uris":{"android":"levelo://app?vid=3720418d-da95-43ab-883e-5ec4534758a0","ios":"levelo://app?vid=3720418d-da95-43ab-883e-5ec4534758a0"},"vehicle_type_id":"4","last_reported":1719140749,"current_range_meters":6800,"station_id":"ce4bhr92rcd13ifvqhsg","pricing_plan_id":"cebpf4jnsgd1na2vs0mg"},{"bike_id":"0918e82f-3b63-4c84-bb61-304963c60093","system_id":"levelo_inurba_marseille","lat":43.323464,"lon":5.406297,"is_reserved":false,"is_disabled":false,"rental_uris":{"android":"levelo://app?vid=0918e82f-3b63-4c84-bb61-304963c60093","ios":"levelo://app?vid=0918e82f-3b63-4c84-bb61-304963c60093"},"vehicle_type_id":"4","last_reported":1719140749,"current_range_meters":27200,"station_id":"ce4bhq92rcd13ifvqhjg","pricing_plan_id":"cebpf4jnsgd1na2vs0mg"},{"bike_id":"7c936375-8047-451b-9f95-3c06bd01c0f6","system_id":"levelo_inurba_marseille","lat":43.33724,"lon":5.39185,"is_reserved":false,"is_disabled":false,"rental_uris":{"android":"levelo://app?vid=7c936375-8047-451b-9f95-3c06bd01c0f6","ios":"levelo://app?vid=7c936375-8047-451b-9f95-3c06bd01c0f6"},"vehicle_type_id":"4","last_reported":1719140749,"current_range_meters":31200,"station_id":"ce4bhr92rcd13ifvqhsg","pricing_plan_id":"cebpf4jnsgd1na2vs0mg"},{"bike_id":"2f372673-34b6-4d76-8bf4-1257331c3399","system_id":"levelo_inurba_marseille","lat":43.3234,"lon":5.40619,"is_reserved":false,"is_disabled":false,"rental_uris":{"android":"levelo://app?vid=2f372673-34b6-4d76-8bf4-1257331c3399","ios":"levelo://app?vid=2f372673-34b6-4d76-8bf4-1257331c3399"},"vehicle_type_id":"4","last_reported":1719140749,"current_range_meters":0,"station_id":"ce4bhq92rcd13ifvqhjg","pricing_plan_id":"cebpf4jnsgd1na2vs0mg"},{"bike_id":"77368b7a-bce0-4818-98f2-e0d1bb1fb594","system_id":"levelo_inurba_marseille","lat":43.32337,"lon":5.40625,"is_reserved":false,"is_disabled":false,"rental_uris":{"android":"levelo://app?vid=77368b7a-bce0-4818-98f2-e0d1bb1fb594","ios":"levelo://app?vid=77368b7a-bce0-4818-98f2-e0d1bb1fb594"},"vehicle_type_id":"4","last_reported":1719140749,"current_range_meters":13600,"station_id":"ce4bhq92rcd13ifvqhjg","pricing_plan_id":"cebpf4jnsgd1na2vs0mg"},{"bike_id":"cc8beb5b-74d6-4079-803e-59016dbade8f","system_id":"levelo_inurba_marseille","lat":43.283494,"lon":5.380945,"is_reserved":false,"is_disabled":false,"rental_uris":{"android":"levelo://app?vid=cc8beb5b-74d6-4079-803e-59016dbade8f","ios":"levelo://app?vid=cc8beb5b-74d6-4079-803e-59016dbade8f"},"vehicle_type_id":"4","last_reported":1719140749,"current_range_meters":6400,"station_id":"ce4bh412rcd13ifvqdr0","pricing_plan_id":"cebpf4jnsgd1na2vs0mg"},{"bike_id":"11303ae9-7e8f-41ae-abc8-efcd49f7212e","system_id":"levelo_inurba_marseille","lat":43.28431,"lon":5.34995,"is_reserved":false,"is_disabled":false,"rental_uris":{"android":"levelo://app?vid=11303ae9-7e8f-41ae-abc8-efcd49f7212e","ios":"levelo://app?vid=11303ae9-7e8f-41ae-abc8-efcd49f7212e"},"vehicle_type_id":"4","last_reported":1719140749,"current_range_meters":23600,"station_id":"ce4bhbh2rcd13ifvqepg","pricing_plan_id":"cebpf4jnsgd1na2vs0mg"},{"bike_id":"dc2d463f-1b27-4101-b4a9-3d5ab9dc7d10","system_id":"levelo_inurba_marseille","lat":43.284214,"lon":5.349706,"is_reserved":false,"is_disabled":false,"rental_uris":{"android":"levelo://app?vid=dc2d463f-1b27-4101-b4a9-3d5ab9dc7d10","ios":"levelo://app?vid=dc2d463f-1b27-4101-b4a9-3d5ab9dc7d10"},"vehicle_type_id":"4","last_reported":1719140749,"current_range_meters":30400,"station_id":"ce4bhbh2rcd13ifvqepg","pricing_plan_id":"cebpf4jnsgd1na2vs0mg"},{"bike_id":"9664aec4-2609-4311-8815-d85b847650c4","system_id":"levelo_inurba_marseille","lat":43.28424,"lon":5.34992,"is_reserved":false,"is_disabled":false,"rental_uris":{"android":"levelo://app?vid=9664aec4-2609-4311-8815-d85b847650c4","ios":"levelo://app?vid=9664aec4-2609-4311-8815-d85b847650c4"},"vehicle_type_id":"4","last_reported":1719140749,"current_range_meters":11200,"station_id":"ce4bhbh2rcd13ifvqepg","pricing_plan_id":"cebpf4jnsgd1na2vs0mg"},{"bike_id":"9a3b38d2-e258-4431-9e64-3806520cfeb1","system_id":"levelo_inurba_marseille","lat":43.28424,"lon":5.34987,"is_reserved":false,"is_disabled":false,"rental_uris":{"android":"levelo://app?vid=9a3b38d2-e258-4431-9e64-3806520cfeb1","ios":"levelo://app?vid=9a3b38d2-e258-4431-9e64-3806520cfeb1"},"vehicle_type_id":"4","last_reported":1719140749,"current_range_meters":26400,"station_id":"ce4bhbh2rcd13ifvqepg","pricing_plan_id":"cebpf4jnsgd1na2vs0mg"},{"bike_id":"4a07e63a-1fdb-48d5-8675-eb51b34185e6","system_id":"levelo_inurba_marseille","lat":43.284219,"lon":5.3497,"is_reserved":false,"is_disabled":false,"rental_uris":{"android":"levelo://app?vid=4a07e63a-1fdb-48d5-8675-eb51b34185e6","ios":"levelo://app?vid=4a07e63a-1fdb-48d5-8675-eb51b34185e6"},"vehicle_type_id":"4","last_reported":1719140749,"current_range_meters":23600,"station_id":"ce4bhbh2rcd13ifvqepg","pricing_plan_id":"cebpf4jnsgd1na2vs0mg"},{"bike_id":"b3937e56-f839-4f16-a32e-114c687ced4a","system_id":"levelo_inurba_marseille","lat":43.28423,"lon":5.34987,"is_reserved":false,"is_disabled":false,"rental_uris":{"android":"levelo://app?vid=b3937e56-f839-4f16-a32e-114c687ced4a","ios":"levelo://app?vid=b3937e56-f839-4f16-a32e-114c687ced4a"},"vehicle_type_id":"4","last_reported":1719140749,"current_range_meters":400,"station_id":"ce4bhbh2rcd13ifvqepg","pricing_plan_id":"cebpf4jnsgd1na2vs0mg"},{"bike_id":"3a0d0980-fb5d-4d32-b92c-d91bf0423260","system_id":"levelo_inurba_marseille","lat":43.28423,"lon":5.34983,"is_reserved":false,"is_disabled":false,"rental_uris":{"android":"levelo://app?vid=3a0d0980-fb5d-4d32-b92c-d91bf0423260","ios":"levelo://app?vid=3a0d0980-fb5d-4d32-b92c-d91bf0423260"},"vehicle_type_id":"4","last_reported":1719140749,"current_range_meters":18000,"station_id":"ce4bhbh2rcd13ifvqepg","pricing_plan_id":"cebpf4jnsgd1na2vs0mg"},{"bike_id":"cc682662-7c71-4cda-ac92-b1f3ddeb9387","system_id":"levelo_inurba_marseille","lat":43.28423,"lon":5.34983,"is_reserved":false,"is_disabled":false,"rental_uris":{"android":"levelo://app?vid=cc682662-7c71-4cda-ac92-b1f3ddeb9387","ios":"levelo://app?vid=cc682662-7c71-4cda-ac92-b1f3ddeb9387"},"vehicle_type_id":"4","last_reported":1719140749,"current_range_meters":1200,"station_id":"ce4bhbh2rcd13ifvqepg","pricing_plan_id":"cebpf4jnsgd1na2vs0mg"},{"bike_id":"9b219efc-6a0e-4f26-be97-ede93225b821","system_id":"levelo_inurba_marseille","lat":43.28421,"lon":5.34988,"is_reserved":false,"is_disabled":false,"rental_uris":{"android":"levelo://app?vid=9b219efc-6a0e-4f26-be97-ede93225b821","ios":"levelo://app?vid=9b219efc-6a0e-4f26-be97-ede93225b821"},"vehicle_type_id":"4","last_reported":1719140749,"current_range_meters":24800,"station_id":"ce4bhbh2rcd13ifvqepg","pricing_plan_id":"cebpf4jnsgd1na2vs0mg"},{"bike_id":"69643fee-b82b-44e5-bfb5-63e0f2d9bc00","system_id":"levelo_inurba_marseille","lat":43.28419,"lon":5.34991,"is_reserved":false,"is_disabled":false,"rental_uris":{"android":"levelo://app?vid=69643fee-b82b-44e5-bfb5-63e0f2d9bc00","ios":"levelo://app?vid=69643fee-b82b-44e5-bfb5-63e0f2d9bc00"},"vehicle_type_id":"4","last_reported":1719140749,"current_range_meters":31200,"station_id":"ce4bhbh2rcd13ifvqepg","pricing_plan_id":"cebpf4jnsgd1na2vs0mg"},{"bike_id":"25e2f04f-a9d9-4072-a89e-5a5df7771d0e","system_id":"levelo_inurba_marseille","lat":43.28424,"lon":5.34975,"is_reserved":false,"is_disabled":false,"rental_uris":{"android":"levelo://app?vid=25e2f04f-a9d9-4072-a89e-5a5df7771d0e","ios":"levelo://app?vid=25e2f04f-a9d9-4072-a89e-5a5df7771d0e"},"vehicle_type_id":"4","last_reported":1719140749,"current_range_meters":20400,"station_id":"ce4bhbh2rcd13ifvqepg","pricing_plan_id":"cebpf4jnsgd1na2vs0mg"},{"bike_id":"3227355a-3326-4911-95e0-d8a33f8bfba4","system_id":"levelo_inurba_marseille","lat":43.28418,"lon":5.34987,"is_reserved":false,"is_disabled":false,"rental_uris":{"android":"levelo://app?vid=3227355a-3326-4911-95e0-d8a33f8bfba4","ios":"levelo://app?vid=3227355a-3326-4911-95e0-d8a33f8bfba4"},"vehicle_type_id":"4","last_reported":1719140749,"current_range_meters":14400,"station_id":"ce4bhbh2rcd13ifvqepg","pricing_plan_id":"cebpf4jnsgd1na2vs0mg"},{"bike_id":"c320cd45-492c-4cf8-982a-e946d37b3e21","system_id":"levelo_inurba_marseille","lat":43.284198,"lon":5.349792,"is_reserved":false,"is_disabled":false,"rental_uris":{"android":"levelo://app?vid=c320cd45-492c-4cf8-982a-e946d37b3e21","ios":"levelo://app?vid=c320cd45-492c-4cf8-982a-e946d37b3e21"},"vehicle_type_id":"4","last_reported":1719140749,"current_range_meters":4800,"station_id":"ce4bhbh2rcd13ifvqepg","pricing_plan_id":"cebpf4jnsgd1na2vs0mg"},{"bike_id":"7b3820c1-f985-4dac-b23d-e6080bff60a0","system_id":"levelo_inurba_marseille","lat":43.28421,"lon":5.34972,"is_reserved":false,"is_disabled":false,"rental_uris":{"android":"levelo://app?vid=7b3820c1-f985-4dac-b23d-e6080bff60a0","ios":"levelo://app?vid=7b3820c1-f985-4dac-b23d-e6080bff60a0"},"vehicle_type_id":"4","last_reported":1719140749,"current_range_meters":27600,"station_id":"ce4bhbh2rcd13ifvqepg","pricing_plan_id":"cebpf4jnsgd1na2vs0mg"},{"bike_id":"d93f52e9-f3d4-4524-811d-8d86437e5038","system_id":"levelo_inurba_marseille","lat":43.28419,"lon":5.34978,"is_reserved":false,"is_disabled":false,"rental_uris":{"android":"levelo://app?vid=d93f52e9-f3d4-4524-811d-8d86437e5038","ios":"levelo://app?vid=d93f52e9-f3d4-4524-811d-8d86437e5038"},"vehicle_type_id":"4","last_reported":1719140749,"current_range_meters":24000,"station_id":"ce4bhbh2rcd13ifvqepg","pricing_plan_id":"cebpf4jnsgd1na2vs0mg"},{"bike_id":"89d2d7b2-ec79-4f98-a943-34670f05e315","system_id":"levelo_inurba_marseille","lat":43.284219,"lon":5.3497,"is_reserved":false,"is_disabled":false,"rental_uris":{"android":"levelo://app?vid=89d2d7b2-ec79-4f98-a943-34670f05e315","ios":"levelo://app?vid=89d2d7b2-ec79-4f98-a943-34670f05e315"},"vehicle_type_id":"4","last_reported":1719140749,"current_range_meters":9600,"station_id":"ce4bhbh2rcd13ifvqepg","pricing_plan_id":"cebpf4jnsgd1na2vs0mg"},{"bike_id":"5ed26713-616a-46f2-a972-55a221a97768","system_id":"levelo_inurba_marseille","lat":43.28417,"lon":5.34979,"is_reserved":false,"is_disabled":false,"rental_uris":{"android":"levelo://app?vid=5ed26713-616a-46f2-a972-55a221a97768","ios":"levelo://app?vid=5ed26713-616a-46f2-a972-55a221a97768"},"vehicle_type_id":"4","last_reported":1719140749,"current_range_meters":6800,"station_id":"ce4bhbh2rcd13ifvqepg","pricing_plan_id":"cebpf4jnsgd1na2vs0mg"},{"bike_id":"7d519584-725d-4c17-b282-9a9dc3533303","system_id":"levelo_inurba_marseille","lat":43.284147,"lon":5.349853,"is_reserved":false,"is_disabled":false,"rental_uris":{"android":"levelo://app?vid=7d519584-725d-4c17-b282-9a9dc3533303","ios":"levelo://app?vid=7d519584-725d-4c17-b282-9a9dc3533303"},"vehicle_type_id":"4","last_reported":1719140749,"current_range_meters":31200,"station_id":"ce4bhbh2rcd13ifvqepg","pricing_plan_id":"cebpf4jnsgd1na2vs0mg"},{"bike_id":"85a7aa0c-a71a-4254-9918-b7497f342de7","system_id":"levelo_inurba_marseille","lat":43.284154,"lon":5.349758,"is_reserved":false,"is_disabled":false,"rental_uris":{"android":"levelo://app?vid=85a7aa0c-a71a-4254-9918-b7497f342de7","ios":"levelo://app?vid=85a7aa0c-a71a-4254-9918-b7497f342de7"},"vehicle_type_id":"4","last_reported":1719140749,"current_range_meters":21600,"station_id":"ce4bhbh2rcd13ifvqepg","pricing_plan_id":"cebpf4jnsgd1na2vs0mg"},{"bike_id":"9deaf663-f83a-40c0-88b9-45376bf5cd72","system_id":"levelo_inurba_marseille","lat":43.284146,"lon":5.349755,"is_reserved":false,"is_disabled":false,"rental_uris":{"android":"levelo://app?vid=9deaf663-f83a-40c0-88b9-45376bf5cd72","ios":"levelo://app?vid=9deaf663-f83a-40c0-88b9-45376bf5cd72"},"vehicle_type_id":"4","last_reported":1719140749,"current_range_meters":21200,"station_id":"ce4bhbh2rcd13ifvqepg","pricing_plan_id":"cebpf4jnsgd1na2vs0mg"},{"bike_id":"4031632d-8c38-476f-bb4d-7b07422fbae7","system_id":"levelo_inurba_marseille","lat":43.28415,"lon":5.34972,"is_reserved":false,"is_disabled":false,"rental_uris":{"android":"levelo://app?vid=4031632d-8c38-476f-bb4d-7b07422fbae7","ios":"levelo://app?vid=4031632d-8c38-476f-bb4d-7b07422fbae7"},"vehicle_type_id":"4","last_reported":1719140749,"current_range_meters":21200,"station_id":"ce4bhbh2rcd13ifvqepg","pricing_plan_id":"cebpf4jnsgd1na2vs0mg"},{"bike_id":"ddcd7f24-60e6-4508-970a-9e77d7f08de2","system_id":"levelo_inurba_marseille","lat":43.28412,"lon":5.34978,"is_reserved":false,"is_disabled":false,"rental_uris":{"android":"levelo://app?vid=ddcd7f24-60e6-4508-970a-9e77d7f08de2","ios":"levelo://app?vid=ddcd7f24-60e6-4508-970a-9e77d7f08de2"},"vehicle_type_id":"4","last_reported":1719140749,"current_range_meters":4000,"station_id":"ce4bhbh2rcd13ifvqepg","pricing_plan_id":"cebpf4jnsgd1na2vs0mg"},{"bike_id":"7e8affc1-d43b-44e1-85e5-c26242b1e511","system_id":"levelo_inurba_marseille","lat":43.28408,"lon":5.34986,"is_reserved":false,"is_disabled":false,"rental_uris":{"android":"levelo://app?vid=7e8affc1-d43b-44e1-85e5-c26242b1e511","ios":"levelo://app?vid=7e8affc1-d43b-44e1-85e5-c26242b1e511"},"vehicle_type_id":"4","last_reported":1719140749,"current_range_meters":29200,"station_id":"ce4bhbh2rcd13ifvqepg","pricing_plan_id":"cebpf4jnsgd1na2vs0mg"},{"bike_id":"3385f749-4917-4001-b903-323da09afaa1","system_id":"levelo_inurba_marseille","lat":43.289363,"lon":5.396322,"is_reserved":false,"is_disabled":false,"rental_uris":{"android":"levelo://app?vid=3385f749-4917-4001-b903-323da09afaa1","ios":"levelo://app?vid=3385f749-4917-4001-b903-323da09afaa1"},"vehicle_type_id":"4","last_reported":1719140749,"current_range_meters":23600,"station_id":"ce4bh3h2rcd13ifvqdn0","pricing_plan_id":"cebpf4jnsgd1na2vs0mg"},{"bike_id":"ee0f2bf9-9b18-423b-969f-4dd2190fd593","system_id":"levelo_inurba_marseille","lat":43.282897,"lon":5.35081,"is_reserved":false,"is_disabled":false,"rental_uris":{"android":"levelo://app?vid=ee0f2bf9-9b18-423b-969f-4dd2190fd593","ios":"levelo://app?vid=ee0f2bf9-9b18-423b-969f-4dd2190fd593"},"vehicle_type_id":"4","last_reported":1719140749,"current_range_meters":11200,"station_id":"ce4bhbp2rcd13ifvqerg","pricing_plan_id":"cebpf4jnsgd1na2vs0mg"},{"bike_id":"d9e0c6dc-7b79-4b04-bd2e-1d8b70e28386","system_id":"levelo_inurba_marseille","lat":43.282788,"lon":5.350773,"is_reserved":false,"is_disabled":false,"rental_uris":{"android":"levelo://app?vid=d9e0c6dc-7b79-4b04-bd2e-1d8b70e28386","ios":"levelo://app?vid=d9e0c6dc-7b79-4b04-bd2e-1d8b70e28386"},"vehicle_type_id":"4","last_reported":1719140749,"current_range_meters":20400,"station_id":"ce4bhbp2rcd13ifvqerg","pricing_plan_id":"cebpf4jnsgd1na2vs0mg"},{"bike_id":"c17f5b1e-30ed-4877-b501-b594f427db71","system_id":"levelo_inurba_marseille","lat":43.28277,"lon":5.35067,"is_reserved":false,"is_disabled":false,"rental_uris":{"android":"levelo://app?vid=c17f5b1e-30ed-4877-b501-b594f427db71","ios":"levelo://app?vid=c17f5b1e-30ed-4877-b501-b594f427db71"},"vehicle_type_id":"4","last_reported":1719140749,"current_range_meters":3600,"station_id":"ce4bhbp2rcd13ifvqerg","pricing_plan_id":"cebpf4jnsgd1na2vs0mg"},{"bike_id":"e96e6892-a7c0-4c56-b145-dc92f0f96088","system_id":"levelo_inurba_marseille","lat":43.28279,"lon":5.35054,"is_reserved":false,"is_disabled":false,"rental_uris":{"android":"levelo://app?vid=e96e6892-a7c0-4c56-b145-dc92f0f96088","ios":"levelo://app?vid=e96e6892-a7c0-4c56-b145-dc92f0f96088"},"vehicle_type_id":"4","last_reported":1719140749,"current_range_meters":16000,"station_id":"ce4bhbp2rcd13ifvqerg","pricing_plan_id":"cebpf4jnsgd1na2vs0mg"},{"bike_id":"5ae0e3b3-06dd-4452-83da-d07b19da03e5","system_id":"levelo_inurba_marseille","lat":43.282713,"lon":5.35079,"is_reserved":false,"is_disabled":false,"rental_uris":{"android":"levelo://app?vid=5ae0e3b3-06dd-4452-83da-d07b19da03e5","ios":"levelo://app?vid=5ae0e3b3-06dd-4452-83da-d07b19da03e5"},"vehicle_type_id":"4","last_reported":1719140749,"current_range_meters":11200,"station_id":"ce4bhbp2rcd13ifvqerg","pricing_plan_id":"cebpf4jnsgd1na2vs0mg"},{"bike_id":"c5992670-c545-4c23-9824-8d9629be40a1","system_id":"levelo_inurba_marseille","lat":43.28275,"lon":5.35063,"is_reserved":false,"is_disabled":false,"rental_uris":{"android":"levelo://app?vid=c5992670-c545-4c23-9824-8d9629be40a1","ios":"levelo://app?vid=c5992670-c545-4c23-9824-8d9629be40a1"},"vehicle_type_id":"4","last_reported":1719140749,"current_range_meters":29200,"station_id":"ce4bhbp2rcd13ifvqerg","pricing_plan_id":"cebpf4jnsgd1na2vs0mg"},{"bike_id":"12f9a6a3-4d58-4b49-a6f6-06cfff657ee9","system_id":"levelo_inurba_marseille","lat":43.282735,"lon":5.350645,"is_reserved":false,"is_disabled":false,"rental_uris":{"android":"levelo://app?vid=12f9a6a3-4d58-4b49-a6f6-06cfff657ee9","ios":"levelo://app?vid=12f9a6a3-4d58-4b49-a6f6-06cfff657ee9"},"vehicle_type_id":"4","last_reported":1719140749,"current_range_meters":13200,"station_id":"ce4bhbp2rcd13ifvqerg","pricing_plan_id":"cebpf4jnsgd1na2vs0mg"},{"bike_id":"8de472fe-5aa8-4786-a25c-045d983d44cd","system_id":"levelo_inurba_marseille","lat":43.282713,"lon":5.350673,"is_reserved":false,"is_disabled":false,"rental_uris":{"android":"levelo://app?vid=8de472fe-5aa8-4786-a25c-045d983d44cd","ios":"levelo://app?vid=8de472fe-5aa8-4786-a25c-045d983d44cd"},"vehicle_type_id":"4","last_reported":1719140749,"current_range_meters":18000,"station_id":"ce4bhbp2rcd13ifvqerg","pricing_plan_id":"cebpf4jnsgd1na2vs0mg"},{"bike_id":"9093ad8b-a087-40d9-ba6b-fc7ba6bc917d","system_id":"levelo_inurba_marseille","lat":43.282695,"lon":5.350633,"is_reserved":false,"is_disabled":false,"rental_uris":{"android":"levelo://app?vid=9093ad8b-a087-40d9-ba6b-fc7ba6bc917d","ios":"levelo://app?vid=9093ad8b-a087-40d9-ba6b-fc7ba6bc917d"},"vehicle_type_id":"4","last_reported":1719140749,"current_range_meters":28000,"station_id":"ce4bhbp2rcd13ifvqerg","pricing_plan_id":"cebpf4jnsgd1na2vs0mg"},{"bike_id":"8397cb22-9ba1-421b-b640-6b90694ff4a0","system_id":"levelo_inurba_marseille","lat":43.28267,"lon":5.3507,"is_reserved":false,"is_disabled":false,"rental_uris":{"android":"levelo://app?vid=8397cb22-9ba1-421b-b640-6b90694ff4a0","ios":"levelo://app?vid=8397cb22-9ba1-421b-b640-6b90694ff4a0"},"vehicle_type_id":"4","last_reported":1719140749,"current_range_meters":11200,"station_id":"ce4bhbp2rcd13ifvqerg","pricing_plan_id":"cebpf4jnsgd1na2vs0mg"},{"bike_id":"3131563f-2081-4bfb-abaa-c69441f9db3d","system_id":"levelo_inurba_marseille","lat":43.28268,"lon":5.35066,"is_reserved":false,"is_disabled":false,"rental_uris":{"android":"levelo://app?vid=3131563f-2081-4bfb-abaa-c69441f9db3d","ios":"levelo://app?vid=3131563f-2081-4bfb-abaa-c69441f9db3d"},"vehicle_type_id":"4","last_reported":1719140749,"current_range_meters":1200,"station_id":"ce4bhbp2rcd13ifvqerg","pricing_plan_id":"cebpf4jnsgd1na2vs0mg"},{"bike_id":"f90139d1-8bb8-4072-ad85-4b9ffbf0d825","system_id":"levelo_inurba_marseille","lat":43.2827,"lon":5.35056,"is_reserved":false,"is_disabled":false,"rental_uris":{"android":"levelo://app?vid=f90139d1-8bb8-4072-ad85-4b9ffbf0d825","ios":"levelo://app?vid=f90139d1-8bb8-4072-ad85-4b9ffbf0d825"},"vehicle_type_id":"4","last_reported":1719140749,"current_range_meters":9200,"station_id":"ce4bhbp2rcd13ifvqerg","pricing_plan_id":"cebpf4jnsgd1na2vs0mg"},{"bike_id":"f4163b1c-fe01-4a02-bce5-5c3822fbacb2","system_id":"levelo_inurba_marseille","lat":43.28268,"lon":5.35062,"is_reserved":false,"is_disabled":false,"rental_uris":{"android":"levelo://app?vid=f4163b1c-fe01-4a02-bce5-5c3822fbacb2","ios":"levelo://app?vid=f4163b1c-fe01-4a02-bce5-5c3822fbacb2"},"vehicle_type_id":"4","last_reported":1719140749,"current_range_meters":8800,"station_id":"ce4bhbp2rcd13ifvqerg","pricing_plan_id":"cebpf4jnsgd1na2vs0mg"},{"bike_id":"a68828ae-cd8b-4c38-9bf7-4efdfd72ee01","system_id":"levelo_inurba_marseille","lat":43.282661,"lon":5.350682,"is_reserved":false,"is_disabled":false,"rental_uris":{"android":"levelo://app?vid=a68828ae-cd8b-4c38-9bf7-4efdfd72ee01","ios":"levelo://app?vid=a68828ae-cd8b-4c38-9bf7-4efdfd72ee01"},"vehicle_type_id":"4","last_reported":1719140749,"current_range_meters":27600,"station_id":"ce4bhbp2rcd13ifvqerg","pricing_plan_id":"cebpf4jnsgd1na2vs0mg"},{"bike_id":"93d327ca-139c-429c-9a23-873df2197742","system_id":"levelo_inurba_marseille","lat":43.28266,"lon":5.35066,"is_reserved":false,"is_disabled":false,"rental_uris":{"android":"levelo://app?vid=93d327ca-139c-429c-9a23-873df2197742","ios":"levelo://app?vid=93d327ca-139c-429c-9a23-873df2197742"},"vehicle_type_id":"4","last_reported":1719140749,"current_range_meters":13600,"station_id":"ce4bhbp2rcd13ifvqerg","pricing_plan_id":"cebpf4jnsgd1na2vs0mg"},{"bike_id":"768e5469-a0e1-44f5-9670-5daf2643b561","system_id":"levelo_inurba_marseille","lat":43.28268,"lon":5.35058,"is_reserved":false,"is_disabled":false,"rental_uris":{"android":"levelo://app?vid=768e5469-a0e1-44f5-9670-5daf2643b561","ios":"levelo://app?vid=768e5469-a0e1-44f5-9670-5daf2643b561"},"vehicle_type_id":"4","last_reported":1719140749,"current_range_meters":2400,"station_id":"ce4bhbp2rcd13ifvqerg","pricing_plan_id":"cebpf4jnsgd1na2vs0mg"},{"bike_id":"4fd4fdd8-95a8-40e9-bba6-3952051b9aa2","system_id":"levelo_inurba_marseille","lat":43.28269,"lon":5.35053,"is_reserved":false,"is_disabled":false,"rental_uris":{"android":"levelo://app?vid=4fd4fdd8-95a8-40e9-bba6-3952051b9aa2","ios":"levelo://app?vid=4fd4fdd8-95a8-40e9-bba6-3952051b9aa2"},"vehicle_type_id":"4","last_reported":1719140749,"current_range_meters":2000,"station_id":"ce4bhbp2rcd13ifvqerg","pricing_plan_id":"cebpf4jnsgd1na2vs0mg"},{"bike_id":"e875ba19-8ecf-43dc-b177-c3b1754867d6","system_id":"levelo_inurba_marseille","lat":43.282744,"lon":5.350533,"is_reserved":false,"is_disabled":false,"rental_uris":{"android":"levelo://app?vid=e875ba19-8ecf-43dc-b177-c3b1754867d6","ios":"levelo://app?vid=e875ba19-8ecf-43dc-b177-c3b1754867d6"},"vehicle_type_id":"4","last_reported":1719140749,"current_range_meters":11200,"station_id":"ce4bhbp2rcd13ifvqerg","pricing_plan_id":"cebpf4jnsgd1na2vs0mg"},{"bike_id":"e67310d7-ff66-429e-a9c0-0ca47e41cadf","system_id":"levelo_inurba_marseille","lat":43.28267,"lon":5.35059,"is_reserved":false,"is_disabled":false,"rental_uris":{"android":"levelo://app?vid=e67310d7-ff66-429e-a9c0-0ca47e41cadf","ios":"levelo://app?vid=e67310d7-ff66-429e-a9c0-0ca47e41cadf"},"vehicle_type_id":"4","last_reported":1719140749,"current_range_meters":14800,"station_id":"ce4bhbp2rcd13ifvqerg","pricing_plan_id":"cebpf4jnsgd1na2vs0mg"},{"bike_id":"87efef77-0337-4307-a6f9-46c67dfbe10e","system_id":"levelo_inurba_marseille","lat":43.282658,"lon":5.350625,"is_reserved":false,"is_disabled":false,"rental_uris":{"android":"levelo://app?vid=87efef77-0337-4307-a6f9-46c67dfbe10e","ios":"levelo://app?vid=87efef77-0337-4307-a6f9-46c67dfbe10e"},"vehicle_type_id":"4","last_reported":1719140749,"current_range_meters":26400,"station_id":"ce4bhbp2rcd13ifvqerg","pricing_plan_id":"cebpf4jnsgd1na2vs0mg"},{"bike_id":"fa933fcf-a795-44f5-86f0-f90e741b414c","system_id":"levelo_inurba_marseille","lat":43.28264,"lon":5.35066,"is_reserved":false,"is_disabled":false,"rental_uris":{"android":"levelo://app?vid=fa933fcf-a795-44f5-86f0-f90e741b414c","ios":"levelo://app?vid=fa933fcf-a795-44f5-86f0-f90e741b414c"},"vehicle_type_id":"4","last_reported":1719140749,"current_range_meters":12000,"station_id":"ce4bhbp2rcd13ifvqerg","pricing_plan_id":"cebpf4jnsgd1na2vs0mg"},{"bike_id":"b1793149-3a8a-4fd4-b687-8878db876a5d","system_id":"levelo_inurba_marseille","lat":43.28365,"lon":5.38637,"is_reserved":false,"is_disabled":false,"rental_uris":{"android":"levelo://app?vid=b1793149-3a8a-4fd4-b687-8878db876a5d","ios":"levelo://app?vid=b1793149-3a8a-4fd4-b687-8878db876a5d"},"vehicle_type_id":"4","last_reported":1719140749,"current_range_meters":0,"station_id":"ce4bh492rcd13ifvqdvg","pricing_plan_id":"cebpf4jnsgd1na2vs0mg"},{"bike_id":"01d5fdff-4f8f-4df9-adec-5b3fa9ea6787","system_id":"levelo_inurba_marseille","lat":43.28263,"lon":5.35066,"is_reserved":false,"is_disabled":false,"rental_uris":{"android":"levelo://app?vid=01d5fdff-4f8f-4df9-adec-5b3fa9ea6787","ios":"levelo://app?vid=01d5fdff-4f8f-4df9-adec-5b3fa9ea6787"},"vehicle_type_id":"4","last_reported":1719140749,"current_range_meters":17600,"station_id":"ce4bhbp2rcd13ifvqerg","pricing_plan_id":"cebpf4jnsgd1na2vs0mg"},{"bike_id":"adf286b4-47da-473a-bf8c-42f98b76bb81","system_id":"levelo_inurba_marseille","lat":43.28039,"lon":5.369297,"is_reserved":false,"is_disabled":false,"rental_uris":{"android":"levelo://app?vid=adf286b4-47da-473a-bf8c-42f98b76bb81","ios":"levelo://app?vid=adf286b4-47da-473a-bf8c-42f98b76bb81"},"vehicle_type_id":"4","last_reported":1719140749,"current_range_meters":28000,"station_id":"ce4bha12rcd13ifvqef0","pricing_plan_id":"cebpf4jnsgd1na2vs0mg"},{"bike_id":"291bc905-17c3-44cc-ac22-52a0bfcd7c3c","system_id":"levelo_inurba_marseille","lat":43.28263,"lon":5.35063,"is_reserved":false,"is_disabled":false,"rental_uris":{"android":"levelo://app?vid=291bc905-17c3-44cc-ac22-52a0bfcd7c3c","ios":"levelo://app?vid=291bc905-17c3-44cc-ac22-52a0bfcd7c3c"},"vehicle_type_id":"4","last_reported":1719140749,"current_range_meters":15600,"station_id":"ce4bhbp2rcd13ifvqerg","pricing_plan_id":"cebpf4jnsgd1na2vs0mg"},{"bike_id":"7f10e06c-7721-49d7-a647-033ee33e71a8","system_id":"levelo_inurba_marseille","lat":43.282622,"lon":5.350612,"is_reserved":false,"is_disabled":false,"rental_uris":{"android":"levelo://app?vid=7f10e06c-7721-49d7-a647-033ee33e71a8","ios":"levelo://app?vid=7f10e06c-7721-49d7-a647-033ee33e71a8"},"vehicle_type_id":"4","last_reported":1719140749,"current_range_meters":24400,"station_id":"ce4bhbp2rcd13ifvqerg","pricing_plan_id":"cebpf4jnsgd1na2vs0mg"},{"bike_id":"8cc40502-b427-4d3a-8fc4-32aa9ffffc62","system_id":"levelo_inurba_marseille","lat":43.29573,"lon":5.367355,"is_reserved":false,"is_disabled":false,"rental_uris":{"android":"levelo://app?vid=8cc40502-b427-4d3a-8fc4-32aa9ffffc62","ios":"levelo://app?vid=8cc40502-b427-4d3a-8fc4-32aa9ffffc62"},"vehicle_type_id":"4","last_reported":1719140749,"current_range_meters":10000,"station_id":"ce4bgph2rcd13ifvqc2g","pricing_plan_id":"cebpf4jnsgd1na2vs0mg"},{"bike_id":"eec562b4-e961-4613-970d-dfdd58a58213","system_id":"levelo_inurba_marseille","lat":43.28039,"lon":5.369297,"is_reserved":false,"is_disabled":false,"rental_uris":{"android":"levelo://app?vid=eec562b4-e961-4613-970d-dfdd58a58213","ios":"levelo://app?vid=eec562b4-e961-4613-970d-dfdd58a58213"},"vehicle_type_id":"4","last_reported":1719140749,"current_range_meters":9600,"station_id":"ce4bha12rcd13ifvqef0","pricing_plan_id":"cebpf4jnsgd1na2vs0mg"},{"bike_id":"a5d3b6b5-cb10-43db-ad33-471e44d3c0fe","system_id":"levelo_inurba_marseille","lat":43.28039,"lon":5.369297,"is_reserved":false,"is_disabled":false,"rental_uris":{"android":"levelo://app?vid=a5d3b6b5-cb10-43db-ad33-471e44d3c0fe","ios":"levelo://app?vid=a5d3b6b5-cb10-43db-ad33-471e44d3c0fe"},"vehicle_type_id":"4","last_reported":1719140749,"current_range_meters":28400,"station_id":"ce4bha12rcd13ifvqef0","pricing_plan_id":"cebpf4jnsgd1na2vs0mg"},{"bike_id":"d11e7eb8-9345-490c-9e5e-f3d8d894f6f8","system_id":"levelo_inurba_marseille","lat":43.28261,"lon":5.35047,"is_reserved":false,"is_disabled":false,"rental_uris":{"android":"levelo://app?vid=d11e7eb8-9345-490c-9e5e-f3d8d894f6f8","ios":"levelo://app?vid=d11e7eb8-9345-490c-9e5e-f3d8d894f6f8"},"vehicle_type_id":"4","last_reported":1719140749,"current_range_meters":26800,"station_id":"ce4bhbp2rcd13ifvqerg","pricing_plan_id":"cebpf4jnsgd1na2vs0mg"},{"bike_id":"9b358e53-d838-42b6-9142-fe7304207043","system_id":"levelo_inurba_marseille","lat":43.29041,"lon":5.399634,"is_reserved":false,"is_disabled":false,"rental_uris":{"android":"levelo://app?vid=9b358e53-d838-42b6-9142-fe7304207043","ios":"levelo://app?vid=9b358e53-d838-42b6-9142-fe7304207043"},"vehicle_type_id":"4","last_reported":1719140749,"current_range_meters":12400,"station_id":"ce4bh392rcd13ifvqdm0","pricing_plan_id":"cebpf4jnsgd1na2vs0mg"},{"bike_id":"386e701d-57b5-4b00-878b-6949c76113fa","system_id":"levelo_inurba_marseille","lat":43.281044,"lon":5.378308,"is_reserved":false,"is_disabled":false,"rental_uris":{"android":"levelo://app?vid=386e701d-57b5-4b00-878b-6949c76113fa","ios":"levelo://app?vid=386e701d-57b5-4b00-878b-6949c76113fa"},"vehicle_type_id":"4","last_reported":1719140749,"current_range_meters":14800,"station_id":"ce4bha12rcd13ifvqee0","pricing_plan_id":"cebpf4jnsgd1na2vs0mg"},{"bike_id":"1cc83ced-9dab-4fc3-982e-485d98c12af4","system_id":"levelo_inurba_marseille","lat":43.29041,"lon":5.399634,"is_reserved":false,"is_disabled":false,"rental_uris":{"android":"levelo://app?vid=1cc83ced-9dab-4fc3-982e-485d98c12af4","ios":"levelo://app?vid=1cc83ced-9dab-4fc3-982e-485d98c12af4"},"vehicle_type_id":"4","last_reported":1719140749,"current_range_meters":7200,"station_id":"ce4bh392rcd13ifvqdm0","pricing_plan_id":"cebpf4jnsgd1na2vs0mg"},{"bike_id":"71394964-aa7d-4427-abaa-08608422bd75","system_id":"levelo_inurba_marseille","lat":43.296263,"lon":5.40601,"is_reserved":false,"is_disabled":false,"rental_uris":{"android":"levelo://app?vid=71394964-aa7d-4427-abaa-08608422bd75","ios":"levelo://app?vid=71394964-aa7d-4427-abaa-08608422bd75"},"vehicle_type_id":"4","last_reported":1719140749,"current_range_meters":0,"station_id":"ce4bh0h2rcd13ifvqd60","pricing_plan_id":"cebpf4jnsgd1na2vs0mg"},{"bike_id":"ec1da111-9da3-46ed-bd55-710806f11d2a","system_id":"levelo_inurba_marseille","lat":43.320045,"lon":5.415048,"is_reserved":false,"is_disabled":false,"rental_uris":{"android":"levelo://app?vid=ec1da111-9da3-46ed-bd55-710806f11d2a","ios":"levelo://app?vid=ec1da111-9da3-46ed-bd55-710806f11d2a"},"vehicle_type_id":"4","last_reported":1719140749,"current_range_meters":22000,"station_id":"ce4bhq92rcd13ifvqhkg","pricing_plan_id":"cebpf4jnsgd1na2vs0mg"},{"bike_id":"c059babf-e8a2-4c71-a8dc-c7e42844c7e0","system_id":"levelo_inurba_marseille","lat":43.284462,"lon":5.392121,"is_reserved":false,"is_disabled":false,"rental_uris":{"android":"levelo://app?vid=c059babf-e8a2-4c71-a8dc-c7e42844c7e0","ios":"levelo://app?vid=c059babf-e8a2-4c71-a8dc-c7e42844c7e0"},"vehicle_type_id":"4","last_reported":1719140749,"current_range_meters":17200,"station_id":"ce4bhoh2rcd13ifvqh5g","pricing_plan_id":"cebpf4jnsgd1na2vs0mg"},{"bike_id":"baa7eb4c-5d50-45d7-b449-6e4d61e0054f","system_id":"levelo_inurba_marseille","lat":43.3266,"lon":5.40982,"is_reserved":false,"is_disabled":false,"rental_uris":{"android":"levelo://app?vid=baa7eb4c-5d50-45d7-b449-6e4d61e0054f","ios":"levelo://app?vid=baa7eb4c-5d50-45d7-b449-6e4d61e0054f"},"vehicle_type_id":"4","last_reported":1719140749,"current_range_meters":19600,"station_id":"ce4bhpp2rcd13ifvqhgg","pricing_plan_id":"cebpf4jnsgd1na2vs0mg"},{"bike_id":"091587c5-5095-4396-be9f-8d5aca93e060","system_id":"levelo_inurba_marseille","lat":43.279087,"lon":5.380114,"is_reserved":false,"is_disabled":false,"rental_uris":{"android":"levelo://app?vid=091587c5-5095-4396-be9f-8d5aca93e060","ios":"levelo://app?vid=091587c5-5095-4396-be9f-8d5aca93e060"},"vehicle_type_id":"4","last_reported":1719140749,"current_range_meters":26400,"station_id":"ce4bhf92rcd13ifvqf50","pricing_plan_id":"cebpf4jnsgd1na2vs0mg"},{"bike_id":"5b4e9089-6a30-4d47-8c91-b470eb1f03b5","system_id":"levelo_inurba_marseille","lat":43.320045,"lon":5.415046,"is_reserved":false,"is_disabled":false,"rental_uris":{"android":"levelo://app?vid=5b4e9089-6a30-4d47-8c91-b470eb1f03b5","ios":"levelo://app?vid=5b4e9089-6a30-4d47-8c91-b470eb1f03b5"},"vehicle_type_id":"4","last_reported":1719140749,"current_range_meters":28000,"station_id":"ce4bhq92rcd13ifvqhkg","pricing_plan_id":"cebpf4jnsgd1na2vs0mg"},{"bike_id":"f5dc8eec-7e36-4297-b667-72edb68ee419","system_id":"levelo_inurba_marseille","lat":43.299579,"lon":5.413255,"is_reserved":false,"is_disabled":false,"rental_uris":{"android":"levelo://app?vid=f5dc8eec-7e36-4297-b667-72edb68ee419","ios":"levelo://app?vid=f5dc8eec-7e36-4297-b667-72edb68ee419"},"vehicle_type_id":"4","last_reported":1719140749,"current_range_meters":28000,"station_id":"ce4bhp12rcd13ifvqh9g","pricing_plan_id":"cebpf4jnsgd1na2vs0mg"},{"bike_id":"62ad3bf7-68fe-478b-af52-c4cd6d61819f","system_id":"levelo_inurba_marseille","lat":43.320045,"lon":5.415048,"is_reserved":false,"is_disabled":false,"rental_uris":{"android":"levelo://app?vid=62ad3bf7-68fe-478b-af52-c4cd6d61819f","ios":"levelo://app?vid=62ad3bf7-68fe-478b-af52-c4cd6d61819f"},"vehicle_type_id":"4","last_reported":1719140749,"current_range_meters":24000,"station_id":"ce4bhq92rcd13ifvqhkg","pricing_plan_id":"cebpf4jnsgd1na2vs0mg"},{"bike_id":"a5308812-6465-4f1a-be5b-423290e50fac","system_id":"levelo_inurba_marseille","lat":43.320045,"lon":5.415048,"is_reserved":false,"is_disabled":false,"rental_uris":{"android":"levelo://app?vid=a5308812-6465-4f1a-be5b-423290e50fac","ios":"levelo://app?vid=a5308812-6465-4f1a-be5b-423290e50fac"},"vehicle_type_id":"4","last_reported":1719140749,"current_range_meters":31600,"station_id":"ce4bhq92rcd13ifvqhkg","pricing_plan_id":"cebpf4jnsgd1na2vs0mg"},{"bike_id":"b2902056-f39c-4575-aad5-efd5213068ff","system_id":"levelo_inurba_marseille","lat":43.27957,"lon":5.38695,"is_reserved":false,"is_disabled":false,"rental_uris":{"android":"levelo://app?vid=b2902056-f39c-4575-aad5-efd5213068ff","ios":"levelo://app?vid=b2902056-f39c-4575-aad5-efd5213068ff"},"vehicle_type_id":"4","last_reported":1719140749,"current_range_meters":23200,"station_id":"ce4bhg12rcd13ifvqf80","pricing_plan_id":"cebpf4jnsgd1na2vs0mg"},{"bike_id":"b87101c0-e4c5-469a-85d4-4f899efffa67","system_id":"levelo_inurba_marseille","lat":43.325233,"lon":5.414318,"is_reserved":false,"is_disabled":false,"rental_uris":{"android":"levelo://app?vid=b87101c0-e4c5-469a-85d4-4f899efffa67","ios":"levelo://app?vid=b87101c0-e4c5-469a-85d4-4f899efffa67"},"vehicle_type_id":"4","last_reported":1719140749,"current_range_meters":30000,"station_id":"ce4bhq12rcd13ifvqhhg","pricing_plan_id":"cebpf4jnsgd1na2vs0mg"},{"bike_id":"e5324b3b-093d-49d5-b746-5e24454d228c","system_id":"levelo_inurba_marseille","lat":43.276179,"lon":5.361009,"is_reserved":false,"is_disabled":false,"rental_uris":{"android":"levelo://app?vid=e5324b3b-093d-49d5-b746-5e24454d228c","ios":"levelo://app?vid=e5324b3b-093d-49d5-b746-5e24454d228c"},"vehicle_type_id":"4","last_reported":1719140749,"current_range_meters":2800,"station_id":"ce4bgj92rcd13ifvqbe0","pricing_plan_id":"cebpf4jnsgd1na2vs0mg"},{"bike_id":"4c23fc10-6399-4f4b-b7ce-649d8c398c75","system_id":"levelo_inurba_marseille","lat":43.27595,"lon":5.35872,"is_reserved":false,"is_disabled":false,"rental_uris":{"android":"levelo://app?vid=4c23fc10-6399-4f4b-b7ce-649d8c398c75","ios":"levelo://app?vid=4c23fc10-6399-4f4b-b7ce-649d8c398c75"},"vehicle_type_id":"4","last_reported":1719140749,"current_range_meters":4400,"station_id":"","pricing_plan_id":"cebpf4jnsgd1na2vs0mg"},{"bike_id":"397737d3-a319-43f1-8022-b7e05e968a7f","system_id":"levelo_inurba_marseille","lat":43.275684,"lon":5.360175,"is_reserved":false,"is_disabled":false,"rental_uris":{"android":"levelo://app?vid=397737d3-a319-43f1-8022-b7e05e968a7f","ios":"levelo://app?vid=397737d3-a319-43f1-8022-b7e05e968a7f"},"vehicle_type_id":"4","last_reported":1719140749,"current_range_meters":18800,"station_id":"","pricing_plan_id":"cebpf4jnsgd1na2vs0mg"},{"bike_id":"f3615187-e6f6-4d0a-9aea-ef48a3c4cd24","system_id":"levelo_inurba_marseille","lat":43.275817,"lon":5.377638,"is_reserved":false,"is_disabled":false,"rental_uris":{"android":"levelo://app?vid=f3615187-e6f6-4d0a-9aea-ef48a3c4cd24","ios":"levelo://app?vid=f3615187-e6f6-4d0a-9aea-ef48a3c4cd24"},"vehicle_type_id":"4","last_reported":1719140749,"current_range_meters":23600,"station_id":"","pricing_plan_id":"cebpf4jnsgd1na2vs0mg"},{"bike_id":"ec6c5a48-c4c7-4a1d-af99-f01ba5626230","system_id":"levelo_inurba_marseille","lat":43.280784,"lon":5.396622,"is_reserved":false,"is_disabled":false,"rental_uris":{"android":"levelo://app?vid=ec6c5a48-c4c7-4a1d-af99-f01ba5626230","ios":"levelo://app?vid=ec6c5a48-c4c7-4a1d-af99-f01ba5626230"},"vehicle_type_id":"4","last_reported":1719140749,"current_range_meters":22400,"station_id":"ce4bho12rcd13ifvqh2g","pricing_plan_id":"cebpf4jnsgd1na2vs0mg"},{"bike_id":"1e96e1b4-e6e3-44bf-9742-5d46cd06b937","system_id":"levelo_inurba_marseille","lat":43.280784,"lon":5.396622,"is_reserved":false,"is_disabled":false,"rental_uris":{"android":"levelo://app?vid=1e96e1b4-e6e3-44bf-9742-5d46cd06b937","ios":"levelo://app?vid=1e96e1b4-e6e3-44bf-9742-5d46cd06b937"},"vehicle_type_id":"4","last_reported":1719140749,"current_range_meters":21600,"station_id":"ce4bho12rcd13ifvqh2g","pricing_plan_id":"cebpf4jnsgd1na2vs0mg"},{"bike_id":"f40d1fe6-5281-407a-bb86-15febb17aac3","system_id":"levelo_inurba_marseille","lat":43.280784,"lon":5.396622,"is_reserved":false,"is_disabled":false,"rental_uris":{"android":"levelo://app?vid=f40d1fe6-5281-407a-bb86-15febb17aac3","ios":"levelo://app?vid=f40d1fe6-5281-407a-bb86-15febb17aac3"},"vehicle_type_id":"4","last_reported":1719140749,"current_range_meters":5600,"station_id":"ce4bho12rcd13ifvqh2g","pricing_plan_id":"cebpf4jnsgd1na2vs0mg"},{"bike_id":"1a47b353-a3f4-47f1-8207-d3fbd93d911b","system_id":"levelo_inurba_marseille","lat":43.278401,"lon":5.392152,"is_reserved":false,"is_disabled":false,"rental_uris":{"android":"levelo://app?vid=1a47b353-a3f4-47f1-8207-d3fbd93d911b","ios":"levelo://app?vid=1a47b353-a3f4-47f1-8207-d3fbd93d911b"},"vehicle_type_id":"4","last_reported":1719140749,"current_range_meters":7200,"station_id":"ce4bhjp2rcd13ifvqga0","pricing_plan_id":"cebpf4jnsgd1na2vs0mg"},{"bike_id":"24028863-c81c-4fbf-9b61-3849947c10c4","system_id":"levelo_inurba_marseille","lat":43.283502,"lon":5.386471,"is_reserved":false,"is_disabled":false,"rental_uris":{"android":"levelo://app?vid=24028863-c81c-4fbf-9b61-3849947c10c4","ios":"levelo://app?vid=24028863-c81c-4fbf-9b61-3849947c10c4"},"vehicle_type_id":"4","last_reported":1719140749,"current_range_meters":30400,"station_id":"ce4bh492rcd13ifvqdvg","pricing_plan_id":"cebpf4jnsgd1na2vs0mg"},{"bike_id":"7cbd7b10-0a05-4240-81a2-1c1e2c148146","system_id":"levelo_inurba_marseille","lat":43.275625,"lon":5.384392,"is_reserved":false,"is_disabled":false,"rental_uris":{"android":"levelo://app?vid=7cbd7b10-0a05-4240-81a2-1c1e2c148146","ios":"levelo://app?vid=7cbd7b10-0a05-4240-81a2-1c1e2c148146"},"vehicle_type_id":"4","last_reported":1719140749,"current_range_meters":6400,"station_id":"ce4bhh92rcd13ifvqfi0","pricing_plan_id":"cebpf4jnsgd1na2vs0mg"},{"bike_id":"8c3cbdf0-f6af-42b2-bb7c-6bed450e05d1","system_id":"levelo_inurba_marseille","lat":43.273613,"lon":5.362705,"is_reserved":false,"is_disabled":false,"rental_uris":{"android":"levelo://app?vid=8c3cbdf0-f6af-42b2-bb7c-6bed450e05d1","ios":"levelo://app?vid=8c3cbdf0-f6af-42b2-bb7c-6bed450e05d1"},"vehicle_type_id":"4","last_reported":1719140749,"current_range_meters":5200,"station_id":"ce4bhbh2rcd13ifvqeo0","pricing_plan_id":"cebpf4jnsgd1na2vs0mg"},{"bike_id":"20234863-5eb0-4840-88eb-5bf9562ee7a3","system_id":"levelo_inurba_marseille","lat":43.273609,"lon":5.362708,"is_reserved":false,"is_disabled":false,"rental_uris":{"android":"levelo://app?vid=20234863-5eb0-4840-88eb-5bf9562ee7a3","ios":"levelo://app?vid=20234863-5eb0-4840-88eb-5bf9562ee7a3"},"vehicle_type_id":"4","last_reported":1719140749,"current_range_meters":2000,"station_id":"ce4bhbh2rcd13ifvqeo0","pricing_plan_id":"cebpf4jnsgd1na2vs0mg"},{"bike_id":"fc31789f-f768-4abc-96de-64e6815e08c6","system_id":"levelo_inurba_marseille","lat":43.273613,"lon":5.362705,"is_reserved":false,"is_disabled":false,"rental_uris":{"android":"levelo://app?vid=fc31789f-f768-4abc-96de-64e6815e08c6","ios":"levelo://app?vid=fc31789f-f768-4abc-96de-64e6815e08c6"},"vehicle_type_id":"4","last_reported":1719140749,"current_range_meters":12400,"station_id":"ce4bhbh2rcd13ifvqeo0","pricing_plan_id":"cebpf4jnsgd1na2vs0mg"},