{"last_updated":1741442767,"ttl":60,"version":"2.2","data":{"bikes":[{"bike_id":"3763ca09-281c-481c-9755-79dce3edd104","system_id":"levelo_inurba_marseille","lat":43.31995,"lon":5.38151,"is_reserved":false,"is_disabled":false,"rental_uris":{"android":"levelo://app?vid=3763ca09-281c-481c-9755-79dce3edd104","ios":"levelo://app?vid=3763ca09-281c-481c-9755-79dce3edd104"},"vehicle_type_id":"4","last_reported":1741442767,"current_range_meters":2800,"station_id":"ce4bhr12rcd13ifvqhpg","pricing_plan_id":"cebpf4jnsgd1na2vs0mg"},{"bike_id":"43bc5e18-7bfb-4e30-b758-942e653f0d5a","system_id":"levelo_inurba_marseille","lat":43.24645,"lon":5.40282,"is_reserved":false,"is_disabled":false,"rental_uris":{"android":"levelo://app?vid=43bc5e18-7bfb-4e30-b758-942e653f0d5a","ios":"levelo://app?vid=43bc5e18-7bfb-4e30-b758-942e653f0d5a"},"vehicle_type_id":"4","last_reported":1741442767,"current_range_meters":3200,"station_id":"","pricing_plan_id":"cebpf4jnsgd1na2vs0mg"},{"bike_id":"803f2ccb-292c-4540-96d8-23811a21d96e","system_id":"levelo_inurba_marseille","lat":43.28152,"lon":5.42651,"is_reserved":false,"is_disabled":false,"rental_uris":{"android":"levelo://app?vid=803f2ccb-292c-4540-96d8-23811a21d96e","ios":"levelo://app?vid=803f2ccb-292c-4540-96d8-23811a21d96e"},"vehicle_type_id":"4","last_reported":1741442767,"current_range_meters":3200,"station_id":"ce4bhnh2rcd13ifvqgug","pricing_plan_id":"cebpf4jnsgd1na2vs0mg"},{"bike_id":"34f2e45d-a30c-4140-93ff-2a8f9dd0f15f","system_id":"levelo_inurba_marseille","lat":43.29345,"lon":5.37182,"is_reserved":false,"is_disabled":false,"rental_uris":{"android":"levelo://app?vid=34f2e45d-a30c-4140-93ff-2a8f9dd0f15f","ios":"levelo://app?vid=34f2e45d-a30c-4140-93ff-2a8f9dd0f15f"},"vehicle_type_id":"4","last_reported":1741442767,"current_range_meters":3600,"station_id":"ce4bgh92rcd13ifvqb40","pricing_plan_id":"cebpf4jnsgd1na2vs0mg"},{"bike_id":"1b3dc699-463e-433c-ba95-d6f9e69f15f3","system_id":"levelo_inurba_marseille","lat":43.29609,"lon":5.37743,"is_reserved":false,"is_disabled":false,"rental_uris":{"android":"levelo://app?vid=1b3dc699-463e-433c-ba95-d6f9e69f15f3","ios":"levelo://app?vid=1b3dc699-463e-433c-ba95-d6f9e69f15f3"},"vehicle_type_id":"4","last_reported":1741442767,"current_range_meters":3200,"station_id":"ce4bgi92rcd13ifvqb90","pricing_plan_id":"cebpf4jnsgd1na2vs0mg"},{"bike_id":"fa7a56cd-ac77-4cf3-bb7c-a4cf3434cf2d","system_id":"levelo_inurba_marseille","lat":43.28949,"lon":5.36637,"is_reserved":false,"is_disabled":false,"rental_uris":{"android":"levelo://app?vid=fa7a56cd-ac77-4cf3-bb7c-a4cf3434cf2d","ios":"levelo://app?vid=fa7a56cd-ac77-4cf3-bb7c-a4cf3434cf2d"},"vehicle_type_id":"4","last_reported":1741442767,"current_range_meters":3600,"station_id":"ce4bhap2rcd13ifvqek0","pricing_plan_id":"cebpf4jnsgd1na2vs0mg"},{"bike_id":"8c4ac1ac-2fd9-4675-b930-4e99bb9f55f7","system_id":"levelo_inurba_marseille","lat":43.29577,"lon":5.37507,"is_reserved":false,"is_disabled":false,"rental_uris":{"android":"levelo://app?vid=8c4ac1ac-2fd9-4675-b930-4e99bb9f55f7","ios":"levelo://app?vid=8c4ac1ac-2fd9-4675-b930-4e99bb9f55f7"},"vehicle_type_id":"4","last_reported":1741442767,"current_range_meters":4000,"station_id":"ce4bgh92rcd13ifvqb50","pricing_plan_id":"cebpf4jnsgd1na2vs0mg"},{"bike_id":"1ad246a1-57c6-4a86-b2cb-9a0e0e4166f7","system_id":"levelo_inurba_marseille","lat":43.27202,"lon":5.39171,"is_reserved":false,"is_disabled":false,"rental_uris":{"android":"levelo://app?vid=1ad246a1-57c6-4a86-b2cb-9a0e0e4166f7","ios":"levelo://app?vid=1ad246a1-57c6-4a86-b2cb-9a0e0e4166f7"},"vehicle_type_id":"4","last_reported":1741442767,"current_range_meters":4000,"station_id":"ce4bhhp2rcd13ifvqfm0","pricing_plan_id":"cebpf4jnsgd1na2vs0mg"},{"bike_id":"53ba06d6-3b6c-4f49-bc80-8f7e1937ded3","system_id":"levelo_inurba_marseille","lat":43.27892,"lon":5.41242,"is_reserved":false,"is_disabled":false,"rental_uris":{"android":"levelo://app?vid=53ba06d6-3b6c-4f49-bc80-8f7e1937ded3","ios":"levelo://app?vid=53ba06d6-3b6c-4f49-bc80-8f7e1937ded3"},"vehicle_type_id":"4","last_reported":1741442767,"current_range_meters":4000,"station_id":"","pricing_plan_id":"cebpf4jnsgd1na2vs0mg"},{"bike_id":"3a090aba-8792-4e90-ae22-5154f3f7f1bc","system_id":"levelo_inurba_marseille","lat":43.32113,"lon":5.368,"is_reserved":false,"is_disabled":false,"rental_uris":{"android":"levelo://app?vid=3a090aba-8792-4e90-ae22-5154f3f7f1bc","ios":"levelo://app?vid=3a090aba-8792-4e90-ae22-5154f3f7f1bc"},"vehicle_type_id":"4","last_reported":1741442767,"current_range_meters":4000,"station_id":"ce4bhrh2rcd13ifvqhug","pricing_plan_id":"cebpf4jnsgd1na2vs0mg"},{"bike_id":"d66eb525-7aec-4395-8dcf-aa6884da1338","system_id":"levelo_inurba_marseille","lat":43.28276,"lon":5.35068,"is_reserved":false,"is_disabled":false,"rental_uris":{"android":"levelo://app?vid=d66eb525-7aec-4395-8dcf-aa6884da1338","ios":"levelo://app?vid=d66eb525-7aec-4395-8dcf-aa6884da1338"},"vehicle_type_id":"4","last_reported":1741442767,"current_range_meters":4000,"station_id":"ce4bhbp2rcd13ifvqerg","pricing_plan_id":"cebpf4jnsgd1na2vs0mg"},{"bike_id":"3b769b78-6b4c-4584-87fa-7a75dbfe2189","system_id":"levelo_inurba_marseille","lat":43.29927,"lon":5.3656,"is_reserved":false,"is_disabled":false,"rental_uris":{"android":"levelo://app?vid=3b769b78-6b4c-4584-87fa-7a75dbfe2189","ios":"levelo://app?vid=3b769b78-6b4c-4584-87fa-7a75dbfe2189"},"vehicle_type_id":"4","last_reported":1741442767,"current_range_meters":4000,"station_id":"ce4bgm92rcd13ifvqbr0","pricing_plan_id":"cebpf4jnsgd1na2vs0mg"},{"bike_id":"75c11b94-9fbc-435f-af4b-6ec2c2403c9a","system_id":"levelo_inurba_marseille","lat":43.23193,"lon":5.35551,"is_reserved":false,"is_disabled":false,"rental_uris":{"android":"levelo://app?vid=75c11b94-9fbc-435f-af4b-6ec2c2403c9a","ios":"levelo://app?vid=75c11b94-9fbc-435f-af4b-6ec2c2403c9a"},"vehicle_type_id":"4","last_reported":1741442767,"current_range_meters":3600,"station_id":"ce4bhu92rcd13ifvqi70","pricing_plan_id":"cebpf4jnsgd1na2vs0mg"},{"bike_id":"2682ed18-c6e0-4bd4-883f-b3428abfb952","system_id":"levelo_inurba_marseille","lat":43.30547,"lon":5.36533,"is_reserved":false,"is_disabled":false,"rental_uris":{"android":"levelo://app?vid=2682ed18-c6e0-4bd4-883f-b3428abfb952","ios":"levelo://app?vid=2682ed18-c6e0-4bd4-883f-b3428abfb952"},"vehicle_type_id":"4","last_reported":1741442767,"current_range_meters":4400,"station_id":"ce4bgs12rcd13ifvqcag","pricing_plan_id":"cebpf4jnsgd1na2vs0mg"},{"bike_id":"eebe9a9d-cffd-4cb2-9653-d2b404cfb5f7","system_id":"levelo_inurba_marseille","lat":43.29965,"lon":5.41325,"is_reserved":false,"is_disabled":false,"rental_uris":{"android":"levelo://app?vid=eebe9a9d-cffd-4cb2-9653-d2b404cfb5f7","ios":"levelo://app?vid=eebe9a9d-cffd-4cb2-9653-d2b404cfb5f7"},"vehicle_type_id":"4","last_reported":1741442767,"current_range_meters":1200,"station_id":"ce4bhp12rcd13ifvqh9g","pricing_plan_id":"cebpf4jnsgd1na2vs0mg"},{"bike_id":"c667a51d-7d20-40ec-8713-ac625341cf95","system_id":"levelo_inurba_marseille","lat":43.26803,"lon":5.40266,"is_reserved":false,"is_disabled":false,"rental_uris":{"android":"levelo://app?vid=c667a51d-7d20-40ec-8713-ac625341cf95","ios":"levelo://app?vid=c667a51d-7d20-40ec-8713-ac625341cf95"},"vehicle_type_id":"4","last_reported":1741442767,"current_range_meters":4800,"station_id":"ce501612rcd8frsf0b60","pricing_plan_id":"cebpf4jnsgd1na2vs0mg"},{"bike_id":"61adca1b-ddb1-42f0-9397-0e787d58f9a6","system_id":"levelo_inurba_marseille","lat":43.26569,"lon":5.39016,"is_reserved":false,"is_disabled":false,"rental_uris":{"android":"levelo://app?vid=61adca1b-ddb1-42f0-9397-0e787d58f9a6","ios":"levelo://app?vid=61adca1b-ddb1-42f0-9397-0e787d58f9a6"},"vehicle_type_id":"4","last_reported":1741442767,"current_range_meters":4800,"station_id":"ce4bhe12rcd13ifvqf30","pricing_plan_id":"cebpf4jnsgd1na2vs0mg"},{"bike_id":"1fee6973-e38d-4ace-bdac-29acc87ed0ab","system_id":"levelo_inurba_marseille","lat":43.299,"lon":5.43669,"is_reserved":false,"is_disabled":false,"rental_uris":{"android":"levelo://app?vid=1fee6973-e38d-4ace-bdac-29acc87ed0ab","ios":"levelo://app?vid=1fee6973-e38d-4ace-bdac-29acc87ed0ab"},"vehicle_type_id":"4","last_reported":1741442767,"current_range_meters":5600,"station_id":"ce4bhpp2rcd13ifvqhfg","pricing_plan_id":"cebpf4jnsgd1na2vs0mg"},{"bike_id":"d485759d-1d40-4de3-8296-cf3b303ee2f0","system_id":"levelo_inurba_marseille","lat":43.2953,"lon":5.38551,"is_reserved":false,"is_disabled":false,"rental_uris":{"android":"levelo://app?vid=d485759d-1d40-4de3-8296-cf3b303ee2f0","ios":"levelo://app?vid=d485759d-1d40-4de3-8296-cf3b303ee2f0"},"vehicle_type_id":"4","last_reported":1741442767,"current_range_meters":5600,"station_id":"ce4bgih2rcd13ifvqba0","pricing_plan_id":"cebpf4jnsgd1na2vs0mg"},{"bike_id":"9e8dba91-aa64-4b77-a177-885f77c7681d","system_id":"levelo_inurba_marseille","lat":43.2897,"lon":5.37845,"is_reserved":false,"is_disabled":false,"rental_uris":{"android":"levelo://app?vid=9e8dba91-aa64-4b77-a177-885f77c7681d","ios":"levelo://app?vid=9e8dba91-aa64-4b77-a177-885f77c7681d"},"vehicle_type_id":"4","last_reported":1741442767,"current_range_meters":5600,"station_id":"ce4bh9p2rcd13ifvqed0","pricing_plan_id":"cebpf4jnsgd1na2vs0mg"},{"bike_id":"fd3d46ff-b0ef-4ce2-93ec-7c6bd8f8f27d","system_id":"levelo_inurba_marseille","lat":43.31226,"lon":5.36859,"is_reserved":false,"is_disabled":false,"rental_uris":{"android":"levelo://app?vid=fd3d46ff-b0ef-4ce2-93ec-7c6bd8f8f27d","ios":"levelo://app?vid=fd3d46ff-b0ef-4ce2-93ec-7c6bd8f8f27d"},"vehicle_type_id":"4","last_reported":1741442767,"current_range_meters":5600,"station_id":"ce4bgl92rcd13ifvqbq0","pricing_plan_id":"cebpf4jnsgd1na2vs0mg"},{"bike_id":"55012969-37fe-4649-af74-d30dae93bbd3","system_id":"levelo_inurba_marseille","lat":43.26938,"lon":5.40253,"is_reserved":false,"is_disabled":false,"rental_uris":{"android":"levelo://app?vid=55012969-37fe-4649-af74-d30dae93bbd3","ios":"levelo://app?vid=55012969-37fe-4649-af74-d30dae93bbd3"},"vehicle_type_id":"4","last_reported":1741442767,"current_range_meters":6800,"station_id":"cjm6bp8fraef2m0cb0m0","pricing_plan_id":"cebpf4jnsgd1na2vs0mg"},{"bike_id":"f21002e3-f25a-4f81-8367-9eb43c572ae2","system_id":"levelo_inurba_marseille","lat":43.28415,"lon":5.34981,"is_reserved":false,"is_disabled":false,"rental_uris":{"android":"levelo://app?vid=f21002e3-f25a-4f81-8367-9eb43c572ae2","ios":"levelo://app?vid=f21002e3-f25a-4f81-8367-9eb43c572ae2"},"vehicle_type_id":"4","last_reported":1741442767,"current_range_meters":5600,"station_id":"ce4bhbh2rcd13ifvqepg","pricing_plan_id":"cebpf4jnsgd1na2vs0mg"},{"bike_id":"0af30f24-954a-46d7-b033-51d52f807b8c","system_id":"levelo_inurba_marseille","lat":43.25019,"lon":5.38915,"is_reserved":false,"is_disabled":false,"rental_uris":{"android":"levelo://app?vid=0af30f24-954a-46d7-b033-51d52f807b8c","ios":"levelo://app?vid=0af30f24-954a-46d7-b033-51d52f807b8c"},"vehicle_type_id":"4","last_reported":1741442767,"current_range_meters":6400,"station_id":"ce4bhgp2rcd13ifvqfd0","pricing_plan_id":"cebpf4jnsgd1na2vs0mg"},{"bike_id":"c7242d10-64e7-4cd1-bac0-36005dc4e7af","system_id":"levelo_inurba_marseille","lat":43.2927,"lon":5.36852,"is_reserved":false,"is_disabled":false,"rental_uris":{"android":"levelo://app?vid=c7242d10-64e7-4cd1-bac0-36005dc4e7af","ios":"levelo://app?vid=c7242d10-64e7-4cd1-bac0-36005dc4e7af"},"vehicle_type_id":"4","last_reported":1741442767,"current_range_meters":6000,"station_id":"ce4bhbp2rcd13ifvqesg","pricing_plan_id":"cebpf4jnsgd1na2vs0mg"},{"bike_id":"4ef37d01-3a7e-42f1-a9f7-e3be7c1afc72","system_id":"levelo_inurba_marseille","lat":43.23184,"lon":5.35556,"is_reserved":false,"is_disabled":false,"rental_uris":{"android":"levelo://app?vid=4ef37d01-3a7e-42f1-a9f7-e3be7c1afc72","ios":"levelo://app?vid=4ef37d01-3a7e-42f1-a9f7-e3be7c1afc72"},"vehicle_type_id":"4","last_reported":1741442767,"current_range_meters":6000,"station_id":"ce4bhu92rcd13ifvqi70","pricing_plan_id":"cebpf4jnsgd1na2vs0mg"},{"bike_id":"51510a95-54e3-4b84-9b22-bfa3391426f3","system_id":"levelo_inurba_marseille","lat":43.23212,"lon":5.35552,"is_reserved":false,"is_disabled":false,"rental_uris":{"android":"levelo://app?vid=51510a95-54e3-4b84-9b22-bfa3391426f3","ios":"levelo://app?vid=51510a95-54e3-4b84-9b22-bfa3391426f3"},"vehicle_type_id":"4","last_reported":1741442767,"current_range_meters":6400,"station_id":"ce4bhu92rcd13ifvqi70","pricing_plan_id":"cebpf4jnsgd1na2vs0mg"},{"bike_id":"936e46b8-ae8f-4e92-9048-2a5d2229a1b9","system_id":"levelo_inurba_marseille","lat":43.26552,"lon":5.37291,"is_reserved":false,"is_disabled":false,"rental_uris":{"android":"levelo://app?vid=936e46b8-ae8f-4e92-9048-2a5d2229a1b9","ios":"levelo://app?vid=936e46b8-ae8f-4e92-9048-2a5d2229a1b9"},"vehicle_type_id":"4","last_reported":1741442767,"current_range_meters":6400,"station_id":"ce4bhg12rcd13ifvqf70","pricing_plan_id":"cebpf4jnsgd1na2vs0mg"},{"bike_id":"4afdbfd0-98cd-490e-8f08-f8fabefa21b1","system_id":"levelo_inurba_marseille","lat":43.23983,"lon":5.36603,"is_reserved":false,"is_disabled":false,"rental_uris":{"android":"levelo://app?vid=4afdbfd0-98cd-490e-8f08-f8fabefa21b1","ios":"levelo://app?vid=4afdbfd0-98cd-490e-8f08-f8fabefa21b1"},"vehicle_type_id":"4","last_reported":1741442767,"current_range_meters":6400,"station_id":"ce4bhi12rcd13ifvqfp0","pricing_plan_id":"cebpf4jnsgd1na2vs0mg"},{"bike_id":"68b07174-d551-4140-a617-8a9a252b8670","system_id":"levelo_inurba_marseille","lat":43.29012,"lon":5.3756,"is_reserved":false,"is_disabled":false,"rental_uris":{"android":"levelo://app?vid=68b07174-d551-4140-a617-8a9a252b8670","ios":"levelo://app?vid=68b07174-d551-4140-a617-8a9a252b8670"},"vehicle_type_id":"4","last_reported":1741442767,"current_range_meters":6400,"station_id":"ce4bh692rcd13ifvqe90","pricing_plan_id":"cebpf4jnsgd1na2vs0mg"},{"bike_id":"cba24c9b-64ca-4918-b3ce-424aeb2b654a","system_id":"levelo_inurba_marseille","lat":43.26216,"lon":5.3744,"is_reserved":false,"is_disabled":false,"rental_uris":{"android":"levelo://app?vid=cba24c9b-64ca-4918-b3ce-424aeb2b654a","ios":"levelo://app?vid=cba24c9b-64ca-4918-b3ce-424aeb2b654a"},"vehicle_type_id":"4","last_reported":1741442767,"current_range_meters":6400,"station_id":"ce4bhgp2rcd13ifvqfc0","pricing_plan_id":"cebpf4jnsgd1na2vs0mg"},{"bike_id":"62391f34-3130-43d3-9ff9-87e80b4db075","system_id":"levelo_inurba_marseille","lat":43.32106,"lon":5.36792,"is_reserved":false,"is_disabled":false,"rental_uris":{"android":"levelo://app?vid=62391f34-3130-43d3-9ff9-87e80b4db075","ios":"levelo://app?vid=62391f34-3130-43d3-9ff9-87e80b4db075"},"vehicle_type_id":"4","last_reported":1741442767,"current_range_meters":6800,"station_id":"ce4bhrh2rcd13ifvqhug","pricing_plan_id":"cebpf4jnsgd1na2vs0mg"},{"bike_id":"3290fada-bd6f-4fa7-806c-6549bdd84918","system_id":"levelo_inurba_marseille","lat":43.295219,"lon":5.375098,"is_reserved":false,"is_disabled":false,"rental_uris":{"android":"levelo://app?vid=3290fada-bd6f-4fa7-806c-6549bdd84918","ios":"levelo://app?vid=3290fada-bd6f-4fa7-806c-6549bdd84918"},"vehicle_type_id":"4","last_reported":1741442767,"current_range_meters":6400,"station_id":"ce4bgkp2rcd13ifvqbmg","pricing_plan_id":"cebpf4jnsgd1na2vs0mg"},{"bike_id":"d9708d6d-83b9-47c9-a90c-62bff4505670","system_id":"levelo_inurba_marseille","lat":43.27497,"lon":5.42457,"is_reserved":false,"is_disabled":false,"rental_uris":{"android":"levelo://app?vid=d9708d6d-83b9-47c9-a90c-62bff4505670","ios":"levelo://app?vid=d9708d6d-83b9-47c9-a90c-62bff4505670"},"vehicle_type_id":"4","last_reported":1741442767,"current_range_meters":6800,"station_id":"ce4bhn92rcd13ifvqgrg","pricing_plan_id":"cebpf4jnsgd1na2vs0mg"},{"bike_id":"31207c0a-ee19-4885-84fa-0e2de32eda31","system_id":"levelo_inurba_marseille","lat":43.28421,"lon":5.34992,"is_reserved":false,"is_disabled":false,"rental_uris":{"android":"levelo://app?vid=31207c0a-ee19-4885-84fa-0e2de32eda31","ios":"levelo://app?vid=31207c0a-ee19-4885-84fa-0e2de32eda31"},"vehicle_type_id":"4","last_reported":1741442767,"current_range_meters":7200,"station_id":"ce4bhbh2rcd13ifvqepg","pricing_plan_id":"cebpf4jnsgd1na2vs0mg"},{"bike_id":"59ef7ab1-f072-4315-9e2a-a3482cc569d5","system_id":"levelo_inurba_marseille","lat":43.29897,"lon":5.43663,"is_reserved":false,"is_disabled":false,"rental_uris":{"android":"levelo://app?vid=59ef7ab1-f072-4315-9e2a-a3482cc569d5","ios":"levelo://app?vid=59ef7ab1-f072-4315-9e2a-a3482cc569d5"},"vehicle_type_id":"4","last_reported":1741442767,"current_range_meters":7200,"station_id":"ce4bhpp2rcd13ifvqhfg","pricing_plan_id":"cebpf4jnsgd1na2vs0mg"},{"bike_id":"a88b4020-160b-4d6c-b81c-275bfd9c24ac","system_id":"levelo_inurba_marseille","lat":43.26039,"lon":5.37533,"is_reserved":false,"is_disabled":false,"rental_uris":{"android":"levelo://app?vid=a88b4020-160b-4d6c-b81c-275bfd9c24ac","ios":"levelo://app?vid=a88b4020-160b-4d6c-b81c-275bfd9c24ac"},"vehicle_type_id":"4","last_reported":1741442767,"current_range_meters":7200,"station_id":"ce4bhgh2rcd13ifvqfa0","pricing_plan_id":"cebpf4jnsgd1na2vs0mg"},{"bike_id":"579d61ce-9bdb-4bcf-aeb9-7f61f2330610","system_id":"levelo_inurba_marseille","lat":43.297011,"lon":5.377066,"is_reserved":false,"is_disabled":false,"rental_uris":{"android":"levelo://app?vid=579d61ce-9bdb-4bcf-aeb9-7f61f2330610","ios":"levelo://app?vid=579d61ce-9bdb-4bcf-aeb9-7f61f2330610"},"vehicle_type_id":"4","last_reported":1741442767,"current_range_meters":7200,"station_id":"ce4bgi92rcd13ifvqb90","pricing_plan_id":"cebpf4jnsgd1na2vs0mg"},{"bike_id":"5090e54e-470d-42f6-a203-abe94b6a9035","system_id":"levelo_inurba_marseille","lat":43.29281,"lon":5.36844,"is_reserved":false,"is_disabled":false,"rental_uris":{"android":"levelo://app?vid=5090e54e-470d-42f6-a203-abe94b6a9035","ios":"levelo://app?vid=5090e54e-470d-42f6-a203-abe94b6a9035"},"vehicle_type_id":"4","last_reported":1741442767,"current_range_meters":7200,"station_id":"ce4bhbp2rcd13ifvqesg","pricing_plan_id":"cebpf4jnsgd1na2vs0mg"},{"bike_id":"39d8192b-e479-46e5-a3bf-bdc7ff40c902","system_id":"levelo_inurba_marseille","lat":43.25822,"lon":5.39438,"is_reserved":false,"is_disabled":false,"rental_uris":{"android":"levelo://app?vid=39d8192b-e479-46e5-a3bf-bdc7ff40c902","ios":"levelo://app?vid=39d8192b-e479-46e5-a3bf-bdc7ff40c902"},"vehicle_type_id":"4","last_reported":1741442767,"current_range_meters":7200,"station_id":"ce4bhip2rcd13ifvqft0","pricing_plan_id":"cebpf4jnsgd1na2vs0mg"},{"bike_id":"bd1ca430-15b2-40f5-ab85-6f767aed8061","system_id":"levelo_inurba_marseille","lat":43.23065,"lon":5.35486,"is_reserved":false,"is_disabled":false,"rental_uris":{"android":"levelo://app?vid=bd1ca430-15b2-40f5-ab85-6f767aed8061","ios":"levelo://app?vid=bd1ca430-15b2-40f5-ab85-6f767aed8061"},"vehicle_type_id":"4","last_reported":1741442767,"current_range_meters":7200,"station_id":"cpo3342slgdg3j2ifvpg","pricing_plan_id":"cebpf4jnsgd1na2vs0mg"},{"bike_id":"fbd99a6d-fab2-4f5e-a403-a96e83639114","system_id":"levelo_inurba_marseille","lat":43.22934,"lon":5.35383,"is_reserved":false,"is_disabled":false,"rental_uris":{"android":"levelo://app?vid=fbd99a6d-fab2-4f5e-a403-a96e83639114","ios":"levelo://app?vid=fbd99a6d-fab2-4f5e-a403-a96e83639114"},"vehicle_type_id":"4","last_reported":1741442767,"current_range_meters":7200,"station_id":"cpo3532slgdg3j2ikp40","pricing_plan_id":"cebpf4jnsgd1na2vs0mg"},{"bike_id":"d7f75b0b-b95c-4334-9134-db6a786df874","system_id":"levelo_inurba_marseille","lat":43.28418,"lon":5.35,"is_reserved":false,"is_disabled":false,"rental_uris":{"android":"levelo://app?vid=d7f75b0b-b95c-4334-9134-db6a786df874","ios":"levelo://app?vid=d7f75b0b-b95c-4334-9134-db6a786df874"},"vehicle_type_id":"4","last_reported":1741442767,"current_range_meters":7200,"station_id":"ce4bhbh2rcd13ifvqepg","pricing_plan_id":"cebpf4jnsgd1na2vs0mg"},{"bike_id":"1b1d3ecb-5622-41e0-8a1b-a272bb7f5c7f","system_id":"levelo_inurba_marseille","lat":43.29304,"lon":5.37465,"is_reserved":false,"is_disabled":false,"rental_uris":{"android":"levelo://app?vid=1b1d3ecb-5622-41e0-8a1b-a272bb7f5c7f","ios":"levelo://app?vid=1b1d3ecb-5622-41e0-8a1b-a272bb7f5c7f"},"vehicle_type_id":"4","last_reported":1741442767,"current_range_meters":7200,"station_id":"ce4bgi12rcd13ifvqb70","pricing_plan_id":"cebpf4jnsgd1na2vs0mg"},{"bike_id":"0a9bc1bd-e305-40d4-8852-5005300b12a0","system_id":"levelo_inurba_marseille","lat":43.229492,"lon":5.353677,"is_reserved":false,"is_disabled":false,"rental_uris":{"android":"levelo://app?vid=0a9bc1bd-e305-40d4-8852-5005300b12a0","ios":"levelo://app?vid=0a9bc1bd-e305-40d4-8852-5005300b12a0"},"vehicle_type_id":"4","last_reported":1741442767,"current_range_meters":8000,"station_id":"cpo3532slgdg3j2ikp40","pricing_plan_id":"cebpf4jnsgd1na2vs0mg"},{"bike_id":"b390c45d-7c5b-499b-92c5-f2aabe063943","system_id":"levelo_inurba_marseille","lat":43.24387,"lon":5.37061,"is_reserved":false,"is_disabled":false,"rental_uris":{"android":"levelo://app?vid=b390c45d-7c5b-499b-92c5-f2aabe063943","ios":"levelo://app?vid=b390c45d-7c5b-499b-92c5-f2aabe063943"},"vehicle_type_id":"4","last_reported":1741442767,"current_range_meters":8000,"station_id":"ce4bhhh2rcd13ifvqfk0","pricing_plan_id":"cebpf4jnsgd1na2vs0mg"},{"bike_id":"8437a44b-120b-4ad9-ace7-a186fb8c70aa","system_id":"levelo_inurba_marseille","lat":43.28459,"lon":5.35896,"is_reserved":false,"is_disabled":false,"rental_uris":{"android":"levelo://app?vid=8437a44b-120b-4ad9-ace7-a186fb8c70aa","ios":"levelo://app?vid=8437a44b-120b-4ad9-ace7-a186fb8c70aa"},"vehicle_type_id":"4","last_reported":1741442767,"current_range_meters":10000,"station_id":"ce4bhah2rcd13ifvqei0","pricing_plan_id":"cebpf4jnsgd1na2vs0mg"},{"bike_id":"a9369571-956f-43e6-a5ed-a7157ad06e5e","system_id":"levelo_inurba_marseille","lat":43.23066,"lon":5.35486,"is_reserved":false,"is_disabled":false,"rental_uris":{"android":"levelo://app?vid=a9369571-956f-43e6-a5ed-a7157ad06e5e","ios":"levelo://app?vid=a9369571-956f-43e6-a5ed-a7157ad06e5e"},"vehicle_type_id":"4","last_reported":1741442767,"current_range_meters":8000,"station_id":"cpo3342slgdg3j2ifvpg","pricing_plan_id":"cebpf4jnsgd1na2vs0mg"},{"bike_id":"6b6cdd26-7bcb-4ca6-ae0a-abf0a637ac59","system_id":"levelo_inurba_marseille","lat":43.295398,"lon":5.375062,"is_reserved":false,"is_disabled":false,"rental_uris":{"android":"levelo://app?vid=6b6cdd26-7bcb-4ca6-ae0a-abf0a637ac59","ios":"levelo://app?vid=6b6cdd26-7bcb-4ca6-ae0a-abf0a637ac59"},"vehicle_type_id":"4","last_reported":1741442767,"current_range_meters":9200,"station_id":"ce4bgkp2rcd13ifvqbmg","pricing_plan_id":"cebpf4jnsgd1na2vs0mg"},{"bike_id":"805e60eb-0027-4ccc-9fef-9309861e6ed7","system_id":"levelo_inurba_marseille","lat":43.25493,"lon":5.376505,"is_reserved":false,"is_disabled":false,"rental_uris":{"android":"levelo://app?vid=805e60eb-0027-4ccc-9fef-9309861e6ed7","ios":"levelo://app?vid=805e60eb-0027-4ccc-9fef-9309861e6ed7"},"vehicle_type_id":"4","last_reported":1741442767,"current_range_meters":8000,"station_id":"ce4bhh12rcd13ifvqff0","pricing_plan_id":"cebpf4jnsgd1na2vs0mg"},{"bike_id":"b9c7ad84-7bfa-4cc0-90ab-2011c1896e0e","system_id":"levelo_inurba_marseille","lat":43.229268,"lon":5.353772,"is_reserved":false,"is_disabled":false,"rental_uris":{"android":"levelo://app?vid=b9c7ad84-7bfa-4cc0-90ab-2011c1896e0e","ios":"levelo://app?vid=b9c7ad84-7bfa-4cc0-90ab-2011c1896e0e"},"vehicle_type_id":"4","last_reported":1741442767,"current_range_meters":8000,"station_id":"cpo3532slgdg3j2ikp40","pricing_plan_id":"cebpf4jnsgd1na2vs0mg"},{"bike_id":"7b62c62b-d961-49e1-afe1-b0b21a291801","system_id":"levelo_inurba_marseille","lat":43.278744,"lon":5.417392,"is_reserved":false,"is_disabled":false,"rental_uris":{"android":"levelo://app?vid=7b62c62b-d961-49e1-afe1-b0b21a291801","ios":"levelo://app?vid=7b62c62b-d961-49e1-afe1-b0b21a291801"},"vehicle_type_id":"4","last_reported":1741442767,"current_range_meters":8400,"station_id":"","pricing_plan_id":"cebpf4jnsgd1na2vs0mg"},{"bike_id":"46fe9d90-2edd-4a17-bd48-ebef18991db6","system_id":"levelo_inurba_marseille","lat":43.26029,"lon":5.3755,"is_reserved":false,"is_disabled":false,"rental_uris":{"android":"levelo://app?vid=46fe9d90-2edd-4a17-bd48-ebef18991db6","ios":"levelo://app?vid=46fe9d90-2edd-4a17-bd48-ebef18991db6"},"vehicle_type_id":"4","last_reported":1741442767,"current_range_meters":8400,"station_id":"ce4bhgh2rcd13ifvqfa0","pricing_plan_id":"cebpf4jnsgd1na2vs0mg"},{"bike_id":"60fba7df-4520-4d63-9c5b-9a7a002cedfb","system_id":"levelo_inurba_marseille","lat":43.28037,"lon":5.39131,"is_reserved":false,"is_disabled":false,"rental_uris":{"android":"levelo://app?vid=60fba7df-4520-4d63-9c5b-9a7a002cedfb","ios":"levelo://app?vid=60fba7df-4520-4d63-9c5b-9a7a002cedfb"},"vehicle_type_id":"4","last_reported":1741442767,"current_range_meters":8400,"station_id":"","pricing_plan_id":"cebpf4jnsgd1na2vs0mg"},{"bike_id":"7ca8a676-edc1-4e71-a7b2-8895518cca95","system_id":"levelo_inurba_marseille","lat":43.23412,"lon":5.43611,"is_reserved":false,"is_disabled":false,"rental_uris":{"android":"levelo://app?vid=7ca8a676-edc1-4e71-a7b2-8895518cca95","ios":"levelo://app?vid=7ca8a676-edc1-4e71-a7b2-8895518cca95"},"vehicle_type_id":"4","last_reported":1741442767,"current_range_meters":8400,"station_id":"ce4bhmp2rcd13ifvqgog","pricing_plan_id":"cebpf4jnsgd1na2vs0mg"},{"bike_id":"95fb3e5d-83b7-4491-b444-1897d9b76de9","system_id":"levelo_inurba_marseille","lat":43.29374,"lon":5.37857,"is_reserved":false,"is_disabled":false,"rental_uris":{"android":"levelo://app?vid=95fb3e5d-83b7-4491-b444-1897d9b76de9","ios":"levelo://app?vid=95fb3e5d-83b7-4491-b444-1897d9b76de9"},"vehicle_type_id":"4","last_reported":1741442767,"current_range_meters":5600,"station_id":"ce4bgjh2rcd13ifvqbf0","pricing_plan_id":"cebpf4jnsgd1na2vs0mg"},{"bike_id":"0437041d-1858-4ad8-8105-1ad62e043de8","system_id":"levelo_inurba_marseille","lat":43.26681,"lon":5.38276,"is_reserved":false,"is_disabled":false,"rental_uris":{"android":"levelo://app?vid=0437041d-1858-4ad8-8105-1ad62e043de8","ios":"levelo://app?vid=0437041d-1858-4ad8-8105-1ad62e043de8"},"vehicle_type_id":"4","last_reported":1741442767,"current_range_meters":8000,"station_id":"ce4bhg92rcd13ifvqf90","pricing_plan_id":"cebpf4jnsgd1na2vs0mg"},{"bike_id":"2495f4d9-94e4-4421-8dde-a820cbdeb9a0","system_id":"levelo_inurba_marseille","lat":43.23064,"lon":5.35491,"is_reserved":false,"is_disabled":false,"rental_uris":{"android":"levelo://app?vid=2495f4d9-94e4-4421-8dde-a820cbdeb9a0","ios":"levelo://app?vid=2495f4d9-94e4-4421-8dde-a820cbdeb9a0"},"vehicle_type_id":"4","last_reported":1741442767,"current_range_meters":8800,"station_id":"cpo3342slgdg3j2ifvpg","pricing_plan_id":"cebpf4jnsgd1na2vs0mg"},{"bike_id":"21713182-057e-40a9-9341-906b750ca39c","system_id":"levelo_inurba_marseille","lat":43.23192,"lon":5.3556,"is_reserved":false,"is_disabled":false,"rental_uris":{"android":"levelo://app?vid=21713182-057e-40a9-9341-906b750ca39c","ios":"levelo://app?vid=21713182-057e-40a9-9341-906b750ca39c"},"vehicle_type_id":"4","last_reported":1741442767,"current_range_meters":8800,"station_id":"ce4bhu92rcd13ifvqi70","pricing_plan_id":"cebpf4jnsgd1na2vs0mg"},{"bike_id":"a69fc5d5-78c1-4e33-b8a0-4a41c865319a","system_id":"levelo_inurba_marseille","lat":43.29195,"lon":5.35806,"is_reserved":false,"is_disabled":false,"rental_uris":{"android":"levelo://app?vid=a69fc5d5-78c1-4e33-b8a0-4a41c865319a","ios":"levelo://app?vid=a69fc5d5-78c1-4e33-b8a0-4a41c865319a"},"vehicle_type_id":"4","last_reported":1741442767,"current_range_meters":8000,"station_id":"ce4bhb12rcd13ifvqel0","pricing_plan_id":"cebpf4jnsgd1na2vs0mg"},{"bike_id":"ed0abdcf-40b8-4feb-a33f-408106d9c1d2","system_id":"levelo_inurba_marseille","lat":43.26556,"lon":5.37294,"is_reserved":false,"is_disabled":false,"rental_uris":{"android":"levelo://app?vid=ed0abdcf-40b8-4feb-a33f-408106d9c1d2","ios":"levelo://app?vid=ed0abdcf-40b8-4feb-a33f-408106d9c1d2"},"vehicle_type_id":"4","last_reported":1741442767,"current_range_meters":8800,"station_id":"ce4bhg12rcd13ifvqf70","pricing_plan_id":"cebpf4jnsgd1na2vs0mg"},{"bike_id":"0bfa3197-4af0-4850-b689-c85aa33b6267","system_id":"levelo_inurba_marseille","lat":43.29288,"lon":5.40115,"is_reserved":false,"is_disabled":false,"rental_uris":{"android":"levelo://app?vid=0bfa3197-4af0-4850-b689-c85aa33b6267","ios":"levelo://app?vid=0bfa3197-4af0-4850-b689-c85aa33b6267"},"vehicle_type_id":"4","last_reported":1741442767,"current_range_meters":8800,"station_id":"ce4bh312rcd13ifvqdk0","pricing_plan_id":"cebpf4jnsgd1na2vs0mg"},{"bike_id":"9a5a9bc1-d070-4292-8785-6203f4abb6e0","system_id":"levelo_inurba_marseille","lat":43.337444,"lon":5.374475,"is_reserved":false,"is_disabled":false,"rental_uris":{"android":"levelo://app?vid=9a5a9bc1-d070-4292-8785-6203f4abb6e0","ios":"levelo://app?vid=9a5a9bc1-d070-4292-8785-6203f4abb6e0"},"vehicle_type_id":"4","last_reported":1741442767,"current_range_meters":8800,"station_id":"","pricing_plan_id":"cebpf4jnsgd1na2vs0mg"},{"bike_id":"0e674cb4-f37d-4bd5-aaff-7ec953d386c6","system_id":"levelo_inurba_marseille","lat":43.24179,"lon":5.36402,"is_reserved":false,"is_disabled":false,"rental_uris":{"android":"levelo://app?vid=0e674cb4-f37d-4bd5-aaff-7ec953d386c6","ios":"levelo://app?vid=0e674cb4-f37d-4bd5-aaff-7ec953d386c6"},"vehicle_type_id":"4","last_reported":1741442767,"current_range_meters":8800,"station_id":"cpo36qri1sfpv3e86is0","pricing_plan_id":"cebpf4jnsgd1na2vs0mg"},{"bike_id":"59cda494-cf62-4691-9c69-d6c596164246","system_id":"levelo_inurba_marseille","lat":43.24681,"lon":5.38157,"is_reserved":false,"is_disabled":false,"rental_uris":{"android":"levelo://app?vid=59cda494-cf62-4691-9c69-d6c596164246","ios":"levelo://app?vid=59cda494-cf62-4691-9c69-d6c596164246"},"vehicle_type_id":"4","last_reported":1741442767,"current_range_meters":8800,"station_id":"ce4bhih2rcd13ifvqfr0","pricing_plan_id":"cebpf4jnsgd1na2vs0mg"},{"bike_id":"ae99eef4-0d01-432b-b9f3-30beda5f0e73","system_id":"levelo_inurba_marseille","lat":43.29904,"lon":5.43673,"is_reserved":false,"is_disabled":false,"rental_uris":{"android":"levelo://app?vid=ae99eef4-0d01-432b-b9f3-30beda5f0e73","ios":"levelo://app?vid=ae99eef4-0d01-432b-b9f3-30beda5f0e73"},"vehicle_type_id":"4","last_reported":1741442767,"current_range_meters":9200,"station_id":"ce4bhpp2rcd13ifvqhfg","pricing_plan_id":"cebpf4jnsgd1na2vs0mg"},{"bike_id":"e15a7c55-8809-4af9-8f5f-ea0fdbc19aa5","system_id":"levelo_inurba_marseille","lat":43.29582,"lon":5.37511,"is_reserved":false,"is_disabled":false,"rental_uris":{"android":"levelo://app?vid=e15a7c55-8809-4af9-8f5f-ea0fdbc19aa5","ios":"levelo://app?vid=e15a7c55-8809-4af9-8f5f-ea0fdbc19aa5"},"vehicle_type_id":"4","last_reported":1741442767,"current_range_meters":9200,"station_id":"ce4bgh92rcd13ifvqb50","pricing_plan_id":"cebpf4jnsgd1na2vs0mg"},{"bike_id":"1a2bd6ce-febc-4ff5-bafb-86a9b5cd0232","system_id":"levelo_inurba_marseille","lat":43.337444,"lon":5.374475,"is_reserved":false,"is_disabled":false,"rental_uris":{"android":"levelo://app?vid=1a2bd6ce-febc-4ff5-bafb-86a9b5cd0232","ios":"levelo://app?vid=1a2bd6ce-febc-4ff5-bafb-86a9b5cd0232"},"vehicle_type_id":"4","last_reported":1741442767,"current_range_meters":9200,"station_id":"","pricing_plan_id":"cebpf4jnsgd1na2vs0mg"},{"bike_id":"74c3e798-dfe0-4bf5-be28-283bb58070b7","system_id":"levelo_inurba_marseille","lat":43.26563,"lon":5.39024,"is_reserved":false,"is_disabled":false,"rental_uris":{"android":"levelo://app?vid=74c3e798-dfe0-4bf5-be28-283bb58070b7","ios":"levelo://app?vid=74c3e798-dfe0-4bf5-be28-283bb58070b7"},"vehicle_type_id":"4","last_reported":1741442767,"current_range_meters":9200,"station_id":"ce4bhe12rcd13ifvqf30","pricing_plan_id":"cebpf4jnsgd1na2vs0mg"},{"bike_id":"e524bcef-a391-41b2-bad2-673eae53ea51","system_id":"levelo_inurba_marseille","lat":43.31719,"lon":5.4371,"is_reserved":false,"is_disabled":false,"rental_uris":{"android":"levelo://app?vid=e524bcef-a391-41b2-bad2-673eae53ea51","ios":"levelo://app?vid=e524bcef-a391-41b2-bad2-673eae53ea51"},"vehicle_type_id":"4","last_reported":1741442767,"current_range_meters":9200,"station_id":"ce4bhp92rcd13ifvqhcg","pricing_plan_id":"cebpf4jnsgd1na2vs0mg"},{"bike_id":"9802ee75-0a8d-49f5-a6aa-c00d6d250ebc","system_id":"levelo_inurba_marseille","lat":43.293,"lon":5.3718,"is_reserved":false,"is_disabled":false,"rental_uris":{"android":"levelo://app?vid=9802ee75-0a8d-49f5-a6aa-c00d6d250ebc","ios":"levelo://app?vid=9802ee75-0a8d-49f5-a6aa-c00d6d250ebc"},"vehicle_type_id":"4","last_reported":1741442767,"current_range_meters":9200,"station_id":"ce4bgh92rcd13ifvqb40","pricing_plan_id":"cebpf4jnsgd1na2vs0mg"},{"bike_id":"585f6f07-539d-4bd8-b4b9-6057feee9b70","system_id":"levelo_inurba_marseille","lat":43.3266,"lon":5.40996,"is_reserved":false,"is_disabled":false,"rental_uris":{"android":"levelo://app?vid=585f6f07-539d-4bd8-b4b9-6057feee9b70","ios":"levelo://app?vid=585f6f07-539d-4bd8-b4b9-6057feee9b70"},"vehicle_type_id":"4","last_reported":1741442767,"current_range_meters":9200,"station_id":"ce4bhpp2rcd13ifvqhgg","pricing_plan_id":"cebpf4jnsgd1na2vs0mg"},{"bike_id":"0c6e8b0c-e7bd-48cb-a773-74632f1f1eee","system_id":"levelo_inurba_marseille","lat":43.25864,"lon":5.39919,"is_reserved":false,"is_disabled":false,"rental_uris":{"android":"levelo://app?vid=0c6e8b0c-e7bd-48cb-a773-74632f1f1eee","ios":"levelo://app?vid=0c6e8b0c-e7bd-48cb-a773-74632f1f1eee"},"vehicle_type_id":"4","last_reported":1741442767,"current_range_meters":9200,"station_id":"ce4bhl92rcd13ifvqghg","pricing_plan_id":"cebpf4jnsgd1na2vs0mg"},{"bike_id":"e1e3318e-866c-49c9-b1a4-16da142c8f27","system_id":"levelo_inurba_marseille","lat":43.22935,"lon":5.35364,"is_reserved":false,"is_disabled":false,"rental_uris":{"android":"levelo://app?vid=e1e3318e-866c-49c9-b1a4-16da142c8f27","ios":"levelo://app?vid=e1e3318e-866c-49c9-b1a4-16da142c8f27"},"vehicle_type_id":"4","last_reported":1741442767,"current_range_meters":9200,"station_id":"cpo3532slgdg3j2ikp40","pricing_plan_id":"cebpf4jnsgd1na2vs0mg"},{"bike_id":"9bfe4e82-241b-4620-b471-d226beb88b23","system_id":"levelo_inurba_marseille","lat":43.22934,"lon":5.35369,"is_reserved":false,"is_disabled":false,"rental_uris":{"android":"levelo://app?vid=9bfe4e82-241b-4620-b471-d226beb88b23","ios":"levelo://app?vid=9bfe4e82-241b-4620-b471-d226beb88b23"},"vehicle_type_id":"4","last_reported":1741442767,"current_range_meters":9200,"station_id":"cpo3532slgdg3j2ikp40","pricing_plan_id":"cebpf4jnsgd1na2vs0mg"},{"bike_id":"4f508b50-1e3d-40c5-be77-1e6495edbe07","system_id":"levelo_inurba_marseille","lat":43.25724,"lon":5.41104,"is_reserved":false,"is_disabled":false,"rental_uris":{"android":"levelo://app?vid=4f508b50-1e3d-40c5-be77-1e6495edbe07","ios":"levelo://app?vid=4f508b50-1e3d-40c5-be77-1e6495edbe07"},"vehicle_type_id":"4","last_reported":1741442767,"current_range_meters":9600,"station_id":"ce4bhkp2rcd13ifvqgd0","pricing_plan_id":"cebpf4jnsgd1na2vs0mg"},{"bike_id":"467714ae-4d67-4d58-b20a-379932f88e5d","system_id":"levelo_inurba_marseille","lat":43.23963,"lon":5.3662,"is_reserved":false,"is_disabled":false,"rental_uris":{"android":"levelo://app?vid=467714ae-4d67-4d58-b20a-379932f88e5d","ios":"levelo://app?vid=467714ae-4d67-4d58-b20a-379932f88e5d"},"vehicle_type_id":"4","last_reported":1741442767,"current_range_meters":9600,"station_id":"ce4bhi12rcd13ifvqfp0","pricing_plan_id":"cebpf4jnsgd1na2vs0mg"},{"bike_id":"c787a0ef-03a5-4d36-b53c-60238e9036da","system_id":"levelo_inurba_marseille","lat":43.23194,"lon":5.3999,"is_reserved":false,"is_disabled":false,"rental_uris":{"android":"levelo://app?vid=c787a0ef-03a5-4d36-b53c-60238e9036da","ios":"levelo://app?vid=c787a0ef-03a5-4d36-b53c-60238e9036da"},"vehicle_type_id":"4","last_reported":1741442767,"current_range_meters":9600,"station_id":"ce4bhn12rcd13ifvqgqg","pricing_plan_id":"cebpf4jnsgd1na2vs0mg"},{"bike_id":"24735a56-ae7a-4f1c-b08f-44b68b6d07ce","system_id":"levelo_inurba_marseille","lat":43.29523,"lon":5.37512,"is_reserved":false,"is_disabled":false,"rental_uris":{"android":"levelo://app?vid=24735a56-ae7a-4f1c-b08f-44b68b6d07ce","ios":"levelo://app?vid=24735a56-ae7a-4f1c-b08f-44b68b6d07ce"},"vehicle_type_id":"4","last_reported":1741442767,"current_range_meters":9600,"station_id":"ce4bgkp2rcd13ifvqbmg","pricing_plan_id":"cebpf4jnsgd1na2vs0mg"},{"bike_id":"6b209af2-2575-48a2-b4be-8b53fb800681","system_id":"levelo_inurba_marseille","lat":43.32019,"lon":5.414998,"is_reserved":false,"is_disabled":false,"rental_uris":{"android":"levelo://app?vid=6b209af2-2575-48a2-b4be-8b53fb800681","ios":"levelo://app?vid=6b209af2-2575-48a2-b4be-8b53fb800681"},"vehicle_type_id":"4","last_reported":1741442767,"current_range_meters":5600,"station_id":"ce4bhq92rcd13ifvqhkg","pricing_plan_id":"cebpf4jnsgd1na2vs0mg"},{"bike_id":"a6c74a05-39e7-4da6-8b71-1ba187fc5bae","system_id":"levelo_inurba_marseille","lat":43.30539,"lon":5.36529,"is_reserved":false,"is_disabled":true,"rental_uris":{"android":"levelo://app?vid=a6c74a05-39e7-4da6-8b71-1ba187fc5bae","ios":"levelo://app?vid=a6c74a05-39e7-4da6-8b71-1ba187fc5bae"},"vehicle_type_id":"4","last_reported":1741442767,"current_range_meters":9600,"station_id":"ce4bgs12rcd13ifvqcag","pricing_plan_id":"cebpf4jnsgd1na2vs0mg"},{"bike_id":"8f2b5cd4-6344-44af-8280-1174d46ade90","system_id":"levelo_inurba_marseille","lat":43.25003,"lon":5.38915,"is_reserved":false,"is_disabled":false,"rental_uris":{"android":"levelo://app?vid=8f2b5cd4-6344-44af-8280-1174d46ade90","ios":"levelo://app?vid=8f2b5cd4-6344-44af-8280-1174d46ade90"},"vehicle_type_id":"4","last_reported":1741442767,"current_range_meters":9600,"station_id":"ce4bhgp2rcd13ifvqfd0","pricing_plan_id":"cebpf4jnsgd1na2vs0mg"},{"bike_id":"b54292f7-ba5a-4ca2-851d-b34190bdf4a8","system_id":"levelo_inurba_marseille","lat":43.33021,"lon":5.39044,"is_reserved":false,"is_disabled":false,"rental_uris":{"android":"levelo://app?vid=b54292f7-ba5a-4ca2-851d-b34190bdf4a8","ios":"levelo://app?vid=b54292f7-ba5a-4ca2-851d-b34190bdf4a8"},"vehicle_type_id":"4","last_reported":1741442767,"current_range_meters":9600,"station_id":"ce4bhr92rcd13ifvqhrg","pricing_plan_id":"cebpf4jnsgd1na2vs0mg"},{"bike_id":"4048f4cb-c79a-4e84-a8e6-068b2a53463d","system_id":"levelo_inurba_marseille","lat":43.29732,"lon":5.39397,"is_reserved":false,"is_disabled":false,"rental_uris":{"android":"levelo://app?vid=4048f4cb-c79a-4e84-a8e6-068b2a53463d","ios":"levelo://app?vid=4048f4cb-c79a-4e84-a8e6-068b2a53463d"},"vehicle_type_id":"4","last_reported":1741442767,"current_range_meters":9600,"station_id":"","pricing_plan_id":"cebpf4jnsgd1na2vs0mg"},{"bike_id":"4d7c21bf-66c4-451a-8d92-8d6e32dd4a93","system_id":"levelo_inurba_marseille","lat":43.29323,"lon":5.37206,"is_reserved":false,"is_disabled":false,"rental_uris":{"android":"levelo://app?vid=4d7c21bf-66c4-451a-8d92-8d6e32dd4a93","ios":"levelo://app?vid=4d7c21bf-66c4-451a-8d92-8d6e32dd4a93"},"vehicle_type_id":"4","last_reported":1741442767,"current_range_meters":9600,"station_id":"ce4bgh92rcd13ifvqb40","pricing_plan_id":"cebpf4jnsgd1na2vs0mg"},{"bike_id":"e617155d-9b64-4a04-ad61-c2ca2f4fb408","system_id":"levelo_inurba_marseille","lat":43.23072,"lon":5.35489,"is_reserved":false,"is_disabled":false,"rental_uris":{"android":"levelo://app?vid=e617155d-9b64-4a04-ad61-c2ca2f4fb408","ios":"levelo://app?vid=e617155d-9b64-4a04-ad61-c2ca2f4fb408"},"vehicle_type_id":"4","last_reported":1741442767,"current_range_meters":9600,"station_id":"cpo3342slgdg3j2ifvpg","pricing_plan_id":"cebpf4jnsgd1na2vs0mg"},{"bike_id":"201e16e9-1f9c-45a3-8dec-2d516ef1efcb","system_id":"levelo_inurba_marseille","lat":43.23972,"lon":5.36627,"is_reserved":false,"is_disabled":false,"rental_uris":{"android":"levelo://app?vid=201e16e9-1f9c-45a3-8dec-2d516ef1efcb","ios":"levelo://app?vid=201e16e9-1f9c-45a3-8dec-2d516ef1efcb"},"vehicle_type_id":"4","last_reported":1741442767,"current_range_meters":9600,"station_id":"ce4bhi12rcd13ifvqfp0","pricing_plan_id":"cebpf4jnsgd1na2vs0mg"},{"bike_id":"9b8789be-c150-4679-b8ba-e1d5e4639da2","system_id":"levelo_inurba_marseille","lat":43.25737,"lon":5.41091,"is_reserved":false,"is_disabled":false,"rental_uris":{"android":"levelo://app?vid=9b8789be-c150-4679-b8ba-e1d5e4639da2","ios":"levelo://app?vid=9b8789be-c150-4679-b8ba-e1d5e4639da2"},"vehicle_type_id":"4","last_reported":1741442767,"current_range_meters":9600,"station_id":"ce4bhkp2rcd13ifvqgd0","pricing_plan_id":"cebpf4jnsgd1na2vs0mg"},{"bike_id":"fe26fd78-c21a-489a-935f-586d6749759b","system_id":"levelo_inurba_marseille","lat":43.29279,"lon":5.36838,"is_reserved":false,"is_disabled":false,"rental_uris":{"android":"levelo://app?vid=fe26fd78-c21a-489a-935f-586d6749759b","ios":"levelo://app?vid=fe26fd78-c21a-489a-935f-586d6749759b"},"vehicle_type_id":"4","last_reported":1741442767,"current_range_meters":9600,"station_id":"ce4bhbp2rcd13ifvqesg","pricing_plan_id":"cebpf4jnsgd1na2vs0mg"},{"bike_id":"39e24471-7386-4fb8-9568-9bc86c72a5de","system_id":"levelo_inurba_marseille","lat":43.29248,"lon":5.37617,"is_reserved":false,"is_disabled":false,"rental_uris":{"android":"levelo://app?vid=39e24471-7386-4fb8-9568-9bc86c72a5de","ios":"levelo://app?vid=39e24471-7386-4fb8-9568-9bc86c72a5de"},"vehicle_type_id":"4","last_reported":1741442767,"current_range_meters":9600,"station_id":"ce4bgi12rcd13ifvqb80","pricing_plan_id":"cebpf4jnsgd1na2vs0mg"},{"bike_id":"049fb279-0f85-4d71-9946-2c1f9d5cd1a0","system_id":"levelo_inurba_marseille","lat":43.23188,"lon":5.39979,"is_reserved":false,"is_disabled":false,"rental_uris":{"android":"levelo://app?vid=049fb279-0f85-4d71-9946-2c1f9d5cd1a0","ios":"levelo://app?vid=049fb279-0f85-4d71-9946-2c1f9d5cd1a0"},"vehicle_type_id":"4","last_reported":1741442767,"current_range_meters":10000,"station_id":"ce4bhn12rcd13ifvqgqg","pricing_plan_id":"cebpf4jnsgd1na2vs0mg"},{"bike_id":"44c0f9a1-99ba-41cb-8f36-0e033c5e16cc","system_id":"levelo_inurba_marseille","lat":43.26197,"lon":5.37448,"is_reserved":false,"is_disabled":false,"rental_uris":{"android":"levelo://app?vid=44c0f9a1-99ba-41cb-8f36-0e033c5e16cc","ios":"levelo://app?vid=44c0f9a1-99ba-41cb-8f36-0e033c5e16cc"},"vehicle_type_id":"4","last_reported":1741442767,"current_range_meters":10000,"station_id":"ce4bhgp2rcd13ifvqfc0","pricing_plan_id":"cebpf4jnsgd1na2vs0mg"},{"bike_id":"9e2a9734-63cc-4a01-8102-7cc50f45d2cf","system_id":"levelo_inurba_marseille","lat":43.28408,"lon":5.34992,"is_reserved":false,"is_disabled":false,"rental_uris":{"android":"levelo://app?vid=9e2a9734-63cc-4a01-8102-7cc50f45d2cf","ios":"levelo://app?vid=9e2a9734-63cc-4a01-8102-7cc50f45d2cf"},"vehicle_type_id":"4","last_reported":1741442767,"current_range_meters":10000,"station_id":"ce4bhbh2rcd13ifvqepg","pricing_plan_id":"cebpf4jnsgd1na2vs0mg"},{"bike_id":"aff0f10b-0db2-4643-a6a9-c51b495c887b","system_id":"levelo_inurba_marseille","lat":43.25585,"lon":5.38232,"is_reserved":false,"is_disabled":false,"rental_uris":{"android":"levelo://app?vid=aff0f10b-0db2-4643-a6a9-c51b495c887b","ios":"levelo://app?vid=aff0f10b-0db2-4643-a6a9-c51b495c887b"},"vehicle_type_id":"4","last_reported":1741442767,"current_range_meters":10000,"station_id":"ce4bhih2rcd13ifvqfs0","pricing_plan_id":"cebpf4jnsgd1na2vs0mg"},{"bike_id":"2455be66-ca7a-4e5b-9856-a37aa52851cf","system_id":"levelo_inurba_marseille","lat":43.29626,"lon":5.37726,"is_reserved":false,"is_disabled":false,"rental_uris":{"android":"levelo://app?vid=2455be66-ca7a-4e5b-9856-a37aa52851cf","ios":"levelo://app?vid=2455be66-ca7a-4e5b-9856-a37aa52851cf"},"vehicle_type_id":"4","last_reported":1741442767,"current_range_meters":10000,"station_id":"ce4bgi92rcd13ifvqb90","pricing_plan_id":"cebpf4jnsgd1na2vs0mg"},{"bike_id":"976f6527-2290-45db-9790-149e6f0f042b","system_id":"levelo_inurba_marseille","lat":43.29271,"lon":5.37621,"is_reserved":false,"is_disabled":false,"rental_uris":{"android":"levelo://app?vid=976f6527-2290-45db-9790-149e6f0f042b","ios":"levelo://app?vid=976f6527-2290-45db-9790-149e6f0f042b"},"vehicle_type_id":"4","last_reported":1741442767,"current_range_meters":10000,"station_id":"ce4bgi12rcd13ifvqb80","pricing_plan_id":"cebpf4jnsgd1na2vs0mg"},{"bike_id":"62453d90-5716-4175-b69f-9806603609af","system_id":"levelo_inurba_marseille","lat":43.23949,"lon":5.36632,"is_reserved":false,"is_disabled":false,"rental_uris":{"android":"levelo://app?vid=62453d90-5716-4175-b69f-9806603609af","ios":"levelo://app?vid=62453d90-5716-4175-b69f-9806603609af"},"vehicle_type_id":"4","last_reported":1741442767,"current_range_meters":10000,"station_id":"ce4bhi12rcd13ifvqfp0","pricing_plan_id":"cebpf4jnsgd1na2vs0mg"},{"bike_id":"1d642fdb-a1ff-4fcc-9ebb-c727a994a4df","system_id":"levelo_inurba_marseille","lat":43.25112,"lon":5.40334,"is_reserved":false,"is_disabled":false,"rental_uris":{"android":"levelo://app?vid=1d642fdb-a1ff-4fcc-9ebb-c727a994a4df","ios":"levelo://app?vid=1d642fdb-a1ff-4fcc-9ebb-c727a994a4df"},"vehicle_type_id":"4","last_reported":1741442767,"current_range_meters":10800,"station_id":"ce4bhlh2rcd13ifvqgig","pricing_plan_id":"cebpf4jnsgd1na2vs0mg"},{"bike_id":"8e61e4ca-efef-4c71-8313-d36d2589dcce","system_id":"levelo_inurba_marseille","lat":43.23052,"lon":5.35482,"is_reserved":false,"is_disabled":false,"rental_uris":{"android":"levelo://app?vid=8e61e4ca-efef-4c71-8313-d36d2589dcce","ios":"levelo://app?vid=8e61e4ca-efef-4c71-8313-d36d2589dcce"},"vehicle_type_id":"4","last_reported":1741442767,"current_range_meters":10800,"station_id":"cpo3342slgdg3j2ifvpg","pricing_plan_id":"cebpf4jnsgd1na2vs0mg"},{"bike_id":"fb9b7ec4-f9ef-4055-9932-b5dd0ff835fa","system_id":"levelo_inurba_marseille","lat":43.29618,"lon":5.37723,"is_reserved":false,"is_disabled":false,"rental_uris":{"android":"levelo://app?vid=fb9b7ec4-f9ef-4055-9932-b5dd0ff835fa","ios":"levelo://app?vid=fb9b7ec4-f9ef-4055-9932-b5dd0ff835fa"},"vehicle_type_id":"4","last_reported":1741442767,"current_range_meters":10800,"station_id":"ce4bgi92rcd13ifvqb90","pricing_plan_id":"cebpf4jnsgd1na2vs0mg"},{"bike_id":"b6b43c46-239e-4926-b389-59a9b267bcf4","system_id":"levelo_inurba_marseille","lat":43.26551,"lon":5.37302,"is_reserved":false,"is_disabled":false,"rental_uris":{"android":"levelo://app?vid=b6b43c46-239e-4926-b389-59a9b267bcf4","ios":"levelo://app?vid=b6b43c46-239e-4926-b389-59a9b267bcf4"},"vehicle_type_id":"4","last_reported":1741442767,"current_range_meters":10800,"station_id":"ce4bhg12rcd13ifvqf70","pricing_plan_id":"cebpf4jnsgd1na2vs0mg"},{"bike_id":"eb01a10e-6ec1-450f-abde-f1b3cab02eff","system_id":"levelo_inurba_marseille","lat":43.29524,"lon":5.39049,"is_reserved":false,"is_disabled":false,"rental_uris":{"android":"levelo://app?vid=eb01a10e-6ec1-450f-abde-f1b3cab02eff","ios":"levelo://app?vid=eb01a10e-6ec1-450f-abde-f1b3cab02eff"},"vehicle_type_id":"4","last_reported":1741442767,"current_range_meters":6000,"station_id":"ce4bh3p2rcd13ifvqdp0","pricing_plan_id":"cebpf4jnsgd1na2vs0mg"},{"bike_id":"a6835a05-bb19-4a11-95e2-c0b458129dfa","system_id":"levelo_inurba_marseille","lat":43.26558,"lon":5.37278,"is_reserved":false,"is_disabled":false,"rental_uris":{"android":"levelo://app?vid=a6835a05-bb19-4a11-95e2-c0b458129dfa","ios":"levelo://app?vid=a6835a05-bb19-4a11-95e2-c0b458129dfa"},"vehicle_type_id":"4","last_reported":1741442767,"current_range_meters":10800,"station_id":"ce4bhg12rcd13ifvqf70","pricing_plan_id":"cebpf4jnsgd1na2vs0mg"},{"bike_id":"b533f38f-df9a-4e01-86fb-08f4b9bfcdfb","system_id":"levelo_inurba_marseille","lat":43.2623,"lon":5.42113,"is_reserved":false,"is_disabled":false,"rental_uris":{"android":"levelo://app?vid=b533f38f-df9a-4e01-86fb-08f4b9bfcdfb","ios":"levelo://app?vid=b533f38f-df9a-4e01-86fb-08f4b9bfcdfb"},"vehicle_type_id":"4","last_reported":1741442767,"current_range_meters":10800,"station_id":"","pricing_plan_id":"cebpf4jnsgd1na2vs0mg"},{"bike_id":"40727ac6-4880-4abd-8b08-b3c4bd1e8d22","system_id":"levelo_inurba_marseille","lat":43.25579,"lon":5.38239,"is_reserved":false,"is_disabled":false,"rental_uris":{"android":"levelo://app?vid=40727ac6-4880-4abd-8b08-b3c4bd1e8d22","ios":"levelo://app?vid=40727ac6-4880-4abd-8b08-b3c4bd1e8d22"},"vehicle_type_id":"4","last_reported":1741442767,"current_range_meters":10800,"station_id":"ce4bhih2rcd13ifvqfs0","pricing_plan_id":"cebpf4jnsgd1na2vs0mg"},{"bike_id":"9a725903-8c24-4620-89dc-eb7e64194f1b","system_id":"levelo_inurba_marseille","lat":43.265509,"lon":5.373409,"is_reserved":false,"is_disabled":false,"rental_uris":{"android":"levelo://app?vid=9a725903-8c24-4620-89dc-eb7e64194f1b","ios":"levelo://app?vid=9a725903-8c24-4620-89dc-eb7e64194f1b"},"vehicle_type_id":"4","last_reported":1741442767,"current_range_meters":10800,"station_id":"ce4bhg12rcd13ifvqf70","pricing_plan_id":"cebpf4jnsgd1na2vs0mg"},{"bike_id":"7b72f05a-33ae-45f0-b189-48d025972aa9","system_id":"levelo_inurba_marseille","lat":43.23197,"lon":5.35552,"is_reserved":false,"is_disabled":false,"rental_uris":{"android":"levelo://app?vid=7b72f05a-33ae-45f0-b189-48d025972aa9","ios":"levelo://app?vid=7b72f05a-33ae-45f0-b189-48d025972aa9"},"vehicle_type_id":"4","last_reported":1741442767,"current_range_meters":10800,"station_id":"ce4bhu92rcd13ifvqi70","pricing_plan_id":"cebpf4jnsgd1na2vs0mg"},{"bike_id":"565f7f22-1d4d-447e-99f2-4d0b21fd3605","system_id":"levelo_inurba_marseille","lat":43.29797,"lon":5.38108,"is_reserved":false,"is_disabled":false,"rental_uris":{"android":"levelo://app?vid=565f7f22-1d4d-447e-99f2-4d0b21fd3605","ios":"levelo://app?vid=565f7f22-1d4d-447e-99f2-4d0b21fd3605"},"vehicle_type_id":"4","last_reported":1741442767,"current_range_meters":10800,"station_id":"ce4bgip2rcd13ifvqbb0","pricing_plan_id":"cebpf4jnsgd1na2vs0mg"},{"bike_id":"8913162a-12d4-4cd8-b4cf-286032a22f40","system_id":"levelo_inurba_marseille","lat":43.303253,"lon":5.368817,"is_reserved":false,"is_disabled":false,"rental_uris":{"android":"levelo://app?vid=8913162a-12d4-4cd8-b4cf-286032a22f40","ios":"levelo://app?vid=8913162a-12d4-4cd8-b4cf-286032a22f40"},"vehicle_type_id":"4","last_reported":1741442767,"current_range_meters":9200,"station_id":"ce4bgr92rcd13ifvqc7g","pricing_plan_id":"cebpf4jnsgd1na2vs0mg"},{"bike_id":"7098bb15-fd42-45e6-a4bf-e3d7026cfb2b","system_id":"levelo_inurba_marseille","lat":43.30587,"lon":5.39361,"is_reserved":false,"is_disabled":false,"rental_uris":{"android":"levelo://app?vid=7098bb15-fd42-45e6-a4bf-e3d7026cfb2b","ios":"levelo://app?vid=7098bb15-fd42-45e6-a4bf-e3d7026cfb2b"},"vehicle_type_id":"4","last_reported":1741442767,"current_range_meters":11200,"station_id":"ce4bgi92rcd13ifvqb90","pricing_plan_id":"cebpf4jnsgd1na2vs0mg"},{"bike_id":"b2c2514d-58df-4080-9acc-0a3325c87525","system_id":"levelo_inurba_marseille","lat":43.32358,"lon":5.36762,"is_reserved":false,"is_disabled":false,"rental_uris":{"android":"levelo://app?vid=b2c2514d-58df-4080-9acc-0a3325c87525","ios":"levelo://app?vid=b2c2514d-58df-4080-9acc-0a3325c87525"},"vehicle_type_id":"4","last_reported":1741442767,"current_range_meters":11200,"station_id":"ce4bhsh2rcd13ifvqi2g","pricing_plan_id":"cebpf4jnsgd1na2vs0mg"},{"bike_id":"65f047ab-ec07-440a-8847-ca6c8e676e9e","system_id":"levelo_inurba_marseille","lat":43.29578,"lon":5.37509,"is_reserved":false,"is_disabled":false,"rental_uris":{"android":"levelo://app?vid=65f047ab-ec07-440a-8847-ca6c8e676e9e","ios":"levelo://app?vid=65f047ab-ec07-440a-8847-ca6c8e676e9e"},"vehicle_type_id":"4","last_reported":1741442767,"current_range_meters":11600,"station_id":"ce4bgh92rcd13ifvqb50","pricing_plan_id":"cebpf4jnsgd1na2vs0mg"},{"bike_id":"f62a8e24-5a85-4de7-865e-64e826de1e86","system_id":"levelo_inurba_marseille","lat":43.26681,"lon":5.38262,"is_reserved":false,"is_disabled":false,"rental_uris":{"android":"levelo://app?vid=f62a8e24-5a85-4de7-865e-64e826de1e86","ios":"levelo://app?vid=f62a8e24-5a85-4de7-865e-64e826de1e86"},"vehicle_type_id":"4","last_reported":1741442767,"current_range_meters":12800,"station_id":"ce4bhg92rcd13ifvqf90","pricing_plan_id":"cebpf4jnsgd1na2vs0mg"},{"bike_id":"78e35e8e-d5ae-46ca-bf9a-5a84807e4e77","system_id":"levelo_inurba_marseille","lat":43.27055,"lon":5.40259,"is_reserved":false,"is_disabled":false,"rental_uris":{"android":"levelo://app?vid=78e35e8e-d5ae-46ca-bf9a-5a84807e4e77","ios":"levelo://app?vid=78e35e8e-d5ae-46ca-bf9a-5a84807e4e77"},"vehicle_type_id":"4","last_reported":1741442767,"current_range_meters":11600,"station_id":"ce4bhk92rcd13ifvqgc0","pricing_plan_id":"cebpf4jnsgd1na2vs0mg"},{"bike_id":"388ea826-f5fa-4632-a530-45d13cc0a769","system_id":"levelo_inurba_marseille","lat":43.231905,"lon":5.399894,"is_reserved":false,"is_disabled":false,"rental_uris":{"android":"levelo://app?vid=388ea826-f5fa-4632-a530-45d13cc0a769","ios":"levelo://app?vid=388ea826-f5fa-4632-a530-45d13cc0a769"},"vehicle_type_id":"4","last_reported":1741442767,"current_range_meters":11600,"station_id":"ce4bhn12rcd13ifvqgqg","pricing_plan_id":"cebpf4jnsgd1na2vs0mg"},{"bike_id":"2493e8e2-8bb0-4d61-8d30-7ed077869405","system_id":"levelo_inurba_marseille","lat":43.28416,"lon":5.37511,"is_reserved":false,"is_disabled":false,"rental_uris":{"android":"levelo://app?vid=2493e8e2-8bb0-4d61-8d30-7ed077869405","ios":"levelo://app?vid=2493e8e2-8bb0-4d61-8d30-7ed077869405"},"vehicle_type_id":"4","last_reported":1741442767,"current_range_meters":11600,"station_id":"ce4bh412rcd13ifvqds0","pricing_plan_id":"cebpf4jnsgd1na2vs0mg"},{"bike_id":"65d2271a-97b5-4913-95aa-cf77a293f0eb","system_id":"levelo_inurba_marseille","lat":43.26034,"lon":5.37546,"is_reserved":false,"is_disabled":false,"rental_uris":{"android":"levelo://app?vid=65d2271a-97b5-4913-95aa-cf77a293f0eb","ios":"levelo://app?vid=65d2271a-97b5-4913-95aa-cf77a293f0eb"},"vehicle_type_id":"4","last_reported":1741442767,"current_range_meters":11600,"station_id":"ce4bhgh2rcd13ifvqfa0","pricing_plan_id":"cebpf4jnsgd1na2vs0mg"},{"bike_id":"080f2947-5ae2-4d50-8845-2d82a0251f6c","system_id":"levelo_inurba_marseille","lat":43.29302,"lon":5.37457,"is_reserved":false,"is_disabled":false,"rental_uris":{"android":"levelo://app?vid=080f2947-5ae2-4d50-8845-2d82a0251f6c","ios":"levelo://app?vid=080f2947-5ae2-4d50-8845-2d82a0251f6c"},"vehicle_type_id":"4","last_reported":1741442767,"current_range_meters":12000,"station_id":"ce4bgi12rcd13ifvqb70","pricing_plan_id":"cebpf4jnsgd1na2vs0mg"},{"bike_id":"d0f09820-4774-4794-8da3-059a178a2018","system_id":"levelo_inurba_marseille","lat":43.30428,"lon":5.4093,"is_reserved":false,"is_disabled":false,"rental_uris":{"android":"levelo://app?vid=d0f09820-4774-4794-8da3-059a178a2018","ios":"levelo://app?vid=d0f09820-4774-4794-8da3-059a178a2018"},"vehicle_type_id":"4","last_reported":1741442767,"current_range_meters":10800,"station_id":"ce4bhop2rcd13ifvqh8g","pricing_plan_id":"cebpf4jnsgd1na2vs0mg"},{"bike_id":"cdc6fa71-b8c0-46e7-902c-4e18b52385d2","system_id":"levelo_inurba_marseille","lat":43.288472,"lon":5.400053,"is_reserved":false,"is_disabled":false,"rental_uris":{"android":"levelo://app?vid=cdc6fa71-b8c0-46e7-902c-4e18b52385d2","ios":"levelo://app?vid=cdc6fa71-b8c0-46e7-902c-4e18b52385d2"},"vehicle_type_id":"4","last_reported":1741442767,"current_range_meters":12000,"station_id":"","pricing_plan_id":"cebpf4jnsgd1na2vs0mg"},{"bike_id":"ae454a88-f24c-4e88-a7cf-9a915082084f","system_id":"levelo_inurba_marseille","lat":43.25869,"lon":5.39892,"is_reserved":false,"is_disabled":false,"rental_uris":{"android":"levelo://app?vid=ae454a88-f24c-4e88-a7cf-9a915082084f","ios":"levelo://app?vid=ae454a88-f24c-4e88-a7cf-9a915082084f"},"vehicle_type_id":"4","last_reported":1741442767,"current_range_meters":12400,"station_id":"ce4bhl92rcd13ifvqghg","pricing_plan_id":"cebpf4jnsgd1na2vs0mg"},{"bike_id":"79a5d025-0561-40d5-8495-bb5660e4e496","system_id":"levelo_inurba_marseille","lat":43.29034,"lon":5.38145,"is_reserved":false,"is_disabled":false,"rental_uris":{"android":"levelo://app?vid=79a5d025-0561-40d5-8495-bb5660e4e496","ios":"levelo://app?vid=79a5d025-0561-40d5-8495-bb5660e4e496"},"vehicle_type_id":"4","last_reported":1741442767,"current_range_meters":12400,"station_id":"ce4bh4p2rcd13ifvqe1g","pricing_plan_id":"cebpf4jnsgd1na2vs0mg"},{"bike_id":"8fd805de-6f9f-4b23-bf67-66390bfa02b0","system_id":"levelo_inurba_marseille","lat":43.29627,"lon":5.37742,"is_reserved":false,"is_disabled":false,"rental_uris":{"android":"levelo://app?vid=8fd805de-6f9f-4b23-bf67-66390bfa02b0","ios":"levelo://app?vid=8fd805de-6f9f-4b23-bf67-66390bfa02b0"},"vehicle_type_id":"4","last_reported":1741442767,"current_range_meters":12400,"station_id":"ce4bgi92rcd13ifvqb90","pricing_plan_id":"cebpf4jnsgd1na2vs0mg"},{"bike_id":"c1c412b3-ae23-45ab-894a-fe5b494cc9e6","system_id":"levelo_inurba_marseille","lat":43.23188,"lon":5.35577,"is_reserved":false,"is_disabled":false,"rental_uris":{"android":"levelo://app?vid=c1c412b3-ae23-45ab-894a-fe5b494cc9e6","ios":"levelo://app?vid=c1c412b3-ae23-45ab-894a-fe5b494cc9e6"},"vehicle_type_id":"4","last_reported":1741442767,"current_range_meters":12400,"station_id":"ce4bhu92rcd13ifvqi70","pricing_plan_id":"cebpf4jnsgd1na2vs0mg"},{"bike_id":"ec7b86b1-d2ba-4a31-a6b7-3733d23fbb99","system_id":"levelo_inurba_marseille","lat":43.284892,"lon":5.385583,"is_reserved":false,"is_disabled":false,"rental_uris":{"android":"levelo://app?vid=ec7b86b1-d2ba-4a31-a6b7-3733d23fbb99","ios":"levelo://app?vid=ec7b86b1-d2ba-4a31-a6b7-3733d23fbb99"},"vehicle_type_id":"4","last_reported":1741442767,"current_range_meters":13600,"station_id":"ce4bh8p2rcd13ifvqeb0","pricing_plan_id":"cebpf4jnsgd1na2vs0mg"},{"bike_id":"19bbe8da-d7df-496e-a677-cbaab925cf5e","system_id":"levelo_inurba_marseille","lat":43.24872,"lon":5.42519,"is_reserved":false,"is_disabled":false,"rental_uris":{"android":"levelo://app?vid=19bbe8da-d7df-496e-a677-cbaab925cf5e","ios":"levelo://app?vid=19bbe8da-d7df-496e-a677-cbaab925cf5e"},"vehicle_type_id":"4","last_reported":1741442767,"current_range_meters":13600,"station_id":"","pricing_plan_id":"cebpf4jnsgd1na2vs0mg"},{"bike_id":"d93c39e4-5dc3-464e-bd75-531f55c8dbf0","system_id":"levelo_inurba_marseille","lat":43.23967,"lon":5.36641,"is_reserved":false,"is_disabled":false,"rental_uris":{"android":"levelo://app?vid=d93c39e4-5dc3-464e-bd75-531f55c8dbf0","ios":"levelo://app?vid=d93c39e4-5dc3-464e-bd75-531f55c8dbf0"},"vehicle_type_id":"4","last_reported":1741442767,"current_range_meters":12800,"station_id":"ce4bhi12rcd13ifvqfp0","pricing_plan_id":"cebpf4jnsgd1na2vs0mg"},{"bike_id":"90857fac-3ad3-4c4b-ad6c-8524fa49d209","system_id":"levelo_inurba_marseille","lat":43.29792,"lon":5.38095,"is_reserved":false,"is_disabled":false,"rental_uris":{"android":"levelo://app?vid=90857fac-3ad3-4c4b-ad6c-8524fa49d209","ios":"levelo://app?vid=90857fac-3ad3-4c4b-ad6c-8524fa49d209"},"vehicle_type_id":"4","last_reported":1741442767,"current_range_meters":12000,"station_id":"ce4bgip2rcd13ifvqbb0","pricing_plan_id":"cebpf4jnsgd1na2vs0mg"},{"bike_id":"edccc259-2111-4d87-b9ce-ec666473ead9","system_id":"levelo_inurba_marseille","lat":43.2696,"lon":5.38633,"is_reserved":false,"is_disabled":false,"rental_uris":{"android":"levelo://app?vid=edccc259-2111-4d87-b9ce-ec666473ead9","ios":"levelo://app?vid=edccc259-2111-4d87-b9ce-ec666473ead9"},"vehicle_type_id":"4","last_reported":1741442767,"current_range_meters":12000,"station_id":"ce4bhh92rcd13ifvqfh0","pricing_plan_id":"cebpf4jnsgd1na2vs0mg"},{"bike_id":"d0ab72ff-4cb2-4546-ba86-c073999fee3d","system_id":"levelo_inurba_marseille","lat":43.23968,"lon":5.36629,"is_reserved":false,"is_disabled":false,"rental_uris":{"android":"levelo://app?vid=d0ab72ff-4cb2-4546-ba86-c073999fee3d","ios":"levelo://app?vid=d0ab72ff-4cb2-4546-ba86-c073999fee3d"},"vehicle_type_id":"4","last_reported":1741442767,"current_range_meters":13600,"station_id":"ce4bhi12rcd13ifvqfp0","pricing_plan_id":"cebpf4jnsgd1na2vs0mg"},{"bike_id":"81f400cc-026a-4a5a-b8b2-d8eb8ce472f0","system_id":"levelo_inurba_marseille","lat":43.23964,"lon":5.36629,"is_reserved":false,"is_disabled":false,"rental_uris":{"android":"levelo://app?vid=81f400cc-026a-4a5a-b8b2-d8eb8ce472f0","ios":"levelo://app?vid=81f400cc-026a-4a5a-b8b2-d8eb8ce472f0"},"vehicle_type_id":"4","last_reported":1741442767,"current_range_meters":13600,"station_id":"ce4bhi12rcd13ifvqfp0","pricing_plan_id":"cebpf4jnsgd1na2vs0mg"},{"bike_id":"716ad52e-6276-401a-9565-37b068cf8f1c","system_id":"levelo_inurba_marseille","lat":43.24825,"lon":5.37464,"is_reserved":false,"is_disabled":false,"rental_uris":{"android":"levelo://app?vid=716ad52e-6276-401a-9565-37b068cf8f1c","ios":"levelo://app?vid=716ad52e-6276-401a-9565-37b068cf8f1c"},"vehicle_type_id":"4","last_reported":1741442767,"current_range_meters":14000,"station_id":"ce4bhgh2rcd13ifvqfb0","pricing_plan_id":"cebpf4jnsgd1na2vs0mg"},{"bike_id":"6c00399c-5a98-4fdf-ad30-a91e817812ff","system_id":"levelo_inurba_marseille","lat":43.28714,"lon":5.37344,"is_reserved":false,"is_disabled":false,"rental_uris":{"android":"levelo://app?vid=6c00399c-5a98-4fdf-ad30-a91e817812ff","ios":"levelo://app?vid=6c00399c-5a98-4fdf-ad30-a91e817812ff"},"vehicle_type_id":"4","last_reported":1741442767,"current_range_meters":14000,"station_id":"ce4bh3p2rcd13ifvqdq0","pricing_plan_id":"cebpf4jnsgd1na2vs0mg"},{"bike_id":"05ac6b58-0cc0-47b2-a77d-a5e53e092874","system_id":"levelo_inurba_marseille","lat":43.27312,"lon":5.39075,"is_reserved":false,"is_disabled":false,"rental_uris":{"android":"levelo://app?vid=05ac6b58-0cc0-47b2-a77d-a5e53e092874","ios":"levelo://app?vid=05ac6b58-0cc0-47b2-a77d-a5e53e092874"},"vehicle_type_id":"4","last_reported":1741442767,"current_range_meters":14000,"station_id":"ce4bhgp2rcd13ifvqfe0","pricing_plan_id":"cebpf4jnsgd1na2vs0mg"},{"bike_id":"c14d7feb-080e-43e2-95f2-40c85436f912","system_id":"levelo_inurba_marseille","lat":43.33768,"lon":5.3742,"is_reserved":false,"is_disabled":false,"rental_uris":{"android":"levelo://app?vid=c14d7feb-080e-43e2-95f2-40c85436f912","ios":"levelo://app?vid=c14d7feb-080e-43e2-95f2-40c85436f912"},"vehicle_type_id":"4","last_reported":1741442767,"current_range_meters":14000,"station_id":"","pricing_plan_id":"cebpf4jnsgd1na2vs0mg"},{"bike_id":"568a2423-7e64-42a4-8e31-8edbd4fec7e4","system_id":"levelo_inurba_marseille","lat":43.26552,"lon":5.37285,"is_reserved":false,"is_disabled":false,"rental_uris":{"android":"levelo://app?vid=568a2423-7e64-42a4-8e31-8edbd4fec7e4","ios":"levelo://app?vid=568a2423-7e64-42a4-8e31-8edbd4fec7e4"},"vehicle_type_id":"4","last_reported":1741442767,"current_range_meters":14000,"station_id":"ce4bhg12rcd13ifvqf70","pricing_plan_id":"cebpf4jnsgd1na2vs0mg"},{"bike_id":"b3885fad-3709-40ce-8f44-3ff34994f2a7","system_id":"levelo_inurba_marseille","lat":43.24814,"lon":5.37467,"is_reserved":false,"is_disabled":false,"rental_uris":{"android":"levelo://app?vid=b3885fad-3709-40ce-8f44-3ff34994f2a7","ios":"levelo://app?vid=b3885fad-3709-40ce-8f44-3ff34994f2a7"},"vehicle_type_id":"4","last_reported":1741442767,"current_range_meters":13600,"station_id":"ce4bhgh2rcd13ifvqfb0","pricing_plan_id":"cebpf4jnsgd1na2vs0mg"},{"bike_id":"3e95016d-4bad-461d-bf4a-77103db872f8","system_id":"levelo_inurba_marseille","lat":43.23198,"lon":5.35552,"is_reserved":false,"is_disabled":false,"rental_uris":{"android":"levelo://app?vid=3e95016d-4bad-461d-bf4a-77103db872f8","ios":"levelo://app?vid=3e95016d-4bad-461d-bf4a-77103db872f8"},"vehicle_type_id":"4","last_reported":1741442767,"current_range_meters":14000,"station_id":"ce4bhu92rcd13ifvqi70","pricing_plan_id":"cebpf4jnsgd1na2vs0mg"},{"bike_id":"94e06677-7dd9-4e07-80d2-040455873e46","system_id":"levelo_inurba_marseille","lat":43.29631,"lon":5.37165,"is_reserved":false,"is_disabled":false,"rental_uris":{"android":"levelo://app?vid=94e06677-7dd9-4e07-80d2-040455873e46","ios":"levelo://app?vid=94e06677-7dd9-4e07-80d2-040455873e46"},"vehicle_type_id":"4","last_reported":1741442767,"current_range_meters":14400,"station_id":"ce4bgnh2rcd13ifvqc0g","pricing_plan_id":"cebpf4jnsgd1na2vs0mg"},{"bike_id":"6b025610-578f-4002-8837-c91a7ae2baf8","system_id":"levelo_inurba_marseille","lat":43.23149,"lon":5.43713,"is_reserved":false,"is_disabled":false,"rental_uris":{"android":"levelo://app?vid=6b025610-578f-4002-8837-c91a7ae2baf8","ios":"levelo://app?vid=6b025610-578f-4002-8837-c91a7ae2baf8"},"vehicle_type_id":"4","last_reported":1741442767,"current_range_meters":14400,"station_id":"ce4bhmp2rcd13ifvqgog","pricing_plan_id":"cebpf4jnsgd1na2vs0mg"},{"bike_id":"30b8733a-ae27-42bf-883f-50cdead7fa82","system_id":"levelo_inurba_marseille","lat":43.29728,"lon":5.37704,"is_reserved":false,"is_disabled":false,"rental_uris":{"android":"levelo://app?vid=30b8733a-ae27-42bf-883f-50cdead7fa82","ios":"levelo://app?vid=30b8733a-ae27-42bf-883f-50cdead7fa82"},"vehicle_type_id":"4","last_reported":1741442767,"current_range_meters":14400,"station_id":"ce4bgkh2rcd13ifvqbl0","pricing_plan_id":"cebpf4jnsgd1na2vs0mg"},{"bike_id":"b3951b8f-8388-46e0-9060-ee008a75aea1","system_id":"levelo_inurba_marseille","lat":43.29613,"lon":5.37736,"is_reserved":false,"is_disabled":false,"rental_uris":{"android":"levelo://app?vid=b3951b8f-8388-46e0-9060-ee008a75aea1","ios":"levelo://app?vid=b3951b8f-8388-46e0-9060-ee008a75aea1"},"vehicle_type_id":"4","last_reported":1741442767,"current_range_meters":14400,"station_id":"ce4bgi92rcd13ifvqb90","pricing_plan_id":"cebpf4jnsgd1na2vs0mg"},{"bike_id":"cfdfb292-6e11-4f3b-bd31-494f5759a0d4","system_id":"levelo_inurba_marseille","lat":43.29625,"lon":5.37742,"is_reserved":false,"is_disabled":false,"rental_uris":{"android":"levelo://app?vid=cfdfb292-6e11-4f3b-bd31-494f5759a0d4","ios":"levelo://app?vid=cfdfb292-6e11-4f3b-bd31-494f5759a0d4"},"vehicle_type_id":"4","last_reported":1741442767,"current_range_meters":14400,"station_id":"ce4bgi92rcd13ifvqb90","pricing_plan_id":"cebpf4jnsgd1na2vs0mg"},{"bike_id":"5a3b1413-deb1-4c4d-afc1-9a04b533369c","system_id":"levelo_inurba_marseille","lat":43.29596,"lon":5.37518,"is_reserved":false,"is_disabled":false,"rental_uris":{"android":"levelo://app?vid=5a3b1413-deb1-4c4d-afc1-9a04b533369c","ios":"levelo://app?vid=5a3b1413-deb1-4c4d-afc1-9a04b533369c"},"vehicle_type_id":"4","last_reported":1741442767,"current_range_meters":14800,"station_id":"ce4bgh92rcd13ifvqb50","pricing_plan_id":"cebpf4jnsgd1na2vs0mg"},{"bike_id":"1eeca091-626e-41ff-9dd2-f1acc2a97172","system_id":"levelo_inurba_marseille","lat":43.26577,"lon":5.39011,"is_reserved":false,"is_disabled":false,"rental_uris":{"android":"levelo://app?vid=1eeca091-626e-41ff-9dd2-f1acc2a97172","ios":"levelo://app?vid=1eeca091-626e-41ff-9dd2-f1acc2a97172"},"vehicle_type_id":"4","last_reported":1741442767,"current_range_meters":14800,"station_id":"ce4bhe12rcd13ifvqf30","pricing_plan_id":"cebpf4jnsgd1na2vs0mg"},{"bike_id":"033e7e8a-52cf-48fb-86d7-5a1bafd4bc34","system_id":"levelo_inurba_marseille","lat":43.272786,"lon":5.390972,"is_reserved":false,"is_disabled":false,"rental_uris":{"android":"levelo://app?vid=033e7e8a-52cf-48fb-86d7-5a1bafd4bc34","ios":"levelo://app?vid=033e7e8a-52cf-48fb-86d7-5a1bafd4bc34"},"vehicle_type_id":"4","last_reported":1741442767,"current_range_meters":14800,"station_id":"","pricing_plan_id":"cebpf4jnsgd1na2vs0mg"},{"bike_id":"e1d059a2-6807-4ec6-b29d-67478d2a2d7b","system_id":"levelo_inurba_marseille","lat":43.30194,"lon":5.36618,"is_reserved":false,"is_disabled":false,"rental_uris":{"android":"levelo://app?vid=e1d059a2-6807-4ec6-b29d-67478d2a2d7b","ios":"levelo://app?vid=e1d059a2-6807-4ec6-b29d-67478d2a2d7b"},"vehicle_type_id":"4","last_reported":1741442767,"current_range_meters":14800,"station_id":"ce4bgrh2rcd13ifvqc8g","pricing_plan_id":"cebpf4jnsgd1na2vs0mg"},{"bike_id":"14337546-385c-42fd-9725-c11c99c9cd54","system_id":"levelo_inurba_marseille","lat":43.29798,"lon":5.38102,"is_reserved":false,"is_disabled":false,"rental_uris":{"android":"levelo://app?vid=14337546-385c-42fd-9725-c11c99c9cd54","ios":"levelo://app?vid=14337546-385c-42fd-9725-c11c99c9cd54"},"vehicle_type_id":"4","last_reported":1741442767,"current_range_meters":15200,"station_id":"ce4bgip2rcd13ifvqbb0","pricing_plan_id":"cebpf4jnsgd1na2vs0mg"},{"bike_id":"291a12d8-0ef4-4c74-81ad-01760399b882","system_id":"levelo_inurba_marseille","lat":43.26204,"lon":5.37931,"is_reserved":false,"is_disabled":false,"rental_uris":{"android":"levelo://app?vid=291a12d8-0ef4-4c74-81ad-01760399b882","ios":"levelo://app?vid=291a12d8-0ef4-4c74-81ad-01760399b882"},"vehicle_type_id":"4","last_reported":1741442767,"current_range_meters":15200,"station_id":"ce4bhjp2rcd13ifvqg90","pricing_plan_id":"cebpf4jnsgd1na2vs0mg"},{"bike_id":"26fd26f3-b054-4cc4-880b-6dff4009e3fc","system_id":"levelo_inurba_marseille","lat":43.26031,"lon":5.37548,"is_reserved":false,"is_disabled":false,"rental_uris":{"android":"levelo://app?vid=26fd26f3-b054-4cc4-880b-6dff4009e3fc","ios":"levelo://app?vid=26fd26f3-b054-4cc4-880b-6dff4009e3fc"},"vehicle_type_id":"4","last_reported":1741442767,"current_range_meters":15200,"station_id":"ce4bhgh2rcd13ifvqfa0","pricing_plan_id":"cebpf4jnsgd1na2vs0mg"},{"bike_id":"42cc2e89-e275-4f6a-9390-91143c0e8b95","system_id":"levelo_inurba_marseille","lat":43.29625,"lon":5.37736,"is_reserved":false,"is_disabled":false,"rental_uris":{"android":"levelo://app?vid=42cc2e89-e275-4f6a-9390-91143c0e8b95","ios":"levelo://app?vid=42cc2e89-e275-4f6a-9390-91143c0e8b95"},"vehicle_type_id":"4","last_reported":1741442767,"current_range_meters":15200,"station_id":"ce4bgi92rcd13ifvqb90","pricing_plan_id":"cebpf4jnsgd1na2vs0mg"},{"bike_id":"eca2ff55-01de-45dc-83eb-940c116142e2","system_id":"levelo_inurba_marseille","lat":43.29629,"lon":5.40591,"is_reserved":false,"is_disabled":false,"rental_uris":{"android":"levelo://app?vid=eca2ff55-01de-45dc-83eb-940c116142e2","ios":"levelo://app?vid=eca2ff55-01de-45dc-83eb-940c116142e2"},"vehicle_type_id":"4","last_reported":1741442767,"current_range_meters":15200,"station_id":"ce4bh0h2rcd13ifvqd60","pricing_plan_id":"cebpf4jnsgd1na2vs0mg"},{"bike_id":"847c4dcf-730e-447e-8696-584151c0bb08","system_id":"levelo_inurba_marseille","lat":43.30179,"lon":5.36615,"is_reserved":false,"is_disabled":false,"rental_uris":{"android":"levelo://app?vid=847c4dcf-730e-447e-8696-584151c0bb08","ios":"levelo://app?vid=847c4dcf-730e-447e-8696-584151c0bb08"},"vehicle_type_id":"4","last_reported":1741442767,"current_range_meters":15200,"station_id":"ce4bgrh2rcd13ifvqc8g","pricing_plan_id":"cebpf4jnsgd1na2vs0mg"},{"bike_id":"5b3feac3-b03c-46f0-be7e-bd037d3dd045","system_id":"levelo_inurba_marseille","lat":43.2573,"lon":5.411067,"is_reserved":false,"is_disabled":false,"rental_uris":{"android":"levelo://app?vid=5b3feac3-b03c-46f0-be7e-bd037d3dd045","ios":"levelo://app?vid=5b3feac3-b03c-46f0-be7e-bd037d3dd045"},"vehicle_type_id":"4","last_reported":1741442767,"current_range_meters":16000,"station_id":"ce4bhkp2rcd13ifvqgd0","pricing_plan_id":"cebpf4jnsgd1na2vs0mg"},{"bike_id":"730177d3-0549-4070-915b-95192547b6dc","system_id":"levelo_inurba_marseille","lat":43.29038,"lon":5.399665,"is_reserved":false,"is_disabled":false,"rental_uris":{"android":"levelo://app?vid=730177d3-0549-4070-915b-95192547b6dc","ios":"levelo://app?vid=730177d3-0549-4070-915b-95192547b6dc"},"vehicle_type_id":"4","last_reported":1741442767,"current_range_meters":14400,"station_id":"ce4bh192rcd13ifvqdb0","pricing_plan_id":"cebpf4jnsgd1na2vs0mg"},{"bike_id":"01cb4f06-53da-492c-bbbb-5721e161a1c9","system_id":"levelo_inurba_marseille","lat":43.23966,"lon":5.36633,"is_reserved":false,"is_disabled":false,"rental_uris":{"android":"levelo://app?vid=01cb4f06-53da-492c-bbbb-5721e161a1c9","ios":"levelo://app?vid=01cb4f06-53da-492c-bbbb-5721e161a1c9"},"vehicle_type_id":"4","last_reported":1741442767,"current_range_meters":16000,"station_id":"ce4bhi12rcd13ifvqfp0","pricing_plan_id":"cebpf4jnsgd1na2vs0mg"},{"bike_id":"723c67fa-b4b3-48ca-834f-0eace723680b","system_id":"levelo_inurba_marseille","lat":43.26573,"lon":5.37304,"is_reserved":false,"is_disabled":false,"rental_uris":{"android":"levelo://app?vid=723c67fa-b4b3-48ca-834f-0eace723680b","ios":"levelo://app?vid=723c67fa-b4b3-48ca-834f-0eace723680b"},"vehicle_type_id":"4","last_reported":1741442767,"current_range_meters":16000,"station_id":"ce4bhg12rcd13ifvqf70","pricing_plan_id":"cebpf4jnsgd1na2vs0mg"},{"bike_id":"418008e9-ba6e-4d74-9f4e-6d20b68a68ad","system_id":"levelo_inurba_marseille","lat":43.23745,"lon":5.42814,"is_reserved":false,"is_disabled":false,"rental_uris":{"android":"levelo://app?vid=418008e9-ba6e-4d74-9f4e-6d20b68a68ad","ios":"levelo://app?vid=418008e9-ba6e-4d74-9f4e-6d20b68a68ad"},"vehicle_type_id":"4","last_reported":1741442767,"current_range_meters":16000,"station_id":"","pricing_plan_id":"cebpf4jnsgd1na2vs0mg"},{"bike_id":"18929949-f808-49c9-addd-579e3fba1e66","system_id":"levelo_inurba_marseille","lat":43.26963,"lon":5.38637,"is_reserved":false,"is_disabled":false,"rental_uris":{"android":"levelo://app?vid=18929949-f808-49c9-addd-579e3fba1e66","ios":"levelo://app?vid=18929949-f808-49c9-addd-579e3fba1e66"},"vehicle_type_id":"4","last_reported":1741442767,"current_range_meters":16000,"station_id":"ce4bhh92rcd13ifvqfh0","pricing_plan_id":"cebpf4jnsgd1na2vs0mg"},{"bike_id":"8614de08-79ea-4abd-b830-d9e0bdfa37e1","system_id":"levelo_inurba_marseille","lat":43.2931,"lon":5.37451,"is_reserved":false,"is_disabled":false,"rental_uris":{"android":"levelo://app?vid=8614de08-79ea-4abd-b830-d9e0bdfa37e1","ios":"levelo://app?vid=8614de08-79ea-4abd-b830-d9e0bdfa37e1"},"vehicle_type_id":"4","last_reported":1741442767,"current_range_meters":14800,"station_id":"ce4bgi12rcd13ifvqb70","pricing_plan_id":"cebpf4jnsgd1na2vs0mg"},{"bike_id":"926698f8-07f0-48c3-93bc-ea213fb9deae","system_id":"levelo_inurba_marseille","lat":43.29788,"lon":5.37108,"is_reserved":false,"is_disabled":false,"rental_uris":{"android":"levelo://app?vid=926698f8-07f0-48c3-93bc-ea213fb9deae","ios":"levelo://app?vid=926698f8-07f0-48c3-93bc-ea213fb9deae"},"vehicle_type_id":"4","last_reported":1741442767,"current_range_meters":15200,"station_id":"ce4bgop2rcd13ifvqc1g","pricing_plan_id":"cebpf4jnsgd1na2vs0mg"},{"bike_id":"e1c937f6-c8a3-4d31-9234-582af7b4eb7c","system_id":"levelo_inurba_marseille","lat":43.28279,"lon":5.35075,"is_reserved":false,"is_disabled":false,"rental_uris":{"android":"levelo://app?vid=e1c937f6-c8a3-4d31-9234-582af7b4eb7c","ios":"levelo://app?vid=e1c937f6-c8a3-4d31-9234-582af7b4eb7c"},"vehicle_type_id":"4","last_reported":1741442767,"current_range_meters":14800,"station_id":"ce4bhbp2rcd13ifvqerg","pricing_plan_id":"cebpf4jnsgd1na2vs0mg"},{"bike_id":"ee926f57-a308-4c18-a6fa-c5abc65e8c4e","system_id":"levelo_inurba_marseille","lat":43.23961,"lon":5.36628,"is_reserved":false,"is_disabled":false,"rental_uris":{"android":"levelo://app?vid=ee926f57-a308-4c18-a6fa-c5abc65e8c4e","ios":"levelo://app?vid=ee926f57-a308-4c18-a6fa-c5abc65e8c4e"},"vehicle_type_id":"4","last_reported":1741442767,"current_range_meters":16400,"station_id":"ce4bhi12rcd13ifvqfp0","pricing_plan_id":"cebpf4jnsgd1na2vs0mg"},{"bike_id":"3a1203da-b99d-4623-9c0f-d962bb601f56","system_id":"levelo_inurba_marseille","lat":43.29569,"lon":5.37543,"is_reserved":false,"is_disabled":false,"rental_uris":{"android":"levelo://app?vid=3a1203da-b99d-4623-9c0f-d962bb601f56","ios":"levelo://app?vid=3a1203da-b99d-4623-9c0f-d962bb601f56"},"vehicle_type_id":"4","last_reported":1741442767,"current_range_meters":16400,"station_id":"ce4bgh92rcd13ifvqb50","pricing_plan_id":"cebpf4jnsgd1na2vs0mg"},{"bike_id":"04b4258d-0927-4a5b-8ce0-e4accd04b333","system_id":"levelo_inurba_marseille","lat":43.23059,"lon":5.35493,"is_reserved":false,"is_disabled":false,"rental_uris":{"android":"levelo://app?vid=04b4258d-0927-4a5b-8ce0-e4accd04b333","ios":"levelo://app?vid=04b4258d-0927-4a5b-8ce0-e4accd04b333"},"vehicle_type_id":"4","last_reported":1741442767,"current_range_meters":16400,"station_id":"cpo3342slgdg3j2ifvpg","pricing_plan_id":"cebpf4jnsgd1na2vs0mg"},{"bike_id":"43c6fb0d-74ec-4a6a-8d22-820680ef890f","system_id":"levelo_inurba_marseille","lat":43.29719,"lon":5.37695,"is_reserved":false,"is_disabled":false,"rental_uris":{"android":"levelo://app?vid=43c6fb0d-74ec-4a6a-8d22-820680ef890f","ios":"levelo://app?vid=43c6fb0d-74ec-4a6a-8d22-820680ef890f"},"vehicle_type_id":"4","last_reported":1741442767,"current_range_meters":16800,"station_id":"ce4bgkh2rcd13ifvqbl0","pricing_plan_id":"cebpf4jnsgd1na2vs0mg"},{"bike_id":"e9dab2ce-7c7d-40d2-82aa-ed5c703d86fd","system_id":"levelo_inurba_marseille","lat":43.32095,"lon":5.36792,"is_reserved":false,"is_disabled":false,"rental_uris":{"android":"levelo://app?vid=e9dab2ce-7c7d-40d2-82aa-ed5c703d86fd","ios":"levelo://app?vid=e9dab2ce-7c7d-40d2-82aa-ed5c703d86fd"},"vehicle_type_id":"4","last_reported":1741442767,"current_range_meters":16800,"station_id":"ce4bhrh2rcd13ifvqhug","pricing_plan_id":"cebpf4jnsgd1na2vs0mg"},{"bike_id":"deb81f77-c6e9-45d2-b680-8c00a5704cb4","system_id":"levelo_inurba_marseille","lat":43.32087,"lon":5.36781,"is_reserved":false,"is_disabled":false,"rental_uris":{"android":"levelo://app?vid=deb81f77-c6e9-45d2-b680-8c00a5704cb4","ios":"levelo://app?vid=deb81f77-c6e9-45d2-b680-8c00a5704cb4"},"vehicle_type_id":"4","last_reported":1741442767,"current_range_meters":16800,"station_id":"ce4bhrh2rcd13ifvqhug","pricing_plan_id":"cebpf4jnsgd1na2vs0mg"},{"bike_id":"f9b919af-eb90-4fd0-9167-a1c7deab8132","system_id":"levelo_inurba_marseille","lat":43.29523,"lon":5.37494,"is_reserved":false,"is_disabled":false,"rental_uris":{"android":"levelo://app?vid=f9b919af-eb90-4fd0-9167-a1c7deab8132","ios":"levelo://app?vid=f9b919af-eb90-4fd0-9167-a1c7deab8132"},"vehicle_type_id":"4","last_reported":1741442767,"current_range_meters":16800,"station_id":"ce4bgkp2rcd13ifvqbmg","pricing_plan_id":"cebpf4jnsgd1na2vs0mg"},{"bike_id":"dc404e46-8217-49df-a9f9-0b1fb5b9d87a","system_id":"levelo_inurba_marseille","lat":43.27976,"lon":5.40424,"is_reserved":false,"is_disabled":false,"rental_uris":{"android":"levelo://app?vid=dc404e46-8217-49df-a9f9-0b1fb5b9d87a","ios":"levelo://app?vid=dc404e46-8217-49df-a9f9-0b1fb5b9d87a"},"vehicle_type_id":"4","last_reported":1741442767,"current_range_meters":16800,"station_id":"","pricing_plan_id":"cebpf4jnsgd1na2vs0mg"},{"bike_id":"0ac66333-6a60-44db-814a-99009cb715b0","system_id":"levelo_inurba_marseille","lat":43.2293,"lon":5.35371,"is_reserved":false,"is_disabled":false,"rental_uris":{"android":"levelo://app?vid=0ac66333-6a60-44db-814a-99009cb715b0","ios":"levelo://app?vid=0ac66333-6a60-44db-814a-99009cb715b0"},"vehicle_type_id":"4","last_reported":1741442767,"current_range_meters":16800,"station_id":"cpo3532slgdg3j2ikp40","pricing_plan_id":"cebpf4jnsgd1na2vs0mg"},{"bike_id":"108f2a77-65cb-4086-bdb3-b6e8724b4813","system_id":"levelo_inurba_marseille","lat":43.28421,"lon":5.3499,"is_reserved":false,"is_disabled":false,"rental_uris":{"android":"levelo://app?vid=108f2a77-65cb-4086-bdb3-b6e8724b4813","ios":"levelo://app?vid=108f2a77-65cb-4086-bdb3-b6e8724b4813"},"vehicle_type_id":"4","last_reported":1741442767,"current_range_meters":16800,"station_id":"ce4bhbh2rcd13ifvqepg","pricing_plan_id":"cebpf4jnsgd1na2vs0mg"},{"bike_id":"bc751069-9a98-4b56-ac41-5fdea3efb6ca","system_id":"levelo_inurba_marseille","lat":43.30143,"lon":5.37425,"is_reserved":false,"is_disabled":false,"rental_uris":{"android":"levelo://app?vid=bc751069-9a98-4b56-ac41-5fdea3efb6ca","ios":"levelo://app?vid=bc751069-9a98-4b56-ac41-5fdea3efb6ca"},"vehicle_type_id":"4","last_reported":1741442767,"current_range_meters":17200,"station_id":"ce4bgs92rcd13ifvqcc0","pricing_plan_id":"cebpf4jnsgd1na2vs0mg"},{"bike_id":"11ebf985-b073-454a-baa8-beec3c04cd37","system_id":"levelo_inurba_marseille","lat":43.33024,"lon":5.39039,"is_reserved":false,"is_disabled":false,"rental_uris":{"android":"levelo://app?vid=11ebf985-b073-454a-baa8-beec3c04cd37","ios":"levelo://app?vid=11ebf985-b073-454a-baa8-beec3c04cd37"},"vehicle_type_id":"4","last_reported":1741442767,"current_range_meters":17200,"station_id":"ce4bhr92rcd13ifvqhrg","pricing_plan_id":"cebpf4jnsgd1na2vs0mg"},{"bike_id":"73d87bb1-a714-4600-8912-4e62da142af2","system_id":"levelo_inurba_marseille","lat":43.29874,"lon":5.3892,"is_reserved":false,"is_disabled":false,"rental_uris":{"android":"levelo://app?vid=73d87bb1-a714-4600-8912-4e62da142af2","ios":"levelo://app?vid=73d87bb1-a714-4600-8912-4e62da142af2"},"vehicle_type_id":"4","last_reported":1741442767,"current_range_meters":17200,"station_id":"ce4bh392rcd13ifvqdl0","pricing_plan_id":"cebpf4jnsgd1na2vs0mg"},{"bike_id":"f8877c44-818e-4636-a5d2-597b06013480","system_id":"levelo_inurba_marseille","lat":43.2961,"lon":5.37727,"is_reserved":false,"is_disabled":false,"rental_uris":{"android":"levelo://app?vid=f8877c44-818e-4636-a5d2-597b06013480","ios":"levelo://app?vid=f8877c44-818e-4636-a5d2-597b06013480"},"vehicle_type_id":"4","last_reported":1741442767,"current_range_meters":17200,"station_id":"ce4bgi92rcd13ifvqb90","pricing_plan_id":"cebpf4jnsgd1na2vs0mg"},{"bike_id":"320060f6-4299-4865-a42a-3941ffb5b43c","system_id":"levelo_inurba_marseille","lat":43.28272,"lon":5.35072,"is_reserved":false,"is_disabled":false,"rental_uris":{"android":"levelo://app?vid=320060f6-4299-4865-a42a-3941ffb5b43c","ios":"levelo://app?vid=320060f6-4299-4865-a42a-3941ffb5b43c"},"vehicle_type_id":"4","last_reported":1741442767,"current_range_meters":17200,"station_id":"ce4bhbp2rcd13ifvqerg","pricing_plan_id":"cebpf4jnsgd1na2vs0mg"},{"bike_id":"4c2f31be-d910-44a0-bf80-42c6447a123d","system_id":"levelo_inurba_marseille","lat":43.32062,"lon":5.41517,"is_reserved":false,"is_disabled":false,"rental_uris":{"android":"levelo://app?vid=4c2f31be-d910-44a0-bf80-42c6447a123d","ios":"levelo://app?vid=4c2f31be-d910-44a0-bf80-42c6447a123d"},"vehicle_type_id":"4","last_reported":1741442767,"current_range_meters":17200,"station_id":"ce4bhq92rcd13ifvqhkg","pricing_plan_id":"cebpf4jnsgd1na2vs0mg"},{"bike_id":"6f2f250f-c8aa-4566-948b-c6fd1bd6a447","system_id":"levelo_inurba_marseille","lat":43.29572,"lon":5.37507,"is_reserved":false,"is_disabled":false,"rental_uris":{"android":"levelo://app?vid=6f2f250f-c8aa-4566-948b-c6fd1bd6a447","ios":"levelo://app?vid=6f2f250f-c8aa-4566-948b-c6fd1bd6a447"},"vehicle_type_id":"4","last_reported":1741442767,"current_range_meters":17200,"station_id":"ce4bgh92rcd13ifvqb50","pricing_plan_id":"cebpf4jnsgd1na2vs0mg"},{"bike_id":"99e69bf6-dc57-4127-a1aa-9a36825d1a88","system_id":"levelo_inurba_marseille","lat":43.32353,"lon":5.36746,"is_reserved":false,"is_disabled":false,"rental_uris":{"android":"levelo://app?vid=99e69bf6-dc57-4127-a1aa-9a36825d1a88","ios":"levelo://app?vid=99e69bf6-dc57-4127-a1aa-9a36825d1a88"},"vehicle_type_id":"4","last_reported":1741442767,"current_range_meters":17200,"station_id":"ce4bhsh2rcd13ifvqi2g","pricing_plan_id":"cebpf4jnsgd1na2vs0mg"},{"bike_id":"39b6d831-8abd-4cfe-b351-5d2e59c4ce12","system_id":"levelo_inurba_marseille","lat":43.29625,"lon":5.37172,"is_reserved":false,"is_disabled":false,"rental_uris":{"android":"levelo://app?vid=39b6d831-8abd-4cfe-b351-5d2e59c4ce12","ios":"levelo://app?vid=39b6d831-8abd-4cfe-b351-5d2e59c4ce12"},"vehicle_type_id":"4","last_reported":1741442767,"current_range_meters":17200,"station_id":"ce4bgnh2rcd13ifvqc0g","pricing_plan_id":"cebpf4jnsgd1na2vs0mg"},{"bike_id":"d60e2ba2-9d3a-4067-8d8a-3ebb91302584","system_id":"levelo_inurba_marseille","lat":43.29284,"lon":5.37755,"is_reserved":false,"is_disabled":false,"rental_uris":{"android":"levelo://app?vid=d60e2ba2-9d3a-4067-8d8a-3ebb91302584","ios":"levelo://app?vid=d60e2ba2-9d3a-4067-8d8a-3ebb91302584"},"vehicle_type_id":"4","last_reported":1741442767,"current_range_meters":17600,"station_id":"","pricing_plan_id":"cebpf4jnsgd1na2vs0mg"},{"bike_id":"eaf95cb1-b676-4e8c-b5d6-922a79f56434","system_id":"levelo_inurba_marseille","lat":43.231917,"lon":5.35556,"is_reserved":false,"is_disabled":false,"rental_uris":{"android":"levelo://app?vid=eaf95cb1-b676-4e8c-b5d6-922a79f56434","ios":"levelo://app?vid=eaf95cb1-b676-4e8c-b5d6-922a79f56434"},"vehicle_type_id":"4","last_reported":1741442767,"current_range_meters":17600,"station_id":"ce4bhu92rcd13ifvqi70","pricing_plan_id":"cebpf4jnsgd1na2vs0mg"},{"bike_id":"ee9c9c95-d01e-45b2-a2bc-eee1a9979cdf","system_id":"levelo_inurba_marseille","lat":43.26959,"lon":5.38631,"is_reserved":false,"is_disabled":false,"rental_uris":{"android":"levelo://app?vid=ee9c9c95-d01e-45b2-a2bc-eee1a9979cdf","ios":"levelo://app?vid=ee9c9c95-d01e-45b2-a2bc-eee1a9979cdf"},"vehicle_type_id":"4","last_reported":1741442767,"current_range_meters":17600,"station_id":"ce4bhh92rcd13ifvqfh0","pricing_plan_id":"cebpf4jnsgd1na2vs0mg"},{"bike_id":"e39cce55-f5eb-46e2-8d01-deca9e0dc868","system_id":"levelo_inurba_marseille","lat":43.284161,"lon":5.349816,"is_reserved":false,"is_disabled":false,"rental_uris":{"android":"levelo://app?vid=e39cce55-f5eb-46e2-8d01-deca9e0dc868","ios":"levelo://app?vid=e39cce55-f5eb-46e2-8d01-deca9e0dc868"},"vehicle_type_id":"4","last_reported":1741442767,"current_range_meters":17600,"station_id":"ce4bhbh2rcd13ifvqepg","pricing_plan_id":"cebpf4jnsgd1na2vs0mg"},{"bike_id":"fe68377e-5dc2-4eae-974e-4a2e299dfb79","system_id":"levelo_inurba_marseille","lat":43.29957,"lon":5.36468,"is_reserved":false,"is_disabled":false,"rental_uris":{"android":"levelo://app?vid=fe68377e-5dc2-4eae-974e-4a2e299dfb79","ios":"levelo://app?vid=fe68377e-5dc2-4eae-974e-4a2e299dfb79"},"vehicle_type_id":"4","last_reported":1741442767,"current_range_meters":17600,"station_id":"ce4bgm92rcd13ifvqbr0","pricing_plan_id":"cebpf4jnsgd1na2vs0mg"},{"bike_id":"94f5c26b-8943-4f8b-8abc-1ab8ba1e6153","system_id":"levelo_inurba_marseille","lat":43.29305,"lon":5.37181,"is_reserved":false,"is_disabled":false,"rental_uris":{"android":"levelo://app?vid=94f5c26b-8943-4f8b-8abc-1ab8ba1e6153","ios":"levelo://app?vid=94f5c26b-8943-4f8b-8abc-1ab8ba1e6153"},"vehicle_type_id":"4","last_reported":1741442767,"current_range_meters":17600,"station_id":"ce4bgh92rcd13ifvqb40","pricing_plan_id":"cebpf4jnsgd1na2vs0mg"},{"bike_id":"a71f5391-91f9-4d09-a601-92c62e162a41","system_id":"levelo_inurba_marseille","lat":43.29325,"lon":5.37956,"is_reserved":false,"is_disabled":false,"rental_uris":{"android":"levelo://app?vid=a71f5391-91f9-4d09-a601-92c62e162a41","ios":"levelo://app?vid=a71f5391-91f9-4d09-a601-92c62e162a41"},"vehicle_type_id":"4","last_reported":1741442767,"current_range_meters":17600,"station_id":"","pricing_plan_id":"cebpf4jnsgd1na2vs0mg"},{"bike_id":"cb8aa02a-4326-48a1-ac8a-7507ec1e9fc2","system_id":"levelo_inurba_marseille","lat":43.29306,"lon":5.37469,"is_reserved":false,"is_disabled":false,"rental_uris":{"android":"levelo://app?vid=cb8aa02a-4326-48a1-ac8a-7507ec1e9fc2","ios":"levelo://app?vid=cb8aa02a-4326-48a1-ac8a-7507ec1e9fc2"},"vehicle_type_id":"4","last_reported":1741442767,"current_range_meters":17600,"station_id":"ce4bgi12rcd13ifvqb70","pricing_plan_id":"cebpf4jnsgd1na2vs0mg"},{"bike_id":"6dd13225-174d-4089-a8c6-8e946846aa85","system_id":"levelo_inurba_marseille","lat":43.29311,"lon":5.37193,"is_reserved":false,"is_disabled":false,"rental_uris":{"android":"levelo://app?vid=6dd13225-174d-4089-a8c6-8e946846aa85","ios":"levelo://app?vid=6dd13225-174d-4089-a8c6-8e946846aa85"},"vehicle_type_id":"4","last_reported":1741442767,"current_range_meters":17600,"station_id":"ce4bgh92rcd13ifvqb40","pricing_plan_id":"cebpf4jnsgd1na2vs0mg"},{"bike_id":"db770aa1-b2c8-4d91-980b-b1ead4bc1f13","system_id":"levelo_inurba_marseille","lat":43.27051,"lon":5.40265,"is_reserved":false,"is_disabled":false,"rental_uris":{"android":"levelo://app?vid=db770aa1-b2c8-4d91-980b-b1ead4bc1f13","ios":"levelo://app?vid=db770aa1-b2c8-4d91-980b-b1ead4bc1f13"},"vehicle_type_id":"4","last_reported":1741442767,"current_range_meters":17600,"station_id":"ce4bhk92rcd13ifvqgc0","pricing_plan_id":"cebpf4jnsgd1na2vs0mg"},{"bike_id":"fa21ea63-d614-4617-a8dc-2fe748899151","system_id":"levelo_inurba_marseille","lat":43.2606,"lon":5.394,"is_reserved":false,"is_disabled":false,"rental_uris":{"android":"levelo://app?vid=fa21ea63-d614-4617-a8dc-2fe748899151","ios":"levelo://app?vid=fa21ea63-d614-4617-a8dc-2fe748899151"},"vehicle_type_id":"4","last_reported":1741442767,"current_range_meters":16800,"station_id":"ce4bhh92rcd13ifvqfj0","pricing_plan_id":"cebpf4jnsgd1na2vs0mg"},{"bike_id":"d88ee38d-a3ff-4c57-9112-e48a13e4b0a2","system_id":"levelo_inurba_marseille","lat":43.29381,"lon":5.37843,"is_reserved":false,"is_disabled":false,"rental_uris":{"android":"levelo://app?vid=d88ee38d-a3ff-4c57-9112-e48a13e4b0a2","ios":"levelo://app?vid=d88ee38d-a3ff-4c57-9112-e48a13e4b0a2"},"vehicle_type_id":"4","last_reported":1741442767,"current_range_meters":17200,"station_id":"ce4bgjh2rcd13ifvqbf0","pricing_plan_id":"cebpf4jnsgd1na2vs0mg"},{"bike_id":"c451488b-cd36-48a6-a770-0f059e9fb06d","system_id":"levelo_inurba_marseille","lat":43.28266,"lon":5.35087,"is_reserved":false,"is_disabled":false,"rental_uris":{"android":"levelo://app?vid=c451488b-cd36-48a6-a770-0f059e9fb06d","ios":"levelo://app?vid=c451488b-cd36-48a6-a770-0f059e9fb06d"},"vehicle_type_id":"4","last_reported":1741442767,"current_range_meters":18000,"station_id":"ce4bhbp2rcd13ifvqerg","pricing_plan_id":"cebpf4jnsgd1na2vs0mg"},{"bike_id":"2e7599b4-8074-4f50-b8bf-15214940591e","system_id":"levelo_inurba_marseille","lat":43.3122,"lon":5.36852,"is_reserved":false,"is_disabled":false,"rental_uris":{"android":"levelo://app?vid=2e7599b4-8074-4f50-b8bf-15214940591e","ios":"levelo://app?vid=2e7599b4-8074-4f50-b8bf-15214940591e"},"vehicle_type_id":"4","last_reported":1741442767,"current_range_meters":18000,"station_id":"ce4bgl92rcd13ifvqbq0","pricing_plan_id":"cebpf4jnsgd1na2vs0mg"},{"bike_id":"dc6423e6-f44f-477f-afe2-b33d1dec5c8e","system_id":"levelo_inurba_marseille","lat":43.28427,"lon":5.34991,"is_reserved":false,"is_disabled":false,"rental_uris":{"android":"levelo://app?vid=dc6423e6-f44f-477f-afe2-b33d1dec5c8e","ios":"levelo://app?vid=dc6423e6-f44f-477f-afe2-b33d1dec5c8e"},"vehicle_type_id":"4","last_reported":1741442767,"current_range_meters":18000,"station_id":"ce4bhbh2rcd13ifvqepg","pricing_plan_id":"cebpf4jnsgd1na2vs0mg"},{"bike_id":"41ec5291-d6f0-48c1-a666-e5fd3a5957be","system_id":"levelo_inurba_marseille","lat":43.29934,"lon":5.36553,"is_reserved":false,"is_disabled":false,"rental_uris":{"android":"levelo://app?vid=41ec5291-d6f0-48c1-a666-e5fd3a5957be","ios":"levelo://app?vid=41ec5291-d6f0-48c1-a666-e5fd3a5957be"},"vehicle_type_id":"4","last_reported":1741442767,"current_range_meters":18000,"station_id":"ce4bgm92rcd13ifvqbr0","pricing_plan_id":"cebpf4jnsgd1na2vs0mg"},{"bike_id":"83563c1c-bef7-4eab-bee7-f6756eeed608","system_id":"levelo_inurba_marseille","lat":43.25584,"lon":5.3824,"is_reserved":false,"is_disabled":false,"rental_uris":{"android":"levelo://app?vid=83563c1c-bef7-4eab-bee7-f6756eeed608","ios":"levelo://app?vid=83563c1c-bef7-4eab-bee7-f6756eeed608"},"vehicle_type_id":"4","last_reported":1741442767,"current_range_meters":18000,"station_id":"ce4bhih2rcd13ifvqfs0","pricing_plan_id":"cebpf4jnsgd1na2vs0mg"},{"bike_id":"c684ad01-2798-4756-b6b2-421710061ada","system_id":"levelo_inurba_marseille","lat":43.292662,"lon":5.391226,"is_reserved":false,"is_disabled":false,"rental_uris":{"android":"levelo://app?vid=c684ad01-2798-4756-b6b2-421710061ada","ios":"levelo://app?vid=c684ad01-2798-4756-b6b2-421710061ada"},"vehicle_type_id":"4","last_reported":1741442767,"current_range_meters":18800,"station_id":"ce4bh192rcd13ifvqdd0","pricing_plan_id":"cebpf4jnsgd1na2vs0mg"},{"bike_id":"d35caae8-f4b3-4a1f-b4e5-a43076da933c","system_id":"levelo_inurba_marseille","lat":43.31726,"lon":5.37661,"is_reserved":false,"is_disabled":false,"rental_uris":{"android":"levelo://app?vid=d35caae8-f4b3-4a1f-b4e5-a43076da933c","ios":"levelo://app?vid=d35caae8-f4b3-4a1f-b4e5-a43076da933c"},"vehicle_type_id":"4","last_reported":1741442767,"current_range_meters":18000,"station_id":"","pricing_plan_id":"cebpf4jnsgd1na2vs0mg"},{"bike_id":"746a93f7-48b8-47de-8ffb-c90833f2c4aa","system_id":"levelo_inurba_marseille","lat":43.27947,"lon":5.4105,"is_reserved":false,"is_disabled":false,"rental_uris":{"android":"levelo://app?vid=746a93f7-48b8-47de-8ffb-c90833f2c4aa","ios":"levelo://app?vid=746a93f7-48b8-47de-8ffb-c90833f2c4aa"},"vehicle_type_id":"4","last_reported":1741442767,"current_range_meters":18000,"station_id":"ce4bhnp2rcd13ifvqh0g","pricing_plan_id":"cebpf4jnsgd1na2vs0mg"},{"bike_id":"6332f21c-b735-409b-8f12-ffcec3dc9b39","system_id":"levelo_inurba_marseille","lat":43.23195,"lon":5.39992,"is_reserved":false,"is_disabled":false,"rental_uris":{"android":"levelo://app?vid=6332f21c-b735-409b-8f12-ffcec3dc9b39","ios":"levelo://app?vid=6332f21c-b735-409b-8f12-ffcec3dc9b39"},"vehicle_type_id":"4","last_reported":1741442767,"current_range_meters":18000,"station_id":"ce4bhn12rcd13ifvqgqg","pricing_plan_id":"cebpf4jnsgd1na2vs0mg"},{"bike_id":"f4e5bfa9-3ef2-44b4-adaa-362ec3cebcd0","system_id":"levelo_inurba_marseille","lat":43.33035,"lon":5.39043,"is_reserved":false,"is_disabled":false,"rental_uris":{"android":"levelo://app?vid=f4e5bfa9-3ef2-44b4-adaa-362ec3cebcd0","ios":"levelo://app?vid=f4e5bfa9-3ef2-44b4-adaa-362ec3cebcd0"},"vehicle_type_id":"4","last_reported":1741442767,"current_range_meters":18000,"station_id":"ce4bhr92rcd13ifvqhrg","pricing_plan_id":"cebpf4jnsgd1na2vs0mg"},{"bike_id":"7f963301-df90-4303-b263-933cdfcaf613","system_id":"levelo_inurba_marseille","lat":43.29842,"lon":5.36285,"is_reserved":false,"is_disabled":false,"rental_uris":{"android":"levelo://app?vid=7f963301-df90-4303-b263-933cdfcaf613","ios":"levelo://app?vid=7f963301-df90-4303-b263-933cdfcaf613"},"vehicle_type_id":"4","last_reported":1741442767,"current_range_meters":18000,"station_id":"ce4bgpp2rcd13ifvqc3g","pricing_plan_id":"cebpf4jnsgd1na2vs0mg"},{"bike_id":"58516daf-5c8f-48f7-a55c-f40a545449df","system_id":"levelo_inurba_marseille","lat":43.28119,"lon":5.37848,"is_reserved":false,"is_disabled":false,"rental_uris":{"android":"levelo://app?vid=58516daf-5c8f-48f7-a55c-f40a545449df","ios":"levelo://app?vid=58516daf-5c8f-48f7-a55c-f40a545449df"},"vehicle_type_id":"4","last_reported":1741442767,"current_range_meters":18800,"station_id":"ce4bha12rcd13ifvqee0","pricing_plan_id":"cebpf4jnsgd1na2vs0mg"},{"bike_id":"3795c289-beea-44c3-a7ae-fd3e55b72f22","system_id":"levelo_inurba_marseille","lat":43.28614,"lon":5.35108,"is_reserved":false,"is_disabled":true,"rental_uris":{"android":"levelo://app?vid=3795c289-beea-44c3-a7ae-fd3e55b72f22","ios":"levelo://app?vid=3795c289-beea-44c3-a7ae-fd3e55b72f22"},"vehicle_type_id":"4","last_reported":1741442767,"current_range_meters":18800,"station_id":"ce4bhch2rcd13ifvqeug","pricing_plan_id":"cebpf4jnsgd1na2vs0mg"},{"bike_id":"8579e54f-565e-4025-a73c-88723bee831d","system_id":"levelo_inurba_marseille","lat":43.231893,"lon":5.399984,"is_reserved":false,"is_disabled":false,"rental_uris":{"android":"levelo://app?vid=8579e54f-565e-4025-a73c-88723bee831d","ios":"levelo://app?vid=8579e54f-565e-4025-a73c-88723bee831d"},"vehicle_type_id":"4","last_reported":1741442767,"current_range_meters":18800,"station_id":"ce4bhn12rcd13ifvqgqg","pricing_plan_id":"cebpf4jnsgd1na2vs0mg"},{"bike_id":"81c40c9d-918e-4419-bd7b-ba8cb39f1eea","system_id":"levelo_inurba_marseille","lat":43.29607,"lon":5.37712,"is_reserved":false,"is_disabled":false,"rental_uris":{"android":"levelo://app?vid=81c40c9d-918e-4419-bd7b-ba8cb39f1eea","ios":"levelo://app?vid=81c40c9d-918e-4419-bd7b-ba8cb39f1eea"},"vehicle_type_id":"4","last_reported":1741442767,"current_range_meters":18800,"station_id":"ce4bgi92rcd13ifvqb90","pricing_plan_id":"cebpf4jnsgd1na2vs0mg"},{"bike_id":"ed1679ed-ba76-41b4-9ece-3c813d646aeb","system_id":"levelo_inurba_marseille","lat":43.24068,"lon":5.37761,"is_reserved":false,"is_disabled":false,"rental_uris":{"android":"levelo://app?vid=ed1679ed-ba76-41b4-9ece-3c813d646aeb","ios":"levelo://app?vid=ed1679ed-ba76-41b4-9ece-3c813d646aeb"},"vehicle_type_id":"4","last_reported":1741442767,"current_range_meters":18800,"station_id":"ce4bhnp2rcd13ifvqgvg","pricing_plan_id":"cebpf4jnsgd1na2vs0mg"},{"bike_id":"b8fc7d47-7b46-4fec-90c0-8153d07d1b2a","system_id":"levelo_inurba_marseille","lat":43.298,"lon":5.40415,"is_reserved":false,"is_disabled":false,"rental_uris":{"android":"levelo://app?vid=b8fc7d47-7b46-4fec-90c0-8153d07d1b2a","ios":"levelo://app?vid=b8fc7d47-7b46-4fec-90c0-8153d07d1b2a"},"vehicle_type_id":"4","last_reported":1741442767,"current_range_meters":18800,"station_id":"ce4bh112rcd13ifvqd90","pricing_plan_id":"cebpf4jnsgd1na2vs0mg"},{"bike_id":"fb5efd68-f50a-4b99-b3a3-a2f232b3a25f","system_id":"levelo_inurba_marseille","lat":43.29303,"lon":5.37465,"is_reserved":false,"is_disabled":false,"rental_uris":{"android":"levelo://app?vid=fb5efd68-f50a-4b99-b3a3-a2f232b3a25f","ios":"levelo://app?vid=fb5efd68-f50a-4b99-b3a3-a2f232b3a25f"},"vehicle_type_id":"4","last_reported":1741442767,"current_range_meters":18800,"station_id":"ce4bgi12rcd13ifvqb70","pricing_plan_id":"cebpf4jnsgd1na2vs0mg"},{"bike_id":"604a077b-74ad-4c48-991b-c433f7b8b22a","system_id":"levelo_inurba_marseille","lat":43.27323,"lon":5.39086,"is_reserved":false,"is_disabled":false,"rental_uris":{"android":"levelo://app?vid=604a077b-74ad-4c48-991b-c433f7b8b22a","ios":"levelo://app?vid=604a077b-74ad-4c48-991b-c433f7b8b22a"},"vehicle_type_id":"4","last_reported":1741442767,"current_range_meters":17600,"station_id":"ce4bhgp2rcd13ifvqfe0","pricing_plan_id":"cebpf4jnsgd1na2vs0mg"},{"bike_id":"e8524644-fa44-4fda-ad2d-460f7db6617c","system_id":"levelo_inurba_marseille","lat":43.23066,"lon":5.35484,"is_reserved":false,"is_disabled":false,"rental_uris":{"android":"levelo://app?vid=e8524644-fa44-4fda-ad2d-460f7db6617c","ios":"levelo://app?vid=e8524644-fa44-4fda-ad2d-460f7db6617c"},"vehicle_type_id":"4","last_reported":1741442767,"current_range_meters":18800,"station_id":"cpo3342slgdg3j2ifvpg","pricing_plan_id":"cebpf4jnsgd1na2vs0mg"},{"bike_id":"ccf00363-fa92-4c67-b2ab-3b7032992c6a","system_id":"levelo_inurba_marseille","lat":43.29581,"lon":5.37503,"is_reserved":false,"is_disabled":false,"rental_uris":{"android":"levelo://app?vid=ccf00363-fa92-4c67-b2ab-3b7032992c6a","ios":"levelo://app?vid=ccf00363-fa92-4c67-b2ab-3b7032992c6a"},"vehicle_type_id":"4","last_reported":1741442767,"current_range_meters":18800,"station_id":"ce4bgh92rcd13ifvqb50","pricing_plan_id":"cebpf4jnsgd1na2vs0mg"},{"bike_id":"17a6db54-ef2f-4511-a085-5bcf0dc414a8","system_id":"levelo_inurba_marseille","lat":43.241663,"lon":5.363921,"is_reserved":false,"is_disabled":false,"rental_uris":{"android":"levelo://app?vid=17a6db54-ef2f-4511-a085-5bcf0dc414a8","ios":"levelo://app?vid=17a6db54-ef2f-4511-a085-5bcf0dc414a8"},"vehicle_type_id":"4","last_reported":1741442767,"current_range_meters":18800,"station_id":"cpo36qri1sfpv3e86is0","pricing_plan_id":"cebpf4jnsgd1na2vs0mg"},{"bike_id":"7cc24b38-a7e9-43bc-8532-83f26daa7b6b","system_id":"levelo_inurba_marseille","lat":43.27498,"lon":5.42445,"is_reserved":false,"is_disabled":false,"rental_uris":{"android":"levelo://app?vid=7cc24b38-a7e9-43bc-8532-83f26daa7b6b","ios":"levelo://app?vid=7cc24b38-a7e9-43bc-8532-83f26daa7b6b"},"vehicle_type_id":"4","last_reported":1741442767,"current_range_meters":18000,"station_id":"ce4bhn92rcd13ifvqgrg","pricing_plan_id":"cebpf4jnsgd1na2vs0mg"},{"bike_id":"1f72adc6-3d1a-4fad-a905-cb9dcd596e26","system_id":"levelo_inurba_marseille","lat":43.23831,"lon":5.43571,"is_reserved":false,"is_disabled":false,"rental_uris":{"android":"levelo://app?vid=1f72adc6-3d1a-4fad-a905-cb9dcd596e26","ios":"levelo://app?vid=1f72adc6-3d1a-4fad-a905-cb9dcd596e26"},"vehicle_type_id":"4","last_reported":1741442767,"current_range_meters":18800,"station_id":"","pricing_plan_id":"cebpf4jnsgd1na2vs0mg"},{"bike_id":"8f5404f4-0443-43aa-ac02-61103bd0703c","system_id":"levelo_inurba_marseille","lat":43.29627,"lon":5.37174,"is_reserved":false,"is_disabled":false,"rental_uris":{"android":"levelo://app?vid=8f5404f4-0443-43aa-ac02-61103bd0703c","ios":"levelo://app?vid=8f5404f4-0443-43aa-ac02-61103bd0703c"},"vehicle_type_id":"4","last_reported":1741442767,"current_range_meters":19200,"station_id":"ce4bgnh2rcd13ifvqc0g","pricing_plan_id":"cebpf4jnsgd1na2vs0mg"},{"bike_id":"59170c8b-cf45-45fd-b866-bc5f81d256b2","system_id":"levelo_inurba_marseille","lat":43.265,"lon":5.39555,"is_reserved":false,"is_disabled":false,"rental_uris":{"android":"levelo://app?vid=59170c8b-cf45-45fd-b866-bc5f81d256b2","ios":"levelo://app?vid=59170c8b-cf45-45fd-b866-bc5f81d256b2"},"vehicle_type_id":"4","last_reported":1741442767,"current_range_meters":19200,"station_id":"ce4bhi12rcd13ifvqfq0","pricing_plan_id":"cebpf4jnsgd1na2vs0mg"},{"bike_id":"7f08542c-3622-4bee-8852-d0974c0ec085","system_id":"levelo_inurba_marseille","lat":43.24168,"lon":5.36395,"is_reserved":false,"is_disabled":false,"rental_uris":{"android":"levelo://app?vid=7f08542c-3622-4bee-8852-d0974c0ec085","ios":"levelo://app?vid=7f08542c-3622-4bee-8852-d0974c0ec085"},