{"last_updated":1745618936,"ttl":60,"version":"2.2","data":{"bikes":[{"bike_id":"5a8c102f-9140-4e60-812e-e78ff46489d9","system_id":"levelo_inurba_marseille","lat":43.29517,"lon":5.39381,"is_reserved":false,"is_disabled":true,"rental_uris":{"android":"levelo://app?vid=5a8c102f-9140-4e60-812e-e78ff46489d9","ios":"levelo://app?vid=5a8c102f-9140-4e60-812e-e78ff46489d9"},"vehicle_type_id":"4","last_reported":1745618936,"current_range_meters":2800,"station_id":"ce4bh292rcd13ifvqdf0","pricing_plan_id":"cebpf4jnsgd1na2vs0mg"},{"bike_id":"17212859-5048-489d-8287-c4d9619e0597","system_id":"levelo_inurba_marseille","lat":43.21173,"lon":5.35105,"is_reserved":false,"is_disabled":false,"rental_uris":{"android":"levelo://app?vid=17212859-5048-489d-8287-c4d9619e0597","ios":"levelo://app?vid=17212859-5048-489d-8287-c4d9619e0597"},"vehicle_type_id":"4","last_reported":1745618936,"current_range_meters":2800,"station_id":"st_cvj6sg6p6f1abm77japg","pricing_plan_id":"cebpf4jnsgd1na2vs0mg"},{"bike_id":"47c415eb-9c02-4094-bc4c-e5bc6add6cc6","system_id":"levelo_inurba_marseille","lat":43.21197,"lon":5.35073,"is_reserved":false,"is_disabled":false,"rental_uris":{"android":"levelo://app?vid=47c415eb-9c02-4094-bc4c-e5bc6add6cc6","ios":"levelo://app?vid=47c415eb-9c02-4094-bc4c-e5bc6add6cc6"},"vehicle_type_id":"4","last_reported":1745618936,"current_range_meters":2800,"station_id":"st_cvj6sg6p6f1abm77japg","pricing_plan_id":"cebpf4jnsgd1na2vs0mg"},{"bike_id":"864841d4-d573-470a-87c7-00ad207d699d","system_id":"levelo_inurba_marseille","lat":43.2689,"lon":5.36846,"is_reserved":false,"is_disabled":false,"rental_uris":{"android":"levelo://app?vid=864841d4-d573-470a-87c7-00ad207d699d","ios":"levelo://app?vid=864841d4-d573-470a-87c7-00ad207d699d"},"vehicle_type_id":"4","last_reported":1745618936,"current_range_meters":2800,"station_id":"","pricing_plan_id":"cebpf4jnsgd1na2vs0mg"},{"bike_id":"9040f654-b3ef-4935-8a4c-34103b1c5d43","system_id":"levelo_inurba_marseille","lat":43.24177,"lon":5.39737,"is_reserved":false,"is_disabled":false,"rental_uris":{"android":"levelo://app?vid=9040f654-b3ef-4935-8a4c-34103b1c5d43","ios":"levelo://app?vid=9040f654-b3ef-4935-8a4c-34103b1c5d43"},"vehicle_type_id":"4","last_reported":1745618936,"current_range_meters":3200,"station_id":"ce4bhn12rcd13ifvqgpg","pricing_plan_id":"cebpf4jnsgd1na2vs0mg"},{"bike_id":"7bc9e0f0-1858-48cc-bec0-f8a244c96ec7","system_id":"levelo_inurba_marseille","lat":43.27539,"lon":5.42457,"is_reserved":false,"is_disabled":true,"rental_uris":{"android":"levelo://app?vid=7bc9e0f0-1858-48cc-bec0-f8a244c96ec7","ios":"levelo://app?vid=7bc9e0f0-1858-48cc-bec0-f8a244c96ec7"},"vehicle_type_id":"4","last_reported":1745618936,"current_range_meters":3200,"station_id":"ce4bhn92rcd13ifvqgrg","pricing_plan_id":"cebpf4jnsgd1na2vs0mg"},{"bike_id":"0665421a-052d-4840-9df9-d527b568d595","system_id":"levelo_inurba_marseille","lat":43.32412,"lon":5.39086,"is_reserved":false,"is_disabled":false,"rental_uris":{"android":"levelo://app?vid=0665421a-052d-4840-9df9-d527b568d595","ios":"levelo://app?vid=0665421a-052d-4840-9df9-d527b568d595"},"vehicle_type_id":"4","last_reported":1745618936,"current_range_meters":3200,"station_id":"","pricing_plan_id":"cebpf4jnsgd1na2vs0mg"},{"bike_id":"babcb567-3369-44e9-8bcc-8b8fb1ea52de","system_id":"levelo_inurba_marseille","lat":43.28719,"lon":5.37937,"is_reserved":false,"is_disabled":false,"rental_uris":{"android":"levelo://app?vid=babcb567-3369-44e9-8bcc-8b8fb1ea52de","ios":"levelo://app?vid=babcb567-3369-44e9-8bcc-8b8fb1ea52de"},"vehicle_type_id":"4","last_reported":1745618936,"current_range_meters":3200,"station_id":"ce4bh9p2rcd13ifvqec0","pricing_plan_id":"cebpf4jnsgd1na2vs0mg"},{"bike_id":"938f4e24-7534-4891-9e76-0d2cb82b24aa","system_id":"levelo_inurba_marseille","lat":43.24801,"lon":5.37462,"is_reserved":false,"is_disabled":true,"rental_uris":{"android":"levelo://app?vid=938f4e24-7534-4891-9e76-0d2cb82b24aa","ios":"levelo://app?vid=938f4e24-7534-4891-9e76-0d2cb82b24aa"},"vehicle_type_id":"4","last_reported":1745618936,"current_range_meters":3200,"station_id":"ce4bhgh2rcd13ifvqfb0","pricing_plan_id":"cebpf4jnsgd1na2vs0mg"},{"bike_id":"42314b33-936b-45fa-8c07-d1156d9d0fa7","system_id":"levelo_inurba_marseille","lat":43.30887,"lon":5.37194,"is_reserved":false,"is_disabled":false,"rental_uris":{"android":"levelo://app?vid=42314b33-936b-45fa-8c07-d1156d9d0fa7","ios":"levelo://app?vid=42314b33-936b-45fa-8c07-d1156d9d0fa7"},"vehicle_type_id":"4","last_reported":1745618936,"current_range_meters":3600,"station_id":"ce4bguh2rcd13ifvqckg","pricing_plan_id":"cebpf4jnsgd1na2vs0mg"},{"bike_id":"1eb3faf5-7fc7-4b89-a0dd-44765b5f2bd2","system_id":"levelo_inurba_marseille","lat":43.23057,"lon":5.35495,"is_reserved":false,"is_disabled":false,"rental_uris":{"android":"levelo://app?vid=1eb3faf5-7fc7-4b89-a0dd-44765b5f2bd2","ios":"levelo://app?vid=1eb3faf5-7fc7-4b89-a0dd-44765b5f2bd2"},"vehicle_type_id":"4","last_reported":1745618936,"current_range_meters":3600,"station_id":"cpo3342slgdg3j2ifvpg","pricing_plan_id":"cebpf4jnsgd1na2vs0mg"},{"bike_id":"be834179-0552-424d-88da-8607475e3491","system_id":"levelo_inurba_marseille","lat":43.30199,"lon":5.38985,"is_reserved":false,"is_disabled":false,"rental_uris":{"android":"levelo://app?vid=be834179-0552-424d-88da-8607475e3491","ios":"levelo://app?vid=be834179-0552-424d-88da-8607475e3491"},"vehicle_type_id":"4","last_reported":1745618936,"current_range_meters":3600,"station_id":"","pricing_plan_id":"cebpf4jnsgd1na2vs0mg"},{"bike_id":"9791e78e-3525-4a2f-8370-53481f4b35fe","system_id":"levelo_inurba_marseille","lat":43.28154,"lon":5.4264,"is_reserved":false,"is_disabled":false,"rental_uris":{"android":"levelo://app?vid=9791e78e-3525-4a2f-8370-53481f4b35fe","ios":"levelo://app?vid=9791e78e-3525-4a2f-8370-53481f4b35fe"},"vehicle_type_id":"4","last_reported":1745618936,"current_range_meters":3600,"station_id":"ce4bhnh2rcd13ifvqgug","pricing_plan_id":"cebpf4jnsgd1na2vs0mg"},{"bike_id":"e7ae83ea-661c-44c4-ae1f-717e48406fad","system_id":"levelo_inurba_marseille","lat":43.30585,"lon":5.39351,"is_reserved":false,"is_disabled":false,"rental_uris":{"android":"levelo://app?vid=e7ae83ea-661c-44c4-ae1f-717e48406fad","ios":"levelo://app?vid=e7ae83ea-661c-44c4-ae1f-717e48406fad"},"vehicle_type_id":"4","last_reported":1745618936,"current_range_meters":3600,"station_id":"ce4bh0p2rcd13ifvqd80","pricing_plan_id":"cebpf4jnsgd1na2vs0mg"},{"bike_id":"d6a841b7-459a-4f71-8b06-bbd08ed00a72","system_id":"levelo_inurba_marseille","lat":43.28362,"lon":5.38102,"is_reserved":false,"is_disabled":false,"rental_uris":{"android":"levelo://app?vid=d6a841b7-459a-4f71-8b06-bbd08ed00a72","ios":"levelo://app?vid=d6a841b7-459a-4f71-8b06-bbd08ed00a72"},"vehicle_type_id":"4","last_reported":1745618936,"current_range_meters":3600,"station_id":"ce4bh412rcd13ifvqdr0","pricing_plan_id":"cebpf4jnsgd1na2vs0mg"},{"bike_id":"0ef090c8-b30d-42aa-a986-f1a5509bf3d5","system_id":"levelo_inurba_marseille","lat":43.26024,"lon":5.37571,"is_reserved":false,"is_disabled":false,"rental_uris":{"android":"levelo://app?vid=0ef090c8-b30d-42aa-a986-f1a5509bf3d5","ios":"levelo://app?vid=0ef090c8-b30d-42aa-a986-f1a5509bf3d5"},"vehicle_type_id":"4","last_reported":1745618936,"current_range_meters":4000,"station_id":"ce4bhgh2rcd13ifvqfa0","pricing_plan_id":"cebpf4jnsgd1na2vs0mg"},{"bike_id":"25ef7844-cff5-4942-9256-ee9ef0a1cb5f","system_id":"levelo_inurba_marseille","lat":43.289853,"lon":5.378428,"is_reserved":false,"is_disabled":false,"rental_uris":{"android":"levelo://app?vid=25ef7844-cff5-4942-9256-ee9ef0a1cb5f","ios":"levelo://app?vid=25ef7844-cff5-4942-9256-ee9ef0a1cb5f"},"vehicle_type_id":"4","last_reported":1745618936,"current_range_meters":4400,"station_id":"","pricing_plan_id":"cebpf4jnsgd1na2vs0mg"},{"bike_id":"d9dfdbb7-3b56-4404-977a-51c336ac30b5","system_id":"levelo_inurba_marseille","lat":43.21208,"lon":5.35063,"is_reserved":false,"is_disabled":false,"rental_uris":{"android":"levelo://app?vid=d9dfdbb7-3b56-4404-977a-51c336ac30b5","ios":"levelo://app?vid=d9dfdbb7-3b56-4404-977a-51c336ac30b5"},"vehicle_type_id":"4","last_reported":1745618936,"current_range_meters":4400,"station_id":"st_cvj6sg6p6f1abm77japg","pricing_plan_id":"cebpf4jnsgd1na2vs0mg"},{"bike_id":"e628b922-7b18-4186-ae69-954f6ab18f5a","system_id":"levelo_inurba_marseille","lat":43.29279,"lon":5.40111,"is_reserved":false,"is_disabled":false,"rental_uris":{"android":"levelo://app?vid=e628b922-7b18-4186-ae69-954f6ab18f5a","ios":"levelo://app?vid=e628b922-7b18-4186-ae69-954f6ab18f5a"},"vehicle_type_id":"4","last_reported":1745618936,"current_range_meters":4400,"station_id":"ce4bh312rcd13ifvqdk0","pricing_plan_id":"cebpf4jnsgd1na2vs0mg"},{"bike_id":"46d0864e-4fc7-4e1d-9edf-8e706207284e","system_id":"levelo_inurba_marseille","lat":43.27169,"lon":5.40995,"is_reserved":false,"is_disabled":false,"rental_uris":{"android":"levelo://app?vid=46d0864e-4fc7-4e1d-9edf-8e706207284e","ios":"levelo://app?vid=46d0864e-4fc7-4e1d-9edf-8e706207284e"},"vehicle_type_id":"4","last_reported":1745618936,"current_range_meters":4800,"station_id":"ce4bhl12rcd13ifvqgf0","pricing_plan_id":"cebpf4jnsgd1na2vs0mg"},{"bike_id":"4853db53-4430-4018-acf1-a77ed10fdd73","system_id":"levelo_inurba_marseille","lat":43.297028,"lon":5.365835,"is_reserved":false,"is_disabled":false,"rental_uris":{"android":"levelo://app?vid=4853db53-4430-4018-acf1-a77ed10fdd73","ios":"levelo://app?vid=4853db53-4430-4018-acf1-a77ed10fdd73"},"vehicle_type_id":"4","last_reported":1745618936,"current_range_meters":4800,"station_id":"ce4bgn12rcd13ifvqbt0","pricing_plan_id":"cebpf4jnsgd1na2vs0mg"},{"bike_id":"d00f919a-8c4b-4629-b60b-18e97fef7b97","system_id":"levelo_inurba_marseille","lat":43.29892,"lon":5.389,"is_reserved":false,"is_disabled":false,"rental_uris":{"android":"levelo://app?vid=d00f919a-8c4b-4629-b60b-18e97fef7b97","ios":"levelo://app?vid=d00f919a-8c4b-4629-b60b-18e97fef7b97"},"vehicle_type_id":"4","last_reported":1745618936,"current_range_meters":4800,"station_id":"ce4bh392rcd13ifvqdl0","pricing_plan_id":"cebpf4jnsgd1na2vs0mg"},{"bike_id":"f425d9cb-80e9-4b0a-9761-f26fba5018c2","system_id":"levelo_inurba_marseille","lat":43.287215,"lon":5.399967,"is_reserved":false,"is_disabled":true,"rental_uris":{"android":"levelo://app?vid=f425d9cb-80e9-4b0a-9761-f26fba5018c2","ios":"levelo://app?vid=f425d9cb-80e9-4b0a-9761-f26fba5018c2"},"vehicle_type_id":"4","last_reported":1745618936,"current_range_meters":4800,"station_id":"ce4bho92rcd13ifvqh3g","pricing_plan_id":"cebpf4jnsgd1na2vs0mg"},{"bike_id":"46374c49-3adc-4c5a-8966-e00f056c0d57","system_id":"levelo_inurba_marseille","lat":43.27846,"lon":5.35442,"is_reserved":false,"is_disabled":false,"rental_uris":{"android":"levelo://app?vid=46374c49-3adc-4c5a-8966-e00f056c0d57","ios":"levelo://app?vid=46374c49-3adc-4c5a-8966-e00f056c0d57"},"vehicle_type_id":"4","last_reported":1745618936,"current_range_meters":5600,"station_id":"","pricing_plan_id":"cebpf4jnsgd1na2vs0mg"},{"bike_id":"bcaf0c0d-93e5-4c0d-90f1-cc733b8fb72a","system_id":"levelo_inurba_marseille","lat":43.2846,"lon":5.35882,"is_reserved":false,"is_disabled":false,"rental_uris":{"android":"levelo://app?vid=bcaf0c0d-93e5-4c0d-90f1-cc733b8fb72a","ios":"levelo://app?vid=bcaf0c0d-93e5-4c0d-90f1-cc733b8fb72a"},"vehicle_type_id":"4","last_reported":1745618936,"current_range_meters":5600,"station_id":"ce4bhah2rcd13ifvqei0","pricing_plan_id":"cebpf4jnsgd1na2vs0mg"},{"bike_id":"e725be89-03eb-4efa-abd9-401ea99c5e6d","system_id":"levelo_inurba_marseille","lat":43.30892,"lon":5.37842,"is_reserved":false,"is_disabled":false,"rental_uris":{"android":"levelo://app?vid=e725be89-03eb-4efa-abd9-401ea99c5e6d","ios":"levelo://app?vid=e725be89-03eb-4efa-abd9-401ea99c5e6d"},"vehicle_type_id":"4","last_reported":1745618936,"current_range_meters":5600,"station_id":"","pricing_plan_id":"cebpf4jnsgd1na2vs0mg"},{"bike_id":"b1e58395-4c56-4fa0-95a0-d1a8c914f91f","system_id":"levelo_inurba_marseille","lat":43.30746,"lon":5.42435,"is_reserved":false,"is_disabled":false,"rental_uris":{"android":"levelo://app?vid=b1e58395-4c56-4fa0-95a0-d1a8c914f91f","ios":"levelo://app?vid=b1e58395-4c56-4fa0-95a0-d1a8c914f91f"},"vehicle_type_id":"4","last_reported":1745618936,"current_range_meters":5600,"station_id":"st_cvj6ca6bvosntc0bfgr0","pricing_plan_id":"cebpf4jnsgd1na2vs0mg"},{"bike_id":"ad865fa4-cd10-4957-890a-9dc5a2e4c519","system_id":"levelo_inurba_marseille","lat":43.29847,"lon":5.38531,"is_reserved":false,"is_disabled":false,"rental_uris":{"android":"levelo://app?vid=ad865fa4-cd10-4957-890a-9dc5a2e4c519","ios":"levelo://app?vid=ad865fa4-cd10-4957-890a-9dc5a2e4c519"},"vehicle_type_id":"4","last_reported":1745618936,"current_range_meters":6000,"station_id":"","pricing_plan_id":"cebpf4jnsgd1na2vs0mg"},{"bike_id":"ca32b24b-6bf4-4347-9710-993ad91c0f96","system_id":"levelo_inurba_marseille","lat":43.324824,"lon":5.366947,"is_reserved":false,"is_disabled":false,"rental_uris":{"android":"levelo://app?vid=ca32b24b-6bf4-4347-9710-993ad91c0f96","ios":"levelo://app?vid=ca32b24b-6bf4-4347-9710-993ad91c0f96"},"vehicle_type_id":"4","last_reported":1745618936,"current_range_meters":6000,"station_id":"ce4bhs12rcd13ifvqhvg","pricing_plan_id":"cebpf4jnsgd1na2vs0mg"},{"bike_id":"af9f4d61-e477-4a90-b51d-7c801b7d74e8","system_id":"levelo_inurba_marseille","lat":43.288696,"lon":5.358375,"is_reserved":false,"is_disabled":false,"rental_uris":{"android":"levelo://app?vid=af9f4d61-e477-4a90-b51d-7c801b7d74e8","ios":"levelo://app?vid=af9f4d61-e477-4a90-b51d-7c801b7d74e8"},"vehicle_type_id":"4","last_reported":1745618936,"current_range_meters":6000,"station_id":"ce4bh292rcd13ifvqdg0","pricing_plan_id":"cebpf4jnsgd1na2vs0mg"},{"bike_id":"9cb15e7d-f6fc-48ae-8818-30b27b7a4a2b","system_id":"levelo_inurba_marseille","lat":43.30788,"lon":5.38163,"is_reserved":false,"is_disabled":false,"rental_uris":{"android":"levelo://app?vid=9cb15e7d-f6fc-48ae-8818-30b27b7a4a2b","ios":"levelo://app?vid=9cb15e7d-f6fc-48ae-8818-30b27b7a4a2b"},"vehicle_type_id":"4","last_reported":1745618936,"current_range_meters":4000,"station_id":"ce4bgt12rcd13ifvqce0","pricing_plan_id":"cebpf4jnsgd1na2vs0mg"},{"bike_id":"f8b2e0c9-3231-4912-8eef-1731e41592ec","system_id":"levelo_inurba_marseille","lat":43.301392,"lon":5.387804,"is_reserved":false,"is_disabled":false,"rental_uris":{"android":"levelo://app?vid=f8b2e0c9-3231-4912-8eef-1731e41592ec","ios":"levelo://app?vid=f8b2e0c9-3231-4912-8eef-1731e41592ec"},"vehicle_type_id":"4","last_reported":1745618936,"current_range_meters":6000,"station_id":"ce4bghh2rcd13ifvqb60","pricing_plan_id":"cebpf4jnsgd1na2vs0mg"},{"bike_id":"306a58c0-053c-4a47-8c40-1c362463c26f","system_id":"levelo_inurba_marseille","lat":43.310046,"lon":5.37137,"is_reserved":false,"is_disabled":false,"rental_uris":{"android":"levelo://app?vid=306a58c0-053c-4a47-8c40-1c362463c26f","ios":"levelo://app?vid=306a58c0-053c-4a47-8c40-1c362463c26f"},"vehicle_type_id":"4","last_reported":1745618936,"current_range_meters":6000,"station_id":"","pricing_plan_id":"cebpf4jnsgd1na2vs0mg"},{"bike_id":"52cb41a7-5096-4f42-a09a-abce4785d5e2","system_id":"levelo_inurba_marseille","lat":43.27071,"lon":5.42282,"is_reserved":false,"is_disabled":true,"rental_uris":{"android":"levelo://app?vid=52cb41a7-5096-4f42-a09a-abce4785d5e2","ios":"levelo://app?vid=52cb41a7-5096-4f42-a09a-abce4785d5e2"},"vehicle_type_id":"4","last_reported":1745618936,"current_range_meters":6000,"station_id":"ce4bhk92rcd13ifvqgb0","pricing_plan_id":"cebpf4jnsgd1na2vs0mg"},{"bike_id":"ecdd0875-7d56-4cd2-a14a-671f78e26c97","system_id":"levelo_inurba_marseille","lat":43.23059,"lon":5.35485,"is_reserved":false,"is_disabled":false,"rental_uris":{"android":"levelo://app?vid=ecdd0875-7d56-4cd2-a14a-671f78e26c97","ios":"levelo://app?vid=ecdd0875-7d56-4cd2-a14a-671f78e26c97"},"vehicle_type_id":"4","last_reported":1745618936,"current_range_meters":6400,"station_id":"cpo3342slgdg3j2ifvpg","pricing_plan_id":"cebpf4jnsgd1na2vs0mg"},{"bike_id":"4bf0cade-afa0-4731-b40e-ef3f8f4a4fe5","system_id":"levelo_inurba_marseille","lat":43.30095,"lon":5.39081,"is_reserved":false,"is_disabled":true,"rental_uris":{"android":"levelo://app?vid=4bf0cade-afa0-4731-b40e-ef3f8f4a4fe5","ios":"levelo://app?vid=4bf0cade-afa0-4731-b40e-ef3f8f4a4fe5"},"vehicle_type_id":"4","last_reported":1745618936,"current_range_meters":6800,"station_id":"ce4bh192rcd13ifvqdb0","pricing_plan_id":"cebpf4jnsgd1na2vs0mg"},{"bike_id":"04b1d58f-74c8-4276-933a-832b009fbaa4","system_id":"levelo_inurba_marseille","lat":43.30356,"lon":5.4188,"is_reserved":false,"is_disabled":false,"rental_uris":{"android":"levelo://app?vid=04b1d58f-74c8-4276-933a-832b009fbaa4","ios":"levelo://app?vid=04b1d58f-74c8-4276-933a-832b009fbaa4"},"vehicle_type_id":"4","last_reported":1745618936,"current_range_meters":6400,"station_id":"ce4bhop2rcd13ifvqh7g","pricing_plan_id":"cebpf4jnsgd1na2vs0mg"},{"bike_id":"a449cc86-0dd4-4f62-9635-7cf0aec298dd","system_id":"levelo_inurba_marseille","lat":43.33626,"lon":5.4101,"is_reserved":false,"is_disabled":false,"rental_uris":{"android":"levelo://app?vid=a449cc86-0dd4-4f62-9635-7cf0aec298dd","ios":"levelo://app?vid=a449cc86-0dd4-4f62-9635-7cf0aec298dd"},"vehicle_type_id":"4","last_reported":1745618936,"current_range_meters":6800,"station_id":"ce4bhqh2rcd13ifvqhmg","pricing_plan_id":"cebpf4jnsgd1na2vs0mg"},{"bike_id":"3767ba54-0ee2-464a-8805-d28bad95405b","system_id":"levelo_inurba_marseille","lat":43.25939,"lon":5.37521,"is_reserved":false,"is_disabled":false,"rental_uris":{"android":"levelo://app?vid=3767ba54-0ee2-464a-8805-d28bad95405b","ios":"levelo://app?vid=3767ba54-0ee2-464a-8805-d28bad95405b"},"vehicle_type_id":"4","last_reported":1745618936,"current_range_meters":6800,"station_id":"","pricing_plan_id":"cebpf4jnsgd1na2vs0mg"},{"bike_id":"5ea908a1-0d79-4bde-8554-5d96795757bc","system_id":"levelo_inurba_marseille","lat":43.290244,"lon":5.381302,"is_reserved":false,"is_disabled":false,"rental_uris":{"android":"levelo://app?vid=5ea908a1-0d79-4bde-8554-5d96795757bc","ios":"levelo://app?vid=5ea908a1-0d79-4bde-8554-5d96795757bc"},"vehicle_type_id":"4","last_reported":1745618936,"current_range_meters":6800,"station_id":"ce4bh4p2rcd13ifvqe1g","pricing_plan_id":"cebpf4jnsgd1na2vs0mg"},{"bike_id":"d45b2d09-9ba0-40ab-8423-dddb5e2996e9","system_id":"levelo_inurba_marseille","lat":43.30136,"lon":5.39866,"is_reserved":false,"is_disabled":false,"rental_uris":{"android":"levelo://app?vid=d45b2d09-9ba0-40ab-8423-dddb5e2996e9","ios":"levelo://app?vid=d45b2d09-9ba0-40ab-8423-dddb5e2996e9"},"vehicle_type_id":"4","last_reported":1745618936,"current_range_meters":6800,"station_id":"ce4bh0h2rcd13ifvqd40","pricing_plan_id":"cebpf4jnsgd1na2vs0mg"},{"bike_id":"c1ccd199-3bfe-4293-a4cb-6829c97c125f","system_id":"levelo_inurba_marseille","lat":43.32415,"lon":5.39097,"is_reserved":false,"is_disabled":false,"rental_uris":{"android":"levelo://app?vid=c1ccd199-3bfe-4293-a4cb-6829c97c125f","ios":"levelo://app?vid=c1ccd199-3bfe-4293-a4cb-6829c97c125f"},"vehicle_type_id":"4","last_reported":1745618936,"current_range_meters":7200,"station_id":"","pricing_plan_id":"cebpf4jnsgd1na2vs0mg"},{"bike_id":"ab49b0ae-90ee-4214-bbd8-e0867a6763e8","system_id":"levelo_inurba_marseille","lat":43.31255,"lon":5.37167,"is_reserved":false,"is_disabled":true,"rental_uris":{"android":"levelo://app?vid=ab49b0ae-90ee-4214-bbd8-e0867a6763e8","ios":"levelo://app?vid=ab49b0ae-90ee-4214-bbd8-e0867a6763e8"},"vehicle_type_id":"4","last_reported":1745618936,"current_range_meters":7200,"station_id":"","pricing_plan_id":"cebpf4jnsgd1na2vs0mg"},{"bike_id":"f1a9f5db-d774-4f36-a0be-69b289d14fd1","system_id":"levelo_inurba_marseille","lat":43.21194,"lon":5.35067,"is_reserved":false,"is_disabled":false,"rental_uris":{"android":"levelo://app?vid=f1a9f5db-d774-4f36-a0be-69b289d14fd1","ios":"levelo://app?vid=f1a9f5db-d774-4f36-a0be-69b289d14fd1"},"vehicle_type_id":"4","last_reported":1745618936,"current_range_meters":7200,"station_id":"st_cvj6sg6p6f1abm77japg","pricing_plan_id":"cebpf4jnsgd1na2vs0mg"},{"bike_id":"907e6bce-7027-4793-85ec-42606657c345","system_id":"levelo_inurba_marseille","lat":43.27209,"lon":5.39183,"is_reserved":false,"is_disabled":false,"rental_uris":{"android":"levelo://app?vid=907e6bce-7027-4793-85ec-42606657c345","ios":"levelo://app?vid=907e6bce-7027-4793-85ec-42606657c345"},"vehicle_type_id":"4","last_reported":1745618936,"current_range_meters":7200,"station_id":"ce4bhhp2rcd13ifvqfm0","pricing_plan_id":"cebpf4jnsgd1na2vs0mg"},{"bike_id":"3627fa61-f978-47f4-ac90-76babb0ff133","system_id":"levelo_inurba_marseille","lat":43.286654,"lon":5.363441,"is_reserved":false,"is_disabled":false,"rental_uris":{"android":"levelo://app?vid=3627fa61-f978-47f4-ac90-76babb0ff133","ios":"levelo://app?vid=3627fa61-f978-47f4-ac90-76babb0ff133"},"vehicle_type_id":"4","last_reported":1745618936,"current_range_meters":6800,"station_id":"ce4bhah2rcd13ifvqej0","pricing_plan_id":"cebpf4jnsgd1na2vs0mg"},{"bike_id":"aac361da-6c58-45db-a140-2947e8dbce74","system_id":"levelo_inurba_marseille","lat":43.3031,"lon":5.4045,"is_reserved":false,"is_disabled":false,"rental_uris":{"android":"levelo://app?vid=aac361da-6c58-45db-a140-2947e8dbce74","ios":"levelo://app?vid=aac361da-6c58-45db-a140-2947e8dbce74"},"vehicle_type_id":"4","last_reported":1745618936,"current_range_meters":7200,"station_id":"ce4bh012rcd13ifvqd10","pricing_plan_id":"cebpf4jnsgd1na2vs0mg"},{"bike_id":"185ea38f-9f5e-4f80-9a28-ea11ae3260c6","system_id":"levelo_inurba_marseille","lat":43.30706,"lon":5.40051,"is_reserved":false,"is_disabled":false,"rental_uris":{"android":"levelo://app?vid=185ea38f-9f5e-4f80-9a28-ea11ae3260c6","ios":"levelo://app?vid=185ea38f-9f5e-4f80-9a28-ea11ae3260c6"},"vehicle_type_id":"4","last_reported":1745618936,"current_range_meters":8000,"station_id":"","pricing_plan_id":"cebpf4jnsgd1na2vs0mg"},{"bike_id":"478c9352-5a39-4acd-b180-3b57eda27868","system_id":"levelo_inurba_marseille","lat":43.31363,"lon":5.38527,"is_reserved":false,"is_disabled":false,"rental_uris":{"android":"levelo://app?vid=478c9352-5a39-4acd-b180-3b57eda27868","ios":"levelo://app?vid=478c9352-5a39-4acd-b180-3b57eda27868"},"vehicle_type_id":"4","last_reported":1745618936,"current_range_meters":8000,"station_id":"ce4bgt92rcd13ifvqcf0","pricing_plan_id":"cebpf4jnsgd1na2vs0mg"},{"bike_id":"92d50eb0-ca83-4825-9882-14249081fc12","system_id":"levelo_inurba_marseille","lat":43.28708,"lon":5.37935,"is_reserved":false,"is_disabled":false,"rental_uris":{"android":"levelo://app?vid=92d50eb0-ca83-4825-9882-14249081fc12","ios":"levelo://app?vid=92d50eb0-ca83-4825-9882-14249081fc12"},"vehicle_type_id":"4","last_reported":1745618936,"current_range_meters":8000,"station_id":"ce4bh9p2rcd13ifvqec0","pricing_plan_id":"cebpf4jnsgd1na2vs0mg"},{"bike_id":"1746265e-27ad-4913-8a06-b6dc5372d844","system_id":"levelo_inurba_marseille","lat":43.26045,"lon":5.37392,"is_reserved":false,"is_disabled":false,"rental_uris":{"android":"levelo://app?vid=1746265e-27ad-4913-8a06-b6dc5372d844","ios":"levelo://app?vid=1746265e-27ad-4913-8a06-b6dc5372d844"},"vehicle_type_id":"4","last_reported":1745618936,"current_range_meters":8400,"station_id":"","pricing_plan_id":"cebpf4jnsgd1na2vs0mg"},{"bike_id":"fa1ca0a8-9bc2-42d1-84e7-4804983771f1","system_id":"levelo_inurba_marseille","lat":43.3043,"lon":5.3888,"is_reserved":false,"is_disabled":false,"rental_uris":{"android":"levelo://app?vid=fa1ca0a8-9bc2-42d1-84e7-4804983771f1","ios":"levelo://app?vid=fa1ca0a8-9bc2-42d1-84e7-4804983771f1"},"vehicle_type_id":"4","last_reported":1745618936,"current_range_meters":8400,"station_id":"ce4bgk12rcd13ifvqbi0","pricing_plan_id":"cebpf4jnsgd1na2vs0mg"},{"bike_id":"16d6482a-eff2-41b1-a83c-bc881756a6e2","system_id":"levelo_inurba_marseille","lat":43.30788,"lon":5.38159,"is_reserved":false,"is_disabled":false,"rental_uris":{"android":"levelo://app?vid=16d6482a-eff2-41b1-a83c-bc881756a6e2","ios":"levelo://app?vid=16d6482a-eff2-41b1-a83c-bc881756a6e2"},"vehicle_type_id":"4","last_reported":1745618936,"current_range_meters":8400,"station_id":"ce4bgt12rcd13ifvqce0","pricing_plan_id":"cebpf4jnsgd1na2vs0mg"},{"bike_id":"930c4f74-31fa-4962-a899-2ca5edabd201","system_id":"levelo_inurba_marseille","lat":43.31355,"lon":5.36698,"is_reserved":false,"is_disabled":false,"rental_uris":{"android":"levelo://app?vid=930c4f74-31fa-4962-a899-2ca5edabd201","ios":"levelo://app?vid=930c4f74-31fa-4962-a899-2ca5edabd201"},"vehicle_type_id":"4","last_reported":1745618936,"current_range_meters":8000,"station_id":"ce4bgr92rcd13ifvqc6g","pricing_plan_id":"cebpf4jnsgd1na2vs0mg"},{"bike_id":"add7c51b-437a-413b-841b-31b6bbe06266","system_id":"levelo_inurba_marseille","lat":43.28081,"lon":5.39658,"is_reserved":false,"is_disabled":false,"rental_uris":{"android":"levelo://app?vid=add7c51b-437a-413b-841b-31b6bbe06266","ios":"levelo://app?vid=add7c51b-437a-413b-841b-31b6bbe06266"},"vehicle_type_id":"4","last_reported":1745618936,"current_range_meters":8000,"station_id":"ce4bho12rcd13ifvqh2g","pricing_plan_id":"cebpf4jnsgd1na2vs0mg"},{"bike_id":"3e68a89b-cce6-4ecf-9f87-8dc8fe980f35","system_id":"levelo_inurba_marseille","lat":43.28366,"lon":5.38624,"is_reserved":false,"is_disabled":false,"rental_uris":{"android":"levelo://app?vid=3e68a89b-cce6-4ecf-9f87-8dc8fe980f35","ios":"levelo://app?vid=3e68a89b-cce6-4ecf-9f87-8dc8fe980f35"},"vehicle_type_id":"4","last_reported":1745618936,"current_range_meters":8400,"station_id":"ce4bh492rcd13ifvqdvg","pricing_plan_id":"cebpf4jnsgd1na2vs0mg"},{"bike_id":"11892210-b2a1-4212-9103-769a3c7c750f","system_id":"levelo_inurba_marseille","lat":43.29601,"lon":5.38167,"is_reserved":false,"is_disabled":false,"rental_uris":{"android":"levelo://app?vid=11892210-b2a1-4212-9103-769a3c7c750f","ios":"levelo://app?vid=11892210-b2a1-4212-9103-769a3c7c750f"},"vehicle_type_id":"4","last_reported":1745618936,"current_range_meters":8400,"station_id":"ce4bgl12rcd13ifvqbo0","pricing_plan_id":"cebpf4jnsgd1na2vs0mg"},{"bike_id":"3801de3f-1722-4ac3-951d-b4b27bd0395c","system_id":"levelo_inurba_marseille","lat":43.34054,"lon":5.37485,"is_reserved":false,"is_disabled":false,"rental_uris":{"android":"levelo://app?vid=3801de3f-1722-4ac3-951d-b4b27bd0395c","ios":"levelo://app?vid=3801de3f-1722-4ac3-951d-b4b27bd0395c"},"vehicle_type_id":"4","last_reported":1745618936,"current_range_meters":8400,"station_id":"","pricing_plan_id":"cebpf4jnsgd1na2vs0mg"},{"bike_id":"228b6590-42c7-46eb-ab0f-678013f0a9d1","system_id":"levelo_inurba_marseille","lat":43.24813,"lon":5.37458,"is_reserved":false,"is_disabled":true,"rental_uris":{"android":"levelo://app?vid=228b6590-42c7-46eb-ab0f-678013f0a9d1","ios":"levelo://app?vid=228b6590-42c7-46eb-ab0f-678013f0a9d1"},"vehicle_type_id":"4","last_reported":1745618936,"current_range_meters":8400,"station_id":"ce4bhgh2rcd13ifvqfb0","pricing_plan_id":"cebpf4jnsgd1na2vs0mg"},{"bike_id":"2ca87a11-564f-4d02-9bbe-38f647a02125","system_id":"levelo_inurba_marseille","lat":43.31333,"lon":5.39674,"is_reserved":false,"is_disabled":true,"rental_uris":{"android":"levelo://app?vid=2ca87a11-564f-4d02-9bbe-38f647a02125","ios":"levelo://app?vid=2ca87a11-564f-4d02-9bbe-38f647a02125"},"vehicle_type_id":"4","last_reported":1745618936,"current_range_meters":8400,"station_id":"ce4bgvp2rcd13ifvqcu0","pricing_plan_id":"cebpf4jnsgd1na2vs0mg"},{"bike_id":"35bc8381-0b0b-45be-a644-56b880c6df23","system_id":"levelo_inurba_marseille","lat":43.240705,"lon":5.377619,"is_reserved":false,"is_disabled":false,"rental_uris":{"android":"levelo://app?vid=35bc8381-0b0b-45be-a644-56b880c6df23","ios":"levelo://app?vid=35bc8381-0b0b-45be-a644-56b880c6df23"},"vehicle_type_id":"4","last_reported":1745618936,"current_range_meters":8400,"station_id":"ce4bhnp2rcd13ifvqgvg","pricing_plan_id":"cebpf4jnsgd1na2vs0mg"},{"bike_id":"3b154790-3924-40d2-8858-c506203b6522","system_id":"levelo_inurba_marseille","lat":43.3112,"lon":5.37774,"is_reserved":false,"is_disabled":false,"rental_uris":{"android":"levelo://app?vid=3b154790-3924-40d2-8858-c506203b6522","ios":"levelo://app?vid=3b154790-3924-40d2-8858-c506203b6522"},"vehicle_type_id":"4","last_reported":1745618936,"current_range_meters":8400,"station_id":"ce4bgt92rcd13ifvqcg0","pricing_plan_id":"cebpf4jnsgd1na2vs0mg"},{"bike_id":"f335e7c1-ab6e-441d-8be1-03de5cf0b11d","system_id":"levelo_inurba_marseille","lat":43.29197,"lon":5.39317,"is_reserved":false,"is_disabled":false,"rental_uris":{"android":"levelo://app?vid=f335e7c1-ab6e-441d-8be1-03de5cf0b11d","ios":"levelo://app?vid=f335e7c1-ab6e-441d-8be1-03de5cf0b11d"},"vehicle_type_id":"4","last_reported":1745618936,"current_range_meters":8400,"station_id":"ce4bh192rcd13ifvqdd0","pricing_plan_id":"cebpf4jnsgd1na2vs0mg"},{"bike_id":"a00b4d75-fa25-46e7-a621-8739f4f8bd79","system_id":"levelo_inurba_marseille","lat":43.28416,"lon":5.37583,"is_reserved":false,"is_disabled":false,"rental_uris":{"android":"levelo://app?vid=a00b4d75-fa25-46e7-a621-8739f4f8bd79","ios":"levelo://app?vid=a00b4d75-fa25-46e7-a621-8739f4f8bd79"},"vehicle_type_id":"4","last_reported":1745618936,"current_range_meters":8400,"station_id":"","pricing_plan_id":"cebpf4jnsgd1na2vs0mg"},{"bike_id":"a5826db2-d709-4fbc-b54d-38f43824cce2","system_id":"levelo_inurba_marseille","lat":43.28026,"lon":5.35656,"is_reserved":false,"is_disabled":false,"rental_uris":{"android":"levelo://app?vid=a5826db2-d709-4fbc-b54d-38f43824cce2","ios":"levelo://app?vid=a5826db2-d709-4fbc-b54d-38f43824cce2"},"vehicle_type_id":"4","last_reported":1745618936,"current_range_meters":8800,"station_id":"","pricing_plan_id":"cebpf4jnsgd1na2vs0mg"},{"bike_id":"8f9691b4-4297-44b7-8403-1df3e9b561f4","system_id":"levelo_inurba_marseille","lat":43.30199,"lon":5.36633,"is_reserved":false,"is_disabled":false,"rental_uris":{"android":"levelo://app?vid=8f9691b4-4297-44b7-8403-1df3e9b561f4","ios":"levelo://app?vid=8f9691b4-4297-44b7-8403-1df3e9b561f4"},"vehicle_type_id":"4","last_reported":1745618936,"current_range_meters":8800,"station_id":"ce4bgrh2rcd13ifvqc8g","pricing_plan_id":"cebpf4jnsgd1na2vs0mg"},{"bike_id":"cc49d7df-7ac8-4737-8445-c197f979bd4d","system_id":"levelo_inurba_marseille","lat":43.28853,"lon":5.3584,"is_reserved":false,"is_disabled":true,"rental_uris":{"android":"levelo://app?vid=cc49d7df-7ac8-4737-8445-c197f979bd4d","ios":"levelo://app?vid=cc49d7df-7ac8-4737-8445-c197f979bd4d"},"vehicle_type_id":"4","last_reported":1745618936,"current_range_meters":8800,"station_id":"ce4bhb12rcd13ifvqem0","pricing_plan_id":"cebpf4jnsgd1na2vs0mg"},{"bike_id":"860ecedf-9e5e-49e6-a334-de39c73317e7","system_id":"levelo_inurba_marseille","lat":43.2791,"lon":5.39586,"is_reserved":false,"is_disabled":false,"rental_uris":{"android":"levelo://app?vid=860ecedf-9e5e-49e6-a334-de39c73317e7","ios":"levelo://app?vid=860ecedf-9e5e-49e6-a334-de39c73317e7"},"vehicle_type_id":"4","last_reported":1745618936,"current_range_meters":8800,"station_id":"ce4bhf92rcd13ifvqf40","pricing_plan_id":"cebpf4jnsgd1na2vs0mg"},{"bike_id":"72d74550-e6c4-4398-80fa-b442f5a39358","system_id":"levelo_inurba_marseille","lat":43.3013,"lon":5.38798,"is_reserved":false,"is_disabled":false,"rental_uris":{"android":"levelo://app?vid=72d74550-e6c4-4398-80fa-b442f5a39358","ios":"levelo://app?vid=72d74550-e6c4-4398-80fa-b442f5a39358"},"vehicle_type_id":"4","last_reported":1745618936,"current_range_meters":8800,"station_id":"ce4bghh2rcd13ifvqb60","pricing_plan_id":"cebpf4jnsgd1na2vs0mg"},{"bike_id":"f53ca2be-5e14-4232-a442-dc2e98de0bb7","system_id":"levelo_inurba_marseille","lat":43.27317,"lon":5.39073,"is_reserved":false,"is_disabled":true,"rental_uris":{"android":"levelo://app?vid=f53ca2be-5e14-4232-a442-dc2e98de0bb7","ios":"levelo://app?vid=f53ca2be-5e14-4232-a442-dc2e98de0bb7"},"vehicle_type_id":"4","last_reported":1745618936,"current_range_meters":8800,"station_id":"ce4bhgp2rcd13ifvqfe0","pricing_plan_id":"cebpf4jnsgd1na2vs0mg"},{"bike_id":"0fc544fb-163b-41b4-8c73-0a7c1d5a99e2","system_id":"levelo_inurba_marseille","lat":43.29006,"lon":5.38162,"is_reserved":false,"is_disabled":false,"rental_uris":{"android":"levelo://app?vid=0fc544fb-163b-41b4-8c73-0a7c1d5a99e2","ios":"levelo://app?vid=0fc544fb-163b-41b4-8c73-0a7c1d5a99e2"},"vehicle_type_id":"4","last_reported":1745618936,"current_range_meters":8800,"station_id":"ce4bh4p2rcd13ifvqe1g","pricing_plan_id":"cebpf4jnsgd1na2vs0mg"},{"bike_id":"c136579d-d956-46d1-b4b7-1192cc41a33b","system_id":"levelo_inurba_marseille","lat":43.29563,"lon":5.39967,"is_reserved":false,"is_disabled":false,"rental_uris":{"android":"levelo://app?vid=c136579d-d956-46d1-b4b7-1192cc41a33b","ios":"levelo://app?vid=c136579d-d956-46d1-b4b7-1192cc41a33b"},"vehicle_type_id":"4","last_reported":1745618936,"current_range_meters":9200,"station_id":"ce4bh312rcd13ifvqdj0","pricing_plan_id":"cebpf4jnsgd1na2vs0mg"},{"bike_id":"e55b7fd1-db0d-4417-a85a-eee1595f4095","system_id":"levelo_inurba_marseille","lat":43.27946,"lon":5.41035,"is_reserved":false,"is_disabled":false,"rental_uris":{"android":"levelo://app?vid=e55b7fd1-db0d-4417-a85a-eee1595f4095","ios":"levelo://app?vid=e55b7fd1-db0d-4417-a85a-eee1595f4095"},"vehicle_type_id":"4","last_reported":1745618936,"current_range_meters":9200,"station_id":"ce4bhnp2rcd13ifvqh0g","pricing_plan_id":"cebpf4jnsgd1na2vs0mg"},{"bike_id":"fe80108d-e190-41be-86b8-a19c8cf74730","system_id":"levelo_inurba_marseille","lat":43.28707,"lon":5.37383,"is_reserved":false,"is_disabled":false,"rental_uris":{"android":"levelo://app?vid=fe80108d-e190-41be-86b8-a19c8cf74730","ios":"levelo://app?vid=fe80108d-e190-41be-86b8-a19c8cf74730"},"vehicle_type_id":"4","last_reported":1745618936,"current_range_meters":9600,"station_id":"ce4bh3p2rcd13ifvqdq0","pricing_plan_id":"cebpf4jnsgd1na2vs0mg"},{"bike_id":"9eb74dc5-d17e-4a51-b7a2-9cba58ed4ec7","system_id":"levelo_inurba_marseille","lat":43.25725,"lon":5.4111,"is_reserved":false,"is_disabled":false,"rental_uris":{"android":"levelo://app?vid=9eb74dc5-d17e-4a51-b7a2-9cba58ed4ec7","ios":"levelo://app?vid=9eb74dc5-d17e-4a51-b7a2-9cba58ed4ec7"},"vehicle_type_id":"4","last_reported":1745618936,"current_range_meters":9600,"station_id":"ce4bhkp2rcd13ifvqgd0","pricing_plan_id":"cebpf4jnsgd1na2vs0mg"},{"bike_id":"78c7f484-570c-4dec-877d-06e748e2a726","system_id":"levelo_inurba_marseille","lat":43.29805,"lon":5.38076,"is_reserved":false,"is_disabled":true,"rental_uris":{"android":"levelo://app?vid=78c7f484-570c-4dec-877d-06e748e2a726","ios":"levelo://app?vid=78c7f484-570c-4dec-877d-06e748e2a726"},"vehicle_type_id":"4","last_reported":1745618936,"current_range_meters":9600,"station_id":"ce4bgip2rcd13ifvqbb0","pricing_plan_id":"cebpf4jnsgd1na2vs0mg"},{"bike_id":"7410bca4-dc06-4c61-a6c1-1417f60c6640","system_id":"levelo_inurba_marseille","lat":43.31484,"lon":5.3729,"is_reserved":false,"is_disabled":false,"rental_uris":{"android":"levelo://app?vid=7410bca4-dc06-4c61-a6c1-1417f60c6640","ios":"levelo://app?vid=7410bca4-dc06-4c61-a6c1-1417f60c6640"},"vehicle_type_id":"4","last_reported":1745618936,"current_range_meters":9600,"station_id":"ce4bgt12rcd13ifvqcd0","pricing_plan_id":"cebpf4jnsgd1na2vs0mg"},{"bike_id":"0b34bad7-99e4-4bb5-8938-bb3a15df1aae","system_id":"levelo_inurba_marseille","lat":43.27969,"lon":5.38725,"is_reserved":false,"is_disabled":false,"rental_uris":{"android":"levelo://app?vid=0b34bad7-99e4-4bb5-8938-bb3a15df1aae","ios":"levelo://app?vid=0b34bad7-99e4-4bb5-8938-bb3a15df1aae"},"vehicle_type_id":"4","last_reported":1745618936,"current_range_meters":9600,"station_id":"ce4bhg12rcd13ifvqf80","pricing_plan_id":"cebpf4jnsgd1na2vs0mg"},{"bike_id":"5cdc4307-0ecf-40ba-87c7-2c7940e2e054","system_id":"levelo_inurba_marseille","lat":43.30537,"lon":5.36528,"is_reserved":false,"is_disabled":false,"rental_uris":{"android":"levelo://app?vid=5cdc4307-0ecf-40ba-87c7-2c7940e2e054","ios":"levelo://app?vid=5cdc4307-0ecf-40ba-87c7-2c7940e2e054"},"vehicle_type_id":"4","last_reported":1745618936,"current_range_meters":9600,"station_id":"ce4bgs12rcd13ifvqcag","pricing_plan_id":"cebpf4jnsgd1na2vs0mg"},{"bike_id":"dceec8ca-6c2d-4af9-91fa-ec9ec02048d8","system_id":"levelo_inurba_marseille","lat":43.29525,"lon":5.38531,"is_reserved":false,"is_disabled":false,"rental_uris":{"android":"levelo://app?vid=dceec8ca-6c2d-4af9-91fa-ec9ec02048d8","ios":"levelo://app?vid=dceec8ca-6c2d-4af9-91fa-ec9ec02048d8"},"vehicle_type_id":"4","last_reported":1745618936,"current_range_meters":9600,"station_id":"ce4bgih2rcd13ifvqba0","pricing_plan_id":"cebpf4jnsgd1na2vs0mg"},{"bike_id":"5c8dde23-03af-4ec7-8c64-b6a7b95cfa5a","system_id":"levelo_inurba_marseille","lat":43.33733,"lon":5.39184,"is_reserved":false,"is_disabled":false,"rental_uris":{"android":"levelo://app?vid=5c8dde23-03af-4ec7-8c64-b6a7b95cfa5a","ios":"levelo://app?vid=5c8dde23-03af-4ec7-8c64-b6a7b95cfa5a"},"vehicle_type_id":"4","last_reported":1745618936,"current_range_meters":9600,"station_id":"ce4bhr92rcd13ifvqhsg","pricing_plan_id":"cebpf4jnsgd1na2vs0mg"},{"bike_id":"bd280092-06f7-418b-af61-af330ead0ede","system_id":"levelo_inurba_marseille","lat":43.24801,"lon":5.37456,"is_reserved":false,"is_disabled":false,"rental_uris":{"android":"levelo://app?vid=bd280092-06f7-418b-af61-af330ead0ede","ios":"levelo://app?vid=bd280092-06f7-418b-af61-af330ead0ede"},"vehicle_type_id":"4","last_reported":1745618936,"current_range_meters":9600,"station_id":"ce4bhgh2rcd13ifvqfb0","pricing_plan_id":"cebpf4jnsgd1na2vs0mg"},{"bike_id":"ac9e44e0-a6c2-47cd-8d0f-0e91543092d5","system_id":"levelo_inurba_marseille","lat":43.31725,"lon":5.42397,"is_reserved":false,"is_disabled":false,"rental_uris":{"android":"levelo://app?vid=ac9e44e0-a6c2-47cd-8d0f-0e91543092d5","ios":"levelo://app?vid=ac9e44e0-a6c2-47cd-8d0f-0e91543092d5"},"vehicle_type_id":"4","last_reported":1745618936,"current_range_meters":10000,"station_id":"ce4bhp92rcd13ifvqhbg","pricing_plan_id":"cebpf4jnsgd1na2vs0mg"},{"bike_id":"9f5578ed-5577-43eb-b8df-e2b6a45d6d89","system_id":"levelo_inurba_marseille","lat":43.28602,"lon":5.37071,"is_reserved":false,"is_disabled":false,"rental_uris":{"android":"levelo://app?vid=9f5578ed-5577-43eb-b8df-e2b6a45d6d89","ios":"levelo://app?vid=9f5578ed-5577-43eb-b8df-e2b6a45d6d89"},"vehicle_type_id":"4","last_reported":1745618936,"current_range_meters":10000,"station_id":"ce4bht12rcd13ifvqi60","pricing_plan_id":"cebpf4jnsgd1na2vs0mg"},{"bike_id":"3060a98f-4723-4c0c-a5f3-8d302c950512","system_id":"levelo_inurba_marseille","lat":43.28575,"lon":5.39496,"is_reserved":false,"is_disabled":false,"rental_uris":{"android":"levelo://app?vid=3060a98f-4723-4c0c-a5f3-8d302c950512","ios":"levelo://app?vid=3060a98f-4723-4c0c-a5f3-8d302c950512"},"vehicle_type_id":"4","last_reported":1745618936,"current_range_meters":10000,"station_id":"ce4bh292rcd13ifvqdg0","pricing_plan_id":"cebpf4jnsgd1na2vs0mg"},{"bike_id":"18a4c042-69a0-475c-9b6b-0294a3873a9e","system_id":"levelo_inurba_marseille","lat":43.29589,"lon":5.38108,"is_reserved":false,"is_disabled":false,"rental_uris":{"android":"levelo://app?vid=18a4c042-69a0-475c-9b6b-0294a3873a9e","ios":"levelo://app?vid=18a4c042-69a0-475c-9b6b-0294a3873a9e"},"vehicle_type_id":"4","last_reported":1745618936,"current_range_meters":10000,"station_id":"ce4bgl12rcd13ifvqbo0","pricing_plan_id":"cebpf4jnsgd1na2vs0mg"},{"bike_id":"1be5c4e2-327a-41cb-b88c-3971a53dcd98","system_id":"levelo_inurba_marseille","lat":43.31497,"lon":5.3731,"is_reserved":false,"is_disabled":false,"rental_uris":{"android":"levelo://app?vid=1be5c4e2-327a-41cb-b88c-3971a53dcd98","ios":"levelo://app?vid=1be5c4e2-327a-41cb-b88c-3971a53dcd98"},"vehicle_type_id":"4","last_reported":1745618936,"current_range_meters":10000,"station_id":"ce4bgt12rcd13ifvqcd0","pricing_plan_id":"cebpf4jnsgd1na2vs0mg"},{"bike_id":"fa72b649-3018-4187-96fe-d31c0b11e0f8","system_id":"levelo_inurba_marseille","lat":43.29704,"lon":5.37089,"is_reserved":false,"is_disabled":false,"rental_uris":{"android":"levelo://app?vid=fa72b649-3018-4187-96fe-d31c0b11e0f8","ios":"levelo://app?vid=fa72b649-3018-4187-96fe-d31c0b11e0f8"},"vehicle_type_id":"4","last_reported":1745618936,"current_range_meters":10000,"station_id":"","pricing_plan_id":"cebpf4jnsgd1na2vs0mg"},{"bike_id":"c3377b8f-007f-40f4-941a-437fea66d7c3","system_id":"levelo_inurba_marseille","lat":43.27176,"lon":5.40998,"is_reserved":false,"is_disabled":false,"rental_uris":{"android":"levelo://app?vid=c3377b8f-007f-40f4-941a-437fea66d7c3","ios":"levelo://app?vid=c3377b8f-007f-40f4-941a-437fea66d7c3"},"vehicle_type_id":"4","last_reported":1745618936,"current_range_meters":10000,"station_id":"ce4bhl12rcd13ifvqgf0","pricing_plan_id":"cebpf4jnsgd1na2vs0mg"},{"bike_id":"0ce1b7ad-0589-4c92-baee-e3cfa7162f1b","system_id":"levelo_inurba_marseille","lat":43.27983,"lon":5.38738,"is_reserved":false,"is_disabled":false,"rental_uris":{"android":"levelo://app?vid=0ce1b7ad-0589-4c92-baee-e3cfa7162f1b","ios":"levelo://app?vid=0ce1b7ad-0589-4c92-baee-e3cfa7162f1b"},"vehicle_type_id":"4","last_reported":1745618936,"current_range_meters":10000,"station_id":"ce4bhg12rcd13ifvqf80","pricing_plan_id":"cebpf4jnsgd1na2vs0mg"},{"bike_id":"474fe4ad-5e88-47f9-81fc-3c0196cbc45b","system_id":"levelo_inurba_marseille","lat":43.2708,"lon":5.40331,"is_reserved":false,"is_disabled":false,"rental_uris":{"android":"levelo://app?vid=474fe4ad-5e88-47f9-81fc-3c0196cbc45b","ios":"levelo://app?vid=474fe4ad-5e88-47f9-81fc-3c0196cbc45b"},"vehicle_type_id":"4","last_reported":1745618936,"current_range_meters":10000,"station_id":"","pricing_plan_id":"cebpf4jnsgd1na2vs0mg"},{"bike_id":"8cd50c55-e0cf-40e0-84f8-b74dc08cc852","system_id":"levelo_inurba_marseille","lat":43.29527,"lon":5.38529,"is_reserved":false,"is_disabled":false,"rental_uris":{"android":"levelo://app?vid=8cd50c55-e0cf-40e0-84f8-b74dc08cc852","ios":"levelo://app?vid=8cd50c55-e0cf-40e0-84f8-b74dc08cc852"},"vehicle_type_id":"4","last_reported":1745618936,"current_range_meters":10000,"station_id":"ce4bgih2rcd13ifvqba0","pricing_plan_id":"cebpf4jnsgd1na2vs0mg"},{"bike_id":"6fe978e5-653f-453c-9290-dcea126c74b8","system_id":"levelo_inurba_marseille","lat":43.29611,"lon":5.38098,"is_reserved":false,"is_disabled":false,"rental_uris":{"android":"levelo://app?vid=6fe978e5-653f-453c-9290-dcea126c74b8","ios":"levelo://app?vid=6fe978e5-653f-453c-9290-dcea126c74b8"},"vehicle_type_id":"4","last_reported":1745618936,"current_range_meters":10000,"station_id":"ce4bgl12rcd13ifvqbo0","pricing_plan_id":"cebpf4jnsgd1na2vs0mg"},{"bike_id":"edbc9bff-8242-42ee-887f-3b5d28f3a582","system_id":"levelo_inurba_marseille","lat":43.29377,"lon":5.37855,"is_reserved":false,"is_disabled":true,"rental_uris":{"android":"levelo://app?vid=edbc9bff-8242-42ee-887f-3b5d28f3a582","ios":"levelo://app?vid=edbc9bff-8242-42ee-887f-3b5d28f3a582"},"vehicle_type_id":"4","last_reported":1745618936,"current_range_meters":10000,"station_id":"ce4bgjh2rcd13ifvqbf0","pricing_plan_id":"cebpf4jnsgd1na2vs0mg"},{"bike_id":"b0ee9a1d-7b8a-4efb-bf61-ca32e693e2f5","system_id":"levelo_inurba_marseille","lat":43.27498,"lon":5.42456,"is_reserved":false,"is_disabled":false,"rental_uris":{"android":"levelo://app?vid=b0ee9a1d-7b8a-4efb-bf61-ca32e693e2f5","ios":"levelo://app?vid=b0ee9a1d-7b8a-4efb-bf61-ca32e693e2f5"},"vehicle_type_id":"4","last_reported":1745618936,"current_range_meters":10000,"station_id":"ce4bhn92rcd13ifvqgrg","pricing_plan_id":"cebpf4jnsgd1na2vs0mg"},{"bike_id":"dc01f0b5-b1ff-492a-9187-c2aa24895f43","system_id":"levelo_inurba_marseille","lat":43.23177,"lon":5.39993,"is_reserved":false,"is_disabled":false,"rental_uris":{"android":"levelo://app?vid=dc01f0b5-b1ff-492a-9187-c2aa24895f43","ios":"levelo://app?vid=dc01f0b5-b1ff-492a-9187-c2aa24895f43"},"vehicle_type_id":"4","last_reported":1745618936,"current_range_meters":10000,"station_id":"ce4bhn12rcd13ifvqgqg","pricing_plan_id":"cebpf4jnsgd1na2vs0mg"},{"bike_id":"c2e89ce1-a0ae-474c-86c5-66d0f68715d6","system_id":"levelo_inurba_marseille","lat":43.294155,"lon":5.38626,"is_reserved":false,"is_disabled":false,"rental_uris":{"android":"levelo://app?vid=c2e89ce1-a0ae-474c-86c5-66d0f68715d6","ios":"levelo://app?vid=c2e89ce1-a0ae-474c-86c5-66d0f68715d6"},"vehicle_type_id":"4","last_reported":1745618936,"current_range_meters":10800,"station_id":"ce4bh2h2rcd13ifvqdh0","pricing_plan_id":"cebpf4jnsgd1na2vs0mg"},{"bike_id":"d79536ca-1ac7-4a34-9c9c-dafff3ac49ed","system_id":"levelo_inurba_marseille","lat":43.28156,"lon":5.42643,"is_reserved":false,"is_disabled":false,"rental_uris":{"android":"levelo://app?vid=d79536ca-1ac7-4a34-9c9c-dafff3ac49ed","ios":"levelo://app?vid=d79536ca-1ac7-4a34-9c9c-dafff3ac49ed"},"vehicle_type_id":"4","last_reported":1745618936,"current_range_meters":10800,"station_id":"ce4bhnh2rcd13ifvqgug","pricing_plan_id":"cebpf4jnsgd1na2vs0mg"},{"bike_id":"eba80cac-49a3-43c0-b27f-65d7a86f1a53","system_id":"levelo_inurba_marseille","lat":43.31116,"lon":5.37772,"is_reserved":false,"is_disabled":false,"rental_uris":{"android":"levelo://app?vid=eba80cac-49a3-43c0-b27f-65d7a86f1a53","ios":"levelo://app?vid=eba80cac-49a3-43c0-b27f-65d7a86f1a53"},"vehicle_type_id":"4","last_reported":1745618936,"current_range_meters":10800,"station_id":"ce4bgt92rcd13ifvqcg0","pricing_plan_id":"cebpf4jnsgd1na2vs0mg"},{"bike_id":"51376682-930e-45ed-90e0-b53d931ddc33","system_id":"levelo_inurba_marseille","lat":43.27488,"lon":5.42463,"is_reserved":false,"is_disabled":false,"rental_uris":{"android":"levelo://app?vid=51376682-930e-45ed-90e0-b53d931ddc33","ios":"levelo://app?vid=51376682-930e-45ed-90e0-b53d931ddc33"},"vehicle_type_id":"4","last_reported":1745618936,"current_range_meters":10800,"station_id":"ce4bhn92rcd13ifvqgrg","pricing_plan_id":"cebpf4jnsgd1na2vs0mg"},{"bike_id":"9cea7716-891d-46a7-ad9d-83edb58c49cc","system_id":"levelo_inurba_marseille","lat":43.30259,"lon":5.40049,"is_reserved":false,"is_disabled":false,"rental_uris":{"android":"levelo://app?vid=9cea7716-891d-46a7-ad9d-83edb58c49cc","ios":"levelo://app?vid=9cea7716-891d-46a7-ad9d-83edb58c49cc"},"vehicle_type_id":"4","last_reported":1745618936,"current_range_meters":10800,"station_id":"ce4bgvh2rcd13ifvqcs0","pricing_plan_id":"cebpf4jnsgd1na2vs0mg"},{"bike_id":"c6b0e872-276e-4e0d-acc7-5a0ecb2ee8fd","system_id":"levelo_inurba_marseille","lat":43.29422,"lon":5.38598,"is_reserved":false,"is_disabled":false,"rental_uris":{"android":"levelo://app?vid=c6b0e872-276e-4e0d-acc7-5a0ecb2ee8fd","ios":"levelo://app?vid=c6b0e872-276e-4e0d-acc7-5a0ecb2ee8fd"},"vehicle_type_id":"4","last_reported":1745618936,"current_range_meters":10800,"station_id":"ce4bh2h2rcd13ifvqdh0","pricing_plan_id":"cebpf4jnsgd1na2vs0mg"},{"bike_id":"3c976c1b-644c-4432-ad5a-b823ebcbcc9c","system_id":"levelo_inurba_marseille","lat":43.30173,"lon":5.37412,"is_reserved":false,"is_disabled":true,"rental_uris":{"android":"levelo://app?vid=3c976c1b-644c-4432-ad5a-b823ebcbcc9c","ios":"levelo://app?vid=3c976c1b-644c-4432-ad5a-b823ebcbcc9c"},"vehicle_type_id":"4","last_reported":1745618936,"current_range_meters":10800,"station_id":"ce4bgs92rcd13ifvqcc0","pricing_plan_id":"cebpf4jnsgd1na2vs0mg"},{"bike_id":"f0360f45-6be9-4488-84ea-84d3cda26aaf","system_id":"levelo_inurba_marseille","lat":43.3301,"lon":5.43851,"is_reserved":false,"is_disabled":false,"rental_uris":{"android":"levelo://app?vid=f0360f45-6be9-4488-84ea-84d3cda26aaf","ios":"levelo://app?vid=f0360f45-6be9-4488-84ea-84d3cda26aaf"},"vehicle_type_id":"4","last_reported":1745618936,"current_range_meters":10800,"station_id":"","pricing_plan_id":"cebpf4jnsgd1na2vs0mg"},{"bike_id":"cc5bf867-bd17-4a22-8e7c-e051a44e13fa","system_id":"levelo_inurba_marseille","lat":43.298893,"lon":5.397217,"is_reserved":false,"is_disabled":false,"rental_uris":{"android":"levelo://app?vid=cc5bf867-bd17-4a22-8e7c-e051a44e13fa","ios":"levelo://app?vid=cc5bf867-bd17-4a22-8e7c-e051a44e13fa"},"vehicle_type_id":"4","last_reported":1745618936,"current_range_meters":10000,"station_id":"ce4bhp12rcd13ifvqh9g","pricing_plan_id":"cebpf4jnsgd1na2vs0mg"},{"bike_id":"c8d550fb-3c02-4c59-9563-81dd5abbd4aa","system_id":"levelo_inurba_marseille","lat":43.30253,"lon":5.40095,"is_reserved":false,"is_disabled":false,"rental_uris":{"android":"levelo://app?vid=c8d550fb-3c02-4c59-9563-81dd5abbd4aa","ios":"levelo://app?vid=c8d550fb-3c02-4c59-9563-81dd5abbd4aa"},"vehicle_type_id":"4","last_reported":1745618936,"current_range_meters":10800,"station_id":"ce4bgvh2rcd13ifvqcs0","pricing_plan_id":"cebpf4jnsgd1na2vs0mg"},{"bike_id":"37f49765-3f36-4a47-aa70-b3e71040e079","system_id":"levelo_inurba_marseille","lat":43.29273,"lon":5.40114,"is_reserved":false,"is_disabled":false,"rental_uris":{"android":"levelo://app?vid=37f49765-3f36-4a47-aa70-b3e71040e079","ios":"levelo://app?vid=37f49765-3f36-4a47-aa70-b3e71040e079"},"vehicle_type_id":"4","last_reported":1745618936,"current_range_meters":10800,"station_id":"ce4bh312rcd13ifvqdk0","pricing_plan_id":"cebpf4jnsgd1na2vs0mg"},{"bike_id":"c19e3bdb-efac-4f22-ad77-71ffe60c3083","system_id":"levelo_inurba_marseille","lat":43.279999,"lon":5.400046,"is_reserved":false,"is_disabled":false,"rental_uris":{"android":"levelo://app?vid=c19e3bdb-efac-4f22-ad77-71ffe60c3083","ios":"levelo://app?vid=c19e3bdb-efac-4f22-ad77-71ffe60c3083"},"vehicle_type_id":"4","last_reported":1745618936,"current_range_meters":11200,"station_id":"ce4bho92rcd13ifvqh4g","pricing_plan_id":"cebpf4jnsgd1na2vs0mg"},{"bike_id":"ea9a1225-0675-4e25-bc5c-6a3f85357c8d","system_id":"levelo_inurba_marseille","lat":43.28912,"lon":5.36407,"is_reserved":false,"is_disabled":true,"rental_uris":{"android":"levelo://app?vid=ea9a1225-0675-4e25-bc5c-6a3f85357c8d","ios":"levelo://app?vid=ea9a1225-0675-4e25-bc5c-6a3f85357c8d"},"vehicle_type_id":"4","last_reported":1745618936,"current_range_meters":11200,"station_id":"ce4bhc92rcd13ifvqetg","pricing_plan_id":"cebpf4jnsgd1na2vs0mg"},{"bike_id":"305edf6c-d705-475b-881b-7340ea368c2d","system_id":"levelo_inurba_marseille","lat":43.29543,"lon":5.38546,"is_reserved":false,"is_disabled":false,"rental_uris":{"android":"levelo://app?vid=305edf6c-d705-475b-881b-7340ea368c2d","ios":"levelo://app?vid=305edf6c-d705-475b-881b-7340ea368c2d"},"vehicle_type_id":"4","last_reported":1745618936,"current_range_meters":11200,"station_id":"ce4bgih2rcd13ifvqba0","pricing_plan_id":"cebpf4jnsgd1na2vs0mg"},{"bike_id":"4c11ff0f-a579-4f78-9960-a443174b0bdd","system_id":"levelo_inurba_marseille","lat":43.21193,"lon":5.35077,"is_reserved":false,"is_disabled":false,"rental_uris":{"android":"levelo://app?vid=4c11ff0f-a579-4f78-9960-a443174b0bdd","ios":"levelo://app?vid=4c11ff0f-a579-4f78-9960-a443174b0bdd"},"vehicle_type_id":"4","last_reported":1745618936,"current_range_meters":11200,"station_id":"st_cvj6sg6p6f1abm77japg","pricing_plan_id":"cebpf4jnsgd1na2vs0mg"},{"bike_id":"4406da3b-d473-4d63-87bf-fa2b430a3908","system_id":"levelo_inurba_marseille","lat":43.28575,"lon":5.39499,"is_reserved":false,"is_disabled":false,"rental_uris":{"android":"levelo://app?vid=4406da3b-d473-4d63-87bf-fa2b430a3908","ios":"levelo://app?vid=4406da3b-d473-4d63-87bf-fa2b430a3908"},"vehicle_type_id":"4","last_reported":1745618936,"current_range_meters":11600,"station_id":"ce4bh292rcd13ifvqdg0","pricing_plan_id":"cebpf4jnsgd1na2vs0mg"},{"bike_id":"8cb0d8e3-233e-414b-8aa9-884ca989a975","system_id":"levelo_inurba_marseille","lat":43.28326,"lon":5.38068,"is_reserved":false,"is_disabled":false,"rental_uris":{"android":"levelo://app?vid=8cb0d8e3-233e-414b-8aa9-884ca989a975","ios":"levelo://app?vid=8cb0d8e3-233e-414b-8aa9-884ca989a975"},"vehicle_type_id":"4","last_reported":1745618936,"current_range_meters":11600,"station_id":"ce4bh412rcd13ifvqdr0","pricing_plan_id":"cebpf4jnsgd1na2vs0mg"},{"bike_id":"ce8f23c0-2f2f-4d70-a0fe-2655eb384e82","system_id":"levelo_inurba_marseille","lat":43.290478,"lon":5.386388,"is_reserved":false,"is_disabled":false,"rental_uris":{"android":"levelo://app?vid=ce8f23c0-2f2f-4d70-a0fe-2655eb384e82","ios":"levelo://app?vid=ce8f23c0-2f2f-4d70-a0fe-2655eb384e82"},"vehicle_type_id":"4","last_reported":1745618936,"current_range_meters":11600,"station_id":"","pricing_plan_id":"cebpf4jnsgd1na2vs0mg"},{"bike_id":"7d8d69b2-0147-4031-958f-236ac2917414","system_id":"levelo_inurba_marseille","lat":43.29271,"lon":5.3684,"is_reserved":false,"is_disabled":true,"rental_uris":{"android":"levelo://app?vid=7d8d69b2-0147-4031-958f-236ac2917414","ios":"levelo://app?vid=7d8d69b2-0147-4031-958f-236ac2917414"},"vehicle_type_id":"4","last_reported":1745618936,"current_range_meters":11600,"station_id":"ce4bhbp2rcd13ifvqesg","pricing_plan_id":"cebpf4jnsgd1na2vs0mg"},{"bike_id":"e2dcabcf-64d8-4394-bb9a-ff877bee611a","system_id":"levelo_inurba_marseille","lat":43.32065,"lon":5.41526,"is_reserved":false,"is_disabled":false,"rental_uris":{"android":"levelo://app?vid=e2dcabcf-64d8-4394-bb9a-ff877bee611a","ios":"levelo://app?vid=e2dcabcf-64d8-4394-bb9a-ff877bee611a"},"vehicle_type_id":"4","last_reported":1745618936,"current_range_meters":11600,"station_id":"ce4bhq92rcd13ifvqhkg","pricing_plan_id":"cebpf4jnsgd1na2vs0mg"},{"bike_id":"d9ce4d6a-9801-4ad8-9a57-c1ccce5c1f30","system_id":"levelo_inurba_marseille","lat":43.29535,"lon":5.3854,"is_reserved":false,"is_disabled":false,"rental_uris":{"android":"levelo://app?vid=d9ce4d6a-9801-4ad8-9a57-c1ccce5c1f30","ios":"levelo://app?vid=d9ce4d6a-9801-4ad8-9a57-c1ccce5c1f30"},"vehicle_type_id":"4","last_reported":1745618936,"current_range_meters":11600,"station_id":"ce4bgih2rcd13ifvqba0","pricing_plan_id":"cebpf4jnsgd1na2vs0mg"},{"bike_id":"1c9d4032-74f6-401e-9aa6-2873e07a4737","system_id":"levelo_inurba_marseille","lat":43.31364,"lon":5.38488,"is_reserved":false,"is_disabled":false,"rental_uris":{"android":"levelo://app?vid=1c9d4032-74f6-401e-9aa6-2873e07a4737","ios":"levelo://app?vid=1c9d4032-74f6-401e-9aa6-2873e07a4737"},"vehicle_type_id":"4","last_reported":1745618936,"current_range_meters":11600,"station_id":"ce4bgt92rcd13ifvqcf0","pricing_plan_id":"cebpf4jnsgd1na2vs0mg"},{"bike_id":"02736aad-ba8b-4cd3-a499-f6392d91f474","system_id":"levelo_inurba_marseille","lat":43.294067,"lon":5.386265,"is_reserved":false,"is_disabled":false,"rental_uris":{"android":"levelo://app?vid=02736aad-ba8b-4cd3-a499-f6392d91f474","ios":"levelo://app?vid=02736aad-ba8b-4cd3-a499-f6392d91f474"},"vehicle_type_id":"4","last_reported":1745618936,"current_range_meters":11600,"station_id":"ce4bgv12rcd13ifvqcp0","pricing_plan_id":"cebpf4jnsgd1na2vs0mg"},{"bike_id":"0bfff189-ec6a-4439-b345-e9dd168ab867","system_id":"levelo_inurba_marseille","lat":43.33686,"lon":5.39242,"is_reserved":false,"is_disabled":false,"rental_uris":{"android":"levelo://app?vid=0bfff189-ec6a-4439-b345-e9dd168ab867","ios":"levelo://app?vid=0bfff189-ec6a-4439-b345-e9dd168ab867"},"vehicle_type_id":"4","last_reported":1745618936,"current_range_meters":11600,"station_id":"","pricing_plan_id":"cebpf4jnsgd1na2vs0mg"},{"bike_id":"b08fdb48-656d-4979-b0fe-c2d4b4f28ee8","system_id":"levelo_inurba_marseille","lat":43.29532,"lon":5.38549,"is_reserved":false,"is_disabled":false,"rental_uris":{"android":"levelo://app?vid=b08fdb48-656d-4979-b0fe-c2d4b4f28ee8","ios":"levelo://app?vid=b08fdb48-656d-4979-b0fe-c2d4b4f28ee8"},"vehicle_type_id":"4","last_reported":1745618936,"current_range_meters":12000,"station_id":"ce4bgih2rcd13ifvqba0","pricing_plan_id":"cebpf4jnsgd1na2vs0mg"},{"bike_id":"422b5989-c8b6-43aa-b2b9-3bfeb2e1ddc0","system_id":"levelo_inurba_marseille","lat":43.24732,"lon":5.41173,"is_reserved":false,"is_disabled":false,"rental_uris":{"android":"levelo://app?vid=422b5989-c8b6-43aa-b2b9-3bfeb2e1ddc0","ios":"levelo://app?vid=422b5989-c8b6-43aa-b2b9-3bfeb2e1ddc0"},"vehicle_type_id":"4","last_reported":1745618936,"current_range_meters":12000,"station_id":"","pricing_plan_id":"cebpf4jnsgd1na2vs0mg"},{"bike_id":"b23ab0ab-caeb-4bef-aba4-35c5e4fd2d16","system_id":"levelo_inurba_marseille","lat":43.29705,"lon":5.36604,"is_reserved":false,"is_disabled":false,"rental_uris":{"android":"levelo://app?vid=b23ab0ab-caeb-4bef-aba4-35c5e4fd2d16","ios":"levelo://app?vid=b23ab0ab-caeb-4bef-aba4-35c5e4fd2d16"},"vehicle_type_id":"4","last_reported":1745618936,"current_range_meters":12000,"station_id":"ce4bgn12rcd13ifvqbt0","pricing_plan_id":"cebpf4jnsgd1na2vs0mg"},{"bike_id":"f77a929f-13ce-4ad3-b37b-030e100178ba","system_id":"levelo_inurba_marseille","lat":43.25938,"lon":5.40878,"is_reserved":false,"is_disabled":false,"rental_uris":{"android":"levelo://app?vid=f77a929f-13ce-4ad3-b37b-030e100178ba","ios":"levelo://app?vid=f77a929f-13ce-4ad3-b37b-030e100178ba"},"vehicle_type_id":"4","last_reported":1745618936,"current_range_meters":12000,"station_id":"ce4bhm92rcd13ifvqglg","pricing_plan_id":"cebpf4jnsgd1na2vs0mg"},{"bike_id":"c65adb3e-50be-42af-92da-68dd7e4eacc9","system_id":"levelo_inurba_marseille","lat":43.3016,"lon":5.38104,"is_reserved":false,"is_disabled":true,"rental_uris":{"android":"levelo://app?vid=c65adb3e-50be-42af-92da-68dd7e4eacc9","ios":"levelo://app?vid=c65adb3e-50be-42af-92da-68dd7e4eacc9"},"vehicle_type_id":"4","last_reported":1745618936,"current_range_meters":12000,"station_id":"ce4bgjp2rcd13ifvqbh0","pricing_plan_id":"cebpf4jnsgd1na2vs0mg"},{"bike_id":"dc83063b-0acf-498d-bec5-7bae3f5ed87a","system_id":"levelo_inurba_marseille","lat":43.29248,"lon":5.40024,"is_reserved":false,"is_disabled":false,"rental_uris":{"android":"levelo://app?vid=dc83063b-0acf-498d-bec5-7bae3f5ed87a","ios":"levelo://app?vid=dc83063b-0acf-498d-bec5-7bae3f5ed87a"},"vehicle_type_id":"4","last_reported":1745618936,"current_range_meters":12400,"station_id":"ce4bh312rcd13ifvqdk0","pricing_plan_id":"cebpf4jnsgd1na2vs0mg"},{"bike_id":"0418bd97-14bf-4efb-b29f-d9df4d797ecd","system_id":"levelo_inurba_marseille","lat":43.28646,"lon":5.36362,"is_reserved":false,"is_disabled":false,"rental_uris":{"android":"levelo://app?vid=0418bd97-14bf-4efb-b29f-d9df4d797ecd","ios":"levelo://app?vid=0418bd97-14bf-4efb-b29f-d9df4d797ecd"},"vehicle_type_id":"4","last_reported":1745618936,"current_range_meters":12400,"station_id":"ce4bhah2rcd13ifvqej0","pricing_plan_id":"cebpf4jnsgd1na2vs0mg"},{"bike_id":"6a3b27e4-5407-4eb3-b4cb-60b4cc06ba5d","system_id":"levelo_inurba_marseille","lat":43.29416,"lon":5.38622,"is_reserved":false,"is_disabled":false,"rental_uris":{"android":"levelo://app?vid=6a3b27e4-5407-4eb3-b4cb-60b4cc06ba5d","ios":"levelo://app?vid=6a3b27e4-5407-4eb3-b4cb-60b4cc06ba5d"},"vehicle_type_id":"4","last_reported":1745618936,"current_range_meters":12400,"station_id":"ce4bh2h2rcd13ifvqdh0","pricing_plan_id":"cebpf4jnsgd1na2vs0mg"},{"bike_id":"f173bdc3-6bbf-4e9a-b18f-6134c30f147a","system_id":"levelo_inurba_marseille","lat":43.30419,"lon":5.41277,"is_reserved":false,"is_disabled":false,"rental_uris":{"android":"levelo://app?vid=f173bdc3-6bbf-4e9a-b18f-6134c30f147a","ios":"levelo://app?vid=f173bdc3-6bbf-4e9a-b18f-6134c30f147a"},"vehicle_type_id":"4","last_reported":1745618936,"current_range_meters":12800,"station_id":"ce4bhop2rcd13ifvqh8g","pricing_plan_id":"cebpf4jnsgd1na2vs0mg"},{"bike_id":"1ef2b4d7-eaa0-461a-8e88-8af01397cd81","system_id":"levelo_inurba_marseille","lat":43.27909,"lon":5.39589,"is_reserved":false,"is_disabled":false,"rental_uris":{"android":"levelo://app?vid=1ef2b4d7-eaa0-461a-8e88-8af01397cd81","ios":"levelo://app?vid=1ef2b4d7-eaa0-461a-8e88-8af01397cd81"},"vehicle_type_id":"4","last_reported":1745618936,"current_range_meters":12800,"station_id":"ce4bhf92rcd13ifvqf40","pricing_plan_id":"cebpf4jnsgd1na2vs0mg"},{"bike_id":"d29d99d2-8c34-447d-9ac5-9ffd1b17febf","system_id":"levelo_inurba_marseille","lat":43.23183,"lon":5.39976,"is_reserved":false,"is_disabled":false,"rental_uris":{"android":"levelo://app?vid=d29d99d2-8c34-447d-9ac5-9ffd1b17febf","ios":"levelo://app?vid=d29d99d2-8c34-447d-9ac5-9ffd1b17febf"},"vehicle_type_id":"4","last_reported":1745618936,"current_range_meters":13600,"station_id":"ce4bhn12rcd13ifvqgqg","pricing_plan_id":"cebpf4jnsgd1na2vs0mg"},{"bike_id":"abc5f87d-38c1-4243-b1f0-514dc8a121af","system_id":"levelo_inurba_marseille","lat":43.29261,"lon":5.40912,"is_reserved":false,"is_disabled":false,"rental_uris":{"android":"levelo://app?vid=abc5f87d-38c1-4243-b1f0-514dc8a121af","ios":"levelo://app?vid=abc5f87d-38c1-4243-b1f0-514dc8a121af"},"vehicle_type_id":"4","last_reported":1745618936,"current_range_meters":13600,"station_id":"ce4bh192rcd13ifvqdc0","pricing_plan_id":"cebpf4jnsgd1na2vs0mg"},{"bike_id":"9e2d1296-2cc0-42cc-ac69-09cc90961911","system_id":"levelo_inurba_marseille","lat":43.24658,"lon":5.38161,"is_reserved":false,"is_disabled":false,"rental_uris":{"android":"levelo://app?vid=9e2d1296-2cc0-42cc-ac69-09cc90961911","ios":"levelo://app?vid=9e2d1296-2cc0-42cc-ac69-09cc90961911"},"vehicle_type_id":"4","last_reported":1745618936,"current_range_meters":13600,"station_id":"ce4bhih2rcd13ifvqfr0","pricing_plan_id":"cebpf4jnsgd1na2vs0mg"},{"bike_id":"ab8e8963-6537-4556-9394-29fa66be2f38","system_id":"levelo_inurba_marseille","lat":43.30952,"lon":5.39046,"is_reserved":false,"is_disabled":false,"rental_uris":{"android":"levelo://app?vid=ab8e8963-6537-4556-9394-29fa66be2f38","ios":"levelo://app?vid=ab8e8963-6537-4556-9394-29fa66be2f38"},"vehicle_type_id":"4","last_reported":1745618936,"current_range_meters":13600,"station_id":"ce4bgup2rcd13ifvqco0","pricing_plan_id":"cebpf4jnsgd1na2vs0mg"},{"bike_id":"568053e1-9183-4cee-acca-959027493876","system_id":"levelo_inurba_marseille","lat":43.30912,"lon":5.3685,"is_reserved":false,"is_disabled":true,"rental_uris":{"android":"levelo://app?vid=568053e1-9183-4cee-acca-959027493876","ios":"levelo://app?vid=568053e1-9183-4cee-acca-959027493876"},"vehicle_type_id":"4","last_reported":1745618936,"current_range_meters":14000,"station_id":"ce4bgn92rcd13ifvqbvg","pricing_plan_id":"cebpf4jnsgd1na2vs0mg"},{"bike_id":"87e5fb19-e179-438f-9abd-f14c451fd1f8","system_id":"levelo_inurba_marseille","lat":43.28716,"lon":5.37935,"is_reserved":false,"is_disabled":false,"rental_uris":{"android":"levelo://app?vid=87e5fb19-e179-438f-9abd-f14c451fd1f8","ios":"levelo://app?vid=87e5fb19-e179-438f-9abd-f14c451fd1f8"},"vehicle_type_id":"4","last_reported":1745618936,"current_range_meters":14000,"station_id":"ce4bh9p2rcd13ifvqec0","pricing_plan_id":"cebpf4jnsgd1na2vs0mg"},{"bike_id":"a6499b68-efa1-424e-9ca6-9d7d47898217","system_id":"levelo_inurba_marseille","lat":43.2796,"lon":5.38743,"is_reserved":false,"is_disabled":false,"rental_uris":{"android":"levelo://app?vid=a6499b68-efa1-424e-9ca6-9d7d47898217","ios":"levelo://app?vid=a6499b68-efa1-424e-9ca6-9d7d47898217"},"vehicle_type_id":"4","last_reported":1745618936,"current_range_meters":14000,"station_id":"ce4bhg12rcd13ifvqf80","pricing_plan_id":"cebpf4jnsgd1na2vs0mg"},{"bike_id":"b6c6d9f7-b123-42c6-8ea7-68299b7c9958","system_id":"levelo_inurba_marseille","lat":43.324,"lon":5.39156,"is_reserved":false,"is_disabled":false,"rental_uris":{"android":"levelo://app?vid=b6c6d9f7-b123-42c6-8ea7-68299b7c9958","ios":"levelo://app?vid=b6c6d9f7-b123-42c6-8ea7-68299b7c9958"},"vehicle_type_id":"4","last_reported":1745618936,"current_range_meters":14000,"station_id":"","pricing_plan_id":"cebpf4jnsgd1na2vs0mg"},{"bike_id":"4f82d382-0b19-4a5b-8d24-45ad773b517e","system_id":"levelo_inurba_marseille","lat":43.29569,"lon":5.39971,"is_reserved":false,"is_disabled":false,"rental_uris":{"android":"levelo://app?vid=4f82d382-0b19-4a5b-8d24-45ad773b517e","ios":"levelo://app?vid=4f82d382-0b19-4a5b-8d24-45ad773b517e"},"vehicle_type_id":"4","last_reported":1745618936,"current_range_meters":14000,"station_id":"ce4bh312rcd13ifvqdj0","pricing_plan_id":"cebpf4jnsgd1na2vs0mg"},{"bike_id":"d55a3e44-cbfb-4af1-b467-9a18ebc718f5","system_id":"levelo_inurba_marseille","lat":43.28154,"lon":5.42645,"is_reserved":false,"is_disabled":false,"rental_uris":{"android":"levelo://app?vid=d55a3e44-cbfb-4af1-b467-9a18ebc718f5","ios":"levelo://app?vid=d55a3e44-cbfb-4af1-b467-9a18ebc718f5"},"vehicle_type_id":"4","last_reported":1745618936,"current_range_meters":14000,"station_id":"ce4bhnh2rcd13ifvqgug","pricing_plan_id":"cebpf4jnsgd1na2vs0mg"},{"bike_id":"af6af1ea-83a0-4448-a6b9-d143557f7290","system_id":"levelo_inurba_marseille","lat":43.27054,"lon":5.40228,"is_reserved":false,"is_disabled":false,"rental_uris":{"android":"levelo://app?vid=af6af1ea-83a0-4448-a6b9-d143557f7290","ios":"levelo://app?vid=af6af1ea-83a0-4448-a6b9-d143557f7290"},"vehicle_type_id":"4","last_reported":1745618936,"current_range_meters":14400,"station_id":"ce4bhk92rcd13ifvqgc0","pricing_plan_id":"cebpf4jnsgd1na2vs0mg"},{"bike_id":"6263f44e-be3d-43c2-8af5-78216310caee","system_id":"levelo_inurba_marseille","lat":43.28934,"lon":5.3839,"is_reserved":false,"is_disabled":true,"rental_uris":{"android":"levelo://app?vid=6263f44e-be3d-43c2-8af5-78216310caee","ios":"levelo://app?vid=6263f44e-be3d-43c2-8af5-78216310caee"},"vehicle_type_id":"4","last_reported":1745618936,"current_range_meters":14400,"station_id":"ce4bh612rcd13ifvqe6g","pricing_plan_id":"cebpf4jnsgd1na2vs0mg"},{"bike_id":"49a5be0b-2b23-4d57-a2bd-3a5d802fab0b","system_id":"levelo_inurba_marseille","lat":43.28996,"lon":5.35605,"is_reserved":false,"is_disabled":true,"rental_uris":{"android":"levelo://app?vid=49a5be0b-2b23-4d57-a2bd-3a5d802fab0b","ios":"levelo://app?vid=49a5be0b-2b23-4d57-a2bd-3a5d802fab0b"},"vehicle_type_id":"4","last_reported":1745618936,"current_range_meters":14400,"station_id":"ce4bhb92rcd13ifvqen0","pricing_plan_id":"cebpf4jnsgd1na2vs0mg"},{"bike_id":"39d351c7-e44e-4d2f-a89e-6ce44907ecf3","system_id":"levelo_inurba_marseille","lat":43.29044,"lon":5.3812,"is_reserved":false,"is_disabled":false,"rental_uris":{"android":"levelo://app?vid=39d351c7-e44e-4d2f-a89e-6ce44907ecf3","ios":"levelo://app?vid=39d351c7-e44e-4d2f-a89e-6ce44907ecf3"},"vehicle_type_id":"4","last_reported":1745618936,"current_range_meters":14000,"station_id":"ce4bh4p2rcd13ifvqe1g","pricing_plan_id":"cebpf4jnsgd1na2vs0mg"},{"bike_id":"18f4ef04-1341-4ace-a94b-638cc843e002","system_id":"levelo_inurba_marseille","lat":43.2937,"lon":5.37848,"is_reserved":false,"is_disabled":false,"rental_uris":{"android":"levelo://app?vid=18f4ef04-1341-4ace-a94b-638cc843e002","ios":"levelo://app?vid=18f4ef04-1341-4ace-a94b-638cc843e002"},"vehicle_type_id":"4","last_reported":1745618936,"current_range_meters":14400,"station_id":"ce4bgjh2rcd13ifvqbf0","pricing_plan_id":"cebpf4jnsgd1na2vs0mg"},{"bike_id":"031f6ec3-d2c4-431b-9aee-819fc632978b","system_id":"levelo_inurba_marseille","lat":43.29275,"lon":5.40113,"is_reserved":false,"is_disabled":false,"rental_uris":{"android":"levelo://app?vid=031f6ec3-d2c4-431b-9aee-819fc632978b","ios":"levelo://app?vid=031f6ec3-d2c4-431b-9aee-819fc632978b"},"vehicle_type_id":"4","last_reported":1745618936,"current_range_meters":14800,"station_id":"ce4bh312rcd13ifvqdk0","pricing_plan_id":"cebpf4jnsgd1na2vs0mg"},{"bike_id":"2f8544b8-a48b-45e5-813f-7b94c09f5d0a","system_id":"levelo_inurba_marseille","lat":43.28713,"lon":5.39985,"is_reserved":false,"is_disabled":false,"rental_uris":{"android":"levelo://app?vid=2f8544b8-a48b-45e5-813f-7b94c09f5d0a","ios":"levelo://app?vid=2f8544b8-a48b-45e5-813f-7b94c09f5d0a"},"vehicle_type_id":"4","last_reported":1745618936,"current_range_meters":14800,"station_id":"ce4bho92rcd13ifvqh3g","pricing_plan_id":"cebpf4jnsgd1na2vs0mg"},{"bike_id":"83c3414a-b187-498e-b051-d2cef453331a","system_id":"levelo_inurba_marseille","lat":43.30144,"lon":5.3742,"is_reserved":false,"is_disabled":false,"rental_uris":{"android":"levelo://app?vid=83c3414a-b187-498e-b051-d2cef453331a","ios":"levelo://app?vid=83c3414a-b187-498e-b051-d2cef453331a"},"vehicle_type_id":"4","last_reported":1745618936,"current_range_meters":14800,"station_id":"ce4bgs92rcd13ifvqcc0","pricing_plan_id":"cebpf4jnsgd1na2vs0mg"},{"bike_id":"262de007-d0f9-4b5c-9db4-1c829c9329a9","system_id":"levelo_inurba_marseille","lat":43.2798,"lon":5.41016,"is_reserved":false,"is_disabled":false,"rental_uris":{"android":"levelo://app?vid=262de007-d0f9-4b5c-9db4-1c829c9329a9","ios":"levelo://app?vid=262de007-d0f9-4b5c-9db4-1c829c9329a9"},"vehicle_type_id":"4","last_reported":1745618936,"current_range_meters":14800,"station_id":"ce4bhnp2rcd13ifvqh0g","pricing_plan_id":"cebpf4jnsgd1na2vs0mg"},{"bike_id":"3cd6b6e6-bd5c-439e-9a16-73a13038d284","system_id":"levelo_inurba_marseille","lat":43.31115,"lon":5.3777,"is_reserved":false,"is_disabled":false,"rental_uris":{"android":"levelo://app?vid=3cd6b6e6-bd5c-439e-9a16-73a13038d284","ios":"levelo://app?vid=3cd6b6e6-bd5c-439e-9a16-73a13038d284"},"vehicle_type_id":"4","last_reported":1745618936,"current_range_meters":14800,"station_id":"ce4bgt92rcd13ifvqcg0","pricing_plan_id":"cebpf4jnsgd1na2vs0mg"},{"bike_id":"bdbaf239-8e32-4097-83a8-349eec5e703b","system_id":"levelo_inurba_marseille","lat":43.27812,"lon":5.40718,"is_reserved":false,"is_disabled":false,"rental_uris":{"android":"levelo://app?vid=bdbaf239-8e32-4097-83a8-349eec5e703b","ios":"levelo://app?vid=bdbaf239-8e32-4097-83a8-349eec5e703b"},"vehicle_type_id":"4","last_reported":1745618936,"current_range_meters":14400,"station_id":"ce4bhnh2rcd13ifvqgtg","pricing_plan_id":"cebpf4jnsgd1na2vs0mg"},{"bike_id":"b55aa3bc-9ee0-4f12-8294-0d62b98b1609","system_id":"levelo_inurba_marseille","lat":43.313642,"lon":5.384908,"is_reserved":false,"is_disabled":false,"rental_uris":{"android":"levelo://app?vid=b55aa3bc-9ee0-4f12-8294-0d62b98b1609","ios":"levelo://app?vid=b55aa3bc-9ee0-4f12-8294-0d62b98b1609"},"vehicle_type_id":"4","last_reported":1745618936,"current_range_meters":14800,"station_id":"","pricing_plan_id":"cebpf4jnsgd1na2vs0mg"},{"bike_id":"c85f18d0-c853-423d-9a4e-d069311ab85d","system_id":"levelo_inurba_marseille","lat":43.29714,"lon":5.36607,"is_reserved":false,"is_disabled":false,"rental_uris":{"android":"levelo://app?vid=c85f18d0-c853-423d-9a4e-d069311ab85d","ios":"levelo://app?vid=c85f18d0-c853-423d-9a4e-d069311ab85d"},"vehicle_type_id":"4","last_reported":1745618936,"current_range_meters":14800,"station_id":"ce4bgn12rcd13ifvqbt0","pricing_plan_id":"cebpf4jnsgd1na2vs0mg"},{"bike_id":"540e73f3-f5fe-4af6-8cf8-7c93cbc816e3","system_id":"levelo_inurba_marseille","lat":43.301016,"lon":5.390778,"is_reserved":false,"is_disabled":true,"rental_uris":{"android":"levelo://app?vid=540e73f3-f5fe-4af6-8cf8-7c93cbc816e3","ios":"levelo://app?vid=540e73f3-f5fe-4af6-8cf8-7c93cbc816e3"},"vehicle_type_id":"4","last_reported":1745618936,"current_range_meters":15200,"station_id":"ce4bh192rcd13ifvqdb0","pricing_plan_id":"cebpf4jnsgd1na2vs0mg"},{"bike_id":"9938022e-8478-489a-a878-ea3fb6a686ae","system_id":"levelo_inurba_marseille","lat":43.32365,"lon":5.3889,"is_reserved":false,"is_disabled":false,"rental_uris":{"android":"levelo://app?vid=9938022e-8478-489a-a878-ea3fb6a686ae","ios":"levelo://app?vid=9938022e-8478-489a-a878-ea3fb6a686ae"},"vehicle_type_id":"4","last_reported":1745618936,"current_range_meters":15200,"station_id":"ce4bhqp2rcd13ifvqhog","pricing_plan_id":"cebpf4jnsgd1na2vs0mg"},{"bike_id":"987d7900-bb2a-45cb-bed7-6d69f6fd4fa3","system_id":"levelo_inurba_marseille","lat":43.28509,"lon":5.38458,"is_reserved":false,"is_disabled":false,"rental_uris":{"android":"levelo://app?vid=987d7900-bb2a-45cb-bed7-6d69f6fd4fa3","ios":"levelo://app?vid=987d7900-bb2a-45cb-bed7-6d69f6fd4fa3"},"vehicle_type_id":"4","last_reported":1745618936,"current_range_meters":15200,"station_id":"ce4bh512rcd13ifvqe3g","pricing_plan_id":"cebpf4jnsgd1na2vs0mg"},{"bike_id":"5dc84e9d-9834-4e0f-ba36-b2b9d12df2e2","system_id":"levelo_inurba_marseille","lat":43.31369,"lon":5.3849,"is_reserved":false,"is_disabled":false,"rental_uris":{"android":"levelo://app?vid=5dc84e9d-9834-4e0f-ba36-b2b9d12df2e2","ios":"levelo://app?vid=5dc84e9d-9834-4e0f-ba36-b2b9d12df2e2"},"vehicle_type_id":"4","last_reported":1745618936,"current_range_meters":15200,"station_id":"ce4bgt92rcd13ifvqcf0","pricing_plan_id":"cebpf4jnsgd1na2vs0mg"},{"bike_id":"7dfd581c-bc1d-4404-95c3-2a0f3d228b3c","system_id":"levelo_inurba_marseille","lat":43.33023,"lon":5.39048,"is_reserved":false,"is_disabled":false,"rental_uris":{"android":"levelo://app?vid=7dfd581c-bc1d-4404-95c3-2a0f3d228b3c","ios":"levelo://app?vid=7dfd581c-bc1d-4404-95c3-2a0f3d228b3c"},"vehicle_type_id":"4","last_reported":1745618936,"current_range_meters":15200,"station_id":"ce4bhr92rcd13ifvqhrg","pricing_plan_id":"cebpf4jnsgd1na2vs0mg"},{"bike_id":"fdbe3e4c-6069-4e16-9ae7-cb790fcbdb9e","system_id":"levelo_inurba_marseille","lat":43.24661,"lon":5.38149,"is_reserved":false,"is_disabled":false,"rental_uris":{"android":"levelo://app?vid=fdbe3e4c-6069-4e16-9ae7-cb790fcbdb9e","ios":"levelo://app?vid=fdbe3e4c-6069-4e16-9ae7-cb790fcbdb9e"},"vehicle_type_id":"4","last_reported":1745618936,"current_range_meters":16000,"station_id":"ce4bhih2rcd13ifvqfr0","pricing_plan_id":"cebpf4jnsgd1na2vs0mg"},{"bike_id":"ebbe9a30-d282-4b35-8349-7a659873be4f","system_id":"levelo_inurba_marseille","lat":43.29597,"lon":5.37509,"is_reserved":false,"is_disabled":false,"rental_uris":{"android":"levelo://app?vid=ebbe9a30-d282-4b35-8349-7a659873be4f","ios":"levelo://app?vid=ebbe9a30-d282-4b35-8349-7a659873be4f"},"vehicle_type_id":"4","last_reported":1745618936,"current_range_meters":16000,"station_id":"ce4bgh92rcd13ifvqb50","pricing_plan_id":"cebpf4jnsgd1na2vs0mg"},{"bike_id":"0ae0505b-f506-484e-b3eb-cf1dcbfe43be","system_id":"levelo_inurba_marseille","lat":43.30128,"lon":5.39841,"is_reserved":false,"is_disabled":false,"rental_uris":{"android":"levelo://app?vid=0ae0505b-f506-484e-b3eb-cf1dcbfe43be","ios":"levelo://app?vid=0ae0505b-f506-484e-b3eb-cf1dcbfe43be"},"vehicle_type_id":"4","last_reported":1745618936,"current_range_meters":16000,"station_id":"ce4bh0h2rcd13ifvqd40","pricing_plan_id":"cebpf4jnsgd1na2vs0mg"},{"bike_id":"97fbe862-3dc4-4ded-9569-7540ceeeffb5","system_id":"levelo_inurba_marseille","lat":43.33618,"lon":5.41041,"is_reserved":false,"is_disabled":false,"rental_uris":{"android":"levelo://app?vid=97fbe862-3dc4-4ded-9569-7540ceeeffb5","ios":"levelo://app?vid=97fbe862-3dc4-4ded-9569-7540ceeeffb5"},"vehicle_type_id":"4","last_reported":1745618936,"current_range_meters":16000,"station_id":"ce4bhqh2rcd13ifvqhmg","pricing_plan_id":"cebpf4jnsgd1na2vs0mg"},{"bike_id":"d03cbcab-c0c3-4f61-850e-6d032d493658","system_id":"levelo_inurba_marseille","lat":43.3266,"lon":5.40986,"is_reserved":false,"is_disabled":false,"rental_uris":{"android":"levelo://app?vid=d03cbcab-c0c3-4f61-850e-6d032d493658","ios":"levelo://app?vid=d03cbcab-c0c3-4f61-850e-6d032d493658"},"vehicle_type_id":"4","last_reported":1745618936,"current_range_meters":16000,"station_id":"ce4bhpp2rcd13ifvqhgg","pricing_plan_id":"cebpf4jnsgd1na2vs0mg"},{"bike_id":"e9aa222c-9d74-4e5b-84a4-e936d61d20a4","system_id":"levelo_inurba_marseille","lat":43.34138,"lon":5.40907,"is_reserved":false,"is_disabled":false,"rental_uris":{"android":"levelo://app?vid=e9aa222c-9d74-4e5b-84a4-e936d61d20a4","ios":"levelo://app?vid=e9aa222c-9d74-4e5b-84a4-e936d61d20a4"},"vehicle_type_id":"4","last_reported":1745618936,"current_range_meters":16000,"station_id":"ce4bhqh2rcd13ifvqhlg","pricing_plan_id":"cebpf4jnsgd1na2vs0mg"},{"bike_id":"c5148a9a-ebc5-4ef2-b534-3d893a6634b0","system_id":"levelo_inurba_marseille","lat":43.28727,"lon":5.37937,"is_reserved":false,"is_disabled":false,"rental_uris":{"android":"levelo://app?vid=c5148a9a-ebc5-4ef2-b534-3d893a6634b0","ios":"levelo://app?vid=c5148a9a-ebc5-4ef2-b534-3d893a6634b0"},"vehicle_type_id":"4","last_reported":1745618936,"current_range_meters":16000,"station_id":"ce4bh9p2rcd13ifvqec0","pricing_plan_id":"cebpf4jnsgd1na2vs0mg"},{"bike_id":"ab157b9a-f413-4283-9896-461bb1b27942","system_id":"levelo_inurba_marseille","lat":43.33037,"lon":5.3903,"is_reserved":false,"is_disabled":false,"rental_uris":{"android":"levelo://app?vid=ab157b9a-f413-4283-9896-461bb1b27942","ios":"levelo://app?vid=ab157b9a-f413-4283-9896-461bb1b27942"},"vehicle_type_id":"4","last_reported":1745618936,"current_range_meters":16400,"station_id":"ce4bhr92rcd13ifvqhrg","pricing_plan_id":"cebpf4jnsgd1na2vs0mg"},{"bike_id":"2e239c1f-dbc8-4c8f-bad4-86f9adfa8381","system_id":"levelo_inurba_marseille","lat":43.30329,"lon":5.40436,"is_reserved":false,"is_disabled":false,"rental_uris":{"android":"levelo://app?vid=2e239c1f-dbc8-4c8f-bad4-86f9adfa8381","ios":"levelo://app?vid=2e239c1f-dbc8-4c8f-bad4-86f9adfa8381"},"vehicle_type_id":"4","last_reported":1745618936,"current_range_meters":16400,"station_id":"ce4bh012rcd13ifvqd10","pricing_plan_id":"cebpf4jnsgd1na2vs0mg"},{"bike_id":"45571b84-2af9-4c77-a608-11eb44fb40cc","system_id":"levelo_inurba_marseille","lat":43.29537,"lon":5.38538,"is_reserved":false,"is_disabled":false,"rental_uris":{"android":"levelo://app?vid=45571b84-2af9-4c77-a608-11eb44fb40cc","ios":"levelo://app?vid=45571b84-2af9-4c77-a608-11eb44fb40cc"},"vehicle_type_id":"4","last_reported":1745618936,"current_range_meters":16400,"station_id":"ce4bgih2rcd13ifvqba0","pricing_plan_id":"cebpf4jnsgd1na2vs0mg"},{"bike_id":"8f5c8879-8704-464b-b08a-aa8851e6ad23","system_id":"levelo_inurba_marseille","lat":43.32376,"lon":5.38876,"is_reserved":false,"is_disabled":false,"rental_uris":{"android":"levelo://app?vid=8f5c8879-8704-464b-b08a-aa8851e6ad23","ios":"levelo://app?vid=8f5c8879-8704-464b-b08a-aa8851e6ad23"},"vehicle_type_id":"4","last_reported":1745618936,"current_range_meters":16400,"station_id":"ce4bhqp2rcd13ifvqhog","pricing_plan_id":"cebpf4jnsgd1na2vs0mg"},{"bike_id":"e2a41a14-b118-4dd4-aa7f-abc51fc58dd2","system_id":"levelo_inurba_marseille","lat":43.32365,"lon":5.38883,"is_reserved":false,"is_disabled":false,"rental_uris":{"android":"levelo://app?vid=e2a41a14-b118-4dd4-aa7f-abc51fc58dd2","ios":"levelo://app?vid=e2a41a14-b118-4dd4-aa7f-abc51fc58dd2"},"vehicle_type_id":"4","last_reported":1745618936,"current_range_meters":16400,"station_id":"ce4bhqp2rcd13ifvqhog","pricing_plan_id":"cebpf4jnsgd1na2vs0mg"},{"bike_id":"f1d84fb5-f9d0-4769-a5af-b5ddf79f36da","system_id":"levelo_inurba_marseille","lat":43.29518,"lon":5.38538,"is_reserved":false,"is_disabled":false,"rental_uris":{"android":"levelo://app?vid=f1d84fb5-f9d0-4769-a5af-b5ddf79f36da","ios":"levelo://app?vid=f1d84fb5-f9d0-4769-a5af-b5ddf79f36da"},"vehicle_type_id":"4","last_reported":1745618936,"current_range_meters":16400,"station_id":"ce4bgih2rcd13ifvqba0","pricing_plan_id":"cebpf4jnsgd1na2vs0mg"},{"bike_id":"31de0553-c9b8-4cd4-844d-7d7b36fa3ecd","system_id":"levelo_inurba_marseille","lat":43.28168,"lon":5.42641,"is_reserved":false,"is_disabled":false,"rental_uris":{"android":"levelo://app?vid=31de0553-c9b8-4cd4-844d-7d7b36fa3ecd","ios":"levelo://app?vid=31de0553-c9b8-4cd4-844d-7d7b36fa3ecd"},"vehicle_type_id":"4","last_reported":1745618936,"current_range_meters":16400,"station_id":"ce4bhnh2rcd13ifvqgug","pricing_plan_id":"cebpf4jnsgd1na2vs0mg"},{"bike_id":"6af27718-a240-4511-b105-026b1985396f","system_id":"levelo_inurba_marseille","lat":43.29568,"lon":5.36281,"is_reserved":false,"is_disabled":false,"rental_uris":{"android":"levelo://app?vid=6af27718-a240-4511-b105-026b1985396f","ios":"levelo://app?vid=6af27718-a240-4511-b105-026b1985396f"},"vehicle_type_id":"4","last_reported":1745618936,"current_range_meters":16400,"station_id":"","pricing_plan_id":"cebpf4jnsgd1na2vs0mg"},{"bike_id":"bbbf75c1-d1a6-4017-ab68-98b27faf19a4","system_id":"levelo_inurba_marseille","lat":43.2954,"lon":5.38545,"is_reserved":false,"is_disabled":false,"rental_uris":{"android":"levelo://app?vid=bbbf75c1-d1a6-4017-ab68-98b27faf19a4","ios":"levelo://app?vid=bbbf75c1-d1a6-4017-ab68-98b27faf19a4"},"vehicle_type_id":"4","last_reported":1745618936,"current_range_meters":16400,"station_id":"ce4bgih2rcd13ifvqba0","pricing_plan_id":"cebpf4jnsgd1na2vs0mg"},{"bike_id":"51a4b1f4-4cfb-4b9e-b7e6-50254ee4c796","system_id":"levelo_inurba_marseille","lat":43.28618,"lon":5.37061,"is_reserved":false,"is_disabled":true,"rental_uris":{"android":"levelo://app?vid=51a4b1f4-4cfb-4b9e-b7e6-50254ee4c796","ios":"levelo://app?vid=51a4b1f4-4cfb-4b9e-b7e6-50254ee4c796"},"vehicle_type_id":"4","last_reported":1745618936,"current_range_meters":16400,"station_id":"ce4bht12rcd13ifvqi60","pricing_plan_id":"cebpf4jnsgd1na2vs0mg"},{"bike_id":"96733886-38eb-4a8b-9470-0c4bf645e97a","system_id":"levelo_inurba_marseille","lat":43.27939,"lon":5.41043,"is_reserved":false,"is_disabled":false,"rental_uris":{"android":"levelo://app?vid=96733886-38eb-4a8b-9470-0c4bf645e97a","ios":"levelo://app?vid=96733886-38eb-4a8b-9470-0c4bf645e97a"},"vehicle_type_id":"4","last_reported":1745618936,"current_range_meters":16800,"station_id":"ce4bhnp2rcd13ifvqh0g","pricing_plan_id":"cebpf4jnsgd1na2vs0mg"},{"bike_id":"0ec508c1-e9ac-4b5b-b8d1-19675c98bb05","system_id":"levelo_inurba_marseille","lat":43.330353,"lon":5.390407,"is_reserved":false,"is_disabled":false,"rental_uris":{"android":"levelo://app?vid=0ec508c1-e9ac-4b5b-b8d1-19675c98bb05","ios":"levelo://app?vid=0ec508c1-e9ac-4b5b-b8d1-19675c98bb05"},"vehicle_type_id":"4","last_reported":1745618936,"current_range_meters":16800,"station_id":"ce4bhr92rcd13ifvqhrg","pricing_plan_id":"cebpf4jnsgd1na2vs0mg"},{"bike_id":"77e3084c-c141-4ed9-9680-40293c541d0e","system_id":"levelo_inurba_marseille","lat":43.26051,"lon":5.39404,"is_reserved":false,"is_disabled":false,"rental_uris":{"android":"levelo://app?vid=77e3084c-c141-4ed9-9680-40293c541d0e","ios":"levelo://app?vid=77e3084c-c141-4ed9-9680-40293c541d0e"},"vehicle_type_id":"4","last_reported":1745618936,"current_range_meters":16800,"station_id":"ce4bhh92rcd13ifvqfj0","pricing_plan_id":"cebpf4jnsgd1na2vs0mg"},{"bike_id":"42f4a34b-5447-42b2-88ad-6361cc2e87e0","system_id":"levelo_inurba_marseille","lat":43.29787,"lon":5.37089,"is_reserved":false,"is_disabled":false,"rental_uris":{"android":"levelo://app?vid=42f4a34b-5447-42b2-88ad-6361cc2e87e0","ios":"levelo://app?vid=42f4a34b-5447-42b2-88ad-6361cc2e87e0"},"vehicle_type_id":"4","last_reported":1745618936,"current_range_meters":16800,"station_id":"ce4bgop2rcd13ifvqc1g","pricing_plan_id":"cebpf4jnsgd1na2vs0mg"},{"bike_id":"84fbb3b0-32a6-4d2e-ae64-a58ff68e7b32","system_id":"levelo_inurba_marseille","lat":43.2293,"lon":5.35373,"is_reserved":false,"is_disabled":false,"rental_uris":{"android":"levelo://app?vid=84fbb3b0-32a6-4d2e-ae64-a58ff68e7b32","ios":"levelo://app?vid=84fbb3b0-32a6-4d2e-ae64-a58ff68e7b32"},"vehicle_type_id":"4","last_reported":1745618936,"current_range_meters":16800,"station_id":"cpo3532slgdg3j2ikp40","pricing_plan_id":"cebpf4jnsgd1na2vs0mg"},{"bike_id":"5beaa40a-f95a-4af3-94f6-72b61e748f45","system_id":"levelo_inurba_marseille","lat":43.284668,"lon":5.37398,"is_reserved":false,"is_disabled":false,"rental_uris":{"android":"levelo://app?vid=5beaa40a-f95a-4af3-94f6-72b61e748f45","ios":"levelo://app?vid=5beaa40a-f95a-4af3-94f6-72b61e748f45"},"vehicle_type_id":"4","last_reported":1745618936,"current_range_meters":16800,"station_id":"ce4bh3p2rcd13ifvqdq0","pricing_plan_id":"cebpf4jnsgd1na2vs0mg"},{"bike_id":"dbebca8a-053a-407c-9e87-ed214e66581b","system_id":"levelo_inurba_marseille","lat":43.32369,"lon":5.38878,"is_reserved":false,"is_disabled":false,"rental_uris":{"android":"levelo://app?vid=dbebca8a-053a-407c-9e87-ed214e66581b","ios":"levelo://app?vid=dbebca8a-053a-407c-9e87-ed214e66581b"},"vehicle_type_id":"4","last_reported":1745618936,"current_range_meters":16800,"station_id":"ce4bhqp2rcd13ifvqhog","pricing_plan_id":"cebpf4jnsgd1na2vs0mg"},{"bike_id":"19d04241-c154-4a53-abe9-5d3c18a30b19","system_id":"levelo_inurba_marseille","lat":43.28698,"lon":5.39979,"is_reserved":false,"is_disabled":false,"rental_uris":{"android":"levelo://app?vid=19d04241-c154-4a53-abe9-5d3c18a30b19","ios":"levelo://app?vid=19d04241-c154-4a53-abe9-5d3c18a30b19"},"vehicle_type_id":"4","last_reported":1745618936,"current_range_meters":16800,"station_id":"ce4bho92rcd13ifvqh3g","pricing_plan_id":"cebpf4jnsgd1na2vs0mg"},{"bike_id":"e3cdf67a-5fc2-4703-9c39-57d29454c8ba","system_id":"levelo_inurba_marseille","lat":43.340425,"lon":5.386994,"is_reserved":false,"is_disabled":false,"rental_uris":{"android":"levelo://app?vid=e3cdf67a-5fc2-4703-9c39-57d29454c8ba","ios":"levelo://app?vid=e3cdf67a-5fc2-4703-9c39-57d29454c8ba"},"vehicle_type_id":"4","last_reported":1745618936,"current_range_meters":17200,"station_id":"","pricing_plan_id":"cebpf4jnsgd1na2vs0mg"},{"bike_id":"4046a82f-66e8-4b55-bd0a-356edea772d8","system_id":"levelo_inurba_marseille","lat":43.3066,"lon":5.37348,"is_reserved":false,"is_disabled":false,"rental_uris":{"android":"levelo://app?vid=4046a82f-66e8-4b55-bd0a-356edea772d8","ios":"levelo://app?vid=4046a82f-66e8-4b55-bd0a-356edea772d8"},"vehicle_type_id":"4","last_reported":1745618936,"current_range_meters":17200,"station_id":"","pricing_plan_id":"cebpf4jnsgd1na2vs0mg"},{"bike_id":"d28bf9af-5868-40cf-bc78-dd7cb5c022b5","system_id":"levelo_inurba_marseille","lat":43.29975,"lon":5.38494,"is_reserved":false,"is_disabled":true,"rental_uris":{"android":"levelo://app?vid=d28bf9af-5868-40cf-bc78-dd7cb5c022b5","ios":"levelo://app?vid=d28bf9af-5868-40cf-bc78-dd7cb5c022b5"},"vehicle_type_id":"4","last_reported":1745618936,"current_range_meters":17200,"station_id":"ce4bgj92rcd13ifvqbd0","pricing_plan_id":"cebpf4jnsgd1na2vs0mg"},{"bike_id":"93ca3983-7787-4495-91c9-8df0930ab1f5","system_id":"levelo_inurba_marseille","lat":43.25581,"lon":5.38228,"is_reserved":false,"is_disabled":false,"rental_uris":{"android":"levelo://app?vid=93ca3983-7787-4495-91c9-8df0930ab1f5","ios":"levelo://app?vid=93ca3983-7787-4495-91c9-8df0930ab1f5"},"vehicle_type_id":"4","last_reported":1745618936,"current_range_meters":17200,"station_id":"ce4bhih2rcd13ifvqfs0","pricing_plan_id":"cebpf4jnsgd1na2vs0mg"},{"bike_id":"f700b6c6-ca23-4c08-ad65-f93a5b3c5b3f","system_id":"levelo_inurba_marseille","lat":43.29909,"lon":5.37475,"is_reserved":false,"is_disabled":false,"rental_uris":{"android":"levelo://app?vid=f700b6c6-ca23-4c08-ad65-f93a5b3c5b3f","ios":"levelo://app?vid=f700b6c6-ca23-4c08-ad65-f93a5b3c5b3f"},"vehicle_type_id":"4","last_reported":1745618936,"current_range_meters":16800,"station_id":"ce4bgjh2rcd13ifvqbg0","pricing_plan_id":"cebpf4jnsgd1na2vs0mg"},{"bike_id":"ddc2ed76-18ad-4e0c-9dbd-1307527da83a","system_id":"levelo_inurba_marseille","lat":43.29537,"lon":5.38548,"is_reserved":false,"is_disabled":false,"rental_uris":{"android":"levelo://app?vid=ddc2ed76-18ad-4e0c-9dbd-1307527da83a","ios":"levelo://app?vid=ddc2ed76-18ad-4e0c-9dbd-1307527da83a"},"vehicle_type_id":"4","last_reported":1745618936,"current_range_meters":17200,"station_id":"ce4bgih2rcd13ifvqba0","pricing_plan_id":"cebpf4jnsgd1na2vs0mg"},{"bike_id":"ca376395-5bab-49ac-a88b-03ed7986b1fc","system_id":"levelo_inurba_marseille","lat":43.25935,"lon":5.40898,"is_reserved":false,"is_disabled":false,"rental_uris":{"android":"levelo://app?vid=ca376395-5bab-49ac-a88b-03ed7986b1fc","ios":"levelo://app?vid=ca376395-5bab-49ac-a88b-03ed7986b1fc"},"vehicle_type_id":"4","last_reported":1745618936,"current_range_meters":17200,"station_id":"ce4bhm92rcd13ifvqglg","pricing_plan_id":"cebpf4jnsgd1na2vs0mg"},{"bike_id":"3a324601-3fe4-4c3b-abaa-a0f5c7b056a0","system_id":"levelo_inurba_marseille","lat":43.29537,"lon":5.38545,"is_reserved":false,"is_disabled":false,"rental_uris":{"android":"levelo://app?vid=3a324601-3fe4-4c3b-abaa-a0f5c7b056a0","ios":"levelo://app?vid=3a324601-3fe4-4c3b-abaa-a0f5c7b056a0"},"vehicle_type_id":"4","last_reported":1745618936,"current_range_meters":17200,"station_id":"ce4bgih2rcd13ifvqba0","pricing_plan_id":"cebpf4jnsgd1na2vs0mg"},{"bike_id":"5dbe91cf-e0fd-473c-8210-bfb47c914136","system_id":"levelo_inurba_marseille","lat":43.29534,"lon":5.38545,"is_reserved":false,"is_disabled":false,"rental_uris":{"android":"levelo://app?vid=5dbe91cf-e0fd-473c-8210-bfb47c914136","ios":"levelo://app?vid=5dbe91cf-e0fd-473c-8210-bfb47c914136"},"vehicle_type_id":"4","last_reported":1745618936,"current_range_meters":17200,"station_id":"ce4bgih2rcd13ifvqba0","pricing_plan_id":"cebpf4jnsgd1na2vs0mg"},{"bike_id":"79ac04a5-62dd-43e2-a4bd-10156274da1b","system_id":"levelo_inurba_marseille","lat":43.32648,"lon":5.40999,"is_reserved":false,"is_disabled":false,"rental_uris":{"android":"levelo://app?vid=79ac04a5-62dd-43e2-a4bd-10156274da1b","ios":"levelo://app?vid=79ac04a5-62dd-43e2-a4bd-10156274da1b"},"vehicle_type_id":"4","last_reported":1745618936,"current_range_meters":17200,"station_id":"ce4bhpp2rcd13ifvqhgg","pricing_plan_id":"cebpf4jnsgd1na2vs0mg"},{"bike_id":"6d74b7dd-c380-4975-9c15-0d2be01312f2","system_id":"levelo_inurba_marseille","lat":43.31067,"lon":5.38354,"is_reserved":false,"is_disabled":false,"rental_uris":{"android":"levelo://app?vid=6d74b7dd-c380-4975-9c15-0d2be01312f2","ios":"levelo://app?vid=6d74b7dd-c380-4975-9c15-0d2be01312f2"},"vehicle_type_id":"4","last_reported":1745618936,"current_range_meters":17200,"station_id":"ce4bgv92rcd13ifvqcr0","pricing_plan_id":"cebpf4jnsgd1na2vs0mg"},{"bike_id":"b08100b7-5e92-4c6c-b425-776cc0784f7c","system_id":"levelo_inurba_marseille","lat":43.28859,"lon":5.39317,"is_reserved":false,"is_disabled":false,"rental_uris":{"android":"levelo://app?vid=b08100b7-5e92-4c6c-b425-776cc0784f7c","ios":"levelo://app?vid=b08100b7-5e92-4c6c-b425-776cc0784f7c"},"vehicle_type_id":"4","last_reported":1745618936,"current_range_meters":17600,"station_id":"ce4bh2p2rcd13ifvqdi0","pricing_plan_id":"cebpf4jnsgd1na2vs0mg"},{"bike_id":"8681189a-c5a2-4458-b6c1-95a6506a132e","system_id":"levelo_inurba_marseille","lat":43.27937,"lon":5.41037,"is_reserved":false,"is_disabled":false,"rental_uris":{"android":"levelo://app?vid=8681189a-c5a2-4458-b6c1-95a6506a132e","ios":"levelo://app?vid=8681189a-c5a2-4458-b6c1-95a6506a132e"},"vehicle_type_id":"4","last_reported":1745618936,"current_range_meters":17600,"station_id":"ce4bhnp2rcd13ifvqh0g","pricing_plan_id":"cebpf4jnsgd1na2vs0mg"},{"bike_id":"3e1ad8a3-a958-4d00-9a56-262625ea8d0f","system_id":"levelo_inurba_marseille","lat":43.2802,"lon":5.36941,"is_reserved":false,"is_disabled":false,"rental_uris":{"android":"levelo://app?vid=3e1ad8a3-a958-4d00-9a56-262625ea8d0f","ios":"levelo://app?vid=3e1ad8a3-a958-4d00-9a56-262625ea8d0f"},"vehicle_type_id":"4","last_reported":1745618936,"current_range_meters":17600,"station_id":"ce4bha12rcd13ifvqef0","pricing_plan_id":"cebpf4jnsgd1na2vs0mg"},{"bike_id":"a36f3031-523c-46e4-8e2a-58aa9e41b580","system_id":"levelo_inurba_marseille","lat":43.3032,"lon":5.36865,"is_reserved":false,"is_disabled":false,"rental_uris":{"android":"levelo://app?vid=a36f3031-523c-46e4-8e2a-58aa9e41b580","ios":"levelo://app?vid=a36f3031-523c-46e4-8e2a-58aa9e41b580"},"vehicle_type_id":"4","last_reported":1745618936,"current_range_meters":17600,"station_id":"ce4bgqh2rcd13ifvqc5g","pricing_plan_id":"cebpf4jnsgd1na2vs0mg"},{"bike_id":"493afb8f-be2c-464d-b637-760bb92047d2","system_id":"levelo_inurba_marseille","lat":43.32654,"lon":5.41,"is_reserved":false,"is_disabled":false,"rental_uris":{"android":"levelo://app?vid=493afb8f-be2c-464d-b637-760bb92047d2","ios":"levelo://app?vid=493afb8f-be2c-464d-b637-760bb92047d2"},"vehicle_type_id":"4","last_reported":1745618936,"current_range_meters":17200,"station_id":"ce4bhpp2rcd13ifvqhgg","pricing_plan_id":"cebpf4jnsgd1na2vs0mg"},{"bike_id":"dddc405f-b2d2-447f-8255-f175193c2de5","system_id":"levelo_inurba_marseille","lat":43.32118,"lon":5.36749,"is_reserved":false,"is_disabled":false,"rental_uris":{"android":"levelo://app?vid=dddc405f-b2d2-447f-8255-f175193c2de5","ios":"levelo://app?vid=dddc405f-b2d2-447f-8255-f175193c2de5"},"vehicle_type_id":"4","last_reported":1745618936,"current_range_meters":17600,"station_id":"ce4bhrh2rcd13ifvqhug","pricing_plan_id":"cebpf4jnsgd1na2vs0mg"},{"bike_id":"5fdc0623-6c76-4064-a69a-27e877e94ecd","system_id":"levelo_inurba_marseille","lat":43.30777,"lon":5.37652,"is_reserved":false,"is_disabled":true,"rental_uris":{"android":"levelo://app?vid=5fdc0623-6c76-4064-a69a-27e877e94ecd","ios":"levelo://app?vid=5fdc0623-6c76-4064-a69a-27e877e94ecd"},"vehicle_type_id":"4","last_reported":1745618936,"current_range_meters":17600,"station_id":"","pricing_plan_id":"cebpf4jnsgd1na2vs0mg"},{"bike_id":"a18b32af-837e-4f1b-a9b1-f47fdb463774","system_id":"levelo_inurba_marseille","lat":43.33617,"lon":5.41003,"is_reserved":false,"is_disabled":false,"rental_uris":{"android":"levelo://app?vid=a18b32af-837e-4f1b-a9b1-f47fdb463774","ios":"levelo://app?vid=a18b32af-837e-4f1b-a9b1-f47fdb463774"},"vehicle_type_id":"4","last_reported":1745618936,"current_range_meters":18000,"station_id":"ce4bhqh2rcd13ifvqhmg","pricing_plan_id":"cebpf4jnsgd1na2vs0mg"},{"bike_id":"bc2652db-32ee-450e-8cc0-005a02c1f054","system_id":"levelo_inurba_marseille","lat":43.21232,"lon":5.3506,"is_reserved":false,"is_disabled":false,"rental_uris":{"android":"levelo://app?vid=bc2652db-32ee-450e-8cc0-005a02c1f054","ios":"levelo://app?vid=bc2652db-32ee-450e-8cc0-005a02c1f054"},"vehicle_type_id":"4","last_reported":1745618936,"current_range_meters":18000,"station_id":"st_cvj6sg6p6f1abm77japg","pricing_plan_id":"cebpf4jnsgd1na2vs0mg"},{"bike_id":"3859dbe1-6033-4769-8ac4-0512eb6fc672","system_id":"levelo_inurba_marseille","lat":43.26058,"lon":5.39391,"is_reserved":false,"is_disabled":false,"rental_uris":{"android":"levelo://app?vid=3859dbe1-6033-4769-8ac4-0512eb6fc672","ios":"levelo://app?vid=3859dbe1-6033-4769-8ac4-0512eb6fc672"},"vehicle_type_id":"4","last_reported":1745618936,"current_range_meters":18000,"station_id":"ce4bhh92rcd13ifvqfj0","pricing_plan_id":"cebpf4jnsgd1na2vs0mg"},{"bike_id":"3166a582-7ab7-4c7b-832d-51689d7fff23","system_id":"levelo_inurba_marseille","lat":43.25838,"lon":5.39442,"is_reserved":false,"is_disabled":false,"rental_uris":{"android":"levelo://app?vid=3166a582-7ab7-4c7b-832d-51689d7fff23","ios":"levelo://app?vid=3166a582-7ab7-4c7b-832d-51689d7fff23"},"vehicle_type_id":"4","last_reported":1745618936,"current_range_meters":18000,"station_id":"ce4bhip2rcd13ifvqft0","pricing_plan_id":"cebpf4jnsgd1na2vs0mg"},{"bike_id":"d521d05f-9184-49b3-88f8-2e47a9a358fe","system_id":"levelo_inurba_marseille","lat":43.30799,"lon":5.3817,"is_reserved":false,"is_disabled":false,"rental_uris":{"android":"levelo://app?vid=d521d05f-9184-49b3-88f8-2e47a9a358fe","ios":"levelo://app?vid=d521d05f-9184-49b3-88f8-2e47a9a358fe"},"vehicle_type_id":"4","last_reported":1745618936,"current_range_meters":18000,"station_id":"ce4bgt12rcd13ifvqce0","pricing_plan_id":"cebpf4jnsgd1na2vs0mg"},{"bike_id":"7dd260a0-acb7-4e68-ac47-8bfb485254c2","system_id":"levelo_inurba_marseille","lat":43.30638,"lon":5.40068,"is_reserved":false,"is_disabled":false,"rental_uris":{"android":"levelo://app?vid=7dd260a0-acb7-4e68-ac47-8bfb485254c2","ios":"levelo://app?vid=7dd260a0-acb7-4e68-ac47-8bfb485254c2"},"vehicle_type_id":"4","last_reported":1745618936,"current_range_meters":18000,"station_id":"ce4bh112rcd13ifvqda0","pricing_plan_id":"cebpf4jnsgd1na2vs0mg"},{"bike_id":"97918f66-e1f6-46ba-b607-06d0c06c62c4","system_id":"levelo_inurba_marseille","lat":43.2996,"lon":5.37162,"is_reserved":false,"is_disabled":false,"rental_uris":{"android":"levelo://app?vid=97918f66-e1f6-46ba-b607-06d0c06c62c4","ios":"levelo://app?vid=97918f66-e1f6-46ba-b607-06d0c06c62c4"},"vehicle_type_id":"4","last_reported":1745618936,"current_range_meters":18000,"station_id":"ce4bgr92rcd13ifvqc7g","pricing_plan_id":"cebpf4jnsgd1na2vs0mg"},{"bike_id":"2e5f0ea9-0986-4940-97d0-95e444aecc5e","system_id":"levelo_inurba_marseille","lat":43.23177,"lon":5.39989,"is_reserved":false,"is_disabled":false,"rental_uris":{"android":"levelo://app?vid=2e5f0ea9-0986-4940-97d0-95e444aecc5e","ios":"levelo://app?vid=2e5f0ea9-0986-4940-97d0-95e444aecc5e"},"vehicle_type_id":"4","last_reported":1745618936,"current_range_meters":18000,"station_id":"ce4bhn12rcd13ifvqgqg","pricing_plan_id":"cebpf4jnsgd1na2vs0mg"},{"bike_id":"85c6f3ee-356b-481a-beed-bff1a38756d8","system_id":"levelo_inurba_marseille","lat":43.298476,"lon":5.36287,"is_reserved":false,"is_disabled":false,"rental_uris":{"android":"levelo://app?vid=85c6f3ee-356b-481a-beed-bff1a38756d8","ios":"levelo://app?vid=85c6f3ee-356b-481a-beed-bff1a38756d8"},"vehicle_type_id":"4","last_reported":1745618936,"current_range_meters":18800,"station_id":"ce4bgqh2rcd13ifvqc5g","pricing_plan_id":"cebpf4jnsgd1na2vs0mg"},{"bike_id":"9ed51367-9d05-441e-bdf9-ea498ae9c58c","system_id":"levelo_inurba_marseille","lat":43.34138,"lon":5.40906,"is_reserved":false,"is_disabled":false,"rental_uris":{"android":"levelo://app?vid=9ed51367-9d05-441e-bdf9-ea498ae9c58c","ios":"levelo://app?vid=9ed51367-9d05-441e-bdf9-ea498ae9c58c"},"vehicle_type_id":"4","last_reported":1745618936,"current_range_meters":18000,"station_id":"ce4bhqh2rcd13ifvqhlg","pricing_plan_id":"cebpf4jnsgd1na2vs0mg"},{"bike_id":"8ec4e23d-1c19-470d-879c-6e0b7873e4d5","system_id":"levelo_inurba_marseille","lat":43.29019,"lon":5.38133,"is_reserved":false,"is_disabled":true,"rental_uris":{"android":"levelo://app?vid=8ec4e23d-1c19-470d-879c-6e0b7873e4d5","ios":"levelo://app?vid=8ec4e23d-1c19-470d-879c-6e0b7873e4d5"},"vehicle_type_id":"4","last_reported":1745618936,"current_range_meters":18800,"station_id":"ce4bh4p2rcd13ifvqe1g","pricing_plan_id":"cebpf4jnsgd1na2vs0mg"},{"bike_id":"4741e6af-20c0-42f4-b950-4d85a1b8cba0","system_id":"levelo_inurba_marseille","lat":43.30863,"lon":5.3791,"is_reserved":false,"is_disabled":false,"rental_uris":{"android":"levelo://app?vid=4741e6af-20c0-42f4-b950-4d85a1b8cba0","ios":"levelo://app?vid=4741e6af-20c0-42f4-b950-4d85a1b8cba0"},"vehicle_type_id":"4","last_reported":1745618936,"current_range_meters":18800,"station_id":"","pricing_plan_id":"cebpf4jnsgd1na2vs0mg"},{"bike_id":"3d8c5914-383a-4509-8539-1561f0bf8036","system_id":"levelo_inurba_marseille","lat":43.29022,"lon":5.39978,"is_reserved":false,"is_disabled":true,"rental_uris":{"android":"levelo://app?vid=3d8c5914-383a-4509-8539-1561f0bf8036","ios":"levelo://app?vid=3d8c5914-383a-4509-8539-1561f0bf8036"},"vehicle_type_id":"4","last_reported":1745618936,"current_range_meters":18800,"station_id":"ce4bh392rcd13ifvqdm0","pricing_plan_id":"cebpf4jnsgd1na2vs0mg"},{"bike_id":"29f9e921-698d-4054-bde4-c87fb4a9fbbf","system_id":"levelo_inurba_marseille","lat":43.30882,"lon":5.39627,"is_reserved":false,"is_disabled":false,"rental_uris":{"android":"levelo://app?vid=29f9e921-698d-4054-bde4-c87fb4a9fbbf","ios":"levelo://app?vid=29f9e921-698d-4054-bde4-c87fb4a9fbbf"},"vehicle_type_id":"4","last_reported":1745618936,"current_range_meters":19200,"station_id":"ce4bh012rcd13ifvqcv0","pricing_plan_id":"cebpf4jnsgd1na2vs0mg"},{"bike_id":"7c81df36-556e-4087-9ea0-2a8ff22f8de3","system_id":"levelo_inurba_marseille","lat":43.28567,"lon":5.39499,"is_reserved":false,"is_disabled":false,"rental_uris":{"android":"levelo://app?vid=7c81df36-556e-4087-9ea0-2a8ff22f8de3","ios":"levelo://app?vid=7c81df36-556e-4087-9ea0-2a8ff22f8de3"},"vehicle_type_id":"4","last_reported":1745618936,"current_range_meters":18800,"station_id":"ce4bh292rcd13ifvqdg0","pricing_plan_id":"cebpf4jnsgd1na2vs0mg"},{"bike_id":"6f9a1f90-d9c5-4aa4-9b48-32264674d376","system_id":"levelo_inurba_marseille","lat":43.27816,"lon":5.40712,"is_reserved":false,"is_disabled":false,"rental_uris":{"android":"levelo://app?vid=6f9a1f90-d9c5-4aa4-9b48-32264674d376","ios":"levelo://app?vid=6f9a1f90-d9c5-4aa4-9b48-32264674d376"},"vehicle_type_id":"4","last_reported":1745618936,"current_range_meters":18800,"station_id":"ce4bhnh2rcd13ifvqgtg","pricing_plan_id":"cebpf4jnsgd1na2vs0mg"},{"bike_id":"038a05a2-46cc-4f10-8b83-d8a2f568a058","system_id":"levelo_inurba_marseille","lat":43.29782,"lon":5.37102,"is_reserved":false,"is_disabled":false,"rental_uris":{"android":"levelo://app?vid=038a05a2-46cc-4f10-8b83-d8a2f568a058","ios":"levelo://app?vid=038a05a2-46cc-4f10-8b83-d8a2f568a058"},"vehicle_type_id":"4","last_reported":1745618936,"current_range_meters":19200,"station_id":"ce4bgop2rcd13ifvqc1g","pricing_plan_id":"cebpf4jnsgd1na2vs0mg"},{"bike_id":"e6dcba81-be06-4ef1-aa0a-0920e78d336f","system_id":"levelo_inurba_marseille","lat":43.30261,"lon":5.4008,"is_reserved":false,"is_disabled":false,"rental_uris":{"android":"levelo://app?vid=e6dcba81-be06-4ef1-aa0a-0920e78d336f","ios":"levelo://app?vid=e6dcba81-be06-4ef1-aa0a-0920e78d336f"},"vehicle_type_id":"4","last_reported":1745618936,"current_range_meters":19200,"station_id":"ce4bgvh2rcd13ifvqcs0","pricing_plan_id":"cebpf4jnsgd1na2vs0mg"},{"bike_id":"d8df706f-338f-412c-a3c5-292f2700edb3","system_id":"levelo_inurba_marseille","lat":43.29257,"lon":5.40903,"is_reserved":false,"is_disabled":false,"rental_uris":{"android":"levelo://app?vid=d8df706f-338f-412c-a3c5-292f2700edb3","ios":"levelo://app?vid=d8df706f-338f-412c-a3c5-292f2700edb3"},"vehicle_type_id":"4","last_reported":1745618936,"current_range_meters":19200,"station_id":"ce4bh192rcd13ifvqdc0","pricing_plan_id":"cebpf4jnsgd1na2vs0mg"},