{"last_updated":1718903197,"ttl":30,"version":"2.2","data":{"bikes":[{"bike_id":"d943a81a-ac35-40ff-b5dc-29fb81ec1291","system_id":"levelo_inurba_marseille","lat":43.313391,"lon":5.36706,"is_reserved":false,"is_disabled":false,"rental_uris":{"android":"levelo://app?vid=d943a81a-ac35-40ff-b5dc-29fb81ec1291","ios":"levelo://app?vid=d943a81a-ac35-40ff-b5dc-29fb81ec1291"},"vehicle_type_id":"4","last_reported":1718903198,"current_range_meters":9600,"station_id":"ce4bgr92rcd13ifvqc6g","pricing_plan_id":"cebpf4jnsgd1na2vs0mg"},{"bike_id":"bb95f306-b59f-45bf-8687-cb7735778970","system_id":"levelo_inurba_marseille","lat":43.31222,"lon":5.36852,"is_reserved":false,"is_disabled":false,"rental_uris":{"android":"levelo://app?vid=bb95f306-b59f-45bf-8687-cb7735778970","ios":"levelo://app?vid=bb95f306-b59f-45bf-8687-cb7735778970"},"vehicle_type_id":"4","last_reported":1718903198,"current_range_meters":17600,"station_id":"ce4bgl92rcd13ifvqbq0","pricing_plan_id":"cebpf4jnsgd1na2vs0mg"},{"bike_id":"2bb74573-5462-4421-8953-a6c4a4aa2ee4","system_id":"levelo_inurba_marseille","lat":43.31217,"lon":5.36868,"is_reserved":false,"is_disabled":false,"rental_uris":{"android":"levelo://app?vid=2bb74573-5462-4421-8953-a6c4a4aa2ee4","ios":"levelo://app?vid=2bb74573-5462-4421-8953-a6c4a4aa2ee4"},"vehicle_type_id":"4","last_reported":1718903198,"current_range_meters":0,"station_id":"ce4bgl92rcd13ifvqbq0","pricing_plan_id":"cebpf4jnsgd1na2vs0mg"},{"bike_id":"427aef2c-c1b3-4fcc-a0ff-87ef2d5d54ba","system_id":"levelo_inurba_marseille","lat":43.312,"lon":5.36871,"is_reserved":false,"is_disabled":false,"rental_uris":{"android":"levelo://app?vid=427aef2c-c1b3-4fcc-a0ff-87ef2d5d54ba","ios":"levelo://app?vid=427aef2c-c1b3-4fcc-a0ff-87ef2d5d54ba"},"vehicle_type_id":"4","last_reported":1718903198,"current_range_meters":0,"station_id":"ce4bgl92rcd13ifvqbq0","pricing_plan_id":"cebpf4jnsgd1na2vs0mg"},{"bike_id":"2811ab72-fa21-4ab7-96b4-c19805af3fe9","system_id":"levelo_inurba_marseille","lat":43.309076,"lon":5.368465,"is_reserved":false,"is_disabled":false,"rental_uris":{"android":"levelo://app?vid=2811ab72-fa21-4ab7-96b4-c19805af3fe9","ios":"levelo://app?vid=2811ab72-fa21-4ab7-96b4-c19805af3fe9"},"vehicle_type_id":"4","last_reported":1718903198,"current_range_meters":3200,"station_id":"ce4bgn92rcd13ifvqbvg","pricing_plan_id":"cebpf4jnsgd1na2vs0mg"},{"bike_id":"6eff4111-1219-4233-83d5-7ac87003d552","system_id":"levelo_inurba_marseille","lat":43.309039,"lon":5.371797,"is_reserved":false,"is_disabled":false,"rental_uris":{"android":"levelo://app?vid=6eff4111-1219-4233-83d5-7ac87003d552","ios":"levelo://app?vid=6eff4111-1219-4233-83d5-7ac87003d552"},"vehicle_type_id":"4","last_reported":1718903198,"current_range_meters":8800,"station_id":"ce4bguh2rcd13ifvqckg","pricing_plan_id":"cebpf4jnsgd1na2vs0mg"},{"bike_id":"b1464667-63cf-42ea-952c-a60cce3c1224","system_id":"levelo_inurba_marseille","lat":43.30881,"lon":5.37197,"is_reserved":false,"is_disabled":false,"rental_uris":{"android":"levelo://app?vid=b1464667-63cf-42ea-952c-a60cce3c1224","ios":"levelo://app?vid=b1464667-63cf-42ea-952c-a60cce3c1224"},"vehicle_type_id":"4","last_reported":1718903198,"current_range_meters":0,"station_id":"ce4bguh2rcd13ifvqckg","pricing_plan_id":"cebpf4jnsgd1na2vs0mg"},{"bike_id":"9f343050-7df0-4de3-9996-a3657976266e","system_id":"levelo_inurba_marseille","lat":43.316906,"lon":5.372806,"is_reserved":false,"is_disabled":false,"rental_uris":{"android":"levelo://app?vid=9f343050-7df0-4de3-9996-a3657976266e","ios":"levelo://app?vid=9f343050-7df0-4de3-9996-a3657976266e"},"vehicle_type_id":"4","last_reported":1718903198,"current_range_meters":25200,"station_id":"","pricing_plan_id":"cebpf4jnsgd1na2vs0mg"},{"bike_id":"202fb2e5-89ca-4538-8bb7-cdb63339fd18","system_id":"levelo_inurba_marseille","lat":43.305606,"lon":5.365601,"is_reserved":false,"is_disabled":false,"rental_uris":{"android":"levelo://app?vid=202fb2e5-89ca-4538-8bb7-cdb63339fd18","ios":"levelo://app?vid=202fb2e5-89ca-4538-8bb7-cdb63339fd18"},"vehicle_type_id":"4","last_reported":1718903198,"current_range_meters":31200,"station_id":"ce4bgs12rcd13ifvqcag","pricing_plan_id":"cebpf4jnsgd1na2vs0mg"},{"bike_id":"d95ed3f7-4f66-43a5-b342-64a5c6ad9c56","system_id":"levelo_inurba_marseille","lat":43.305456,"lon":5.367019,"is_reserved":false,"is_disabled":false,"rental_uris":{"android":"levelo://app?vid=d95ed3f7-4f66-43a5-b342-64a5c6ad9c56","ios":"levelo://app?vid=d95ed3f7-4f66-43a5-b342-64a5c6ad9c56"},"vehicle_type_id":"4","last_reported":1718903198,"current_range_meters":0,"station_id":"ce4bgrp2rcd13ifvqc9g","pricing_plan_id":"cebpf4jnsgd1na2vs0mg"},{"bike_id":"c828fa09-6b31-4d09-a905-bb6cbc2db93a","system_id":"levelo_inurba_marseille","lat":43.30537,"lon":5.367345,"is_reserved":false,"is_disabled":false,"rental_uris":{"android":"levelo://app?vid=c828fa09-6b31-4d09-a905-bb6cbc2db93a","ios":"levelo://app?vid=c828fa09-6b31-4d09-a905-bb6cbc2db93a"},"vehicle_type_id":"4","last_reported":1718903198,"current_range_meters":3200,"station_id":"ce4bgrp2rcd13ifvqc9g","pricing_plan_id":"cebpf4jnsgd1na2vs0mg"},{"bike_id":"21bcb11a-33ac-4302-a9ba-5bf81979a605","system_id":"levelo_inurba_marseille","lat":43.305368,"lon":5.367343,"is_reserved":false,"is_disabled":false,"rental_uris":{"android":"levelo://app?vid=21bcb11a-33ac-4302-a9ba-5bf81979a605","ios":"levelo://app?vid=21bcb11a-33ac-4302-a9ba-5bf81979a605"},"vehicle_type_id":"4","last_reported":1718903198,"current_range_meters":13200,"station_id":"ce4bgrp2rcd13ifvqc9g","pricing_plan_id":"cebpf4jnsgd1na2vs0mg"},{"bike_id":"dfcffc68-9996-4e83-900a-f82e73d3a59e","system_id":"levelo_inurba_marseille","lat":43.305989,"lon":5.37225,"is_reserved":false,"is_disabled":false,"rental_uris":{"android":"levelo://app?vid=dfcffc68-9996-4e83-900a-f82e73d3a59e","ios":"levelo://app?vid=dfcffc68-9996-4e83-900a-f82e73d3a59e"},"vehicle_type_id":"4","last_reported":1718903198,"current_range_meters":3600,"station_id":"ce4bgqh2rcd13ifvqc4g","pricing_plan_id":"cebpf4jnsgd1na2vs0mg"},{"bike_id":"01bbef72-37be-4443-9c26-d6436ba59a89","system_id":"levelo_inurba_marseille","lat":43.305989,"lon":5.37225,"is_reserved":false,"is_disabled":false,"rental_uris":{"android":"levelo://app?vid=01bbef72-37be-4443-9c26-d6436ba59a89","ios":"levelo://app?vid=01bbef72-37be-4443-9c26-d6436ba59a89"},"vehicle_type_id":"4","last_reported":1718903198,"current_range_meters":0,"station_id":"ce4bgqh2rcd13ifvqc4g","pricing_plan_id":"cebpf4jnsgd1na2vs0mg"},{"bike_id":"e49e6dc0-ce43-4c84-b5f2-6d918ef0cf1c","system_id":"levelo_inurba_marseille","lat":43.311206,"lon":5.377607,"is_reserved":false,"is_disabled":false,"rental_uris":{"android":"levelo://app?vid=e49e6dc0-ce43-4c84-b5f2-6d918ef0cf1c","ios":"levelo://app?vid=e49e6dc0-ce43-4c84-b5f2-6d918ef0cf1c"},"vehicle_type_id":"4","last_reported":1718903198,"current_range_meters":0,"station_id":"ce4bgt92rcd13ifvqcg0","pricing_plan_id":"cebpf4jnsgd1na2vs0mg"},{"bike_id":"2002f541-1d31-43d1-b73f-40b25358f82d","system_id":"levelo_inurba_marseille","lat":43.311125,"lon":5.377624,"is_reserved":false,"is_disabled":false,"rental_uris":{"android":"levelo://app?vid=2002f541-1d31-43d1-b73f-40b25358f82d","ios":"levelo://app?vid=2002f541-1d31-43d1-b73f-40b25358f82d"},"vehicle_type_id":"4","last_reported":1718903198,"current_range_meters":6800,"station_id":"ce4bgt92rcd13ifvqcg0","pricing_plan_id":"cebpf4jnsgd1na2vs0mg"},{"bike_id":"82e40736-9d1d-4c2d-ba59-9939da052b28","system_id":"levelo_inurba_marseille","lat":43.307945,"lon":5.376487,"is_reserved":false,"is_disabled":false,"rental_uris":{"android":"levelo://app?vid=82e40736-9d1d-4c2d-ba59-9939da052b28","ios":"levelo://app?vid=82e40736-9d1d-4c2d-ba59-9939da052b28"},"vehicle_type_id":"4","last_reported":1718903198,"current_range_meters":3600,"station_id":"ce4bgv92rcd13ifvqcq0","pricing_plan_id":"cebpf4jnsgd1na2vs0mg"},{"bike_id":"6c4fd9ad-0623-40dc-9362-5aab830786ba","system_id":"levelo_inurba_marseille","lat":43.307945,"lon":5.376487,"is_reserved":false,"is_disabled":false,"rental_uris":{"android":"levelo://app?vid=6c4fd9ad-0623-40dc-9362-5aab830786ba","ios":"levelo://app?vid=6c4fd9ad-0623-40dc-9362-5aab830786ba"},"vehicle_type_id":"4","last_reported":1718903198,"current_range_meters":22000,"station_id":"ce4bgv92rcd13ifvqcq0","pricing_plan_id":"cebpf4jnsgd1na2vs0mg"},{"bike_id":"fbf120eb-1bd8-401b-b5ce-d47b69d525d9","system_id":"levelo_inurba_marseille","lat":43.30785,"lon":5.37653,"is_reserved":false,"is_disabled":false,"rental_uris":{"android":"levelo://app?vid=fbf120eb-1bd8-401b-b5ce-d47b69d525d9","ios":"levelo://app?vid=fbf120eb-1bd8-401b-b5ce-d47b69d525d9"},"vehicle_type_id":"4","last_reported":1718903198,"current_range_meters":0,"station_id":"ce4bgv92rcd13ifvqcq0","pricing_plan_id":"cebpf4jnsgd1na2vs0mg"},{"bike_id":"946f227d-b481-4cae-969a-a997f610d847","system_id":"levelo_inurba_marseille","lat":43.307945,"lon":5.376487,"is_reserved":false,"is_disabled":false,"rental_uris":{"android":"levelo://app?vid=946f227d-b481-4cae-969a-a997f610d847","ios":"levelo://app?vid=946f227d-b481-4cae-969a-a997f610d847"},"vehicle_type_id":"4","last_reported":1718903198,"current_range_meters":2800,"station_id":"ce4bgv92rcd13ifvqcq0","pricing_plan_id":"cebpf4jnsgd1na2vs0mg"},{"bike_id":"ee4bb40c-191f-47ab-954e-7e81c7c6957c","system_id":"levelo_inurba_marseille","lat":43.307945,"lon":5.376487,"is_reserved":false,"is_disabled":false,"rental_uris":{"android":"levelo://app?vid=ee4bb40c-191f-47ab-954e-7e81c7c6957c","ios":"levelo://app?vid=ee4bb40c-191f-47ab-954e-7e81c7c6957c"},"vehicle_type_id":"4","last_reported":1718903198,"current_range_meters":12000,"station_id":"ce4bgv92rcd13ifvqcq0","pricing_plan_id":"cebpf4jnsgd1na2vs0mg"},{"bike_id":"e0b6479b-3ac7-46b7-92f8-893aa0531663","system_id":"levelo_inurba_marseille","lat":43.317075,"lon":5.377367,"is_reserved":false,"is_disabled":false,"rental_uris":{"android":"levelo://app?vid=e0b6479b-3ac7-46b7-92f8-893aa0531663","ios":"levelo://app?vid=e0b6479b-3ac7-46b7-92f8-893aa0531663"},"vehicle_type_id":"4","last_reported":1718903198,"current_range_meters":7600,"station_id":"ce4bgth2rcd13ifvqch0","pricing_plan_id":"cebpf4jnsgd1na2vs0mg"},{"bike_id":"0c865e34-9fb7-46c4-a7ee-397ee7b1fdaa","system_id":"levelo_inurba_marseille","lat":43.317075,"lon":5.377367,"is_reserved":false,"is_disabled":false,"rental_uris":{"android":"levelo://app?vid=0c865e34-9fb7-46c4-a7ee-397ee7b1fdaa","ios":"levelo://app?vid=0c865e34-9fb7-46c4-a7ee-397ee7b1fdaa"},"vehicle_type_id":"4","last_reported":1718903198,"current_range_meters":22000,"station_id":"ce4bgth2rcd13ifvqch0","pricing_plan_id":"cebpf4jnsgd1na2vs0mg"},{"bike_id":"7d6f3434-5758-4df6-877f-cf72fba6038d","system_id":"levelo_inurba_marseille","lat":43.317075,"lon":5.377367,"is_reserved":false,"is_disabled":false,"rental_uris":{"android":"levelo://app?vid=7d6f3434-5758-4df6-877f-cf72fba6038d","ios":"levelo://app?vid=7d6f3434-5758-4df6-877f-cf72fba6038d"},"vehicle_type_id":"4","last_reported":1718903198,"current_range_meters":23200,"station_id":"ce4bgth2rcd13ifvqch0","pricing_plan_id":"cebpf4jnsgd1na2vs0mg"},{"bike_id":"20f31c62-307b-4c16-93b6-6fcc5accd677","system_id":"levelo_inurba_marseille","lat":43.303257,"lon":5.364493,"is_reserved":false,"is_disabled":false,"rental_uris":{"android":"levelo://app?vid=20f31c62-307b-4c16-93b6-6fcc5accd677","ios":"levelo://app?vid=20f31c62-307b-4c16-93b6-6fcc5accd677"},"vehicle_type_id":"4","last_reported":1718903198,"current_range_meters":16400,"station_id":"","pricing_plan_id":"cebpf4jnsgd1na2vs0mg"},{"bike_id":"22b3dbde-496a-4157-bd1a-ddf8a6b5c649","system_id":"levelo_inurba_marseille","lat":43.3153,"lon":5.38034,"is_reserved":false,"is_disabled":false,"rental_uris":{"android":"levelo://app?vid=22b3dbde-496a-4157-bd1a-ddf8a6b5c649","ios":"levelo://app?vid=22b3dbde-496a-4157-bd1a-ddf8a6b5c649"},"vehicle_type_id":"4","last_reported":1718903198,"current_range_meters":3200,"station_id":"ce4bhsp2rcd13ifvqi50","pricing_plan_id":"cebpf4jnsgd1na2vs0mg"},{"bike_id":"1bbcced6-e95e-4e3e-877b-0a4d48ace35d","system_id":"levelo_inurba_marseille","lat":43.315289,"lon":5.380349,"is_reserved":false,"is_disabled":false,"rental_uris":{"android":"levelo://app?vid=1bbcced6-e95e-4e3e-877b-0a4d48ace35d","ios":"levelo://app?vid=1bbcced6-e95e-4e3e-877b-0a4d48ace35d"},"vehicle_type_id":"4","last_reported":1718903198,"current_range_meters":20000,"station_id":"ce4bhsp2rcd13ifvqi50","pricing_plan_id":"cebpf4jnsgd1na2vs0mg"},{"bike_id":"d47b702c-0c72-4fd5-91be-fcbad7819215","system_id":"levelo_inurba_marseille","lat":43.315289,"lon":5.380349,"is_reserved":false,"is_disabled":false,"rental_uris":{"android":"levelo://app?vid=d47b702c-0c72-4fd5-91be-fcbad7819215","ios":"levelo://app?vid=d47b702c-0c72-4fd5-91be-fcbad7819215"},"vehicle_type_id":"4","last_reported":1718903198,"current_range_meters":29200,"station_id":"ce4bhsp2rcd13ifvqi50","pricing_plan_id":"cebpf4jnsgd1na2vs0mg"},{"bike_id":"1565ba7c-8d99-49f2-baea-205ef339fcad","system_id":"levelo_inurba_marseille","lat":43.308012,"lon":5.381511,"is_reserved":false,"is_disabled":false,"rental_uris":{"android":"levelo://app?vid=1565ba7c-8d99-49f2-baea-205ef339fcad","ios":"levelo://app?vid=1565ba7c-8d99-49f2-baea-205ef339fcad"},"vehicle_type_id":"4","last_reported":1718903198,"current_range_meters":19200,"station_id":"ce4bgt12rcd13ifvqce0","pricing_plan_id":"cebpf4jnsgd1na2vs0mg"},{"bike_id":"5c769f3a-99f9-4daf-86f0-7997305ad55c","system_id":"levelo_inurba_marseille","lat":43.324771,"lon":5.36557,"is_reserved":false,"is_disabled":false,"rental_uris":{"android":"levelo://app?vid=5c769f3a-99f9-4daf-86f0-7997305ad55c","ios":"levelo://app?vid=5c769f3a-99f9-4daf-86f0-7997305ad55c"},"vehicle_type_id":"4","last_reported":1718903198,"current_range_meters":4000,"station_id":"ce4bhs12rcd13ifvqhvg","pricing_plan_id":"cebpf4jnsgd1na2vs0mg"},{"bike_id":"59622d71-409f-4ca9-85ba-381f549a7bdd","system_id":"levelo_inurba_marseille","lat":43.324771,"lon":5.36557,"is_reserved":false,"is_disabled":false,"rental_uris":{"android":"levelo://app?vid=59622d71-409f-4ca9-85ba-381f549a7bdd","ios":"levelo://app?vid=59622d71-409f-4ca9-85ba-381f549a7bdd"},"vehicle_type_id":"4","last_reported":1718903198,"current_range_meters":12400,"station_id":"ce4bhs12rcd13ifvqhvg","pricing_plan_id":"cebpf4jnsgd1na2vs0mg"},{"bike_id":"cfaa6e1d-3fa1-4764-a63a-5202cd61cdcc","system_id":"levelo_inurba_marseille","lat":43.324849,"lon":5.365714,"is_reserved":false,"is_disabled":false,"rental_uris":{"android":"levelo://app?vid=cfaa6e1d-3fa1-4764-a63a-5202cd61cdcc","ios":"levelo://app?vid=cfaa6e1d-3fa1-4764-a63a-5202cd61cdcc"},"vehicle_type_id":"4","last_reported":1718903198,"current_range_meters":0,"station_id":"ce4bhs12rcd13ifvqhvg","pricing_plan_id":"cebpf4jnsgd1na2vs0mg"},{"bike_id":"c0dcf0b4-440e-4022-a259-1139d270e182","system_id":"levelo_inurba_marseille","lat":43.324771,"lon":5.36557,"is_reserved":false,"is_disabled":false,"rental_uris":{"android":"levelo://app?vid=c0dcf0b4-440e-4022-a259-1139d270e182","ios":"levelo://app?vid=c0dcf0b4-440e-4022-a259-1139d270e182"},"vehicle_type_id":"4","last_reported":1718903198,"current_range_meters":13600,"station_id":"ce4bhs12rcd13ifvqhvg","pricing_plan_id":"cebpf4jnsgd1na2vs0mg"},{"bike_id":"2e4eedb6-9f53-4953-9163-a76b1ba2d868","system_id":"levelo_inurba_marseille","lat":43.324771,"lon":5.36557,"is_reserved":false,"is_disabled":false,"rental_uris":{"android":"levelo://app?vid=2e4eedb6-9f53-4953-9163-a76b1ba2d868","ios":"levelo://app?vid=2e4eedb6-9f53-4953-9163-a76b1ba2d868"},"vehicle_type_id":"4","last_reported":1718903198,"current_range_meters":18800,"station_id":"ce4bhs12rcd13ifvqhvg","pricing_plan_id":"cebpf4jnsgd1na2vs0mg"},{"bike_id":"4ede33de-6ab2-4768-afef-1094ff40f64b","system_id":"levelo_inurba_marseille","lat":43.30284,"lon":5.377,"is_reserved":false,"is_disabled":false,"rental_uris":{"android":"levelo://app?vid=4ede33de-6ab2-4768-afef-1094ff40f64b","ios":"levelo://app?vid=4ede33de-6ab2-4768-afef-1094ff40f64b"},"vehicle_type_id":"4","last_reported":1718903198,"current_range_meters":0,"station_id":"ce4bguh2rcd13ifvqcj0","pricing_plan_id":"cebpf4jnsgd1na2vs0mg"},{"bike_id":"c327bfe2-d7b2-4d1f-b19a-5f13c638b187","system_id":"levelo_inurba_marseille","lat":43.313571,"lon":5.384829,"is_reserved":false,"is_disabled":false,"rental_uris":{"android":"levelo://app?vid=c327bfe2-d7b2-4d1f-b19a-5f13c638b187","ios":"levelo://app?vid=c327bfe2-d7b2-4d1f-b19a-5f13c638b187"},"vehicle_type_id":"4","last_reported":1718903198,"current_range_meters":4000,"station_id":"ce4bgt92rcd13ifvqcf0","pricing_plan_id":"cebpf4jnsgd1na2vs0mg"},{"bike_id":"53d59ec5-e5a8-4f5f-9606-82673f79865c","system_id":"levelo_inurba_marseille","lat":43.31368,"lon":5.38501,"is_reserved":false,"is_disabled":false,"rental_uris":{"android":"levelo://app?vid=53d59ec5-e5a8-4f5f-9606-82673f79865c","ios":"levelo://app?vid=53d59ec5-e5a8-4f5f-9606-82673f79865c"},"vehicle_type_id":"4","last_reported":1718903198,"current_range_meters":5200,"station_id":"ce4bgt92rcd13ifvqcf0","pricing_plan_id":"cebpf4jnsgd1na2vs0mg"},{"bike_id":"646f8658-d111-41c2-8b45-e4b502958d75","system_id":"levelo_inurba_marseille","lat":43.313571,"lon":5.384829,"is_reserved":false,"is_disabled":false,"rental_uris":{"android":"levelo://app?vid=646f8658-d111-41c2-8b45-e4b502958d75","ios":"levelo://app?vid=646f8658-d111-41c2-8b45-e4b502958d75"},"vehicle_type_id":"4","last_reported":1718903198,"current_range_meters":21600,"station_id":"ce4bgt92rcd13ifvqcf0","pricing_plan_id":"cebpf4jnsgd1na2vs0mg"},{"bike_id":"17477fdb-7606-42c8-8720-4a40389441ef","system_id":"levelo_inurba_marseille","lat":43.29997,"lon":5.37197,"is_reserved":false,"is_disabled":false,"rental_uris":{"android":"levelo://app?vid=17477fdb-7606-42c8-8720-4a40389441ef","ios":"levelo://app?vid=17477fdb-7606-42c8-8720-4a40389441ef"},"vehicle_type_id":"4","last_reported":1718903198,"current_range_meters":28400,"station_id":"","pricing_plan_id":"cebpf4jnsgd1na2vs0mg"},{"bike_id":"e3eb0c19-c10a-42e2-ab85-ece07a61f565","system_id":"levelo_inurba_marseille","lat":43.299724,"lon":5.371829,"is_reserved":false,"is_disabled":false,"rental_uris":{"android":"levelo://app?vid=e3eb0c19-c10a-42e2-ab85-ece07a61f565","ios":"levelo://app?vid=e3eb0c19-c10a-42e2-ab85-ece07a61f565"},"vehicle_type_id":"4","last_reported":1718903198,"current_range_meters":19200,"station_id":"ce4bgr92rcd13ifvqc7g","pricing_plan_id":"cebpf4jnsgd1na2vs0mg"},{"bike_id":"e15e4da7-9263-4592-8cc1-af9dcb66ed4c","system_id":"levelo_inurba_marseille","lat":43.299724,"lon":5.371829,"is_reserved":false,"is_disabled":false,"rental_uris":{"android":"levelo://app?vid=e15e4da7-9263-4592-8cc1-af9dcb66ed4c","ios":"levelo://app?vid=e15e4da7-9263-4592-8cc1-af9dcb66ed4c"},"vehicle_type_id":"4","last_reported":1718903198,"current_range_meters":400,"station_id":"ce4bgr92rcd13ifvqc7g","pricing_plan_id":"cebpf4jnsgd1na2vs0mg"},{"bike_id":"01119858-e62d-461b-af74-d6eb87e4543b","system_id":"levelo_inurba_marseille","lat":43.299724,"lon":5.371829,"is_reserved":false,"is_disabled":false,"rental_uris":{"android":"levelo://app?vid=01119858-e62d-461b-af74-d6eb87e4543b","ios":"levelo://app?vid=01119858-e62d-461b-af74-d6eb87e4543b"},"vehicle_type_id":"4","last_reported":1718903198,"current_range_meters":3200,"station_id":"ce4bgr92rcd13ifvqc7g","pricing_plan_id":"cebpf4jnsgd1na2vs0mg"},{"bike_id":"c248f8a5-719e-4182-8ce5-95ee680e438d","system_id":"levelo_inurba_marseille","lat":43.29933,"lon":5.365505,"is_reserved":false,"is_disabled":false,"rental_uris":{"android":"levelo://app?vid=c248f8a5-719e-4182-8ce5-95ee680e438d","ios":"levelo://app?vid=c248f8a5-719e-4182-8ce5-95ee680e438d"},"vehicle_type_id":"4","last_reported":1718903198,"current_range_meters":3600,"station_id":"ce4bgm92rcd13ifvqbr0","pricing_plan_id":"cebpf4jnsgd1na2vs0mg"},{"bike_id":"51bb9bd5-f98f-4557-b532-7531014cb78a","system_id":"levelo_inurba_marseille","lat":43.299222,"lon":5.365554,"is_reserved":false,"is_disabled":false,"rental_uris":{"android":"levelo://app?vid=51bb9bd5-f98f-4557-b532-7531014cb78a","ios":"levelo://app?vid=51bb9bd5-f98f-4557-b532-7531014cb78a"},"vehicle_type_id":"4","last_reported":1718903198,"current_range_meters":14000,"station_id":"ce4bgm92rcd13ifvqbr0","pricing_plan_id":"cebpf4jnsgd1na2vs0mg"},{"bike_id":"3eacb034-6aca-4cfd-ac98-398d05344daa","system_id":"levelo_inurba_marseille","lat":43.299243,"lon":5.374807,"is_reserved":false,"is_disabled":false,"rental_uris":{"android":"levelo://app?vid=3eacb034-6aca-4cfd-ac98-398d05344daa","ios":"levelo://app?vid=3eacb034-6aca-4cfd-ac98-398d05344daa"},"vehicle_type_id":"4","last_reported":1718903198,"current_range_meters":11600,"station_id":"ce4bgjh2rcd13ifvqbg0","pricing_plan_id":"cebpf4jnsgd1na2vs0mg"},{"bike_id":"37f249b5-0ce1-4be3-9fe9-e323f7f3f157","system_id":"levelo_inurba_marseille","lat":43.305364,"lon":5.384119,"is_reserved":false,"is_disabled":false,"rental_uris":{"android":"levelo://app?vid=37f249b5-0ce1-4be3-9fe9-e323f7f3f157","ios":"levelo://app?vid=37f249b5-0ce1-4be3-9fe9-e323f7f3f157"},"vehicle_type_id":"4","last_reported":1718903198,"current_range_meters":29200,"station_id":"ce4bgg92rcd13ifvqb30","pricing_plan_id":"cebpf4jnsgd1na2vs0mg"},{"bike_id":"1c71eec4-0dc0-49ff-8ac2-9282fc769e5c","system_id":"levelo_inurba_marseille","lat":43.31169,"lon":5.38712,"is_reserved":false,"is_disabled":false,"rental_uris":{"android":"levelo://app?vid=1c71eec4-0dc0-49ff-8ac2-9282fc769e5c","ios":"levelo://app?vid=1c71eec4-0dc0-49ff-8ac2-9282fc769e5c"},"vehicle_type_id":"4","last_reported":1718903198,"current_range_meters":0,"station_id":"ce4bgv12rcd13ifvqcp0","pricing_plan_id":"cebpf4jnsgd1na2vs0mg"},{"bike_id":"af69b939-7854-4457-a500-c952aaad0c6e","system_id":"levelo_inurba_marseille","lat":43.311722,"lon":5.387247,"is_reserved":false,"is_disabled":false,"rental_uris":{"android":"levelo://app?vid=af69b939-7854-4457-a500-c952aaad0c6e","ios":"levelo://app?vid=af69b939-7854-4457-a500-c952aaad0c6e"},"vehicle_type_id":"4","last_reported":1718903198,"current_range_meters":10400,"station_id":"ce4bgv12rcd13ifvqcp0","pricing_plan_id":"cebpf4jnsgd1na2vs0mg"},{"bike_id":"8a2173b7-c23b-4d7a-9904-f38e453bcd7c","system_id":"levelo_inurba_marseille","lat":43.299243,"lon":5.374807,"is_reserved":false,"is_disabled":false,"rental_uris":{"android":"levelo://app?vid=8a2173b7-c23b-4d7a-9904-f38e453bcd7c","ios":"levelo://app?vid=8a2173b7-c23b-4d7a-9904-f38e453bcd7c"},"vehicle_type_id":"4","last_reported":1718903198,"current_range_meters":9600,"station_id":"ce4bgjh2rcd13ifvqbg0","pricing_plan_id":"cebpf4jnsgd1na2vs0mg"},{"bike_id":"6caab759-10ab-4878-935c-c05fa0fc4b3e","system_id":"levelo_inurba_marseille","lat":43.299243,"lon":5.37481,"is_reserved":false,"is_disabled":false,"rental_uris":{"android":"levelo://app?vid=6caab759-10ab-4878-935c-c05fa0fc4b3e","ios":"levelo://app?vid=6caab759-10ab-4878-935c-c05fa0fc4b3e"},"vehicle_type_id":"4","last_reported":1718903198,"current_range_meters":10400,"station_id":"ce4bgjh2rcd13ifvqbg0","pricing_plan_id":"cebpf4jnsgd1na2vs0mg"},{"bike_id":"5e690505-e0e6-415f-90bb-af7def57539a","system_id":"levelo_inurba_marseille","lat":43.297794,"lon":5.370888,"is_reserved":false,"is_disabled":false,"rental_uris":{"android":"levelo://app?vid=5e690505-e0e6-415f-90bb-af7def57539a","ios":"levelo://app?vid=5e690505-e0e6-415f-90bb-af7def57539a"},"vehicle_type_id":"4","last_reported":1718903198,"current_range_meters":0,"station_id":"ce4bgop2rcd13ifvqc1g","pricing_plan_id":"cebpf4jnsgd1na2vs0mg"},{"bike_id":"23360c64-b02e-4926-82e4-c10fe296b970","system_id":"levelo_inurba_marseille","lat":43.297794,"lon":5.370888,"is_reserved":false,"is_disabled":false,"rental_uris":{"android":"levelo://app?vid=23360c64-b02e-4926-82e4-c10fe296b970","ios":"levelo://app?vid=23360c64-b02e-4926-82e4-c10fe296b970"},"vehicle_type_id":"4","last_reported":1718903198,"current_range_meters":13600,"station_id":"ce4bgop2rcd13ifvqc1g","pricing_plan_id":"cebpf4jnsgd1na2vs0mg"},{"bike_id":"f224e267-893d-4ff3-b3cf-177f45c9071b","system_id":"levelo_inurba_marseille","lat":43.297794,"lon":5.370888,"is_reserved":false,"is_disabled":false,"rental_uris":{"android":"levelo://app?vid=f224e267-893d-4ff3-b3cf-177f45c9071b","ios":"levelo://app?vid=f224e267-893d-4ff3-b3cf-177f45c9071b"},"vehicle_type_id":"4","last_reported":1718903198,"current_range_meters":3200,"station_id":"ce4bgop2rcd13ifvqc1g","pricing_plan_id":"cebpf4jnsgd1na2vs0mg"},{"bike_id":"2179e31d-0de4-405a-bd66-b44e69e4aa47","system_id":"levelo_inurba_marseille","lat":43.297774,"lon":5.370875,"is_reserved":false,"is_disabled":false,"rental_uris":{"android":"levelo://app?vid=2179e31d-0de4-405a-bd66-b44e69e4aa47","ios":"levelo://app?vid=2179e31d-0de4-405a-bd66-b44e69e4aa47"},"vehicle_type_id":"4","last_reported":1718903198,"current_range_meters":0,"station_id":"ce4bgop2rcd13ifvqc1g","pricing_plan_id":"cebpf4jnsgd1na2vs0mg"},{"bike_id":"0f398c03-d50f-4ea4-9458-e8e5e7c9d32b","system_id":"levelo_inurba_marseille","lat":43.297794,"lon":5.370888,"is_reserved":false,"is_disabled":false,"rental_uris":{"android":"levelo://app?vid=0f398c03-d50f-4ea4-9458-e8e5e7c9d32b","ios":"levelo://app?vid=0f398c03-d50f-4ea4-9458-e8e5e7c9d32b"},"vehicle_type_id":"4","last_reported":1718903198,"current_range_meters":8000,"station_id":"ce4bgop2rcd13ifvqc1g","pricing_plan_id":"cebpf4jnsgd1na2vs0mg"},{"bike_id":"cf13c797-2132-4e3f-a823-5a2120985fae","system_id":"levelo_inurba_marseille","lat":43.322872,"lon":5.382756,"is_reserved":false,"is_disabled":false,"rental_uris":{"android":"levelo://app?vid=cf13c797-2132-4e3f-a823-5a2120985fae","ios":"levelo://app?vid=cf13c797-2132-4e3f-a823-5a2120985fae"},"vehicle_type_id":"4","last_reported":1718903198,"current_range_meters":29600,"station_id":"ce4bhr12rcd13ifvqhqg","pricing_plan_id":"cebpf4jnsgd1na2vs0mg"},{"bike_id":"2d60f173-b7ec-4bea-a90b-5611c831917a","system_id":"levelo_inurba_marseille","lat":43.322872,"lon":5.382756,"is_reserved":false,"is_disabled":false,"rental_uris":{"android":"levelo://app?vid=2d60f173-b7ec-4bea-a90b-5611c831917a","ios":"levelo://app?vid=2d60f173-b7ec-4bea-a90b-5611c831917a"},"vehicle_type_id":"4","last_reported":1718903198,"current_range_meters":13200,"station_id":"ce4bhr12rcd13ifvqhqg","pricing_plan_id":"cebpf4jnsgd1na2vs0mg"},{"bike_id":"d5075c06-0e6a-4ff4-897b-d4c592f24b68","system_id":"levelo_inurba_marseille","lat":43.297163,"lon":5.365866,"is_reserved":false,"is_disabled":false,"rental_uris":{"android":"levelo://app?vid=d5075c06-0e6a-4ff4-897b-d4c592f24b68","ios":"levelo://app?vid=d5075c06-0e6a-4ff4-897b-d4c592f24b68"},"vehicle_type_id":"4","last_reported":1718903198,"current_range_meters":8800,"station_id":"ce4bgn12rcd13ifvqbt0","pricing_plan_id":"cebpf4jnsgd1na2vs0mg"},{"bike_id":"fef4de33-ac01-4d51-a038-795128ebb8ea","system_id":"levelo_inurba_marseille","lat":43.29711,"lon":5.36613,"is_reserved":false,"is_disabled":false,"rental_uris":{"android":"levelo://app?vid=fef4de33-ac01-4d51-a038-795128ebb8ea","ios":"levelo://app?vid=fef4de33-ac01-4d51-a038-795128ebb8ea"},"vehicle_type_id":"4","last_reported":1718903198,"current_range_meters":0,"station_id":"ce4bgn12rcd13ifvqbt0","pricing_plan_id":"cebpf4jnsgd1na2vs0mg"},{"bike_id":"08453127-1d31-4d56-8b7f-d474d530b765","system_id":"levelo_inurba_marseille","lat":43.296129,"lon":5.370777,"is_reserved":false,"is_disabled":false,"rental_uris":{"android":"levelo://app?vid=08453127-1d31-4d56-8b7f-d474d530b765","ios":"levelo://app?vid=08453127-1d31-4d56-8b7f-d474d530b765"},"vehicle_type_id":"4","last_reported":1718903198,"current_range_meters":0,"station_id":"ce4bgnh2rcd13ifvqc0g","pricing_plan_id":"cebpf4jnsgd1na2vs0mg"},{"bike_id":"c0edca98-a262-48d0-b3f7-592541d39718","system_id":"levelo_inurba_marseille","lat":43.296129,"lon":5.370777,"is_reserved":false,"is_disabled":false,"rental_uris":{"android":"levelo://app?vid=c0edca98-a262-48d0-b3f7-592541d39718","ios":"levelo://app?vid=c0edca98-a262-48d0-b3f7-592541d39718"},"vehicle_type_id":"4","last_reported":1718903198,"current_range_meters":13200,"station_id":"ce4bgnh2rcd13ifvqc0g","pricing_plan_id":"cebpf4jnsgd1na2vs0mg"},{"bike_id":"c8de2fad-f0da-4a0c-8986-c285c6a80777","system_id":"levelo_inurba_marseille","lat":43.29573,"lon":5.367355,"is_reserved":false,"is_disabled":false,"rental_uris":{"android":"levelo://app?vid=c8de2fad-f0da-4a0c-8986-c285c6a80777","ios":"levelo://app?vid=c8de2fad-f0da-4a0c-8986-c285c6a80777"},"vehicle_type_id":"4","last_reported":1718903198,"current_range_meters":0,"station_id":"ce4bgph2rcd13ifvqc2g","pricing_plan_id":"cebpf4jnsgd1na2vs0mg"},{"bike_id":"a9ca2e34-6cb0-48d8-b342-8bdd36816041","system_id":"levelo_inurba_marseille","lat":43.299028,"lon":5.381509,"is_reserved":false,"is_disabled":false,"rental_uris":{"android":"levelo://app?vid=a9ca2e34-6cb0-48d8-b342-8bdd36816041","ios":"levelo://app?vid=a9ca2e34-6cb0-48d8-b342-8bdd36816041"},"vehicle_type_id":"4","last_reported":1718903198,"current_range_meters":4800,"station_id":"ce4bgj12rcd13ifvqbc0","pricing_plan_id":"cebpf4jnsgd1na2vs0mg"},{"bike_id":"e7a818d4-ff05-44f6-9144-a57d2e02aa29","system_id":"levelo_inurba_marseille","lat":43.299028,"lon":5.381509,"is_reserved":false,"is_disabled":false,"rental_uris":{"android":"levelo://app?vid=e7a818d4-ff05-44f6-9144-a57d2e02aa29","ios":"levelo://app?vid=e7a818d4-ff05-44f6-9144-a57d2e02aa29"},"vehicle_type_id":"4","last_reported":1718903198,"current_range_meters":30000,"station_id":"ce4bgj12rcd13ifvqbc0","pricing_plan_id":"cebpf4jnsgd1na2vs0mg"},{"bike_id":"14ce9f29-a11c-4665-a501-19a51b970145","system_id":"levelo_inurba_marseille","lat":43.29714,"lon":5.37701,"is_reserved":false,"is_disabled":false,"rental_uris":{"android":"levelo://app?vid=14ce9f29-a11c-4665-a501-19a51b970145","ios":"levelo://app?vid=14ce9f29-a11c-4665-a501-19a51b970145"},"vehicle_type_id":"4","last_reported":1718903198,"current_range_meters":0,"station_id":"ce4bgkh2rcd13ifvqbl0","pricing_plan_id":"cebpf4jnsgd1na2vs0mg"},{"bike_id":"3a23c008-e320-4b5e-9c34-6eddcea0b989","system_id":"levelo_inurba_marseille","lat":43.299028,"lon":5.381509,"is_reserved":false,"is_disabled":false,"rental_uris":{"android":"levelo://app?vid=3a23c008-e320-4b5e-9c34-6eddcea0b989","ios":"levelo://app?vid=3a23c008-e320-4b5e-9c34-6eddcea0b989"},"vehicle_type_id":"4","last_reported":1718903198,"current_range_meters":22400,"station_id":"ce4bgj12rcd13ifvqbc0","pricing_plan_id":"cebpf4jnsgd1na2vs0mg"},{"bike_id":"72f324e1-755c-45cb-a1dc-8ee0d0c83195","system_id":"levelo_inurba_marseille","lat":43.309589,"lon":5.390258,"is_reserved":false,"is_disabled":false,"rental_uris":{"android":"levelo://app?vid=72f324e1-755c-45cb-a1dc-8ee0d0c83195","ios":"levelo://app?vid=72f324e1-755c-45cb-a1dc-8ee0d0c83195"},"vehicle_type_id":"4","last_reported":1718903198,"current_range_meters":18400,"station_id":"ce4bgup2rcd13ifvqco0","pricing_plan_id":"cebpf4jnsgd1na2vs0mg"},{"bike_id":"248472e4-e143-46b3-bbbd-eac0a2e47df5","system_id":"levelo_inurba_marseille","lat":43.309589,"lon":5.390258,"is_reserved":false,"is_disabled":false,"rental_uris":{"android":"levelo://app?vid=248472e4-e143-46b3-bbbd-eac0a2e47df5","ios":"levelo://app?vid=248472e4-e143-46b3-bbbd-eac0a2e47df5"},"vehicle_type_id":"4","last_reported":1718903198,"current_range_meters":16800,"station_id":"ce4bgup2rcd13ifvqco0","pricing_plan_id":"cebpf4jnsgd1na2vs0mg"},{"bike_id":"9f7e0934-4745-480c-ae7e-dc92da90dc6a","system_id":"levelo_inurba_marseille","lat":43.309589,"lon":5.390258,"is_reserved":false,"is_disabled":false,"rental_uris":{"android":"levelo://app?vid=9f7e0934-4745-480c-ae7e-dc92da90dc6a","ios":"levelo://app?vid=9f7e0934-4745-480c-ae7e-dc92da90dc6a"},"vehicle_type_id":"4","last_reported":1718903198,"current_range_meters":5600,"station_id":"ce4bgup2rcd13ifvqco0","pricing_plan_id":"cebpf4jnsgd1na2vs0mg"},{"bike_id":"ffab6618-4786-4186-9df0-528077897e82","system_id":"levelo_inurba_marseille","lat":43.296921,"lon":5.376579,"is_reserved":false,"is_disabled":false,"rental_uris":{"android":"levelo://app?vid=ffab6618-4786-4186-9df0-528077897e82","ios":"levelo://app?vid=ffab6618-4786-4186-9df0-528077897e82"},"vehicle_type_id":"4","last_reported":1718903198,"current_range_meters":9600,"station_id":"ce4bgkh2rcd13ifvqbl0","pricing_plan_id":"cebpf4jnsgd1na2vs0mg"},{"bike_id":"a3067f41-78db-4b6d-babd-0e6c3ecb8d88","system_id":"levelo_inurba_marseille","lat":43.309589,"lon":5.390258,"is_reserved":false,"is_disabled":false,"rental_uris":{"android":"levelo://app?vid=a3067f41-78db-4b6d-babd-0e6c3ecb8d88","ios":"levelo://app?vid=a3067f41-78db-4b6d-babd-0e6c3ecb8d88"},"vehicle_type_id":"4","last_reported":1718903198,"current_range_meters":0,"station_id":"ce4bgup2rcd13ifvqco0","pricing_plan_id":"cebpf4jnsgd1na2vs0mg"},{"bike_id":"4e7cddfc-638f-4465-b811-fd53c8cf3941","system_id":"levelo_inurba_marseille","lat":43.317557,"lon":5.390173,"is_reserved":false,"is_disabled":false,"rental_uris":{"android":"levelo://app?vid=4e7cddfc-638f-4465-b811-fd53c8cf3941","ios":"levelo://app?vid=4e7cddfc-638f-4465-b811-fd53c8cf3941"},"vehicle_type_id":"4","last_reported":1718903198,"current_range_meters":15200,"station_id":"ce4bhqp2rcd13ifvqhng","pricing_plan_id":"cebpf4jnsgd1na2vs0mg"},{"bike_id":"6213e183-3148-40c8-8714-2c49e5d6b723","system_id":"levelo_inurba_marseille","lat":43.317557,"lon":5.390173,"is_reserved":false,"is_disabled":false,"rental_uris":{"android":"levelo://app?vid=6213e183-3148-40c8-8714-2c49e5d6b723","ios":"levelo://app?vid=6213e183-3148-40c8-8714-2c49e5d6b723"},"vehicle_type_id":"4","last_reported":1718903198,"current_range_meters":31200,"station_id":"ce4bhqp2rcd13ifvqhng","pricing_plan_id":"cebpf4jnsgd1na2vs0mg"},{"bike_id":"ce1e0183-8bdc-434a-b25c-2a689dc1e386","system_id":"levelo_inurba_marseille","lat":43.317557,"lon":5.390173,"is_reserved":false,"is_disabled":false,"rental_uris":{"android":"levelo://app?vid=ce1e0183-8bdc-434a-b25c-2a689dc1e386","ios":"levelo://app?vid=ce1e0183-8bdc-434a-b25c-2a689dc1e386"},"vehicle_type_id":"4","last_reported":1718903198,"current_range_meters":11200,"station_id":"ce4bhqp2rcd13ifvqhng","pricing_plan_id":"cebpf4jnsgd1na2vs0mg"},{"bike_id":"100123cb-dc57-4006-ab11-ae4848521cc0","system_id":"levelo_inurba_marseille","lat":43.317557,"lon":5.390173,"is_reserved":false,"is_disabled":false,"rental_uris":{"android":"levelo://app?vid=100123cb-dc57-4006-ab11-ae4848521cc0","ios":"levelo://app?vid=100123cb-dc57-4006-ab11-ae4848521cc0"},"vehicle_type_id":"4","last_reported":1718903198,"current_range_meters":25600,"station_id":"ce4bhqp2rcd13ifvqhng","pricing_plan_id":"cebpf4jnsgd1na2vs0mg"},{"bike_id":"f8423e0e-092d-4ed4-9753-a757b78c908d","system_id":"levelo_inurba_marseille","lat":43.2958,"lon":5.37511,"is_reserved":false,"is_disabled":false,"rental_uris":{"android":"levelo://app?vid=f8423e0e-092d-4ed4-9753-a757b78c908d","ios":"levelo://app?vid=f8423e0e-092d-4ed4-9753-a757b78c908d"},"vehicle_type_id":"4","last_reported":1718903198,"current_range_meters":0,"station_id":"ce4bgh92rcd13ifvqb50","pricing_plan_id":"cebpf4jnsgd1na2vs0mg"},{"bike_id":"b7b8fb15-e74e-4a52-b900-609938c3c111","system_id":"levelo_inurba_marseille","lat":43.30426,"lon":5.38882,"is_reserved":false,"is_disabled":false,"rental_uris":{"android":"levelo://app?vid=b7b8fb15-e74e-4a52-b900-609938c3c111","ios":"levelo://app?vid=b7b8fb15-e74e-4a52-b900-609938c3c111"},"vehicle_type_id":"4","last_reported":1718903198,"current_range_meters":0,"station_id":"ce4bgk12rcd13ifvqbi0","pricing_plan_id":"cebpf4jnsgd1na2vs0mg"},{"bike_id":"25c315f2-46cb-4abd-b151-429a4f0db4f4","system_id":"levelo_inurba_marseille","lat":43.304278,"lon":5.388868,"is_reserved":false,"is_disabled":false,"rental_uris":{"android":"levelo://app?vid=25c315f2-46cb-4abd-b151-429a4f0db4f4","ios":"levelo://app?vid=25c315f2-46cb-4abd-b151-429a4f0db4f4"},"vehicle_type_id":"4","last_reported":1718903198,"current_range_meters":23600,"station_id":"ce4bgk12rcd13ifvqbi0","pricing_plan_id":"cebpf4jnsgd1na2vs0mg"},{"bike_id":"b6057f30-bd22-4b88-82d1-fc9dd5dd5433","system_id":"levelo_inurba_marseille","lat":43.29783,"lon":5.38115,"is_reserved":false,"is_disabled":false,"rental_uris":{"android":"levelo://app?vid=b6057f30-bd22-4b88-82d1-fc9dd5dd5433","ios":"levelo://app?vid=b6057f30-bd22-4b88-82d1-fc9dd5dd5433"},"vehicle_type_id":"4","last_reported":1718903198,"current_range_meters":0,"station_id":"ce4bgip2rcd13ifvqbb0","pricing_plan_id":"cebpf4jnsgd1na2vs0mg"},{"bike_id":"ff8edf57-0fe2-4221-a18a-1f32d1dd79af","system_id":"levelo_inurba_marseille","lat":43.29603,"lon":5.37706,"is_reserved":false,"is_disabled":false,"rental_uris":{"android":"levelo://app?vid=ff8edf57-0fe2-4221-a18a-1f32d1dd79af","ios":"levelo://app?vid=ff8edf57-0fe2-4221-a18a-1f32d1dd79af"},"vehicle_type_id":"4","last_reported":1718903198,"current_range_meters":0,"station_id":"ce4bgi92rcd13ifvqb90","pricing_plan_id":"cebpf4jnsgd1na2vs0mg"},{"bike_id":"b986f277-f43c-4f22-9ba0-07cd753fe425","system_id":"levelo_inurba_marseille","lat":43.299724,"lon":5.384848,"is_reserved":false,"is_disabled":false,"rental_uris":{"android":"levelo://app?vid=b986f277-f43c-4f22-9ba0-07cd753fe425","ios":"levelo://app?vid=b986f277-f43c-4f22-9ba0-07cd753fe425"},"vehicle_type_id":"4","last_reported":1718903198,"current_range_meters":0,"station_id":"ce4bgj92rcd13ifvqbd0","pricing_plan_id":"cebpf4jnsgd1na2vs0mg"},{"bike_id":"bd3703ba-8cfb-46ae-8088-cd1f511f4f37","system_id":"levelo_inurba_marseille","lat":43.299707,"lon":5.384859,"is_reserved":false,"is_disabled":false,"rental_uris":{"android":"levelo://app?vid=bd3703ba-8cfb-46ae-8088-cd1f511f4f37","ios":"levelo://app?vid=bd3703ba-8cfb-46ae-8088-cd1f511f4f37"},"vehicle_type_id":"4","last_reported":1718903198,"current_range_meters":0,"station_id":"ce4bgj92rcd13ifvqbd0","pricing_plan_id":"cebpf4jnsgd1na2vs0mg"},{"bike_id":"b5636ca3-a769-4704-9809-e3248186d80c","system_id":"levelo_inurba_marseille","lat":43.299707,"lon":5.384859,"is_reserved":false,"is_disabled":false,"rental_uris":{"android":"levelo://app?vid=b5636ca3-a769-4704-9809-e3248186d80c","ios":"levelo://app?vid=b5636ca3-a769-4704-9809-e3248186d80c"},"vehicle_type_id":"4","last_reported":1718903198,"current_range_meters":0,"station_id":"ce4bgj92rcd13ifvqbd0","pricing_plan_id":"cebpf4jnsgd1na2vs0mg"},{"bike_id":"5f15a02c-57f1-4ee9-81cc-dc2d6d539a76","system_id":"levelo_inurba_marseille","lat":43.2997,"lon":5.38493,"is_reserved":false,"is_disabled":false,"rental_uris":{"android":"levelo://app?vid=5f15a02c-57f1-4ee9-81cc-dc2d6d539a76","ios":"levelo://app?vid=5f15a02c-57f1-4ee9-81cc-dc2d6d539a76"},"vehicle_type_id":"4","last_reported":1718903198,"current_range_meters":2000,"station_id":"ce4bgj92rcd13ifvqbd0","pricing_plan_id":"cebpf4jnsgd1na2vs0mg"},{"bike_id":"1e841742-bf9a-4034-a6cc-ec824bc3bc7c","system_id":"levelo_inurba_marseille","lat":43.2997,"lon":5.38497,"is_reserved":false,"is_disabled":false,"rental_uris":{"android":"levelo://app?vid=1e841742-bf9a-4034-a6cc-ec824bc3bc7c","ios":"levelo://app?vid=1e841742-bf9a-4034-a6cc-ec824bc3bc7c"},"vehicle_type_id":"4","last_reported":1718903198,"current_range_meters":0,"station_id":"ce4bgj92rcd13ifvqbd0","pricing_plan_id":"cebpf4jnsgd1na2vs0mg"},{"bike_id":"83d9ef70-beb2-45dc-85eb-4ede054c6483","system_id":"levelo_inurba_marseille","lat":43.299724,"lon":5.384848,"is_reserved":false,"is_disabled":false,"rental_uris":{"android":"levelo://app?vid=83d9ef70-beb2-45dc-85eb-4ede054c6483","ios":"levelo://app?vid=83d9ef70-beb2-45dc-85eb-4ede054c6483"},"vehicle_type_id":"4","last_reported":1718903198,"current_range_meters":1200,"station_id":"ce4bgj92rcd13ifvqbd0","pricing_plan_id":"cebpf4jnsgd1na2vs0mg"},{"bike_id":"9c173887-6896-49e1-a5bc-ecace770d4bb","system_id":"levelo_inurba_marseille","lat":43.302992,"lon":5.392136,"is_reserved":false,"is_disabled":false,"rental_uris":{"android":"levelo://app?vid=9c173887-6896-49e1-a5bc-ecace770d4bb","ios":"levelo://app?vid=9c173887-6896-49e1-a5bc-ecace770d4bb"},"vehicle_type_id":"4","last_reported":1718903198,"current_range_meters":0,"station_id":"ce4bgkh2rcd13ifvqbk0","pricing_plan_id":"cebpf4jnsgd1na2vs0mg"},{"bike_id":"5b61e5b0-8eb7-489f-8fe9-8a00a32f99ab","system_id":"levelo_inurba_marseille","lat":43.299633,"lon":5.384943,"is_reserved":false,"is_disabled":false,"rental_uris":{"android":"levelo://app?vid=5b61e5b0-8eb7-489f-8fe9-8a00a32f99ab","ios":"levelo://app?vid=5b61e5b0-8eb7-489f-8fe9-8a00a32f99ab"},"vehicle_type_id":"4","last_reported":1718903198,"current_range_meters":7600,"station_id":"ce4bgj92rcd13ifvqbd0","pricing_plan_id":"cebpf4jnsgd1na2vs0mg"},{"bike_id":"ccf635d2-154c-44be-9992-baa378205cfd","system_id":"levelo_inurba_marseille","lat":43.32367,"lon":5.388836,"is_reserved":false,"is_disabled":false,"rental_uris":{"android":"levelo://app?vid=ccf635d2-154c-44be-9992-baa378205cfd","ios":"levelo://app?vid=ccf635d2-154c-44be-9992-baa378205cfd"},"vehicle_type_id":"4","last_reported":1718903198,"current_range_meters":6400,"station_id":"ce4bhqp2rcd13ifvqhog","pricing_plan_id":"cebpf4jnsgd1na2vs0mg"},{"bike_id":"54c96018-62fe-41b7-b2e2-ac35ec74615d","system_id":"levelo_inurba_marseille","lat":43.29602,"lon":5.381084,"is_reserved":false,"is_disabled":false,"rental_uris":{"android":"levelo://app?vid=54c96018-62fe-41b7-b2e2-ac35ec74615d","ios":"levelo://app?vid=54c96018-62fe-41b7-b2e2-ac35ec74615d"},"vehicle_type_id":"4","last_reported":1718903198,"current_range_meters":20400,"station_id":"ce4bgl12rcd13ifvqbo0","pricing_plan_id":"cebpf4jnsgd1na2vs0mg"},{"bike_id":"527b14ce-58e5-4d2a-baaf-762be39e73fb","system_id":"levelo_inurba_marseille","lat":43.29305,"lon":5.37174,"is_reserved":false,"is_disabled":false,"rental_uris":{"android":"levelo://app?vid=527b14ce-58e5-4d2a-baaf-762be39e73fb","ios":"levelo://app?vid=527b14ce-58e5-4d2a-baaf-762be39e73fb"},"vehicle_type_id":"4","last_reported":1718903198,"current_range_meters":0,"station_id":"ce4bgh92rcd13ifvqb40","pricing_plan_id":"cebpf4jnsgd1na2vs0mg"},{"bike_id":"3f2f2b65-5aa1-4f62-ad38-7566cc6d327a","system_id":"levelo_inurba_marseille","lat":43.292749,"lon":5.368402,"is_reserved":false,"is_disabled":false,"rental_uris":{"android":"levelo://app?vid=3f2f2b65-5aa1-4f62-ad38-7566cc6d327a","ios":"levelo://app?vid=3f2f2b65-5aa1-4f62-ad38-7566cc6d327a"},"vehicle_type_id":"4","last_reported":1718903198,"current_range_meters":19600,"station_id":"ce4bhbp2rcd13ifvqesg","pricing_plan_id":"cebpf4jnsgd1na2vs0mg"},{"bike_id":"d73f19af-5349-425f-8a29-fc0e188e0119","system_id":"levelo_inurba_marseille","lat":43.305994,"lon":5.393687,"is_reserved":false,"is_disabled":false,"rental_uris":{"android":"levelo://app?vid=d73f19af-5349-425f-8a29-fc0e188e0119","ios":"levelo://app?vid=d73f19af-5349-425f-8a29-fc0e188e0119"},"vehicle_type_id":"4","last_reported":1718903198,"current_range_meters":22000,"station_id":"ce4bh0p2rcd13ifvqd80","pricing_plan_id":"cebpf4jnsgd1na2vs0mg"},{"bike_id":"830af704-719f-4748-a4eb-bfe4e87c5568","system_id":"levelo_inurba_marseille","lat":43.29295,"lon":5.37465,"is_reserved":false,"is_disabled":false,"rental_uris":{"android":"levelo://app?vid=830af704-719f-4748-a4eb-bfe4e87c5568","ios":"levelo://app?vid=830af704-719f-4748-a4eb-bfe4e87c5568"},"vehicle_type_id":"4","last_reported":1718903198,"current_range_meters":0,"station_id":"ce4bgi12rcd13ifvqb70","pricing_plan_id":"cebpf4jnsgd1na2vs0mg"},{"bike_id":"9e98e0df-b501-40b9-8e71-bf16b825bad0","system_id":"levelo_inurba_marseille","lat":43.305994,"lon":5.393687,"is_reserved":false,"is_disabled":false,"rental_uris":{"android":"levelo://app?vid=9e98e0df-b501-40b9-8e71-bf16b825bad0","ios":"levelo://app?vid=9e98e0df-b501-40b9-8e71-bf16b825bad0"},"vehicle_type_id":"4","last_reported":1718903198,"current_range_meters":0,"station_id":"ce4bh0p2rcd13ifvqd80","pricing_plan_id":"cebpf4jnsgd1na2vs0mg"},{"bike_id":"28186e11-e7db-49b5-ac70-d0c9be4fb24a","system_id":"levelo_inurba_marseille","lat":43.30599,"lon":5.39365,"is_reserved":false,"is_disabled":false,"rental_uris":{"android":"levelo://app?vid=28186e11-e7db-49b5-ac70-d0c9be4fb24a","ios":"levelo://app?vid=28186e11-e7db-49b5-ac70-d0c9be4fb24a"},"vehicle_type_id":"4","last_reported":1718903198,"current_range_meters":0,"station_id":"ce4bh0p2rcd13ifvqd80","pricing_plan_id":"cebpf4jnsgd1na2vs0mg"},{"bike_id":"3cbcd1f9-0475-424f-85fc-a718252173df","system_id":"levelo_inurba_marseille","lat":43.303,"lon":5.39207,"is_reserved":false,"is_disabled":false,"rental_uris":{"android":"levelo://app?vid=3cbcd1f9-0475-424f-85fc-a718252173df","ios":"levelo://app?vid=3cbcd1f9-0475-424f-85fc-a718252173df"},"vehicle_type_id":"4","last_reported":1718903198,"current_range_meters":10000,"station_id":"ce4bgkh2rcd13ifvqbk0","pricing_plan_id":"cebpf4jnsgd1na2vs0mg"},{"bike_id":"aa8733db-cfac-40b4-85c8-057e09b2d731","system_id":"levelo_inurba_marseille","lat":43.303002,"lon":5.392142,"is_reserved":false,"is_disabled":false,"rental_uris":{"android":"levelo://app?vid=aa8733db-cfac-40b4-85c8-057e09b2d731","ios":"levelo://app?vid=aa8733db-cfac-40b4-85c8-057e09b2d731"},"vehicle_type_id":"4","last_reported":1718903198,"current_range_meters":400,"station_id":"ce4bgkh2rcd13ifvqbk0","pricing_plan_id":"cebpf4jnsgd1na2vs0mg"},{"bike_id":"c9172631-07a2-4606-bd3b-5e35f7afc6e7","system_id":"levelo_inurba_marseille","lat":43.30312,"lon":5.39231,"is_reserved":false,"is_disabled":false,"rental_uris":{"android":"levelo://app?vid=c9172631-07a2-4606-bd3b-5e35f7afc6e7","ios":"levelo://app?vid=c9172631-07a2-4606-bd3b-5e35f7afc6e7"},"vehicle_type_id":"4","last_reported":1718903198,"current_range_meters":2800,"station_id":"ce4bgkh2rcd13ifvqbk0","pricing_plan_id":"cebpf4jnsgd1na2vs0mg"},{"bike_id":"d09b448e-629c-4f71-924a-db071f9c20f1","system_id":"levelo_inurba_marseille","lat":43.2936,"lon":5.37835,"is_reserved":false,"is_disabled":false,"rental_uris":{"android":"levelo://app?vid=d09b448e-629c-4f71-924a-db071f9c20f1","ios":"levelo://app?vid=d09b448e-629c-4f71-924a-db071f9c20f1"},"vehicle_type_id":"4","last_reported":1718903198,"current_range_meters":27200,"station_id":"ce4bgjh2rcd13ifvqbf0","pricing_plan_id":"cebpf4jnsgd1na2vs0mg"},{"bike_id":"e48155a6-5858-43ce-aee2-de6c5c664d70","system_id":"levelo_inurba_marseille","lat":43.30288,"lon":5.39222,"is_reserved":false,"is_disabled":false,"rental_uris":{"android":"levelo://app?vid=e48155a6-5858-43ce-aee2-de6c5c664d70","ios":"levelo://app?vid=e48155a6-5858-43ce-aee2-de6c5c664d70"},"vehicle_type_id":"4","last_reported":1718903198,"current_range_meters":27600,"station_id":"ce4bgkh2rcd13ifvqbk0","pricing_plan_id":"cebpf4jnsgd1na2vs0mg"},{"bike_id":"7beea72d-c3e2-479a-8347-c39161adbf39","system_id":"levelo_inurba_marseille","lat":43.30329,"lon":5.392575,"is_reserved":false,"is_disabled":false,"rental_uris":{"android":"levelo://app?vid=7beea72d-c3e2-479a-8347-c39161adbf39","ios":"levelo://app?vid=7beea72d-c3e2-479a-8347-c39161adbf39"},"vehicle_type_id":"4","last_reported":1718903198,"current_range_meters":0,"station_id":"ce4bgkh2rcd13ifvqbk0","pricing_plan_id":"cebpf4jnsgd1na2vs0mg"},{"bike_id":"67208e14-9a46-4623-8006-e6880a8a2090","system_id":"levelo_inurba_marseille","lat":43.2936,"lon":5.37835,"is_reserved":false,"is_disabled":false,"rental_uris":{"android":"levelo://app?vid=67208e14-9a46-4623-8006-e6880a8a2090","ios":"levelo://app?vid=67208e14-9a46-4623-8006-e6880a8a2090"},"vehicle_type_id":"4","last_reported":1718903198,"current_range_meters":400,"station_id":"ce4bgjh2rcd13ifvqbf0","pricing_plan_id":"cebpf4jnsgd1na2vs0mg"},{"bike_id":"ce0db364-5365-4ab9-85ff-09925473841a","system_id":"levelo_inurba_marseille","lat":43.292311,"lon":5.360731,"is_reserved":false,"is_disabled":false,"rental_uris":{"android":"levelo://app?vid=ce0db364-5365-4ab9-85ff-09925473841a","ios":"levelo://app?vid=ce0db364-5365-4ab9-85ff-09925473841a"},"vehicle_type_id":"4","last_reported":1718903198,"current_range_meters":11600,"station_id":"ce4bhbh2rcd13ifvqeqg","pricing_plan_id":"cebpf4jnsgd1na2vs0mg"},{"bike_id":"d06b0494-1835-462d-ba91-6c29b90ac62f","system_id":"levelo_inurba_marseille","lat":43.292311,"lon":5.360731,"is_reserved":false,"is_disabled":false,"rental_uris":{"android":"levelo://app?vid=d06b0494-1835-462d-ba91-6c29b90ac62f","ios":"levelo://app?vid=d06b0494-1835-462d-ba91-6c29b90ac62f"},"vehicle_type_id":"4","last_reported":1718903198,"current_range_meters":18800,"station_id":"ce4bhbh2rcd13ifvqeqg","pricing_plan_id":"cebpf4jnsgd1na2vs0mg"},{"bike_id":"6d56967e-4c02-44de-8b0a-022d901eb480","system_id":"levelo_inurba_marseille","lat":43.292311,"lon":5.360731,"is_reserved":false,"is_disabled":false,"rental_uris":{"android":"levelo://app?vid=6d56967e-4c02-44de-8b0a-022d901eb480","ios":"levelo://app?vid=6d56967e-4c02-44de-8b0a-022d901eb480"},"vehicle_type_id":"4","last_reported":1718903198,"current_range_meters":0,"station_id":"ce4bhbh2rcd13ifvqeqg","pricing_plan_id":"cebpf4jnsgd1na2vs0mg"},{"bike_id":"f1d3648d-f16c-4250-bf03-8cb6a43b626c","system_id":"levelo_inurba_marseille","lat":43.29224,"lon":5.36069,"is_reserved":false,"is_disabled":false,"rental_uris":{"android":"levelo://app?vid=f1d3648d-f16c-4250-bf03-8cb6a43b626c","ios":"levelo://app?vid=f1d3648d-f16c-4250-bf03-8cb6a43b626c"},"vehicle_type_id":"4","last_reported":1718903198,"current_range_meters":0,"station_id":"ce4bhbh2rcd13ifvqeqg","pricing_plan_id":"cebpf4jnsgd1na2vs0mg"},{"bike_id":"5e9fe318-c58e-449a-b4fc-ed0fdd07d05e","system_id":"levelo_inurba_marseille","lat":43.292311,"lon":5.360731,"is_reserved":false,"is_disabled":false,"rental_uris":{"android":"levelo://app?vid=5e9fe318-c58e-449a-b4fc-ed0fdd07d05e","ios":"levelo://app?vid=5e9fe318-c58e-449a-b4fc-ed0fdd07d05e"},"vehicle_type_id":"4","last_reported":1718903198,"current_range_meters":18000,"station_id":"ce4bhbh2rcd13ifvqeqg","pricing_plan_id":"cebpf4jnsgd1na2vs0mg"},{"bike_id":"19d8f916-5430-45de-990f-77e41a5ab8aa","system_id":"levelo_inurba_marseille","lat":43.29225,"lon":5.36051,"is_reserved":false,"is_disabled":false,"rental_uris":{"android":"levelo://app?vid=19d8f916-5430-45de-990f-77e41a5ab8aa","ios":"levelo://app?vid=19d8f916-5430-45de-990f-77e41a5ab8aa"},"vehicle_type_id":"4","last_reported":1718903198,"current_range_meters":25600,"station_id":"ce4bhbh2rcd13ifvqeqg","pricing_plan_id":"cebpf4jnsgd1na2vs0mg"},{"bike_id":"49aab364-a7e1-4cfa-b5e1-e7faff590ac5","system_id":"levelo_inurba_marseille","lat":43.298764,"lon":5.388973,"is_reserved":false,"is_disabled":false,"rental_uris":{"android":"levelo://app?vid=49aab364-a7e1-4cfa-b5e1-e7faff590ac5","ios":"levelo://app?vid=49aab364-a7e1-4cfa-b5e1-e7faff590ac5"},"vehicle_type_id":"4","last_reported":1718903198,"current_range_meters":6800,"station_id":"ce4bh392rcd13ifvqdl0","pricing_plan_id":"cebpf4jnsgd1na2vs0mg"},{"bike_id":"fdc37e8f-7ba2-4599-b4cf-afcda5b448eb","system_id":"levelo_inurba_marseille","lat":43.298764,"lon":5.388973,"is_reserved":false,"is_disabled":false,"rental_uris":{"android":"levelo://app?vid=fdc37e8f-7ba2-4599-b4cf-afcda5b448eb","ios":"levelo://app?vid=fdc37e8f-7ba2-4599-b4cf-afcda5b448eb"},"vehicle_type_id":"4","last_reported":1718903198,"current_range_meters":1200,"station_id":"ce4bh392rcd13ifvqdl0","pricing_plan_id":"cebpf4jnsgd1na2vs0mg"},{"bike_id":"ec64926c-06f5-4d90-89f1-a94f85b9bf58","system_id":"levelo_inurba_marseille","lat":43.298764,"lon":5.388973,"is_reserved":false,"is_disabled":false,"rental_uris":{"android":"levelo://app?vid=ec64926c-06f5-4d90-89f1-a94f85b9bf58","ios":"levelo://app?vid=ec64926c-06f5-4d90-89f1-a94f85b9bf58"},"vehicle_type_id":"4","last_reported":1718903198,"current_range_meters":24800,"station_id":"ce4bh392rcd13ifvqdl0","pricing_plan_id":"cebpf4jnsgd1na2vs0mg"},{"bike_id":"dec3bd39-71d4-48b1-98f0-4a3f4ed80e24","system_id":"levelo_inurba_marseille","lat":43.298764,"lon":5.388973,"is_reserved":false,"is_disabled":false,"rental_uris":{"android":"levelo://app?vid=dec3bd39-71d4-48b1-98f0-4a3f4ed80e24","ios":"levelo://app?vid=dec3bd39-71d4-48b1-98f0-4a3f4ed80e24"},"vehicle_type_id":"4","last_reported":1718903198,"current_range_meters":22400,"station_id":"ce4bh392rcd13ifvqdl0","pricing_plan_id":"cebpf4jnsgd1na2vs0mg"},{"bike_id":"419556fa-1127-4b00-9264-8815bc8c01df","system_id":"levelo_inurba_marseille","lat":43.298764,"lon":5.388973,"is_reserved":false,"is_disabled":false,"rental_uris":{"android":"levelo://app?vid=419556fa-1127-4b00-9264-8815bc8c01df","ios":"levelo://app?vid=419556fa-1127-4b00-9264-8815bc8c01df"},"vehicle_type_id":"4","last_reported":1718903198,"current_range_meters":0,"station_id":"ce4bh392rcd13ifvqdl0","pricing_plan_id":"cebpf4jnsgd1na2vs0mg"},{"bike_id":"5f40f8cf-bb29-45ea-8212-c67d5e6bc44b","system_id":"levelo_inurba_marseille","lat":43.298764,"lon":5.388973,"is_reserved":false,"is_disabled":false,"rental_uris":{"android":"levelo://app?vid=5f40f8cf-bb29-45ea-8212-c67d5e6bc44b","ios":"levelo://app?vid=5f40f8cf-bb29-45ea-8212-c67d5e6bc44b"},"vehicle_type_id":"4","last_reported":1718903198,"current_range_meters":31200,"station_id":"ce4bh392rcd13ifvqdl0","pricing_plan_id":"cebpf4jnsgd1na2vs0mg"},{"bike_id":"fb6f8b1c-078d-437c-93bf-204fd9f6245f","system_id":"levelo_inurba_marseille","lat":43.291675,"lon":5.371583,"is_reserved":false,"is_disabled":false,"rental_uris":{"android":"levelo://app?vid=fb6f8b1c-078d-437c-93bf-204fd9f6245f","ios":"levelo://app?vid=fb6f8b1c-078d-437c-93bf-204fd9f6245f"},"vehicle_type_id":"4","last_reported":1718903198,"current_range_meters":14000,"station_id":"ce4bha92rcd13ifvqeh0","pricing_plan_id":"cebpf4jnsgd1na2vs0mg"},{"bike_id":"0ffd3ac6-2c0b-4a22-b045-0fed80d892df","system_id":"levelo_inurba_marseille","lat":43.292005,"lon":5.357875,"is_reserved":false,"is_disabled":false,"rental_uris":{"android":"levelo://app?vid=0ffd3ac6-2c0b-4a22-b045-0fed80d892df","ios":"levelo://app?vid=0ffd3ac6-2c0b-4a22-b045-0fed80d892df"},"vehicle_type_id":"4","last_reported":1718903198,"current_range_meters":26400,"station_id":"ce4bhb12rcd13ifvqel0","pricing_plan_id":"cebpf4jnsgd1na2vs0mg"},{"bike_id":"5bb83235-4abb-42f4-a9b5-dd559b6e5602","system_id":"levelo_inurba_marseille","lat":43.29196,"lon":5.35796,"is_reserved":false,"is_disabled":false,"rental_uris":{"android":"levelo://app?vid=5bb83235-4abb-42f4-a9b5-dd559b6e5602","ios":"levelo://app?vid=5bb83235-4abb-42f4-a9b5-dd559b6e5602"},"vehicle_type_id":"4","last_reported":1718903198,"current_range_meters":0,"station_id":"ce4bhb12rcd13ifvqel0","pricing_plan_id":"cebpf4jnsgd1na2vs0mg"},{"bike_id":"0fb0a958-8f77-43a5-a508-f71157bccdb7","system_id":"levelo_inurba_marseille","lat":43.291994,"lon":5.357886,"is_reserved":false,"is_disabled":false,"rental_uris":{"android":"levelo://app?vid=0fb0a958-8f77-43a5-a508-f71157bccdb7","ios":"levelo://app?vid=0fb0a958-8f77-43a5-a508-f71157bccdb7"},"vehicle_type_id":"4","last_reported":1718903198,"current_range_meters":22800,"station_id":"ce4bhb12rcd13ifvqel0","pricing_plan_id":"cebpf4jnsgd1na2vs0mg"},{"bike_id":"d4c453d0-4e05-4e14-bf2c-bbca72445e44","system_id":"levelo_inurba_marseille","lat":43.31332,"lon":5.39687,"is_reserved":false,"is_disabled":false,"rental_uris":{"android":"levelo://app?vid=d4c453d0-4e05-4e14-bf2c-bbca72445e44","ios":"levelo://app?vid=d4c453d0-4e05-4e14-bf2c-bbca72445e44"},"vehicle_type_id":"4","last_reported":1718903198,"current_range_meters":0,"station_id":"ce4bgvp2rcd13ifvqcu0","pricing_plan_id":"cebpf4jnsgd1na2vs0mg"},{"bike_id":"797226b6-2925-41c1-b928-b88caed9c4dd","system_id":"levelo_inurba_marseille","lat":43.309038,"lon":5.396546,"is_reserved":false,"is_disabled":false,"rental_uris":{"android":"levelo://app?vid=797226b6-2925-41c1-b928-b88caed9c4dd","ios":"levelo://app?vid=797226b6-2925-41c1-b928-b88caed9c4dd"},"vehicle_type_id":"4","last_reported":1718903198,"current_range_meters":0,"station_id":"ce4bh012rcd13ifvqcv0","pricing_plan_id":"cebpf4jnsgd1na2vs0mg"},{"bike_id":"aadb3d61-e814-4968-9e9e-9fe563160989","system_id":"levelo_inurba_marseille","lat":43.313291,"lon":5.396838,"is_reserved":false,"is_disabled":false,"rental_uris":{"android":"levelo://app?vid=aadb3d61-e814-4968-9e9e-9fe563160989","ios":"levelo://app?vid=aadb3d61-e814-4968-9e9e-9fe563160989"},"vehicle_type_id":"4","last_reported":1718903198,"current_range_meters":30400,"station_id":"ce4bgvp2rcd13ifvqcu0","pricing_plan_id":"cebpf4jnsgd1na2vs0mg"},{"bike_id":"e00c7ffe-ab0f-4990-abb3-4f62ab02c109","system_id":"levelo_inurba_marseille","lat":43.309038,"lon":5.396546,"is_reserved":false,"is_disabled":false,"rental_uris":{"android":"levelo://app?vid=e00c7ffe-ab0f-4990-abb3-4f62ab02c109","ios":"levelo://app?vid=e00c7ffe-ab0f-4990-abb3-4f62ab02c109"},"vehicle_type_id":"4","last_reported":1718903198,"current_range_meters":29600,"station_id":"ce4bh012rcd13ifvqcv0","pricing_plan_id":"cebpf4jnsgd1na2vs0mg"},{"bike_id":"00a3efa3-49fd-4692-ade2-086ea17ff8f8","system_id":"levelo_inurba_marseille","lat":43.308873,"lon":5.39647,"is_reserved":false,"is_disabled":false,"rental_uris":{"android":"levelo://app?vid=00a3efa3-49fd-4692-ade2-086ea17ff8f8","ios":"levelo://app?vid=00a3efa3-49fd-4692-ade2-086ea17ff8f8"},"vehicle_type_id":"4","last_reported":1718903198,"current_range_meters":10800,"station_id":"ce4bh012rcd13ifvqcv0","pricing_plan_id":"cebpf4jnsgd1na2vs0mg"},{"bike_id":"7171688e-9ebe-47b3-b26c-17bc5ee10c1d","system_id":"levelo_inurba_marseille","lat":43.309038,"lon":5.396546,"is_reserved":false,"is_disabled":false,"rental_uris":{"android":"levelo://app?vid=7171688e-9ebe-47b3-b26c-17bc5ee10c1d","ios":"levelo://app?vid=7171688e-9ebe-47b3-b26c-17bc5ee10c1d"},"vehicle_type_id":"4","last_reported":1718903198,"current_range_meters":22400,"station_id":"ce4bh012rcd13ifvqcv0","pricing_plan_id":"cebpf4jnsgd1na2vs0mg"},{"bike_id":"acfa956d-9e62-453d-9abc-dac8ece4d753","system_id":"levelo_inurba_marseille","lat":43.309038,"lon":5.396546,"is_reserved":false,"is_disabled":false,"rental_uris":{"android":"levelo://app?vid=acfa956d-9e62-453d-9abc-dac8ece4d753","ios":"levelo://app?vid=acfa956d-9e62-453d-9abc-dac8ece4d753"},"vehicle_type_id":"4","last_reported":1718903198,"current_range_meters":23600,"station_id":"ce4bh012rcd13ifvqcv0","pricing_plan_id":"cebpf4jnsgd1na2vs0mg"},{"bike_id":"d84e9533-ca4a-42cf-a361-f32df36636b3","system_id":"levelo_inurba_marseille","lat":43.31327,"lon":5.39698,"is_reserved":false,"is_disabled":false,"rental_uris":{"android":"levelo://app?vid=d84e9533-ca4a-42cf-a361-f32df36636b3","ios":"levelo://app?vid=d84e9533-ca4a-42cf-a361-f32df36636b3"},"vehicle_type_id":"4","last_reported":1718903198,"current_range_meters":400,"station_id":"ce4bgvp2rcd13ifvqcu0","pricing_plan_id":"cebpf4jnsgd1na2vs0mg"},{"bike_id":"436defd1-790c-4d09-9071-7c1d008fdce0","system_id":"levelo_inurba_marseille","lat":43.309038,"lon":5.396546,"is_reserved":false,"is_disabled":false,"rental_uris":{"android":"levelo://app?vid=436defd1-790c-4d09-9071-7c1d008fdce0","ios":"levelo://app?vid=436defd1-790c-4d09-9071-7c1d008fdce0"},"vehicle_type_id":"4","last_reported":1718903198,"current_range_meters":29600,"station_id":"ce4bh012rcd13ifvqcv0","pricing_plan_id":"cebpf4jnsgd1na2vs0mg"},{"bike_id":"edb42d7a-3daf-4fb3-a17f-a08f9807c1f6","system_id":"levelo_inurba_marseille","lat":43.29529,"lon":5.385581,"is_reserved":false,"is_disabled":false,"rental_uris":{"android":"levelo://app?vid=edb42d7a-3daf-4fb3-a17f-a08f9807c1f6","ios":"levelo://app?vid=edb42d7a-3daf-4fb3-a17f-a08f9807c1f6"},"vehicle_type_id":"4","last_reported":1718903198,"current_range_meters":25200,"station_id":"ce4bgih2rcd13ifvqba0","pricing_plan_id":"cebpf4jnsgd1na2vs0mg"},{"bike_id":"af596c64-3ce6-41cc-9477-d8210e4410f4","system_id":"levelo_inurba_marseille","lat":43.29537,"lon":5.38549,"is_reserved":false,"is_disabled":false,"rental_uris":{"android":"levelo://app?vid=af596c64-3ce6-41cc-9477-d8210e4410f4","ios":"levelo://app?vid=af596c64-3ce6-41cc-9477-d8210e4410f4"},"vehicle_type_id":"4","last_reported":1718903198,"current_range_meters":5200,"station_id":"ce4bgih2rcd13ifvqba0","pricing_plan_id":"cebpf4jnsgd1na2vs0mg"},{"bike_id":"79b6c4fb-a9e7-4fa9-ae5f-b2442a5de5b9","system_id":"levelo_inurba_marseille","lat":43.29529,"lon":5.385581,"is_reserved":false,"is_disabled":false,"rental_uris":{"android":"levelo://app?vid=79b6c4fb-a9e7-4fa9-ae5f-b2442a5de5b9","ios":"levelo://app?vid=79b6c4fb-a9e7-4fa9-ae5f-b2442a5de5b9"},"vehicle_type_id":"4","last_reported":1718903198,"current_range_meters":0,"station_id":"ce4bgih2rcd13ifvqba0","pricing_plan_id":"cebpf4jnsgd1na2vs0mg"},{"bike_id":"ad70e943-7e47-4cdb-b891-45396f74ab2d","system_id":"levelo_inurba_marseille","lat":43.29529,"lon":5.385581,"is_reserved":false,"is_disabled":false,"rental_uris":{"android":"levelo://app?vid=ad70e943-7e47-4cdb-b891-45396f74ab2d","ios":"levelo://app?vid=ad70e943-7e47-4cdb-b891-45396f74ab2d"},"vehicle_type_id":"4","last_reported":1718903198,"current_range_meters":22800,"station_id":"ce4bgih2rcd13ifvqba0","pricing_plan_id":"cebpf4jnsgd1na2vs0mg"},{"bike_id":"dc88dc9c-6218-42ea-a1e7-d41fb6ba3589","system_id":"levelo_inurba_marseille","lat":43.29531,"lon":5.38548,"is_reserved":false,"is_disabled":false,"rental_uris":{"android":"levelo://app?vid=dc88dc9c-6218-42ea-a1e7-d41fb6ba3589","ios":"levelo://app?vid=dc88dc9c-6218-42ea-a1e7-d41fb6ba3589"},"vehicle_type_id":"4","last_reported":1718903198,"current_range_meters":29200,"station_id":"ce4bgih2rcd13ifvqba0","pricing_plan_id":"cebpf4jnsgd1na2vs0mg"},{"bike_id":"8bd6f68c-e759-4cad-9e5e-fcf9696da751","system_id":"levelo_inurba_marseille","lat":43.29529,"lon":5.385581,"is_reserved":false,"is_disabled":false,"rental_uris":{"android":"levelo://app?vid=8bd6f68c-e759-4cad-9e5e-fcf9696da751","ios":"levelo://app?vid=8bd6f68c-e759-4cad-9e5e-fcf9696da751"},"vehicle_type_id":"4","last_reported":1718903198,"current_range_meters":31200,"station_id":"ce4bgih2rcd13ifvqba0","pricing_plan_id":"cebpf4jnsgd1na2vs0mg"},{"bike_id":"6dab4f00-239d-4aea-8b65-ae8ec8fb4a43","system_id":"levelo_inurba_marseille","lat":43.295237,"lon":5.385377,"is_reserved":false,"is_disabled":false,"rental_uris":{"android":"levelo://app?vid=6dab4f00-239d-4aea-8b65-ae8ec8fb4a43","ios":"levelo://app?vid=6dab4f00-239d-4aea-8b65-ae8ec8fb4a43"},"vehicle_type_id":"4","last_reported":1718903198,"current_range_meters":10800,"station_id":"ce4bgih2rcd13ifvqba0","pricing_plan_id":"cebpf4jnsgd1na2vs0mg"},{"bike_id":"c085ddd8-f6ff-45fa-9269-32986a4ae1d2","system_id":"levelo_inurba_marseille","lat":43.29529,"lon":5.385581,"is_reserved":false,"is_disabled":false,"rental_uris":{"android":"levelo://app?vid=c085ddd8-f6ff-45fa-9269-32986a4ae1d2","ios":"levelo://app?vid=c085ddd8-f6ff-45fa-9269-32986a4ae1d2"},"vehicle_type_id":"4","last_reported":1718903198,"current_range_meters":31200,"station_id":"ce4bgih2rcd13ifvqba0","pricing_plan_id":"cebpf4jnsgd1na2vs0mg"},{"bike_id":"44b57ddb-b390-4a8f-8f9a-204e920ca7d4","system_id":"levelo_inurba_marseille","lat":43.29529,"lon":5.385581,"is_reserved":false,"is_disabled":false,"rental_uris":{"android":"levelo://app?vid=44b57ddb-b390-4a8f-8f9a-204e920ca7d4","ios":"levelo://app?vid=44b57ddb-b390-4a8f-8f9a-204e920ca7d4"},"vehicle_type_id":"4","last_reported":1718903198,"current_range_meters":12400,"station_id":"ce4bgih2rcd13ifvqba0","pricing_plan_id":"cebpf4jnsgd1na2vs0mg"},{"bike_id":"0aa76266-2d33-446b-a9bb-850bfc662df5","system_id":"levelo_inurba_marseille","lat":43.290779,"lon":5.371482,"is_reserved":false,"is_disabled":false,"rental_uris":{"android":"levelo://app?vid=0aa76266-2d33-446b-a9bb-850bfc662df5","ios":"levelo://app?vid=0aa76266-2d33-446b-a9bb-850bfc662df5"},"vehicle_type_id":"4","last_reported":1718903198,"current_range_meters":0,"station_id":"ce4bh5p2rcd13ifvqe4g","pricing_plan_id":"cebpf4jnsgd1na2vs0mg"},{"bike_id":"1d0ef488-af89-452f-9f0f-69dfbffa2242","system_id":"levelo_inurba_marseille","lat":43.302008,"lon":5.394694,"is_reserved":false,"is_disabled":false,"rental_uris":{"android":"levelo://app?vid=1d0ef488-af89-452f-9f0f-69dfbffa2242","ios":"levelo://app?vid=1d0ef488-af89-452f-9f0f-69dfbffa2242"},"vehicle_type_id":"4","last_reported":1718903198,"current_range_meters":0,"station_id":"ce4bh0p2rcd13ifvqd70","pricing_plan_id":"cebpf4jnsgd1na2vs0mg"},{"bike_id":"3d3140f4-c0b3-4f0b-9d14-a10a46b15223","system_id":"levelo_inurba_marseille","lat":43.302008,"lon":5.394694,"is_reserved":false,"is_disabled":false,"rental_uris":{"android":"levelo://app?vid=3d3140f4-c0b3-4f0b-9d14-a10a46b15223","ios":"levelo://app?vid=3d3140f4-c0b3-4f0b-9d14-a10a46b15223"},"vehicle_type_id":"4","last_reported":1718903198,"current_range_meters":22800,"station_id":"ce4bh0p2rcd13ifvqd70","pricing_plan_id":"cebpf4jnsgd1na2vs0mg"},{"bike_id":"ec96f310-59a3-4f74-86a6-89f222a20b13","system_id":"levelo_inurba_marseille","lat":43.290624,"lon":5.359245,"is_reserved":false,"is_disabled":false,"rental_uris":{"android":"levelo://app?vid=ec96f310-59a3-4f74-86a6-89f222a20b13","ios":"levelo://app?vid=ec96f310-59a3-4f74-86a6-89f222a20b13"},"vehicle_type_id":"4","last_reported":1718903198,"current_range_meters":30400,"station_id":"ce4bha92rcd13ifvqeg0","pricing_plan_id":"cebpf4jnsgd1na2vs0mg"},{"bike_id":"081d80b1-057a-4cc1-bca0-9bb778a47492","system_id":"levelo_inurba_marseille","lat":43.290445,"lon":5.359093,"is_reserved":false,"is_disabled":false,"rental_uris":{"android":"levelo://app?vid=081d80b1-057a-4cc1-bca0-9bb778a47492","ios":"levelo://app?vid=081d80b1-057a-4cc1-bca0-9bb778a47492"},"vehicle_type_id":"4","last_reported":1718903198,"current_range_meters":22800,"station_id":"","pricing_plan_id":"cebpf4jnsgd1na2vs0mg"},{"bike_id":"79187d14-1e38-4cca-995d-147043d1e38d","system_id":"levelo_inurba_marseille","lat":43.29033,"lon":5.3593,"is_reserved":false,"is_disabled":false,"rental_uris":{"android":"levelo://app?vid=79187d14-1e38-4cca-995d-147043d1e38d","ios":"levelo://app?vid=79187d14-1e38-4cca-995d-147043d1e38d"},"vehicle_type_id":"4","last_reported":1718903198,"current_range_meters":31200,"station_id":"ce4bha92rcd13ifvqeg0","pricing_plan_id":"cebpf4jnsgd1na2vs0mg"},{"bike_id":"7d73be7a-4cc9-429c-b527-043d64c6e396","system_id":"levelo_inurba_marseille","lat":43.290345,"lon":5.38646,"is_reserved":false,"is_disabled":false,"rental_uris":{"android":"levelo://app?vid=7d73be7a-4cc9-429c-b527-043d64c6e396","ios":"levelo://app?vid=7d73be7a-4cc9-429c-b527-043d64c6e396"},"vehicle_type_id":"4","last_reported":1718903198,"current_range_meters":7600,"station_id":"ce4bh4p2rcd13ifvqe0g","pricing_plan_id":"cebpf4jnsgd1na2vs0mg"},{"bike_id":"8dd59a74-aae9-4554-85a2-55555cc3fda2","system_id":"levelo_inurba_marseille","lat":43.29418,"lon":5.3862,"is_reserved":false,"is_disabled":false,"rental_uris":{"android":"levelo://app?vid=8dd59a74-aae9-4554-85a2-55555cc3fda2","ios":"levelo://app?vid=8dd59a74-aae9-4554-85a2-55555cc3fda2"},"vehicle_type_id":"4","last_reported":1718903198,"current_range_meters":12400,"station_id":"ce4bh2h2rcd13ifvqdh0","pricing_plan_id":"cebpf4jnsgd1na2vs0mg"},{"bike_id":"301d1930-823d-4194-bde9-10e250b71a2b","system_id":"levelo_inurba_marseille","lat":43.294162,"lon":5.386292,"is_reserved":false,"is_disabled":false,"rental_uris":{"android":"levelo://app?vid=301d1930-823d-4194-bde9-10e250b71a2b","ios":"levelo://app?vid=301d1930-823d-4194-bde9-10e250b71a2b"},"vehicle_type_id":"4","last_reported":1718903198,"current_range_meters":2000,"station_id":"ce4bh2h2rcd13ifvqdh0","pricing_plan_id":"cebpf4jnsgd1na2vs0mg"},{"bike_id":"267f95b1-ac72-415f-9361-d9b07b876107","system_id":"levelo_inurba_marseille","lat":43.290327,"lon":5.375711,"is_reserved":false,"is_disabled":false,"rental_uris":{"android":"levelo://app?vid=267f95b1-ac72-415f-9361-d9b07b876107","ios":"levelo://app?vid=267f95b1-ac72-415f-9361-d9b07b876107"},"vehicle_type_id":"4","last_reported":1718903198,"current_range_meters":11600,"station_id":"ce4bh692rcd13ifvqe90","pricing_plan_id":"cebpf4jnsgd1na2vs0mg"},{"bike_id":"0cc565b9-04ef-472c-b6fb-af453d854cf6","system_id":"levelo_inurba_marseille","lat":43.294178,"lon":5.386233,"is_reserved":false,"is_disabled":false,"rental_uris":{"android":"levelo://app?vid=0cc565b9-04ef-472c-b6fb-af453d854cf6","ios":"levelo://app?vid=0cc565b9-04ef-472c-b6fb-af453d854cf6"},"vehicle_type_id":"4","last_reported":1718903198,"current_range_meters":2000,"station_id":"ce4bh2h2rcd13ifvqdh0","pricing_plan_id":"cebpf4jnsgd1na2vs0mg"},{"bike_id":"2bf41860-3ccb-418a-a2f4-4db005ba142e","system_id":"levelo_inurba_marseille","lat":43.29416,"lon":5.386264,"is_reserved":false,"is_disabled":false,"rental_uris":{"android":"levelo://app?vid=2bf41860-3ccb-418a-a2f4-4db005ba142e","ios":"levelo://app?vid=2bf41860-3ccb-418a-a2f4-4db005ba142e"},"vehicle_type_id":"4","last_reported":1718903198,"current_range_meters":31200,"station_id":"ce4bh2h2rcd13ifvqdh0","pricing_plan_id":"cebpf4jnsgd1na2vs0mg"},{"bike_id":"629c33ad-4c4e-4a7b-9ade-28c7265d88f1","system_id":"levelo_inurba_marseille","lat":43.294156,"lon":5.38628,"is_reserved":false,"is_disabled":false,"rental_uris":{"android":"levelo://app?vid=629c33ad-4c4e-4a7b-9ade-28c7265d88f1","ios":"levelo://app?vid=629c33ad-4c4e-4a7b-9ade-28c7265d88f1"},"vehicle_type_id":"4","last_reported":1718903198,"current_range_meters":21600,"station_id":"ce4bh2h2rcd13ifvqdh0","pricing_plan_id":"cebpf4jnsgd1na2vs0mg"},{"bike_id":"ffaddf68-8ad8-4c36-9801-696b5bd330f1","system_id":"levelo_inurba_marseille","lat":43.289468,"lon":5.363719,"is_reserved":false,"is_disabled":false,"rental_uris":{"android":"levelo://app?vid=ffaddf68-8ad8-4c36-9801-696b5bd330f1","ios":"levelo://app?vid=ffaddf68-8ad8-4c36-9801-696b5bd330f1"},"vehicle_type_id":"4","last_reported":1718903198,"current_range_meters":3200,"station_id":"ce4bhc92rcd13ifvqetg","pricing_plan_id":"cebpf4jnsgd1na2vs0mg"},{"bike_id":"d6c69a0b-f9a0-4f57-9c05-398eaaaf86f9","system_id":"levelo_inurba_marseille","lat":43.29413,"lon":5.38634,"is_reserved":false,"is_disabled":false,"rental_uris":{"android":"levelo://app?vid=d6c69a0b-f9a0-4f57-9c05-398eaaaf86f9","ios":"levelo://app?vid=d6c69a0b-f9a0-4f57-9c05-398eaaaf86f9"},"vehicle_type_id":"4","last_reported":1718903198,"current_range_meters":0,"station_id":"ce4bh2h2rcd13ifvqdh0","pricing_plan_id":"cebpf4jnsgd1na2vs0mg"},{"bike_id":"bbf5816d-94da-4ad4-b082-c92c252d20dd","system_id":"levelo_inurba_marseille","lat":43.294137,"lon":5.386437,"is_reserved":false,"is_disabled":false,"rental_uris":{"android":"levelo://app?vid=bbf5816d-94da-4ad4-b082-c92c252d20dd","ios":"levelo://app?vid=bbf5816d-94da-4ad4-b082-c92c252d20dd"},"vehicle_type_id":"4","last_reported":1718903198,"current_range_meters":31200,"station_id":"ce4bh2h2rcd13ifvqdh0","pricing_plan_id":"cebpf4jnsgd1na2vs0mg"},{"bike_id":"519700bc-6fb3-4eb9-9100-8b25257df8a7","system_id":"levelo_inurba_marseille","lat":43.289468,"lon":5.363719,"is_reserved":false,"is_disabled":false,"rental_uris":{"android":"levelo://app?vid=519700bc-6fb3-4eb9-9100-8b25257df8a7","ios":"levelo://app?vid=519700bc-6fb3-4eb9-9100-8b25257df8a7"},"vehicle_type_id":"4","last_reported":1718903198,"current_range_meters":14800,"station_id":"ce4bhc92rcd13ifvqetg","pricing_plan_id":"cebpf4jnsgd1na2vs0mg"},{"bike_id":"343eed2e-ab00-4443-912e-07fc62ace57d","system_id":"levelo_inurba_marseille","lat":43.290327,"lon":5.375711,"is_reserved":false,"is_disabled":false,"rental_uris":{"android":"levelo://app?vid=343eed2e-ab00-4443-912e-07fc62ace57d","ios":"levelo://app?vid=343eed2e-ab00-4443-912e-07fc62ace57d"},"vehicle_type_id":"4","last_reported":1718903198,"current_range_meters":29200,"station_id":"ce4bh692rcd13ifvqe90","pricing_plan_id":"cebpf4jnsgd1na2vs0mg"},{"bike_id":"ffab7a6c-e485-4bcf-843f-4866d3a9588a","system_id":"levelo_inurba_marseille","lat":43.289184,"lon":5.366408,"is_reserved":false,"is_disabled":false,"rental_uris":{"android":"levelo://app?vid=ffab7a6c-e485-4bcf-843f-4866d3a9588a","ios":"levelo://app?vid=ffab7a6c-e485-4bcf-843f-4866d3a9588a"},"vehicle_type_id":"4","last_reported":1718903198,"current_range_meters":2800,"station_id":"ce4bhap2rcd13ifvqek0","pricing_plan_id":"cebpf4jnsgd1na2vs0mg"},{"bike_id":"fb821706-73fd-4862-be24-6cbe196f7c3e","system_id":"levelo_inurba_marseille","lat":43.294153,"lon":5.386305,"is_reserved":false,"is_disabled":false,"rental_uris":{"android":"levelo://app?vid=fb821706-73fd-4862-be24-6cbe196f7c3e","ios":"levelo://app?vid=fb821706-73fd-4862-be24-6cbe196f7c3e"},"vehicle_type_id":"4","last_reported":1718903198,"current_range_meters":27600,"station_id":"ce4bh2h2rcd13ifvqdh0","pricing_plan_id":"cebpf4jnsgd1na2vs0mg"},{"bike_id":"94e8c5cd-e5f2-4210-887d-8a383b82828e","system_id":"levelo_inurba_marseille","lat":43.289184,"lon":5.366408,"is_reserved":false,"is_disabled":false,"rental_uris":{"android":"levelo://app?vid=94e8c5cd-e5f2-4210-887d-8a383b82828e","ios":"levelo://app?vid=94e8c5cd-e5f2-4210-887d-8a383b82828e"},"vehicle_type_id":"4","last_reported":1718903198,"current_range_meters":16400,"station_id":"ce4bhap2rcd13ifvqek0","pricing_plan_id":"cebpf4jnsgd1na2vs0mg"},{"bike_id":"a4aa734d-92cc-4773-b5c8-8e9941b1d738","system_id":"levelo_inurba_marseille","lat":43.289468,"lon":5.363719,"is_reserved":false,"is_disabled":false,"rental_uris":{"android":"levelo://app?vid=a4aa734d-92cc-4773-b5c8-8e9941b1d738","ios":"levelo://app?vid=a4aa734d-92cc-4773-b5c8-8e9941b1d738"},"vehicle_type_id":"4","last_reported":1718903198,"current_range_meters":19200,"station_id":"ce4bhc92rcd13ifvqetg","pricing_plan_id":"cebpf4jnsgd1na2vs0mg"},{"bike_id":"2f094c43-7ee9-4046-8f49-82fbdc364d8a","system_id":"levelo_inurba_marseille","lat":43.292642,"lon":5.384254,"is_reserved":false,"is_disabled":false,"rental_uris":{"android":"levelo://app?vid=2f094c43-7ee9-4046-8f49-82fbdc364d8a","ios":"levelo://app?vid=2f094c43-7ee9-4046-8f49-82fbdc364d8a"},"vehicle_type_id":"4","last_reported":1718903198,"current_range_meters":0,"station_id":"ce4bh692rcd13ifvqea0","pricing_plan_id":"cebpf4jnsgd1na2vs0mg"},{"bike_id":"946fd7a7-bd5d-46ab-bdea-0946231a9cd9","system_id":"levelo_inurba_marseille","lat":43.292642,"lon":5.384254,"is_reserved":false,"is_disabled":false,"rental_uris":{"android":"levelo://app?vid=946fd7a7-bd5d-46ab-bdea-0946231a9cd9","ios":"levelo://app?vid=946fd7a7-bd5d-46ab-bdea-0946231a9cd9"},"vehicle_type_id":"4","last_reported":1718903198,"current_range_meters":22000,"station_id":"ce4bh692rcd13ifvqea0","pricing_plan_id":"cebpf4jnsgd1na2vs0mg"},{"bike_id":"3c4b24f1-431a-41cb-8b4c-6d3b1f98d2b3","system_id":"levelo_inurba_marseille","lat":43.295169,"lon":5.390426,"is_reserved":false,"is_disabled":false,"rental_uris":{"android":"levelo://app?vid=3c4b24f1-431a-41cb-8b4c-6d3b1f98d2b3","ios":"levelo://app?vid=3c4b24f1-431a-41cb-8b4c-6d3b1f98d2b3"},"vehicle_type_id":"4","last_reported":1718903198,"current_range_meters":28400,"station_id":"ce4bh3p2rcd13ifvqdp0","pricing_plan_id":"cebpf4jnsgd1na2vs0mg"},{"bike_id":"500eccac-b148-4160-b7a4-b0b4c86c3d0b","system_id":"levelo_inurba_marseille","lat":43.29265,"lon":5.38441,"is_reserved":false,"is_disabled":false,"rental_uris":{"android":"levelo://app?vid=500eccac-b148-4160-b7a4-b0b4c86c3d0b","ios":"levelo://app?vid=500eccac-b148-4160-b7a4-b0b4c86c3d0b"},"vehicle_type_id":"4","last_reported":1718903198,"current_range_meters":17200,"station_id":"ce4bh692rcd13ifvqea0","pricing_plan_id":"cebpf4jnsgd1na2vs0mg"},{"bike_id":"a217781c-5c06-4834-a16a-937922138795","system_id":"levelo_inurba_marseille","lat":43.29264,"lon":5.38439,"is_reserved":false,"is_disabled":false,"rental_uris":{"android":"levelo://app?vid=a217781c-5c06-4834-a16a-937922138795","ios":"levelo://app?vid=a217781c-5c06-4834-a16a-937922138795"},"vehicle_type_id":"4","last_reported":1718903198,"current_range_meters":0,"station_id":"ce4bh692rcd13ifvqea0","pricing_plan_id":"cebpf4jnsgd1na2vs0mg"},{"bike_id":"4ac8c49c-ff2a-43dd-a3d1-5ecc271b8bdd","system_id":"levelo_inurba_marseille","lat":43.30421,"lon":5.39747,"is_reserved":false,"is_disabled":false,"rental_uris":{"android":"levelo://app?vid=4ac8c49c-ff2a-43dd-a3d1-5ecc271b8bdd","ios":"levelo://app?vid=4ac8c49c-ff2a-43dd-a3d1-5ecc271b8bdd"},"vehicle_type_id":"4","last_reported":1718903198,"current_range_meters":0,"station_id":"ce4bh092rcd13ifvqd20","pricing_plan_id":"cebpf4jnsgd1na2vs0mg"},{"bike_id":"f546111c-8386-4798-ae4c-f06afb89b798","system_id":"levelo_inurba_marseille","lat":43.29262,"lon":5.38451,"is_reserved":false,"is_disabled":false,"rental_uris":{"android":"levelo://app?vid=f546111c-8386-4798-ae4c-f06afb89b798","ios":"levelo://app?vid=f546111c-8386-4798-ae4c-f06afb89b798"},"vehicle_type_id":"4","last_reported":1718903198,"current_range_meters":12000,"station_id":"ce4bh692rcd13ifvqea0","pricing_plan_id":"cebpf4jnsgd1na2vs0mg"},{"bike_id":"2b781706-e34b-4bff-a1ca-7c04bb9d2736","system_id":"levelo_inurba_marseille","lat":43.292644,"lon":5.384257,"is_reserved":false,"is_disabled":false,"rental_uris":{"android":"levelo://app?vid=2b781706-e34b-4bff-a1ca-7c04bb9d2736","ios":"levelo://app?vid=2b781706-e34b-4bff-a1ca-7c04bb9d2736"},"vehicle_type_id":"4","last_reported":1718903198,"current_range_meters":0,"station_id":"ce4bh692rcd13ifvqea0","pricing_plan_id":"cebpf4jnsgd1na2vs0mg"},{"bike_id":"68db3dc5-574b-473a-b97a-41733e04d73e","system_id":"levelo_inurba_marseille","lat":43.29253,"lon":5.38437,"is_reserved":false,"is_disabled":false,"rental_uris":{"android":"levelo://app?vid=68db3dc5-574b-473a-b97a-41733e04d73e","ios":"levelo://app?vid=68db3dc5-574b-473a-b97a-41733e04d73e"},"vehicle_type_id":"4","last_reported":1718903198,"current_range_meters":0,"station_id":"ce4bh692rcd13ifvqea0","pricing_plan_id":"cebpf4jnsgd1na2vs0mg"},{"bike_id":"39267024-9e1d-493e-b55c-a2b1a807f373","system_id":"levelo_inurba_marseille","lat":43.292644,"lon":5.384257,"is_reserved":false,"is_disabled":false,"rental_uris":{"android":"levelo://app?vid=39267024-9e1d-493e-b55c-a2b1a807f373","ios":"levelo://app?vid=39267024-9e1d-493e-b55c-a2b1a807f373"},"vehicle_type_id":"4","last_reported":1718903198,"current_range_meters":0,"station_id":"ce4bh692rcd13ifvqea0","pricing_plan_id":"cebpf4jnsgd1na2vs0mg"},{"bike_id":"bcdf8595-ec01-48c3-9193-381de594159c","system_id":"levelo_inurba_marseille","lat":43.290104,"lon":5.356111,"is_reserved":false,"is_disabled":false,"rental_uris":{"android":"levelo://app?vid=bcdf8595-ec01-48c3-9193-381de594159c","ios":"levelo://app?vid=bcdf8595-ec01-48c3-9193-381de594159c"},"vehicle_type_id":"4","last_reported":1718903198,"current_range_meters":2400,"station_id":"ce4bhb92rcd13ifvqen0","pricing_plan_id":"cebpf4jnsgd1na2vs0mg"},{"bike_id":"e437283c-c737-4e7c-aafb-5bb6cec04149","system_id":"levelo_inurba_marseille","lat":43.290103,"lon":5.356114,"is_reserved":false,"is_disabled":false,"rental_uris":{"android":"levelo://app?vid=e437283c-c737-4e7c-aafb-5bb6cec04149","ios":"levelo://app?vid=e437283c-c737-4e7c-aafb-5bb6cec04149"},"vehicle_type_id":"4","last_reported":1718903198,"current_range_meters":5600,"station_id":"ce4bhb92rcd13ifvqen0","pricing_plan_id":"cebpf4jnsgd1na2vs0mg"},{"bike_id":"2cb321e7-ab4b-432a-a35f-30c82def1e40","system_id":"levelo_inurba_marseille","lat":43.290103,"lon":5.356114,"is_reserved":false,"is_disabled":false,"rental_uris":{"android":"levelo://app?vid=2cb321e7-ab4b-432a-a35f-30c82def1e40","ios":"levelo://app?vid=2cb321e7-ab4b-432a-a35f-30c82def1e40"},"vehicle_type_id":"4","last_reported":1718903198,"current_range_meters":800,"station_id":"ce4bhb92rcd13ifvqen0","pricing_plan_id":"cebpf4jnsgd1na2vs0mg"},{"bike_id":"92cd4d83-4539-4199-9cb0-ddf95b25e313","system_id":"levelo_inurba_marseille","lat":43.297815,"lon":5.393548,"is_reserved":false,"is_disabled":false,"rental_uris":{"android":"levelo://app?vid=92cd4d83-4539-4199-9cb0-ddf95b25e313","ios":"levelo://app?vid=92cd4d83-4539-4199-9cb0-ddf95b25e313"},"vehicle_type_id":"4","last_reported":1718903198,"current_range_meters":8000,"station_id":"chh1huq6cuj3fo74tm60","pricing_plan_id":"cebpf4jnsgd1na2vs0mg"},{"bike_id":"0c53a30a-a82f-47a7-a4bd-ab150515eb52","system_id":"levelo_inurba_marseille","lat":43.290995,"lon":5.381361,"is_reserved":false,"is_disabled":false,"rental_uris":{"android":"levelo://app?vid=0c53a30a-a82f-47a7-a4bd-ab150515eb52","ios":"levelo://app?vid=0c53a30a-a82f-47a7-a4bd-ab150515eb52"},"vehicle_type_id":"4","last_reported":1718903198,"current_range_meters":22400,"station_id":"ce4bh512rcd13ifvqe2g","pricing_plan_id":"cebpf4jnsgd1na2vs0mg"},{"bike_id":"b537ee40-bd28-4fa5-84ab-f0713df15b55","system_id":"levelo_inurba_marseille","lat":43.295169,"lon":5.390426,"is_reserved":false,"is_disabled":false,"rental_uris":{"android":"levelo://app?vid=b537ee40-bd28-4fa5-84ab-f0713df15b55","ios":"levelo://app?vid=b537ee40-bd28-4fa5-84ab-f0713df15b55"},"vehicle_type_id":"4","last_reported":1718903198,"current_range_meters":10000,"station_id":"ce4bh3p2rcd13ifvqdp0","pricing_plan_id":"cebpf4jnsgd1na2vs0mg"},{"bike_id":"f33275c7-368d-4824-abc6-cb5311253b63","system_id":"levelo_inurba_marseille","lat":43.29525,"lon":5.39045,"is_reserved":false,"is_disabled":false,"rental_uris":{"android":"levelo://app?vid=f33275c7-368d-4824-abc6-cb5311253b63","ios":"levelo://app?vid=f33275c7-368d-4824-abc6-cb5311253b63"},"vehicle_type_id":"4","last_reported":1718903198,"current_range_meters":7200,"station_id":"ce4bh3p2rcd13ifvqdp0","pricing_plan_id":"cebpf4jnsgd1na2vs0mg"},{"bike_id":"4646d83e-869c-4b87-816d-68f7ae62dc0c","system_id":"levelo_inurba_marseille","lat":43.289741,"lon":5.378306,"is_reserved":false,"is_disabled":false,"rental_uris":{"android":"levelo://app?vid=4646d83e-869c-4b87-816d-68f7ae62dc0c","ios":"levelo://app?vid=4646d83e-869c-4b87-816d-68f7ae62dc0c"},"vehicle_type_id":"4","last_reported":1718903198,"current_range_meters":20400,"station_id":"ce4bh9p2rcd13ifvqed0","pricing_plan_id":"cebpf4jnsgd1na2vs0mg"},{"bike_id":"765beb9f-c356-4b76-a3ad-d6b9233ba229","system_id":"levelo_inurba_marseille","lat":43.33039,"lon":5.3904,"is_reserved":false,"is_disabled":false,"rental_uris":{"android":"levelo://app?vid=765beb9f-c356-4b76-a3ad-d6b9233ba229","ios":"levelo://app?vid=765beb9f-c356-4b76-a3ad-d6b9233ba229"},"vehicle_type_id":"4","last_reported":1718903198,"current_range_meters":16400,"station_id":"ce4bhr92rcd13ifvqhrg","pricing_plan_id":"cebpf4jnsgd1na2vs0mg"},{"bike_id":"0a7acabe-8457-4375-8f6f-3ab323bf218d","system_id":"levelo_inurba_marseille","lat":43.310607,"lon":5.400722,"is_reserved":false,"is_disabled":false,"rental_uris":{"android":"levelo://app?vid=0a7acabe-8457-4375-8f6f-3ab323bf218d","ios":"levelo://app?vid=0a7acabe-8457-4375-8f6f-3ab323bf218d"},"vehicle_type_id":"4","last_reported":1718903198,"current_range_meters":31200,"station_id":"","pricing_plan_id":"cebpf4jnsgd1na2vs0mg"},{"bike_id":"b9621848-5a17-47ae-bdd8-d5876f907292","system_id":"levelo_inurba_marseille","lat":43.33049,"lon":5.39054,"is_reserved":false,"is_disabled":false,"rental_uris":{"android":"levelo://app?vid=b9621848-5a17-47ae-bdd8-d5876f907292","ios":"levelo://app?vid=b9621848-5a17-47ae-bdd8-d5876f907292"},"vehicle_type_id":"4","last_reported":1718903198,"current_range_meters":3600,"station_id":"ce4bhr92rcd13ifvqhrg","pricing_plan_id":"cebpf4jnsgd1na2vs0mg"},{"bike_id":"17ca2670-49d8-4b47-912b-89656c2f823b","system_id":"levelo_inurba_marseille","lat":43.29094,"lon":5.383046,"is_reserved":false,"is_disabled":false,"rental_uris":{"android":"levelo://app?vid=17ca2670-49d8-4b47-912b-89656c2f823b","ios":"levelo://app?vid=17ca2670-49d8-4b47-912b-89656c2f823b"},"vehicle_type_id":"4","last_reported":1718903198,"current_range_meters":10000,"station_id":"ce4bhh12rcd13ifvqfg0","pricing_plan_id":"cebpf4jnsgd1na2vs0mg"},{"bike_id":"5beb9aa9-7665-4455-980b-d54c59259e4a","system_id":"levelo_inurba_marseille","lat":43.290094,"lon":5.381264,"is_reserved":false,"is_disabled":false,"rental_uris":{"android":"levelo://app?vid=5beb9aa9-7665-4455-980b-d54c59259e4a","ios":"levelo://app?vid=5beb9aa9-7665-4455-980b-d54c59259e4a"},"vehicle_type_id":"4","last_reported":1718903198,"current_range_meters":13600,"station_id":"ce4bh4p2rcd13ifvqe1g","pricing_plan_id":"cebpf4jnsgd1na2vs0mg"},{"bike_id":"f2a3e6ae-bb24-410e-9008-20461c410ba7","system_id":"levelo_inurba_marseille","lat":43.288547,"lon":5.358393,"is_reserved":false,"is_disabled":false,"rental_uris":{"android":"levelo://app?vid=f2a3e6ae-bb24-410e-9008-20461c410ba7","ios":"levelo://app?vid=f2a3e6ae-bb24-410e-9008-20461c410ba7"},"vehicle_type_id":"4","last_reported":1718903198,"current_range_meters":0,"station_id":"ce4bhb12rcd13ifvqem0","pricing_plan_id":"cebpf4jnsgd1na2vs0mg"},{"bike_id":"ffcbc7f7-78cc-495c-b64e-1c5e12be0d99","system_id":"levelo_inurba_marseille","lat":43.28847,"lon":5.3586,"is_reserved":false,"is_disabled":false,"rental_uris":{"android":"levelo://app?vid=ffcbc7f7-78cc-495c-b64e-1c5e12be0d99","ios":"levelo://app?vid=ffcbc7f7-78cc-495c-b64e-1c5e12be0d99"},"vehicle_type_id":"4","last_reported":1718903198,"current_range_meters":20400,"station_id":"ce4bhb12rcd13ifvqem0","pricing_plan_id":"cebpf4jnsgd1na2vs0mg"},{"bike_id":"82e1513b-90cf-40f3-88d1-b244c6f269d2","system_id":"levelo_inurba_marseille","lat":43.28834,"lon":5.35854,"is_reserved":false,"is_disabled":false,"rental_uris":{"android":"levelo://app?vid=82e1513b-90cf-40f3-88d1-b244c6f269d2","ios":"levelo://app?vid=82e1513b-90cf-40f3-88d1-b244c6f269d2"},"vehicle_type_id":"4","last_reported":1718903198,"current_range_meters":15200,"station_id":"ce4bhb12rcd13ifvqem0","pricing_plan_id":"cebpf4jnsgd1na2vs0mg"},{"bike_id":"6956bfdd-4929-40bf-84cc-fb40c899f108","system_id":"levelo_inurba_marseille","lat":43.312609,"lon":5.401662,"is_reserved":false,"is_disabled":false,"rental_uris":{"android":"levelo://app?vid=6956bfdd-4929-40bf-84cc-fb40c899f108","ios":"levelo://app?vid=6956bfdd-4929-40bf-84cc-fb40c899f108"},"vehicle_type_id":"4","last_reported":1718903198,"current_range_meters":4000,"station_id":"ce4bh092rcd13ifvqd30","pricing_plan_id":"cebpf4jnsgd1na2vs0mg"},{"bike_id":"422a0330-10aa-49c0-8ec4-9d20f9b3547a","system_id":"levelo_inurba_marseille","lat":43.30925,"lon":5.40146,"is_reserved":false,"is_disabled":false,"rental_uris":{"android":"levelo://app?vid=422a0330-10aa-49c0-8ec4-9d20f9b3547a","ios":"levelo://app?vid=422a0330-10aa-49c0-8ec4-9d20f9b3547a"},"vehicle_type_id":"4","last_reported":1718903198,"current_range_meters":4800,"station_id":"","pricing_plan_id":"cebpf4jnsgd1na2vs0mg"},{"bike_id":"108bb38c-8465-45d9-9f69-f29db430df12","system_id":"levelo_inurba_marseille","lat":43.30919,"lon":5.40145,"is_reserved":false,"is_disabled":false,"rental_uris":{"android":"levelo://app?vid=108bb38c-8465-45d9-9f69-f29db430df12","ios":"levelo://app?vid=108bb38c-8465-45d9-9f69-f29db430df12"},"vehicle_type_id":"4","last_reported":1718903198,"current_range_meters":0,"station_id":"ce4bgvp2rcd13ifvqct0","pricing_plan_id":"cebpf4jnsgd1na2vs0mg"},{"bike_id":"e7b5e71c-e646-4f58-80f6-241a139df664","system_id":"levelo_inurba_marseille","lat":43.30922,"lon":5.40151,"is_reserved":false,"is_disabled":false,"rental_uris":{"android":"levelo://app?vid=e7b5e71c-e646-4f58-80f6-241a139df664","ios":"levelo://app?vid=e7b5e71c-e646-4f58-80f6-241a139df664"},"vehicle_type_id":"4","last_reported":1718903198,"current_range_meters":0,"station_id":"ce4bgvp2rcd13ifvqct0","pricing_plan_id":"cebpf4jnsgd1na2vs0mg"},{"bike_id":"34b38eca-0c98-427f-a592-229f44a053a3","system_id":"levelo_inurba_marseille","lat":43.30656,"lon":5.40094,"is_reserved":false,"is_disabled":false,"rental_uris":{"android":"levelo://app?vid=34b38eca-0c98-427f-a592-229f44a053a3","ios":"levelo://app?vid=34b38eca-0c98-427f-a592-229f44a053a3"},"vehicle_type_id":"4","last_reported":1718903198,"current_range_meters":0,"station_id":"ce4bh112rcd13ifvqda0","pricing_plan_id":"cebpf4jnsgd1na2vs0mg"},{"bike_id":"d0a32145-2830-4c5e-ae1e-326ba0a5e5e6","system_id":"levelo_inurba_marseille","lat":43.312609,"lon":5.401662,"is_reserved":false,"is_disabled":false,"rental_uris":{"android":"levelo://app?vid=d0a32145-2830-4c5e-ae1e-326ba0a5e5e6","ios":"levelo://app?vid=d0a32145-2830-4c5e-ae1e-326ba0a5e5e6"},"vehicle_type_id":"4","last_reported":1718903198,"current_range_meters":22800,"station_id":"ce4bh092rcd13ifvqd30","pricing_plan_id":"cebpf4jnsgd1na2vs0mg"},{"bike_id":"0fc2d043-e35e-4e24-95b8-18e1fe6245a2","system_id":"levelo_inurba_marseille","lat":43.309038,"lon":5.396546,"is_reserved":false,"is_disabled":false,"rental_uris":{"android":"levelo://app?vid=0fc2d043-e35e-4e24-95b8-18e1fe6245a2","ios":"levelo://app?vid=0fc2d043-e35e-4e24-95b8-18e1fe6245a2"},"vehicle_type_id":"4","last_reported":1718903198,"current_range_meters":14400,"station_id":"ce4bh012rcd13ifvqcv0","pricing_plan_id":"cebpf4jnsgd1na2vs0mg"},{"bike_id":"836e9a28-f711-419b-9059-705b9b3a74f3","system_id":"levelo_inurba_marseille","lat":43.301117,"lon":5.398795,"is_reserved":false,"is_disabled":false,"rental_uris":{"android":"levelo://app?vid=836e9a28-f711-419b-9059-705b9b3a74f3","ios":"levelo://app?vid=836e9a28-f711-419b-9059-705b9b3a74f3"},"vehicle_type_id":"4","last_reported":1718903198,"current_range_meters":5600,"station_id":"ce4bh0h2rcd13ifvqd40","pricing_plan_id":"cebpf4jnsgd1na2vs0mg"},{"bike_id":"69625783-6d4a-4e30-8a2b-15cbc85c130d","system_id":"levelo_inurba_marseille","lat":43.301117,"lon":5.398795,"is_reserved":false,"is_disabled":false,"rental_uris":{"android":"levelo://app?vid=69625783-6d4a-4e30-8a2b-15cbc85c130d","ios":"levelo://app?vid=69625783-6d4a-4e30-8a2b-15cbc85c130d"},"vehicle_type_id":"4","last_reported":1718903198,"current_range_meters":12000,"station_id":"ce4bh0h2rcd13ifvqd40","pricing_plan_id":"cebpf4jnsgd1na2vs0mg"},{"bike_id":"3fd4d8e0-27f8-432e-a29b-f8d5572afe0c","system_id":"levelo_inurba_marseille","lat":43.301117,"lon":5.398795,"is_reserved":false,"is_disabled":false,"rental_uris":{"android":"levelo://app?vid=3fd4d8e0-27f8-432e-a29b-f8d5572afe0c","ios":"levelo://app?vid=3fd4d8e0-27f8-432e-a29b-f8d5572afe0c"},"vehicle_type_id":"4","last_reported":1718903198,"current_range_meters":2800,"station_id":"ce4bh0h2rcd13ifvqd40","pricing_plan_id":"cebpf4jnsgd1na2vs0mg"},{"bike_id":"13f05b94-31e6-49fc-9603-4bf7cf7224f5","system_id":"levelo_inurba_marseille","lat":43.30645,"lon":5.40111,"is_reserved":false,"is_disabled":false,"rental_uris":{"android":"levelo://app?vid=13f05b94-31e6-49fc-9603-4bf7cf7224f5","ios":"levelo://app?vid=13f05b94-31e6-49fc-9603-4bf7cf7224f5"},"vehicle_type_id":"4","last_reported":1718903198,"current_range_meters":0,"station_id":"ce4bh112rcd13ifvqda0","pricing_plan_id":"cebpf4jnsgd1na2vs0mg"},{"bike_id":"8f290b81-b0b7-4895-9d6a-f65259b2b53d","system_id":"levelo_inurba_marseille","lat":43.301117,"lon":5.398795,"is_reserved":false,"is_disabled":false,"rental_uris":{"android":"levelo://app?vid=8f290b81-b0b7-4895-9d6a-f65259b2b53d","ios":"levelo://app?vid=8f290b81-b0b7-4895-9d6a-f65259b2b53d"},"vehicle_type_id":"4","last_reported":1718903198,"current_range_meters":6000,"station_id":"ce4bh0h2rcd13ifvqd40","pricing_plan_id":"cebpf4jnsgd1na2vs0mg"},{"bike_id":"6b765c97-c9c7-4476-a6c4-6492ea54c276","system_id":"levelo_inurba_marseille","lat":43.301384,"lon":5.398764,"is_reserved":false,"is_disabled":false,"rental_uris":{"android":"levelo://app?vid=6b765c97-c9c7-4476-a6c4-6492ea54c276","ios":"levelo://app?vid=6b765c97-c9c7-4476-a6c4-6492ea54c276"},"vehicle_type_id":"4","last_reported":1718903198,"current_range_meters":0,"station_id":"ce4bh0h2rcd13ifvqd40","pricing_plan_id":"cebpf4jnsgd1na2vs0mg"},{"bike_id":"72e2cbed-5996-4eea-abe1-aee31d520264","system_id":"levelo_inurba_marseille","lat":43.300685,"lon":5.39863,"is_reserved":false,"is_disabled":false,"rental_uris":{"android":"levelo://app?vid=72e2cbed-5996-4eea-abe1-aee31d520264","ios":"levelo://app?vid=72e2cbed-5996-4eea-abe1-aee31d520264"},"vehicle_type_id":"4","last_reported":1718903198,"current_range_meters":12400,"station_id":"ce4bh0h2rcd13ifvqd40","pricing_plan_id":"cebpf4jnsgd1na2vs0mg"},{"bike_id":"b960b682-1a3d-4632-9663-d015c48fd930","system_id":"levelo_inurba_marseille","lat":43.286591,"lon":5.363346,"is_reserved":false,"is_disabled":false,"rental_uris":{"android":"levelo://app?vid=b960b682-1a3d-4632-9663-d015c48fd930","ios":"levelo://app?vid=b960b682-1a3d-4632-9663-d015c48fd930"},"vehicle_type_id":"4","last_reported":1718903198,"current_range_meters":4800,"station_id":"ce4bhah2rcd13ifvqej0","pricing_plan_id":"cebpf4jnsgd1na2vs0mg"},{"bike_id":"d73f5647-b711-45aa-87f5-7f319e5904d2","system_id":"levelo_inurba_marseille","lat":43.298681,"lon":5.397225,"is_reserved":false,"is_disabled":false,"rental_uris":{"android":"levelo://app?vid=d73f5647-b711-45aa-87f5-7f319e5904d2","ios":"levelo://app?vid=d73f5647-b711-45aa-87f5-7f319e5904d2"},"vehicle_type_id":"4","last_reported":1718903198,"current_range_meters":26800,"station_id":"ce4bh0h2rcd13ifvqd50","pricing_plan_id":"cebpf4jnsgd1na2vs0mg"},{"bike_id":"eb63d24b-8738-4838-a4bb-c1f2afd79da8","system_id":"levelo_inurba_marseille","lat":43.286591,"lon":5.363346,"is_reserved":false,"is_disabled":false,"rental_uris":{"android":"levelo://app?vid=eb63d24b-8738-4838-a4bb-c1f2afd79da8","ios":"levelo://app?vid=eb63d24b-8738-4838-a4bb-c1f2afd79da8"},"vehicle_type_id":"4","last_reported":1718903198,"current_range_meters":19200,"station_id":"ce4bhah2rcd13ifvqej0","pricing_plan_id":"cebpf4jnsgd1na2vs0mg"},{"bike_id":"3e831c9f-402a-483f-8866-922f3c31fa2c","system_id":"levelo_inurba_marseille","lat":43.29873,"lon":5.39739,"is_reserved":false,"is_disabled":false,"rental_uris":{"android":"levelo://app?vid=3e831c9f-402a-483f-8866-922f3c31fa2c","ios":"levelo://app?vid=3e831c9f-402a-483f-8866-922f3c31fa2c"},"vehicle_type_id":"4","last_reported":1718903198,"current_range_meters":16000,"station_id":"ce4bh0h2rcd13ifvqd50","pricing_plan_id":"cebpf4jnsgd1na2vs0mg"},{"bike_id":"dc4716de-011c-4c3c-bdb3-5d5966ec72c0","system_id":"levelo_inurba_marseille","lat":43.286593,"lon":5.363346,"is_reserved":false,"is_disabled":false,"rental_uris":{"android":"levelo://app?vid=dc4716de-011c-4c3c-bdb3-5d5966ec72c0","ios":"levelo://app?vid=dc4716de-011c-4c3c-bdb3-5d5966ec72c0"},"vehicle_type_id":"4","last_reported":1718903198,"current_range_meters":19200,"station_id":"ce4bhah2rcd13ifvqej0","pricing_plan_id":"cebpf4jnsgd1na2vs0mg"},{"bike_id":"33cb41c5-f32d-41b3-909b-5e45cbdf7696","system_id":"levelo_inurba_marseille","lat":43.298681,"lon":5.397225,"is_reserved":false,"is_disabled":false,"rental_uris":{"android":"levelo://app?vid=33cb41c5-f32d-41b3-909b-5e45cbdf7696","ios":"levelo://app?vid=33cb41c5-f32d-41b3-909b-5e45cbdf7696"},"vehicle_type_id":"4","last_reported":1718903198,"current_range_meters":11200,"station_id":"ce4bh0h2rcd13ifvqd50","pricing_plan_id":"cebpf4jnsgd1na2vs0mg"},{"bike_id":"4b8fdd08-660f-4a4c-a291-f905893b2191","system_id":"levelo_inurba_marseille","lat":43.295196,"lon":5.39397,"is_reserved":false,"is_disabled":false,"rental_uris":{"android":"levelo://app?vid=4b8fdd08-660f-4a4c-a291-f905893b2191","ios":"levelo://app?vid=4b8fdd08-660f-4a4c-a291-f905893b2191"},"vehicle_type_id":"4","last_reported":1718903198,"current_range_meters":18800,"station_id":"ce4bh292rcd13ifvqdf0","pricing_plan_id":"cebpf4jnsgd1na2vs0mg"},{"bike_id":"5449b2b9-e0f3-4518-b01b-a031fd830881","system_id":"levelo_inurba_marseille","lat":43.295194,"lon":5.39397,"is_reserved":false,"is_disabled":false,"rental_uris":{"android":"levelo://app?vid=5449b2b9-e0f3-4518-b01b-a031fd830881","ios":"levelo://app?vid=5449b2b9-e0f3-4518-b01b-a031fd830881"},"vehicle_type_id":"4","last_reported":1718903198,"current_range_meters":12800,"station_id":"ce4bh292rcd13ifvqdf0","pricing_plan_id":"cebpf4jnsgd1na2vs0mg"},{"bike_id":"0c36f71c-c01a-4243-869a-c2c1e098be7d","system_id":"levelo_inurba_marseille","lat":43.295194,"lon":5.39397,"is_reserved":false,"is_disabled":false,"rental_uris":{"android":"levelo://app?vid=0c36f71c-c01a-4243-869a-c2c1e098be7d","ios":"levelo://app?vid=0c36f71c-c01a-4243-869a-c2c1e098be7d"},"vehicle_type_id":"4","last_reported":1718903198,"current_range_meters":0,"station_id":"ce4bh292rcd13ifvqdf0","pricing_plan_id":"cebpf4jnsgd1na2vs0mg"},{"bike_id":"b5d068e8-a08b-4f08-aab5-db59374804c3","system_id":"levelo_inurba_marseille","lat":43.295196,"lon":5.39397,"is_reserved":false,"is_disabled":false,"rental_uris":{"android":"levelo://app?vid=b5d068e8-a08b-4f08-aab5-db59374804c3","ios":"levelo://app?vid=b5d068e8-a08b-4f08-aab5-db59374804c3"},"vehicle_type_id":"4","last_reported":1718903198,"current_range_meters":400,"station_id":"ce4bh292rcd13ifvqdf0","pricing_plan_id":"cebpf4jnsgd1na2vs0mg"},{"bike_id":"fc88b0e3-6851-4310-9c3f-d37095500e41","system_id":"levelo_inurba_marseille","lat":43.302759,"lon":5.400793,"is_reserved":false,"is_disabled":false,"rental_uris":{"android":"levelo://app?vid=fc88b0e3-6851-4310-9c3f-d37095500e41","ios":"levelo://app?vid=fc88b0e3-6851-4310-9c3f-d37095500e41"},"vehicle_type_id":"4","last_reported":1718903198,"current_range_meters":9600,"station_id":"ce4bgvh2rcd13ifvqcs0","pricing_plan_id":"cebpf4jnsgd1na2vs0mg"},{"bike_id":"209b02f6-5e46-4763-b25f-1111f718782d","system_id":"levelo_inurba_marseille","lat":43.33571,"lon":5.38507,"is_reserved":false,"is_disabled":false,"rental_uris":{"android":"levelo://app?vid=209b02f6-5e46-4763-b25f-1111f718782d","ios":"levelo://app?vid=209b02f6-5e46-4763-b25f-1111f718782d"},"vehicle_type_id":"4","last_reported":1718903198,"current_range_meters":7600,"station_id":"","pricing_plan_id":"cebpf4jnsgd1na2vs0mg"},{"bike_id":"9c448baf-9195-4ce7-a2c8-bcd257450a08","system_id":"levelo_inurba_marseille","lat":43.290336,"lon":5.386425,"is_reserved":false,"is_disabled":false,"rental_uris":{"android":"levelo://app?vid=9c448baf-9195-4ce7-a2c8-bcd257450a08","ios":"levelo://app?vid=9c448baf-9195-4ce7-a2c8-bcd257450a08"},"vehicle_type_id":"4","last_reported":1718903198,"current_range_meters":0,"station_id":"ce4bh4p2rcd13ifvqe0g","pricing_plan_id":"cebpf4jnsgd1na2vs0mg"},{"bike_id":"1718db30-ff69-4278-b295-0714703d9a77","system_id":"levelo_inurba_marseille","lat":43.289307,"lon":5.38406,"is_reserved":false,"is_disabled":false,"rental_uris":{"android":"levelo://app?vid=1718db30-ff69-4278-b295-0714703d9a77","ios":"levelo://app?vid=1718db30-ff69-4278-b295-0714703d9a77"},"vehicle_type_id":"4","last_reported":1718903198,"current_range_meters":7200,"station_id":"ce4bh612rcd13ifvqe6g","pricing_plan_id":"cebpf4jnsgd1na2vs0mg"},{"bike_id":"d95cc5e4-c3e2-44f6-8638-7684c02ba264","system_id":"levelo_inurba_marseille","lat":43.290336,"lon":5.386425,"is_reserved":false,"is_disabled":false,"rental_uris":{"android":"levelo://app?vid=d95cc5e4-c3e2-44f6-8638-7684c02ba264","ios":"levelo://app?vid=d95cc5e4-c3e2-44f6-8638-7684c02ba264"},"vehicle_type_id":"4","last_reported":1718903198,"current_range_meters":16000,"station_id":"ce4bh4p2rcd13ifvqe0g","pricing_plan_id":"cebpf4jnsgd1na2vs0mg"},{"bike_id":"b487e72c-4b3e-4968-96c5-3b2fa8730ec0","system_id":"levelo_inurba_marseille","lat":43.2903,"lon":5.38646,"is_reserved":false,"is_disabled":false,"rental_uris":{"android":"levelo://app?vid=b487e72c-4b3e-4968-96c5-3b2fa8730ec0","ios":"levelo://app?vid=b487e72c-4b3e-4968-96c5-3b2fa8730ec0"},"vehicle_type_id":"4","last_reported":1718903198,"current_range_meters":0,"station_id":"ce4bh4p2rcd13ifvqe0g","pricing_plan_id":"cebpf4jnsgd1na2vs0mg"},{"bike_id":"758bbd62-ce09-4bbe-a091-ff407feae691","system_id":"levelo_inurba_marseille","lat":43.290336,"lon":5.386425,"is_reserved":false,"is_disabled":false,"rental_uris":{"android":"levelo://app?vid=758bbd62-ce09-4bbe-a091-ff407feae691","ios":"levelo://app?vid=758bbd62-ce09-4bbe-a091-ff407feae691"},"vehicle_type_id":"4","last_reported":1718903198,"current_range_meters":0,"station_id":"ce4bh4p2rcd13ifvqe0g","pricing_plan_id":"cebpf4jnsgd1na2vs0mg"},{"bike_id":"3912269d-3db3-413e-8fe7-52caaa494182","system_id":"levelo_inurba_marseille","lat":43.302759,"lon":5.400793,"is_reserved":false,"is_disabled":false,"rental_uris":{"android":"levelo://app?vid=3912269d-3db3-413e-8fe7-52caaa494182","ios":"levelo://app?vid=3912269d-3db3-413e-8fe7-52caaa494182"},"vehicle_type_id":"4","last_reported":1718903198,"current_range_meters":0,"station_id":"ce4bgvh2rcd13ifvqcs0","pricing_plan_id":"cebpf4jnsgd1na2vs0mg"},{"bike_id":"3ef3e90a-71d2-4f6b-b4a0-e0b33abdb962","system_id":"levelo_inurba_marseille","lat":43.289307,"lon":5.38406,"is_reserved":false,"is_disabled":false,"rental_uris":{"android":"levelo://app?vid=3ef3e90a-71d2-4f6b-b4a0-e0b33abdb962","ios":"levelo://app?vid=3ef3e90a-71d2-4f6b-b4a0-e0b33abdb962"},"vehicle_type_id":"4","last_reported":1718903198,"current_range_meters":800,"station_id":"ce4bh612rcd13ifvqe6g","pricing_plan_id":"cebpf4jnsgd1na2vs0mg"},{"bike_id":"0b19f773-3e0e-49ac-88e9-94d3f39b560d","system_id":"levelo_inurba_marseille","lat":43.29021,"lon":5.38641,"is_reserved":false,"is_disabled":false,"rental_uris":{"android":"levelo://app?vid=0b19f773-3e0e-49ac-88e9-94d3f39b560d","ios":"levelo://app?vid=0b19f773-3e0e-49ac-88e9-94d3f39b560d"},"vehicle_type_id":"4","last_reported":1718903198,"current_range_meters":0,"station_id":"ce4bh4p2rcd13ifvqe0g","pricing_plan_id":"cebpf4jnsgd1na2vs0mg"},