{"last_updated":1740517708,"ttl":60,"version":"2.2","data":{"bikes":[{"bike_id":"23bcbba1-6388-4ee7-8abd-865083accc76","system_id":"levelo_inurba_marseille","lat":43.29254,"lon":5.38435,"is_reserved":false,"is_disabled":false,"rental_uris":{"android":"levelo://app?vid=23bcbba1-6388-4ee7-8abd-865083accc76","ios":"levelo://app?vid=23bcbba1-6388-4ee7-8abd-865083accc76"},"vehicle_type_id":"4","last_reported":1740517709,"current_range_meters":2800,"station_id":"ce4bh692rcd13ifvqea0","pricing_plan_id":"cebpf4jnsgd1na2vs0mg"},{"bike_id":"e9597dee-7a2d-48db-85cd-e15d80ea0c56","system_id":"levelo_inurba_marseille","lat":43.30271,"lon":5.37663,"is_reserved":false,"is_disabled":false,"rental_uris":{"android":"levelo://app?vid=e9597dee-7a2d-48db-85cd-e15d80ea0c56","ios":"levelo://app?vid=e9597dee-7a2d-48db-85cd-e15d80ea0c56"},"vehicle_type_id":"4","last_reported":1740517709,"current_range_meters":3200,"station_id":"ce4bguh2rcd13ifvqcj0","pricing_plan_id":"cebpf4jnsgd1na2vs0mg"},{"bike_id":"15d63c41-d467-4e01-ab9d-1a4d98399eb8","system_id":"levelo_inurba_marseille","lat":43.280863,"lon":5.396584,"is_reserved":false,"is_disabled":true,"rental_uris":{"android":"levelo://app?vid=15d63c41-d467-4e01-ab9d-1a4d98399eb8","ios":"levelo://app?vid=15d63c41-d467-4e01-ab9d-1a4d98399eb8"},"vehicle_type_id":"4","last_reported":1740517709,"current_range_meters":3600,"station_id":"ce4bho12rcd13ifvqh2g","pricing_plan_id":"cebpf4jnsgd1na2vs0mg"},{"bike_id":"d4308f66-9a96-4170-8380-8cfee77009e0","system_id":"levelo_inurba_marseille","lat":43.287165,"lon":5.379355,"is_reserved":false,"is_disabled":false,"rental_uris":{"android":"levelo://app?vid=d4308f66-9a96-4170-8380-8cfee77009e0","ios":"levelo://app?vid=d4308f66-9a96-4170-8380-8cfee77009e0"},"vehicle_type_id":"4","last_reported":1740517709,"current_range_meters":4000,"station_id":"ce4bh9p2rcd13ifvqec0","pricing_plan_id":"cebpf4jnsgd1na2vs0mg"},{"bike_id":"0bb59f8f-b8ac-4d33-a0e2-78d519f78099","system_id":"levelo_inurba_marseille","lat":43.26233,"lon":5.4047,"is_reserved":false,"is_disabled":false,"rental_uris":{"android":"levelo://app?vid=0bb59f8f-b8ac-4d33-a0e2-78d519f78099","ios":"levelo://app?vid=0bb59f8f-b8ac-4d33-a0e2-78d519f78099"},"vehicle_type_id":"4","last_reported":1740517709,"current_range_meters":4400,"station_id":"ce4bhmh2rcd13ifvqgmg","pricing_plan_id":"cebpf4jnsgd1na2vs0mg"},{"bike_id":"43f23125-3843-482e-b71c-c98851aaae0a","system_id":"levelo_inurba_marseille","lat":43.29278,"lon":5.40108,"is_reserved":false,"is_disabled":false,"rental_uris":{"android":"levelo://app?vid=43f23125-3843-482e-b71c-c98851aaae0a","ios":"levelo://app?vid=43f23125-3843-482e-b71c-c98851aaae0a"},"vehicle_type_id":"4","last_reported":1740517709,"current_range_meters":4400,"station_id":"ce4bh312rcd13ifvqdk0","pricing_plan_id":"cebpf4jnsgd1na2vs0mg"},{"bike_id":"71f606a5-4879-4b26-9ccd-1543fb1a6ec7","system_id":"levelo_inurba_marseille","lat":43.28324,"lon":5.3903,"is_reserved":false,"is_disabled":false,"rental_uris":{"android":"levelo://app?vid=71f606a5-4879-4b26-9ccd-1543fb1a6ec7","ios":"levelo://app?vid=71f606a5-4879-4b26-9ccd-1543fb1a6ec7"},"vehicle_type_id":"4","last_reported":1740517709,"current_range_meters":4400,"station_id":"","pricing_plan_id":"cebpf4jnsgd1na2vs0mg"},{"bike_id":"432ff3b1-2ffb-4dd5-910a-aa39ee1d3010","system_id":"levelo_inurba_marseille","lat":43.27833,"lon":5.39203,"is_reserved":false,"is_disabled":false,"rental_uris":{"android":"levelo://app?vid=432ff3b1-2ffb-4dd5-910a-aa39ee1d3010","ios":"levelo://app?vid=432ff3b1-2ffb-4dd5-910a-aa39ee1d3010"},"vehicle_type_id":"4","last_reported":1740517709,"current_range_meters":4400,"station_id":"ce4bhjp2rcd13ifvqga0","pricing_plan_id":"cebpf4jnsgd1na2vs0mg"},{"bike_id":"8e5f8979-454f-4328-ad14-2b913193c702","system_id":"levelo_inurba_marseille","lat":43.31116,"lon":5.37767,"is_reserved":false,"is_disabled":false,"rental_uris":{"android":"levelo://app?vid=8e5f8979-454f-4328-ad14-2b913193c702","ios":"levelo://app?vid=8e5f8979-454f-4328-ad14-2b913193c702"},"vehicle_type_id":"4","last_reported":1740517709,"current_range_meters":4400,"station_id":"ce4bgt92rcd13ifvqcg0","pricing_plan_id":"cebpf4jnsgd1na2vs0mg"},{"bike_id":"f3e2d31b-bf16-4d93-8358-e1b5fc69cdb1","system_id":"levelo_inurba_marseille","lat":43.28149,"lon":5.39872,"is_reserved":false,"is_disabled":false,"rental_uris":{"android":"levelo://app?vid=f3e2d31b-bf16-4d93-8358-e1b5fc69cdb1","ios":"levelo://app?vid=f3e2d31b-bf16-4d93-8358-e1b5fc69cdb1"},"vehicle_type_id":"4","last_reported":1740517709,"current_range_meters":4400,"station_id":"","pricing_plan_id":"cebpf4jnsgd1na2vs0mg"},{"bike_id":"f026d83e-e658-4ef0-9fbb-0d79626b1045","system_id":"levelo_inurba_marseille","lat":43.28497,"lon":5.3842,"is_reserved":false,"is_disabled":false,"rental_uris":{"android":"levelo://app?vid=f026d83e-e658-4ef0-9fbb-0d79626b1045","ios":"levelo://app?vid=f026d83e-e658-4ef0-9fbb-0d79626b1045"},"vehicle_type_id":"4","last_reported":1740517709,"current_range_meters":4800,"station_id":"ce4bh512rcd13ifvqe3g","pricing_plan_id":"cebpf4jnsgd1na2vs0mg"},{"bike_id":"113b8a40-37a4-4418-87c5-5b922504b1b0","system_id":"levelo_inurba_marseille","lat":43.28467,"lon":5.35897,"is_reserved":false,"is_disabled":false,"rental_uris":{"android":"levelo://app?vid=113b8a40-37a4-4418-87c5-5b922504b1b0","ios":"levelo://app?vid=113b8a40-37a4-4418-87c5-5b922504b1b0"},"vehicle_type_id":"4","last_reported":1740517709,"current_range_meters":4800,"station_id":"ce4bhah2rcd13ifvqei0","pricing_plan_id":"cebpf4jnsgd1na2vs0mg"},{"bike_id":"d6527709-66f1-412c-979b-1e1fb7894914","system_id":"levelo_inurba_marseille","lat":43.30803,"lon":5.37664,"is_reserved":false,"is_disabled":false,"rental_uris":{"android":"levelo://app?vid=d6527709-66f1-412c-979b-1e1fb7894914","ios":"levelo://app?vid=d6527709-66f1-412c-979b-1e1fb7894914"},"vehicle_type_id":"4","last_reported":1740517709,"current_range_meters":4400,"station_id":"ce4bgv92rcd13ifvqcq0","pricing_plan_id":"cebpf4jnsgd1na2vs0mg"},{"bike_id":"418561d6-2aa6-4965-af3c-a3866ed6b87e","system_id":"levelo_inurba_marseille","lat":43.27618,"lon":5.36113,"is_reserved":false,"is_disabled":false,"rental_uris":{"android":"levelo://app?vid=418561d6-2aa6-4965-af3c-a3866ed6b87e","ios":"levelo://app?vid=418561d6-2aa6-4965-af3c-a3866ed6b87e"},"vehicle_type_id":"4","last_reported":1740517709,"current_range_meters":11200,"station_id":"ce4bgj92rcd13ifvqbe0","pricing_plan_id":"cebpf4jnsgd1na2vs0mg"},{"bike_id":"a20f4f86-8a37-41be-bf41-963fa04395e3","system_id":"levelo_inurba_marseille","lat":43.29022,"lon":5.3862,"is_reserved":false,"is_disabled":true,"rental_uris":{"android":"levelo://app?vid=a20f4f86-8a37-41be-bf41-963fa04395e3","ios":"levelo://app?vid=a20f4f86-8a37-41be-bf41-963fa04395e3"},"vehicle_type_id":"4","last_reported":1740517709,"current_range_meters":4800,"station_id":"ce4bh4p2rcd13ifvqe0g","pricing_plan_id":"cebpf4jnsgd1na2vs0mg"},{"bike_id":"89fe77bb-8854-4c02-9f9d-d7d2c3e509ef","system_id":"levelo_inurba_marseille","lat":43.28485,"lon":5.3842,"is_reserved":false,"is_disabled":false,"rental_uris":{"android":"levelo://app?vid=89fe77bb-8854-4c02-9f9d-d7d2c3e509ef","ios":"levelo://app?vid=89fe77bb-8854-4c02-9f9d-d7d2c3e509ef"},"vehicle_type_id":"4","last_reported":1740517709,"current_range_meters":5600,"station_id":"ce4bh512rcd13ifvqe3g","pricing_plan_id":"cebpf4jnsgd1na2vs0mg"},{"bike_id":"da634367-acad-40de-ac7c-eb1fe9e9f106","system_id":"levelo_inurba_marseille","lat":43.28662,"lon":5.3738,"is_reserved":false,"is_disabled":true,"rental_uris":{"android":"levelo://app?vid=da634367-acad-40de-ac7c-eb1fe9e9f106","ios":"levelo://app?vid=da634367-acad-40de-ac7c-eb1fe9e9f106"},"vehicle_type_id":"4","last_reported":1740517709,"current_range_meters":6000,"station_id":"ce4bh3p2rcd13ifvqdq0","pricing_plan_id":"cebpf4jnsgd1na2vs0mg"},{"bike_id":"322c0db9-e580-4b56-9659-2338e6a758a3","system_id":"levelo_inurba_marseille","lat":43.30477,"lon":5.38192,"is_reserved":false,"is_disabled":false,"rental_uris":{"android":"levelo://app?vid=322c0db9-e580-4b56-9659-2338e6a758a3","ios":"levelo://app?vid=322c0db9-e580-4b56-9659-2338e6a758a3"},"vehicle_type_id":"4","last_reported":1740517709,"current_range_meters":6000,"station_id":"","pricing_plan_id":"cebpf4jnsgd1na2vs0mg"},{"bike_id":"17150a21-63a8-4df4-92e7-b364b699a6c6","system_id":"levelo_inurba_marseille","lat":43.23202,"lon":5.3999,"is_reserved":false,"is_disabled":true,"rental_uris":{"android":"levelo://app?vid=17150a21-63a8-4df4-92e7-b364b699a6c6","ios":"levelo://app?vid=17150a21-63a8-4df4-92e7-b364b699a6c6"},"vehicle_type_id":"4","last_reported":1740517709,"current_range_meters":6000,"station_id":"ce4bhn12rcd13ifvqgqg","pricing_plan_id":"cebpf4jnsgd1na2vs0mg"},{"bike_id":"b13858bb-7c44-42c9-9f81-cd83b80c4cec","system_id":"levelo_inurba_marseille","lat":43.26243,"lon":5.40483,"is_reserved":false,"is_disabled":false,"rental_uris":{"android":"levelo://app?vid=b13858bb-7c44-42c9-9f81-cd83b80c4cec","ios":"levelo://app?vid=b13858bb-7c44-42c9-9f81-cd83b80c4cec"},"vehicle_type_id":"4","last_reported":1740517709,"current_range_meters":6000,"station_id":"ce4bhmh2rcd13ifvqgmg","pricing_plan_id":"cebpf4jnsgd1na2vs0mg"},{"bike_id":"b33978f7-7190-4fd6-910f-bb510fe1c5a7","system_id":"levelo_inurba_marseille","lat":43.23177,"lon":5.39991,"is_reserved":false,"is_disabled":false,"rental_uris":{"android":"levelo://app?vid=b33978f7-7190-4fd6-910f-bb510fe1c5a7","ios":"levelo://app?vid=b33978f7-7190-4fd6-910f-bb510fe1c5a7"},"vehicle_type_id":"4","last_reported":1740517709,"current_range_meters":6400,"station_id":"ce4bhn12rcd13ifvqgqg","pricing_plan_id":"cebpf4jnsgd1na2vs0mg"},{"bike_id":"24067980-02e9-4519-860c-537348a90469","system_id":"levelo_inurba_marseille","lat":43.304202,"lon":5.412825,"is_reserved":false,"is_disabled":false,"rental_uris":{"android":"levelo://app?vid=24067980-02e9-4519-860c-537348a90469","ios":"levelo://app?vid=24067980-02e9-4519-860c-537348a90469"},"vehicle_type_id":"4","last_reported":1740517709,"current_range_meters":6400,"station_id":"ce4bhop2rcd13ifvqh8g","pricing_plan_id":"cebpf4jnsgd1na2vs0mg"},{"bike_id":"44ba910d-a4ee-4290-bbbc-10c3adcda074","system_id":"levelo_inurba_marseille","lat":43.2808,"lon":5.39655,"is_reserved":false,"is_disabled":false,"rental_uris":{"android":"levelo://app?vid=44ba910d-a4ee-4290-bbbc-10c3adcda074","ios":"levelo://app?vid=44ba910d-a4ee-4290-bbbc-10c3adcda074"},"vehicle_type_id":"4","last_reported":1740517709,"current_range_meters":6400,"station_id":"ce4bho12rcd13ifvqh2g","pricing_plan_id":"cebpf4jnsgd1na2vs0mg"},{"bike_id":"49b1c35d-6bce-4f75-9e22-b7855ca8e012","system_id":"levelo_inurba_marseille","lat":43.29421,"lon":5.38621,"is_reserved":false,"is_disabled":false,"rental_uris":{"android":"levelo://app?vid=49b1c35d-6bce-4f75-9e22-b7855ca8e012","ios":"levelo://app?vid=49b1c35d-6bce-4f75-9e22-b7855ca8e012"},"vehicle_type_id":"4","last_reported":1740517709,"current_range_meters":6400,"station_id":"ce4bh2h2rcd13ifvqdh0","pricing_plan_id":"cebpf4jnsgd1na2vs0mg"},{"bike_id":"04e6b325-7624-4654-91b3-73c4aff25f1d","system_id":"levelo_inurba_marseille","lat":43.29242,"lon":5.38438,"is_reserved":false,"is_disabled":false,"rental_uris":{"android":"levelo://app?vid=04e6b325-7624-4654-91b3-73c4aff25f1d","ios":"levelo://app?vid=04e6b325-7624-4654-91b3-73c4aff25f1d"},"vehicle_type_id":"4","last_reported":1740517709,"current_range_meters":6400,"station_id":"ce4bh692rcd13ifvqea0","pricing_plan_id":"cebpf4jnsgd1na2vs0mg"},{"bike_id":"55c101dc-b42d-43a5-9df4-19718eecb72d","system_id":"levelo_inurba_marseille","lat":43.28888,"lon":5.35785,"is_reserved":false,"is_disabled":false,"rental_uris":{"android":"levelo://app?vid=55c101dc-b42d-43a5-9df4-19718eecb72d","ios":"levelo://app?vid=55c101dc-b42d-43a5-9df4-19718eecb72d"},"vehicle_type_id":"4","last_reported":1740517709,"current_range_meters":6400,"station_id":"ce4bhb12rcd13ifvqem0","pricing_plan_id":"cebpf4jnsgd1na2vs0mg"},{"bike_id":"755a0161-62b4-4833-ab12-ccd6ceb6dd1f","system_id":"levelo_inurba_marseille","lat":43.3092,"lon":5.40175,"is_reserved":false,"is_disabled":true,"rental_uris":{"android":"levelo://app?vid=755a0161-62b4-4833-ab12-ccd6ceb6dd1f","ios":"levelo://app?vid=755a0161-62b4-4833-ab12-ccd6ceb6dd1f"},"vehicle_type_id":"4","last_reported":1740517709,"current_range_meters":6400,"station_id":"ce4bgvp2rcd13ifvqct0","pricing_plan_id":"cebpf4jnsgd1na2vs0mg"},{"bike_id":"712b731a-e2f2-422a-a64c-58b6bbd80b86","system_id":"levelo_inurba_marseille","lat":43.29507,"lon":5.38536,"is_reserved":false,"is_disabled":false,"rental_uris":{"android":"levelo://app?vid=712b731a-e2f2-422a-a64c-58b6bbd80b86","ios":"levelo://app?vid=712b731a-e2f2-422a-a64c-58b6bbd80b86"},"vehicle_type_id":"4","last_reported":1740517709,"current_range_meters":6800,"station_id":"ce4bgih2rcd13ifvqba0","pricing_plan_id":"cebpf4jnsgd1na2vs0mg"},{"bike_id":"8c319107-735d-4235-8b26-7f1391a68542","system_id":"levelo_inurba_marseille","lat":43.28003,"lon":5.41696,"is_reserved":false,"is_disabled":false,"rental_uris":{"android":"levelo://app?vid=8c319107-735d-4235-8b26-7f1391a68542","ios":"levelo://app?vid=8c319107-735d-4235-8b26-7f1391a68542"},"vehicle_type_id":"4","last_reported":1740517709,"current_range_meters":6800,"station_id":"ce4bho12rcd13ifvqh1g","pricing_plan_id":"cebpf4jnsgd1na2vs0mg"},{"bike_id":"0ca81608-f491-428e-8676-572d859eb79c","system_id":"levelo_inurba_marseille","lat":43.23188,"lon":5.40017,"is_reserved":false,"is_disabled":false,"rental_uris":{"android":"levelo://app?vid=0ca81608-f491-428e-8676-572d859eb79c","ios":"levelo://app?vid=0ca81608-f491-428e-8676-572d859eb79c"},"vehicle_type_id":"4","last_reported":1740517709,"current_range_meters":6800,"station_id":"ce4bhn12rcd13ifvqgqg","pricing_plan_id":"cebpf4jnsgd1na2vs0mg"},{"bike_id":"56a05065-ca08-43e8-a39d-ee73850d3d7c","system_id":"levelo_inurba_marseille","lat":43.29916,"lon":5.39763,"is_reserved":false,"is_disabled":false,"rental_uris":{"android":"levelo://app?vid=56a05065-ca08-43e8-a39d-ee73850d3d7c","ios":"levelo://app?vid=56a05065-ca08-43e8-a39d-ee73850d3d7c"},"vehicle_type_id":"4","last_reported":1740517709,"current_range_meters":6800,"station_id":"ce4bh0h2rcd13ifvqd50","pricing_plan_id":"cebpf4jnsgd1na2vs0mg"},{"bike_id":"c59a647b-a23a-4e1a-a7f6-4e7d24f39b19","system_id":"levelo_inurba_marseille","lat":43.29404,"lon":5.40143,"is_reserved":false,"is_disabled":false,"rental_uris":{"android":"levelo://app?vid=c59a647b-a23a-4e1a-a7f6-4e7d24f39b19","ios":"levelo://app?vid=c59a647b-a23a-4e1a-a7f6-4e7d24f39b19"},"vehicle_type_id":"4","last_reported":1740517709,"current_range_meters":6800,"station_id":"","pricing_plan_id":"cebpf4jnsgd1na2vs0mg"},{"bike_id":"a029797b-26aa-43f7-a644-1e5542062099","system_id":"levelo_inurba_marseille","lat":43.30935,"lon":5.40134,"is_reserved":false,"is_disabled":true,"rental_uris":{"android":"levelo://app?vid=a029797b-26aa-43f7-a644-1e5542062099","ios":"levelo://app?vid=a029797b-26aa-43f7-a644-1e5542062099"},"vehicle_type_id":"4","last_reported":1740517709,"current_range_meters":6800,"station_id":"ce4bgvp2rcd13ifvqct0","pricing_plan_id":"cebpf4jnsgd1na2vs0mg"},{"bike_id":"b0319319-1ae3-4867-bf81-d240c9f190cb","system_id":"levelo_inurba_marseille","lat":43.28628,"lon":5.35081,"is_reserved":false,"is_disabled":false,"rental_uris":{"android":"levelo://app?vid=b0319319-1ae3-4867-bf81-d240c9f190cb","ios":"levelo://app?vid=b0319319-1ae3-4867-bf81-d240c9f190cb"},"vehicle_type_id":"4","last_reported":1740517709,"current_range_meters":6800,"station_id":"ce4bhch2rcd13ifvqeug","pricing_plan_id":"cebpf4jnsgd1na2vs0mg"},{"bike_id":"95f71bbc-23ff-4f21-8a0b-e206339b10a8","system_id":"levelo_inurba_marseille","lat":43.34141,"lon":5.40908,"is_reserved":false,"is_disabled":false,"rental_uris":{"android":"levelo://app?vid=95f71bbc-23ff-4f21-8a0b-e206339b10a8","ios":"levelo://app?vid=95f71bbc-23ff-4f21-8a0b-e206339b10a8"},"vehicle_type_id":"4","last_reported":1740517709,"current_range_meters":6800,"station_id":"ce4bhqh2rcd13ifvqhlg","pricing_plan_id":"cebpf4jnsgd1na2vs0mg"},{"bike_id":"1c8236a9-96fb-443c-bf9a-d26ed00cc14f","system_id":"levelo_inurba_marseille","lat":43.24659,"lon":5.38157,"is_reserved":false,"is_disabled":false,"rental_uris":{"android":"levelo://app?vid=1c8236a9-96fb-443c-bf9a-d26ed00cc14f","ios":"levelo://app?vid=1c8236a9-96fb-443c-bf9a-d26ed00cc14f"},"vehicle_type_id":"4","last_reported":1740517709,"current_range_meters":6800,"station_id":"ce4bhih2rcd13ifvqfr0","pricing_plan_id":"cebpf4jnsgd1na2vs0mg"},{"bike_id":"66613f8e-b400-438d-83dc-9aed1edc478d","system_id":"levelo_inurba_marseille","lat":43.28614,"lon":5.35104,"is_reserved":false,"is_disabled":false,"rental_uris":{"android":"levelo://app?vid=66613f8e-b400-438d-83dc-9aed1edc478d","ios":"levelo://app?vid=66613f8e-b400-438d-83dc-9aed1edc478d"},"vehicle_type_id":"4","last_reported":1740517709,"current_range_meters":7200,"station_id":"ce4bhch2rcd13ifvqeug","pricing_plan_id":"cebpf4jnsgd1na2vs0mg"},{"bike_id":"5162c2ce-a731-4d3b-a21a-a1c8cb63150f","system_id":"levelo_inurba_marseille","lat":43.31717,"lon":5.43701,"is_reserved":false,"is_disabled":false,"rental_uris":{"android":"levelo://app?vid=5162c2ce-a731-4d3b-a21a-a1c8cb63150f","ios":"levelo://app?vid=5162c2ce-a731-4d3b-a21a-a1c8cb63150f"},"vehicle_type_id":"4","last_reported":1740517709,"current_range_meters":7200,"station_id":"ce4bhp92rcd13ifvqhcg","pricing_plan_id":"cebpf4jnsgd1na2vs0mg"},{"bike_id":"9571b162-82ed-4426-aa5e-4587ee2d3fd0","system_id":"levelo_inurba_marseille","lat":43.28615,"lon":5.35107,"is_reserved":false,"is_disabled":false,"rental_uris":{"android":"levelo://app?vid=9571b162-82ed-4426-aa5e-4587ee2d3fd0","ios":"levelo://app?vid=9571b162-82ed-4426-aa5e-4587ee2d3fd0"},"vehicle_type_id":"4","last_reported":1740517709,"current_range_meters":7200,"station_id":"ce4bhch2rcd13ifvqeug","pricing_plan_id":"cebpf4jnsgd1na2vs0mg"},{"bike_id":"461e8f81-f8e8-49d1-8f5c-afa08647382f","system_id":"levelo_inurba_marseille","lat":43.30562,"lon":5.36719,"is_reserved":false,"is_disabled":false,"rental_uris":{"android":"levelo://app?vid=461e8f81-f8e8-49d1-8f5c-afa08647382f","ios":"levelo://app?vid=461e8f81-f8e8-49d1-8f5c-afa08647382f"},"vehicle_type_id":"4","last_reported":1740517709,"current_range_meters":7200,"station_id":"ce4bgrp2rcd13ifvqc9g","pricing_plan_id":"cebpf4jnsgd1na2vs0mg"},{"bike_id":"80dcec99-d14d-454c-af74-799686309b71","system_id":"levelo_inurba_marseille","lat":43.28262,"lon":5.3506,"is_reserved":false,"is_disabled":false,"rental_uris":{"android":"levelo://app?vid=80dcec99-d14d-454c-af74-799686309b71","ios":"levelo://app?vid=80dcec99-d14d-454c-af74-799686309b71"},"vehicle_type_id":"4","last_reported":1740517709,"current_range_meters":8000,"station_id":"ce4bhbp2rcd13ifvqerg","pricing_plan_id":"cebpf4jnsgd1na2vs0mg"},{"bike_id":"146aebc9-098b-47c2-b26e-46c1350561bc","system_id":"levelo_inurba_marseille","lat":43.33772,"lon":5.37472,"is_reserved":false,"is_disabled":false,"rental_uris":{"android":"levelo://app?vid=146aebc9-098b-47c2-b26e-46c1350561bc","ios":"levelo://app?vid=146aebc9-098b-47c2-b26e-46c1350561bc"},"vehicle_type_id":"4","last_reported":1740517709,"current_range_meters":8000,"station_id":"","pricing_plan_id":"cebpf4jnsgd1na2vs0mg"},{"bike_id":"f80ae02a-2634-4648-af62-475ab70cb732","system_id":"levelo_inurba_marseille","lat":43.28263,"lon":5.35053,"is_reserved":false,"is_disabled":false,"rental_uris":{"android":"levelo://app?vid=f80ae02a-2634-4648-af62-475ab70cb732","ios":"levelo://app?vid=f80ae02a-2634-4648-af62-475ab70cb732"},"vehicle_type_id":"4","last_reported":1740517709,"current_range_meters":8000,"station_id":"ce4bhbp2rcd13ifvqerg","pricing_plan_id":"cebpf4jnsgd1na2vs0mg"},{"bike_id":"e84aba14-8678-4c9d-aedc-4fc48e21e259","system_id":"levelo_inurba_marseille","lat":43.28376,"lon":5.38645,"is_reserved":false,"is_disabled":false,"rental_uris":{"android":"levelo://app?vid=e84aba14-8678-4c9d-aedc-4fc48e21e259","ios":"levelo://app?vid=e84aba14-8678-4c9d-aedc-4fc48e21e259"},"vehicle_type_id":"4","last_reported":1740517709,"current_range_meters":8000,"station_id":"ce4bh492rcd13ifvqdvg","pricing_plan_id":"cebpf4jnsgd1na2vs0mg"},{"bike_id":"5d16d1bf-f6ed-4f5b-bb86-2af7c04f4aef","system_id":"levelo_inurba_marseille","lat":43.25697,"lon":5.41046,"is_reserved":false,"is_disabled":false,"rental_uris":{"android":"levelo://app?vid=5d16d1bf-f6ed-4f5b-bb86-2af7c04f4aef","ios":"levelo://app?vid=5d16d1bf-f6ed-4f5b-bb86-2af7c04f4aef"},"vehicle_type_id":"4","last_reported":1740517709,"current_range_meters":8000,"station_id":"ce4bhkp2rcd13ifvqgd0","pricing_plan_id":"cebpf4jnsgd1na2vs0mg"},{"bike_id":"ad15a503-e243-4704-8cbb-77d92c75e1d9","system_id":"levelo_inurba_marseille","lat":43.284396,"lon":5.391928,"is_reserved":false,"is_disabled":true,"rental_uris":{"android":"levelo://app?vid=ad15a503-e243-4704-8cbb-77d92c75e1d9","ios":"levelo://app?vid=ad15a503-e243-4704-8cbb-77d92c75e1d9"},"vehicle_type_id":"4","last_reported":1740517709,"current_range_meters":8000,"station_id":"ce4bhoh2rcd13ifvqh5g","pricing_plan_id":"cebpf4jnsgd1na2vs0mg"},{"bike_id":"5e6e4180-b546-4423-88ea-57e8daca70d7","system_id":"levelo_inurba_marseille","lat":43.29564,"lon":5.39962,"is_reserved":false,"is_disabled":false,"rental_uris":{"android":"levelo://app?vid=5e6e4180-b546-4423-88ea-57e8daca70d7","ios":"levelo://app?vid=5e6e4180-b546-4423-88ea-57e8daca70d7"},"vehicle_type_id":"4","last_reported":1740517709,"current_range_meters":8000,"station_id":"ce4bh312rcd13ifvqdj0","pricing_plan_id":"cebpf4jnsgd1na2vs0mg"},{"bike_id":"64fc711e-b181-40f9-b5d5-796514708c1e","system_id":"levelo_inurba_marseille","lat":43.27982,"lon":5.41662,"is_reserved":false,"is_disabled":false,"rental_uris":{"android":"levelo://app?vid=64fc711e-b181-40f9-b5d5-796514708c1e","ios":"levelo://app?vid=64fc711e-b181-40f9-b5d5-796514708c1e"},"vehicle_type_id":"4","last_reported":1740517709,"current_range_meters":8400,"station_id":"ce4bho12rcd13ifvqh1g","pricing_plan_id":"cebpf4jnsgd1na2vs0mg"},{"bike_id":"756989b1-c347-4776-bce4-8b7b90a36817","system_id":"levelo_inurba_marseille","lat":43.231838,"lon":5.399908,"is_reserved":false,"is_disabled":false,"rental_uris":{"android":"levelo://app?vid=756989b1-c347-4776-bce4-8b7b90a36817","ios":"levelo://app?vid=756989b1-c347-4776-bce4-8b7b90a36817"},"vehicle_type_id":"4","last_reported":1740517709,"current_range_meters":8400,"station_id":"ce4bhn12rcd13ifvqgqg","pricing_plan_id":"cebpf4jnsgd1na2vs0mg"},{"bike_id":"8f1d4600-78a5-4659-8a3c-759cb0ac741b","system_id":"levelo_inurba_marseille","lat":43.27843,"lon":5.39203,"is_reserved":false,"is_disabled":false,"rental_uris":{"android":"levelo://app?vid=8f1d4600-78a5-4659-8a3c-759cb0ac741b","ios":"levelo://app?vid=8f1d4600-78a5-4659-8a3c-759cb0ac741b"},"vehicle_type_id":"4","last_reported":1740517709,"current_range_meters":8400,"station_id":"ce4bhjp2rcd13ifvqga0","pricing_plan_id":"cebpf4jnsgd1na2vs0mg"},{"bike_id":"e60c3d7a-558d-40da-9213-6b846f4e8868","system_id":"levelo_inurba_marseille","lat":43.28169,"lon":5.42687,"is_reserved":false,"is_disabled":false,"rental_uris":{"android":"levelo://app?vid=e60c3d7a-558d-40da-9213-6b846f4e8868","ios":"levelo://app?vid=e60c3d7a-558d-40da-9213-6b846f4e8868"},"vehicle_type_id":"4","last_reported":1740517709,"current_range_meters":8800,"station_id":"ce4bhnh2rcd13ifvqgug","pricing_plan_id":"cebpf4jnsgd1na2vs0mg"},{"bike_id":"04fed40f-6366-4adc-8110-34cd72fc4be4","system_id":"levelo_inurba_marseille","lat":43.284107,"lon":5.357637,"is_reserved":false,"is_disabled":false,"rental_uris":{"android":"levelo://app?vid=04fed40f-6366-4adc-8110-34cd72fc4be4","ios":"levelo://app?vid=04fed40f-6366-4adc-8110-34cd72fc4be4"},"vehicle_type_id":"4","last_reported":1740517709,"current_range_meters":8800,"station_id":"","pricing_plan_id":"cebpf4jnsgd1na2vs0mg"},{"bike_id":"ae8a19c6-d644-4dc9-829e-8caf6b1d2af0","system_id":"levelo_inurba_marseille","lat":43.27213,"lon":5.39213,"is_reserved":false,"is_disabled":true,"rental_uris":{"android":"levelo://app?vid=ae8a19c6-d644-4dc9-829e-8caf6b1d2af0","ios":"levelo://app?vid=ae8a19c6-d644-4dc9-829e-8caf6b1d2af0"},"vehicle_type_id":"4","last_reported":1740517709,"current_range_meters":8800,"station_id":"ce4bhhp2rcd13ifvqfm0","pricing_plan_id":"cebpf4jnsgd1na2vs0mg"},{"bike_id":"abcc90b2-bd64-475d-a3aa-609c40f99fb9","system_id":"levelo_inurba_marseille","lat":43.28487,"lon":5.3843,"is_reserved":false,"is_disabled":false,"rental_uris":{"android":"levelo://app?vid=abcc90b2-bd64-475d-a3aa-609c40f99fb9","ios":"levelo://app?vid=abcc90b2-bd64-475d-a3aa-609c40f99fb9"},"vehicle_type_id":"4","last_reported":1740517709,"current_range_meters":8800,"station_id":"ce4bh512rcd13ifvqe3g","pricing_plan_id":"cebpf4jnsgd1na2vs0mg"},{"bike_id":"02a2e993-3c81-4f83-b739-e35ca5466968","system_id":"levelo_inurba_marseille","lat":43.28678,"lon":5.38674,"is_reserved":false,"is_disabled":false,"rental_uris":{"android":"levelo://app?vid=02a2e993-3c81-4f83-b739-e35ca5466968","ios":"levelo://app?vid=02a2e993-3c81-4f83-b739-e35ca5466968"},"vehicle_type_id":"4","last_reported":1740517709,"current_range_meters":9600,"station_id":"ce4bh492rcd13ifvqdug","pricing_plan_id":"cebpf4jnsgd1na2vs0mg"},{"bike_id":"e5c275a2-a964-47d8-9489-ed1126cf4cef","system_id":"levelo_inurba_marseille","lat":43.29616,"lon":5.37943,"is_reserved":false,"is_disabled":false,"rental_uris":{"android":"levelo://app?vid=e5c275a2-a964-47d8-9489-ed1126cf4cef","ios":"levelo://app?vid=e5c275a2-a964-47d8-9489-ed1126cf4cef"},"vehicle_type_id":"4","last_reported":1740517709,"current_range_meters":9200,"station_id":"","pricing_plan_id":"cebpf4jnsgd1na2vs0mg"},{"bike_id":"7b320f13-55f6-4dc6-b0ad-9bd62a123951","system_id":"levelo_inurba_marseille","lat":43.28935,"lon":5.36626,"is_reserved":false,"is_disabled":false,"rental_uris":{"android":"levelo://app?vid=7b320f13-55f6-4dc6-b0ad-9bd62a123951","ios":"levelo://app?vid=7b320f13-55f6-4dc6-b0ad-9bd62a123951"},"vehicle_type_id":"4","last_reported":1740517709,"current_range_meters":9200,"station_id":"ce4bhap2rcd13ifvqek0","pricing_plan_id":"cebpf4jnsgd1na2vs0mg"},{"bike_id":"fa0fd479-49df-47e5-9d21-fe77857465d8","system_id":"levelo_inurba_marseille","lat":43.23962,"lon":5.36647,"is_reserved":false,"is_disabled":false,"rental_uris":{"android":"levelo://app?vid=fa0fd479-49df-47e5-9d21-fe77857465d8","ios":"levelo://app?vid=fa0fd479-49df-47e5-9d21-fe77857465d8"},"vehicle_type_id":"4","last_reported":1740517709,"current_range_meters":9200,"station_id":"ce4bhi12rcd13ifvqfp0","pricing_plan_id":"cebpf4jnsgd1na2vs0mg"},{"bike_id":"e9e390b6-ca19-408b-9906-6e45392167f3","system_id":"levelo_inurba_marseille","lat":43.30892,"lon":5.39658,"is_reserved":false,"is_disabled":false,"rental_uris":{"android":"levelo://app?vid=e9e390b6-ca19-408b-9906-6e45392167f3","ios":"levelo://app?vid=e9e390b6-ca19-408b-9906-6e45392167f3"},"vehicle_type_id":"4","last_reported":1740517709,"current_range_meters":8800,"station_id":"ce4bh012rcd13ifvqcv0","pricing_plan_id":"cebpf4jnsgd1na2vs0mg"},{"bike_id":"09a58a03-56f4-486c-a6f7-468f3332eea8","system_id":"levelo_inurba_marseille","lat":43.24558,"lon":5.39543,"is_reserved":false,"is_disabled":false,"rental_uris":{"android":"levelo://app?vid=09a58a03-56f4-486c-a6f7-468f3332eea8","ios":"levelo://app?vid=09a58a03-56f4-486c-a6f7-468f3332eea8"},"vehicle_type_id":"4","last_reported":1740517709,"current_range_meters":9200,"station_id":"ce4bhlp2rcd13ifvqgjg","pricing_plan_id":"cebpf4jnsgd1na2vs0mg"},{"bike_id":"d63e6b73-2e67-4d24-9c37-9cec8ca61cb8","system_id":"levelo_inurba_marseille","lat":43.28725,"lon":5.37938,"is_reserved":false,"is_disabled":false,"rental_uris":{"android":"levelo://app?vid=d63e6b73-2e67-4d24-9c37-9cec8ca61cb8","ios":"levelo://app?vid=d63e6b73-2e67-4d24-9c37-9cec8ca61cb8"},"vehicle_type_id":"4","last_reported":1740517709,"current_range_meters":6400,"station_id":"ce4bh9p2rcd13ifvqec0","pricing_plan_id":"cebpf4jnsgd1na2vs0mg"},{"bike_id":"8ec584e6-6850-4470-8223-2930ee03d0d0","system_id":"levelo_inurba_marseille","lat":43.29968,"lon":5.38568,"is_reserved":false,"is_disabled":false,"rental_uris":{"android":"levelo://app?vid=8ec584e6-6850-4470-8223-2930ee03d0d0","ios":"levelo://app?vid=8ec584e6-6850-4470-8223-2930ee03d0d0"},"vehicle_type_id":"4","last_reported":1740517709,"current_range_meters":9200,"station_id":"","pricing_plan_id":"cebpf4jnsgd1na2vs0mg"},{"bike_id":"b301d4a6-d7b2-4729-8a87-0ef1b2650231","system_id":"levelo_inurba_marseille","lat":43.30778,"lon":5.3766,"is_reserved":false,"is_disabled":false,"rental_uris":{"android":"levelo://app?vid=b301d4a6-d7b2-4729-8a87-0ef1b2650231","ios":"levelo://app?vid=b301d4a6-d7b2-4729-8a87-0ef1b2650231"},"vehicle_type_id":"4","last_reported":1740517709,"current_range_meters":9600,"station_id":"ce4bgv92rcd13ifvqcq0","pricing_plan_id":"cebpf4jnsgd1na2vs0mg"},{"bike_id":"b8056528-61d4-45d9-b2dd-e6ab8ef50c51","system_id":"levelo_inurba_marseille","lat":43.31278,"lon":5.40184,"is_reserved":false,"is_disabled":false,"rental_uris":{"android":"levelo://app?vid=b8056528-61d4-45d9-b2dd-e6ab8ef50c51","ios":"levelo://app?vid=b8056528-61d4-45d9-b2dd-e6ab8ef50c51"},"vehicle_type_id":"4","last_reported":1740517709,"current_range_meters":9600,"station_id":"ce4bh092rcd13ifvqd30","pricing_plan_id":"cebpf4jnsgd1na2vs0mg"},{"bike_id":"7a1baf5f-d71d-404d-a64d-353306dafd82","system_id":"levelo_inurba_marseille","lat":43.28444,"lon":5.35893,"is_reserved":false,"is_disabled":false,"rental_uris":{"android":"levelo://app?vid=7a1baf5f-d71d-404d-a64d-353306dafd82","ios":"levelo://app?vid=7a1baf5f-d71d-404d-a64d-353306dafd82"},"vehicle_type_id":"4","last_reported":1740517709,"current_range_meters":10000,"station_id":"ce4bhah2rcd13ifvqei0","pricing_plan_id":"cebpf4jnsgd1na2vs0mg"},{"bike_id":"41a43e34-1d4d-4030-ac8f-1d39d25d165d","system_id":"levelo_inurba_marseille","lat":43.296,"lon":5.38117,"is_reserved":false,"is_disabled":false,"rental_uris":{"android":"levelo://app?vid=41a43e34-1d4d-4030-ac8f-1d39d25d165d","ios":"levelo://app?vid=41a43e34-1d4d-4030-ac8f-1d39d25d165d"},"vehicle_type_id":"4","last_reported":1740517709,"current_range_meters":9600,"station_id":"ce4bgl12rcd13ifvqbo0","pricing_plan_id":"cebpf4jnsgd1na2vs0mg"},{"bike_id":"aebdd3da-807d-44a7-bdb4-aced28206609","system_id":"levelo_inurba_marseille","lat":43.30914,"lon":5.40142,"is_reserved":false,"is_disabled":false,"rental_uris":{"android":"levelo://app?vid=aebdd3da-807d-44a7-bdb4-aced28206609","ios":"levelo://app?vid=aebdd3da-807d-44a7-bdb4-aced28206609"},"vehicle_type_id":"4","last_reported":1740517709,"current_range_meters":14000,"station_id":"ce4bgvp2rcd13ifvqct0","pricing_plan_id":"cebpf4jnsgd1na2vs0mg"},{"bike_id":"43d63f8a-f3b7-4d7c-be3c-996582d0e403","system_id":"levelo_inurba_marseille","lat":43.28408,"lon":5.37532,"is_reserved":false,"is_disabled":false,"rental_uris":{"android":"levelo://app?vid=43d63f8a-f3b7-4d7c-be3c-996582d0e403","ios":"levelo://app?vid=43d63f8a-f3b7-4d7c-be3c-996582d0e403"},"vehicle_type_id":"4","last_reported":1740517709,"current_range_meters":9600,"station_id":"ce4bh412rcd13ifvqds0","pricing_plan_id":"cebpf4jnsgd1na2vs0mg"},{"bike_id":"43ac663c-c64e-48a9-99b2-d86c9807fdf6","system_id":"levelo_inurba_marseille","lat":43.28418,"lon":5.37528,"is_reserved":false,"is_disabled":false,"rental_uris":{"android":"levelo://app?vid=43ac663c-c64e-48a9-99b2-d86c9807fdf6","ios":"levelo://app?vid=43ac663c-c64e-48a9-99b2-d86c9807fdf6"},"vehicle_type_id":"4","last_reported":1740517709,"current_range_meters":9600,"station_id":"ce4bh412rcd13ifvqds0","pricing_plan_id":"cebpf4jnsgd1na2vs0mg"},{"bike_id":"12e4650a-4022-43a5-83bb-38eb9d817b4d","system_id":"levelo_inurba_marseille","lat":43.23958,"lon":5.36631,"is_reserved":false,"is_disabled":false,"rental_uris":{"android":"levelo://app?vid=12e4650a-4022-43a5-83bb-38eb9d817b4d","ios":"levelo://app?vid=12e4650a-4022-43a5-83bb-38eb9d817b4d"},"vehicle_type_id":"4","last_reported":1740517709,"current_range_meters":10000,"station_id":"ce4bhi12rcd13ifvqfp0","pricing_plan_id":"cebpf4jnsgd1na2vs0mg"},{"bike_id":"05f51bd6-bf8c-4b6c-ba2f-d7bf7cec3006","system_id":"levelo_inurba_marseille","lat":43.23159,"lon":5.35626,"is_reserved":false,"is_disabled":false,"rental_uris":{"android":"levelo://app?vid=05f51bd6-bf8c-4b6c-ba2f-d7bf7cec3006","ios":"levelo://app?vid=05f51bd6-bf8c-4b6c-ba2f-d7bf7cec3006"},"vehicle_type_id":"4","last_reported":1740517709,"current_range_meters":10000,"station_id":"","pricing_plan_id":"cebpf4jnsgd1na2vs0mg"},{"bike_id":"b4af0b81-2f5c-4a39-b920-a8c83a777a9d","system_id":"levelo_inurba_marseille","lat":43.30301,"lon":5.4039,"is_reserved":false,"is_disabled":false,"rental_uris":{"android":"levelo://app?vid=b4af0b81-2f5c-4a39-b920-a8c83a777a9d","ios":"levelo://app?vid=b4af0b81-2f5c-4a39-b920-a8c83a777a9d"},"vehicle_type_id":"4","last_reported":1740517709,"current_range_meters":10000,"station_id":"ce4bh012rcd13ifvqd10","pricing_plan_id":"cebpf4jnsgd1na2vs0mg"},{"bike_id":"81f5a0ac-9fbc-4093-9829-7c67f70cb06b","system_id":"levelo_inurba_marseille","lat":43.3139,"lon":5.38496,"is_reserved":false,"is_disabled":false,"rental_uris":{"android":"levelo://app?vid=81f5a0ac-9fbc-4093-9829-7c67f70cb06b","ios":"levelo://app?vid=81f5a0ac-9fbc-4093-9829-7c67f70cb06b"},"vehicle_type_id":"4","last_reported":1740517709,"current_range_meters":10000,"station_id":"ce4bgt92rcd13ifvqcf0","pricing_plan_id":"cebpf4jnsgd1na2vs0mg"},{"bike_id":"601d9d1a-b924-4349-8cfa-62d99997e8fb","system_id":"levelo_inurba_marseille","lat":43.23227,"lon":5.40006,"is_reserved":false,"is_disabled":false,"rental_uris":{"android":"levelo://app?vid=601d9d1a-b924-4349-8cfa-62d99997e8fb","ios":"levelo://app?vid=601d9d1a-b924-4349-8cfa-62d99997e8fb"},"vehicle_type_id":"4","last_reported":1740517709,"current_range_meters":10000,"station_id":"ce4bhn12rcd13ifvqgqg","pricing_plan_id":"cebpf4jnsgd1na2vs0mg"},{"bike_id":"0755804b-e938-4970-a1f5-1ee40c67f3e0","system_id":"levelo_inurba_marseille","lat":43.24089,"lon":5.37771,"is_reserved":false,"is_disabled":false,"rental_uris":{"android":"levelo://app?vid=0755804b-e938-4970-a1f5-1ee40c67f3e0","ios":"levelo://app?vid=0755804b-e938-4970-a1f5-1ee40c67f3e0"},"vehicle_type_id":"4","last_reported":1740517709,"current_range_meters":10000,"station_id":"ce4bhnp2rcd13ifvqgvg","pricing_plan_id":"cebpf4jnsgd1na2vs0mg"},{"bike_id":"6ddf9c8e-4a2b-4553-a551-38d95977f868","system_id":"levelo_inurba_marseille","lat":43.29421,"lon":5.38624,"is_reserved":false,"is_disabled":false,"rental_uris":{"android":"levelo://app?vid=6ddf9c8e-4a2b-4553-a551-38d95977f868","ios":"levelo://app?vid=6ddf9c8e-4a2b-4553-a551-38d95977f868"},"vehicle_type_id":"4","last_reported":1740517709,"current_range_meters":10000,"station_id":"ce4bh2h2rcd13ifvqdh0","pricing_plan_id":"cebpf4jnsgd1na2vs0mg"},{"bike_id":"344b9ada-dc13-401b-99db-124646ed697f","system_id":"levelo_inurba_marseille","lat":43.28838,"lon":5.35853,"is_reserved":false,"is_disabled":false,"rental_uris":{"android":"levelo://app?vid=344b9ada-dc13-401b-99db-124646ed697f","ios":"levelo://app?vid=344b9ada-dc13-401b-99db-124646ed697f"},"vehicle_type_id":"4","last_reported":1740517709,"current_range_meters":10000,"station_id":"ce4bhb12rcd13ifvqem0","pricing_plan_id":"cebpf4jnsgd1na2vs0mg"},{"bike_id":"cbfa7cec-60a2-46ff-8558-0aab6b269dd8","system_id":"levelo_inurba_marseille","lat":43.28455,"lon":5.39186,"is_reserved":false,"is_disabled":false,"rental_uris":{"android":"levelo://app?vid=cbfa7cec-60a2-46ff-8558-0aab6b269dd8","ios":"levelo://app?vid=cbfa7cec-60a2-46ff-8558-0aab6b269dd8"},"vehicle_type_id":"4","last_reported":1740517709,"current_range_meters":10000,"station_id":"ce4bhoh2rcd13ifvqh5g","pricing_plan_id":"cebpf4jnsgd1na2vs0mg"},{"bike_id":"a1ca3ad0-4f52-4569-bb87-4293f6934d8b","system_id":"levelo_inurba_marseille","lat":43.23201,"lon":5.35548,"is_reserved":false,"is_disabled":false,"rental_uris":{"android":"levelo://app?vid=a1ca3ad0-4f52-4569-bb87-4293f6934d8b","ios":"levelo://app?vid=a1ca3ad0-4f52-4569-bb87-4293f6934d8b"},"vehicle_type_id":"4","last_reported":1740517709,"current_range_meters":10000,"station_id":"ce4bhu92rcd13ifvqi70","pricing_plan_id":"cebpf4jnsgd1na2vs0mg"},{"bike_id":"fd27a87b-beed-48d0-9c1f-b1fb51341453","system_id":"levelo_inurba_marseille","lat":43.27603,"lon":5.36139,"is_reserved":false,"is_disabled":true,"rental_uris":{"android":"levelo://app?vid=fd27a87b-beed-48d0-9c1f-b1fb51341453","ios":"levelo://app?vid=fd27a87b-beed-48d0-9c1f-b1fb51341453"},"vehicle_type_id":"4","last_reported":1740517709,"current_range_meters":400,"station_id":"ce4bgj92rcd13ifvqbe0","pricing_plan_id":"cebpf4jnsgd1na2vs0mg"},{"bike_id":"f2a87237-f624-4bf7-ad01-90df07b15d25","system_id":"levelo_inurba_marseille","lat":43.28416,"lon":5.375092,"is_reserved":false,"is_disabled":false,"rental_uris":{"android":"levelo://app?vid=f2a87237-f624-4bf7-ad01-90df07b15d25","ios":"levelo://app?vid=f2a87237-f624-4bf7-ad01-90df07b15d25"},"vehicle_type_id":"4","last_reported":1740517709,"current_range_meters":10000,"station_id":"ce4bh412rcd13ifvqds0","pricing_plan_id":"cebpf4jnsgd1na2vs0mg"},{"bike_id":"25255681-d668-4957-b49d-3fba4d0fc5e1","system_id":"levelo_inurba_marseille","lat":43.27892,"lon":5.38018,"is_reserved":false,"is_disabled":false,"rental_uris":{"android":"levelo://app?vid=25255681-d668-4957-b49d-3fba4d0fc5e1","ios":"levelo://app?vid=25255681-d668-4957-b49d-3fba4d0fc5e1"},"vehicle_type_id":"4","last_reported":1740517709,"current_range_meters":10800,"station_id":"ce4bhf92rcd13ifvqf50","pricing_plan_id":"cebpf4jnsgd1na2vs0mg"},{"bike_id":"37f282dd-3c82-4a6a-9579-52ba7e01751c","system_id":"levelo_inurba_marseille","lat":43.31539,"lon":5.38054,"is_reserved":false,"is_disabled":false,"rental_uris":{"android":"levelo://app?vid=37f282dd-3c82-4a6a-9579-52ba7e01751c","ios":"levelo://app?vid=37f282dd-3c82-4a6a-9579-52ba7e01751c"},"vehicle_type_id":"4","last_reported":1740517709,"current_range_meters":10000,"station_id":"ce4bhsp2rcd13ifvqi50","pricing_plan_id":"cebpf4jnsgd1na2vs0mg"},{"bike_id":"f5232ca0-a0ea-4b65-9be9-c58c9ab586fb","system_id":"levelo_inurba_marseille","lat":43.28151,"lon":5.42621,"is_reserved":false,"is_disabled":false,"rental_uris":{"android":"levelo://app?vid=f5232ca0-a0ea-4b65-9be9-c58c9ab586fb","ios":"levelo://app?vid=f5232ca0-a0ea-4b65-9be9-c58c9ab586fb"},"vehicle_type_id":"4","last_reported":1740517709,"current_range_meters":10800,"station_id":"ce4bhnh2rcd13ifvqgug","pricing_plan_id":"cebpf4jnsgd1na2vs0mg"},{"bike_id":"0f53dfe5-69a9-4b91-a6d9-ad65c664ac2d","system_id":"levelo_inurba_marseille","lat":43.284436,"lon":5.391968,"is_reserved":false,"is_disabled":false,"rental_uris":{"android":"levelo://app?vid=0f53dfe5-69a9-4b91-a6d9-ad65c664ac2d","ios":"levelo://app?vid=0f53dfe5-69a9-4b91-a6d9-ad65c664ac2d"},"vehicle_type_id":"4","last_reported":1740517709,"current_range_meters":10800,"station_id":"ce4bhoh2rcd13ifvqh5g","pricing_plan_id":"cebpf4jnsgd1na2vs0mg"},{"bike_id":"0f1f3b76-2791-4f0f-845e-300b9a8eb89b","system_id":"levelo_inurba_marseille","lat":43.23199,"lon":5.35553,"is_reserved":false,"is_disabled":false,"rental_uris":{"android":"levelo://app?vid=0f1f3b76-2791-4f0f-845e-300b9a8eb89b","ios":"levelo://app?vid=0f1f3b76-2791-4f0f-845e-300b9a8eb89b"},"vehicle_type_id":"4","last_reported":1740517709,"current_range_meters":10800,"station_id":"ce4bhu92rcd13ifvqi70","pricing_plan_id":"cebpf4jnsgd1na2vs0mg"},{"bike_id":"7ce94ac4-8de9-4d22-ab59-fafd5d4ddae0","system_id":"levelo_inurba_marseille","lat":43.27974,"lon":5.40056,"is_reserved":false,"is_disabled":false,"rental_uris":{"android":"levelo://app?vid=7ce94ac4-8de9-4d22-ab59-fafd5d4ddae0","ios":"levelo://app?vid=7ce94ac4-8de9-4d22-ab59-fafd5d4ddae0"},"vehicle_type_id":"4","last_reported":1740517709,"current_range_meters":10800,"station_id":"ce4bho92rcd13ifvqh4g","pricing_plan_id":"cebpf4jnsgd1na2vs0mg"},{"bike_id":"e93c7e29-0d01-4887-aaa1-1b6f0519e5f6","system_id":"levelo_inurba_marseille","lat":43.29889,"lon":5.39745,"is_reserved":false,"is_disabled":false,"rental_uris":{"android":"levelo://app?vid=e93c7e29-0d01-4887-aaa1-1b6f0519e5f6","ios":"levelo://app?vid=e93c7e29-0d01-4887-aaa1-1b6f0519e5f6"},"vehicle_type_id":"4","last_reported":1740517709,"current_range_meters":10800,"station_id":"ce4bh0h2rcd13ifvqd50","pricing_plan_id":"cebpf4jnsgd1na2vs0mg"},{"bike_id":"549eba66-470c-49fc-9bda-650ecb397aed","system_id":"levelo_inurba_marseille","lat":43.28609,"lon":5.38133,"is_reserved":false,"is_disabled":true,"rental_uris":{"android":"levelo://app?vid=549eba66-470c-49fc-9bda-650ecb397aed","ios":"levelo://app?vid=549eba66-470c-49fc-9bda-650ecb397aed"},"vehicle_type_id":"4","last_reported":1740517709,"current_range_meters":11200,"station_id":"","pricing_plan_id":"cebpf4jnsgd1na2vs0mg"},{"bike_id":"9f6b1a57-8b18-4910-92c4-7c3c71b26e15","system_id":"levelo_inurba_marseille","lat":43.23374,"lon":5.36012,"is_reserved":false,"is_disabled":false,"rental_uris":{"android":"levelo://app?vid=9f6b1a57-8b18-4910-92c4-7c3c71b26e15","ios":"levelo://app?vid=9f6b1a57-8b18-4910-92c4-7c3c71b26e15"},"vehicle_type_id":"4","last_reported":1740517709,"current_range_meters":10800,"station_id":"","pricing_plan_id":"cebpf4jnsgd1na2vs0mg"},{"bike_id":"705d4c5c-19e2-4866-97d4-b09e7afe24df","system_id":"levelo_inurba_marseille","lat":43.29246,"lon":5.38435,"is_reserved":false,"is_disabled":false,"rental_uris":{"android":"levelo://app?vid=705d4c5c-19e2-4866-97d4-b09e7afe24df","ios":"levelo://app?vid=705d4c5c-19e2-4866-97d4-b09e7afe24df"},"vehicle_type_id":"4","last_reported":1740517709,"current_range_meters":10800,"station_id":"ce4bh692rcd13ifvqea0","pricing_plan_id":"cebpf4jnsgd1na2vs0mg"},{"bike_id":"4bcee7f2-7a8a-43dd-853c-163df9362300","system_id":"levelo_inurba_marseille","lat":43.27987,"lon":5.40011,"is_reserved":false,"is_disabled":false,"rental_uris":{"android":"levelo://app?vid=4bcee7f2-7a8a-43dd-853c-163df9362300","ios":"levelo://app?vid=4bcee7f2-7a8a-43dd-853c-163df9362300"},"vehicle_type_id":"4","last_reported":1740517709,"current_range_meters":11200,"station_id":"ce4bho92rcd13ifvqh4g","pricing_plan_id":"cebpf4jnsgd1na2vs0mg"},{"bike_id":"7c45866a-bd99-4c12-9747-66203f12a96e","system_id":"levelo_inurba_marseille","lat":43.231396,"lon":5.355121,"is_reserved":false,"is_disabled":false,"rental_uris":{"android":"levelo://app?vid=7c45866a-bd99-4c12-9747-66203f12a96e","ios":"levelo://app?vid=7c45866a-bd99-4c12-9747-66203f12a96e"},"vehicle_type_id":"4","last_reported":1740517709,"current_range_meters":10800,"station_id":"","pricing_plan_id":"cebpf4jnsgd1na2vs0mg"},{"bike_id":"009622b0-3048-4fd8-bee7-5cfebd96bfb4","system_id":"levelo_inurba_marseille","lat":43.25099,"lon":5.39492,"is_reserved":false,"is_disabled":false,"rental_uris":{"android":"levelo://app?vid=009622b0-3048-4fd8-bee7-5cfebd96bfb4","ios":"levelo://app?vid=009622b0-3048-4fd8-bee7-5cfebd96bfb4"},"vehicle_type_id":"4","last_reported":1740517709,"current_range_meters":11200,"station_id":"ce4bhm12rcd13ifvqgkg","pricing_plan_id":"cebpf4jnsgd1na2vs0mg"},{"bike_id":"b3739dd1-c2ea-4afb-9bb4-975986d3382b","system_id":"levelo_inurba_marseille","lat":43.28154,"lon":5.42643,"is_reserved":false,"is_disabled":false,"rental_uris":{"android":"levelo://app?vid=b3739dd1-c2ea-4afb-9bb4-975986d3382b","ios":"levelo://app?vid=b3739dd1-c2ea-4afb-9bb4-975986d3382b"},"vehicle_type_id":"4","last_reported":1740517709,"current_range_meters":11200,"station_id":"ce4bhnh2rcd13ifvqgug","pricing_plan_id":"cebpf4jnsgd1na2vs0mg"},{"bike_id":"8a3321a5-d293-47e6-a153-59851791310f","system_id":"levelo_inurba_marseille","lat":43.306,"lon":5.37209,"is_reserved":false,"is_disabled":false,"rental_uris":{"android":"levelo://app?vid=8a3321a5-d293-47e6-a153-59851791310f","ios":"levelo://app?vid=8a3321a5-d293-47e6-a153-59851791310f"},"vehicle_type_id":"4","last_reported":1740517709,"current_range_meters":11200,"station_id":"ce4bgqh2rcd13ifvqc4g","pricing_plan_id":"cebpf4jnsgd1na2vs0mg"},{"bike_id":"12a970f7-2c4f-4f3d-b2e6-d60a4924b550","system_id":"levelo_inurba_marseille","lat":43.29529,"lon":5.38544,"is_reserved":false,"is_disabled":false,"rental_uris":{"android":"levelo://app?vid=12a970f7-2c4f-4f3d-b2e6-d60a4924b550","ios":"levelo://app?vid=12a970f7-2c4f-4f3d-b2e6-d60a4924b550"},"vehicle_type_id":"4","last_reported":1740517709,"current_range_meters":11200,"station_id":"ce4bgih2rcd13ifvqba0","pricing_plan_id":"cebpf4jnsgd1na2vs0mg"},{"bike_id":"3a6a2056-81c0-4c56-b849-64ae3a8413c2","system_id":"levelo_inurba_marseille","lat":43.29631,"lon":5.40608,"is_reserved":false,"is_disabled":false,"rental_uris":{"android":"levelo://app?vid=3a6a2056-81c0-4c56-b849-64ae3a8413c2","ios":"levelo://app?vid=3a6a2056-81c0-4c56-b849-64ae3a8413c2"},"vehicle_type_id":"4","last_reported":1740517709,"current_range_meters":10800,"station_id":"ce4bh0h2rcd13ifvqd60","pricing_plan_id":"cebpf4jnsgd1na2vs0mg"},{"bike_id":"4c3ed0f9-3852-4d9f-a849-d03fce967204","system_id":"levelo_inurba_marseille","lat":43.28919,"lon":5.36413,"is_reserved":false,"is_disabled":false,"rental_uris":{"android":"levelo://app?vid=4c3ed0f9-3852-4d9f-a849-d03fce967204","ios":"levelo://app?vid=4c3ed0f9-3852-4d9f-a849-d03fce967204"},"vehicle_type_id":"4","last_reported":1740517709,"current_range_meters":11200,"station_id":"ce4bhc92rcd13ifvqetg","pricing_plan_id":"cebpf4jnsgd1na2vs0mg"},{"bike_id":"e7234b8e-3807-4b4c-852c-4a3fe63998d8","system_id":"levelo_inurba_marseille","lat":43.28892,"lon":5.3585,"is_reserved":false,"is_disabled":false,"rental_uris":{"android":"levelo://app?vid=e7234b8e-3807-4b4c-852c-4a3fe63998d8","ios":"levelo://app?vid=e7234b8e-3807-4b4c-852c-4a3fe63998d8"},"vehicle_type_id":"4","last_reported":1740517709,"current_range_meters":11600,"station_id":"ce4bhb12rcd13ifvqem0","pricing_plan_id":"cebpf4jnsgd1na2vs0mg"},{"bike_id":"bb913390-1046-4904-a570-9cdd2865292d","system_id":"levelo_inurba_marseille","lat":43.284029,"lon":5.384427,"is_reserved":false,"is_disabled":false,"rental_uris":{"android":"levelo://app?vid=bb913390-1046-4904-a570-9cdd2865292d","ios":"levelo://app?vid=bb913390-1046-4904-a570-9cdd2865292d"},"vehicle_type_id":"4","last_reported":1740517709,"current_range_meters":10000,"station_id":"ce4bhg92rcd13ifvqf90","pricing_plan_id":"cebpf4jnsgd1na2vs0mg"},{"bike_id":"675193b0-c7f5-4f51-87dd-0c3ce0ed1ded","system_id":"levelo_inurba_marseille","lat":43.34152,"lon":5.40898,"is_reserved":false,"is_disabled":false,"rental_uris":{"android":"levelo://app?vid=675193b0-c7f5-4f51-87dd-0c3ce0ed1ded","ios":"levelo://app?vid=675193b0-c7f5-4f51-87dd-0c3ce0ed1ded"},"vehicle_type_id":"4","last_reported":1740517709,"current_range_meters":11200,"station_id":"ce4bhqh2rcd13ifvqhlg","pricing_plan_id":"cebpf4jnsgd1na2vs0mg"},{"bike_id":"9f410218-3040-4e5d-995c-1587f208b52e","system_id":"levelo_inurba_marseille","lat":43.27839,"lon":5.4072,"is_reserved":false,"is_disabled":false,"rental_uris":{"android":"levelo://app?vid=9f410218-3040-4e5d-995c-1587f208b52e","ios":"levelo://app?vid=9f410218-3040-4e5d-995c-1587f208b52e"},"vehicle_type_id":"4","last_reported":1740517709,"current_range_meters":11600,"station_id":"ce4bhnh2rcd13ifvqgtg","pricing_plan_id":"cebpf4jnsgd1na2vs0mg"},{"bike_id":"dcdfafc4-ad04-4f03-b713-a44cb5c77c53","system_id":"levelo_inurba_marseille","lat":43.29561,"lon":5.39955,"is_reserved":false,"is_disabled":true,"rental_uris":{"android":"levelo://app?vid=dcdfafc4-ad04-4f03-b713-a44cb5c77c53","ios":"levelo://app?vid=dcdfafc4-ad04-4f03-b713-a44cb5c77c53"},"vehicle_type_id":"4","last_reported":1740517709,"current_range_meters":12000,"station_id":"ce4bh312rcd13ifvqdj0","pricing_plan_id":"cebpf4jnsgd1na2vs0mg"},{"bike_id":"bb197dcb-4af2-40a1-b597-f15826b08c4b","system_id":"levelo_inurba_marseille","lat":43.31355,"lon":5.38489,"is_reserved":false,"is_disabled":false,"rental_uris":{"android":"levelo://app?vid=bb197dcb-4af2-40a1-b597-f15826b08c4b","ios":"levelo://app?vid=bb197dcb-4af2-40a1-b597-f15826b08c4b"},"vehicle_type_id":"4","last_reported":1740517709,"current_range_meters":12000,"station_id":"ce4bgt92rcd13ifvqcf0","pricing_plan_id":"cebpf4jnsgd1na2vs0mg"},{"bike_id":"44a737df-aa61-45f7-857c-d7d275870e10","system_id":"levelo_inurba_marseille","lat":43.25529,"lon":5.37648,"is_reserved":false,"is_disabled":false,"rental_uris":{"android":"levelo://app?vid=44a737df-aa61-45f7-857c-d7d275870e10","ios":"levelo://app?vid=44a737df-aa61-45f7-857c-d7d275870e10"},"vehicle_type_id":"4","last_reported":1740517709,"current_range_meters":12000,"station_id":"ce4bhh12rcd13ifvqff0","pricing_plan_id":"cebpf4jnsgd1na2vs0mg"},{"bike_id":"fb275735-4bf3-4a95-9535-54ae1690eb49","system_id":"levelo_inurba_marseille","lat":43.29462,"lon":5.38608,"is_reserved":false,"is_disabled":false,"rental_uris":{"android":"levelo://app?vid=fb275735-4bf3-4a95-9535-54ae1690eb49","ios":"levelo://app?vid=fb275735-4bf3-4a95-9535-54ae1690eb49"},"vehicle_type_id":"4","last_reported":1740517709,"current_range_meters":11600,"station_id":"","pricing_plan_id":"cebpf4jnsgd1na2vs0mg"},{"bike_id":"62aba03d-465e-4478-a054-d828e4250577","system_id":"levelo_inurba_marseille","lat":43.28259,"lon":5.35085,"is_reserved":false,"is_disabled":false,"rental_uris":{"android":"levelo://app?vid=62aba03d-465e-4478-a054-d828e4250577","ios":"levelo://app?vid=62aba03d-465e-4478-a054-d828e4250577"},"vehicle_type_id":"4","last_reported":1740517709,"current_range_meters":12400,"station_id":"ce4bhbp2rcd13ifvqerg","pricing_plan_id":"cebpf4jnsgd1na2vs0mg"},{"bike_id":"1f6bbfe9-aae7-43d5-a4ef-153399ef3f5f","system_id":"levelo_inurba_marseille","lat":43.32358,"lon":5.38902,"is_reserved":false,"is_disabled":false,"rental_uris":{"android":"levelo://app?vid=1f6bbfe9-aae7-43d5-a4ef-153399ef3f5f","ios":"levelo://app?vid=1f6bbfe9-aae7-43d5-a4ef-153399ef3f5f"},"vehicle_type_id":"4","last_reported":1740517709,"current_range_meters":12000,"station_id":"ce4bhqp2rcd13ifvqhog","pricing_plan_id":"cebpf4jnsgd1na2vs0mg"},{"bike_id":"d49a6b41-e709-44e4-b5b3-4c586c38d1a0","system_id":"levelo_inurba_marseille","lat":43.29444,"lon":5.39761,"is_reserved":false,"is_disabled":false,"rental_uris":{"android":"levelo://app?vid=d49a6b41-e709-44e4-b5b3-4c586c38d1a0","ios":"levelo://app?vid=d49a6b41-e709-44e4-b5b3-4c586c38d1a0"},"vehicle_type_id":"4","last_reported":1740517709,"current_range_meters":12000,"station_id":"ce4bh3h2rcd13ifvqdo0","pricing_plan_id":"cebpf4jnsgd1na2vs0mg"},{"bike_id":"7c8aaa9b-e43a-43de-8b4f-a531a44d3724","system_id":"levelo_inurba_marseille","lat":43.27959,"lon":5.41038,"is_reserved":false,"is_disabled":false,"rental_uris":{"android":"levelo://app?vid=7c8aaa9b-e43a-43de-8b4f-a531a44d3724","ios":"levelo://app?vid=7c8aaa9b-e43a-43de-8b4f-a531a44d3724"},"vehicle_type_id":"4","last_reported":1740517709,"current_range_meters":12000,"station_id":"ce4bhnp2rcd13ifvqh0g","pricing_plan_id":"cebpf4jnsgd1na2vs0mg"},{"bike_id":"aa5b1cbf-41e5-43e0-882c-8c43c6313d79","system_id":"levelo_inurba_marseille","lat":43.31708,"lon":5.43693,"is_reserved":false,"is_disabled":false,"rental_uris":{"android":"levelo://app?vid=aa5b1cbf-41e5-43e0-882c-8c43c6313d79","ios":"levelo://app?vid=aa5b1cbf-41e5-43e0-882c-8c43c6313d79"},"vehicle_type_id":"4","last_reported":1740517709,"current_range_meters":12000,"station_id":"ce4bhp92rcd13ifvqhcg","pricing_plan_id":"cebpf4jnsgd1na2vs0mg"},{"bike_id":"d0801915-0de0-4f9d-9726-750b42c06614","system_id":"levelo_inurba_marseille","lat":43.32139,"lon":5.36763,"is_reserved":false,"is_disabled":false,"rental_uris":{"android":"levelo://app?vid=d0801915-0de0-4f9d-9726-750b42c06614","ios":"levelo://app?vid=d0801915-0de0-4f9d-9726-750b42c06614"},"vehicle_type_id":"4","last_reported":1740517709,"current_range_meters":12000,"station_id":"ce4bhrh2rcd13ifvqhug","pricing_plan_id":"cebpf4jnsgd1na2vs0mg"},{"bike_id":"8de1d355-09bc-4e93-a134-55ddae0f07d6","system_id":"levelo_inurba_marseille","lat":43.24545,"lon":5.39522,"is_reserved":false,"is_disabled":false,"rental_uris":{"android":"levelo://app?vid=8de1d355-09bc-4e93-a134-55ddae0f07d6","ios":"levelo://app?vid=8de1d355-09bc-4e93-a134-55ddae0f07d6"},"vehicle_type_id":"4","last_reported":1740517709,"current_range_meters":8800,"station_id":"ce4bhlp2rcd13ifvqgjg","pricing_plan_id":"cebpf4jnsgd1na2vs0mg"},{"bike_id":"8a594435-0bc6-4d70-9cbb-163b4cf8faea","system_id":"levelo_inurba_marseille","lat":43.28734,"lon":5.37949,"is_reserved":false,"is_disabled":false,"rental_uris":{"android":"levelo://app?vid=8a594435-0bc6-4d70-9cbb-163b4cf8faea","ios":"levelo://app?vid=8a594435-0bc6-4d70-9cbb-163b4cf8faea"},"vehicle_type_id":"4","last_reported":1740517709,"current_range_meters":12400,"station_id":"ce4bh9p2rcd13ifvqec0","pricing_plan_id":"cebpf4jnsgd1na2vs0mg"},{"bike_id":"e0869e43-cad3-4449-849d-aa2f3708e407","system_id":"levelo_inurba_marseille","lat":43.28938,"lon":5.36636,"is_reserved":false,"is_disabled":false,"rental_uris":{"android":"levelo://app?vid=e0869e43-cad3-4449-849d-aa2f3708e407","ios":"levelo://app?vid=e0869e43-cad3-4449-849d-aa2f3708e407"},"vehicle_type_id":"4","last_reported":1740517709,"current_range_meters":12400,"station_id":"ce4bhap2rcd13ifvqek0","pricing_plan_id":"cebpf4jnsgd1na2vs0mg"},{"bike_id":"b007f058-4163-4bbe-ba13-50835769bd43","system_id":"levelo_inurba_marseille","lat":43.317133,"lon":5.43717,"is_reserved":false,"is_disabled":false,"rental_uris":{"android":"levelo://app?vid=b007f058-4163-4bbe-ba13-50835769bd43","ios":"levelo://app?vid=b007f058-4163-4bbe-ba13-50835769bd43"},"vehicle_type_id":"4","last_reported":1740517709,"current_range_meters":12400,"station_id":"ce4bhp92rcd13ifvqhcg","pricing_plan_id":"cebpf4jnsgd1na2vs0mg"},{"bike_id":"cdf27802-bec2-4c5e-9682-4cb992c742fb","system_id":"levelo_inurba_marseille","lat":43.24547,"lon":5.39526,"is_reserved":false,"is_disabled":false,"rental_uris":{"android":"levelo://app?vid=cdf27802-bec2-4c5e-9682-4cb992c742fb","ios":"levelo://app?vid=cdf27802-bec2-4c5e-9682-4cb992c742fb"},"vehicle_type_id":"4","last_reported":1740517709,"current_range_meters":16000,"station_id":"ce4bhlp2rcd13ifvqgjg","pricing_plan_id":"cebpf4jnsgd1na2vs0mg"},{"bike_id":"20653d1d-807e-463a-97d7-2e976ec8b750","system_id":"levelo_inurba_marseille","lat":43.311214,"lon":5.37783,"is_reserved":false,"is_disabled":false,"rental_uris":{"android":"levelo://app?vid=20653d1d-807e-463a-97d7-2e976ec8b750","ios":"levelo://app?vid=20653d1d-807e-463a-97d7-2e976ec8b750"},"vehicle_type_id":"4","last_reported":1740517709,"current_range_meters":12400,"station_id":"ce4bgt92rcd13ifvqcg0","pricing_plan_id":"cebpf4jnsgd1na2vs0mg"},{"bike_id":"32f28524-9b61-434e-bae4-afa92250e1ab","system_id":"levelo_inurba_marseille","lat":43.29261,"lon":5.4015,"is_reserved":false,"is_disabled":false,"rental_uris":{"android":"levelo://app?vid=32f28524-9b61-434e-bae4-afa92250e1ab","ios":"levelo://app?vid=32f28524-9b61-434e-bae4-afa92250e1ab"},"vehicle_type_id":"4","last_reported":1740517709,"current_range_meters":12400,"station_id":"ce4bh312rcd13ifvqdk0","pricing_plan_id":"cebpf4jnsgd1na2vs0mg"},{"bike_id":"2cbc35b5-e249-4e17-a6c3-4f15da01fe6b","system_id":"levelo_inurba_marseille","lat":43.25719,"lon":5.41098,"is_reserved":false,"is_disabled":false,"rental_uris":{"android":"levelo://app?vid=2cbc35b5-e249-4e17-a6c3-4f15da01fe6b","ios":"levelo://app?vid=2cbc35b5-e249-4e17-a6c3-4f15da01fe6b"},"vehicle_type_id":"4","last_reported":1740517709,"current_range_meters":13600,"station_id":"ce4bhkp2rcd13ifvqgd0","pricing_plan_id":"cebpf4jnsgd1na2vs0mg"},{"bike_id":"69155185-ba73-4c7b-b97d-24e94c3c31b3","system_id":"levelo_inurba_marseille","lat":43.318176,"lon":5.422482,"is_reserved":false,"is_disabled":false,"rental_uris":{"android":"levelo://app?vid=69155185-ba73-4c7b-b97d-24e94c3c31b3","ios":"levelo://app?vid=69155185-ba73-4c7b-b97d-24e94c3c31b3"},"vehicle_type_id":"4","last_reported":1740517709,"current_range_meters":12800,"station_id":"ce4bhp92rcd13ifvqhbg","pricing_plan_id":"cebpf4jnsgd1na2vs0mg"},{"bike_id":"eb5caf63-ac82-4703-a01f-3043f20b4026","system_id":"levelo_inurba_marseille","lat":43.29027,"lon":5.3862,"is_reserved":false,"is_disabled":false,"rental_uris":{"android":"levelo://app?vid=eb5caf63-ac82-4703-a01f-3043f20b4026","ios":"levelo://app?vid=eb5caf63-ac82-4703-a01f-3043f20b4026"},"vehicle_type_id":"4","last_reported":1740517709,"current_range_meters":12800,"station_id":"ce4bh4p2rcd13ifvqe0g","pricing_plan_id":"cebpf4jnsgd1na2vs0mg"},{"bike_id":"13985ad4-3dad-401b-adb1-108eae110768","system_id":"levelo_inurba_marseille","lat":43.30605,"lon":5.37237,"is_reserved":false,"is_disabled":false,"rental_uris":{"android":"levelo://app?vid=13985ad4-3dad-401b-adb1-108eae110768","ios":"levelo://app?vid=13985ad4-3dad-401b-adb1-108eae110768"},"vehicle_type_id":"4","last_reported":1740517709,"current_range_meters":12800,"station_id":"ce4bgqh2rcd13ifvqc4g","pricing_plan_id":"cebpf4jnsgd1na2vs0mg"},{"bike_id":"6b286004-f086-4023-9675-02a95f8e917b","system_id":"levelo_inurba_marseille","lat":43.30972,"lon":5.39051,"is_reserved":false,"is_disabled":true,"rental_uris":{"android":"levelo://app?vid=6b286004-f086-4023-9675-02a95f8e917b","ios":"levelo://app?vid=6b286004-f086-4023-9675-02a95f8e917b"},"vehicle_type_id":"4","last_reported":1740517709,"current_range_meters":12800,"station_id":"ce4bgup2rcd13ifvqco0","pricing_plan_id":"cebpf4jnsgd1na2vs0mg"},{"bike_id":"28c3c768-a907-4c23-bf24-a49a1e1e5bae","system_id":"levelo_inurba_marseille","lat":43.29187,"lon":5.38399,"is_reserved":false,"is_disabled":false,"rental_uris":{"android":"levelo://app?vid=28c3c768-a907-4c23-bf24-a49a1e1e5bae","ios":"levelo://app?vid=28c3c768-a907-4c23-bf24-a49a1e1e5bae"},"vehicle_type_id":"4","last_reported":1740517709,"current_range_meters":13600,"station_id":"","pricing_plan_id":"cebpf4jnsgd1na2vs0mg"},{"bike_id":"27f2bd2c-c603-408d-9835-342439f8b802","system_id":"levelo_inurba_marseille","lat":43.28875,"lon":5.35905,"is_reserved":false,"is_disabled":false,"rental_uris":{"android":"levelo://app?vid=27f2bd2c-c603-408d-9835-342439f8b802","ios":"levelo://app?vid=27f2bd2c-c603-408d-9835-342439f8b802"},"vehicle_type_id":"4","last_reported":1740517709,"current_range_meters":12400,"station_id":"ce4bhb12rcd13ifvqem0","pricing_plan_id":"cebpf4jnsgd1na2vs0mg"},{"bike_id":"df8e60a8-7ddb-459b-b2a1-1eaea78b3c41","system_id":"levelo_inurba_marseille","lat":43.29297,"lon":5.37447,"is_reserved":false,"is_disabled":false,"rental_uris":{"android":"levelo://app?vid=df8e60a8-7ddb-459b-b2a1-1eaea78b3c41","ios":"levelo://app?vid=df8e60a8-7ddb-459b-b2a1-1eaea78b3c41"},"vehicle_type_id":"4","last_reported":1740517709,"current_range_meters":12800,"station_id":"ce4bgi12rcd13ifvqb70","pricing_plan_id":"cebpf4jnsgd1na2vs0mg"},{"bike_id":"960f2ba3-e440-4e76-8d2f-9f13a224dcf3","system_id":"levelo_inurba_marseille","lat":43.28072,"lon":5.39629,"is_reserved":false,"is_disabled":false,"rental_uris":{"android":"levelo://app?vid=960f2ba3-e440-4e76-8d2f-9f13a224dcf3","ios":"levelo://app?vid=960f2ba3-e440-4e76-8d2f-9f13a224dcf3"},"vehicle_type_id":"4","last_reported":1740517709,"current_range_meters":12800,"station_id":"ce4bho12rcd13ifvqh2g","pricing_plan_id":"cebpf4jnsgd1na2vs0mg"},{"bike_id":"707d2abc-f6e4-4c9a-a0bd-f86c44aa822d","system_id":"levelo_inurba_marseille","lat":43.28267,"lon":5.35071,"is_reserved":false,"is_disabled":false,"rental_uris":{"android":"levelo://app?vid=707d2abc-f6e4-4c9a-a0bd-f86c44aa822d","ios":"levelo://app?vid=707d2abc-f6e4-4c9a-a0bd-f86c44aa822d"},"vehicle_type_id":"4","last_reported":1740517709,"current_range_meters":14800,"station_id":"ce4bhbp2rcd13ifvqerg","pricing_plan_id":"cebpf4jnsgd1na2vs0mg"},{"bike_id":"2689185b-d533-4d85-932f-0ef0f73f4018","system_id":"levelo_inurba_marseille","lat":43.28926,"lon":5.36618,"is_reserved":false,"is_disabled":false,"rental_uris":{"android":"levelo://app?vid=2689185b-d533-4d85-932f-0ef0f73f4018","ios":"levelo://app?vid=2689185b-d533-4d85-932f-0ef0f73f4018"},"vehicle_type_id":"4","last_reported":1740517709,"current_range_meters":13600,"station_id":"ce4bhap2rcd13ifvqek0","pricing_plan_id":"cebpf4jnsgd1na2vs0mg"},{"bike_id":"9caf7e9b-00f7-4069-a71d-159cba91e9ac","system_id":"levelo_inurba_marseille","lat":43.295,"lon":5.37508,"is_reserved":false,"is_disabled":false,"rental_uris":{"android":"levelo://app?vid=9caf7e9b-00f7-4069-a71d-159cba91e9ac","ios":"levelo://app?vid=9caf7e9b-00f7-4069-a71d-159cba91e9ac"},"vehicle_type_id":"4","last_reported":1740517709,"current_range_meters":13600,"station_id":"ce4bgkp2rcd13ifvqbmg","pricing_plan_id":"cebpf4jnsgd1na2vs0mg"},{"bike_id":"85710084-a931-47e8-ab4c-1f19a337f065","system_id":"levelo_inurba_marseille","lat":43.29162,"lon":5.38593,"is_reserved":false,"is_disabled":false,"rental_uris":{"android":"levelo://app?vid=85710084-a931-47e8-ab4c-1f19a337f065","ios":"levelo://app?vid=85710084-a931-47e8-ab4c-1f19a337f065"},"vehicle_type_id":"4","last_reported":1740517709,"current_range_meters":13600,"station_id":"","pricing_plan_id":"cebpf4jnsgd1na2vs0mg"},{"bike_id":"e9c908fa-3548-42b4-b26e-3a651dbd126a","system_id":"levelo_inurba_marseille","lat":43.30825,"lon":5.43541,"is_reserved":false,"is_disabled":false,"rental_uris":{"android":"levelo://app?vid=e9c908fa-3548-42b4-b26e-3a651dbd126a","ios":"levelo://app?vid=e9c908fa-3548-42b4-b26e-3a651dbd126a"},"vehicle_type_id":"4","last_reported":1740517709,"current_range_meters":13600,"station_id":"ce4bhph2rcd13ifvqheg","pricing_plan_id":"cebpf4jnsgd1na2vs0mg"},{"bike_id":"6d868570-4a79-4602-b067-8f69145b3a5c","system_id":"levelo_inurba_marseille","lat":43.27809,"lon":5.40724,"is_reserved":false,"is_disabled":false,"rental_uris":{"android":"levelo://app?vid=6d868570-4a79-4602-b067-8f69145b3a5c","ios":"levelo://app?vid=6d868570-4a79-4602-b067-8f69145b3a5c"},"vehicle_type_id":"4","last_reported":1740517709,"current_range_meters":13600,"station_id":"ce4bhnh2rcd13ifvqgtg","pricing_plan_id":"cebpf4jnsgd1na2vs0mg"},{"bike_id":"0a089428-bbf6-4308-bf3d-1d45254d436e","system_id":"levelo_inurba_marseille","lat":43.25083,"lon":5.39521,"is_reserved":false,"is_disabled":false,"rental_uris":{"android":"levelo://app?vid=0a089428-bbf6-4308-bf3d-1d45254d436e","ios":"levelo://app?vid=0a089428-bbf6-4308-bf3d-1d45254d436e"},"vehicle_type_id":"4","last_reported":1740517709,"current_range_meters":13600,"station_id":"ce4bhm12rcd13ifvqgkg","pricing_plan_id":"cebpf4jnsgd1na2vs0mg"},{"bike_id":"d9b1bbe6-7852-4729-9be6-dbd5e1000d90","system_id":"levelo_inurba_marseille","lat":43.28363,"lon":5.38622,"is_reserved":false,"is_disabled":false,"rental_uris":{"android":"levelo://app?vid=d9b1bbe6-7852-4729-9be6-dbd5e1000d90","ios":"levelo://app?vid=d9b1bbe6-7852-4729-9be6-dbd5e1000d90"},"vehicle_type_id":"4","last_reported":1740517709,"current_range_meters":13600,"station_id":"ce4bh492rcd13ifvqdvg","pricing_plan_id":"cebpf4jnsgd1na2vs0mg"},{"bike_id":"dfd23175-6a62-4c95-a53c-9500be447999","system_id":"levelo_inurba_marseille","lat":43.24065,"lon":5.37759,"is_reserved":false,"is_disabled":false,"rental_uris":{"android":"levelo://app?vid=dfd23175-6a62-4c95-a53c-9500be447999","ios":"levelo://app?vid=dfd23175-6a62-4c95-a53c-9500be447999"},"vehicle_type_id":"4","last_reported":1740517709,"current_range_meters":13600,"station_id":"ce4bhnp2rcd13ifvqgvg","pricing_plan_id":"cebpf4jnsgd1na2vs0mg"},{"bike_id":"2ced73a1-5cbf-469c-bdf3-486292f65992","system_id":"levelo_inurba_marseille","lat":43.28934,"lon":5.36619,"is_reserved":false,"is_disabled":false,"rental_uris":{"android":"levelo://app?vid=2ced73a1-5cbf-469c-bdf3-486292f65992","ios":"levelo://app?vid=2ced73a1-5cbf-469c-bdf3-486292f65992"},"vehicle_type_id":"4","last_reported":1740517709,"current_range_meters":14000,"station_id":"ce4bhap2rcd13ifvqek0","pricing_plan_id":"cebpf4jnsgd1na2vs0mg"},{"bike_id":"94c8a369-487e-4729-98d9-9c7a116328cd","system_id":"levelo_inurba_marseille","lat":43.268101,"lon":5.40267,"is_reserved":false,"is_disabled":false,"rental_uris":{"android":"levelo://app?vid=94c8a369-487e-4729-98d9-9c7a116328cd","ios":"levelo://app?vid=94c8a369-487e-4729-98d9-9c7a116328cd"},"vehicle_type_id":"4","last_reported":1740517709,"current_range_meters":14000,"station_id":"ce501612rcd8frsf0b60","pricing_plan_id":"cebpf4jnsgd1na2vs0mg"},{"bike_id":"ab54bd2f-fdfe-4950-adcd-826d0f8f0466","system_id":"levelo_inurba_marseille","lat":43.28657,"lon":5.37101,"is_reserved":false,"is_disabled":false,"rental_uris":{"android":"levelo://app?vid=ab54bd2f-fdfe-4950-adcd-826d0f8f0466","ios":"levelo://app?vid=ab54bd2f-fdfe-4950-adcd-826d0f8f0466"},"vehicle_type_id":"4","last_reported":1740517709,"current_range_meters":14000,"station_id":"ce4bht12rcd13ifvqi60","pricing_plan_id":"cebpf4jnsgd1na2vs0mg"},{"bike_id":"9acb4d88-15cf-4dc3-b09f-2ac78e6db38b","system_id":"levelo_inurba_marseille","lat":43.2925,"lon":5.38437,"is_reserved":false,"is_disabled":false,"rental_uris":{"android":"levelo://app?vid=9acb4d88-15cf-4dc3-b09f-2ac78e6db38b","ios":"levelo://app?vid=9acb4d88-15cf-4dc3-b09f-2ac78e6db38b"},"vehicle_type_id":"4","last_reported":1740517709,"current_range_meters":14000,"station_id":"ce4bh692rcd13ifvqea0","pricing_plan_id":"cebpf4jnsgd1na2vs0mg"},{"bike_id":"6f0898ca-1c6f-43fb-9cc7-a6f6c795f765","system_id":"levelo_inurba_marseille","lat":43.24553,"lon":5.3955,"is_reserved":false,"is_disabled":false,"rental_uris":{"android":"levelo://app?vid=6f0898ca-1c6f-43fb-9cc7-a6f6c795f765","ios":"levelo://app?vid=6f0898ca-1c6f-43fb-9cc7-a6f6c795f765"},"vehicle_type_id":"4","last_reported":1740517709,"current_range_meters":14000,"station_id":"ce4bhlp2rcd13ifvqgjg","pricing_plan_id":"cebpf4jnsgd1na2vs0mg"},{"bike_id":"a8692879-7eca-4d99-8e8d-c7aaad0f16fb","system_id":"levelo_inurba_marseille","lat":43.24823,"lon":5.37452,"is_reserved":false,"is_disabled":false,"rental_uris":{"android":"levelo://app?vid=a8692879-7eca-4d99-8e8d-c7aaad0f16fb","ios":"levelo://app?vid=a8692879-7eca-4d99-8e8d-c7aaad0f16fb"},"vehicle_type_id":"4","last_reported":1740517709,"current_range_meters":16400,"station_id":"ce4bhgh2rcd13ifvqfb0","pricing_plan_id":"cebpf4jnsgd1na2vs0mg"},{"bike_id":"657805a7-7c02-4ae3-92be-cc7300051d2b","system_id":"levelo_inurba_marseille","lat":43.30417,"lon":5.41304,"is_reserved":false,"is_disabled":false,"rental_uris":{"android":"levelo://app?vid=657805a7-7c02-4ae3-92be-cc7300051d2b","ios":"levelo://app?vid=657805a7-7c02-4ae3-92be-cc7300051d2b"},"vehicle_type_id":"4","last_reported":1740517709,"current_range_meters":14800,"station_id":"ce4bhop2rcd13ifvqh8g","pricing_plan_id":"cebpf4jnsgd1na2vs0mg"},{"bike_id":"67ee95a1-160f-49c1-b11e-b3640680cd0d","system_id":"levelo_inurba_marseille","lat":43.32138,"lon":5.36763,"is_reserved":false,"is_disabled":false,"rental_uris":{"android":"levelo://app?vid=67ee95a1-160f-49c1-b11e-b3640680cd0d","ios":"levelo://app?vid=67ee95a1-160f-49c1-b11e-b3640680cd0d"},"vehicle_type_id":"4","last_reported":1740517709,"current_range_meters":14400,"station_id":"ce4bhrh2rcd13ifvqhug","pricing_plan_id":"cebpf4jnsgd1na2vs0mg"},{"bike_id":"8e552f0c-7f39-4e92-82a3-cede7c1cf821","system_id":"levelo_inurba_marseille","lat":43.30437,"lon":5.41306,"is_reserved":false,"is_disabled":false,"rental_uris":{"android":"levelo://app?vid=8e552f0c-7f39-4e92-82a3-cede7c1cf821","ios":"levelo://app?vid=8e552f0c-7f39-4e92-82a3-cede7c1cf821"},"vehicle_type_id":"4","last_reported":1740517709,"current_range_meters":14400,"station_id":"ce4bhop2rcd13ifvqh8g","pricing_plan_id":"cebpf4jnsgd1na2vs0mg"},{"bike_id":"1127d77b-5cf1-40ec-a3df-eaad58018e1f","system_id":"levelo_inurba_marseille","lat":43.308868,"lon":5.371915,"is_reserved":false,"is_disabled":false,"rental_uris":{"android":"levelo://app?vid=1127d77b-5cf1-40ec-a3df-eaad58018e1f","ios":"levelo://app?vid=1127d77b-5cf1-40ec-a3df-eaad58018e1f"},"vehicle_type_id":"4","last_reported":1740517709,"current_range_meters":14400,"station_id":"ce4bguh2rcd13ifvqckg","pricing_plan_id":"cebpf4jnsgd1na2vs0mg"},{"bike_id":"08c01866-a764-4945-a045-cd29291dd22a","system_id":"levelo_inurba_marseille","lat":43.30325,"lon":5.40429,"is_reserved":false,"is_disabled":false,"rental_uris":{"android":"levelo://app?vid=08c01866-a764-4945-a045-cd29291dd22a","ios":"levelo://app?vid=08c01866-a764-4945-a045-cd29291dd22a"},"vehicle_type_id":"4","last_reported":1740517709,"current_range_meters":14800,"station_id":"ce4bh012rcd13ifvqd10","pricing_plan_id":"cebpf4jnsgd1na2vs0mg"},{"bike_id":"6f11a3bc-9226-479c-86c8-1274462dd597","system_id":"levelo_inurba_marseille","lat":43.28452,"lon":5.39197,"is_reserved":false,"is_disabled":false,"rental_uris":{"android":"levelo://app?vid=6f11a3bc-9226-479c-86c8-1274462dd597","ios":"levelo://app?vid=6f11a3bc-9226-479c-86c8-1274462dd597"},"vehicle_type_id":"4","last_reported":1740517709,"current_range_meters":15200,"station_id":"ce4bhoh2rcd13ifvqh5g","pricing_plan_id":"cebpf4jnsgd1na2vs0mg"},{"bike_id":"b6a4cfb9-fdd3-4bf6-9402-2e45d150b5a9","system_id":"levelo_inurba_marseille","lat":43.31775,"lon":5.39034,"is_reserved":false,"is_disabled":false,"rental_uris":{"android":"levelo://app?vid=b6a4cfb9-fdd3-4bf6-9402-2e45d150b5a9","ios":"levelo://app?vid=b6a4cfb9-fdd3-4bf6-9402-2e45d150b5a9"},"vehicle_type_id":"4","last_reported":1740517709,"current_range_meters":14800,"station_id":"ce4bhqp2rcd13ifvqhng","pricing_plan_id":"cebpf4jnsgd1na2vs0mg"},{"bike_id":"daf11c2b-f621-49a6-9132-098ef985992e","system_id":"levelo_inurba_marseille","lat":43.25379,"lon":5.41841,"is_reserved":false,"is_disabled":false,"rental_uris":{"android":"levelo://app?vid=daf11c2b-f621-49a6-9132-098ef985992e","ios":"levelo://app?vid=daf11c2b-f621-49a6-9132-098ef985992e"},"vehicle_type_id":"4","last_reported":1740517709,"current_range_meters":15200,"station_id":"","pricing_plan_id":"cebpf4jnsgd1na2vs0mg"},{"bike_id":"1eeee890-7508-4453-8774-1f02251e15fb","system_id":"levelo_inurba_marseille","lat":43.30245,"lon":5.4007,"is_reserved":false,"is_disabled":false,"rental_uris":{"android":"levelo://app?vid=1eeee890-7508-4453-8774-1f02251e15fb","ios":"levelo://app?vid=1eeee890-7508-4453-8774-1f02251e15fb"},"vehicle_type_id":"4","last_reported":1740517709,"current_range_meters":14800,"station_id":"ce4bgvh2rcd13ifvqcs0","pricing_plan_id":"cebpf4jnsgd1na2vs0mg"},{"bike_id":"237fc719-744f-48a1-a4af-7254838604fb","system_id":"levelo_inurba_marseille","lat":43.29196,"lon":5.3933,"is_reserved":false,"is_disabled":false,"rental_uris":{"android":"levelo://app?vid=237fc719-744f-48a1-a4af-7254838604fb","ios":"levelo://app?vid=237fc719-744f-48a1-a4af-7254838604fb"},"vehicle_type_id":"4","last_reported":1740517709,"current_range_meters":14800,"station_id":"ce4bh192rcd13ifvqdd0","pricing_plan_id":"cebpf4jnsgd1na2vs0mg"},{"bike_id":"44bf47fe-23ce-4e98-8841-8f662e370667","system_id":"levelo_inurba_marseille","lat":43.2953,"lon":5.385418,"is_reserved":false,"is_disabled":false,"rental_uris":{"android":"levelo://app?vid=44bf47fe-23ce-4e98-8841-8f662e370667","ios":"levelo://app?vid=44bf47fe-23ce-4e98-8841-8f662e370667"},"vehicle_type_id":"4","last_reported":1740517709,"current_range_meters":14800,"station_id":"ce4bgv92rcd13ifvqcq0","pricing_plan_id":"cebpf4jnsgd1na2vs0mg"},{"bike_id":"7e082406-6073-4384-8018-e6bedfa22b7f","system_id":"levelo_inurba_marseille","lat":43.288551,"lon":5.358622,"is_reserved":false,"is_disabled":false,"rental_uris":{"android":"levelo://app?vid=7e082406-6073-4384-8018-e6bedfa22b7f","ios":"levelo://app?vid=7e082406-6073-4384-8018-e6bedfa22b7f"},"vehicle_type_id":"4","last_reported":1740517709,"current_range_meters":14800,"station_id":"ce4bhb12rcd13ifvqem0","pricing_plan_id":"cebpf4jnsgd1na2vs0mg"},{"bike_id":"8e5105f1-0439-4742-a3ae-b8e929153446","system_id":"levelo_inurba_marseille","lat":43.27996,"lon":5.40065,"is_reserved":false,"is_disabled":false,"rental_uris":{"android":"levelo://app?vid=8e5105f1-0439-4742-a3ae-b8e929153446","ios":"levelo://app?vid=8e5105f1-0439-4742-a3ae-b8e929153446"},"vehicle_type_id":"4","last_reported":1740517709,"current_range_meters":15200,"station_id":"ce4bho92rcd13ifvqh4g","pricing_plan_id":"cebpf4jnsgd1na2vs0mg"},{"bike_id":"7fcde7d0-6ee8-4684-b803-59f3b19e21eb","system_id":"levelo_inurba_marseille","lat":43.28401,"lon":5.37503,"is_reserved":false,"is_disabled":false,"rental_uris":{"android":"levelo://app?vid=7fcde7d0-6ee8-4684-b803-59f3b19e21eb","ios":"levelo://app?vid=7fcde7d0-6ee8-4684-b803-59f3b19e21eb"},"vehicle_type_id":"4","last_reported":1740517709,"current_range_meters":15200,"station_id":"ce4bh412rcd13ifvqds0","pricing_plan_id":"cebpf4jnsgd1na2vs0mg"},{"bike_id":"2906f046-d828-409c-ae32-50fa854ea9f5","system_id":"levelo_inurba_marseille","lat":43.26581,"lon":5.39013,"is_reserved":false,"is_disabled":false,"rental_uris":{"android":"levelo://app?vid=2906f046-d828-409c-ae32-50fa854ea9f5","ios":"levelo://app?vid=2906f046-d828-409c-ae32-50fa854ea9f5"},"vehicle_type_id":"4","last_reported":1740517709,"current_range_meters":15200,"station_id":"ce4bhe12rcd13ifvqf30","pricing_plan_id":"cebpf4jnsgd1na2vs0mg"},{"bike_id":"60577a67-a71c-49c7-a3d3-a6d09ddf27b8","system_id":"levelo_inurba_marseille","lat":43.441284,"lon":5.252666,"is_reserved":false,"is_disabled":false,"rental_uris":{"android":"levelo://app?vid=60577a67-a71c-49c7-a3d3-a6d09ddf27b8","ios":"levelo://app?vid=60577a67-a71c-49c7-a3d3-a6d09ddf27b8"},"vehicle_type_id":"4","last_reported":1740517709,"current_range_meters":17200,"station_id":"ce4bh412rcd13ifvqds0","pricing_plan_id":"cebpf4jnsgd1na2vs0mg"},{"bike_id":"78478cef-43d2-4961-afc3-36124209df6e","system_id":"levelo_inurba_marseille","lat":43.28365,"lon":5.38631,"is_reserved":false,"is_disabled":false,"rental_uris":{"android":"levelo://app?vid=78478cef-43d2-4961-afc3-36124209df6e","ios":"levelo://app?vid=78478cef-43d2-4961-afc3-36124209df6e"},"vehicle_type_id":"4","last_reported":1740517709,"current_range_meters":13600,"station_id":"ce4bh492rcd13ifvqdvg","pricing_plan_id":"cebpf4jnsgd1na2vs0mg"},{"bike_id":"51316f82-966e-483b-a199-c35a3316c870","system_id":"levelo_inurba_marseille","lat":43.26556,"lon":5.37277,"is_reserved":false,"is_disabled":false,"rental_uris":{"android":"levelo://app?vid=51316f82-966e-483b-a199-c35a3316c870","ios":"levelo://app?vid=51316f82-966e-483b-a199-c35a3316c870"},"vehicle_type_id":"4","last_reported":1740517709,"current_range_meters":15200,"station_id":"ce4bhg12rcd13ifvqf70","pricing_plan_id":"cebpf4jnsgd1na2vs0mg"},{"bike_id":"e85bf3ac-9297-4fe8-87a9-3213ebf1e510","system_id":"levelo_inurba_marseille","lat":43.27176,"lon":5.40991,"is_reserved":false,"is_disabled":false,"rental_uris":{"android":"levelo://app?vid=e85bf3ac-9297-4fe8-87a9-3213ebf1e510","ios":"levelo://app?vid=e85bf3ac-9297-4fe8-87a9-3213ebf1e510"},"vehicle_type_id":"4","last_reported":1740517709,"current_range_meters":15200,"station_id":"ce4bhl12rcd13ifvqgf0","pricing_plan_id":"cebpf4jnsgd1na2vs0mg"},{"bike_id":"40bd775e-5ce3-4948-be2f-acfa8e48e7a0","system_id":"levelo_inurba_marseille","lat":43.28618,"lon":5.35095,"is_reserved":false,"is_disabled":false,"rental_uris":{"android":"levelo://app?vid=40bd775e-5ce3-4948-be2f-acfa8e48e7a0","ios":"levelo://app?vid=40bd775e-5ce3-4948-be2f-acfa8e48e7a0"},"vehicle_type_id":"4","last_reported":1740517709,"current_range_meters":15200,"station_id":"ce4bhch2rcd13ifvqeug","pricing_plan_id":"cebpf4jnsgd1na2vs0mg"},{"bike_id":"2021b8dd-b4e2-4a26-84c0-c66dbe08650d","system_id":"levelo_inurba_marseille","lat":43.28475,"lon":5.35895,"is_reserved":false,"is_disabled":false,"rental_uris":{"android":"levelo://app?vid=2021b8dd-b4e2-4a26-84c0-c66dbe08650d","ios":"levelo://app?vid=2021b8dd-b4e2-4a26-84c0-c66dbe08650d"},"vehicle_type_id":"4","last_reported":1740517709,"current_range_meters":6800,"station_id":"ce4bhah2rcd13ifvqei0","pricing_plan_id":"cebpf4jnsgd1na2vs0mg"},{"bike_id":"bb953524-1b92-4c01-b6f7-6c8d4a329874","system_id":"levelo_inurba_marseille","lat":43.28277,"lon":5.35068,"is_reserved":false,"is_disabled":false,"rental_uris":{"android":"levelo://app?vid=bb953524-1b92-4c01-b6f7-6c8d4a329874","ios":"levelo://app?vid=bb953524-1b92-4c01-b6f7-6c8d4a329874"},"vehicle_type_id":"4","last_reported":1740517709,"current_range_meters":16400,"station_id":"ce4bhbp2rcd13ifvqerg","pricing_plan_id":"cebpf4jnsgd1na2vs0mg"},{"bike_id":"56c90c05-21dd-4258-af01-641c62e92e64","system_id":"levelo_inurba_marseille","lat":43.28624,"lon":5.35102,"is_reserved":false,"is_disabled":false,"rental_uris":{"android":"levelo://app?vid=56c90c05-21dd-4258-af01-641c62e92e64","ios":"levelo://app?vid=56c90c05-21dd-4258-af01-641c62e92e64"},"vehicle_type_id":"4","last_reported":1740517709,"current_range_meters":16000,"station_id":"ce4bhch2rcd13ifvqeug","pricing_plan_id":"cebpf4jnsgd1na2vs0mg"},{"bike_id":"0b2f5009-1e4e-4593-8abd-b74dc1937c26","system_id":"levelo_inurba_marseille","lat":43.23182,"lon":5.39981,"is_reserved":false,"is_disabled":false,"rental_uris":{"android":"levelo://app?vid=0b2f5009-1e4e-4593-8abd-b74dc1937c26","ios":"levelo://app?vid=0b2f5009-1e4e-4593-8abd-b74dc1937c26"},"vehicle_type_id":"4","last_reported":1740517709,"current_range_meters":16000,"station_id":"ce4bhn12rcd13ifvqgqg","pricing_plan_id":"cebpf4jnsgd1na2vs0mg"},{"bike_id":"c0ed74a2-e2a8-41f0-9b03-a680909f2682","system_id":"levelo_inurba_marseille","lat":43.27954,"lon":5.41041,"is_reserved":false,"is_disabled":false,"rental_uris":{"android":"levelo://app?vid=c0ed74a2-e2a8-41f0-9b03-a680909f2682","ios":"levelo://app?vid=c0ed74a2-e2a8-41f0-9b03-a680909f2682"},"vehicle_type_id":"4","last_reported":1740517709,"current_range_meters":16000,"station_id":"ce4bhnp2rcd13ifvqh0g","pricing_plan_id":"cebpf4jnsgd1na2vs0mg"},{"bike_id":"661cb5b8-ddaf-4c6a-a52d-b55c1ad8e307","system_id":"levelo_inurba_marseille","lat":43.31082,"lon":5.38363,"is_reserved":false,"is_disabled":false,"rental_uris":{"android":"levelo://app?vid=661cb5b8-ddaf-4c6a-a52d-b55c1ad8e307","ios":"levelo://app?vid=661cb5b8-ddaf-4c6a-a52d-b55c1ad8e307"},"vehicle_type_id":"4","last_reported":1740517709,"current_range_meters":16000,"station_id":"ce4bgv92rcd13ifvqcr0","pricing_plan_id":"cebpf4jnsgd1na2vs0mg"},{"bike_id":"35574852-253b-4bbe-a6e3-ee31965d9ec8","system_id":"levelo_inurba_marseille","lat":43.32373,"lon":5.38902,"is_reserved":false,"is_disabled":false,"rental_uris":{"android":"levelo://app?vid=35574852-253b-4bbe-a6e3-ee31965d9ec8","ios":"levelo://app?vid=35574852-253b-4bbe-a6e3-ee31965d9ec8"},"vehicle_type_id":"4","last_reported":1740517709,"current_range_meters":16400,"station_id":"ce4bhqp2rcd13ifvqhog","pricing_plan_id":"cebpf4jnsgd1na2vs0mg"},{"bike_id":"92f819fc-8c61-4bd8-bc2c-008997290d86","system_id":"levelo_inurba_marseille","lat":43.30245,"lon":5.40038,"is_reserved":false,"is_disabled":false,"rental_uris":{"android":"levelo://app?vid=92f819fc-8c61-4bd8-bc2c-008997290d86","ios":"levelo://app?vid=92f819fc-8c61-4bd8-bc2c-008997290d86"},"vehicle_type_id":"4","last_reported":1740517709,"current_range_meters":16400,"station_id":"ce4bgvh2rcd13ifvqcs0","pricing_plan_id":"cebpf4jnsgd1na2vs0mg"},{"bike_id":"013c533e-c991-49dd-ac74-d8803d35e56c","system_id":"levelo_inurba_marseille","lat":43.285843,"lon":5.397461,"is_reserved":false,"is_disabled":false,"rental_uris":{"android":"levelo://app?vid=013c533e-c991-49dd-ac74-d8803d35e56c","ios":"levelo://app?vid=013c533e-c991-49dd-ac74-d8803d35e56c"},"vehicle_type_id":"4","last_reported":1740517709,"current_range_meters":16800,"station_id":"ce4bh292rcd13ifvqdg0","pricing_plan_id":"cebpf4jnsgd1na2vs0mg"},{"bike_id":"2285c932-96d2-4e25-b5ab-a9d3a942aa52","system_id":"levelo_inurba_marseille","lat":43.3228,"lon":5.38255,"is_reserved":false,"is_disabled":false,"rental_uris":{"android":"levelo://app?vid=2285c932-96d2-4e25-b5ab-a9d3a942aa52","ios":"levelo://app?vid=2285c932-96d2-4e25-b5ab-a9d3a942aa52"},"vehicle_type_id":"4","last_reported":1740517709,"current_range_meters":16400,"station_id":"ce4bhr12rcd13ifvqhqg","pricing_plan_id":"cebpf4jnsgd1na2vs0mg"},{"bike_id":"12451835-3853-43ca-a98e-147997a5e2b1","system_id":"levelo_inurba_marseille","lat":43.28482,"lon":5.35875,"is_reserved":false,"is_disabled":false,"rental_uris":{"android":"levelo://app?vid=12451835-3853-43ca-a98e-147997a5e2b1","ios":"levelo://app?vid=12451835-3853-43ca-a98e-147997a5e2b1"},"vehicle_type_id":"4","last_reported":1740517709,"current_range_meters":16400,"station_id":"ce4bhah2rcd13ifvqei0","pricing_plan_id":"cebpf4jnsgd1na2vs0mg"},{"bike_id":"646e104f-d65e-43bf-a106-3939e76a8beb","system_id":"levelo_inurba_marseille","lat":43.29569,"lon":5.39974,"is_reserved":false,"is_disabled":false,"rental_uris":{"android":"levelo://app?vid=646e104f-d65e-43bf-a106-3939e76a8beb","ios":"levelo://app?vid=646e104f-d65e-43bf-a106-3939e76a8beb"},"vehicle_type_id":"4","last_reported":1740517709,"current_range_meters":17200,"station_id":"ce4bh312rcd13ifvqdj0","pricing_plan_id":"cebpf4jnsgd1na2vs0mg"},{"bike_id":"7c4112af-4220-42f6-98e8-9f0ad4c08842","system_id":"levelo_inurba_marseille","lat":43.2842,"lon":5.3751,"is_reserved":false,"is_disabled":false,"rental_uris":{"android":"levelo://app?vid=7c4112af-4220-42f6-98e8-9f0ad4c08842","ios":"levelo://app?vid=7c4112af-4220-42f6-98e8-9f0ad4c08842"},"vehicle_type_id":"4","last_reported":1740517709,"current_range_meters":16400,"station_id":"ce4bh412rcd13ifvqds0","pricing_plan_id":"cebpf4jnsgd1na2vs0mg"},{"bike_id":"88cf73d0-05e5-45a5-817f-4ade2a2314da","system_id":"levelo_inurba_marseille","lat":43.29061,"lon":5.38629,"is_reserved":false,"is_disabled":false,"rental_uris":{"android":"levelo://app?vid=88cf73d0-05e5-45a5-817f-4ade2a2314da","ios":"levelo://app?vid=88cf73d0-05e5-45a5-817f-4ade2a2314da"},"vehicle_type_id":"4","last_reported":1740517709,"current_range_meters":16400,"station_id":"ce4bh4p2rcd13ifvqe0g","pricing_plan_id":"cebpf4jnsgd1na2vs0mg"},{"bike_id":"cd086bf9-452b-4edb-a794-bf82c9820cc7","system_id":"levelo_inurba_marseille","lat":43.28718,"lon":5.37378,"is_reserved":false,"is_disabled":false,"rental_uris":{"android":"levelo://app?vid=cd086bf9-452b-4edb-a794-bf82c9820cc7","ios":"levelo://app?vid=cd086bf9-452b-4edb-a794-bf82c9820cc7"},"vehicle_type_id":"4","last_reported":1740517709,"current_range_meters":16800,"station_id":"ce4bh3p2rcd13ifvqdq0","pricing_plan_id":"cebpf4jnsgd1na2vs0mg"},{"bike_id":"0d2c85bc-9757-499e-8d71-b093d0d3dee8","system_id":"levelo_inurba_marseille","lat":43.28376,"lon":5.38648,"is_reserved":false,"is_disabled":false,"rental_uris":{"android":"levelo://app?vid=0d2c85bc-9757-499e-8d71-b093d0d3dee8","ios":"levelo://app?vid=0d2c85bc-9757-499e-8d71-b093d0d3dee8"},"vehicle_type_id":"4","last_reported":1740517709,"current_range_meters":16400,"station_id":"ce4bh492rcd13ifvqdvg","pricing_plan_id":"cebpf4jnsgd1na2vs0mg"},{"bike_id":"134ae0c0-4a2e-43fe-ac00-96839d582905","system_id":"levelo_inurba_marseille","lat":43.30273,"lon":5.39157,"is_reserved":false,"is_disabled":false,"rental_uris":{"android":"levelo://app?vid=134ae0c0-4a2e-43fe-ac00-96839d582905","ios":"levelo://app?vid=134ae0c0-4a2e-43fe-ac00-96839d582905"},"vehicle_type_id":"4","last_reported":1740517709,"current_range_meters":16800,"station_id":"ce4bgkh2rcd13ifvqbk0","pricing_plan_id":"cebpf4jnsgd1na2vs0mg"},{"bike_id":"b426a55b-6079-4410-bdcf-64a0360c349f","system_id":"levelo_inurba_marseille","lat":43.28409,"lon":5.34982,"is_reserved":false,"is_disabled":false,"rental_uris":{"android":"levelo://app?vid=b426a55b-6079-4410-bdcf-64a0360c349f","ios":"levelo://app?vid=b426a55b-6079-4410-bdcf-64a0360c349f"},"vehicle_type_id":"4","last_reported":1740517709,"current_range_meters":16800,"station_id":"ce4bhbh2rcd13ifvqepg","pricing_plan_id":"cebpf4jnsgd1na2vs0mg"},{"bike_id":"d87b78e1-3377-48df-a130-991f4ba63b5b","system_id":"levelo_inurba_marseille","lat":43.29874,"lon":5.39736,"is_reserved":false,"is_disabled":false,"rental_uris":{"android":"levelo://app?vid=d87b78e1-3377-48df-a130-991f4ba63b5b","ios":"levelo://app?vid=d87b78e1-3377-48df-a130-991f4ba63b5b"},"vehicle_type_id":"4","last_reported":1740517709,"current_range_meters":16800,"station_id":"ce4bh0h2rcd13ifvqd50","pricing_plan_id":"cebpf4jnsgd1na2vs0mg"},{"bike_id":"6049939e-ec5b-47ea-a4b6-e5ef464c96bc","system_id":"levelo_inurba_marseille","lat":43.28028,"lon":5.36938,"is_reserved":false,"is_disabled":false,"rental_uris":{"android":"levelo://app?vid=6049939e-ec5b-47ea-a4b6-e5ef464c96bc","ios":"levelo://app?vid=6049939e-ec5b-47ea-a4b6-e5ef464c96bc"},"vehicle_type_id":"4","last_reported":1740517709,"current_range_meters":16800,"station_id":"ce4bha12rcd13ifvqef0","pricing_plan_id":"cebpf4jnsgd1na2vs0mg"},{"bike_id":"b945f37a-81e4-4076-9c57-e61c28420319","system_id":"levelo_inurba_marseille","lat":43.32482,"lon":5.36562,"is_reserved":false,"is_disabled":false,"rental_uris":{"android":"levelo://app?vid=b945f37a-81e4-4076-9c57-e61c28420319","ios":"levelo://app?vid=b945f37a-81e4-4076-9c57-e61c28420319"},"vehicle_type_id":"4","last_reported":1740517709,"current_range_meters":17200,"station_id":"ce4bhs12rcd13ifvqhvg","pricing_plan_id":"cebpf4jnsgd1na2vs0mg"},{"bike_id":"e3197f79-d94a-4d2b-870e-d8d98913f48f","system_id":"levelo_inurba_marseille","lat":43.28928,"lon":5.36383,"is_reserved":false,"is_disabled":false,"rental_uris":{"android":"levelo://app?vid=e3197f79-d94a-4d2b-870e-d8d98913f48f","ios":"levelo://app?vid=e3197f79-d94a-4d2b-870e-d8d98913f48f"},"vehicle_type_id":"4","last_reported":1740517709,"current_range_meters":16800,"station_id":"ce4bhc92rcd13ifvqetg","pricing_plan_id":"cebpf4jnsgd1na2vs0mg"},{"bike_id":"f240de7b-0068-4fca-a36e-d80ef8cdda6e","system_id":"levelo_inurba_marseille","lat":43.31534,"lon":5.38045,"is_reserved":false,"is_disabled":false,"rental_uris":{"android":"levelo://app?vid=f240de7b-0068-4fca-a36e-d80ef8cdda6e","ios":"levelo://app?vid=f240de7b-0068-4fca-a36e-d80ef8cdda6e"},"vehicle_type_id":"4","last_reported":1740517709,"current_range_meters":16800,"station_id":"ce4bhsp2rcd13ifvqi50","pricing_plan_id":"cebpf4jnsgd1na2vs0mg"},{"bike_id":"b25b6121-cdbd-4015-b5d2-ee83776ca200","system_id":"levelo_inurba_marseille","lat":43.31276,"lon":5.40174,"is_reserved":false,"is_disabled":false,"rental_uris":{"android":"levelo://app?vid=b25b6121-cdbd-4015-b5d2-ee83776ca200","ios":"levelo://app?vid=b25b6121-cdbd-4015-b5d2-ee83776ca200"},"vehicle_type_id":"4","last_reported":1740517709,"current_range_meters":16800,"station_id":"ce4bh092rcd13ifvqd30","pricing_plan_id":"cebpf4jnsgd1na2vs0mg"},{"bike_id":"de24a00b-aa0e-4a03-986c-3a364b8a5f66","system_id":"levelo_inurba_marseille","lat":43.31626,"lon":5.38945,"is_reserved":false,"is_disabled":false,"rental_uris":{"android":"levelo://app?vid=de24a00b-aa0e-4a03-986c-3a364b8a5f66","ios":"levelo://app?vid=de24a00b-aa0e-4a03-986c-3a364b8a5f66"},"vehicle_type_id":"4","last_reported":1740517709,"current_range_meters":17200,"station_id":"","pricing_plan_id":"cebpf4jnsgd1na2vs0mg"},{"bike_id":"e67d3df4-e9e9-46b7-9755-b18ab6573d62","system_id":"levelo_inurba_marseille","lat":43.26807,"lon":5.40275,"is_reserved":false,"is_disabled":false,"rental_uris":{"android":"levelo://app?vid=e67d3df4-e9e9-46b7-9755-b18ab6573d62","ios":"levelo://app?vid=e67d3df4-e9e9-46b7-9755-b18ab6573d62"},"vehicle_type_id":"4","last_reported":1740517709,"current_range_meters":17200,"station_id":"ce501612rcd8frsf0b60","pricing_plan_id":"cebpf4jnsgd1na2vs0mg"},{"bike_id":"b65eca50-3ad3-44cf-8461-21bab0d9d9a8","system_id":"levelo_inurba_marseille","lat":43.26565,"lon":5.37306,"is_reserved":false,"is_disabled":false,"rental_uris":{"android":"levelo://app?vid=b65eca50-3ad3-44cf-8461-21bab0d9d9a8","ios":"levelo://app?vid=b65eca50-3ad3-44cf-8461-21bab0d9d9a8"},"vehicle_type_id":"4","last_reported":1740517709,"current_range_meters":17600,"station_id":"ce4bhg12rcd13ifvqf70","pricing_plan_id":"cebpf4jnsgd1na2vs0mg"},{"bike_id":"c333214c-e858-4d83-ae11-52fad9cac016","system_id":"levelo_inurba_marseille","lat":43.31779,"lon":5.39014,"is_reserved":false,"is_disabled":false,"rental_uris":{"android":"levelo://app?vid=c333214c-e858-4d83-ae11-52fad9cac016","ios":"levelo://app?vid=c333214c-e858-4d83-ae11-52fad9cac016"},"vehicle_type_id":"4","last_reported":1740517709,"current_range_meters":17600,"station_id":"ce4bhqp2rcd13ifvqhng","pricing_plan_id":"cebpf4jnsgd1na2vs0mg"},{"bike_id":"1a856f10-c5bc-4b12-a5aa-06d011bd52a2","system_id":"levelo_inurba_marseille","lat":43.27826,"lon":5.40674,"is_reserved":false,"is_disabled":false,"rental_uris":{"android":"levelo://app?vid=1a856f10-c5bc-4b12-a5aa-06d011bd52a2","ios":"levelo://app?vid=1a856f10-c5bc-4b12-a5aa-06d011bd52a2"},"vehicle_type_id":"4","last_reported":1740517709,"current_range_meters":17600,"station_id":"ce4bhnh2rcd13ifvqgtg","pricing_plan_id":"cebpf4jnsgd1na2vs0mg"},{"bike_id":"4303e72d-c309-440e-990e-397e2de97f27","system_id":"levelo_inurba_marseille","lat":43.28839,"lon":5.35862,"is_reserved":false,"is_disabled":false,"rental_uris":{"android":"levelo://app?vid=4303e72d-c309-440e-990e-397e2de97f27","ios":"levelo://app?vid=4303e72d-c309-440e-990e-397e2de97f27"},"vehicle_type_id":"4","last_reported":1740517709,"current_range_meters":17200,"station_id":"ce4bhb12rcd13ifvqem0","pricing_plan_id":"cebpf4jnsgd1na2vs0mg"},{"bike_id":"02028f5d-7181-4e7f-80ba-abb06cf96801","system_id":"levelo_inurba_marseille","lat":43.28435,"lon":5.35016,"is_reserved":false,"is_disabled":false,"rental_uris":{"android":"levelo://app?vid=02028f5d-7181-4e7f-80ba-abb06cf96801","ios":"levelo://app?vid=02028f5d-7181-4e7f-80ba-abb06cf96801"},"vehicle_type_id":"4","last_reported":1740517709,"current_range_meters":17200,"station_id":"ce4bhbh2rcd13ifvqepg","pricing_plan_id":"cebpf4jnsgd1na2vs0mg"},{"bike_id":"7458baae-6a0b-475e-ad8b-373a5faec38f","system_id":"levelo_inurba_marseille","lat":43.29608,"lon":5.37562,"is_reserved":false,"is_disabled":false,"rental_uris":{"android":"levelo://app?vid=7458baae-6a0b-475e-ad8b-373a5faec38f","ios":"levelo://app?vid=7458baae-6a0b-475e-ad8b-373a5faec38f"},"vehicle_type_id":"4","last_reported":1740517709,"current_range_meters":17600,"station_id":"ce4bgh92rcd13ifvqb50","pricing_plan_id":"cebpf4jnsgd1na2vs0mg"},{"bike_id":"8fbff007-fc75-46f2-92d5-970e9ee4e8d1","system_id":"levelo_inurba_marseille","lat":43.28941,"lon":5.36634,"is_reserved":false,"is_disabled":false,"rental_uris":{"android":"levelo://app?vid=8fbff007-fc75-46f2-92d5-970e9ee4e8d1","ios":"levelo://app?vid=8fbff007-fc75-46f2-92d5-970e9ee4e8d1"},"vehicle_type_id":"4","last_reported":1740517709,"current_range_meters":17200,"station_id":"ce4bhap2rcd13ifvqek0","pricing_plan_id":"cebpf4jnsgd1na2vs0mg"},{"bike_id":"f682e0e7-7287-4810-b57c-07b39acfa03a","system_id":"levelo_inurba_marseille","lat":43.29255,"lon":5.38448,"is_reserved":false,"is_disabled":false,"rental_uris":{"android":"levelo://app?vid=f682e0e7-7287-4810-b57c-07b39acfa03a","ios":"levelo://app?vid=f682e0e7-7287-4810-b57c-07b39acfa03a"},"vehicle_type_id":"4","last_reported":1740517709,"current_range_meters":17600,"station_id":"ce4bh692rcd13ifvqea0","pricing_plan_id":"cebpf4jnsgd1na2vs0mg"},{"bike_id":"1f8fd212-6e49-4507-86eb-4c1e4b5c63bb","system_id":"levelo_inurba_marseille","lat":43.2844,"lon":5.39174,"is_reserved":false,"is_disabled":false,"rental_uris":{"android":"levelo://app?vid=1f8fd212-6e49-4507-86eb-4c1e4b5c63bb","ios":"levelo://app?vid=1f8fd212-6e49-4507-86eb-4c1e4b5c63bb"},"vehicle_type_id":"4","last_reported":1740517709,"current_range_meters":17200,"station_id":"ce4bhoh2rcd13ifvqh5g","pricing_plan_id":"cebpf4jnsgd1na2vs0mg"},{"bike_id":"b7d3c0bb-7d03-4d09-a6c9-12107485a8da","system_id":"levelo_inurba_marseille","lat":43.3199,"lon":5.3812,"is_reserved":false,"is_disabled":false,"rental_uris":{"android":"levelo://app?vid=b7d3c0bb-7d03-4d09-a6c9-12107485a8da","ios":"levelo://app?vid=b7d3c0bb-7d03-4d09-a6c9-12107485a8da"},"vehicle_type_id":"4","last_reported":1740517709,"current_range_meters":17200,"station_id":"ce4bhr12rcd13ifvqhpg","pricing_plan_id":"cebpf4jnsgd1na2vs0mg"},{"bike_id":"ddb8900e-cb80-4333-bdeb-b80e38c92454","system_id":"levelo_inurba_marseille","lat":43.32292,"lon":5.38263,"is_reserved":false,"is_disabled":false,"rental_uris":{"android":"levelo://app?vid=ddb8900e-cb80-4333-bdeb-b80e38c92454","ios":"levelo://app?vid=ddb8900e-cb80-4333-bdeb-b80e38c92454"},"vehicle_type_id":"4","last_reported":1740517709,"current_range_meters":17200,"station_id":"ce4bhr12rcd13ifvqhqg","pricing_plan_id":"cebpf4jnsgd1na2vs0mg"},{"bike_id":"c733998d-e0d3-44c6-a8c0-1e50f0b51a94","system_id":"levelo_inurba_marseille","lat":43.2942,"lon":5.386114,"is_reserved":false,"is_disabled":false,"rental_uris":{"android":"levelo://app?vid=c733998d-e0d3-44c6-a8c0-1e50f0b51a94","ios":"levelo://app?vid=c733998d-e0d3-44c6-a8c0-1e50f0b51a94"},"vehicle_type_id":"4","last_reported":1740517709,"current_range_meters":17200,"station_id":"ce4bh2h2rcd13ifvqdh0","pricing_plan_id":"cebpf4jnsgd1na2vs0mg"},{"bike_id":"ad9571bc-5194-4f71-90ef-f1cb0835f36e","system_id":"levelo_inurba_marseille","lat":43.254886,"lon":5.376543,"is_reserved":false,"is_disabled":true,"rental_uris":{"android":"levelo://app?vid=ad9571bc-5194-4f71-90ef-f1cb0835f36e","ios":"levelo://app?vid=ad9571bc-5194-4f71-90ef-f1cb0835f36e"},"vehicle_type_id":"4","last_reported":1740517709,"current_range_meters":17200,"station_id":"ce4bhh12rcd13ifvqff0","pricing_plan_id":"cebpf4jnsgd1na2vs0mg"},{"bike_id":"c651d998-372f-4342-9fec-f5659570b723","system_id":"levelo_inurba_marseille","lat":43.294213,"lon":5.38624,"is_reserved":false,"is_disabled":false,"rental_uris":{"android":"levelo://app?vid=c651d998-372f-4342-9fec-f5659570b723","ios":"levelo://app?vid=c651d998-372f-4342-9fec-f5659570b723"},"vehicle_type_id":"4","last_reported":1740517709,"current_range_meters":19200,"station_id":"ce4bh2h2rcd13ifvqdh0","pricing_plan_id":"cebpf4jnsgd1na2vs0mg"},{"bike_id":"00ed27c2-66ec-48a6-a97d-b4f8857ddc06","system_id":"levelo_inurba_marseille","lat":43.28262,"lon":5.35047,"is_reserved":false,"is_disabled":false,"rental_uris":{"android":"levelo://app?vid=00ed27c2-66ec-48a6-a97d-b4f8857ddc06","ios":"levelo://app?vid=00ed27c2-66ec-48a6-a97d-b4f8857ddc06"},"vehicle_type_id":"4","last_reported":1740517709,"current_range_meters":17200,"station_id":"ce4bhbp2rcd13ifvqerg","pricing_plan_id":"cebpf4jnsgd1na2vs0mg"},{"bike_id":"916aa339-0162-4b55-82ed-426844246e01","system_id":"levelo_inurba_marseille","lat":43.28419,"lon":5.39166,"is_reserved":false,"is_disabled":false,"rental_uris":{"android":"levelo://app?vid=916aa339-0162-4b55-82ed-426844246e01","ios":"levelo://app?vid=916aa339-0162-4b55-82ed-426844246e01"},"vehicle_type_id":"4","last_reported":1740517709,"current_range_meters":17200,"station_id":"ce4bhoh2rcd13ifvqh5g","pricing_plan_id":"cebpf4jnsgd1na2vs0mg"},{"bike_id":"25411262-23d1-41bb-a382-a545d4af1ec3","system_id":"levelo_inurba_marseille","lat":43.25109,"lon":5.40315,"is_reserved":false,"is_disabled":false,"rental_uris":{"android":"levelo://app?vid=25411262-23d1-41bb-a382-a545d4af1ec3","ios":"levelo://app?vid=25411262-23d1-41bb-a382-a545d4af1ec3"},"vehicle_type_id":"4","last_reported":1740517709,"current_range_meters":17600,"station_id":"ce4bhlh2rcd13ifvqgig","pricing_plan_id":"cebpf4jnsgd1na2vs0mg"},{"bike_id":"ba7310ac-0764-4ccf-8bec-7a2976e24404","system_id":"levelo_inurba_marseille","lat":43.292705,"lon":5.384358,"is_reserved":false,"is_disabled":false,"rental_uris":{"android":"levelo://app?vid=ba7310ac-0764-4ccf-8bec-7a2976e24404","ios":"levelo://app?vid=ba7310ac-0764-4ccf-8bec-7a2976e24404"},"vehicle_type_id":"4","last_reported":1740517709,"current_range_meters":17600,"station_id":"ce4bh692rcd13ifvqea0","pricing_plan_id":"cebpf4jnsgd1na2vs0mg"},{"bike_id":"620faf8f-9860-4e84-b6cd-4559a0b9a89c","system_id":"levelo_inurba_marseille","lat":43.324761,"lon":5.365406,"is_reserved":false,"is_disabled":false,"rental_uris":{"android":"levelo://app?vid=620faf8f-9860-4e84-b6cd-4559a0b9a89c","ios":"levelo://app?vid=620faf8f-9860-4e84-b6cd-4559a0b9a89c"},"vehicle_type_id":"4","last_reported":1740517709,"current_range_meters":17600,"station_id":"ce4bhs12rcd13ifvqhvg","pricing_plan_id":"cebpf4jnsgd1na2vs0mg"},{"bike_id":"d22dc0c0-1bfe-4bf5-90e1-538c8b2c5e57","system_id":"levelo_inurba_marseille","lat":43.279493,"lon":5.410427,"is_reserved":false,"is_disabled":false,"rental_uris":{"android":"levelo://app?vid=d22dc0c0-1bfe-4bf5-90e1-538c8b2c5e57","ios":"levelo://app?vid=d22dc0c0-1bfe-4bf5-90e1-538c8b2c5e57"},"vehicle_type_id":"4","last_reported":1740517709,"current_range_meters":17600,"station_id":"ce4bhnp2rcd13ifvqh0g","pricing_plan_id":"cebpf4jnsgd1na2vs0mg"},{"bike_id":"25c69e72-ccff-498a-b702-e7dee39723fa","system_id":"levelo_inurba_marseille","lat":43.290343,"lon":5.399866,"is_reserved":false,"is_disabled":false,"rental_uris":{"android":"levelo://app?vid=25c69e72-ccff-498a-b702-e7dee39723fa","ios":"levelo://app?vid=25c69e72-ccff-498a-b702-e7dee39723fa"},"vehicle_type_id":"4","last_reported":1740517709,"current_range_meters":17600,"station_id":"ce4bh392rcd13ifvqdm0","pricing_plan_id":"cebpf4jnsgd1na2vs0mg"},{"bike_id":"46bc6765-1731-42a0-922d-deb30e5668fc","system_id":"levelo_inurba_marseille","lat":43.29515,"lon":5.394,"is_reserved":false,"is_disabled":false,"rental_uris":{"android":"levelo://app?vid=46bc6765-1731-42a0-922d-deb30e5668fc","ios":"levelo://app?vid=46bc6765-1731-42a0-922d-deb30e5668fc"},"vehicle_type_id":"4","last_reported":1740517709,"current_range_meters":17600,"station_id":"ce4bh292rcd13ifvqdf0","pricing_plan_id":"cebpf4jnsgd1na2vs0mg"},{"bike_id":"bfe66e29-1ff4-4cde-a603-3f183dbde353","system_id":"levelo_inurba_marseille","lat":43.27973,"lon":5.38737,"is_reserved":false,"is_disabled":false,"rental_uris":{"android":"levelo://app?vid=bfe66e29-1ff4-4cde-a603-3f183dbde353","ios":"levelo://app?vid=bfe66e29-1ff4-4cde-a603-3f183dbde353"},"vehicle_type_id":"4","last_reported":1740517709,"current_range_meters":17600,"station_id":"ce4bhg12rcd13ifvqf80","pricing_plan_id":"cebpf4jnsgd1na2vs0mg"},{"bike_id":"fc4eea66-08d5-4e81-8a5a-c23282239258","system_id":"levelo_inurba_marseille","lat":43.29431,"lon":5.38621,"is_reserved":false,"is_disabled":false,"rental_uris":{"android":"levelo://app?vid=fc4eea66-08d5-4e81-8a5a-c23282239258","ios":"levelo://app?vid=fc4eea66-08d5-4e81-8a5a-c23282239258"},"vehicle_type_id":"4","last_reported":1740517709,"current_range_meters":18000,"station_id":"ce4bh2h2rcd13ifvqdh0","pricing_plan_id":"cebpf4jnsgd1na2vs0mg"},{"bike_id":"1ca5b1d5-5a53-46dd-b1b2-e83fd71df428","system_id":"levelo_inurba_marseille","lat":43.27961,"lon":5.41049,"is_reserved":false,"is_disabled":false,"rental_uris":{"android":"levelo://app?vid=1ca5b1d5-5a53-46dd-b1b2-e83fd71df428","ios":"levelo://app?vid=1ca5b1d5-5a53-46dd-b1b2-e83fd71df428"},"vehicle_type_id":"4","last_reported":1740517709,"current_range_meters":17600,"station_id":"ce4bhnp2rcd13ifvqh0g","pricing_plan_id":"cebpf4jnsgd1na2vs0mg"},{"bike_id":"c3d0fefa-5db4-49bd-a964-1a22da440d36","system_id":"levelo_inurba_marseille","lat":43.269559,"lon":5.386313,"is_reserved":false,"is_disabled":true,"rental_uris":{"android":"levelo://app?vid=c3d0fefa-5db4-49bd-a964-1a22da440d36","ios":"levelo://app?vid=c3d0fefa-5db4-49bd-a964-1a22da440d36"},"vehicle_type_id":"4","last_reported":1740517709,"current_range_meters":17600,"station_id":"","pricing_plan_id":"cebpf4jnsgd1na2vs0mg"},{"bike_id":"683c8e48-1e66-44a2-881d-78ee19597914","system_id":"levelo_inurba_marseille","lat":43.29261,"lon":5.38449,"is_reserved":false,"is_disabled":false,"rental_uris":{"android":"levelo://app?vid=683c8e48-1e66-44a2-881d-78ee19597914","ios":"levelo://app?vid=683c8e48-1e66-44a2-881d-78ee19597914"},"vehicle_type_id":"4","last_reported":1740517709,"current_range_meters":18000,"station_id":"ce4bh692rcd13ifvqea0","pricing_plan_id":"cebpf4jnsgd1na2vs0mg"},{"bike_id":"e9bf8700-43e9-4ad9-bd52-ca2f22661089","system_id":"levelo_inurba_marseille","lat":43.28451,"lon":5.35895,"is_reserved":false,"is_disabled":false,"rental_uris":{"android":"levelo://app?vid=e9bf8700-43e9-4ad9-bd52-ca2f22661089","ios":"levelo://app?vid=e9bf8700-43e9-4ad9-bd52-ca2f22661089"},"vehicle_type_id":"4","last_reported":1740517709,"current_range_meters":18000,"station_id":"ce4bhah2rcd13ifvqei0","pricing_plan_id":"cebpf4jnsgd1na2vs0mg"},{"bike_id":"b196e3fe-fced-4e6c-8983-78e64578be87","system_id":"levelo_inurba_marseille","lat":43.27958,"lon":5.3692,"is_reserved":false,"is_disabled":false,"rental_uris":{"android":"levelo://app?vid=b196e3fe-fced-4e6c-8983-78e64578be87","ios":"levelo://app?vid=b196e3fe-fced-4e6c-8983-78e64578be87"},"vehicle_type_id":"4","last_reported":1740517709,"current_range_meters":18000,"station_id":"","pricing_plan_id":"cebpf4jnsgd1na2vs0mg"},{"bike_id":"f20ebf5b-c147-4c0e-877d-056eb7b6ba4e","system_id":"levelo_inurba_marseille","lat":43.28067,"lon":5.39608,"is_reserved":false,"is_disabled":false,"rental_uris":{"android":"levelo://app?vid=f20ebf5b-c147-4c0e-877d-056eb7b6ba4e","ios":"levelo://app?vid=f20ebf5b-c147-4c0e-877d-056eb7b6ba4e"},