{"last_updated":1733901012,"ttl":60,"version":"2.2","data":{"bikes":[{"bike_id":"f4dba7c8-664f-48be-93f6-a2401c5e4276","system_id":"levelo_inurba_marseille","lat":43.22933,"lon":5.35377,"is_reserved":false,"is_disabled":false,"rental_uris":{"android":"levelo://app?vid=f4dba7c8-664f-48be-93f6-a2401c5e4276","ios":"levelo://app?vid=f4dba7c8-664f-48be-93f6-a2401c5e4276"},"vehicle_type_id":"4","last_reported":1733901012,"current_range_meters":19200,"station_id":"cpo3532slgdg3j2ikp40","pricing_plan_id":"cebpf4jnsgd1na2vs0mg"},{"bike_id":"cd3ea23b-0fc9-4b65-a5ae-f91c4c7dfe85","system_id":"levelo_inurba_marseille","lat":43.282721,"lon":5.350834,"is_reserved":false,"is_disabled":false,"rental_uris":{"android":"levelo://app?vid=cd3ea23b-0fc9-4b65-a5ae-f91c4c7dfe85","ios":"levelo://app?vid=cd3ea23b-0fc9-4b65-a5ae-f91c4c7dfe85"},"vehicle_type_id":"4","last_reported":1733901012,"current_range_meters":38800,"station_id":"ce4bhbp2rcd13ifvqerg","pricing_plan_id":"cebpf4jnsgd1na2vs0mg"},{"bike_id":"9e840671-2878-4845-b8fb-114afd1f4bc9","system_id":"levelo_inurba_marseille","lat":43.26688,"lon":5.38272,"is_reserved":false,"is_disabled":true,"rental_uris":{"android":"levelo://app?vid=9e840671-2878-4845-b8fb-114afd1f4bc9","ios":"levelo://app?vid=9e840671-2878-4845-b8fb-114afd1f4bc9"},"vehicle_type_id":"4","last_reported":1733901012,"current_range_meters":0,"station_id":"ce4bhg92rcd13ifvqf90","pricing_plan_id":"cebpf4jnsgd1na2vs0mg"},{"bike_id":"8e029eaf-e104-4c5d-858d-6cd39de73d09","system_id":"levelo_inurba_marseille","lat":43.24162,"lon":5.36399,"is_reserved":false,"is_disabled":false,"rental_uris":{"android":"levelo://app?vid=8e029eaf-e104-4c5d-858d-6cd39de73d09","ios":"levelo://app?vid=8e029eaf-e104-4c5d-858d-6cd39de73d09"},"vehicle_type_id":"4","last_reported":1733901012,"current_range_meters":10800,"station_id":"cpo36qri1sfpv3e86is0","pricing_plan_id":"cebpf4jnsgd1na2vs0mg"},{"bike_id":"96d2c3f1-3c2d-486a-9bde-be63e96d0730","system_id":"levelo_inurba_marseille","lat":43.26064,"lon":5.39392,"is_reserved":false,"is_disabled":false,"rental_uris":{"android":"levelo://app?vid=96d2c3f1-3c2d-486a-9bde-be63e96d0730","ios":"levelo://app?vid=96d2c3f1-3c2d-486a-9bde-be63e96d0730"},"vehicle_type_id":"4","last_reported":1733901012,"current_range_meters":30400,"station_id":"ce4bhh92rcd13ifvqfj0","pricing_plan_id":"cebpf4jnsgd1na2vs0mg"},{"bike_id":"fe358a9c-b38d-4402-949c-8e555a305d74","system_id":"levelo_inurba_marseille","lat":43.3035,"lon":5.41887,"is_reserved":false,"is_disabled":false,"rental_uris":{"android":"levelo://app?vid=fe358a9c-b38d-4402-949c-8e555a305d74","ios":"levelo://app?vid=fe358a9c-b38d-4402-949c-8e555a305d74"},"vehicle_type_id":"4","last_reported":1733901012,"current_range_meters":38800,"station_id":"ce4bhop2rcd13ifvqh7g","pricing_plan_id":"cebpf4jnsgd1na2vs0mg"},{"bike_id":"e0671578-fce1-46a5-b97e-d8531f795cd5","system_id":"levelo_inurba_marseille","lat":43.287135,"lon":5.379405,"is_reserved":false,"is_disabled":true,"rental_uris":{"android":"levelo://app?vid=e0671578-fce1-46a5-b97e-d8531f795cd5","ios":"levelo://app?vid=e0671578-fce1-46a5-b97e-d8531f795cd5"},"vehicle_type_id":"4","last_reported":1733901012,"current_range_meters":0,"station_id":"ce4bh9p2rcd13ifvqec0","pricing_plan_id":"cebpf4jnsgd1na2vs0mg"},{"bike_id":"9a8b4e4d-3853-4931-9e5a-63c2bf362103","system_id":"levelo_inurba_marseille","lat":43.30617,"lon":5.40082,"is_reserved":false,"is_disabled":false,"rental_uris":{"android":"levelo://app?vid=9a8b4e4d-3853-4931-9e5a-63c2bf362103","ios":"levelo://app?vid=9a8b4e4d-3853-4931-9e5a-63c2bf362103"},"vehicle_type_id":"4","last_reported":1733901012,"current_range_meters":9200,"station_id":"ce4bh112rcd13ifvqda0","pricing_plan_id":"cebpf4jnsgd1na2vs0mg"},{"bike_id":"014914cf-eb98-4b5d-8cd3-12a67a219c23","system_id":"levelo_inurba_marseille","lat":43.33614,"lon":5.41021,"is_reserved":false,"is_disabled":true,"rental_uris":{"android":"levelo://app?vid=014914cf-eb98-4b5d-8cd3-12a67a219c23","ios":"levelo://app?vid=014914cf-eb98-4b5d-8cd3-12a67a219c23"},"vehicle_type_id":"4","last_reported":1733901012,"current_range_meters":35200,"station_id":"ce4bhqh2rcd13ifvqhmg","pricing_plan_id":"cebpf4jnsgd1na2vs0mg"},{"bike_id":"f4d45015-cae8-4b91-8472-ef79e4ebbfa8","system_id":"levelo_inurba_marseille","lat":43.29475,"lon":5.43825,"is_reserved":false,"is_disabled":false,"rental_uris":{"android":"levelo://app?vid=f4d45015-cae8-4b91-8472-ef79e4ebbfa8","ios":"levelo://app?vid=f4d45015-cae8-4b91-8472-ef79e4ebbfa8"},"vehicle_type_id":"4","last_reported":1733901012,"current_range_meters":22800,"station_id":"","pricing_plan_id":"cebpf4jnsgd1na2vs0mg"},{"bike_id":"8a2940d8-219e-4f58-91c6-83fc88b5fbf8","system_id":"levelo_inurba_marseille","lat":43.28929,"lon":5.38398,"is_reserved":false,"is_disabled":false,"rental_uris":{"android":"levelo://app?vid=8a2940d8-219e-4f58-91c6-83fc88b5fbf8","ios":"levelo://app?vid=8a2940d8-219e-4f58-91c6-83fc88b5fbf8"},"vehicle_type_id":"4","last_reported":1733901012,"current_range_meters":20800,"station_id":"ce4bh612rcd13ifvqe6g","pricing_plan_id":"cebpf4jnsgd1na2vs0mg"},{"bike_id":"b06f5720-1871-41f5-af4e-5655148ef0a2","system_id":"levelo_inurba_marseille","lat":43.30208,"lon":5.39468,"is_reserved":false,"is_disabled":false,"rental_uris":{"android":"levelo://app?vid=b06f5720-1871-41f5-af4e-5655148ef0a2","ios":"levelo://app?vid=b06f5720-1871-41f5-af4e-5655148ef0a2"},"vehicle_type_id":"4","last_reported":1733901012,"current_range_meters":35600,"station_id":"ce4bh0p2rcd13ifvqd70","pricing_plan_id":"cebpf4jnsgd1na2vs0mg"},{"bike_id":"8bd642b2-0279-44c7-9ee2-fc3b57332c83","system_id":"levelo_inurba_marseille","lat":43.27455,"lon":5.40073,"is_reserved":false,"is_disabled":true,"rental_uris":{"android":"levelo://app?vid=8bd642b2-0279-44c7-9ee2-fc3b57332c83","ios":"levelo://app?vid=8bd642b2-0279-44c7-9ee2-fc3b57332c83"},"vehicle_type_id":"4","last_reported":1733901012,"current_range_meters":0,"station_id":"","pricing_plan_id":"cebpf4jnsgd1na2vs0mg"},{"bike_id":"59b0b34c-6f92-4349-9ebf-bf641fd76061","system_id":"levelo_inurba_marseille","lat":43.27066,"lon":5.42284,"is_reserved":false,"is_disabled":true,"rental_uris":{"android":"levelo://app?vid=59b0b34c-6f92-4349-9ebf-bf641fd76061","ios":"levelo://app?vid=59b0b34c-6f92-4349-9ebf-bf641fd76061"},"vehicle_type_id":"4","last_reported":1733901012,"current_range_meters":27200,"station_id":"ce4bhk92rcd13ifvqgb0","pricing_plan_id":"cebpf4jnsgd1na2vs0mg"},{"bike_id":"32a5a828-230e-4a9b-8634-36c1a9476ac9","system_id":"levelo_inurba_marseille","lat":43.3375,"lon":5.37448,"is_reserved":false,"is_disabled":false,"rental_uris":{"android":"levelo://app?vid=32a5a828-230e-4a9b-8634-36c1a9476ac9","ios":"levelo://app?vid=32a5a828-230e-4a9b-8634-36c1a9476ac9"},"vehicle_type_id":"4","last_reported":1733901012,"current_range_meters":8800,"station_id":"","pricing_plan_id":"cebpf4jnsgd1na2vs0mg"},{"bike_id":"c3d14c8f-cd42-4a1c-822a-f58ea77e1fc4","system_id":"levelo_inurba_marseille","lat":43.24068,"lon":5.37768,"is_reserved":false,"is_disabled":false,"rental_uris":{"android":"levelo://app?vid=c3d14c8f-cd42-4a1c-822a-f58ea77e1fc4","ios":"levelo://app?vid=c3d14c8f-cd42-4a1c-822a-f58ea77e1fc4"},"vehicle_type_id":"4","last_reported":1733901012,"current_range_meters":7200,"station_id":"ce4bhnp2rcd13ifvqgvg","pricing_plan_id":"cebpf4jnsgd1na2vs0mg"},{"bike_id":"e8652ff2-21f6-47a4-ac11-897de46d9e19","system_id":"levelo_inurba_marseille","lat":43.29041,"lon":5.35904,"is_reserved":false,"is_disabled":false,"rental_uris":{"android":"levelo://app?vid=e8652ff2-21f6-47a4-ac11-897de46d9e19","ios":"levelo://app?vid=e8652ff2-21f6-47a4-ac11-897de46d9e19"},"vehicle_type_id":"4","last_reported":1733901012,"current_range_meters":12000,"station_id":"ce4bha92rcd13ifvqeg0","pricing_plan_id":"cebpf4jnsgd1na2vs0mg"},{"bike_id":"f09914a1-032a-4233-965f-c73f49a269ba","system_id":"levelo_inurba_marseille","lat":43.337444,"lon":5.374475,"is_reserved":false,"is_disabled":true,"rental_uris":{"android":"levelo://app?vid=f09914a1-032a-4233-965f-c73f49a269ba","ios":"levelo://app?vid=f09914a1-032a-4233-965f-c73f49a269ba"},"vehicle_type_id":"4","last_reported":1733901012,"current_range_meters":0,"station_id":"","pricing_plan_id":"cebpf4jnsgd1na2vs0mg"},{"bike_id":"11e262d9-299e-44d3-8720-24ec77b2c0aa","system_id":"levelo_inurba_marseille","lat":43.26801,"lon":5.40271,"is_reserved":false,"is_disabled":false,"rental_uris":{"android":"levelo://app?vid=11e262d9-299e-44d3-8720-24ec77b2c0aa","ios":"levelo://app?vid=11e262d9-299e-44d3-8720-24ec77b2c0aa"},"vehicle_type_id":"4","last_reported":1733901012,"current_range_meters":14400,"station_id":"ce501612rcd8frsf0b60","pricing_plan_id":"cebpf4jnsgd1na2vs0mg"},{"bike_id":"4232301f-62cf-4f72-99fa-7b7e52509b87","system_id":"levelo_inurba_marseille","lat":43.337444,"lon":5.374475,"is_reserved":false,"is_disabled":true,"rental_uris":{"android":"levelo://app?vid=4232301f-62cf-4f72-99fa-7b7e52509b87","ios":"levelo://app?vid=4232301f-62cf-4f72-99fa-7b7e52509b87"},"vehicle_type_id":"4","last_reported":1733901012,"current_range_meters":30400,"station_id":"ce4bhoh2rcd13ifvqh5g","pricing_plan_id":"cebpf4jnsgd1na2vs0mg"},{"bike_id":"8ea17690-fa95-47d3-b25a-5a144648903c","system_id":"levelo_inurba_marseille","lat":43.2906,"lon":5.3849,"is_reserved":false,"is_disabled":false,"rental_uris":{"android":"levelo://app?vid=8ea17690-fa95-47d3-b25a-5a144648903c","ios":"levelo://app?vid=8ea17690-fa95-47d3-b25a-5a144648903c"},"vehicle_type_id":"4","last_reported":1733901012,"current_range_meters":8000,"station_id":"","pricing_plan_id":"cebpf4jnsgd1na2vs0mg"},{"bike_id":"f6ceca24-19af-4ed8-b20b-dad7699688ae","system_id":"levelo_inurba_marseille","lat":43.32479,"lon":5.36582,"is_reserved":false,"is_disabled":true,"rental_uris":{"android":"levelo://app?vid=f6ceca24-19af-4ed8-b20b-dad7699688ae","ios":"levelo://app?vid=f6ceca24-19af-4ed8-b20b-dad7699688ae"},"vehicle_type_id":"4","last_reported":1733901012,"current_range_meters":19200,"station_id":"ce4bhs12rcd13ifvqhvg","pricing_plan_id":"cebpf4jnsgd1na2vs0mg"},{"bike_id":"c6dfc32e-27e7-4bcc-b052-16f1beab3eaa","system_id":"levelo_inurba_marseille","lat":43.28151,"lon":5.42649,"is_reserved":false,"is_disabled":false,"rental_uris":{"android":"levelo://app?vid=c6dfc32e-27e7-4bcc-b052-16f1beab3eaa","ios":"levelo://app?vid=c6dfc32e-27e7-4bcc-b052-16f1beab3eaa"},"vehicle_type_id":"4","last_reported":1733901012,"current_range_meters":39200,"station_id":"ce4bhnh2rcd13ifvqgug","pricing_plan_id":"cebpf4jnsgd1na2vs0mg"},{"bike_id":"928b93a0-ce44-46b5-8b46-ba2d1e35deee","system_id":"levelo_inurba_marseille","lat":43.31674,"lon":5.40474,"is_reserved":false,"is_disabled":false,"rental_uris":{"android":"levelo://app?vid=928b93a0-ce44-46b5-8b46-ba2d1e35deee","ios":"levelo://app?vid=928b93a0-ce44-46b5-8b46-ba2d1e35deee"},"vehicle_type_id":"4","last_reported":1733901012,"current_range_meters":8400,"station_id":"ce4bh012rcd13ifvqd00","pricing_plan_id":"cebpf4jnsgd1na2vs0mg"},{"bike_id":"10dca9aa-e6b8-4d2d-a799-6acf59eafc4e","system_id":"levelo_inurba_marseille","lat":43.26058,"lon":5.394,"is_reserved":false,"is_disabled":false,"rental_uris":{"android":"levelo://app?vid=10dca9aa-e6b8-4d2d-a799-6acf59eafc4e","ios":"levelo://app?vid=10dca9aa-e6b8-4d2d-a799-6acf59eafc4e"},"vehicle_type_id":"4","last_reported":1733901012,"current_range_meters":22000,"station_id":"ce4bhh92rcd13ifvqfj0","pricing_plan_id":"cebpf4jnsgd1na2vs0mg"},{"bike_id":"e3e6aeb7-da70-42f0-9e7e-b814f78062a5","system_id":"levelo_inurba_marseille","lat":43.30421,"lon":5.39747,"is_reserved":false,"is_disabled":false,"rental_uris":{"android":"levelo://app?vid=e3e6aeb7-da70-42f0-9e7e-b814f78062a5","ios":"levelo://app?vid=e3e6aeb7-da70-42f0-9e7e-b814f78062a5"},"vehicle_type_id":"4","last_reported":1733901012,"current_range_meters":22800,"station_id":"ce4bh092rcd13ifvqd20","pricing_plan_id":"cebpf4jnsgd1na2vs0mg"},{"bike_id":"e7038d9b-1731-4b5b-ae3b-f2294d18825e","system_id":"levelo_inurba_marseille","lat":43.27499,"lon":5.42444,"is_reserved":false,"is_disabled":false,"rental_uris":{"android":"levelo://app?vid=e7038d9b-1731-4b5b-ae3b-f2294d18825e","ios":"levelo://app?vid=e7038d9b-1731-4b5b-ae3b-f2294d18825e"},"vehicle_type_id":"4","last_reported":1733901012,"current_range_meters":22400,"station_id":"ce4bhn92rcd13ifvqgrg","pricing_plan_id":"cebpf4jnsgd1na2vs0mg"},{"bike_id":"e7afbafc-5452-4b51-b2c4-eae945c656c1","system_id":"levelo_inurba_marseille","lat":43.28146,"lon":5.42646,"is_reserved":false,"is_disabled":false,"rental_uris":{"android":"levelo://app?vid=e7afbafc-5452-4b51-b2c4-eae945c656c1","ios":"levelo://app?vid=e7afbafc-5452-4b51-b2c4-eae945c656c1"},"vehicle_type_id":"4","last_reported":1733901012,"current_range_meters":9200,"station_id":"ce4bhnh2rcd13ifvqgug","pricing_plan_id":"cebpf4jnsgd1na2vs0mg"},{"bike_id":"041fe83d-e208-4a19-a1e2-686a06c7cb23","system_id":"levelo_inurba_marseille","lat":43.30439,"lon":5.39741,"is_reserved":false,"is_disabled":false,"rental_uris":{"android":"levelo://app?vid=041fe83d-e208-4a19-a1e2-686a06c7cb23","ios":"levelo://app?vid=041fe83d-e208-4a19-a1e2-686a06c7cb23"},"vehicle_type_id":"4","last_reported":1733901012,"current_range_meters":38800,"station_id":"ce4bh092rcd13ifvqd20","pricing_plan_id":"cebpf4jnsgd1na2vs0mg"},{"bike_id":"9798a14a-cd61-47ed-aaf1-b8c85e3fdb91","system_id":"levelo_inurba_marseille","lat":43.28939,"lon":5.36637,"is_reserved":false,"is_disabled":true,"rental_uris":{"android":"levelo://app?vid=9798a14a-cd61-47ed-aaf1-b8c85e3fdb91","ios":"levelo://app?vid=9798a14a-cd61-47ed-aaf1-b8c85e3fdb91"},"vehicle_type_id":"4","last_reported":1733901012,"current_range_meters":800,"station_id":"ce4bhap2rcd13ifvqek0","pricing_plan_id":"cebpf4jnsgd1na2vs0mg"},{"bike_id":"cb6e3d9f-445f-4215-a9a1-22bea069075f","system_id":"levelo_inurba_marseille","lat":43.298,"lon":5.38104,"is_reserved":false,"is_disabled":false,"rental_uris":{"android":"levelo://app?vid=cb6e3d9f-445f-4215-a9a1-22bea069075f","ios":"levelo://app?vid=cb6e3d9f-445f-4215-a9a1-22bea069075f"},"vehicle_type_id":"4","last_reported":1733901012,"current_range_meters":33600,"station_id":"ce4bgip2rcd13ifvqbb0","pricing_plan_id":"cebpf4jnsgd1na2vs0mg"},{"bike_id":"9a8f7d6e-f0b3-4496-add2-e9124652bb7b","system_id":"levelo_inurba_marseille","lat":43.2954,"lon":5.4228,"is_reserved":false,"is_disabled":false,"rental_uris":{"android":"levelo://app?vid=9a8f7d6e-f0b3-4496-add2-e9124652bb7b","ios":"levelo://app?vid=9a8f7d6e-f0b3-4496-add2-e9124652bb7b"},"vehicle_type_id":"4","last_reported":1733901012,"current_range_meters":22800,"station_id":"ce4bhph2rcd13ifvqhdg","pricing_plan_id":"cebpf4jnsgd1na2vs0mg"},{"bike_id":"2cb27912-7de0-4d94-93d8-1a4eecba5903","system_id":"levelo_inurba_marseille","lat":43.29934,"lon":5.36545,"is_reserved":false,"is_disabled":false,"rental_uris":{"android":"levelo://app?vid=2cb27912-7de0-4d94-93d8-1a4eecba5903","ios":"levelo://app?vid=2cb27912-7de0-4d94-93d8-1a4eecba5903"},"vehicle_type_id":"4","last_reported":1733901012,"current_range_meters":23200,"station_id":"ce4bgm92rcd13ifvqbr0","pricing_plan_id":"cebpf4jnsgd1na2vs0mg"},{"bike_id":"81898120-331f-4cba-a557-3f47bcafe09b","system_id":"levelo_inurba_marseille","lat":43.28119,"lon":5.38213,"is_reserved":false,"is_disabled":false,"rental_uris":{"android":"levelo://app?vid=81898120-331f-4cba-a557-3f47bcafe09b","ios":"levelo://app?vid=81898120-331f-4cba-a557-3f47bcafe09b"},"vehicle_type_id":"4","last_reported":1733901012,"current_range_meters":20000,"station_id":"ce4bhlp2rcd13ifvqgjg","pricing_plan_id":"cebpf4jnsgd1na2vs0mg"},{"bike_id":"70f6d5da-309a-407d-b0a2-0fc4f678efcd","system_id":"levelo_inurba_marseille","lat":43.31244,"lon":5.36851,"is_reserved":false,"is_disabled":false,"rental_uris":{"android":"levelo://app?vid=70f6d5da-309a-407d-b0a2-0fc4f678efcd","ios":"levelo://app?vid=70f6d5da-309a-407d-b0a2-0fc4f678efcd"},"vehicle_type_id":"4","last_reported":1733901012,"current_range_meters":38800,"station_id":"ce4bgl92rcd13ifvqbq0","pricing_plan_id":"cebpf4jnsgd1na2vs0mg"},{"bike_id":"f987aca6-bb76-4eac-938d-58884e675efe","system_id":"levelo_inurba_marseille","lat":43.2606,"lon":5.39401,"is_reserved":false,"is_disabled":false,"rental_uris":{"android":"levelo://app?vid=f987aca6-bb76-4eac-938d-58884e675efe","ios":"levelo://app?vid=f987aca6-bb76-4eac-938d-58884e675efe"},"vehicle_type_id":"4","last_reported":1733901012,"current_range_meters":33200,"station_id":"ce4bhh92rcd13ifvqfj0","pricing_plan_id":"cebpf4jnsgd1na2vs0mg"},{"bike_id":"d7a879f6-0e25-4ad7-a843-848b313ff6c1","system_id":"levelo_inurba_marseille","lat":43.2944,"lon":5.3973,"is_reserved":false,"is_disabled":true,"rental_uris":{"android":"levelo://app?vid=d7a879f6-0e25-4ad7-a843-848b313ff6c1","ios":"levelo://app?vid=d7a879f6-0e25-4ad7-a843-848b313ff6c1"},"vehicle_type_id":"4","last_reported":1733901012,"current_range_meters":36800,"station_id":"ce4bh3h2rcd13ifvqdo0","pricing_plan_id":"cebpf4jnsgd1na2vs0mg"},{"bike_id":"3382ae16-d77d-40d4-ade6-aa3116784e40","system_id":"levelo_inurba_marseille","lat":43.2955,"lon":5.42285,"is_reserved":false,"is_disabled":false,"rental_uris":{"android":"levelo://app?vid=3382ae16-d77d-40d4-ade6-aa3116784e40","ios":"levelo://app?vid=3382ae16-d77d-40d4-ade6-aa3116784e40"},"vehicle_type_id":"4","last_reported":1733901012,"current_range_meters":38800,"station_id":"ce4bhph2rcd13ifvqhdg","pricing_plan_id":"cebpf4jnsgd1na2vs0mg"},{"bike_id":"2f3968e7-9336-4ee4-ba78-8e92c0a818cc","system_id":"levelo_inurba_marseille","lat":43.31322,"lon":5.36647,"is_reserved":false,"is_disabled":true,"rental_uris":{"android":"levelo://app?vid=2f3968e7-9336-4ee4-ba78-8e92c0a818cc","ios":"levelo://app?vid=2f3968e7-9336-4ee4-ba78-8e92c0a818cc"},"vehicle_type_id":"4","last_reported":1733901012,"current_range_meters":0,"station_id":"","pricing_plan_id":"cebpf4jnsgd1na2vs0mg"},{"bike_id":"d82ec68c-3cfc-4fa1-9ecf-bcd16656bfcf","system_id":"levelo_inurba_marseille","lat":43.28353,"lon":5.38109,"is_reserved":false,"is_disabled":false,"rental_uris":{"android":"levelo://app?vid=d82ec68c-3cfc-4fa1-9ecf-bcd16656bfcf","ios":"levelo://app?vid=d82ec68c-3cfc-4fa1-9ecf-bcd16656bfcf"},"vehicle_type_id":"4","last_reported":1733901012,"current_range_meters":28800,"station_id":"ce4bh412rcd13ifvqdr0","pricing_plan_id":"cebpf4jnsgd1na2vs0mg"},{"bike_id":"074b05b1-8e90-4994-97ad-c0b91cacfff3","system_id":"levelo_inurba_marseille","lat":43.3254,"lon":5.41428,"is_reserved":false,"is_disabled":false,"rental_uris":{"android":"levelo://app?vid=074b05b1-8e90-4994-97ad-c0b91cacfff3","ios":"levelo://app?vid=074b05b1-8e90-4994-97ad-c0b91cacfff3"},"vehicle_type_id":"4","last_reported":1733901012,"current_range_meters":35200,"station_id":"ce4bhq12rcd13ifvqhhg","pricing_plan_id":"cebpf4jnsgd1na2vs0mg"},{"bike_id":"75791e08-5163-4396-ab56-c5d4b5cc5ecd","system_id":"levelo_inurba_marseille","lat":43.24386,"lon":5.37061,"is_reserved":false,"is_disabled":false,"rental_uris":{"android":"levelo://app?vid=75791e08-5163-4396-ab56-c5d4b5cc5ecd","ios":"levelo://app?vid=75791e08-5163-4396-ab56-c5d4b5cc5ecd"},"vehicle_type_id":"4","last_reported":1733901012,"current_range_meters":38000,"station_id":"ce4bhhh2rcd13ifvqfk0","pricing_plan_id":"cebpf4jnsgd1na2vs0mg"},{"bike_id":"215c1549-0db8-4dd1-89f9-3e1b19b2c58d","system_id":"levelo_inurba_marseille","lat":43.27993,"lon":5.40012,"is_reserved":false,"is_disabled":true,"rental_uris":{"android":"levelo://app?vid=215c1549-0db8-4dd1-89f9-3e1b19b2c58d","ios":"levelo://app?vid=215c1549-0db8-4dd1-89f9-3e1b19b2c58d"},"vehicle_type_id":"4","last_reported":1733901012,"current_range_meters":38000,"station_id":"ce4bho92rcd13ifvqh4g","pricing_plan_id":"cebpf4jnsgd1na2vs0mg"},{"bike_id":"e6436517-57cd-4745-8e37-9895c4702669","system_id":"levelo_inurba_marseille","lat":43.3046,"lon":5.37906,"is_reserved":false,"is_disabled":false,"rental_uris":{"android":"levelo://app?vid=e6436517-57cd-4745-8e37-9895c4702669","ios":"levelo://app?vid=e6436517-57cd-4745-8e37-9895c4702669"},"vehicle_type_id":"4","last_reported":1733901012,"current_range_meters":16400,"station_id":"ce4bgup2rcd13ifvqcn0","pricing_plan_id":"cebpf4jnsgd1na2vs0mg"},{"bike_id":"acb8589e-f9dd-41d6-8fb2-657c3b4ae0e2","system_id":"levelo_inurba_marseille","lat":43.2546,"lon":5.38201,"is_reserved":false,"is_disabled":false,"rental_uris":{"android":"levelo://app?vid=acb8589e-f9dd-41d6-8fb2-657c3b4ae0e2","ios":"levelo://app?vid=acb8589e-f9dd-41d6-8fb2-657c3b4ae0e2"},"vehicle_type_id":"4","last_reported":1733901012,"current_range_meters":38400,"station_id":"","pricing_plan_id":"cebpf4jnsgd1na2vs0mg"},{"bike_id":"d80a20aa-4fc8-4082-b5f6-c35e10a3de94","system_id":"levelo_inurba_marseille","lat":43.26191,"lon":5.37452,"is_reserved":false,"is_disabled":false,"rental_uris":{"android":"levelo://app?vid=d80a20aa-4fc8-4082-b5f6-c35e10a3de94","ios":"levelo://app?vid=d80a20aa-4fc8-4082-b5f6-c35e10a3de94"},"vehicle_type_id":"4","last_reported":1733901012,"current_range_meters":38800,"station_id":"ce4bhgp2rcd13ifvqfc0","pricing_plan_id":"cebpf4jnsgd1na2vs0mg"},{"bike_id":"02b35678-f4a7-4801-8ef2-5a96033c92be","system_id":"levelo_inurba_marseille","lat":43.310719,"lon":5.383443,"is_reserved":false,"is_disabled":false,"rental_uris":{"android":"levelo://app?vid=02b35678-f4a7-4801-8ef2-5a96033c92be","ios":"levelo://app?vid=02b35678-f4a7-4801-8ef2-5a96033c92be"},"vehicle_type_id":"4","last_reported":1733901012,"current_range_meters":30400,"station_id":"ce4bgv92rcd13ifvqcr0","pricing_plan_id":"cebpf4jnsgd1na2vs0mg"},{"bike_id":"9874fe8e-4bd6-4db8-87e2-446af8fac33c","system_id":"levelo_inurba_marseille","lat":43.30474,"lon":5.37905,"is_reserved":false,"is_disabled":false,"rental_uris":{"android":"levelo://app?vid=9874fe8e-4bd6-4db8-87e2-446af8fac33c","ios":"levelo://app?vid=9874fe8e-4bd6-4db8-87e2-446af8fac33c"},"vehicle_type_id":"4","last_reported":1733901012,"current_range_meters":30800,"station_id":"ce4bgup2rcd13ifvqcn0","pricing_plan_id":"cebpf4jnsgd1na2vs0mg"},{"bike_id":"1141cb23-46af-434d-b57c-7445391db869","system_id":"levelo_inurba_marseille","lat":43.30254,"lon":5.40084,"is_reserved":false,"is_disabled":false,"rental_uris":{"android":"levelo://app?vid=1141cb23-46af-434d-b57c-7445391db869","ios":"levelo://app?vid=1141cb23-46af-434d-b57c-7445391db869"},"vehicle_type_id":"4","last_reported":1733901012,"current_range_meters":24000,"station_id":"ce4bgvh2rcd13ifvqcs0","pricing_plan_id":"cebpf4jnsgd1na2vs0mg"},{"bike_id":"12add500-ea1f-403d-bb3c-de83ce61c6f3","system_id":"levelo_inurba_marseille","lat":43.28943,"lon":5.36628,"is_reserved":false,"is_disabled":true,"rental_uris":{"android":"levelo://app?vid=12add500-ea1f-403d-bb3c-de83ce61c6f3","ios":"levelo://app?vid=12add500-ea1f-403d-bb3c-de83ce61c6f3"},"vehicle_type_id":"4","last_reported":1733901012,"current_range_meters":32000,"station_id":"ce4bhap2rcd13ifvqek0","pricing_plan_id":"cebpf4jnsgd1na2vs0mg"},{"bike_id":"a4a5fbf5-043b-4b1f-9c66-73a42ca4859a","system_id":"levelo_inurba_marseille","lat":43.27493,"lon":5.42453,"is_reserved":false,"is_disabled":false,"rental_uris":{"android":"levelo://app?vid=a4a5fbf5-043b-4b1f-9c66-73a42ca4859a","ios":"levelo://app?vid=a4a5fbf5-043b-4b1f-9c66-73a42ca4859a"},"vehicle_type_id":"4","last_reported":1733901012,"current_range_meters":36000,"station_id":"ce4bhn92rcd13ifvqgrg","pricing_plan_id":"cebpf4jnsgd1na2vs0mg"},{"bike_id":"6b45a841-06ba-4981-b01f-ee44a416375e","system_id":"levelo_inurba_marseille","lat":43.29812,"lon":5.38093,"is_reserved":false,"is_disabled":false,"rental_uris":{"android":"levelo://app?vid=6b45a841-06ba-4981-b01f-ee44a416375e","ios":"levelo://app?vid=6b45a841-06ba-4981-b01f-ee44a416375e"},"vehicle_type_id":"4","last_reported":1733901012,"current_range_meters":39200,"station_id":"ce4bgip2rcd13ifvqbb0","pricing_plan_id":"cebpf4jnsgd1na2vs0mg"},{"bike_id":"606e407c-f141-4d6b-aa82-fa8791328d27","system_id":"levelo_inurba_marseille","lat":43.31881,"lon":5.40737,"is_reserved":false,"is_disabled":false,"rental_uris":{"android":"levelo://app?vid=606e407c-f141-4d6b-aa82-fa8791328d27","ios":"levelo://app?vid=606e407c-f141-4d6b-aa82-fa8791328d27"},"vehicle_type_id":"4","last_reported":1733901012,"current_range_meters":26000,"station_id":"ce4bhq12rcd13ifvqhig","pricing_plan_id":"cebpf4jnsgd1na2vs0mg"},{"bike_id":"15b20b6b-daab-4da2-a228-a8042b0ad8e7","system_id":"levelo_inurba_marseille","lat":43.28851,"lon":5.35856,"is_reserved":false,"is_disabled":false,"rental_uris":{"android":"levelo://app?vid=15b20b6b-daab-4da2-a228-a8042b0ad8e7","ios":"levelo://app?vid=15b20b6b-daab-4da2-a228-a8042b0ad8e7"},"vehicle_type_id":"4","last_reported":1733901012,"current_range_meters":38800,"station_id":"ce4bhb12rcd13ifvqem0","pricing_plan_id":"cebpf4jnsgd1na2vs0mg"},{"bike_id":"ce93eba4-a260-4242-bfd1-eb4a1083d4a6","system_id":"levelo_inurba_marseille","lat":43.27374,"lon":5.36251,"is_reserved":false,"is_disabled":false,"rental_uris":{"android":"levelo://app?vid=ce93eba4-a260-4242-bfd1-eb4a1083d4a6","ios":"levelo://app?vid=ce93eba4-a260-4242-bfd1-eb4a1083d4a6"},"vehicle_type_id":"4","last_reported":1733901012,"current_range_meters":38800,"station_id":"ce4bhbh2rcd13ifvqeo0","pricing_plan_id":"cebpf4jnsgd1na2vs0mg"},{"bike_id":"7772d601-3886-4ddf-bc2a-d375776fe6ae","system_id":"levelo_inurba_marseille","lat":43.33588,"lon":5.40967,"is_reserved":false,"is_disabled":false,"rental_uris":{"android":"levelo://app?vid=7772d601-3886-4ddf-bc2a-d375776fe6ae","ios":"levelo://app?vid=7772d601-3886-4ddf-bc2a-d375776fe6ae"},"vehicle_type_id":"4","last_reported":1733901012,"current_range_meters":31200,"station_id":"ce4bhqh2rcd13ifvqhmg","pricing_plan_id":"cebpf4jnsgd1na2vs0mg"},{"bike_id":"9734b120-c4e4-4325-a738-780027e8da66","system_id":"levelo_inurba_marseille","lat":43.28034,"lon":5.36942,"is_reserved":false,"is_disabled":false,"rental_uris":{"android":"levelo://app?vid=9734b120-c4e4-4325-a738-780027e8da66","ios":"levelo://app?vid=9734b120-c4e4-4325-a738-780027e8da66"},"vehicle_type_id":"4","last_reported":1733901012,"current_range_meters":28800,"station_id":"ce4bha12rcd13ifvqef0","pricing_plan_id":"cebpf4jnsgd1na2vs0mg"},{"bike_id":"c1af07c0-ed11-49c8-aa2e-1104638a28b7","system_id":"levelo_inurba_marseille","lat":43.230651,"lon":5.354898,"is_reserved":false,"is_disabled":false,"rental_uris":{"android":"levelo://app?vid=c1af07c0-ed11-49c8-aa2e-1104638a28b7","ios":"levelo://app?vid=c1af07c0-ed11-49c8-aa2e-1104638a28b7"},"vehicle_type_id":"4","last_reported":1733901012,"current_range_meters":15200,"station_id":"cpo3342slgdg3j2ifvpg","pricing_plan_id":"cebpf4jnsgd1na2vs0mg"},{"bike_id":"11662efe-6a94-46cf-bea5-2f4809a90b5b","system_id":"levelo_inurba_marseille","lat":43.28479,"lon":5.38558,"is_reserved":false,"is_disabled":false,"rental_uris":{"android":"levelo://app?vid=11662efe-6a94-46cf-bea5-2f4809a90b5b","ios":"levelo://app?vid=11662efe-6a94-46cf-bea5-2f4809a90b5b"},"vehicle_type_id":"4","last_reported":1733901012,"current_range_meters":38800,"station_id":"ce4bh8p2rcd13ifvqeb0","pricing_plan_id":"cebpf4jnsgd1na2vs0mg"},{"bike_id":"4a921941-011b-4e70-921e-edf40e88ce18","system_id":"levelo_inurba_marseille","lat":43.2928,"lon":5.40118,"is_reserved":false,"is_disabled":false,"rental_uris":{"android":"levelo://app?vid=4a921941-011b-4e70-921e-edf40e88ce18","ios":"levelo://app?vid=4a921941-011b-4e70-921e-edf40e88ce18"},"vehicle_type_id":"4","last_reported":1733901012,"current_range_meters":7200,"station_id":"ce4bh312rcd13ifvqdk0","pricing_plan_id":"cebpf4jnsgd1na2vs0mg"},{"bike_id":"614aec7f-ed19-41ae-8500-52b216d59f70","system_id":"levelo_inurba_marseille","lat":43.31495,"lon":5.3731,"is_reserved":false,"is_disabled":false,"rental_uris":{"android":"levelo://app?vid=614aec7f-ed19-41ae-8500-52b216d59f70","ios":"levelo://app?vid=614aec7f-ed19-41ae-8500-52b216d59f70"},"vehicle_type_id":"4","last_reported":1733901012,"current_range_meters":32800,"station_id":"ce4bgt12rcd13ifvqcd0","pricing_plan_id":"cebpf4jnsgd1na2vs0mg"},{"bike_id":"97d8bc80-d4e8-4430-9be2-b476c0005829","system_id":"levelo_inurba_marseille","lat":43.30154,"lon":5.38079,"is_reserved":false,"is_disabled":false,"rental_uris":{"android":"levelo://app?vid=97d8bc80-d4e8-4430-9be2-b476c0005829","ios":"levelo://app?vid=97d8bc80-d4e8-4430-9be2-b476c0005829"},"vehicle_type_id":"4","last_reported":1733901012,"current_range_meters":22800,"station_id":"ce4bgjp2rcd13ifvqbh0","pricing_plan_id":"cebpf4jnsgd1na2vs0mg"},{"bike_id":"6f5aafc4-06b9-4dba-b612-5d926167490b","system_id":"levelo_inurba_marseille","lat":43.32477,"lon":5.36582,"is_reserved":false,"is_disabled":true,"rental_uris":{"android":"levelo://app?vid=6f5aafc4-06b9-4dba-b612-5d926167490b","ios":"levelo://app?vid=6f5aafc4-06b9-4dba-b612-5d926167490b"},"vehicle_type_id":"4","last_reported":1733901012,"current_range_meters":0,"station_id":"ce4bhs12rcd13ifvqhvg","pricing_plan_id":"cebpf4jnsgd1na2vs0mg"},{"bike_id":"469f332e-0174-460d-bb53-1c03fa479e13","system_id":"levelo_inurba_marseille","lat":43.297521,"lon":5.364039,"is_reserved":false,"is_disabled":false,"rental_uris":{"android":"levelo://app?vid=469f332e-0174-460d-bb53-1c03fa479e13","ios":"levelo://app?vid=469f332e-0174-460d-bb53-1c03fa479e13"},"vehicle_type_id":"4","last_reported":1733901012,"current_range_meters":30000,"station_id":"ce4bgpp2rcd13ifvqc3g","pricing_plan_id":"cebpf4jnsgd1na2vs0mg"},{"bike_id":"606aa91c-1754-4379-afa1-23d40df76f80","system_id":"levelo_inurba_marseille","lat":43.30139,"lon":5.38092,"is_reserved":false,"is_disabled":false,"rental_uris":{"android":"levelo://app?vid=606aa91c-1754-4379-afa1-23d40df76f80","ios":"levelo://app?vid=606aa91c-1754-4379-afa1-23d40df76f80"},"vehicle_type_id":"4","last_reported":1733901012,"current_range_meters":36400,"station_id":"ce4bgjp2rcd13ifvqbh0","pricing_plan_id":"cebpf4jnsgd1na2vs0mg"},{"bike_id":"192c7215-c928-4138-9a2c-6c048775082a","system_id":"levelo_inurba_marseille","lat":43.25118,"lon":5.40319,"is_reserved":false,"is_disabled":true,"rental_uris":{"android":"levelo://app?vid=192c7215-c928-4138-9a2c-6c048775082a","ios":"levelo://app?vid=192c7215-c928-4138-9a2c-6c048775082a"},"vehicle_type_id":"4","last_reported":1733901012,"current_range_meters":0,"station_id":"ce4bhlh2rcd13ifvqgig","pricing_plan_id":"cebpf4jnsgd1na2vs0mg"},{"bike_id":"74ddbdc3-b082-4f44-a075-38dfc2e6b2cd","system_id":"levelo_inurba_marseille","lat":43.24165,"lon":5.36392,"is_reserved":false,"is_disabled":false,"rental_uris":{"android":"levelo://app?vid=74ddbdc3-b082-4f44-a075-38dfc2e6b2cd","ios":"levelo://app?vid=74ddbdc3-b082-4f44-a075-38dfc2e6b2cd"},"vehicle_type_id":"4","last_reported":1733901012,"current_range_meters":18000,"station_id":"cpo36qri1sfpv3e86is0","pricing_plan_id":"cebpf4jnsgd1na2vs0mg"},{"bike_id":"9bfb26c0-f0d5-4c75-9a35-21b349b99718","system_id":"levelo_inurba_marseille","lat":43.29785,"lon":5.38099,"is_reserved":false,"is_disabled":false,"rental_uris":{"android":"levelo://app?vid=9bfb26c0-f0d5-4c75-9a35-21b349b99718","ios":"levelo://app?vid=9bfb26c0-f0d5-4c75-9a35-21b349b99718"},"vehicle_type_id":"4","last_reported":1733901012,"current_range_meters":38400,"station_id":"ce4bgip2rcd13ifvqbb0","pricing_plan_id":"cebpf4jnsgd1na2vs0mg"},{"bike_id":"627751bc-d2b6-495a-97de-471267d080a6","system_id":"levelo_inurba_marseille","lat":43.30318,"lon":5.40441,"is_reserved":false,"is_disabled":true,"rental_uris":{"android":"levelo://app?vid=627751bc-d2b6-495a-97de-471267d080a6","ios":"levelo://app?vid=627751bc-d2b6-495a-97de-471267d080a6"},"vehicle_type_id":"4","last_reported":1733901012,"current_range_meters":36000,"station_id":"ce4bh012rcd13ifvqd10","pricing_plan_id":"cebpf4jnsgd1na2vs0mg"},{"bike_id":"9cd79aab-6f4c-4919-b570-803a9e8b35c5","system_id":"levelo_inurba_marseille","lat":43.30468,"lon":5.36708,"is_reserved":false,"is_disabled":true,"rental_uris":{"android":"levelo://app?vid=9cd79aab-6f4c-4919-b570-803a9e8b35c5","ios":"levelo://app?vid=9cd79aab-6f4c-4919-b570-803a9e8b35c5"},"vehicle_type_id":"4","last_reported":1733901012,"current_range_meters":19600,"station_id":"","pricing_plan_id":"cebpf4jnsgd1na2vs0mg"},{"bike_id":"13f377ca-99b2-48ff-93be-6b0ac3120bbb","system_id":"levelo_inurba_marseille","lat":43.28445,"lon":5.39186,"is_reserved":false,"is_disabled":true,"rental_uris":{"android":"levelo://app?vid=13f377ca-99b2-48ff-93be-6b0ac3120bbb","ios":"levelo://app?vid=13f377ca-99b2-48ff-93be-6b0ac3120bbb"},"vehicle_type_id":"4","last_reported":1733901012,"current_range_meters":36800,"station_id":"ce4bhoh2rcd13ifvqh5g","pricing_plan_id":"cebpf4jnsgd1na2vs0mg"},{"bike_id":"d4cf4dc8-25ec-4bf6-92cf-917fbe800064","system_id":"levelo_inurba_marseille","lat":43.26989,"lon":5.38767,"is_reserved":false,"is_disabled":false,"rental_uris":{"android":"levelo://app?vid=d4cf4dc8-25ec-4bf6-92cf-917fbe800064","ios":"levelo://app?vid=d4cf4dc8-25ec-4bf6-92cf-917fbe800064"},"vehicle_type_id":"4","last_reported":1733901012,"current_range_meters":6800,"station_id":"","pricing_plan_id":"cebpf4jnsgd1na2vs0mg"},{"bike_id":"fd164b21-2dab-4351-954f-ff56dadaa227","system_id":"levelo_inurba_marseille","lat":43.250921,"lon":5.395247,"is_reserved":false,"is_disabled":true,"rental_uris":{"android":"levelo://app?vid=fd164b21-2dab-4351-954f-ff56dadaa227","ios":"levelo://app?vid=fd164b21-2dab-4351-954f-ff56dadaa227"},"vehicle_type_id":"4","last_reported":1733901012,"current_range_meters":12400,"station_id":"","pricing_plan_id":"cebpf4jnsgd1na2vs0mg"},{"bike_id":"0a86412b-3a39-4b34-9a79-636798b215ce","system_id":"levelo_inurba_marseille","lat":43.30825,"lon":5.3818,"is_reserved":false,"is_disabled":false,"rental_uris":{"android":"levelo://app?vid=0a86412b-3a39-4b34-9a79-636798b215ce","ios":"levelo://app?vid=0a86412b-3a39-4b34-9a79-636798b215ce"},"vehicle_type_id":"4","last_reported":1733901012,"current_range_meters":38800,"station_id":"ce4bgt12rcd13ifvqce0","pricing_plan_id":"cebpf4jnsgd1na2vs0mg"},{"bike_id":"543ffcfa-aa63-4350-88ea-e89f19556564","system_id":"levelo_inurba_marseille","lat":43.27175,"lon":5.40986,"is_reserved":false,"is_disabled":false,"rental_uris":{"android":"levelo://app?vid=543ffcfa-aa63-4350-88ea-e89f19556564","ios":"levelo://app?vid=543ffcfa-aa63-4350-88ea-e89f19556564"},"vehicle_type_id":"4","last_reported":1733901012,"current_range_meters":35600,"station_id":"ce4bhl12rcd13ifvqgf0","pricing_plan_id":"cebpf4jnsgd1na2vs0mg"},{"bike_id":"b06e932e-056e-43fd-a10a-865d43894420","system_id":"levelo_inurba_marseille","lat":43.29635,"lon":5.40599,"is_reserved":false,"is_disabled":false,"rental_uris":{"android":"levelo://app?vid=b06e932e-056e-43fd-a10a-865d43894420","ios":"levelo://app?vid=b06e932e-056e-43fd-a10a-865d43894420"},"vehicle_type_id":"4","last_reported":1733901012,"current_range_meters":27200,"station_id":"ce4bh0h2rcd13ifvqd60","pricing_plan_id":"cebpf4jnsgd1na2vs0mg"},{"bike_id":"11e86528-eb6b-4391-86a5-9b1822d069a4","system_id":"levelo_inurba_marseille","lat":43.278805,"lon":5.388003,"is_reserved":false,"is_disabled":true,"rental_uris":{"android":"levelo://app?vid=11e86528-eb6b-4391-86a5-9b1822d069a4","ios":"levelo://app?vid=11e86528-eb6b-4391-86a5-9b1822d069a4"},"vehicle_type_id":"4","last_reported":1733901012,"current_range_meters":0,"station_id":"","pricing_plan_id":"cebpf4jnsgd1na2vs0mg"},{"bike_id":"6cc6805f-c0ca-4585-bdf1-b5a0339762b0","system_id":"levelo_inurba_marseille","lat":43.29027,"lon":5.42744,"is_reserved":false,"is_disabled":true,"rental_uris":{"android":"levelo://app?vid=6cc6805f-c0ca-4585-bdf1-b5a0339762b0","ios":"levelo://app?vid=6cc6805f-c0ca-4585-bdf1-b5a0339762b0"},"vehicle_type_id":"4","last_reported":1733901012,"current_range_meters":0,"station_id":"","pricing_plan_id":"cebpf4jnsgd1na2vs0mg"},{"bike_id":"080c9623-7190-4a88-b14f-4d131f18aefc","system_id":"levelo_inurba_marseille","lat":43.294417,"lon":5.397646,"is_reserved":false,"is_disabled":true,"rental_uris":{"android":"levelo://app?vid=080c9623-7190-4a88-b14f-4d131f18aefc","ios":"levelo://app?vid=080c9623-7190-4a88-b14f-4d131f18aefc"},"vehicle_type_id":"4","last_reported":1733901012,"current_range_meters":3200,"station_id":"ce4bh3h2rcd13ifvqdo0","pricing_plan_id":"cebpf4jnsgd1na2vs0mg"},{"bike_id":"bce9f1ce-566b-425b-8d75-968160236b89","system_id":"levelo_inurba_marseille","lat":43.30251,"lon":5.40058,"is_reserved":false,"is_disabled":false,"rental_uris":{"android":"levelo://app?vid=bce9f1ce-566b-425b-8d75-968160236b89","ios":"levelo://app?vid=bce9f1ce-566b-425b-8d75-968160236b89"},"vehicle_type_id":"4","last_reported":1733901012,"current_range_meters":31200,"station_id":"ce4bgvh2rcd13ifvqcs0","pricing_plan_id":"cebpf4jnsgd1na2vs0mg"},{"bike_id":"9f03dca4-237a-49dc-8f4b-3b6a07909c99","system_id":"levelo_inurba_marseille","lat":43.23186,"lon":5.35562,"is_reserved":false,"is_disabled":false,"rental_uris":{"android":"levelo://app?vid=9f03dca4-237a-49dc-8f4b-3b6a07909c99","ios":"levelo://app?vid=9f03dca4-237a-49dc-8f4b-3b6a07909c99"},"vehicle_type_id":"4","last_reported":1733901012,"current_range_meters":35200,"station_id":"ce4bhu92rcd13ifvqi70","pricing_plan_id":"cebpf4jnsgd1na2vs0mg"},{"bike_id":"d0e9b0d9-b932-4d84-83c8-f81795e05f31","system_id":"levelo_inurba_marseille","lat":43.28481,"lon":5.38431,"is_reserved":false,"is_disabled":true,"rental_uris":{"android":"levelo://app?vid=d0e9b0d9-b932-4d84-83c8-f81795e05f31","ios":"levelo://app?vid=d0e9b0d9-b932-4d84-83c8-f81795e05f31"},"vehicle_type_id":"4","last_reported":1733901012,"current_range_meters":0,"station_id":"ce4bh512rcd13ifvqe3g","pricing_plan_id":"cebpf4jnsgd1na2vs0mg"},{"bike_id":"76d570ac-811c-4569-9f94-a86e9674023b","system_id":"levelo_inurba_marseille","lat":43.29729,"lon":5.37695,"is_reserved":false,"is_disabled":false,"rental_uris":{"android":"levelo://app?vid=76d570ac-811c-4569-9f94-a86e9674023b","ios":"levelo://app?vid=76d570ac-811c-4569-9f94-a86e9674023b"},"vehicle_type_id":"4","last_reported":1733901012,"current_range_meters":38800,"station_id":"ce4bgkh2rcd13ifvqbl0","pricing_plan_id":"cebpf4jnsgd1na2vs0mg"},{"bike_id":"464f1053-e554-4a19-8371-dd5b50bd2fe8","system_id":"levelo_inurba_marseille","lat":43.24072,"lon":5.37764,"is_reserved":false,"is_disabled":false,"rental_uris":{"android":"levelo://app?vid=464f1053-e554-4a19-8371-dd5b50bd2fe8","ios":"levelo://app?vid=464f1053-e554-4a19-8371-dd5b50bd2fe8"},"vehicle_type_id":"4","last_reported":1733901012,"current_range_meters":24400,"station_id":"ce4bhnp2rcd13ifvqgvg","pricing_plan_id":"cebpf4jnsgd1na2vs0mg"},{"bike_id":"2476a7c9-6eb7-4448-94c9-83a28c8228fa","system_id":"levelo_inurba_marseille","lat":43.29029,"lon":5.39971,"is_reserved":false,"is_disabled":false,"rental_uris":{"android":"levelo://app?vid=2476a7c9-6eb7-4448-94c9-83a28c8228fa","ios":"levelo://app?vid=2476a7c9-6eb7-4448-94c9-83a28c8228fa"},"vehicle_type_id":"4","last_reported":1733901012,"current_range_meters":24000,"station_id":"ce4bh392rcd13ifvqdm0","pricing_plan_id":"cebpf4jnsgd1na2vs0mg"},{"bike_id":"006fec22-e115-48a1-8049-5c1cf4dff5f0","system_id":"levelo_inurba_marseille","lat":43.29598,"lon":5.37749,"is_reserved":false,"is_disabled":false,"rental_uris":{"android":"levelo://app?vid=006fec22-e115-48a1-8049-5c1cf4dff5f0","ios":"levelo://app?vid=006fec22-e115-48a1-8049-5c1cf4dff5f0"},"vehicle_type_id":"4","last_reported":1733901012,"current_range_meters":38000,"station_id":"ce4bgi92rcd13ifvqb90","pricing_plan_id":"cebpf4jnsgd1na2vs0mg"},{"bike_id":"a35d4fb9-0e21-4c09-94e2-54c06f1086ec","system_id":"levelo_inurba_marseille","lat":43.23154,"lon":5.43721,"is_reserved":false,"is_disabled":false,"rental_uris":{"android":"levelo://app?vid=a35d4fb9-0e21-4c09-94e2-54c06f1086ec","ios":"levelo://app?vid=a35d4fb9-0e21-4c09-94e2-54c06f1086ec"},"vehicle_type_id":"4","last_reported":1733901012,"current_range_meters":11600,"station_id":"ce4bhmp2rcd13ifvqgog","pricing_plan_id":"cebpf4jnsgd1na2vs0mg"},{"bike_id":"e79bdd28-a354-4eb0-9de6-d6649ca314db","system_id":"levelo_inurba_marseille","lat":43.30532,"lon":5.3886,"is_reserved":false,"is_disabled":false,"rental_uris":{"android":"levelo://app?vid=e79bdd28-a354-4eb0-9de6-d6649ca314db","ios":"levelo://app?vid=e79bdd28-a354-4eb0-9de6-d6649ca314db"},"vehicle_type_id":"4","last_reported":1733901012,"current_range_meters":17600,"station_id":"","pricing_plan_id":"cebpf4jnsgd1na2vs0mg"},{"bike_id":"1acf4526-f5fb-4a4e-90fc-6c6225b3d08b","system_id":"levelo_inurba_marseille","lat":43.304618,"lon":5.378994,"is_reserved":false,"is_disabled":false,"rental_uris":{"android":"levelo://app?vid=1acf4526-f5fb-4a4e-90fc-6c6225b3d08b","ios":"levelo://app?vid=1acf4526-f5fb-4a4e-90fc-6c6225b3d08b"},"vehicle_type_id":"4","last_reported":1733901012,"current_range_meters":38800,"station_id":"ce4bgup2rcd13ifvqcn0","pricing_plan_id":"cebpf4jnsgd1na2vs0mg"},{"bike_id":"39040f92-0a83-4f49-970b-f53910b1933c","system_id":"levelo_inurba_marseille","lat":43.30456,"lon":5.37906,"is_reserved":false,"is_disabled":false,"rental_uris":{"android":"levelo://app?vid=39040f92-0a83-4f49-970b-f53910b1933c","ios":"levelo://app?vid=39040f92-0a83-4f49-970b-f53910b1933c"},"vehicle_type_id":"4","last_reported":1733901012,"current_range_meters":34000,"station_id":"ce4bgup2rcd13ifvqcn0","pricing_plan_id":"cebpf4jnsgd1na2vs0mg"},{"bike_id":"de665d27-4f2c-4449-a982-1b6a26695aad","system_id":"levelo_inurba_marseille","lat":43.3054,"lon":5.3655,"is_reserved":false,"is_disabled":false,"rental_uris":{"android":"levelo://app?vid=de665d27-4f2c-4449-a982-1b6a26695aad","ios":"levelo://app?vid=de665d27-4f2c-4449-a982-1b6a26695aad"},"vehicle_type_id":"4","last_reported":1733901012,"current_range_meters":24000,"station_id":"ce4bgs12rcd13ifvqcag","pricing_plan_id":"cebpf4jnsgd1na2vs0mg"},{"bike_id":"24f4f9aa-1bf8-493c-a155-b82014176d33","system_id":"levelo_inurba_marseille","lat":43.29579,"lon":5.37496,"is_reserved":false,"is_disabled":true,"rental_uris":{"android":"levelo://app?vid=24f4f9aa-1bf8-493c-a155-b82014176d33","ios":"levelo://app?vid=24f4f9aa-1bf8-493c-a155-b82014176d33"},"vehicle_type_id":"4","last_reported":1733901012,"current_range_meters":34000,"station_id":"ce4bgh92rcd13ifvqb50","pricing_plan_id":"cebpf4jnsgd1na2vs0mg"},{"bike_id":"456e29fb-8ffe-41e4-8691-3b515a402a42","system_id":"levelo_inurba_marseille","lat":43.28936,"lon":5.36413,"is_reserved":false,"is_disabled":false,"rental_uris":{"android":"levelo://app?vid=456e29fb-8ffe-41e4-8691-3b515a402a42","ios":"levelo://app?vid=456e29fb-8ffe-41e4-8691-3b515a402a42"},"vehicle_type_id":"4","last_reported":1733901012,"current_range_meters":36800,"station_id":"ce4bhc92rcd13ifvqetg","pricing_plan_id":"cebpf4jnsgd1na2vs0mg"},{"bike_id":"f21aceb6-8557-4188-bea9-5551eae09e00","system_id":"levelo_inurba_marseille","lat":43.27685,"lon":5.38885,"is_reserved":false,"is_disabled":false,"rental_uris":{"android":"levelo://app?vid=f21aceb6-8557-4188-bea9-5551eae09e00","ios":"levelo://app?vid=f21aceb6-8557-4188-bea9-5551eae09e00"},"vehicle_type_id":"4","last_reported":1733901012,"current_range_meters":38800,"station_id":"ce4bhi12rcd13ifvqfo0","pricing_plan_id":"cebpf4jnsgd1na2vs0mg"},{"bike_id":"b0a46ba0-c8bc-4621-808f-2274c3b3257e","system_id":"levelo_inurba_marseille","lat":43.32239,"lon":5.38343,"is_reserved":false,"is_disabled":false,"rental_uris":{"android":"levelo://app?vid=b0a46ba0-c8bc-4621-808f-2274c3b3257e","ios":"levelo://app?vid=b0a46ba0-c8bc-4621-808f-2274c3b3257e"},"vehicle_type_id":"4","last_reported":1733901012,"current_range_meters":38800,"station_id":"","pricing_plan_id":"cebpf4jnsgd1na2vs0mg"},{"bike_id":"72369e3c-7a31-4199-a732-76fa73093ac4","system_id":"levelo_inurba_marseille","lat":43.31356,"lon":5.36676,"is_reserved":false,"is_disabled":true,"rental_uris":{"android":"levelo://app?vid=72369e3c-7a31-4199-a732-76fa73093ac4","ios":"levelo://app?vid=72369e3c-7a31-4199-a732-76fa73093ac4"},"vehicle_type_id":"4","last_reported":1733901012,"current_range_meters":19600,"station_id":"ce4bgr92rcd13ifvqc6g","pricing_plan_id":"cebpf4jnsgd1na2vs0mg"},{"bike_id":"4430436c-1786-4504-9077-681f2851b95d","system_id":"levelo_inurba_marseille","lat":43.33026,"lon":5.39043,"is_reserved":false,"is_disabled":false,"rental_uris":{"android":"levelo://app?vid=4430436c-1786-4504-9077-681f2851b95d","ios":"levelo://app?vid=4430436c-1786-4504-9077-681f2851b95d"},"vehicle_type_id":"4","last_reported":1733901012,"current_range_meters":38800,"station_id":"ce4bhr92rcd13ifvqhrg","pricing_plan_id":"cebpf4jnsgd1na2vs0mg"},{"bike_id":"62b6d2ff-05e8-4a3a-a621-91498b887f12","system_id":"levelo_inurba_marseille","lat":43.29287,"lon":5.40127,"is_reserved":false,"is_disabled":false,"rental_uris":{"android":"levelo://app?vid=62b6d2ff-05e8-4a3a-a621-91498b887f12","ios":"levelo://app?vid=62b6d2ff-05e8-4a3a-a621-91498b887f12"},"vehicle_type_id":"4","last_reported":1733901012,"current_range_meters":33600,"station_id":"ce4bh312rcd13ifvqdk0","pricing_plan_id":"cebpf4jnsgd1na2vs0mg"},{"bike_id":"fdf14e0a-fc6a-40d5-addd-21a77a41b672","system_id":"levelo_inurba_marseille","lat":43.292065,"lon":5.369059,"is_reserved":false,"is_disabled":true,"rental_uris":{"android":"levelo://app?vid=fdf14e0a-fc6a-40d5-addd-21a77a41b672","ios":"levelo://app?vid=fdf14e0a-fc6a-40d5-addd-21a77a41b672"},"vehicle_type_id":"4","last_reported":1733901012,"current_range_meters":800,"station_id":"","pricing_plan_id":"cebpf4jnsgd1na2vs0mg"},{"bike_id":"1a0232f1-4b5f-4330-917e-477389b86a21","system_id":"levelo_inurba_marseille","lat":43.28569,"lon":5.39497,"is_reserved":false,"is_disabled":false,"rental_uris":{"android":"levelo://app?vid=1a0232f1-4b5f-4330-917e-477389b86a21","ios":"levelo://app?vid=1a0232f1-4b5f-4330-917e-477389b86a21"},"vehicle_type_id":"4","last_reported":1733901012,"current_range_meters":38800,"station_id":"ce4bh292rcd13ifvqdg0","pricing_plan_id":"cebpf4jnsgd1na2vs0mg"},{"bike_id":"da080ada-7863-4034-be9c-a7b95700c525","system_id":"levelo_inurba_marseille","lat":43.30179,"lon":5.38068,"is_reserved":false,"is_disabled":false,"rental_uris":{"android":"levelo://app?vid=da080ada-7863-4034-be9c-a7b95700c525","ios":"levelo://app?vid=da080ada-7863-4034-be9c-a7b95700c525"},"vehicle_type_id":"4","last_reported":1733901012,"current_range_meters":14000,"station_id":"ce4bgjp2rcd13ifvqbh0","pricing_plan_id":"cebpf4jnsgd1na2vs0mg"},{"bike_id":"59153d0c-6274-4eee-b5fc-268727e71351","system_id":"levelo_inurba_marseille","lat":43.29592,"lon":5.3813,"is_reserved":false,"is_disabled":false,"rental_uris":{"android":"levelo://app?vid=59153d0c-6274-4eee-b5fc-268727e71351","ios":"levelo://app?vid=59153d0c-6274-4eee-b5fc-268727e71351"},"vehicle_type_id":"4","last_reported":1733901012,"current_range_meters":38400,"station_id":"ce4bgl12rcd13ifvqbo0","pricing_plan_id":"cebpf4jnsgd1na2vs0mg"},{"bike_id":"9fc9403f-c596-40e7-a6f6-6d0e14d43595","system_id":"levelo_inurba_marseille","lat":43.3046,"lon":5.37906,"is_reserved":false,"is_disabled":false,"rental_uris":{"android":"levelo://app?vid=9fc9403f-c596-40e7-a6f6-6d0e14d43595","ios":"levelo://app?vid=9fc9403f-c596-40e7-a6f6-6d0e14d43595"},"vehicle_type_id":"4","last_reported":1733901012,"current_range_meters":22000,"station_id":"ce4bgup2rcd13ifvqcn0","pricing_plan_id":"cebpf4jnsgd1na2vs0mg"},{"bike_id":"896d4ccf-3d83-4122-b2f2-1a77a517b0e7","system_id":"levelo_inurba_marseille","lat":43.23954,"lon":5.36641,"is_reserved":false,"is_disabled":false,"rental_uris":{"android":"levelo://app?vid=896d4ccf-3d83-4122-b2f2-1a77a517b0e7","ios":"levelo://app?vid=896d4ccf-3d83-4122-b2f2-1a77a517b0e7"},"vehicle_type_id":"4","last_reported":1733901012,"current_range_meters":38800,"station_id":"ce4bhi12rcd13ifvqfp0","pricing_plan_id":"cebpf4jnsgd1na2vs0mg"},{"bike_id":"5ab05328-df2c-4301-8359-efac20f401a3","system_id":"levelo_inurba_marseille","lat":43.29368,"lon":5.37873,"is_reserved":false,"is_disabled":true,"rental_uris":{"android":"levelo://app?vid=5ab05328-df2c-4301-8359-efac20f401a3","ios":"levelo://app?vid=5ab05328-df2c-4301-8359-efac20f401a3"},"vehicle_type_id":"4","last_reported":1733901012,"current_range_meters":27600,"station_id":"ce4bgjh2rcd13ifvqbf0","pricing_plan_id":"cebpf4jnsgd1na2vs0mg"},{"bike_id":"a965ebf8-b3ca-41c3-b80d-0cb2e6e8e71c","system_id":"levelo_inurba_marseille","lat":43.29581,"lon":5.36738,"is_reserved":false,"is_disabled":false,"rental_uris":{"android":"levelo://app?vid=a965ebf8-b3ca-41c3-b80d-0cb2e6e8e71c","ios":"levelo://app?vid=a965ebf8-b3ca-41c3-b80d-0cb2e6e8e71c"},"vehicle_type_id":"4","last_reported":1733901012,"current_range_meters":36400,"station_id":"ce4bgph2rcd13ifvqc2g","pricing_plan_id":"cebpf4jnsgd1na2vs0mg"},{"bike_id":"5af4cbfe-ebf7-47cf-b667-21ffe2cc2cfb","system_id":"levelo_inurba_marseille","lat":43.31332,"lon":5.36719,"is_reserved":false,"is_disabled":false,"rental_uris":{"android":"levelo://app?vid=5af4cbfe-ebf7-47cf-b667-21ffe2cc2cfb","ios":"levelo://app?vid=5af4cbfe-ebf7-47cf-b667-21ffe2cc2cfb"},"vehicle_type_id":"4","last_reported":1733901012,"current_range_meters":28000,"station_id":"ce4bgr92rcd13ifvqc6g","pricing_plan_id":"cebpf4jnsgd1na2vs0mg"},{"bike_id":"da06a13f-e4bd-4583-aaab-aaaf35e97670","system_id":"levelo_inurba_marseille","lat":43.24637,"lon":5.38913,"is_reserved":false,"is_disabled":false,"rental_uris":{"android":"levelo://app?vid=da06a13f-e4bd-4583-aaab-aaaf35e97670","ios":"levelo://app?vid=da06a13f-e4bd-4583-aaab-aaaf35e97670"},"vehicle_type_id":"4","last_reported":1733901012,"current_range_meters":38400,"station_id":"ce4bhg12rcd13ifvqf60","pricing_plan_id":"cebpf4jnsgd1na2vs0mg"},{"bike_id":"400d74d0-790b-4333-81d2-629b59f271e4","system_id":"levelo_inurba_marseille","lat":43.30273,"lon":5.37704,"is_reserved":false,"is_disabled":false,"rental_uris":{"android":"levelo://app?vid=400d74d0-790b-4333-81d2-629b59f271e4","ios":"levelo://app?vid=400d74d0-790b-4333-81d2-629b59f271e4"},"vehicle_type_id":"4","last_reported":1733901012,"current_range_meters":21600,"station_id":"ce4bguh2rcd13ifvqcj0","pricing_plan_id":"cebpf4jnsgd1na2vs0mg"},{"bike_id":"b3c5591b-5ccb-49b1-8351-3506fdb656c0","system_id":"levelo_inurba_marseille","lat":43.32285,"lon":5.38281,"is_reserved":false,"is_disabled":false,"rental_uris":{"android":"levelo://app?vid=b3c5591b-5ccb-49b1-8351-3506fdb656c0","ios":"levelo://app?vid=b3c5591b-5ccb-49b1-8351-3506fdb656c0"},"vehicle_type_id":"4","last_reported":1733901012,"current_range_meters":38800,"station_id":"ce4bhr12rcd13ifvqhqg","pricing_plan_id":"cebpf4jnsgd1na2vs0mg"},{"bike_id":"ebef9822-abf2-4c56-b343-3ca4bdb252f0","system_id":"levelo_inurba_marseille","lat":43.2603,"lon":5.37554,"is_reserved":false,"is_disabled":false,"rental_uris":{"android":"levelo://app?vid=ebef9822-abf2-4c56-b343-3ca4bdb252f0","ios":"levelo://app?vid=ebef9822-abf2-4c56-b343-3ca4bdb252f0"},"vehicle_type_id":"4","last_reported":1733901012,"current_range_meters":38800,"station_id":"ce4bhgh2rcd13ifvqfa0","pricing_plan_id":"cebpf4jnsgd1na2vs0mg"},{"bike_id":"33e48884-4b3d-4e17-8bfe-d8ab60a0c6ef","system_id":"levelo_inurba_marseille","lat":43.26071,"lon":5.39391,"is_reserved":false,"is_disabled":true,"rental_uris":{"android":"levelo://app?vid=33e48884-4b3d-4e17-8bfe-d8ab60a0c6ef","ios":"levelo://app?vid=33e48884-4b3d-4e17-8bfe-d8ab60a0c6ef"},"vehicle_type_id":"4","last_reported":1733901012,"current_range_meters":36400,"station_id":"ce4bhh92rcd13ifvqfj0","pricing_plan_id":"cebpf4jnsgd1na2vs0mg"},{"bike_id":"8a541c78-58b4-45d9-94a7-3d8383bc9bce","system_id":"levelo_inurba_marseille","lat":43.29417,"lon":5.38611,"is_reserved":false,"is_disabled":true,"rental_uris":{"android":"levelo://app?vid=8a541c78-58b4-45d9-94a7-3d8383bc9bce","ios":"levelo://app?vid=8a541c78-58b4-45d9-94a7-3d8383bc9bce"},"vehicle_type_id":"4","last_reported":1733901012,"current_range_meters":12000,"station_id":"ce4bh2h2rcd13ifvqdh0","pricing_plan_id":"cebpf4jnsgd1na2vs0mg"},{"bike_id":"7470ff03-7d0d-4af1-8e51-0205d461f8ae","system_id":"levelo_inurba_marseille","lat":43.31484,"lon":5.37312,"is_reserved":false,"is_disabled":false,"rental_uris":{"android":"levelo://app?vid=7470ff03-7d0d-4af1-8e51-0205d461f8ae","ios":"levelo://app?vid=7470ff03-7d0d-4af1-8e51-0205d461f8ae"},"vehicle_type_id":"4","last_reported":1733901012,"current_range_meters":32800,"station_id":"ce4bgn92rcd13ifvqbvg","pricing_plan_id":"cebpf4jnsgd1na2vs0mg"},{"bike_id":"86ba1477-d66b-45ae-970d-b9ca4cc82061","system_id":"levelo_inurba_marseille","lat":43.30466,"lon":5.3791,"is_reserved":false,"is_disabled":false,"rental_uris":{"android":"levelo://app?vid=86ba1477-d66b-45ae-970d-b9ca4cc82061","ios":"levelo://app?vid=86ba1477-d66b-45ae-970d-b9ca4cc82061"},"vehicle_type_id":"4","last_reported":1733901012,"current_range_meters":39200,"station_id":"ce4bgup2rcd13ifvqcn0","pricing_plan_id":"cebpf4jnsgd1na2vs0mg"},{"bike_id":"1876cecd-63c5-4cd3-a2fa-afd5eab72093","system_id":"levelo_inurba_marseille","lat":43.30589,"lon":5.39362,"is_reserved":false,"is_disabled":false,"rental_uris":{"android":"levelo://app?vid=1876cecd-63c5-4cd3-a2fa-afd5eab72093","ios":"levelo://app?vid=1876cecd-63c5-4cd3-a2fa-afd5eab72093"},"vehicle_type_id":"4","last_reported":1733901012,"current_range_meters":28800,"station_id":"ce4bh0p2rcd13ifvqd80","pricing_plan_id":"cebpf4jnsgd1na2vs0mg"},{"bike_id":"b02c24ef-aac5-4dc7-94c4-ee928b33d372","system_id":"levelo_inurba_marseille","lat":43.26019,"lon":5.3755,"is_reserved":false,"is_disabled":false,"rental_uris":{"android":"levelo://app?vid=b02c24ef-aac5-4dc7-94c4-ee928b33d372","ios":"levelo://app?vid=b02c24ef-aac5-4dc7-94c4-ee928b33d372"},"vehicle_type_id":"4","last_reported":1733901012,"current_range_meters":26000,"station_id":"ce4bhgh2rcd13ifvqfa0","pricing_plan_id":"cebpf4jnsgd1na2vs0mg"},{"bike_id":"f1e1b83c-6b4c-4d52-9b3f-becfd8274a79","system_id":"levelo_inurba_marseille","lat":43.24989,"lon":5.38935,"is_reserved":false,"is_disabled":false,"rental_uris":{"android":"levelo://app?vid=f1e1b83c-6b4c-4d52-9b3f-becfd8274a79","ios":"levelo://app?vid=f1e1b83c-6b4c-4d52-9b3f-becfd8274a79"},"vehicle_type_id":"4","last_reported":1733901012,"current_range_meters":36400,"station_id":"ce4bhgp2rcd13ifvqfd0","pricing_plan_id":"cebpf4jnsgd1na2vs0mg"},{"bike_id":"6105adaa-0b08-4dbf-8f0b-941d5ed08a62","system_id":"levelo_inurba_marseille","lat":43.30485,"lon":5.37986,"is_reserved":false,"is_disabled":false,"rental_uris":{"android":"levelo://app?vid=6105adaa-0b08-4dbf-8f0b-941d5ed08a62","ios":"levelo://app?vid=6105adaa-0b08-4dbf-8f0b-941d5ed08a62"},"vehicle_type_id":"4","last_reported":1733901012,"current_range_meters":9600,"station_id":"ce4bguh2rcd13ifvqckg","pricing_plan_id":"cebpf4jnsgd1na2vs0mg"},{"bike_id":"372b9f49-2964-4fce-8390-834990e5f7e8","system_id":"levelo_inurba_marseille","lat":43.24068,"lon":5.37729,"is_reserved":false,"is_disabled":false,"rental_uris":{"android":"levelo://app?vid=372b9f49-2964-4fce-8390-834990e5f7e8","ios":"levelo://app?vid=372b9f49-2964-4fce-8390-834990e5f7e8"},"vehicle_type_id":"4","last_reported":1733901012,"current_range_meters":35200,"station_id":"ce4bhnp2rcd13ifvqgvg","pricing_plan_id":"cebpf4jnsgd1na2vs0mg"},{"bike_id":"db92035c-5e59-4238-b7d2-e8825d0eb742","system_id":"levelo_inurba_marseille","lat":43.28715,"lon":5.37939,"is_reserved":false,"is_disabled":true,"rental_uris":{"android":"levelo://app?vid=db92035c-5e59-4238-b7d2-e8825d0eb742","ios":"levelo://app?vid=db92035c-5e59-4238-b7d2-e8825d0eb742"},"vehicle_type_id":"4","last_reported":1733901012,"current_range_meters":2000,"station_id":"ce4bh9p2rcd13ifvqec0","pricing_plan_id":"cebpf4jnsgd1na2vs0mg"},{"bike_id":"e776819f-d0c2-4e90-8b6a-72fc3d50c85e","system_id":"levelo_inurba_marseille","lat":43.27068,"lon":5.4228,"is_reserved":false,"is_disabled":false,"rental_uris":{"android":"levelo://app?vid=e776819f-d0c2-4e90-8b6a-72fc3d50c85e","ios":"levelo://app?vid=e776819f-d0c2-4e90-8b6a-72fc3d50c85e"},"vehicle_type_id":"4","last_reported":1733901012,"current_range_meters":38400,"station_id":"ce4bhk92rcd13ifvqgb0","pricing_plan_id":"cebpf4jnsgd1na2vs0mg"},{"bike_id":"a0a21e6c-5f89-4d49-af6e-72066a94e09b","system_id":"levelo_inurba_marseille","lat":43.27942,"lon":5.41045,"is_reserved":false,"is_disabled":false,"rental_uris":{"android":"levelo://app?vid=a0a21e6c-5f89-4d49-af6e-72066a94e09b","ios":"levelo://app?vid=a0a21e6c-5f89-4d49-af6e-72066a94e09b"},"vehicle_type_id":"4","last_reported":1733901012,"current_range_meters":13600,"station_id":"ce4bhnp2rcd13ifvqh0g","pricing_plan_id":"cebpf4jnsgd1na2vs0mg"},{"bike_id":"61679345-8444-4457-ad9d-521d603c4d88","system_id":"levelo_inurba_marseille","lat":43.29605,"lon":5.38114,"is_reserved":false,"is_disabled":false,"rental_uris":{"android":"levelo://app?vid=61679345-8444-4457-ad9d-521d603c4d88","ios":"levelo://app?vid=61679345-8444-4457-ad9d-521d603c4d88"},"vehicle_type_id":"4","last_reported":1733901012,"current_range_meters":34000,"station_id":"ce4bgl12rcd13ifvqbo0","pricing_plan_id":"cebpf4jnsgd1na2vs0mg"},{"bike_id":"8183d8e7-3c4b-4ed6-83fa-10d192b7d8bd","system_id":"levelo_inurba_marseille","lat":43.2754,"lon":5.40925,"is_reserved":false,"is_disabled":false,"rental_uris":{"android":"levelo://app?vid=8183d8e7-3c4b-4ed6-83fa-10d192b7d8bd","ios":"levelo://app?vid=8183d8e7-3c4b-4ed6-83fa-10d192b7d8bd"},"vehicle_type_id":"4","last_reported":1733901012,"current_range_meters":2800,"station_id":"","pricing_plan_id":"cebpf4jnsgd1na2vs0mg"},{"bike_id":"cf4ae858-b853-433d-ab64-a4164f79cfb6","system_id":"levelo_inurba_marseille","lat":43.29594,"lon":5.38106,"is_reserved":false,"is_disabled":false,"rental_uris":{"android":"levelo://app?vid=cf4ae858-b853-433d-ab64-a4164f79cfb6","ios":"levelo://app?vid=cf4ae858-b853-433d-ab64-a4164f79cfb6"},"vehicle_type_id":"4","last_reported":1733901012,"current_range_meters":26000,"station_id":"ce4bgl12rcd13ifvqbo0","pricing_plan_id":"cebpf4jnsgd1na2vs0mg"},{"bike_id":"24038e93-6c8d-4dcb-8949-05294cdd45c2","system_id":"levelo_inurba_marseille","lat":43.26031,"lon":5.37548,"is_reserved":false,"is_disabled":false,"rental_uris":{"android":"levelo://app?vid=24038e93-6c8d-4dcb-8949-05294cdd45c2","ios":"levelo://app?vid=24038e93-6c8d-4dcb-8949-05294cdd45c2"},"vehicle_type_id":"4","last_reported":1733901012,"current_range_meters":36800,"station_id":"ce4bhgh2rcd13ifvqfa0","pricing_plan_id":"cebpf4jnsgd1na2vs0mg"},{"bike_id":"6e5fe682-17ea-4c2f-8a74-dd8863b143f3","system_id":"levelo_inurba_marseille","lat":43.29314,"lon":5.37176,"is_reserved":false,"is_disabled":false,"rental_uris":{"android":"levelo://app?vid=6e5fe682-17ea-4c2f-8a74-dd8863b143f3","ios":"levelo://app?vid=6e5fe682-17ea-4c2f-8a74-dd8863b143f3"},"vehicle_type_id":"4","last_reported":1733901012,"current_range_meters":38400,"station_id":"ce4bgh92rcd13ifvqb40","pricing_plan_id":"cebpf4jnsgd1na2vs0mg"},{"bike_id":"1b2d4db1-cec0-4376-9abf-f3b964e5dcb7","system_id":"levelo_inurba_marseille","lat":43.2319,"lon":5.35547,"is_reserved":false,"is_disabled":false,"rental_uris":{"android":"levelo://app?vid=1b2d4db1-cec0-4376-9abf-f3b964e5dcb7","ios":"levelo://app?vid=1b2d4db1-cec0-4376-9abf-f3b964e5dcb7"},"vehicle_type_id":"4","last_reported":1733901012,"current_range_meters":38000,"station_id":"ce4bhu92rcd13ifvqi70","pricing_plan_id":"cebpf4jnsgd1na2vs0mg"},{"bike_id":"e7ed5aef-ae31-4d54-ac41-93e7dc9710c5","system_id":"levelo_inurba_marseille","lat":43.24079,"lon":5.37744,"is_reserved":false,"is_disabled":false,"rental_uris":{"android":"levelo://app?vid=e7ed5aef-ae31-4d54-ac41-93e7dc9710c5","ios":"levelo://app?vid=e7ed5aef-ae31-4d54-ac41-93e7dc9710c5"},"vehicle_type_id":"4","last_reported":1733901012,"current_range_meters":32000,"station_id":"ce4bhnp2rcd13ifvqgvg","pricing_plan_id":"cebpf4jnsgd1na2vs0mg"},{"bike_id":"d73ade9e-6a49-4016-a17e-ab2ea853afff","system_id":"levelo_inurba_marseille","lat":43.31342,"lon":5.36717,"is_reserved":false,"is_disabled":false,"rental_uris":{"android":"levelo://app?vid=d73ade9e-6a49-4016-a17e-ab2ea853afff","ios":"levelo://app?vid=d73ade9e-6a49-4016-a17e-ab2ea853afff"},"vehicle_type_id":"4","last_reported":1733901012,"current_range_meters":39200,"station_id":"ce4bgr92rcd13ifvqc6g","pricing_plan_id":"cebpf4jnsgd1na2vs0mg"},{"bike_id":"50290e6a-0f78-4fdd-a8c0-3fdecfe0ca84","system_id":"levelo_inurba_marseille","lat":43.29555,"lon":5.42286,"is_reserved":false,"is_disabled":false,"rental_uris":{"android":"levelo://app?vid=50290e6a-0f78-4fdd-a8c0-3fdecfe0ca84","ios":"levelo://app?vid=50290e6a-0f78-4fdd-a8c0-3fdecfe0ca84"},"vehicle_type_id":"4","last_reported":1733901012,"current_range_meters":38800,"station_id":"ce4bhph2rcd13ifvqhdg","pricing_plan_id":"cebpf4jnsgd1na2vs0mg"},{"bike_id":"e50574b8-3d94-462f-8804-53714ef8cbd4","system_id":"levelo_inurba_marseille","lat":43.30421,"lon":5.39753,"is_reserved":false,"is_disabled":false,"rental_uris":{"android":"levelo://app?vid=e50574b8-3d94-462f-8804-53714ef8cbd4","ios":"levelo://app?vid=e50574b8-3d94-462f-8804-53714ef8cbd4"},"vehicle_type_id":"4","last_reported":1733901012,"current_range_meters":28400,"station_id":"ce4bh092rcd13ifvqd20","pricing_plan_id":"cebpf4jnsgd1na2vs0mg"},{"bike_id":"2f866d5a-e186-4328-b781-788298eaabb9","system_id":"levelo_inurba_marseille","lat":43.29579,"lon":5.39995,"is_reserved":false,"is_disabled":false,"rental_uris":{"android":"levelo://app?vid=2f866d5a-e186-4328-b781-788298eaabb9","ios":"levelo://app?vid=2f866d5a-e186-4328-b781-788298eaabb9"},"vehicle_type_id":"4","last_reported":1733901012,"current_range_meters":9200,"station_id":"ce4bh312rcd13ifvqdj0","pricing_plan_id":"cebpf4jnsgd1na2vs0mg"},{"bike_id":"6a268575-6a93-4a34-a42c-81e118c9ddb2","system_id":"levelo_inurba_marseille","lat":43.298,"lon":5.38101,"is_reserved":false,"is_disabled":false,"rental_uris":{"android":"levelo://app?vid=6a268575-6a93-4a34-a42c-81e118c9ddb2","ios":"levelo://app?vid=6a268575-6a93-4a34-a42c-81e118c9ddb2"},"vehicle_type_id":"4","last_reported":1733901012,"current_range_meters":6800,"station_id":"ce4bgip2rcd13ifvqbb0","pricing_plan_id":"cebpf4jnsgd1na2vs0mg"},{"bike_id":"68469145-5869-4949-94f0-3ccc825184a3","system_id":"levelo_inurba_marseille","lat":43.28347,"lon":5.38102,"is_reserved":false,"is_disabled":true,"rental_uris":{"android":"levelo://app?vid=68469145-5869-4949-94f0-3ccc825184a3","ios":"levelo://app?vid=68469145-5869-4949-94f0-3ccc825184a3"},"vehicle_type_id":"4","last_reported":1733901012,"current_range_meters":27200,"station_id":"ce4bh412rcd13ifvqdr0","pricing_plan_id":"cebpf4jnsgd1na2vs0mg"},{"bike_id":"4c2306c5-1f30-4c9e-ac02-9f5c74eb62b0","system_id":"levelo_inurba_marseille","lat":43.29873,"lon":5.39741,"is_reserved":false,"is_disabled":true,"rental_uris":{"android":"levelo://app?vid=4c2306c5-1f30-4c9e-ac02-9f5c74eb62b0","ios":"levelo://app?vid=4c2306c5-1f30-4c9e-ac02-9f5c74eb62b0"},"vehicle_type_id":"4","last_reported":1733901012,"current_range_meters":38800,"station_id":"ce4bh0h2rcd13ifvqd50","pricing_plan_id":"cebpf4jnsgd1na2vs0mg"},{"bike_id":"e2e5fff8-dab3-4021-a87d-3c7c833d47d1","system_id":"levelo_inurba_marseille","lat":43.26222,"lon":5.37451,"is_reserved":false,"is_disabled":true,"rental_uris":{"android":"levelo://app?vid=e2e5fff8-dab3-4021-a87d-3c7c833d47d1","ios":"levelo://app?vid=e2e5fff8-dab3-4021-a87d-3c7c833d47d1"},"vehicle_type_id":"4","last_reported":1733901012,"current_range_meters":6400,"station_id":"ce4bhgp2rcd13ifvqfc0","pricing_plan_id":"cebpf4jnsgd1na2vs0mg"},{"bike_id":"dce553c5-828c-48e3-bace-a1a170acc25b","system_id":"levelo_inurba_marseille","lat":43.29804,"lon":5.38093,"is_reserved":false,"is_disabled":false,"rental_uris":{"android":"levelo://app?vid=dce553c5-828c-48e3-bace-a1a170acc25b","ios":"levelo://app?vid=dce553c5-828c-48e3-bace-a1a170acc25b"},"vehicle_type_id":"4","last_reported":1733901012,"current_range_meters":38800,"station_id":"ce4bgip2rcd13ifvqbb0","pricing_plan_id":"cebpf4jnsgd1na2vs0mg"},{"bike_id":"75ae6d39-6dc2-49bc-ad9b-72136961811e","system_id":"levelo_inurba_marseille","lat":43.33031,"lon":5.39045,"is_reserved":false,"is_disabled":false,"rental_uris":{"android":"levelo://app?vid=75ae6d39-6dc2-49bc-ad9b-72136961811e","ios":"levelo://app?vid=75ae6d39-6dc2-49bc-ad9b-72136961811e"},"vehicle_type_id":"4","last_reported":1733901012,"current_range_meters":14800,"station_id":"ce4bhr92rcd13ifvqhrg","pricing_plan_id":"cebpf4jnsgd1na2vs0mg"},{"bike_id":"99d3d703-b9fb-4a21-b396-830c55a101e1","system_id":"levelo_inurba_marseille","lat":43.2749,"lon":5.42456,"is_reserved":false,"is_disabled":false,"rental_uris":{"android":"levelo://app?vid=99d3d703-b9fb-4a21-b396-830c55a101e1","ios":"levelo://app?vid=99d3d703-b9fb-4a21-b396-830c55a101e1"},"vehicle_type_id":"4","last_reported":1733901012,"current_range_meters":19600,"station_id":"ce4bhn92rcd13ifvqgrg","pricing_plan_id":"cebpf4jnsgd1na2vs0mg"},{"bike_id":"b84548b8-66e7-4894-9017-caa4b5981aa6","system_id":"levelo_inurba_marseille","lat":43.28726,"lon":5.37939,"is_reserved":false,"is_disabled":false,"rental_uris":{"android":"levelo://app?vid=b84548b8-66e7-4894-9017-caa4b5981aa6","ios":"levelo://app?vid=b84548b8-66e7-4894-9017-caa4b5981aa6"},"vehicle_type_id":"4","last_reported":1733901012,"current_range_meters":38800,"station_id":"ce4bh9p2rcd13ifvqec0","pricing_plan_id":"cebpf4jnsgd1na2vs0mg"},{"bike_id":"e7450eaf-e45f-4bd1-b7ac-9c306ab89734","system_id":"levelo_inurba_marseille","lat":43.29624,"lon":5.40603,"is_reserved":false,"is_disabled":false,"rental_uris":{"android":"levelo://app?vid=e7450eaf-e45f-4bd1-b7ac-9c306ab89734","ios":"levelo://app?vid=e7450eaf-e45f-4bd1-b7ac-9c306ab89734"},"vehicle_type_id":"4","last_reported":1733901012,"current_range_meters":33600,"station_id":"ce4bh0h2rcd13ifvqd60","pricing_plan_id":"cebpf4jnsgd1na2vs0mg"},{"bike_id":"08e46dca-c7ab-473d-8cd7-0439ec94df64","system_id":"levelo_inurba_marseille","lat":43.27204,"lon":5.391917,"is_reserved":false,"is_disabled":true,"rental_uris":{"android":"levelo://app?vid=08e46dca-c7ab-473d-8cd7-0439ec94df64","ios":"levelo://app?vid=08e46dca-c7ab-473d-8cd7-0439ec94df64"},"vehicle_type_id":"4","last_reported":1733901012,"current_range_meters":12000,"station_id":"ce4bhhp2rcd13ifvqfm0","pricing_plan_id":"cebpf4jnsgd1na2vs0mg"},{"bike_id":"0fa1dc8c-2ffe-41eb-8882-10df2eb1318c","system_id":"levelo_inurba_marseille","lat":43.26492,"lon":5.39547,"is_reserved":false,"is_disabled":false,"rental_uris":{"android":"levelo://app?vid=0fa1dc8c-2ffe-41eb-8882-10df2eb1318c","ios":"levelo://app?vid=0fa1dc8c-2ffe-41eb-8882-10df2eb1318c"},"vehicle_type_id":"4","last_reported":1733901012,"current_range_meters":25600,"station_id":"ce4bhi12rcd13ifvqfq0","pricing_plan_id":"cebpf4jnsgd1na2vs0mg"},{"bike_id":"9ebc88e6-f529-4f51-978c-8aec4c956c53","system_id":"levelo_inurba_marseille","lat":43.29592,"lon":5.381,"is_reserved":false,"is_disabled":false,"rental_uris":{"android":"levelo://app?vid=9ebc88e6-f529-4f51-978c-8aec4c956c53","ios":"levelo://app?vid=9ebc88e6-f529-4f51-978c-8aec4c956c53"},"vehicle_type_id":"4","last_reported":1733901012,"current_range_meters":33600,"station_id":"ce4bgl12rcd13ifvqbo0","pricing_plan_id":"cebpf4jnsgd1na2vs0mg"},{"bike_id":"4911f8fa-389f-4420-a912-369205868e4c","system_id":"levelo_inurba_marseille","lat":43.29608,"lon":5.3811,"is_reserved":false,"is_disabled":false,"rental_uris":{"android":"levelo://app?vid=4911f8fa-389f-4420-a912-369205868e4c","ios":"levelo://app?vid=4911f8fa-389f-4420-a912-369205868e4c"},"vehicle_type_id":"4","last_reported":1733901012,"current_range_meters":15200,"station_id":"ce4bgl12rcd13ifvqbo0","pricing_plan_id":"cebpf4jnsgd1na2vs0mg"},{"bike_id":"17e9115d-8113-4bca-9428-2e6c563b1c7f","system_id":"levelo_inurba_marseille","lat":43.31069,"lon":5.38351,"is_reserved":false,"is_disabled":false,"rental_uris":{"android":"levelo://app?vid=17e9115d-8113-4bca-9428-2e6c563b1c7f","ios":"levelo://app?vid=17e9115d-8113-4bca-9428-2e6c563b1c7f"},"vehicle_type_id":"4","last_reported":1733901012,"current_range_meters":38400,"station_id":"ce4bgv92rcd13ifvqcr0","pricing_plan_id":"cebpf4jnsgd1na2vs0mg"},{"bike_id":"1798b009-d070-4a48-981c-7e69a8a0d034","system_id":"levelo_inurba_marseille","lat":43.32359,"lon":5.38881,"is_reserved":false,"is_disabled":false,"rental_uris":{"android":"levelo://app?vid=1798b009-d070-4a48-981c-7e69a8a0d034","ios":"levelo://app?vid=1798b009-d070-4a48-981c-7e69a8a0d034"},"vehicle_type_id":"4","last_reported":1733901012,"current_range_meters":38000,"station_id":"ce4bhqp2rcd13ifvqhog","pricing_plan_id":"cebpf4jnsgd1na2vs0mg"},{"bike_id":"eb4e32cd-a02d-4e92-a013-1fdc0dd71ccb","system_id":"levelo_inurba_marseille","lat":43.324799,"lon":5.365716,"is_reserved":false,"is_disabled":true,"rental_uris":{"android":"levelo://app?vid=eb4e32cd-a02d-4e92-a013-1fdc0dd71ccb","ios":"levelo://app?vid=eb4e32cd-a02d-4e92-a013-1fdc0dd71ccb"},"vehicle_type_id":"4","last_reported":1733901012,"current_range_meters":0,"station_id":"","pricing_plan_id":"cebpf4jnsgd1na2vs0mg"},{"bike_id":"eeb73e10-17ba-45b1-b4dd-05f22e4e996b","system_id":"levelo_inurba_marseille","lat":43.24168,"lon":5.36397,"is_reserved":false,"is_disabled":false,"rental_uris":{"android":"levelo://app?vid=eeb73e10-17ba-45b1-b4dd-05f22e4e996b","ios":"levelo://app?vid=eeb73e10-17ba-45b1-b4dd-05f22e4e996b"},"vehicle_type_id":"4","last_reported":1733901012,"current_range_meters":24000,"station_id":"cpo36qri1sfpv3e86is0","pricing_plan_id":"cebpf4jnsgd1na2vs0mg"},{"bike_id":"928896f9-930a-4dfa-a7ab-6b63e5b73b70","system_id":"levelo_inurba_marseille","lat":43.31695,"lon":5.40468,"is_reserved":false,"is_disabled":false,"rental_uris":{"android":"levelo://app?vid=928896f9-930a-4dfa-a7ab-6b63e5b73b70","ios":"levelo://app?vid=928896f9-930a-4dfa-a7ab-6b63e5b73b70"},"vehicle_type_id":"4","last_reported":1733901012,"current_range_meters":36800,"station_id":"ce4bh012rcd13ifvqd00","pricing_plan_id":"cebpf4jnsgd1na2vs0mg"},{"bike_id":"a259a858-f944-4e56-ac33-9818c7e20f87","system_id":"levelo_inurba_marseille","lat":43.304331,"lon":5.388904,"is_reserved":false,"is_disabled":false,"rental_uris":{"android":"levelo://app?vid=a259a858-f944-4e56-ac33-9818c7e20f87","ios":"levelo://app?vid=a259a858-f944-4e56-ac33-9818c7e20f87"},"vehicle_type_id":"4","last_reported":1733901012,"current_range_meters":21600,"station_id":"ce4bgk12rcd13ifvqbi0","pricing_plan_id":"cebpf4jnsgd1na2vs0mg"},{"bike_id":"c79a44c3-57a2-4768-b6b8-e298d2460a22","system_id":"levelo_inurba_marseille","lat":43.24161,"lon":5.36402,"is_reserved":false,"is_disabled":false,"rental_uris":{"android":"levelo://app?vid=c79a44c3-57a2-4768-b6b8-e298d2460a22","ios":"levelo://app?vid=c79a44c3-57a2-4768-b6b8-e298d2460a22"},"vehicle_type_id":"4","last_reported":1733901012,"current_range_meters":34800,"station_id":"cpo36qri1sfpv3e86is0","pricing_plan_id":"cebpf4jnsgd1na2vs0mg"},{"bike_id":"9d80a548-f609-424a-b271-462289cef155","system_id":"levelo_inurba_marseille","lat":43.23961,"lon":5.3663,"is_reserved":false,"is_disabled":false,"rental_uris":{"android":"levelo://app?vid=9d80a548-f609-424a-b271-462289cef155","ios":"levelo://app?vid=9d80a548-f609-424a-b271-462289cef155"},"vehicle_type_id":"4","last_reported":1733901012,"current_range_meters":22800,"station_id":"ce4bhi12rcd13ifvqfp0","pricing_plan_id":"cebpf4jnsgd1na2vs0mg"},{"bike_id":"8b68729d-0713-45c1-a497-471ae591a0f0","system_id":"levelo_inurba_marseille","lat":43.30535,"lon":5.3843,"is_reserved":false,"is_disabled":false,"rental_uris":{"android":"levelo://app?vid=8b68729d-0713-45c1-a497-471ae591a0f0","ios":"levelo://app?vid=8b68729d-0713-45c1-a497-471ae591a0f0"},"vehicle_type_id":"4","last_reported":1733901012,"current_range_meters":38000,"station_id":"ce4bgg92rcd13ifvqb30","pricing_plan_id":"cebpf4jnsgd1na2vs0mg"},{"bike_id":"26924fb9-4179-4abe-8b03-e0d47c141d92","system_id":"levelo_inurba_marseille","lat":43.27179,"lon":5.40991,"is_reserved":false,"is_disabled":false,"rental_uris":{"android":"levelo://app?vid=26924fb9-4179-4abe-8b03-e0d47c141d92","ios":"levelo://app?vid=26924fb9-4179-4abe-8b03-e0d47c141d92"},"vehicle_type_id":"4","last_reported":1733901012,"current_range_meters":24000,"station_id":"ce4bhl12rcd13ifvqgf0","pricing_plan_id":"cebpf4jnsgd1na2vs0mg"},{"bike_id":"c9032b80-329f-4f7d-a230-eca510936573","system_id":"levelo_inurba_marseille","lat":43.24433,"lon":5.37946,"is_reserved":false,"is_disabled":false,"rental_uris":{"android":"levelo://app?vid=c9032b80-329f-4f7d-a230-eca510936573","ios":"levelo://app?vid=c9032b80-329f-4f7d-a230-eca510936573"},"vehicle_type_id":"4","last_reported":1733901012,"current_range_meters":12400,"station_id":"ce4bhnp2rcd13ifvqgvg","pricing_plan_id":"cebpf4jnsgd1na2vs0mg"},{"bike_id":"2e51fb70-b1be-4661-b646-3870500c9133","system_id":"levelo_inurba_marseille","lat":43.29952,"lon":5.41314,"is_reserved":false,"is_disabled":false,"rental_uris":{"android":"levelo://app?vid=2e51fb70-b1be-4661-b646-3870500c9133","ios":"levelo://app?vid=2e51fb70-b1be-4661-b646-3870500c9133"},"vehicle_type_id":"4","last_reported":1733901012,"current_range_meters":31200,"station_id":"ce4bhp12rcd13ifvqh9g","pricing_plan_id":"cebpf4jnsgd1na2vs0mg"},{"bike_id":"7bdec345-eeec-47c0-a1aa-d0b0f44ab6d1","system_id":"levelo_inurba_marseille","lat":43.32655,"lon":5.40997,"is_reserved":false,"is_disabled":true,"rental_uris":{"android":"levelo://app?vid=7bdec345-eeec-47c0-a1aa-d0b0f44ab6d1","ios":"levelo://app?vid=7bdec345-eeec-47c0-a1aa-d0b0f44ab6d1"},"vehicle_type_id":"4","last_reported":1733901012,"current_range_meters":37600,"station_id":"ce4bhpp2rcd13ifvqhgg","pricing_plan_id":"cebpf4jnsgd1na2vs0mg"},{"bike_id":"7dbf3a95-329e-4a62-aac0-7e4dfae6ad11","system_id":"levelo_inurba_marseille","lat":43.24177,"lon":5.39735,"is_reserved":false,"is_disabled":false,"rental_uris":{"android":"levelo://app?vid=7dbf3a95-329e-4a62-aac0-7e4dfae6ad11","ios":"levelo://app?vid=7dbf3a95-329e-4a62-aac0-7e4dfae6ad11"},"vehicle_type_id":"4","last_reported":1733901012,"current_range_meters":36400,"station_id":"ce4bhn12rcd13ifvqgpg","pricing_plan_id":"cebpf4jnsgd1na2vs0mg"},{"bike_id":"f86f7e2a-9da2-46ae-ba67-518e13dbcfb7","system_id":"levelo_inurba_marseille","lat":43.27182,"lon":5.40993,"is_reserved":false,"is_disabled":false,"rental_uris":{"android":"levelo://app?vid=f86f7e2a-9da2-46ae-ba67-518e13dbcfb7","ios":"levelo://app?vid=f86f7e2a-9da2-46ae-ba67-518e13dbcfb7"},"vehicle_type_id":"4","last_reported":1733901012,"current_range_meters":37600,"station_id":"ce4bhl12rcd13ifvqgf0","pricing_plan_id":"cebpf4jnsgd1na2vs0mg"},{"bike_id":"653cf9b4-2cbd-42f6-8c12-d4a639176c8f","system_id":"levelo_inurba_marseille","lat":43.2696,"lon":5.38629,"is_reserved":false,"is_disabled":false,"rental_uris":{"android":"levelo://app?vid=653cf9b4-2cbd-42f6-8c12-d4a639176c8f","ios":"levelo://app?vid=653cf9b4-2cbd-42f6-8c12-d4a639176c8f"},"vehicle_type_id":"4","last_reported":1733901012,"current_range_meters":33600,"station_id":"ce4bhh92rcd13ifvqfh0","pricing_plan_id":"cebpf4jnsgd1na2vs0mg"},{"bike_id":"e7bb54a1-1433-4154-8098-3b611cdd2563","system_id":"levelo_inurba_marseille","lat":43.30945,"lon":5.39036,"is_reserved":false,"is_disabled":false,"rental_uris":{"android":"levelo://app?vid=e7bb54a1-1433-4154-8098-3b611cdd2563","ios":"levelo://app?vid=e7bb54a1-1433-4154-8098-3b611cdd2563"},"vehicle_type_id":"4","last_reported":1733901012,"current_range_meters":21600,"station_id":"ce4bgup2rcd13ifvqco0","pricing_plan_id":"cebpf4jnsgd1na2vs0mg"},{"bike_id":"4b9f2e0c-e6c8-41ae-a354-ab0c34618599","system_id":"levelo_inurba_marseille","lat":43.23962,"lon":5.36637,"is_reserved":false,"is_disabled":false,"rental_uris":{"android":"levelo://app?vid=4b9f2e0c-e6c8-41ae-a354-ab0c34618599","ios":"levelo://app?vid=4b9f2e0c-e6c8-41ae-a354-ab0c34618599"},"vehicle_type_id":"4","last_reported":1733901012,"current_range_meters":38800,"station_id":"ce4bhi12rcd13ifvqfp0","pricing_plan_id":"cebpf4jnsgd1na2vs0mg"},{"bike_id":"3c5e8213-bdf4-4e39-af57-b8ae14292a15","system_id":"levelo_inurba_marseille","lat":43.2894,"lon":5.39637,"is_reserved":false,"is_disabled":false,"rental_uris":{"android":"levelo://app?vid=3c5e8213-bdf4-4e39-af57-b8ae14292a15","ios":"levelo://app?vid=3c5e8213-bdf4-4e39-af57-b8ae14292a15"},"vehicle_type_id":"4","last_reported":1733901012,"current_range_meters":34800,"station_id":"ce4bh3h2rcd13ifvqdn0","pricing_plan_id":"cebpf4jnsgd1na2vs0mg"},{"bike_id":"63b5bf85-b73e-49f1-bc75-4baac46761b3","system_id":"levelo_inurba_marseille","lat":43.28714,"lon":5.3794,"is_reserved":false,"is_disabled":false,"rental_uris":{"android":"levelo://app?vid=63b5bf85-b73e-49f1-bc75-4baac46761b3","ios":"levelo://app?vid=63b5bf85-b73e-49f1-bc75-4baac46761b3"},"vehicle_type_id":"4","last_reported":1733901012,"current_range_meters":18800,"station_id":"ce4bh9p2rcd13ifvqec0","pricing_plan_id":"cebpf4jnsgd1na2vs0mg"},{"bike_id":"fc01c5e4-7dea-4de7-af6d-448142058e7d","system_id":"levelo_inurba_marseille","lat":43.30533,"lon":5.36536,"is_reserved":false,"is_disabled":false,"rental_uris":{"android":"levelo://app?vid=fc01c5e4-7dea-4de7-af6d-448142058e7d","ios":"levelo://app?vid=fc01c5e4-7dea-4de7-af6d-448142058e7d"},"vehicle_type_id":"4","last_reported":1733901012,"current_range_meters":38000,"station_id":"ce4bgs12rcd13ifvqcag","pricing_plan_id":"cebpf4jnsgd1na2vs0mg"},{"bike_id":"cda007dd-06bb-4a86-b841-00a7ca3fac29","system_id":"levelo_inurba_marseille","lat":43.317539,"lon":5.390214,"is_reserved":false,"is_disabled":false,"rental_uris":{"android":"levelo://app?vid=cda007dd-06bb-4a86-b841-00a7ca3fac29","ios":"levelo://app?vid=cda007dd-06bb-4a86-b841-00a7ca3fac29"},"vehicle_type_id":"4","last_reported":1733901012,"current_range_meters":30000,"station_id":"ce4bhqp2rcd13ifvqhng","pricing_plan_id":"cebpf4jnsgd1na2vs0mg"},{"bike_id":"95d8628d-10b1-47e7-9a42-9b126ec315c6","system_id":"levelo_inurba_marseille","lat":43.23193,"lon":5.35554,"is_reserved":false,"is_disabled":false,"rental_uris":{"android":"levelo://app?vid=95d8628d-10b1-47e7-9a42-9b126ec315c6","ios":"levelo://app?vid=95d8628d-10b1-47e7-9a42-9b126ec315c6"},"vehicle_type_id":"4","last_reported":1733901012,"current_range_meters":21600,"station_id":"ce4bhu92rcd13ifvqi70","pricing_plan_id":"cebpf4jnsgd1na2vs0mg"},{"bike_id":"ff157558-4762-4775-8ebe-d59ef36bd776","system_id":"levelo_inurba_marseille","lat":43.26554,"lon":5.37294,"is_reserved":false,"is_disabled":false,"rental_uris":{"android":"levelo://app?vid=ff157558-4762-4775-8ebe-d59ef36bd776","ios":"levelo://app?vid=ff157558-4762-4775-8ebe-d59ef36bd776"},"vehicle_type_id":"4","last_reported":1733901012,"current_range_meters":10000,"station_id":"ce4bhg12rcd13ifvqf70","pricing_plan_id":"cebpf4jnsgd1na2vs0mg"},{"bike_id":"dfd2e0d6-aea3-44fc-a2b7-8739d0a96e78","system_id":"levelo_inurba_marseille","lat":43.30459,"lon":5.37914,"is_reserved":false,"is_disabled":false,"rental_uris":{"android":"levelo://app?vid=dfd2e0d6-aea3-44fc-a2b7-8739d0a96e78","ios":"levelo://app?vid=dfd2e0d6-aea3-44fc-a2b7-8739d0a96e78"},"vehicle_type_id":"4","last_reported":1733901012,"current_range_meters":28000,"station_id":"ce4bgup2rcd13ifvqcn0","pricing_plan_id":"cebpf4jnsgd1na2vs0mg"},{"bike_id":"6c88932d-00ec-4b60-9546-85018a6b7535","system_id":"levelo_inurba_marseille","lat":43.29251,"lon":5.40918,"is_reserved":false,"is_disabled":false,"rental_uris":{"android":"levelo://app?vid=6c88932d-00ec-4b60-9546-85018a6b7535","ios":"levelo://app?vid=6c88932d-00ec-4b60-9546-85018a6b7535"},"vehicle_type_id":"4","last_reported":1733901012,"current_range_meters":36400,"station_id":"ce4bh192rcd13ifvqdc0","pricing_plan_id":"cebpf4jnsgd1na2vs0mg"},{"bike_id":"aae5e61c-0396-4d90-9bd2-f59dc93ab413","system_id":"levelo_inurba_marseille","lat":43.28357,"lon":5.38099,"is_reserved":false,"is_disabled":false,"rental_uris":{"android":"levelo://app?vid=aae5e61c-0396-4d90-9bd2-f59dc93ab413","ios":"levelo://app?vid=aae5e61c-0396-4d90-9bd2-f59dc93ab413"},"vehicle_type_id":"4","last_reported":1733901012,"current_range_meters":30800,"station_id":"ce4bh412rcd13ifvqdr0","pricing_plan_id":"cebpf4jnsgd1na2vs0mg"},{"bike_id":"570bad79-da0a-4f0e-bd71-fcfb4fde31b3","system_id":"levelo_inurba_marseille","lat":43.23957,"lon":5.36625,"is_reserved":false,"is_disabled":true,"rental_uris":{"android":"levelo://app?vid=570bad79-da0a-4f0e-bd71-fcfb4fde31b3","ios":"levelo://app?vid=570bad79-da0a-4f0e-bd71-fcfb4fde31b3"},"vehicle_type_id":"4","last_reported":1733901012,"current_range_meters":28400,"station_id":"ce4bhi12rcd13ifvqfp0","pricing_plan_id":"cebpf4jnsgd1na2vs0mg"},{"bike_id":"0f20b602-7b45-4989-92b6-4d1c64ab5468","system_id":"levelo_inurba_marseille","lat":43.26538,"lon":5.37284,"is_reserved":false,"is_disabled":false,"rental_uris":{"android":"levelo://app?vid=0f20b602-7b45-4989-92b6-4d1c64ab5468","ios":"levelo://app?vid=0f20b602-7b45-4989-92b6-4d1c64ab5468"},"vehicle_type_id":"4","last_reported":1733901012,"current_range_meters":29600,"station_id":"ce4bhg12rcd13ifvqf70","pricing_plan_id":"cebpf4jnsgd1na2vs0mg"},{"bike_id":"a01e22aa-e15d-459b-b713-2b2e4a0fb5eb","system_id":"levelo_inurba_marseille","lat":43.24077,"lon":5.37758,"is_reserved":false,"is_disabled":false,"rental_uris":{"android":"levelo://app?vid=a01e22aa-e15d-459b-b713-2b2e4a0fb5eb","ios":"levelo://app?vid=a01e22aa-e15d-459b-b713-2b2e4a0fb5eb"},"vehicle_type_id":"4","last_reported":1733901012,"current_range_meters":6400,"station_id":"ce4bhnp2rcd13ifvqgvg","pricing_plan_id":"cebpf4jnsgd1na2vs0mg"},{"bike_id":"e7864067-1489-4fd3-808a-56b2e376b2a6","system_id":"levelo_inurba_marseille","lat":43.28006,"lon":5.44182,"is_reserved":false,"is_disabled":false,"rental_uris":{"android":"levelo://app?vid=e7864067-1489-4fd3-808a-56b2e376b2a6","ios":"levelo://app?vid=e7864067-1489-4fd3-808a-56b2e376b2a6"},"vehicle_type_id":"4","last_reported":1733901012,"current_range_meters":26800,"station_id":"","pricing_plan_id":"cebpf4jnsgd1na2vs0mg"},{"bike_id":"9a659ae8-de99-4752-aa86-de3413828e63","system_id":"levelo_inurba_marseille","lat":43.30474,"lon":5.37909,"is_reserved":false,"is_disabled":false,"rental_uris":{"android":"levelo://app?vid=9a659ae8-de99-4752-aa86-de3413828e63","ios":"levelo://app?vid=9a659ae8-de99-4752-aa86-de3413828e63"},"vehicle_type_id":"4","last_reported":1733901012,"current_range_meters":19600,"station_id":"ce4bgup2rcd13ifvqcn0","pricing_plan_id":"cebpf4jnsgd1na2vs0mg"},{"bike_id":"b8e7f883-5b9b-422d-81e9-d00c2442da3b","system_id":"levelo_inurba_marseille","lat":43.23062,"lon":5.355,"is_reserved":false,"is_disabled":false,"rental_uris":{"android":"levelo://app?vid=b8e7f883-5b9b-422d-81e9-d00c2442da3b","ios":"levelo://app?vid=b8e7f883-5b9b-422d-81e9-d00c2442da3b"},"vehicle_type_id":"4","last_reported":1733901012,"current_range_meters":32000,"station_id":"cpo3342slgdg3j2ifvpg","pricing_plan_id":"cebpf4jnsgd1na2vs0mg"},{"bike_id":"a583b0d1-dc02-4735-96d2-80adff4b87b9","system_id":"levelo_inurba_marseille","lat":43.29793,"lon":5.38088,"is_reserved":false,"is_disabled":false,"rental_uris":{"android":"levelo://app?vid=a583b0d1-dc02-4735-96d2-80adff4b87b9","ios":"levelo://app?vid=a583b0d1-dc02-4735-96d2-80adff4b87b9"},"vehicle_type_id":"4","last_reported":1733901012,"current_range_meters":9200,"station_id":"ce4bgip2rcd13ifvqbb0","pricing_plan_id":"cebpf4jnsgd1na2vs0mg"},{"bike_id":"b7c21cd2-254f-4556-bc54-df1e590de785","system_id":"levelo_inurba_marseille","lat":43.30353,"lon":5.41875,"is_reserved":false,"is_disabled":false,"rental_uris":{"android":"levelo://app?vid=b7c21cd2-254f-4556-bc54-df1e590de785","ios":"levelo://app?vid=b7c21cd2-254f-4556-bc54-df1e590de785"},"vehicle_type_id":"4","last_reported":1733901012,"current_range_meters":38800,"station_id":"ce4bhop2rcd13ifvqh7g","pricing_plan_id":"cebpf4jnsgd1na2vs0mg"},{"bike_id":"f78f4e7d-a540-4cbd-99d7-83208916456d","system_id":"levelo_inurba_marseille","lat":43.262174,"lon":5.374508,"is_reserved":false,"is_disabled":false,"rental_uris":{"android":"levelo://app?vid=f78f4e7d-a540-4cbd-99d7-83208916456d","ios":"levelo://app?vid=f78f4e7d-a540-4cbd-99d7-83208916456d"},"vehicle_type_id":"4","last_reported":1733901012,"current_range_meters":37600,"station_id":"ce4bhgp2rcd13ifvqfc0","pricing_plan_id":"cebpf4jnsgd1na2vs0mg"},{"bike_id":"aac345db-d41e-475c-a96f-986bffa1163f","system_id":"levelo_inurba_marseille","lat":43.29611,"lon":5.37714,"is_reserved":false,"is_disabled":true,"rental_uris":{"android":"levelo://app?vid=aac345db-d41e-475c-a96f-986bffa1163f","ios":"levelo://app?vid=aac345db-d41e-475c-a96f-986bffa1163f"},"vehicle_type_id":"4","last_reported":1733901012,"current_range_meters":24800,"station_id":"ce4bgi92rcd13ifvqb90","pricing_plan_id":"cebpf4jnsgd1na2vs0mg"},{"bike_id":"d23a8705-e529-47a4-8077-bf556f13b60b","system_id":"levelo_inurba_marseille","lat":43.31473,"lon":5.37286,"is_reserved":false,"is_disabled":false,"rental_uris":{"android":"levelo://app?vid=d23a8705-e529-47a4-8077-bf556f13b60b","ios":"levelo://app?vid=d23a8705-e529-47a4-8077-bf556f13b60b"},"vehicle_type_id":"4","last_reported":1733901012,"current_range_meters":38000,"station_id":"ce4bgt12rcd13ifvqcd0","pricing_plan_id":"cebpf4jnsgd1na2vs0mg"},{"bike_id":"733b267b-671a-4d9a-85c5-c75148139079","system_id":"levelo_inurba_marseille","lat":43.30793,"lon":5.38168,"is_reserved":false,"is_disabled":false,"rental_uris":{"android":"levelo://app?vid=733b267b-671a-4d9a-85c5-c75148139079","ios":"levelo://app?vid=733b267b-671a-4d9a-85c5-c75148139079"},"vehicle_type_id":"4","last_reported":1733901012,"current_range_meters":32800,"station_id":"ce4bgt12rcd13ifvqce0","pricing_plan_id":"cebpf4jnsgd1na2vs0mg"},{"bike_id":"a0b44e86-9121-4df3-b62a-0fc9a0d1110c","system_id":"levelo_inurba_marseille","lat":43.23061,"lon":5.3549,"is_reserved":false,"is_disabled":false,"rental_uris":{"android":"levelo://app?vid=a0b44e86-9121-4df3-b62a-0fc9a0d1110c","ios":"levelo://app?vid=a0b44e86-9121-4df3-b62a-0fc9a0d1110c"},"vehicle_type_id":"4","last_reported":1733901012,"current_range_meters":32000,"station_id":"cpo3342slgdg3j2ifvpg","pricing_plan_id":"cebpf4jnsgd1na2vs0mg"},{"bike_id":"b780817d-05a8-4433-94ad-e8847fbcdfeb","system_id":"levelo_inurba_marseille","lat":43.28943,"lon":5.39628,"is_reserved":false,"is_disabled":false,"rental_uris":{"android":"levelo://app?vid=b780817d-05a8-4433-94ad-e8847fbcdfeb","ios":"levelo://app?vid=b780817d-05a8-4433-94ad-e8847fbcdfeb"},"vehicle_type_id":"4","last_reported":1733901012,"current_range_meters":30800,"station_id":"ce4bh3h2rcd13ifvqdn0","pricing_plan_id":"cebpf4jnsgd1na2vs0mg"},{"bike_id":"a5b86601-3b76-4a9a-9fb5-0a4c53370aee","system_id":"levelo_inurba_marseille","lat":43.30521,"lon":5.38138,"is_reserved":false,"is_disabled":false,"rental_uris":{"android":"levelo://app?vid=a5b86601-3b76-4a9a-9fb5-0a4c53370aee","ios":"levelo://app?vid=a5b86601-3b76-4a9a-9fb5-0a4c53370aee"},"vehicle_type_id":"4","last_reported":1733901012,"current_range_meters":25600,"station_id":"ce4bgup2rcd13ifvqcn0","pricing_plan_id":"cebpf4jnsgd1na2vs0mg"},{"bike_id":"462cf08f-da5e-4233-ac29-19efa267eb1e","system_id":"levelo_inurba_marseille","lat":43.3111,"lon":5.37762,"is_reserved":false,"is_disabled":true,"rental_uris":{"android":"levelo://app?vid=462cf08f-da5e-4233-ac29-19efa267eb1e","ios":"levelo://app?vid=462cf08f-da5e-4233-ac29-19efa267eb1e"},"vehicle_type_id":"4","last_reported":1733901012,"current_range_meters":400,"station_id":"ce4bgt92rcd13ifvqcg0","pricing_plan_id":"cebpf4jnsgd1na2vs0mg"},{"bike_id":"9842e302-60c5-4463-a154-2234e3c29308","system_id":"levelo_inurba_marseille","lat":43.26201,"lon":5.37469,"is_reserved":false,"is_disabled":false,"rental_uris":{"android":"levelo://app?vid=9842e302-60c5-4463-a154-2234e3c29308","ios":"levelo://app?vid=9842e302-60c5-4463-a154-2234e3c29308"},"vehicle_type_id":"4","last_reported":1733901012,"current_range_meters":36400,"station_id":"ce4bhgp2rcd13ifvqfc0","pricing_plan_id":"cebpf4jnsgd1na2vs0mg"},{"bike_id":"fc124eb6-cdb7-4239-bc9b-b00843e6082a","system_id":"levelo_inurba_marseille","lat":43.29163,"lon":5.38455,"is_reserved":false,"is_disabled":true,"rental_uris":{"android":"levelo://app?vid=fc124eb6-cdb7-4239-bc9b-b00843e6082a","ios":"levelo://app?vid=fc124eb6-cdb7-4239-bc9b-b00843e6082a"},"vehicle_type_id":"4","last_reported":1733901012,"current_range_meters":36400,"station_id":"","pricing_plan_id":"cebpf4jnsgd1na2vs0mg"},{"bike_id":"eab7c24e-3533-4637-b397-5e46bc48ccfd","system_id":"levelo_inurba_marseille","lat":43.23149,"lon":5.437154,"is_reserved":false,"is_disabled":true,"rental_uris":{"android":"levelo://app?vid=eab7c24e-3533-4637-b397-5e46bc48ccfd","ios":"levelo://app?vid=eab7c24e-3533-4637-b397-5e46bc48ccfd"},"vehicle_type_id":"4","last_reported":1733901012,"current_range_meters":800,"station_id":"ce4bhmp2rcd13ifvqgog","pricing_plan_id":"cebpf4jnsgd1na2vs0mg"},{"bike_id":"ff46f7b7-bf8e-4339-90a6-087c02b41ce7","system_id":"levelo_inurba_marseille","lat":43.28639,"lon":5.36358,"is_reserved":false,"is_disabled":false,"rental_uris":{"android":"levelo://app?vid=ff46f7b7-bf8e-4339-90a6-087c02b41ce7","ios":"levelo://app?vid=ff46f7b7-bf8e-4339-90a6-087c02b41ce7"},"vehicle_type_id":"4","last_reported":1733901012,"current_range_meters":32000,"station_id":"ce4bhah2rcd13ifvqej0","pricing_plan_id":"cebpf4jnsgd1na2vs0mg"},{"bike_id":"f5de5642-df49-4b50-9dff-69bdfdf4451b","system_id":"levelo_inurba_marseille","lat":43.30209,"lon":5.39466,"is_reserved":false,"is_disabled":false,"rental_uris":{"android":"levelo://app?vid=f5de5642-df49-4b50-9dff-69bdfdf4451b","ios":"levelo://app?vid=f5de5642-df49-4b50-9dff-69bdfdf4451b"},"vehicle_type_id":"4","last_reported":1733901012,"current_range_meters":28000,"station_id":"ce4bh0p2rcd13ifvqd70","pricing_plan_id":"cebpf4jnsgd1na2vs0mg"},{"bike_id":"97d58032-523c-44eb-90bb-b2be72ae18e4","system_id":"levelo_inurba_marseille","lat":43.285619,"lon":5.394977,"is_reserved":false,"is_disabled":true,"rental_uris":{"android":"levelo://app?vid=97d58032-523c-44eb-90bb-b2be72ae18e4","ios":"levelo://app?vid=97d58032-523c-44eb-90bb-b2be72ae18e4"},"vehicle_type_id":"4","last_reported":1733901012,"current_range_meters":0,"station_id":"ce4bh292rcd13ifvqdg0","pricing_plan_id":"cebpf4jnsgd1na2vs0mg"},{"bike_id":"4c3e3fab-ee70-436a-b5cf-aecd0e4e855f","system_id":"levelo_inurba_marseille","lat":43.33773,"lon":5.37466,"is_reserved":false,"is_disabled":false,"rental_uris":{"android":"levelo://app?vid=4c3e3fab-ee70-436a-b5cf-aecd0e4e855f","ios":"levelo://app?vid=4c3e3fab-ee70-436a-b5cf-aecd0e4e855f"},"vehicle_type_id":"4","last_reported":1733901012,"current_range_meters":33200,"station_id":"","pricing_plan_id":"cebpf4jnsgd1na2vs0mg"},{"bike_id":"ffe84949-510c-4c2b-b12d-3ab6203fde9c","system_id":"levelo_inurba_marseille","lat":43.294461,"lon":5.385884,"is_reserved":false,"is_disabled":false,"rental_uris":{"android":"levelo://app?vid=ffe84949-510c-4c2b-b12d-3ab6203fde9c","ios":"levelo://app?vid=ffe84949-510c-4c2b-b12d-3ab6203fde9c"},"vehicle_type_id":"4","last_reported":1733901012,"current_range_meters":31200,"station_id":"ce4bh2h2rcd13ifvqdh0","pricing_plan_id":"cebpf4jnsgd1na2vs0mg"},{"bike_id":"a0bd77ab-f0c1-4dcd-a913-8c0511140685","system_id":"levelo_inurba_marseille","lat":43.27369,"lon":5.36257,"is_reserved":false,"is_disabled":false,"rental_uris":{"android":"levelo://app?vid=a0bd77ab-f0c1-4dcd-a913-8c0511140685","ios":"levelo://app?vid=a0bd77ab-f0c1-4dcd-a913-8c0511140685"},"vehicle_type_id":"4","last_reported":1733901012,"current_range_meters":8000,"station_id":"ce4bhbh2rcd13ifvqeo0","pricing_plan_id":"cebpf4jnsgd1na2vs0mg"},{"bike_id":"49597193-b05c-47a3-934a-780b3de2771f","system_id":"levelo_inurba_marseille","lat":43.29037,"lon":5.39973,"is_reserved":false,"is_disabled":false,"rental_uris":{"android":"levelo://app?vid=49597193-b05c-47a3-934a-780b3de2771f","ios":"levelo://app?vid=49597193-b05c-47a3-934a-780b3de2771f"},"vehicle_type_id":"4","last_reported":1733901012,"current_range_meters":30800,"station_id":"ce4bh392rcd13ifvqdm0","pricing_plan_id":"cebpf4jnsgd1na2vs0mg"},{"bike_id":"962a96b4-3298-40d0-92e0-1b449f02c0fe","system_id":"levelo_inurba_marseille","lat":43.25493,"lon":5.3765,"is_reserved":false,"is_disabled":true,"rental_uris":{"android":"levelo://app?vid=962a96b4-3298-40d0-92e0-1b449f02c0fe","ios":"levelo://app?vid=962a96b4-3298-40d0-92e0-1b449f02c0fe"},"vehicle_type_id":"4","last_reported":1733901012,"current_range_meters":32800,"station_id":"ce4bhh12rcd13ifvqff0","pricing_plan_id":"cebpf4jnsgd1na2vs0mg"},{"bike_id":"1cddb37e-2d97-416e-98ad-437aa9a20b17","system_id":"levelo_inurba_marseille","lat":43.2952,"lon":5.37502,"is_reserved":false,"is_disabled":true,"rental_uris":{"android":"levelo://app?vid=1cddb37e-2d97-416e-98ad-437aa9a20b17","ios":"levelo://app?vid=1cddb37e-2d97-416e-98ad-437aa9a20b17"},"vehicle_type_id":"4","last_reported":1733901012,"current_range_meters":23200,"station_id":"ce4bgkp2rcd13ifvqbmg","pricing_plan_id":"cebpf4jnsgd1na2vs0mg"},{"bike_id":"ba5e4c54-9e0f-419d-acd3-894b4507a88b","system_id":"levelo_inurba_marseille","lat":43.23045,"lon":5.35497,"is_reserved":false,"is_disabled":false,"rental_uris":{"android":"levelo://app?vid=ba5e4c54-9e0f-419d-acd3-894b4507a88b","ios":"levelo://app?vid=ba5e4c54-9e0f-419d-acd3-894b4507a88b"},"vehicle_type_id":"4","last_reported":1733901012,"current_range_meters":22400,"station_id":"cpo3342slgdg3j2ifvpg","pricing_plan_id":"cebpf4jnsgd1na2vs0mg"},{"bike_id":"0fc6091a-78b7-4e6b-ab49-3086aa32da9d","system_id":"levelo_inurba_marseille","lat":43.29268,"lon":5.401224,"is_reserved":false,"is_disabled":true,"rental_uris":{"android":"levelo://app?vid=0fc6091a-78b7-4e6b-ab49-3086aa32da9d","ios":"levelo://app?vid=0fc6091a-78b7-4e6b-ab49-3086aa32da9d"},"vehicle_type_id":"4","last_reported":1733901012,"current_range_meters":0,"station_id":"ce4bh312rcd13ifvqdk0","pricing_plan_id":"cebpf4jnsgd1na2vs0mg"},{"bike_id":"386f1122-3fbf-4166-ae01-85ee40363016","system_id":"levelo_inurba_marseille","lat":43.27497,"lon":5.42455,"is_reserved":false,"is_disabled":false,"rental_uris":{"android":"levelo://app?vid=386f1122-3fbf-4166-ae01-85ee40363016","ios":"levelo://app?vid=386f1122-3fbf-4166-ae01-85ee40363016"},"vehicle_type_id":"4","last_reported":1733901012,"current_range_meters":27200,"station_id":"ce4bhn92rcd13ifvqgrg","pricing_plan_id":"cebpf4jnsgd1na2vs0mg"},{"bike_id":"3bea9990-ea5b-4856-ad70-9dacc7014bdf","system_id":"levelo_inurba_marseille","lat":43.2695,"lon":5.38637,"is_reserved":false,"is_disabled":false,"rental_uris":{"android":"levelo://app?vid=3bea9990-ea5b-4856-ad70-9dacc7014bdf","ios":"levelo://app?vid=3bea9990-ea5b-4856-ad70-9dacc7014bdf"},"vehicle_type_id":"4","last_reported":1733901012,"current_range_meters":30800,"station_id":"ce4bhh92rcd13ifvqfh0","pricing_plan_id":"cebpf4jnsgd1na2vs0mg"},{"bike_id":"d37505c6-b70c-4805-a713-080bb7a6e250","system_id":"levelo_inurba_marseille","lat":43.30217,"lon":5.39466,"is_reserved":false,"is_disabled":false,"rental_uris":{"android":"levelo://app?vid=d37505c6-b70c-4805-a713-080bb7a6e250","ios":"levelo://app?vid=d37505c6-b70c-4805-a713-080bb7a6e250"},"vehicle_type_id":"4","last_reported":1733901012,"current_range_meters":17600,"station_id":"ce4bh0p2rcd13ifvqd70","pricing_plan_id":"cebpf4jnsgd1na2vs0mg"},{"bike_id":"fffa14be-58a4-4d6c-9582-c535b5f77ae9","system_id":"levelo_inurba_marseille","lat":43.27369,"lon":5.36259,"is_reserved":false,"is_disabled":false,"rental_uris":{"android":"levelo://app?vid=fffa14be-58a4-4d6c-9582-c535b5f77ae9","ios":"levelo://app?vid=fffa14be-58a4-4d6c-9582-c535b5f77ae9"},"vehicle_type_id":"4","last_reported":1733901012,"current_range_meters":36400,"station_id":"ce4bhbh2rcd13ifvqeo0","pricing_plan_id":"cebpf4jnsgd1na2vs0mg"},{"bike_id":"3933b701-ca82-4b18-a882-72a61c67a1e4","system_id":"levelo_inurba_marseille","lat":43.24391,"lon":5.37064,"is_reserved":false,"is_disabled":true,"rental_uris":{"android":"levelo://app?vid=3933b701-ca82-4b18-a882-72a61c67a1e4","ios":"levelo://app?vid=3933b701-ca82-4b18-a882-72a61c67a1e4"},"vehicle_type_id":"4","last_reported":1733901012,"current_range_meters":33600,"station_id":"ce4bhhh2rcd13ifvqfk0","pricing_plan_id":"cebpf4jnsgd1na2vs0mg"},{"bike_id":"7de847b5-999b-4ee8-b873-79a7cb7ea90c","system_id":"levelo_inurba_marseille","lat":43.26249,"lon":5.39138,"is_reserved":false,"is_disabled":true,"rental_uris":{"android":"levelo://app?vid=7de847b5-999b-4ee8-b873-79a7cb7ea90c","ios":"levelo://app?vid=7de847b5-999b-4ee8-b873-79a7cb7ea90c"},"vehicle_type_id":"4","last_reported":1733901012,"current_range_meters":0,"station_id":"","pricing_plan_id":"cebpf4jnsgd1na2vs0mg"},{"bike_id":"68bfae8d-19d9-4003-9ce9-12c25e3707cb","system_id":"levelo_inurba_marseille","lat":43.27569,"lon":5.38422,"is_reserved":false,"is_disabled":false,"rental_uris":{"android":"levelo://app?vid=68bfae8d-19d9-4003-9ce9-12c25e3707cb","ios":"levelo://app?vid=68bfae8d-19d9-4003-9ce9-12c25e3707cb"},"vehicle_type_id":"4","last_reported":1733901012,"current_range_meters":26000,"station_id":"ce4bhh92rcd13ifvqfi0","pricing_plan_id":"cebpf4jnsgd1na2vs0mg"},{"bike_id":"3ee53c11-64f9-4193-a979-ade9ac0aac42","system_id":"levelo_inurba_marseille","lat":43.24064,"lon":5.37806,"is_reserved":false,"is_disabled":false,"rental_uris":{"android":"levelo://app?vid=3ee53c11-64f9-4193-a979-ade9ac0aac42","ios":"levelo://app?vid=3ee53c11-64f9-4193-a979-ade9ac0aac42"},"vehicle_type_id":"4","last_reported":1733901012,"current_range_meters":36400,"station_id":"ce4bhnp2rcd13ifvqgvg","pricing_plan_id":"cebpf4jnsgd1na2vs0mg"},{"bike_id":"ea2ab3c6-edcd-41ab-b379-919efeaa92f3","system_id":"levelo_inurba_marseille","lat":43.27324,"lon":5.3855,"is_reserved":false,"is_disabled":false,"rental_uris":{"android":"levelo://app?vid=ea2ab3c6-edcd-41ab-b379-919efeaa92f3","ios":"levelo://app?vid=ea2ab3c6-edcd-41ab-b379-919efeaa92f3"},"vehicle_type_id":"4","last_reported":1733901012,"current_range_meters":34000,"station_id":"","pricing_plan_id":"cebpf4jnsgd1na2vs0mg"},{"bike_id":"862d10f1-cbd7-4706-8e79-a636ce7d055f","system_id":"levelo_inurba_marseille","lat":43.30275,"lon":5.37703,"is_reserved":false,"is_disabled":false,"rental_uris":{"android":"levelo://app?vid=862d10f1-cbd7-4706-8e79-a636ce7d055f","ios":"levelo://app?vid=862d10f1-cbd7-4706-8e79-a636ce7d055f"},"vehicle_type_id":"4","last_reported":1733901012,"current_range_meters":28000,"station_id":"ce4bguh2rcd13ifvqcj0","pricing_plan_id":"cebpf4jnsgd1na2vs0mg"},{"bike_id":"ade46800-cae1-4c8d-9ee9-1ccb4e1df585","system_id":"levelo_inurba_marseille","lat":43.28895,"lon":5.36052,"is_reserved":false,"is_disabled":false,"rental_uris":{"android":"levelo://app?vid=ade46800-cae1-4c8d-9ee9-1ccb4e1df585","ios":"levelo://app?vid=ade46800-cae1-4c8d-9ee9-1ccb4e1df585"},"vehicle_type_id":"4","last_reported":1733901012,"current_range_meters":9600,"station_id":"","pricing_plan_id":"cebpf4jnsgd1na2vs0mg"},{"bike_id":"6385dde9-800e-41b0-a7a1-04769e7a0dba","system_id":"levelo_inurba_marseille","lat":43.304605,"lon":5.379073,"is_reserved":false,"is_disabled":false,"rental_uris":{"android":"levelo://app?vid=6385dde9-800e-41b0-a7a1-04769e7a0dba","ios":"levelo://app?vid=6385dde9-800e-41b0-a7a1-04769e7a0dba"},"vehicle_type_id":"4","last_reported":1733901012,"current_range_meters":12000,"station_id":"ce4bgup2rcd13ifvqcn0","pricing_plan_id":"cebpf4jnsgd1na2vs0mg"},{"bike_id":"0746aab4-0aa3-41a2-9c13-38989b98cf94","system_id":"levelo_inurba_marseille","lat":43.3108,"lon":5.42433,"is_reserved":false,"is_disabled":false,"rental_uris":{"android":"levelo://app?vid=0746aab4-0aa3-41a2-9c13-38989b98cf94","ios":"levelo://app?vid=0746aab4-0aa3-41a2-9c13-38989b98cf94"},"vehicle_type_id":"4","last_reported":1733901012,"current_range_meters":6400,"station_id":"ce4bhp92rcd13ifvqhag","pricing_plan_id":"cebpf4jnsgd1na2vs0mg"},{"bike_id":"6a42e58e-c645-441f-b17e-8a85de1518fb","system_id":"levelo_inurba_marseille","lat":43.30159,"lon":5.38085,"is_reserved":false,"is_disabled":false,"rental_uris":{"android":"levelo://app?vid=6a42e58e-c645-441f-b17e-8a85de1518fb","ios":"levelo://app?vid=6a42e58e-c645-441f-b17e-8a85de1518fb"},"vehicle_type_id":"4","last_reported":1733901012,"current_range_meters":36800,"station_id":"ce4bgjp2rcd13ifvqbh0","pricing_plan_id":"cebpf4jnsgd1na2vs0mg"},{"bike_id":"6149d10a-ee53-4413-9592-38357ced78cb","system_id":"levelo_inurba_marseille","lat":43.26192,"lon":5.37447,"is_reserved":false,"is_disabled":true,"rental_uris":{"android":"levelo://app?vid=6149d10a-ee53-4413-9592-38357ced78cb","ios":"levelo://app?vid=6149d10a-ee53-4413-9592-38357ced78cb"},"vehicle_type_id":"4","last_reported":1733901012,"current_range_meters":31200,"station_id":"ce4bhgp2rcd13ifvqfc0","pricing_plan_id":"cebpf4jnsgd1na2vs0mg"},{"bike_id":"9c30bc95-f816-4d44-a149-d5de28559493","system_id":"levelo_inurba_marseille","lat":43.29576,"lon":5.39989,"is_reserved":false,"is_disabled":false,"rental_uris":{"android":"levelo://app?vid=9c30bc95-f816-4d44-a149-d5de28559493","ios":"levelo://app?vid=9c30bc95-f816-4d44-a149-d5de28559493"},