{"last_updated":1722031737,"ttl":30,"version":"2.2","data":{"bikes":[{"bike_id":"d760d7e7-5e4a-4d9e-aaef-5cb82edc4fc0","system_id":"levelo_inurba_marseille","lat":43.313391,"lon":5.36706,"is_reserved":false,"is_disabled":false,"rental_uris":{"android":"levelo://app?vid=d760d7e7-5e4a-4d9e-aaef-5cb82edc4fc0","ios":"levelo://app?vid=d760d7e7-5e4a-4d9e-aaef-5cb82edc4fc0"},"vehicle_type_id":"4","last_reported":1722031737,"current_range_meters":28000,"station_id":"ce4bgr92rcd13ifvqc6g","pricing_plan_id":"cebpf4jnsgd1na2vs0mg"},{"bike_id":"229bab48-6424-4a42-9759-819f9e99cf13","system_id":"levelo_inurba_marseille","lat":43.313391,"lon":5.36706,"is_reserved":false,"is_disabled":false,"rental_uris":{"android":"levelo://app?vid=229bab48-6424-4a42-9759-819f9e99cf13","ios":"levelo://app?vid=229bab48-6424-4a42-9759-819f9e99cf13"},"vehicle_type_id":"4","last_reported":1722031737,"current_range_meters":18000,"station_id":"ce4bgr92rcd13ifvqc6g","pricing_plan_id":"cebpf4jnsgd1na2vs0mg"},{"bike_id":"fe38bfd0-020c-46ee-a931-baf8ce86a916","system_id":"levelo_inurba_marseille","lat":43.312239,"lon":5.368562,"is_reserved":false,"is_disabled":false,"rental_uris":{"android":"levelo://app?vid=fe38bfd0-020c-46ee-a931-baf8ce86a916","ios":"levelo://app?vid=fe38bfd0-020c-46ee-a931-baf8ce86a916"},"vehicle_type_id":"4","last_reported":1722031737,"current_range_meters":28400,"station_id":"ce4bgl92rcd13ifvqbq0","pricing_plan_id":"cebpf4jnsgd1na2vs0mg"},{"bike_id":"9bc62beb-2798-4071-9c82-f0dcdb734038","system_id":"levelo_inurba_marseille","lat":43.312239,"lon":5.368562,"is_reserved":false,"is_disabled":false,"rental_uris":{"android":"levelo://app?vid=9bc62beb-2798-4071-9c82-f0dcdb734038","ios":"levelo://app?vid=9bc62beb-2798-4071-9c82-f0dcdb734038"},"vehicle_type_id":"4","last_reported":1722031737,"current_range_meters":29600,"station_id":"ce4bgl92rcd13ifvqbq0","pricing_plan_id":"cebpf4jnsgd1na2vs0mg"},{"bike_id":"5ca66068-f8b5-4e38-95be-15f2af213047","system_id":"levelo_inurba_marseille","lat":43.312239,"lon":5.368562,"is_reserved":false,"is_disabled":false,"rental_uris":{"android":"levelo://app?vid=5ca66068-f8b5-4e38-95be-15f2af213047","ios":"levelo://app?vid=5ca66068-f8b5-4e38-95be-15f2af213047"},"vehicle_type_id":"4","last_reported":1722031737,"current_range_meters":0,"station_id":"ce4bgl92rcd13ifvqbq0","pricing_plan_id":"cebpf4jnsgd1na2vs0mg"},{"bike_id":"4b16d355-333d-4cb0-a7bc-c3b3565e9b18","system_id":"levelo_inurba_marseille","lat":43.312239,"lon":5.368562,"is_reserved":false,"is_disabled":false,"rental_uris":{"android":"levelo://app?vid=4b16d355-333d-4cb0-a7bc-c3b3565e9b18","ios":"levelo://app?vid=4b16d355-333d-4cb0-a7bc-c3b3565e9b18"},"vehicle_type_id":"4","last_reported":1722031737,"current_range_meters":20000,"station_id":"ce4bgl92rcd13ifvqbq0","pricing_plan_id":"cebpf4jnsgd1na2vs0mg"},{"bike_id":"257ddef6-2fee-4c2a-901a-fd00304374b5","system_id":"levelo_inurba_marseille","lat":43.312239,"lon":5.368562,"is_reserved":false,"is_disabled":false,"rental_uris":{"android":"levelo://app?vid=257ddef6-2fee-4c2a-901a-fd00304374b5","ios":"levelo://app?vid=257ddef6-2fee-4c2a-901a-fd00304374b5"},"vehicle_type_id":"4","last_reported":1722031737,"current_range_meters":22800,"station_id":"ce4bgl92rcd13ifvqbq0","pricing_plan_id":"cebpf4jnsgd1na2vs0mg"},{"bike_id":"405952b8-8db5-46cd-ad78-58a9e83efee5","system_id":"levelo_inurba_marseille","lat":43.312239,"lon":5.368562,"is_reserved":false,"is_disabled":false,"rental_uris":{"android":"levelo://app?vid=405952b8-8db5-46cd-ad78-58a9e83efee5","ios":"levelo://app?vid=405952b8-8db5-46cd-ad78-58a9e83efee5"},"vehicle_type_id":"4","last_reported":1722031737,"current_range_meters":5600,"station_id":"ce4bgl92rcd13ifvqbq0","pricing_plan_id":"cebpf4jnsgd1na2vs0mg"},{"bike_id":"5080d7d5-9eea-4209-80ea-9bc915ca1c06","system_id":"levelo_inurba_marseille","lat":43.3091,"lon":5.36868,"is_reserved":false,"is_disabled":false,"rental_uris":{"android":"levelo://app?vid=5080d7d5-9eea-4209-80ea-9bc915ca1c06","ios":"levelo://app?vid=5080d7d5-9eea-4209-80ea-9bc915ca1c06"},"vehicle_type_id":"4","last_reported":1722031737,"current_range_meters":4000,"station_id":"ce4bgn92rcd13ifvqbvg","pricing_plan_id":"cebpf4jnsgd1na2vs0mg"},{"bike_id":"22cef514-1fea-4453-878f-f5e573337247","system_id":"levelo_inurba_marseille","lat":43.314811,"lon":5.373104,"is_reserved":false,"is_disabled":false,"rental_uris":{"android":"levelo://app?vid=22cef514-1fea-4453-878f-f5e573337247","ios":"levelo://app?vid=22cef514-1fea-4453-878f-f5e573337247"},"vehicle_type_id":"4","last_reported":1722031737,"current_range_meters":1200,"station_id":"ce4bgt12rcd13ifvqcd0","pricing_plan_id":"cebpf4jnsgd1na2vs0mg"},{"bike_id":"b6c37983-add0-4bf3-8dea-e38d83f5b7f7","system_id":"levelo_inurba_marseille","lat":43.314811,"lon":5.373104,"is_reserved":false,"is_disabled":false,"rental_uris":{"android":"levelo://app?vid=b6c37983-add0-4bf3-8dea-e38d83f5b7f7","ios":"levelo://app?vid=b6c37983-add0-4bf3-8dea-e38d83f5b7f7"},"vehicle_type_id":"4","last_reported":1722031737,"current_range_meters":12000,"station_id":"ce4bgt12rcd13ifvqcd0","pricing_plan_id":"cebpf4jnsgd1na2vs0mg"},{"bike_id":"82cb3b51-70b5-42bb-ad2f-dcf98843a9e5","system_id":"levelo_inurba_marseille","lat":43.314811,"lon":5.373104,"is_reserved":false,"is_disabled":false,"rental_uris":{"android":"levelo://app?vid=82cb3b51-70b5-42bb-ad2f-dcf98843a9e5","ios":"levelo://app?vid=82cb3b51-70b5-42bb-ad2f-dcf98843a9e5"},"vehicle_type_id":"4","last_reported":1722031737,"current_range_meters":4000,"station_id":"ce4bgt12rcd13ifvqcd0","pricing_plan_id":"cebpf4jnsgd1na2vs0mg"},{"bike_id":"092e4668-ae04-4088-a3eb-ad414df2fc78","system_id":"levelo_inurba_marseille","lat":43.31458,"lon":5.3735,"is_reserved":false,"is_disabled":false,"rental_uris":{"android":"levelo://app?vid=092e4668-ae04-4088-a3eb-ad414df2fc78","ios":"levelo://app?vid=092e4668-ae04-4088-a3eb-ad414df2fc78"},"vehicle_type_id":"4","last_reported":1722031737,"current_range_meters":25200,"station_id":"","pricing_plan_id":"cebpf4jnsgd1na2vs0mg"},{"bike_id":"7d1c55c1-60aa-461e-867f-f2041f8aaab4","system_id":"levelo_inurba_marseille","lat":43.30894,"lon":5.37191,"is_reserved":false,"is_disabled":false,"rental_uris":{"android":"levelo://app?vid=7d1c55c1-60aa-461e-867f-f2041f8aaab4","ios":"levelo://app?vid=7d1c55c1-60aa-461e-867f-f2041f8aaab4"},"vehicle_type_id":"4","last_reported":1722031737,"current_range_meters":2000,"station_id":"ce4bguh2rcd13ifvqckg","pricing_plan_id":"cebpf4jnsgd1na2vs0mg"},{"bike_id":"35f9aaa0-f749-4115-a694-d5f5bea4e016","system_id":"levelo_inurba_marseille","lat":43.309034,"lon":5.371783,"is_reserved":false,"is_disabled":false,"rental_uris":{"android":"levelo://app?vid=35f9aaa0-f749-4115-a694-d5f5bea4e016","ios":"levelo://app?vid=35f9aaa0-f749-4115-a694-d5f5bea4e016"},"vehicle_type_id":"4","last_reported":1722031737,"current_range_meters":14400,"station_id":"ce4bguh2rcd13ifvqckg","pricing_plan_id":"cebpf4jnsgd1na2vs0mg"},{"bike_id":"f16ccba0-696a-45b1-9caa-febd2a1bf99c","system_id":"levelo_inurba_marseille","lat":43.309034,"lon":5.371783,"is_reserved":false,"is_disabled":false,"rental_uris":{"android":"levelo://app?vid=f16ccba0-696a-45b1-9caa-febd2a1bf99c","ios":"levelo://app?vid=f16ccba0-696a-45b1-9caa-febd2a1bf99c"},"vehicle_type_id":"4","last_reported":1722031737,"current_range_meters":1600,"station_id":"ce4bguh2rcd13ifvqckg","pricing_plan_id":"cebpf4jnsgd1na2vs0mg"},{"bike_id":"fe7001ab-d63b-4a47-bc3d-9d92f59768b9","system_id":"levelo_inurba_marseille","lat":43.309034,"lon":5.371783,"is_reserved":false,"is_disabled":false,"rental_uris":{"android":"levelo://app?vid=fe7001ab-d63b-4a47-bc3d-9d92f59768b9","ios":"levelo://app?vid=fe7001ab-d63b-4a47-bc3d-9d92f59768b9"},"vehicle_type_id":"4","last_reported":1722031737,"current_range_meters":10800,"station_id":"ce4bguh2rcd13ifvqckg","pricing_plan_id":"cebpf4jnsgd1na2vs0mg"},{"bike_id":"39cc1fdd-0e96-43ac-b75d-48f4f503fb7b","system_id":"levelo_inurba_marseille","lat":43.309034,"lon":5.371783,"is_reserved":false,"is_disabled":false,"rental_uris":{"android":"levelo://app?vid=39cc1fdd-0e96-43ac-b75d-48f4f503fb7b","ios":"levelo://app?vid=39cc1fdd-0e96-43ac-b75d-48f4f503fb7b"},"vehicle_type_id":"4","last_reported":1722031737,"current_range_meters":14400,"station_id":"ce4bguh2rcd13ifvqckg","pricing_plan_id":"cebpf4jnsgd1na2vs0mg"},{"bike_id":"6e3f9406-93dc-4c7c-8952-374fcd316e96","system_id":"levelo_inurba_marseille","lat":43.309034,"lon":5.371783,"is_reserved":false,"is_disabled":false,"rental_uris":{"android":"levelo://app?vid=6e3f9406-93dc-4c7c-8952-374fcd316e96","ios":"levelo://app?vid=6e3f9406-93dc-4c7c-8952-374fcd316e96"},"vehicle_type_id":"4","last_reported":1722031737,"current_range_meters":6000,"station_id":"ce4bguh2rcd13ifvqckg","pricing_plan_id":"cebpf4jnsgd1na2vs0mg"},{"bike_id":"22c5cabb-658c-4f8d-9d74-455790a7d9e1","system_id":"levelo_inurba_marseille","lat":43.307487,"lon":5.37215,"is_reserved":false,"is_disabled":false,"rental_uris":{"android":"levelo://app?vid=22c5cabb-658c-4f8d-9d74-455790a7d9e1","ios":"levelo://app?vid=22c5cabb-658c-4f8d-9d74-455790a7d9e1"},"vehicle_type_id":"4","last_reported":1722031737,"current_range_meters":14800,"station_id":"","pricing_plan_id":"cebpf4jnsgd1na2vs0mg"},{"bike_id":"1ef70904-19f5-42a7-a1bd-fa2d73cdcab5","system_id":"levelo_inurba_marseille","lat":43.316698,"lon":5.375208,"is_reserved":false,"is_disabled":false,"rental_uris":{"android":"levelo://app?vid=1ef70904-19f5-42a7-a1bd-fa2d73cdcab5","ios":"levelo://app?vid=1ef70904-19f5-42a7-a1bd-fa2d73cdcab5"},"vehicle_type_id":"4","last_reported":1722031737,"current_range_meters":2400,"station_id":"","pricing_plan_id":"cebpf4jnsgd1na2vs0mg"},{"bike_id":"bdc12b36-c00c-4153-808f-f420505de403","system_id":"levelo_inurba_marseille","lat":43.305504,"lon":5.365484,"is_reserved":false,"is_disabled":false,"rental_uris":{"android":"levelo://app?vid=bdc12b36-c00c-4153-808f-f420505de403","ios":"levelo://app?vid=bdc12b36-c00c-4153-808f-f420505de403"},"vehicle_type_id":"4","last_reported":1722031737,"current_range_meters":0,"station_id":"","pricing_plan_id":"cebpf4jnsgd1na2vs0mg"},{"bike_id":"b081e630-dfdc-427e-8220-415810609843","system_id":"levelo_inurba_marseille","lat":43.305368,"lon":5.367343,"is_reserved":false,"is_disabled":false,"rental_uris":{"android":"levelo://app?vid=b081e630-dfdc-427e-8220-415810609843","ios":"levelo://app?vid=b081e630-dfdc-427e-8220-415810609843"},"vehicle_type_id":"4","last_reported":1722031737,"current_range_meters":30000,"station_id":"ce4bgrp2rcd13ifvqc9g","pricing_plan_id":"cebpf4jnsgd1na2vs0mg"},{"bike_id":"50c5ba24-1607-4eee-8515-e0d13529a4fd","system_id":"levelo_inurba_marseille","lat":43.305714,"lon":5.365633,"is_reserved":false,"is_disabled":false,"rental_uris":{"android":"levelo://app?vid=50c5ba24-1607-4eee-8515-e0d13529a4fd","ios":"levelo://app?vid=50c5ba24-1607-4eee-8515-e0d13529a4fd"},"vehicle_type_id":"4","last_reported":1722031737,"current_range_meters":28000,"station_id":"ce4bgs12rcd13ifvqcag","pricing_plan_id":"cebpf4jnsgd1na2vs0mg"},{"bike_id":"2ad426f8-afcc-4211-802f-de76d6a9216c","system_id":"levelo_inurba_marseille","lat":43.30597,"lon":5.37216,"is_reserved":false,"is_disabled":false,"rental_uris":{"android":"levelo://app?vid=2ad426f8-afcc-4211-802f-de76d6a9216c","ios":"levelo://app?vid=2ad426f8-afcc-4211-802f-de76d6a9216c"},"vehicle_type_id":"4","last_reported":1722031737,"current_range_meters":13200,"station_id":"ce4bgqh2rcd13ifvqc4g","pricing_plan_id":"cebpf4jnsgd1na2vs0mg"},{"bike_id":"d7b6b277-c648-49c7-a452-4bee12a675f6","system_id":"levelo_inurba_marseille","lat":43.30588,"lon":5.37222,"is_reserved":false,"is_disabled":false,"rental_uris":{"android":"levelo://app?vid=d7b6b277-c648-49c7-a452-4bee12a675f6","ios":"levelo://app?vid=d7b6b277-c648-49c7-a452-4bee12a675f6"},"vehicle_type_id":"4","last_reported":1722031737,"current_range_meters":16400,"station_id":"ce4bgqh2rcd13ifvqc4g","pricing_plan_id":"cebpf4jnsgd1na2vs0mg"},{"bike_id":"3d5423bc-3e2d-44b7-8444-a7b6961fcd40","system_id":"levelo_inurba_marseille","lat":43.305989,"lon":5.37225,"is_reserved":false,"is_disabled":false,"rental_uris":{"android":"levelo://app?vid=3d5423bc-3e2d-44b7-8444-a7b6961fcd40","ios":"levelo://app?vid=3d5423bc-3e2d-44b7-8444-a7b6961fcd40"},"vehicle_type_id":"4","last_reported":1722031737,"current_range_meters":2800,"station_id":"ce4bgqh2rcd13ifvqc4g","pricing_plan_id":"cebpf4jnsgd1na2vs0mg"},{"bike_id":"8eb3f3a2-1653-42a6-9873-0a21922a78e3","system_id":"levelo_inurba_marseille","lat":43.305989,"lon":5.37225,"is_reserved":false,"is_disabled":false,"rental_uris":{"android":"levelo://app?vid=8eb3f3a2-1653-42a6-9873-0a21922a78e3","ios":"levelo://app?vid=8eb3f3a2-1653-42a6-9873-0a21922a78e3"},"vehicle_type_id":"4","last_reported":1722031737,"current_range_meters":9200,"station_id":"ce4bgqh2rcd13ifvqc4g","pricing_plan_id":"cebpf4jnsgd1na2vs0mg"},{"bike_id":"047c57dd-fa8b-4e37-aab3-ea498a210c35","system_id":"levelo_inurba_marseille","lat":43.311131,"lon":5.377651,"is_reserved":false,"is_disabled":false,"rental_uris":{"android":"levelo://app?vid=047c57dd-fa8b-4e37-aab3-ea498a210c35","ios":"levelo://app?vid=047c57dd-fa8b-4e37-aab3-ea498a210c35"},"vehicle_type_id":"4","last_reported":1722031737,"current_range_meters":3600,"station_id":"ce4bgt92rcd13ifvqcg0","pricing_plan_id":"cebpf4jnsgd1na2vs0mg"},{"bike_id":"921c978d-8531-4802-aae6-9a0708336f63","system_id":"levelo_inurba_marseille","lat":43.311131,"lon":5.377651,"is_reserved":false,"is_disabled":false,"rental_uris":{"android":"levelo://app?vid=921c978d-8531-4802-aae6-9a0708336f63","ios":"levelo://app?vid=921c978d-8531-4802-aae6-9a0708336f63"},"vehicle_type_id":"4","last_reported":1722031737,"current_range_meters":11600,"station_id":"ce4bgt92rcd13ifvqcg0","pricing_plan_id":"cebpf4jnsgd1na2vs0mg"},{"bike_id":"f29b5fe1-674b-4778-a40c-299e14df06c3","system_id":"levelo_inurba_marseille","lat":43.307945,"lon":5.376487,"is_reserved":false,"is_disabled":false,"rental_uris":{"android":"levelo://app?vid=f29b5fe1-674b-4778-a40c-299e14df06c3","ios":"levelo://app?vid=f29b5fe1-674b-4778-a40c-299e14df06c3"},"vehicle_type_id":"4","last_reported":1722031737,"current_range_meters":8000,"station_id":"ce4bgv92rcd13ifvqcq0","pricing_plan_id":"cebpf4jnsgd1na2vs0mg"},{"bike_id":"b044547b-8ee4-42d8-b38a-cd75ee300a8b","system_id":"levelo_inurba_marseille","lat":43.307945,"lon":5.376487,"is_reserved":false,"is_disabled":false,"rental_uris":{"android":"levelo://app?vid=b044547b-8ee4-42d8-b38a-cd75ee300a8b","ios":"levelo://app?vid=b044547b-8ee4-42d8-b38a-cd75ee300a8b"},"vehicle_type_id":"4","last_reported":1722031737,"current_range_meters":27600,"station_id":"ce4bgv92rcd13ifvqcq0","pricing_plan_id":"cebpf4jnsgd1na2vs0mg"},{"bike_id":"d2093f39-e1b1-4823-84d4-b22d5dfb4948","system_id":"levelo_inurba_marseille","lat":43.307945,"lon":5.376487,"is_reserved":false,"is_disabled":false,"rental_uris":{"android":"levelo://app?vid=d2093f39-e1b1-4823-84d4-b22d5dfb4948","ios":"levelo://app?vid=d2093f39-e1b1-4823-84d4-b22d5dfb4948"},"vehicle_type_id":"4","last_reported":1722031737,"current_range_meters":0,"station_id":"ce4bgv92rcd13ifvqcq0","pricing_plan_id":"cebpf4jnsgd1na2vs0mg"},{"bike_id":"88f181ea-3a62-4cdf-9e2b-76a6f69d61af","system_id":"levelo_inurba_marseille","lat":43.317075,"lon":5.377367,"is_reserved":false,"is_disabled":false,"rental_uris":{"android":"levelo://app?vid=88f181ea-3a62-4cdf-9e2b-76a6f69d61af","ios":"levelo://app?vid=88f181ea-3a62-4cdf-9e2b-76a6f69d61af"},"vehicle_type_id":"4","last_reported":1722031737,"current_range_meters":6800,"station_id":"ce4bgth2rcd13ifvqch0","pricing_plan_id":"cebpf4jnsgd1na2vs0mg"},{"bike_id":"7c050a79-cf07-4647-8e19-3949864699c8","system_id":"levelo_inurba_marseille","lat":43.317075,"lon":5.377367,"is_reserved":false,"is_disabled":false,"rental_uris":{"android":"levelo://app?vid=7c050a79-cf07-4647-8e19-3949864699c8","ios":"levelo://app?vid=7c050a79-cf07-4647-8e19-3949864699c8"},"vehicle_type_id":"4","last_reported":1722031737,"current_range_meters":5600,"station_id":"ce4bgth2rcd13ifvqch0","pricing_plan_id":"cebpf4jnsgd1na2vs0mg"},{"bike_id":"b2a00d4f-5014-4dcf-a9e1-32f776220b9e","system_id":"levelo_inurba_marseille","lat":43.317075,"lon":5.377367,"is_reserved":false,"is_disabled":false,"rental_uris":{"android":"levelo://app?vid=b2a00d4f-5014-4dcf-a9e1-32f776220b9e","ios":"levelo://app?vid=b2a00d4f-5014-4dcf-a9e1-32f776220b9e"},"vehicle_type_id":"4","last_reported":1722031737,"current_range_meters":19600,"station_id":"ce4bgth2rcd13ifvqch0","pricing_plan_id":"cebpf4jnsgd1na2vs0mg"},{"bike_id":"065d0955-471d-42b1-a26c-138008307373","system_id":"levelo_inurba_marseille","lat":43.3172,"lon":5.37762,"is_reserved":false,"is_disabled":false,"rental_uris":{"android":"levelo://app?vid=065d0955-471d-42b1-a26c-138008307373","ios":"levelo://app?vid=065d0955-471d-42b1-a26c-138008307373"},"vehicle_type_id":"4","last_reported":1722031737,"current_range_meters":9600,"station_id":"ce4bgth2rcd13ifvqch0","pricing_plan_id":"cebpf4jnsgd1na2vs0mg"},{"bike_id":"609b634f-c714-4987-a41d-f320976a30d7","system_id":"levelo_inurba_marseille","lat":43.30304,"lon":5.368987,"is_reserved":false,"is_disabled":false,"rental_uris":{"android":"levelo://app?vid=609b634f-c714-4987-a41d-f320976a30d7","ios":"levelo://app?vid=609b634f-c714-4987-a41d-f320976a30d7"},"vehicle_type_id":"4","last_reported":1722031737,"current_range_meters":5200,"station_id":"ce4bgqh2rcd13ifvqc5g","pricing_plan_id":"cebpf4jnsgd1na2vs0mg"},{"bike_id":"40b376d7-bcf9-45af-a515-a451c36c6ee7","system_id":"levelo_inurba_marseille","lat":43.303046,"lon":5.368981,"is_reserved":false,"is_disabled":false,"rental_uris":{"android":"levelo://app?vid=40b376d7-bcf9-45af-a515-a451c36c6ee7","ios":"levelo://app?vid=40b376d7-bcf9-45af-a515-a451c36c6ee7"},"vehicle_type_id":"4","last_reported":1722031737,"current_range_meters":18000,"station_id":"ce4bgqh2rcd13ifvqc5g","pricing_plan_id":"cebpf4jnsgd1na2vs0mg"},{"bike_id":"8ec5c2ef-3121-4b95-a906-a055d16291d7","system_id":"levelo_inurba_marseille","lat":43.301939,"lon":5.366286,"is_reserved":false,"is_disabled":false,"rental_uris":{"android":"levelo://app?vid=8ec5c2ef-3121-4b95-a906-a055d16291d7","ios":"levelo://app?vid=8ec5c2ef-3121-4b95-a906-a055d16291d7"},"vehicle_type_id":"4","last_reported":1722031737,"current_range_meters":22400,"station_id":"ce4bgrh2rcd13ifvqc8g","pricing_plan_id":"cebpf4jnsgd1na2vs0mg"},{"bike_id":"63629011-c850-4283-8de7-e4d2a38d5425","system_id":"levelo_inurba_marseille","lat":43.301939,"lon":5.366286,"is_reserved":false,"is_disabled":false,"rental_uris":{"android":"levelo://app?vid=63629011-c850-4283-8de7-e4d2a38d5425","ios":"levelo://app?vid=63629011-c850-4283-8de7-e4d2a38d5425"},"vehicle_type_id":"4","last_reported":1722031737,"current_range_meters":16000,"station_id":"ce4bgrh2rcd13ifvqc8g","pricing_plan_id":"cebpf4jnsgd1na2vs0mg"},{"bike_id":"e6c3e1aa-22c6-426c-a54b-957dd79b6844","system_id":"levelo_inurba_marseille","lat":43.301939,"lon":5.366286,"is_reserved":false,"is_disabled":false,"rental_uris":{"android":"levelo://app?vid=e6c3e1aa-22c6-426c-a54b-957dd79b6844","ios":"levelo://app?vid=e6c3e1aa-22c6-426c-a54b-957dd79b6844"},"vehicle_type_id":"4","last_reported":1722031737,"current_range_meters":30400,"station_id":"ce4bgrh2rcd13ifvqc8g","pricing_plan_id":"cebpf4jnsgd1na2vs0mg"},{"bike_id":"8924e2f7-926d-474d-b714-84b50dbdfe0e","system_id":"levelo_inurba_marseille","lat":43.301939,"lon":5.366286,"is_reserved":false,"is_disabled":false,"rental_uris":{"android":"levelo://app?vid=8924e2f7-926d-474d-b714-84b50dbdfe0e","ios":"levelo://app?vid=8924e2f7-926d-474d-b714-84b50dbdfe0e"},"vehicle_type_id":"4","last_reported":1722031737,"current_range_meters":8400,"station_id":"ce4bgrh2rcd13ifvqc8g","pricing_plan_id":"cebpf4jnsgd1na2vs0mg"},{"bike_id":"0e60ad9e-3ab0-4cc4-a033-112fb1d8d0c8","system_id":"levelo_inurba_marseille","lat":43.30805,"lon":5.38162,"is_reserved":false,"is_disabled":false,"rental_uris":{"android":"levelo://app?vid=0e60ad9e-3ab0-4cc4-a033-112fb1d8d0c8","ios":"levelo://app?vid=0e60ad9e-3ab0-4cc4-a033-112fb1d8d0c8"},"vehicle_type_id":"4","last_reported":1722031737,"current_range_meters":26000,"station_id":"ce4bgt12rcd13ifvqce0","pricing_plan_id":"cebpf4jnsgd1na2vs0mg"},{"bike_id":"920f181c-f542-4abf-8c6f-65c6defa7a83","system_id":"levelo_inurba_marseille","lat":43.308012,"lon":5.381511,"is_reserved":false,"is_disabled":false,"rental_uris":{"android":"levelo://app?vid=920f181c-f542-4abf-8c6f-65c6defa7a83","ios":"levelo://app?vid=920f181c-f542-4abf-8c6f-65c6defa7a83"},"vehicle_type_id":"4","last_reported":1722031737,"current_range_meters":10800,"station_id":"ce4bgt12rcd13ifvqce0","pricing_plan_id":"cebpf4jnsgd1na2vs0mg"},{"bike_id":"da4d432a-190f-4495-8c92-6d27f87ba651","system_id":"levelo_inurba_marseille","lat":43.308012,"lon":5.381511,"is_reserved":false,"is_disabled":false,"rental_uris":{"android":"levelo://app?vid=da4d432a-190f-4495-8c92-6d27f87ba651","ios":"levelo://app?vid=da4d432a-190f-4495-8c92-6d27f87ba651"},"vehicle_type_id":"4","last_reported":1722031737,"current_range_meters":19200,"station_id":"ce4bgt12rcd13ifvqce0","pricing_plan_id":"cebpf4jnsgd1na2vs0mg"},{"bike_id":"91f6a786-61b2-4ed6-ba12-88ddaa955c5d","system_id":"levelo_inurba_marseille","lat":43.304606,"lon":5.379026,"is_reserved":false,"is_disabled":false,"rental_uris":{"android":"levelo://app?vid=91f6a786-61b2-4ed6-ba12-88ddaa955c5d","ios":"levelo://app?vid=91f6a786-61b2-4ed6-ba12-88ddaa955c5d"},"vehicle_type_id":"4","last_reported":1722031737,"current_range_meters":4800,"station_id":"ce4bgup2rcd13ifvqcn0","pricing_plan_id":"cebpf4jnsgd1na2vs0mg"},{"bike_id":"83eb01fd-9496-40e2-9629-2d91058fdc6c","system_id":"levelo_inurba_marseille","lat":43.304606,"lon":5.379026,"is_reserved":false,"is_disabled":false,"rental_uris":{"android":"levelo://app?vid=83eb01fd-9496-40e2-9629-2d91058fdc6c","ios":"levelo://app?vid=83eb01fd-9496-40e2-9629-2d91058fdc6c"},"vehicle_type_id":"4","last_reported":1722031737,"current_range_meters":14800,"station_id":"ce4bgup2rcd13ifvqcn0","pricing_plan_id":"cebpf4jnsgd1na2vs0mg"},{"bike_id":"2fb79667-ea02-4953-87fa-e97ab647561d","system_id":"levelo_inurba_marseille","lat":43.324771,"lon":5.36557,"is_reserved":false,"is_disabled":false,"rental_uris":{"android":"levelo://app?vid=2fb79667-ea02-4953-87fa-e97ab647561d","ios":"levelo://app?vid=2fb79667-ea02-4953-87fa-e97ab647561d"},"vehicle_type_id":"4","last_reported":1722031737,"current_range_meters":31200,"station_id":"ce4bhs12rcd13ifvqhvg","pricing_plan_id":"cebpf4jnsgd1na2vs0mg"},{"bike_id":"58f7cff9-6b83-44ef-82fe-e2bce7435db6","system_id":"levelo_inurba_marseille","lat":43.324771,"lon":5.36557,"is_reserved":false,"is_disabled":false,"rental_uris":{"android":"levelo://app?vid=58f7cff9-6b83-44ef-82fe-e2bce7435db6","ios":"levelo://app?vid=58f7cff9-6b83-44ef-82fe-e2bce7435db6"},"vehicle_type_id":"4","last_reported":1722031737,"current_range_meters":5600,"station_id":"ce4bhs12rcd13ifvqhvg","pricing_plan_id":"cebpf4jnsgd1na2vs0mg"},{"bike_id":"a3bf0a68-c391-44cb-b55c-83569f43e30e","system_id":"levelo_inurba_marseille","lat":43.324771,"lon":5.36557,"is_reserved":false,"is_disabled":false,"rental_uris":{"android":"levelo://app?vid=a3bf0a68-c391-44cb-b55c-83569f43e30e","ios":"levelo://app?vid=a3bf0a68-c391-44cb-b55c-83569f43e30e"},"vehicle_type_id":"4","last_reported":1722031737,"current_range_meters":28000,"station_id":"ce4bhs12rcd13ifvqhvg","pricing_plan_id":"cebpf4jnsgd1na2vs0mg"},{"bike_id":"0cc1511f-db15-4e50-b2d2-7108af5f1ebc","system_id":"levelo_inurba_marseille","lat":43.310804,"lon":5.38359,"is_reserved":false,"is_disabled":false,"rental_uris":{"android":"levelo://app?vid=0cc1511f-db15-4e50-b2d2-7108af5f1ebc","ios":"levelo://app?vid=0cc1511f-db15-4e50-b2d2-7108af5f1ebc"},"vehicle_type_id":"4","last_reported":1722031737,"current_range_meters":24800,"station_id":"ce4bgv92rcd13ifvqcr0","pricing_plan_id":"cebpf4jnsgd1na2vs0mg"},{"bike_id":"e88bc993-8660-4a06-b948-144a97620c9d","system_id":"levelo_inurba_marseille","lat":43.302784,"lon":5.377158,"is_reserved":false,"is_disabled":false,"rental_uris":{"android":"levelo://app?vid=e88bc993-8660-4a06-b948-144a97620c9d","ios":"levelo://app?vid=e88bc993-8660-4a06-b948-144a97620c9d"},"vehicle_type_id":"4","last_reported":1722031737,"current_range_meters":0,"station_id":"ce4bguh2rcd13ifvqcj0","pricing_plan_id":"cebpf4jnsgd1na2vs0mg"},{"bike_id":"fea27f8a-8e1e-4b7f-8093-03f720144abe","system_id":"levelo_inurba_marseille","lat":43.302784,"lon":5.377158,"is_reserved":false,"is_disabled":false,"rental_uris":{"android":"levelo://app?vid=fea27f8a-8e1e-4b7f-8093-03f720144abe","ios":"levelo://app?vid=fea27f8a-8e1e-4b7f-8093-03f720144abe"},"vehicle_type_id":"4","last_reported":1722031737,"current_range_meters":15200,"station_id":"ce4bguh2rcd13ifvqcj0","pricing_plan_id":"cebpf4jnsgd1na2vs0mg"},{"bike_id":"de775a6a-1d52-44bb-83f1-ca78a8d31f57","system_id":"levelo_inurba_marseille","lat":43.30143,"lon":5.37413,"is_reserved":false,"is_disabled":false,"rental_uris":{"android":"levelo://app?vid=de775a6a-1d52-44bb-83f1-ca78a8d31f57","ios":"levelo://app?vid=de775a6a-1d52-44bb-83f1-ca78a8d31f57"},"vehicle_type_id":"4","last_reported":1722031737,"current_range_meters":3600,"station_id":"ce4bgs92rcd13ifvqcc0","pricing_plan_id":"cebpf4jnsgd1na2vs0mg"},{"bike_id":"4068bbec-f0e2-4171-8d51-5cbc13fb8ed9","system_id":"levelo_inurba_marseille","lat":43.30639,"lon":5.38221,"is_reserved":false,"is_disabled":false,"rental_uris":{"android":"levelo://app?vid=4068bbec-f0e2-4171-8d51-5cbc13fb8ed9","ios":"levelo://app?vid=4068bbec-f0e2-4171-8d51-5cbc13fb8ed9"},"vehicle_type_id":"4","last_reported":1722031737,"current_range_meters":3600,"station_id":"","pricing_plan_id":"cebpf4jnsgd1na2vs0mg"},{"bike_id":"ce68c1a1-5682-4153-95b6-0b1999577587","system_id":"levelo_inurba_marseille","lat":43.319935,"lon":5.381699,"is_reserved":false,"is_disabled":false,"rental_uris":{"android":"levelo://app?vid=ce68c1a1-5682-4153-95b6-0b1999577587","ios":"levelo://app?vid=ce68c1a1-5682-4153-95b6-0b1999577587"},"vehicle_type_id":"4","last_reported":1722031737,"current_range_meters":26800,"station_id":"ce4bhr12rcd13ifvqhpg","pricing_plan_id":"cebpf4jnsgd1na2vs0mg"},{"bike_id":"f41f412a-5c09-4387-957f-8841ceab7ae4","system_id":"levelo_inurba_marseille","lat":43.319935,"lon":5.381699,"is_reserved":false,"is_disabled":false,"rental_uris":{"android":"levelo://app?vid=f41f412a-5c09-4387-957f-8841ceab7ae4","ios":"levelo://app?vid=f41f412a-5c09-4387-957f-8841ceab7ae4"},"vehicle_type_id":"4","last_reported":1722031737,"current_range_meters":14800,"station_id":"ce4bhr12rcd13ifvqhpg","pricing_plan_id":"cebpf4jnsgd1na2vs0mg"},{"bike_id":"f6be2394-9d05-42d9-8dee-a3ff976ec855","system_id":"levelo_inurba_marseille","lat":43.319935,"lon":5.381699,"is_reserved":false,"is_disabled":false,"rental_uris":{"android":"levelo://app?vid=f6be2394-9d05-42d9-8dee-a3ff976ec855","ios":"levelo://app?vid=f6be2394-9d05-42d9-8dee-a3ff976ec855"},"vehicle_type_id":"4","last_reported":1722031737,"current_range_meters":28400,"station_id":"ce4bhr12rcd13ifvqhpg","pricing_plan_id":"cebpf4jnsgd1na2vs0mg"},{"bike_id":"c3949623-4f74-44bd-a3a6-37df37a93baf","system_id":"levelo_inurba_marseille","lat":43.319935,"lon":5.381699,"is_reserved":false,"is_disabled":false,"rental_uris":{"android":"levelo://app?vid=c3949623-4f74-44bd-a3a6-37df37a93baf","ios":"levelo://app?vid=c3949623-4f74-44bd-a3a6-37df37a93baf"},"vehicle_type_id":"4","last_reported":1722031737,"current_range_meters":10000,"station_id":"ce4bhr12rcd13ifvqhpg","pricing_plan_id":"cebpf4jnsgd1na2vs0mg"},{"bike_id":"1edb175a-1ec6-4be6-ae24-d8cd91677e9e","system_id":"levelo_inurba_marseille","lat":43.319935,"lon":5.381699,"is_reserved":false,"is_disabled":false,"rental_uris":{"android":"levelo://app?vid=1edb175a-1ec6-4be6-ae24-d8cd91677e9e","ios":"levelo://app?vid=1edb175a-1ec6-4be6-ae24-d8cd91677e9e"},"vehicle_type_id":"4","last_reported":1722031737,"current_range_meters":18800,"station_id":"ce4bhr12rcd13ifvqhpg","pricing_plan_id":"cebpf4jnsgd1na2vs0mg"},{"bike_id":"ad3e30c7-2aba-4fe0-bf63-dd99c078f8a3","system_id":"levelo_inurba_marseille","lat":43.313571,"lon":5.384829,"is_reserved":false,"is_disabled":false,"rental_uris":{"android":"levelo://app?vid=ad3e30c7-2aba-4fe0-bf63-dd99c078f8a3","ios":"levelo://app?vid=ad3e30c7-2aba-4fe0-bf63-dd99c078f8a3"},"vehicle_type_id":"4","last_reported":1722031737,"current_range_meters":2400,"station_id":"ce4bgt92rcd13ifvqcf0","pricing_plan_id":"cebpf4jnsgd1na2vs0mg"},{"bike_id":"ba729d08-4d20-49ec-8597-e0f64b3688da","system_id":"levelo_inurba_marseille","lat":43.313571,"lon":5.384829,"is_reserved":false,"is_disabled":false,"rental_uris":{"android":"levelo://app?vid=ba729d08-4d20-49ec-8597-e0f64b3688da","ios":"levelo://app?vid=ba729d08-4d20-49ec-8597-e0f64b3688da"},"vehicle_type_id":"4","last_reported":1722031737,"current_range_meters":0,"station_id":"ce4bgt92rcd13ifvqcf0","pricing_plan_id":"cebpf4jnsgd1na2vs0mg"},{"bike_id":"e3d8e463-97fd-49f7-81d2-b5d953ff04f3","system_id":"levelo_inurba_marseille","lat":43.313571,"lon":5.384829,"is_reserved":false,"is_disabled":false,"rental_uris":{"android":"levelo://app?vid=e3d8e463-97fd-49f7-81d2-b5d953ff04f3","ios":"levelo://app?vid=e3d8e463-97fd-49f7-81d2-b5d953ff04f3"},"vehicle_type_id":"4","last_reported":1722031737,"current_range_meters":18800,"station_id":"ce4bgt92rcd13ifvqcf0","pricing_plan_id":"cebpf4jnsgd1na2vs0mg"},{"bike_id":"49a963a0-a0e7-4e23-9133-8e5553da2654","system_id":"levelo_inurba_marseille","lat":43.313571,"lon":5.384829,"is_reserved":false,"is_disabled":false,"rental_uris":{"android":"levelo://app?vid=49a963a0-a0e7-4e23-9133-8e5553da2654","ios":"levelo://app?vid=49a963a0-a0e7-4e23-9133-8e5553da2654"},"vehicle_type_id":"4","last_reported":1722031737,"current_range_meters":16000,"station_id":"ce4bgt92rcd13ifvqcf0","pricing_plan_id":"cebpf4jnsgd1na2vs0mg"},{"bike_id":"07be9774-724e-4e11-b7cd-217a27466a1b","system_id":"levelo_inurba_marseille","lat":43.319935,"lon":5.381699,"is_reserved":false,"is_disabled":false,"rental_uris":{"android":"levelo://app?vid=07be9774-724e-4e11-b7cd-217a27466a1b","ios":"levelo://app?vid=07be9774-724e-4e11-b7cd-217a27466a1b"},"vehicle_type_id":"4","last_reported":1722031737,"current_range_meters":18000,"station_id":"ce4bhr12rcd13ifvqhpg","pricing_plan_id":"cebpf4jnsgd1na2vs0mg"},{"bike_id":"d1140908-f555-4eb7-bafd-bb6fda3b3933","system_id":"levelo_inurba_marseille","lat":43.299222,"lon":5.365554,"is_reserved":false,"is_disabled":false,"rental_uris":{"android":"levelo://app?vid=d1140908-f555-4eb7-bafd-bb6fda3b3933","ios":"levelo://app?vid=d1140908-f555-4eb7-bafd-bb6fda3b3933"},"vehicle_type_id":"4","last_reported":1722031737,"current_range_meters":20000,"station_id":"ce4bgm92rcd13ifvqbr0","pricing_plan_id":"cebpf4jnsgd1na2vs0mg"},{"bike_id":"7e7c63e5-97e5-4b31-91cc-f99462a21341","system_id":"levelo_inurba_marseille","lat":43.299724,"lon":5.371829,"is_reserved":false,"is_disabled":false,"rental_uris":{"android":"levelo://app?vid=7e7c63e5-97e5-4b31-91cc-f99462a21341","ios":"levelo://app?vid=7e7c63e5-97e5-4b31-91cc-f99462a21341"},"vehicle_type_id":"4","last_reported":1722031737,"current_range_meters":0,"station_id":"ce4bgr92rcd13ifvqc7g","pricing_plan_id":"cebpf4jnsgd1na2vs0mg"},{"bike_id":"6cc8186f-ff98-429d-a468-282c0d51d841","system_id":"levelo_inurba_marseille","lat":43.299724,"lon":5.371829,"is_reserved":false,"is_disabled":false,"rental_uris":{"android":"levelo://app?vid=6cc8186f-ff98-429d-a468-282c0d51d841","ios":"levelo://app?vid=6cc8186f-ff98-429d-a468-282c0d51d841"},"vehicle_type_id":"4","last_reported":1722031737,"current_range_meters":22000,"station_id":"ce4bgr92rcd13ifvqc7g","pricing_plan_id":"cebpf4jnsgd1na2vs0mg"},{"bike_id":"9df41fec-4549-43f8-8c75-7517744cbb33","system_id":"levelo_inurba_marseille","lat":43.320324,"lon":5.382688,"is_reserved":false,"is_disabled":false,"rental_uris":{"android":"levelo://app?vid=9df41fec-4549-43f8-8c75-7517744cbb33","ios":"levelo://app?vid=9df41fec-4549-43f8-8c75-7517744cbb33"},"vehicle_type_id":"4","last_reported":1722031737,"current_range_meters":30400,"station_id":"","pricing_plan_id":"cebpf4jnsgd1na2vs0mg"},{"bike_id":"0ee5e368-f332-46a7-9fe1-1c7793427378","system_id":"levelo_inurba_marseille","lat":43.299243,"lon":5.374807,"is_reserved":false,"is_disabled":false,"rental_uris":{"android":"levelo://app?vid=0ee5e368-f332-46a7-9fe1-1c7793427378","ios":"levelo://app?vid=0ee5e368-f332-46a7-9fe1-1c7793427378"},"vehicle_type_id":"4","last_reported":1722031737,"current_range_meters":2800,"station_id":"ce4bgjh2rcd13ifvqbg0","pricing_plan_id":"cebpf4jnsgd1na2vs0mg"},{"bike_id":"c95ddb40-4a5c-43c0-9240-d93d3d912709","system_id":"levelo_inurba_marseille","lat":43.305364,"lon":5.384119,"is_reserved":false,"is_disabled":false,"rental_uris":{"android":"levelo://app?vid=c95ddb40-4a5c-43c0-9240-d93d3d912709","ios":"levelo://app?vid=c95ddb40-4a5c-43c0-9240-d93d3d912709"},"vehicle_type_id":"4","last_reported":1722031737,"current_range_meters":26800,"station_id":"ce4bgg92rcd13ifvqb30","pricing_plan_id":"cebpf4jnsgd1na2vs0mg"},{"bike_id":"adb17209-0e6a-4607-839c-42a15bb976a7","system_id":"levelo_inurba_marseille","lat":43.299243,"lon":5.374807,"is_reserved":false,"is_disabled":false,"rental_uris":{"android":"levelo://app?vid=adb17209-0e6a-4607-839c-42a15bb976a7","ios":"levelo://app?vid=adb17209-0e6a-4607-839c-42a15bb976a7"},"vehicle_type_id":"4","last_reported":1722031737,"current_range_meters":30800,"station_id":"ce4bgjh2rcd13ifvqbg0","pricing_plan_id":"cebpf4jnsgd1na2vs0mg"},{"bike_id":"d3499b4b-f09a-4716-8236-2cfebab5c3c2","system_id":"levelo_inurba_marseille","lat":43.311722,"lon":5.387247,"is_reserved":false,"is_disabled":false,"rental_uris":{"android":"levelo://app?vid=d3499b4b-f09a-4716-8236-2cfebab5c3c2","ios":"levelo://app?vid=d3499b4b-f09a-4716-8236-2cfebab5c3c2"},"vehicle_type_id":"4","last_reported":1722031737,"current_range_meters":29200,"station_id":"ce4bgv12rcd13ifvqcp0","pricing_plan_id":"cebpf4jnsgd1na2vs0mg"},{"bike_id":"02a31e65-10d9-4770-9fb6-06bcdda37810","system_id":"levelo_inurba_marseille","lat":43.299243,"lon":5.37481,"is_reserved":false,"is_disabled":false,"rental_uris":{"android":"levelo://app?vid=02a31e65-10d9-4770-9fb6-06bcdda37810","ios":"levelo://app?vid=02a31e65-10d9-4770-9fb6-06bcdda37810"},"vehicle_type_id":"4","last_reported":1722031737,"current_range_meters":31200,"station_id":"ce4bgjh2rcd13ifvqbg0","pricing_plan_id":"cebpf4jnsgd1na2vs0mg"},{"bike_id":"6d823c78-4b8e-43e0-bdba-4f8584cba9d1","system_id":"levelo_inurba_marseille","lat":43.299243,"lon":5.374807,"is_reserved":false,"is_disabled":false,"rental_uris":{"android":"levelo://app?vid=6d823c78-4b8e-43e0-bdba-4f8584cba9d1","ios":"levelo://app?vid=6d823c78-4b8e-43e0-bdba-4f8584cba9d1"},"vehicle_type_id":"4","last_reported":1722031737,"current_range_meters":28800,"station_id":"ce4bgjh2rcd13ifvqbg0","pricing_plan_id":"cebpf4jnsgd1na2vs0mg"},{"bike_id":"d28c4247-95ca-4d5c-8be5-a3f78a6dcd02","system_id":"levelo_inurba_marseille","lat":43.311722,"lon":5.387247,"is_reserved":false,"is_disabled":false,"rental_uris":{"android":"levelo://app?vid=d28c4247-95ca-4d5c-8be5-a3f78a6dcd02","ios":"levelo://app?vid=d28c4247-95ca-4d5c-8be5-a3f78a6dcd02"},"vehicle_type_id":"4","last_reported":1722031737,"current_range_meters":21600,"station_id":"ce4bgv12rcd13ifvqcp0","pricing_plan_id":"cebpf4jnsgd1na2vs0mg"},{"bike_id":"fcb82ba1-8b98-4087-b22e-422fecf49080","system_id":"levelo_inurba_marseille","lat":43.311722,"lon":5.387247,"is_reserved":false,"is_disabled":false,"rental_uris":{"android":"levelo://app?vid=fcb82ba1-8b98-4087-b22e-422fecf49080","ios":"levelo://app?vid=fcb82ba1-8b98-4087-b22e-422fecf49080"},"vehicle_type_id":"4","last_reported":1722031737,"current_range_meters":6400,"station_id":"ce4bgv12rcd13ifvqcp0","pricing_plan_id":"cebpf4jnsgd1na2vs0mg"},{"bike_id":"cf0621f2-0431-49e4-bb88-7c42334ba18d","system_id":"levelo_inurba_marseille","lat":43.29908,"lon":5.37478,"is_reserved":false,"is_disabled":false,"rental_uris":{"android":"levelo://app?vid=cf0621f2-0431-49e4-bb88-7c42334ba18d","ios":"levelo://app?vid=cf0621f2-0431-49e4-bb88-7c42334ba18d"},"vehicle_type_id":"4","last_reported":1722031737,"current_range_meters":4400,"station_id":"ce4bgjh2rcd13ifvqbg0","pricing_plan_id":"cebpf4jnsgd1na2vs0mg"},{"bike_id":"186beeb0-0d38-402d-8a4c-2fa96ca81528","system_id":"levelo_inurba_marseille","lat":43.311722,"lon":5.387247,"is_reserved":false,"is_disabled":false,"rental_uris":{"android":"levelo://app?vid=186beeb0-0d38-402d-8a4c-2fa96ca81528","ios":"levelo://app?vid=186beeb0-0d38-402d-8a4c-2fa96ca81528"},"vehicle_type_id":"4","last_reported":1722031737,"current_range_meters":0,"station_id":"ce4bgv12rcd13ifvqcp0","pricing_plan_id":"cebpf4jnsgd1na2vs0mg"},{"bike_id":"aec9eac4-493c-4efd-baf4-eb1b05802b80","system_id":"levelo_inurba_marseille","lat":43.299243,"lon":5.374807,"is_reserved":false,"is_disabled":false,"rental_uris":{"android":"levelo://app?vid=aec9eac4-493c-4efd-baf4-eb1b05802b80","ios":"levelo://app?vid=aec9eac4-493c-4efd-baf4-eb1b05802b80"},"vehicle_type_id":"4","last_reported":1722031737,"current_range_meters":2800,"station_id":"ce4bgjh2rcd13ifvqbg0","pricing_plan_id":"cebpf4jnsgd1na2vs0mg"},{"bike_id":"79205ba2-49ee-479e-bd6f-c8f9f930be58","system_id":"levelo_inurba_marseille","lat":43.30147,"lon":5.3808,"is_reserved":false,"is_disabled":false,"rental_uris":{"android":"levelo://app?vid=79205ba2-49ee-479e-bd6f-c8f9f930be58","ios":"levelo://app?vid=79205ba2-49ee-479e-bd6f-c8f9f930be58"},"vehicle_type_id":"4","last_reported":1722031737,"current_range_meters":4400,"station_id":"","pricing_plan_id":"cebpf4jnsgd1na2vs0mg"},{"bike_id":"f5692a60-5918-47bd-8836-2fcdb8432214","system_id":"levelo_inurba_marseille","lat":43.30149,"lon":5.38086,"is_reserved":false,"is_disabled":false,"rental_uris":{"android":"levelo://app?vid=f5692a60-5918-47bd-8836-2fcdb8432214","ios":"levelo://app?vid=f5692a60-5918-47bd-8836-2fcdb8432214"},"vehicle_type_id":"4","last_reported":1722031737,"current_range_meters":23600,"station_id":"","pricing_plan_id":"cebpf4jnsgd1na2vs0mg"},{"bike_id":"73c0e0c3-24b6-4baf-a2c6-319766aeca3a","system_id":"levelo_inurba_marseille","lat":43.301423,"lon":5.380795,"is_reserved":false,"is_disabled":false,"rental_uris":{"android":"levelo://app?vid=73c0e0c3-24b6-4baf-a2c6-319766aeca3a","ios":"levelo://app?vid=73c0e0c3-24b6-4baf-a2c6-319766aeca3a"},"vehicle_type_id":"4","last_reported":1722031737,"current_range_meters":0,"station_id":"","pricing_plan_id":"cebpf4jnsgd1na2vs0mg"},{"bike_id":"d4262961-f3bb-4638-aa76-74e085324454","system_id":"levelo_inurba_marseille","lat":43.322788,"lon":5.382608,"is_reserved":false,"is_disabled":false,"rental_uris":{"android":"levelo://app?vid=d4262961-f3bb-4638-aa76-74e085324454","ios":"levelo://app?vid=d4262961-f3bb-4638-aa76-74e085324454"},"vehicle_type_id":"4","last_reported":1722031737,"current_range_meters":3200,"station_id":"ce4bhr12rcd13ifvqhqg","pricing_plan_id":"cebpf4jnsgd1na2vs0mg"},{"bike_id":"cca3b4e5-8d40-41fc-a8d6-11745477c3e6","system_id":"levelo_inurba_marseille","lat":43.322872,"lon":5.382756,"is_reserved":false,"is_disabled":false,"rental_uris":{"android":"levelo://app?vid=cca3b4e5-8d40-41fc-a8d6-11745477c3e6","ios":"levelo://app?vid=cca3b4e5-8d40-41fc-a8d6-11745477c3e6"},"vehicle_type_id":"4","last_reported":1722031737,"current_range_meters":10400,"station_id":"ce4bhr12rcd13ifvqhqg","pricing_plan_id":"cebpf4jnsgd1na2vs0mg"},{"bike_id":"c5038399-9d28-48fd-9a93-bea6873973e1","system_id":"levelo_inurba_marseille","lat":43.3229,"lon":5.38271,"is_reserved":false,"is_disabled":false,"rental_uris":{"android":"levelo://app?vid=c5038399-9d28-48fd-9a93-bea6873973e1","ios":"levelo://app?vid=c5038399-9d28-48fd-9a93-bea6873973e1"},"vehicle_type_id":"4","last_reported":1722031737,"current_range_meters":15200,"station_id":"ce4bhr12rcd13ifvqhqg","pricing_plan_id":"cebpf4jnsgd1na2vs0mg"},{"bike_id":"c937d657-354b-4ef9-882a-c9907c9b557b","system_id":"levelo_inurba_marseille","lat":43.297794,"lon":5.370888,"is_reserved":false,"is_disabled":false,"rental_uris":{"android":"levelo://app?vid=c937d657-354b-4ef9-882a-c9907c9b557b","ios":"levelo://app?vid=c937d657-354b-4ef9-882a-c9907c9b557b"},"vehicle_type_id":"4","last_reported":1722031737,"current_range_meters":2800,"station_id":"ce4bgop2rcd13ifvqc1g","pricing_plan_id":"cebpf4jnsgd1na2vs0mg"},{"bike_id":"23601b0d-963a-4429-a411-db4635831707","system_id":"levelo_inurba_marseille","lat":43.322872,"lon":5.382756,"is_reserved":false,"is_disabled":false,"rental_uris":{"android":"levelo://app?vid=23601b0d-963a-4429-a411-db4635831707","ios":"levelo://app?vid=23601b0d-963a-4429-a411-db4635831707"},"vehicle_type_id":"4","last_reported":1722031737,"current_range_meters":0,"station_id":"ce4bhr12rcd13ifvqhqg","pricing_plan_id":"cebpf4jnsgd1na2vs0mg"},{"bike_id":"5866e309-4de9-4295-9068-4ee353fe4028","system_id":"levelo_inurba_marseille","lat":43.322945,"lon":5.382874,"is_reserved":false,"is_disabled":false,"rental_uris":{"android":"levelo://app?vid=5866e309-4de9-4295-9068-4ee353fe4028","ios":"levelo://app?vid=5866e309-4de9-4295-9068-4ee353fe4028"},"vehicle_type_id":"4","last_reported":1722031737,"current_range_meters":12000,"station_id":"ce4bhr12rcd13ifvqhqg","pricing_plan_id":"cebpf4jnsgd1na2vs0mg"},{"bike_id":"75fcebdf-98f2-400a-a97b-9591a65ab6d4","system_id":"levelo_inurba_marseille","lat":43.296555,"lon":5.370869,"is_reserved":false,"is_disabled":false,"rental_uris":{"android":"levelo://app?vid=75fcebdf-98f2-400a-a97b-9591a65ab6d4","ios":"levelo://app?vid=75fcebdf-98f2-400a-a97b-9591a65ab6d4"},"vehicle_type_id":"4","last_reported":1722031737,"current_range_meters":8000,"station_id":"","pricing_plan_id":"cebpf4jnsgd1na2vs0mg"},{"bike_id":"77ebd6f7-0e15-4246-8feb-b1d720ac899a","system_id":"levelo_inurba_marseille","lat":43.30046,"lon":5.382119,"is_reserved":false,"is_disabled":false,"rental_uris":{"android":"levelo://app?vid=77ebd6f7-0e15-4246-8feb-b1d720ac899a","ios":"levelo://app?vid=77ebd6f7-0e15-4246-8feb-b1d720ac899a"},"vehicle_type_id":"4","last_reported":1722031737,"current_range_meters":22800,"station_id":"","pricing_plan_id":"cebpf4jnsgd1na2vs0mg"},{"bike_id":"cd4e9066-81fc-4004-93df-3be00f833efa","system_id":"levelo_inurba_marseille","lat":43.296813,"lon":5.372977,"is_reserved":false,"is_disabled":false,"rental_uris":{"android":"levelo://app?vid=cd4e9066-81fc-4004-93df-3be00f833efa","ios":"levelo://app?vid=cd4e9066-81fc-4004-93df-3be00f833efa"},"vehicle_type_id":"4","last_reported":1722031737,"current_range_meters":10000,"station_id":"ce4bgk12rcd13ifvqbj0","pricing_plan_id":"cebpf4jnsgd1na2vs0mg"},{"bike_id":"ad7a1b59-c482-47ba-b55d-7374fbf13368","system_id":"levelo_inurba_marseille","lat":43.297163,"lon":5.365866,"is_reserved":false,"is_disabled":false,"rental_uris":{"android":"levelo://app?vid=ad7a1b59-c482-47ba-b55d-7374fbf13368","ios":"levelo://app?vid=ad7a1b59-c482-47ba-b55d-7374fbf13368"},"vehicle_type_id":"4","last_reported":1722031737,"current_range_meters":17200,"station_id":"ce4bgn12rcd13ifvqbt0","pricing_plan_id":"cebpf4jnsgd1na2vs0mg"},{"bike_id":"2da6731f-43ad-4b77-a550-8a96742520ad","system_id":"levelo_inurba_marseille","lat":43.31629,"lon":5.38926,"is_reserved":false,"is_disabled":false,"rental_uris":{"android":"levelo://app?vid=2da6731f-43ad-4b77-a550-8a96742520ad","ios":"levelo://app?vid=2da6731f-43ad-4b77-a550-8a96742520ad"},"vehicle_type_id":"4","last_reported":1722031737,"current_range_meters":24800,"station_id":"","pricing_plan_id":"cebpf4jnsgd1na2vs0mg"},{"bike_id":"7ff0891c-20cb-4487-b7ee-01b41076f179","system_id":"levelo_inurba_marseille","lat":43.29626,"lon":5.37109,"is_reserved":false,"is_disabled":false,"rental_uris":{"android":"levelo://app?vid=7ff0891c-20cb-4487-b7ee-01b41076f179","ios":"levelo://app?vid=7ff0891c-20cb-4487-b7ee-01b41076f179"},"vehicle_type_id":"4","last_reported":1722031737,"current_range_meters":24800,"station_id":"ce4bgnh2rcd13ifvqc0g","pricing_plan_id":"cebpf4jnsgd1na2vs0mg"},{"bike_id":"14dffc97-bd3c-4119-acba-072abef00821","system_id":"levelo_inurba_marseille","lat":43.29573,"lon":5.367355,"is_reserved":false,"is_disabled":false,"rental_uris":{"android":"levelo://app?vid=14dffc97-bd3c-4119-acba-072abef00821","ios":"levelo://app?vid=14dffc97-bd3c-4119-acba-072abef00821"},"vehicle_type_id":"4","last_reported":1722031737,"current_range_meters":400,"station_id":"ce4bgph2rcd13ifvqc2g","pricing_plan_id":"cebpf4jnsgd1na2vs0mg"},{"bike_id":"4c323e39-942a-4591-aee0-975479bcc95d","system_id":"levelo_inurba_marseille","lat":43.297,"lon":5.37687,"is_reserved":false,"is_disabled":false,"rental_uris":{"android":"levelo://app?vid=4c323e39-942a-4591-aee0-975479bcc95d","ios":"levelo://app?vid=4c323e39-942a-4591-aee0-975479bcc95d"},"vehicle_type_id":"4","last_reported":1722031737,"current_range_meters":29200,"station_id":"ce4bgkh2rcd13ifvqbl0","pricing_plan_id":"cebpf4jnsgd1na2vs0mg"},{"bike_id":"daa31817-47f8-49ee-bb6f-f05dc3e20360","system_id":"levelo_inurba_marseille","lat":43.299028,"lon":5.381509,"is_reserved":false,"is_disabled":false,"rental_uris":{"android":"levelo://app?vid=daa31817-47f8-49ee-bb6f-f05dc3e20360","ios":"levelo://app?vid=daa31817-47f8-49ee-bb6f-f05dc3e20360"},"vehicle_type_id":"4","last_reported":1722031737,"current_range_meters":6400,"station_id":"ce4bgj12rcd13ifvqbc0","pricing_plan_id":"cebpf4jnsgd1na2vs0mg"},{"bike_id":"7d03520d-4edf-4711-8e17-793db3374e7d","system_id":"levelo_inurba_marseille","lat":43.317557,"lon":5.390173,"is_reserved":false,"is_disabled":false,"rental_uris":{"android":"levelo://app?vid=7d03520d-4edf-4711-8e17-793db3374e7d","ios":"levelo://app?vid=7d03520d-4edf-4711-8e17-793db3374e7d"},"vehicle_type_id":"4","last_reported":1722031737,"current_range_meters":4000,"station_id":"ce4bhqp2rcd13ifvqhng","pricing_plan_id":"cebpf4jnsgd1na2vs0mg"},{"bike_id":"f4850cf1-8108-4105-a6c7-55b53fa6b4e6","system_id":"levelo_inurba_marseille","lat":43.33717,"lon":5.391857,"is_reserved":false,"is_disabled":false,"rental_uris":{"android":"levelo://app?vid=f4850cf1-8108-4105-a6c7-55b53fa6b4e6","ios":"levelo://app?vid=f4850cf1-8108-4105-a6c7-55b53fa6b4e6"},"vehicle_type_id":"4","last_reported":1722031737,"current_range_meters":6400,"station_id":"ce4bhr92rcd13ifvqhsg","pricing_plan_id":"cebpf4jnsgd1na2vs0mg"},{"bike_id":"c5cfe29b-98fb-4ba7-9853-95d0b035ecc7","system_id":"levelo_inurba_marseille","lat":43.298037,"lon":5.381066,"is_reserved":false,"is_disabled":false,"rental_uris":{"android":"levelo://app?vid=c5cfe29b-98fb-4ba7-9853-95d0b035ecc7","ios":"levelo://app?vid=c5cfe29b-98fb-4ba7-9853-95d0b035ecc7"},"vehicle_type_id":"4","last_reported":1722031737,"current_range_meters":25200,"station_id":"ce4bgip2rcd13ifvqbb0","pricing_plan_id":"cebpf4jnsgd1na2vs0mg"},{"bike_id":"6897160d-3882-4653-8ebf-afe63d1e8def","system_id":"levelo_inurba_marseille","lat":43.298037,"lon":5.381066,"is_reserved":false,"is_disabled":false,"rental_uris":{"android":"levelo://app?vid=6897160d-3882-4653-8ebf-afe63d1e8def","ios":"levelo://app?vid=6897160d-3882-4653-8ebf-afe63d1e8def"},"vehicle_type_id":"4","last_reported":1722031737,"current_range_meters":400,"station_id":"ce4bgip2rcd13ifvqbb0","pricing_plan_id":"cebpf4jnsgd1na2vs0mg"},{"bike_id":"af4d67aa-869e-406e-80be-4566050cbfd8","system_id":"levelo_inurba_marseille","lat":43.30433,"lon":5.38885,"is_reserved":false,"is_disabled":false,"rental_uris":{"android":"levelo://app?vid=af4d67aa-869e-406e-80be-4566050cbfd8","ios":"levelo://app?vid=af4d67aa-869e-406e-80be-4566050cbfd8"},"vehicle_type_id":"4","last_reported":1722031737,"current_range_meters":4800,"station_id":"ce4bgk12rcd13ifvqbi0","pricing_plan_id":"cebpf4jnsgd1na2vs0mg"},{"bike_id":"a7cf9670-3e2e-4841-b2b7-7dee6e5d9606","system_id":"levelo_inurba_marseille","lat":43.30433,"lon":5.38894,"is_reserved":false,"is_disabled":false,"rental_uris":{"android":"levelo://app?vid=a7cf9670-3e2e-4841-b2b7-7dee6e5d9606","ios":"levelo://app?vid=a7cf9670-3e2e-4841-b2b7-7dee6e5d9606"},"vehicle_type_id":"4","last_reported":1722031737,"current_range_meters":31200,"station_id":"ce4bgk12rcd13ifvqbi0","pricing_plan_id":"cebpf4jnsgd1na2vs0mg"},{"bike_id":"50f85745-4dee-4d4d-a943-ad098c4c968c","system_id":"levelo_inurba_marseille","lat":43.304278,"lon":5.388868,"is_reserved":false,"is_disabled":false,"rental_uris":{"android":"levelo://app?vid=50f85745-4dee-4d4d-a943-ad098c4c968c","ios":"levelo://app?vid=50f85745-4dee-4d4d-a943-ad098c4c968c"},"vehicle_type_id":"4","last_reported":1722031737,"current_range_meters":23600,"station_id":"ce4bgk12rcd13ifvqbi0","pricing_plan_id":"cebpf4jnsgd1na2vs0mg"},{"bike_id":"6dd5a054-97cf-4a28-836e-d445bc941a5c","system_id":"levelo_inurba_marseille","lat":43.304323,"lon":5.388941,"is_reserved":false,"is_disabled":false,"rental_uris":{"android":"levelo://app?vid=6dd5a054-97cf-4a28-836e-d445bc941a5c","ios":"levelo://app?vid=6dd5a054-97cf-4a28-836e-d445bc941a5c"},"vehicle_type_id":"4","last_reported":1722031737,"current_range_meters":9200,"station_id":"ce4bgk12rcd13ifvqbi0","pricing_plan_id":"cebpf4jnsgd1na2vs0mg"},{"bike_id":"2a9d663a-f013-4b52-a975-f8352fe46e8b","system_id":"levelo_inurba_marseille","lat":43.304278,"lon":5.388868,"is_reserved":false,"is_disabled":false,"rental_uris":{"android":"levelo://app?vid=2a9d663a-f013-4b52-a975-f8352fe46e8b","ios":"levelo://app?vid=2a9d663a-f013-4b52-a975-f8352fe46e8b"},"vehicle_type_id":"4","last_reported":1722031737,"current_range_meters":10800,"station_id":"ce4bgk12rcd13ifvqbi0","pricing_plan_id":"cebpf4jnsgd1na2vs0mg"},{"bike_id":"972cb19a-a15d-4ee0-bee4-47a4240fdaa3","system_id":"levelo_inurba_marseille","lat":43.304592,"lon":5.389234,"is_reserved":false,"is_disabled":false,"rental_uris":{"android":"levelo://app?vid=972cb19a-a15d-4ee0-bee4-47a4240fdaa3","ios":"levelo://app?vid=972cb19a-a15d-4ee0-bee4-47a4240fdaa3"},"vehicle_type_id":"4","last_reported":1722031737,"current_range_meters":3600,"station_id":"ce4bgk12rcd13ifvqbi0","pricing_plan_id":"cebpf4jnsgd1na2vs0mg"},{"bike_id":"a1a09cdc-2669-47b7-9a2f-a8cae8d15606","system_id":"levelo_inurba_marseille","lat":43.299717,"lon":5.384845,"is_reserved":false,"is_disabled":false,"rental_uris":{"android":"levelo://app?vid=a1a09cdc-2669-47b7-9a2f-a8cae8d15606","ios":"levelo://app?vid=a1a09cdc-2669-47b7-9a2f-a8cae8d15606"},"vehicle_type_id":"4","last_reported":1722031737,"current_range_meters":0,"station_id":"ce4bgj92rcd13ifvqbd0","pricing_plan_id":"cebpf4jnsgd1na2vs0mg"},{"bike_id":"1f456bbb-d75e-4b34-b8f2-69caccbefde3","system_id":"levelo_inurba_marseille","lat":43.30138,"lon":5.3877,"is_reserved":false,"is_disabled":false,"rental_uris":{"android":"levelo://app?vid=1f456bbb-d75e-4b34-b8f2-69caccbefde3","ios":"levelo://app?vid=1f456bbb-d75e-4b34-b8f2-69caccbefde3"},"vehicle_type_id":"4","last_reported":1722031737,"current_range_meters":2800,"station_id":"ce4bghh2rcd13ifvqb60","pricing_plan_id":"cebpf4jnsgd1na2vs0mg"},{"bike_id":"92f8ad81-481b-4bec-904d-18312f14728e","system_id":"levelo_inurba_marseille","lat":43.30134,"lon":5.38777,"is_reserved":false,"is_disabled":false,"rental_uris":{"android":"levelo://app?vid=92f8ad81-481b-4bec-904d-18312f14728e","ios":"levelo://app?vid=92f8ad81-481b-4bec-904d-18312f14728e"},"vehicle_type_id":"4","last_reported":1722031737,"current_range_meters":0,"station_id":"ce4bghh2rcd13ifvqb60","pricing_plan_id":"cebpf4jnsgd1na2vs0mg"},{"bike_id":"212a7b38-cead-4937-a33e-54355dcb7c4f","system_id":"levelo_inurba_marseille","lat":43.30139,"lon":5.38785,"is_reserved":false,"is_disabled":false,"rental_uris":{"android":"levelo://app?vid=212a7b38-cead-4937-a33e-54355dcb7c4f","ios":"levelo://app?vid=212a7b38-cead-4937-a33e-54355dcb7c4f"},"vehicle_type_id":"4","last_reported":1722031737,"current_range_meters":0,"station_id":"ce4bghh2rcd13ifvqb60","pricing_plan_id":"cebpf4jnsgd1na2vs0mg"},{"bike_id":"7a1ccc2d-e113-46df-b2b0-cccd784a4c97","system_id":"levelo_inurba_marseille","lat":43.301396,"lon":5.387812,"is_reserved":false,"is_disabled":false,"rental_uris":{"android":"levelo://app?vid=7a1ccc2d-e113-46df-b2b0-cccd784a4c97","ios":"levelo://app?vid=7a1ccc2d-e113-46df-b2b0-cccd784a4c97"},"vehicle_type_id":"4","last_reported":1722031737,"current_range_meters":31200,"station_id":"ce4bghh2rcd13ifvqb60","pricing_plan_id":"cebpf4jnsgd1na2vs0mg"},{"bike_id":"31be1ab6-37b3-48c3-86da-a0a96a85e610","system_id":"levelo_inurba_marseille","lat":43.301396,"lon":5.387812,"is_reserved":false,"is_disabled":false,"rental_uris":{"android":"levelo://app?vid=31be1ab6-37b3-48c3-86da-a0a96a85e610","ios":"levelo://app?vid=31be1ab6-37b3-48c3-86da-a0a96a85e610"},"vehicle_type_id":"4","last_reported":1722031737,"current_range_meters":31200,"station_id":"ce4bghh2rcd13ifvqb60","pricing_plan_id":"cebpf4jnsgd1na2vs0mg"},{"bike_id":"0ab89a1a-1661-4f70-9f06-62891ac7cec8","system_id":"levelo_inurba_marseille","lat":43.301325,"lon":5.387845,"is_reserved":false,"is_disabled":false,"rental_uris":{"android":"levelo://app?vid=0ab89a1a-1661-4f70-9f06-62891ac7cec8","ios":"levelo://app?vid=0ab89a1a-1661-4f70-9f06-62891ac7cec8"},"vehicle_type_id":"4","last_reported":1722031737,"current_range_meters":31200,"station_id":"ce4bghh2rcd13ifvqb60","pricing_plan_id":"cebpf4jnsgd1na2vs0mg"},{"bike_id":"fbdbc8a6-4ce7-4158-996a-a725c61f3722","system_id":"levelo_inurba_marseille","lat":43.30132,"lon":5.38803,"is_reserved":false,"is_disabled":false,"rental_uris":{"android":"levelo://app?vid=fbdbc8a6-4ce7-4158-996a-a725c61f3722","ios":"levelo://app?vid=fbdbc8a6-4ce7-4158-996a-a725c61f3722"},"vehicle_type_id":"4","last_reported":1722031737,"current_range_meters":8800,"station_id":"ce4bghh2rcd13ifvqb60","pricing_plan_id":"cebpf4jnsgd1na2vs0mg"},{"bike_id":"2387b329-b257-47d0-9235-db7dbcead64c","system_id":"levelo_inurba_marseille","lat":43.32367,"lon":5.388836,"is_reserved":false,"is_disabled":false,"rental_uris":{"android":"levelo://app?vid=2387b329-b257-47d0-9235-db7dbcead64c","ios":"levelo://app?vid=2387b329-b257-47d0-9235-db7dbcead64c"},"vehicle_type_id":"4","last_reported":1722031737,"current_range_meters":23200,"station_id":"ce4bhqp2rcd13ifvqhog","pricing_plan_id":"cebpf4jnsgd1na2vs0mg"},{"bike_id":"657bcb0c-6c5d-412f-89df-273da3c4fb3d","system_id":"levelo_inurba_marseille","lat":43.32367,"lon":5.388836,"is_reserved":false,"is_disabled":false,"rental_uris":{"android":"levelo://app?vid=657bcb0c-6c5d-412f-89df-273da3c4fb3d","ios":"levelo://app?vid=657bcb0c-6c5d-412f-89df-273da3c4fb3d"},"vehicle_type_id":"4","last_reported":1722031737,"current_range_meters":1600,"station_id":"ce4bhqp2rcd13ifvqhog","pricing_plan_id":"cebpf4jnsgd1na2vs0mg"},{"bike_id":"ce7cbb67-c707-4599-9315-a2402398bfd9","system_id":"levelo_inurba_marseille","lat":43.32367,"lon":5.388836,"is_reserved":false,"is_disabled":false,"rental_uris":{"android":"levelo://app?vid=ce7cbb67-c707-4599-9315-a2402398bfd9","ios":"levelo://app?vid=ce7cbb67-c707-4599-9315-a2402398bfd9"},"vehicle_type_id":"4","last_reported":1722031737,"current_range_meters":14400,"station_id":"ce4bhqp2rcd13ifvqhog","pricing_plan_id":"cebpf4jnsgd1na2vs0mg"},{"bike_id":"9c1b10ea-81e6-4566-a928-9388d7492464","system_id":"levelo_inurba_marseille","lat":43.300485,"lon":5.387885,"is_reserved":false,"is_disabled":false,"rental_uris":{"android":"levelo://app?vid=9c1b10ea-81e6-4566-a928-9388d7492464","ios":"levelo://app?vid=9c1b10ea-81e6-4566-a928-9388d7492464"},"vehicle_type_id":"4","last_reported":1722031737,"current_range_meters":6400,"station_id":"","pricing_plan_id":"cebpf4jnsgd1na2vs0mg"},{"bike_id":"026f0b3f-0eaa-4cf1-a178-6e2b1b6d5895","system_id":"levelo_inurba_marseille","lat":43.29602,"lon":5.381084,"is_reserved":false,"is_disabled":false,"rental_uris":{"android":"levelo://app?vid=026f0b3f-0eaa-4cf1-a178-6e2b1b6d5895","ios":"levelo://app?vid=026f0b3f-0eaa-4cf1-a178-6e2b1b6d5895"},"vehicle_type_id":"4","last_reported":1722031737,"current_range_meters":22400,"station_id":"ce4bgl12rcd13ifvqbo0","pricing_plan_id":"cebpf4jnsgd1na2vs0mg"},{"bike_id":"ed5ee9ee-5235-4d66-b902-43a1b29aae5b","system_id":"levelo_inurba_marseille","lat":43.29602,"lon":5.381084,"is_reserved":false,"is_disabled":false,"rental_uris":{"android":"levelo://app?vid=ed5ee9ee-5235-4d66-b902-43a1b29aae5b","ios":"levelo://app?vid=ed5ee9ee-5235-4d66-b902-43a1b29aae5b"},"vehicle_type_id":"4","last_reported":1722031737,"current_range_meters":400,"station_id":"ce4bgl12rcd13ifvqbo0","pricing_plan_id":"cebpf4jnsgd1na2vs0mg"},{"bike_id":"dceb1cab-d62a-4c45-93c0-f897dc0e9a05","system_id":"levelo_inurba_marseille","lat":43.29328,"lon":5.37089,"is_reserved":false,"is_disabled":false,"rental_uris":{"android":"levelo://app?vid=dceb1cab-d62a-4c45-93c0-f897dc0e9a05","ios":"levelo://app?vid=dceb1cab-d62a-4c45-93c0-f897dc0e9a05"},"vehicle_type_id":"4","last_reported":1722031737,"current_range_meters":4000,"station_id":"","pricing_plan_id":"cebpf4jnsgd1na2vs0mg"},{"bike_id":"eb60ade7-ba4a-4d28-b68c-344d3443f837","system_id":"levelo_inurba_marseille","lat":43.313571,"lon":5.384829,"is_reserved":false,"is_disabled":false,"rental_uris":{"android":"levelo://app?vid=eb60ade7-ba4a-4d28-b68c-344d3443f837","ios":"levelo://app?vid=eb60ade7-ba4a-4d28-b68c-344d3443f837"},"vehicle_type_id":"4","last_reported":1722031737,"current_range_meters":0,"station_id":"ce4bgt92rcd13ifvqcf0","pricing_plan_id":"cebpf4jnsgd1na2vs0mg"},{"bike_id":"596110d5-60ee-4eca-a5ba-4aebe7a571cd","system_id":"levelo_inurba_marseille","lat":43.293259,"lon":5.371586,"is_reserved":false,"is_disabled":false,"rental_uris":{"android":"levelo://app?vid=596110d5-60ee-4eca-a5ba-4aebe7a571cd","ios":"levelo://app?vid=596110d5-60ee-4eca-a5ba-4aebe7a571cd"},"vehicle_type_id":"4","last_reported":1722031737,"current_range_meters":400,"station_id":"ce4bgh92rcd13ifvqb40","pricing_plan_id":"cebpf4jnsgd1na2vs0mg"},{"bike_id":"69f55491-fe61-4504-930c-84383d87d39c","system_id":"levelo_inurba_marseille","lat":43.293259,"lon":5.371586,"is_reserved":false,"is_disabled":false,"rental_uris":{"android":"levelo://app?vid=69f55491-fe61-4504-930c-84383d87d39c","ios":"levelo://app?vid=69f55491-fe61-4504-930c-84383d87d39c"},"vehicle_type_id":"4","last_reported":1722031737,"current_range_meters":0,"station_id":"ce4bgh92rcd13ifvqb40","pricing_plan_id":"cebpf4jnsgd1na2vs0mg"},{"bike_id":"792dc345-5997-42b2-9000-d257d3138214","system_id":"levelo_inurba_marseille","lat":43.292753,"lon":5.36842,"is_reserved":false,"is_disabled":false,"rental_uris":{"android":"levelo://app?vid=792dc345-5997-42b2-9000-d257d3138214","ios":"levelo://app?vid=792dc345-5997-42b2-9000-d257d3138214"},"vehicle_type_id":"4","last_reported":1722031737,"current_range_meters":0,"station_id":"ce4bhbp2rcd13ifvqesg","pricing_plan_id":"cebpf4jnsgd1na2vs0mg"},{"bike_id":"abdd1f4f-a4cc-4d76-9f75-4353dd5424b1","system_id":"levelo_inurba_marseille","lat":43.29275,"lon":5.36851,"is_reserved":false,"is_disabled":false,"rental_uris":{"android":"levelo://app?vid=abdd1f4f-a4cc-4d76-9f75-4353dd5424b1","ios":"levelo://app?vid=abdd1f4f-a4cc-4d76-9f75-4353dd5424b1"},"vehicle_type_id":"4","last_reported":1722031737,"current_range_meters":0,"station_id":"ce4bhbp2rcd13ifvqesg","pricing_plan_id":"cebpf4jnsgd1na2vs0mg"},{"bike_id":"c65e3c7d-52fa-4da6-b764-7b1ae8973aff","system_id":"levelo_inurba_marseille","lat":43.292749,"lon":5.368402,"is_reserved":false,"is_disabled":false,"rental_uris":{"android":"levelo://app?vid=c65e3c7d-52fa-4da6-b764-7b1ae8973aff","ios":"levelo://app?vid=c65e3c7d-52fa-4da6-b764-7b1ae8973aff"},"vehicle_type_id":"4","last_reported":1722031737,"current_range_meters":2800,"station_id":"ce4bhbp2rcd13ifvqesg","pricing_plan_id":"cebpf4jnsgd1na2vs0mg"},{"bike_id":"29b24ff3-2f53-424c-a624-383bc3f96705","system_id":"levelo_inurba_marseille","lat":43.2927,"lon":5.36853,"is_reserved":false,"is_disabled":false,"rental_uris":{"android":"levelo://app?vid=29b24ff3-2f53-424c-a624-383bc3f96705","ios":"levelo://app?vid=29b24ff3-2f53-424c-a624-383bc3f96705"},"vehicle_type_id":"4","last_reported":1722031737,"current_range_meters":0,"station_id":"ce4bhbp2rcd13ifvqesg","pricing_plan_id":"cebpf4jnsgd1na2vs0mg"},{"bike_id":"4ed2a8ab-566d-49c9-b0fc-e4b2be2f5ee8","system_id":"levelo_inurba_marseille","lat":43.29268,"lon":5.36849,"is_reserved":false,"is_disabled":false,"rental_uris":{"android":"levelo://app?vid=4ed2a8ab-566d-49c9-b0fc-e4b2be2f5ee8","ios":"levelo://app?vid=4ed2a8ab-566d-49c9-b0fc-e4b2be2f5ee8"},"vehicle_type_id":"4","last_reported":1722031737,"current_range_meters":2400,"station_id":"ce4bhbp2rcd13ifvqesg","pricing_plan_id":"cebpf4jnsgd1na2vs0mg"},{"bike_id":"85272360-c8be-41f1-902b-501eebc205bc","system_id":"levelo_inurba_marseille","lat":43.30212,"lon":5.39055,"is_reserved":false,"is_disabled":false,"rental_uris":{"android":"levelo://app?vid=85272360-c8be-41f1-902b-501eebc205bc","ios":"levelo://app?vid=85272360-c8be-41f1-902b-501eebc205bc"},"vehicle_type_id":"4","last_reported":1722031737,"current_range_meters":12400,"station_id":"ce4bgk12rcd13ifvqbi0","pricing_plan_id":"cebpf4jnsgd1na2vs0mg"},{"bike_id":"b7643a54-8a9b-4254-b73e-dc1e5b0c0f0e","system_id":"levelo_inurba_marseille","lat":43.305994,"lon":5.393687,"is_reserved":false,"is_disabled":false,"rental_uris":{"android":"levelo://app?vid=b7643a54-8a9b-4254-b73e-dc1e5b0c0f0e","ios":"levelo://app?vid=b7643a54-8a9b-4254-b73e-dc1e5b0c0f0e"},"vehicle_type_id":"4","last_reported":1722031737,"current_range_meters":4400,"station_id":"ce4bh0p2rcd13ifvqd80","pricing_plan_id":"cebpf4jnsgd1na2vs0mg"},{"bike_id":"13da5aa6-aa58-436b-ba95-b1e44903f94c","system_id":"levelo_inurba_marseille","lat":43.29262,"lon":5.37325,"is_reserved":false,"is_disabled":false,"rental_uris":{"android":"levelo://app?vid=13da5aa6-aa58-436b-ba95-b1e44903f94c","ios":"levelo://app?vid=13da5aa6-aa58-436b-ba95-b1e44903f94c"},"vehicle_type_id":"4","last_reported":1722031737,"current_range_meters":10800,"station_id":"","pricing_plan_id":"cebpf4jnsgd1na2vs0mg"},{"bike_id":"c7432ee4-44ce-4043-b0f2-755db33fe3ec","system_id":"levelo_inurba_marseille","lat":43.32656,"lon":5.38864,"is_reserved":false,"is_disabled":false,"rental_uris":{"android":"levelo://app?vid=c7432ee4-44ce-4043-b0f2-755db33fe3ec","ios":"levelo://app?vid=c7432ee4-44ce-4043-b0f2-755db33fe3ec"},"vehicle_type_id":"4","last_reported":1722031737,"current_range_meters":9200,"station_id":"","pricing_plan_id":"cebpf4jnsgd1na2vs0mg"},{"bike_id":"9f387742-318d-40af-b45c-d3d15e993ccf","system_id":"levelo_inurba_marseille","lat":43.30085,"lon":5.390856,"is_reserved":false,"is_disabled":false,"rental_uris":{"android":"levelo://app?vid=9f387742-318d-40af-b45c-d3d15e993ccf","ios":"levelo://app?vid=9f387742-318d-40af-b45c-d3d15e993ccf"},"vehicle_type_id":"4","last_reported":1722031737,"current_range_meters":12000,"station_id":"ce4bh192rcd13ifvqdb0","pricing_plan_id":"cebpf4jnsgd1na2vs0mg"},{"bike_id":"37bd5c16-e4ed-4580-83e0-9384756a217f","system_id":"levelo_inurba_marseille","lat":43.300852,"lon":5.390859,"is_reserved":false,"is_disabled":false,"rental_uris":{"android":"levelo://app?vid=37bd5c16-e4ed-4580-83e0-9384756a217f","ios":"levelo://app?vid=37bd5c16-e4ed-4580-83e0-9384756a217f"},"vehicle_type_id":"4","last_reported":1722031737,"current_range_meters":10800,"station_id":"ce4bh192rcd13ifvqdb0","pricing_plan_id":"cebpf4jnsgd1na2vs0mg"},{"bike_id":"0989b1f5-1c2c-4b4a-8222-f156639850bf","system_id":"levelo_inurba_marseille","lat":43.29886,"lon":5.389,"is_reserved":false,"is_disabled":false,"rental_uris":{"android":"levelo://app?vid=0989b1f5-1c2c-4b4a-8222-f156639850bf","ios":"levelo://app?vid=0989b1f5-1c2c-4b4a-8222-f156639850bf"},"vehicle_type_id":"4","last_reported":1722031737,"current_range_meters":13600,"station_id":"ce4bh392rcd13ifvqdl0","pricing_plan_id":"cebpf4jnsgd1na2vs0mg"},{"bike_id":"12ed069a-5781-407a-b9e3-d6a3ce389a5d","system_id":"levelo_inurba_marseille","lat":43.293009,"lon":5.374584,"is_reserved":false,"is_disabled":false,"rental_uris":{"android":"levelo://app?vid=12ed069a-5781-407a-b9e3-d6a3ce389a5d","ios":"levelo://app?vid=12ed069a-5781-407a-b9e3-d6a3ce389a5d"},"vehicle_type_id":"4","last_reported":1722031737,"current_range_meters":0,"station_id":"ce4bgi12rcd13ifvqb70","pricing_plan_id":"cebpf4jnsgd1na2vs0mg"},{"bike_id":"d3f51aad-beeb-4023-8334-f37ee65d3717","system_id":"levelo_inurba_marseille","lat":43.29887,"lon":5.38905,"is_reserved":false,"is_disabled":false,"rental_uris":{"android":"levelo://app?vid=d3f51aad-beeb-4023-8334-f37ee65d3717","ios":"levelo://app?vid=d3f51aad-beeb-4023-8334-f37ee65d3717"},"vehicle_type_id":"4","last_reported":1722031737,"current_range_meters":28400,"station_id":"ce4bh392rcd13ifvqdl0","pricing_plan_id":"cebpf4jnsgd1na2vs0mg"},{"bike_id":"21e0a592-4585-436e-8502-cf864046a5a3","system_id":"levelo_inurba_marseille","lat":43.29879,"lon":5.38905,"is_reserved":false,"is_disabled":false,"rental_uris":{"android":"levelo://app?vid=21e0a592-4585-436e-8502-cf864046a5a3","ios":"levelo://app?vid=21e0a592-4585-436e-8502-cf864046a5a3"},"vehicle_type_id":"4","last_reported":1722031737,"current_range_meters":31200,"station_id":"ce4bh392rcd13ifvqdl0","pricing_plan_id":"cebpf4jnsgd1na2vs0mg"},{"bike_id":"d5f04152-5c86-44aa-85a6-685b8a1fea32","system_id":"levelo_inurba_marseille","lat":43.293009,"lon":5.374584,"is_reserved":false,"is_disabled":false,"rental_uris":{"android":"levelo://app?vid=d5f04152-5c86-44aa-85a6-685b8a1fea32","ios":"levelo://app?vid=d5f04152-5c86-44aa-85a6-685b8a1fea32"},"vehicle_type_id":"4","last_reported":1722031737,"current_range_meters":31200,"station_id":"ce4bgi12rcd13ifvqb70","pricing_plan_id":"cebpf4jnsgd1na2vs0mg"},{"bike_id":"8328697f-5f61-4c26-a25d-5be8bec696e7","system_id":"levelo_inurba_marseille","lat":43.2988,"lon":5.3891,"is_reserved":false,"is_disabled":false,"rental_uris":{"android":"levelo://app?vid=8328697f-5f61-4c26-a25d-5be8bec696e7","ios":"levelo://app?vid=8328697f-5f61-4c26-a25d-5be8bec696e7"},"vehicle_type_id":"4","last_reported":1722031737,"current_range_meters":30400,"station_id":"ce4bh392rcd13ifvqdl0","pricing_plan_id":"cebpf4jnsgd1na2vs0mg"},{"bike_id":"f7359889-b34d-4b38-8d23-93cce5ed6526","system_id":"levelo_inurba_marseille","lat":43.29877,"lon":5.38908,"is_reserved":false,"is_disabled":false,"rental_uris":{"android":"levelo://app?vid=f7359889-b34d-4b38-8d23-93cce5ed6526","ios":"levelo://app?vid=f7359889-b34d-4b38-8d23-93cce5ed6526"},"vehicle_type_id":"4","last_reported":1722031737,"current_range_meters":30800,"station_id":"ce4bh392rcd13ifvqdl0","pricing_plan_id":"cebpf4jnsgd1na2vs0mg"},{"bike_id":"d3456546-206e-40be-8dc4-da2d00df3f95","system_id":"levelo_inurba_marseille","lat":43.298764,"lon":5.388973,"is_reserved":false,"is_disabled":false,"rental_uris":{"android":"levelo://app?vid=d3456546-206e-40be-8dc4-da2d00df3f95","ios":"levelo://app?vid=d3456546-206e-40be-8dc4-da2d00df3f95"},"vehicle_type_id":"4","last_reported":1722031737,"current_range_meters":9200,"station_id":"ce4bh392rcd13ifvqdl0","pricing_plan_id":"cebpf4jnsgd1na2vs0mg"},{"bike_id":"95d3f503-e348-4cc3-896e-d6974c53a82f","system_id":"levelo_inurba_marseille","lat":43.29873,"lon":5.38909,"is_reserved":false,"is_disabled":false,"rental_uris":{"android":"levelo://app?vid=95d3f503-e348-4cc3-896e-d6974c53a82f","ios":"levelo://app?vid=95d3f503-e348-4cc3-896e-d6974c53a82f"},"vehicle_type_id":"4","last_reported":1722031737,"current_range_meters":10000,"station_id":"ce4bh392rcd13ifvqdl0","pricing_plan_id":"cebpf4jnsgd1na2vs0mg"},{"bike_id":"3fcea192-14e0-431c-889c-364b791e6a51","system_id":"levelo_inurba_marseille","lat":43.298764,"lon":5.388973,"is_reserved":false,"is_disabled":false,"rental_uris":{"android":"levelo://app?vid=3fcea192-14e0-431c-889c-364b791e6a51","ios":"levelo://app?vid=3fcea192-14e0-431c-889c-364b791e6a51"},"vehicle_type_id":"4","last_reported":1722031737,"current_range_meters":30800,"station_id":"ce4bh392rcd13ifvqdl0","pricing_plan_id":"cebpf4jnsgd1na2vs0mg"},{"bike_id":"9a3ec4dc-51b5-49b0-9497-fe6054203ea2","system_id":"levelo_inurba_marseille","lat":43.292,"lon":5.35806,"is_reserved":false,"is_disabled":false,"rental_uris":{"android":"levelo://app?vid=9a3ec4dc-51b5-49b0-9497-fe6054203ea2","ios":"levelo://app?vid=9a3ec4dc-51b5-49b0-9497-fe6054203ea2"},"vehicle_type_id":"4","last_reported":1722031737,"current_range_meters":0,"station_id":"ce4bhb12rcd13ifvqel0","pricing_plan_id":"cebpf4jnsgd1na2vs0mg"},{"bike_id":"72c70b00-1fb4-4804-af1f-dc680bb5b5fa","system_id":"levelo_inurba_marseille","lat":43.31329,"lon":5.39678,"is_reserved":false,"is_disabled":false,"rental_uris":{"android":"levelo://app?vid=72c70b00-1fb4-4804-af1f-dc680bb5b5fa","ios":"levelo://app?vid=72c70b00-1fb4-4804-af1f-dc680bb5b5fa"},"vehicle_type_id":"4","last_reported":1722031737,"current_range_meters":8000,"station_id":"ce4bgvp2rcd13ifvqcu0","pricing_plan_id":"cebpf4jnsgd1na2vs0mg"},{"bike_id":"501a3ada-4c64-468b-bff0-f9f9d5f7e06f","system_id":"levelo_inurba_marseille","lat":43.29194,"lon":5.35803,"is_reserved":false,"is_disabled":false,"rental_uris":{"android":"levelo://app?vid=501a3ada-4c64-468b-bff0-f9f9d5f7e06f","ios":"levelo://app?vid=501a3ada-4c64-468b-bff0-f9f9d5f7e06f"},"vehicle_type_id":"4","last_reported":1722031737,"current_range_meters":0,"station_id":"ce4bhb12rcd13ifvqel0","pricing_plan_id":"cebpf4jnsgd1na2vs0mg"},{"bike_id":"5abeff50-5d15-4edd-bf90-e161ec3e7ae0","system_id":"levelo_inurba_marseille","lat":43.2919,"lon":5.35807,"is_reserved":false,"is_disabled":false,"rental_uris":{"android":"levelo://app?vid=5abeff50-5d15-4edd-bf90-e161ec3e7ae0","ios":"levelo://app?vid=5abeff50-5d15-4edd-bf90-e161ec3e7ae0"},"vehicle_type_id":"4","last_reported":1722031737,"current_range_meters":0,"station_id":"ce4bhb12rcd13ifvqel0","pricing_plan_id":"cebpf4jnsgd1na2vs0mg"},{"bike_id":"b949fb95-feb7-4a55-a4bb-40887b596ff5","system_id":"levelo_inurba_marseille","lat":43.309038,"lon":5.396546,"is_reserved":false,"is_disabled":false,"rental_uris":{"android":"levelo://app?vid=b949fb95-feb7-4a55-a4bb-40887b596ff5","ios":"levelo://app?vid=b949fb95-feb7-4a55-a4bb-40887b596ff5"},"vehicle_type_id":"4","last_reported":1722031737,"current_range_meters":25600,"station_id":"ce4bh012rcd13ifvqcv0","pricing_plan_id":"cebpf4jnsgd1na2vs0mg"},{"bike_id":"db21af08-9cb3-4116-b724-d9f149ff5f9f","system_id":"levelo_inurba_marseille","lat":43.309038,"lon":5.396546,"is_reserved":false,"is_disabled":false,"rental_uris":{"android":"levelo://app?vid=db21af08-9cb3-4116-b724-d9f149ff5f9f","ios":"levelo://app?vid=db21af08-9cb3-4116-b724-d9f149ff5f9f"},"vehicle_type_id":"4","last_reported":1722031737,"current_range_meters":28800,"station_id":"ce4bh012rcd13ifvqcv0","pricing_plan_id":"cebpf4jnsgd1na2vs0mg"},{"bike_id":"6223a64e-db02-46a6-beda-bee206c6a098","system_id":"levelo_inurba_marseille","lat":43.309038,"lon":5.396546,"is_reserved":false,"is_disabled":false,"rental_uris":{"android":"levelo://app?vid=6223a64e-db02-46a6-beda-bee206c6a098","ios":"levelo://app?vid=6223a64e-db02-46a6-beda-bee206c6a098"},"vehicle_type_id":"4","last_reported":1722031737,"current_range_meters":31600,"station_id":"ce4bh012rcd13ifvqcv0","pricing_plan_id":"cebpf4jnsgd1na2vs0mg"},{"bike_id":"df2991e1-1aad-4135-8767-afc0131a107f","system_id":"levelo_inurba_marseille","lat":43.309038,"lon":5.396546,"is_reserved":false,"is_disabled":false,"rental_uris":{"android":"levelo://app?vid=df2991e1-1aad-4135-8767-afc0131a107f","ios":"levelo://app?vid=df2991e1-1aad-4135-8767-afc0131a107f"},"vehicle_type_id":"4","last_reported":1722031737,"current_range_meters":26000,"station_id":"ce4bh012rcd13ifvqcv0","pricing_plan_id":"cebpf4jnsgd1na2vs0mg"},{"bike_id":"d95fd480-4a9d-43d9-b76d-e53593a253e8","system_id":"levelo_inurba_marseille","lat":43.29537,"lon":5.38541,"is_reserved":false,"is_disabled":false,"rental_uris":{"android":"levelo://app?vid=d95fd480-4a9d-43d9-b76d-e53593a253e8","ios":"levelo://app?vid=d95fd480-4a9d-43d9-b76d-e53593a253e8"},"vehicle_type_id":"4","last_reported":1722031737,"current_range_meters":31600,"station_id":"ce4bgih2rcd13ifvqba0","pricing_plan_id":"cebpf4jnsgd1na2vs0mg"},{"bike_id":"66a8bf4c-cae8-4ad3-b820-a75896e8a5d1","system_id":"levelo_inurba_marseille","lat":43.29529,"lon":5.385581,"is_reserved":false,"is_disabled":false,"rental_uris":{"android":"levelo://app?vid=66a8bf4c-cae8-4ad3-b820-a75896e8a5d1","ios":"levelo://app?vid=66a8bf4c-cae8-4ad3-b820-a75896e8a5d1"},"vehicle_type_id":"4","last_reported":1722031737,"current_range_meters":26000,"station_id":"ce4bgih2rcd13ifvqba0","pricing_plan_id":"cebpf4jnsgd1na2vs0mg"},{"bike_id":"c4040012-e1a7-4ef9-a560-b03f244abef1","system_id":"levelo_inurba_marseille","lat":43.29534,"lon":5.38547,"is_reserved":false,"is_disabled":false,"rental_uris":{"android":"levelo://app?vid=c4040012-e1a7-4ef9-a560-b03f244abef1","ios":"levelo://app?vid=c4040012-e1a7-4ef9-a560-b03f244abef1"},"vehicle_type_id":"4","last_reported":1722031737,"current_range_meters":21600,"station_id":"ce4bgih2rcd13ifvqba0","pricing_plan_id":"cebpf4jnsgd1na2vs0mg"},{"bike_id":"b894a48c-4e95-45ca-8190-1260d7292b05","system_id":"levelo_inurba_marseille","lat":43.29529,"lon":5.385581,"is_reserved":false,"is_disabled":false,"rental_uris":{"android":"levelo://app?vid=b894a48c-4e95-45ca-8190-1260d7292b05","ios":"levelo://app?vid=b894a48c-4e95-45ca-8190-1260d7292b05"},"vehicle_type_id":"4","last_reported":1722031737,"current_range_meters":800,"station_id":"ce4bgih2rcd13ifvqba0","pricing_plan_id":"cebpf4jnsgd1na2vs0mg"},{"bike_id":"596881ef-5671-4836-aa5c-738a4d5beb2b","system_id":"levelo_inurba_marseille","lat":43.29531,"lon":5.38546,"is_reserved":false,"is_disabled":false,"rental_uris":{"android":"levelo://app?vid=596881ef-5671-4836-aa5c-738a4d5beb2b","ios":"levelo://app?vid=596881ef-5671-4836-aa5c-738a4d5beb2b"},"vehicle_type_id":"4","last_reported":1722031737,"current_range_meters":21200,"station_id":"ce4bgih2rcd13ifvqba0","pricing_plan_id":"cebpf4jnsgd1na2vs0mg"},{"bike_id":"14d3342e-92b7-4abb-ae3e-227a8f8c62b9","system_id":"levelo_inurba_marseille","lat":43.29529,"lon":5.385581,"is_reserved":false,"is_disabled":false,"rental_uris":{"android":"levelo://app?vid=14d3342e-92b7-4abb-ae3e-227a8f8c62b9","ios":"levelo://app?vid=14d3342e-92b7-4abb-ae3e-227a8f8c62b9"},"vehicle_type_id":"4","last_reported":1722031737,"current_range_meters":13600,"station_id":"ce4bgih2rcd13ifvqba0","pricing_plan_id":"cebpf4jnsgd1na2vs0mg"},{"bike_id":"0c99d31e-e940-4b60-a9c2-f7484968ec9a","system_id":"levelo_inurba_marseille","lat":43.29529,"lon":5.385581,"is_reserved":false,"is_disabled":false,"rental_uris":{"android":"levelo://app?vid=0c99d31e-e940-4b60-a9c2-f7484968ec9a","ios":"levelo://app?vid=0c99d31e-e940-4b60-a9c2-f7484968ec9a"},"vehicle_type_id":"4","last_reported":1722031737,"current_range_meters":17600,"station_id":"ce4bgih2rcd13ifvqba0","pricing_plan_id":"cebpf4jnsgd1na2vs0mg"},{"bike_id":"d034e64e-9472-4475-a48f-7257fa711fc6","system_id":"levelo_inurba_marseille","lat":43.29525,"lon":5.38542,"is_reserved":false,"is_disabled":false,"rental_uris":{"android":"levelo://app?vid=d034e64e-9472-4475-a48f-7257fa711fc6","ios":"levelo://app?vid=d034e64e-9472-4475-a48f-7257fa711fc6"},"vehicle_type_id":"4","last_reported":1722031737,"current_range_meters":3600,"station_id":"ce4bgih2rcd13ifvqba0","pricing_plan_id":"cebpf4jnsgd1na2vs0mg"},{"bike_id":"d0924647-e115-4283-a6ac-759e5ddcf261","system_id":"levelo_inurba_marseille","lat":43.29529,"lon":5.385581,"is_reserved":false,"is_disabled":false,"rental_uris":{"android":"levelo://app?vid=d0924647-e115-4283-a6ac-759e5ddcf261","ios":"levelo://app?vid=d0924647-e115-4283-a6ac-759e5ddcf261"},"vehicle_type_id":"4","last_reported":1722031737,"current_range_meters":17600,"station_id":"ce4bgih2rcd13ifvqba0","pricing_plan_id":"cebpf4jnsgd1na2vs0mg"},{"bike_id":"cce7c51c-427d-4df2-9f76-c64f74f97360","system_id":"levelo_inurba_marseille","lat":43.295282,"lon":5.385497,"is_reserved":false,"is_disabled":false,"rental_uris":{"android":"levelo://app?vid=cce7c51c-427d-4df2-9f76-c64f74f97360","ios":"levelo://app?vid=cce7c51c-427d-4df2-9f76-c64f74f97360"},"vehicle_type_id":"4","last_reported":1722031737,"current_range_meters":21600,"station_id":"ce4bgih2rcd13ifvqba0","pricing_plan_id":"cebpf4jnsgd1na2vs0mg"},{"bike_id":"29bf3331-13db-42de-ad27-d72d089a305b","system_id":"levelo_inurba_marseille","lat":43.334377,"lon":5.359285,"is_reserved":false,"is_disabled":false,"rental_uris":{"android":"levelo://app?vid=29bf3331-13db-42de-ad27-d72d089a305b","ios":"levelo://app?vid=29bf3331-13db-42de-ad27-d72d089a305b"},"vehicle_type_id":"4","last_reported":1722031737,"current_range_meters":0,"station_id":"","pricing_plan_id":"cebpf4jnsgd1na2vs0mg"},{"bike_id":"4addbff7-9289-4f00-8e2e-70caa3480e99","system_id":"levelo_inurba_marseille","lat":43.302008,"lon":5.394694,"is_reserved":false,"is_disabled":false,"rental_uris":{"android":"levelo://app?vid=4addbff7-9289-4f00-8e2e-70caa3480e99","ios":"levelo://app?vid=4addbff7-9289-4f00-8e2e-70caa3480e99"},"vehicle_type_id":"4","last_reported":1722031737,"current_range_meters":20000,"station_id":"ce4bh0p2rcd13ifvqd70","pricing_plan_id":"cebpf4jnsgd1na2vs0mg"},{"bike_id":"1a1918ce-e869-41ab-b52c-a70b43040238","system_id":"levelo_inurba_marseille","lat":43.30202,"lon":5.39457,"is_reserved":false,"is_disabled":false,"rental_uris":{"android":"levelo://app?vid=1a1918ce-e869-41ab-b52c-a70b43040238","ios":"levelo://app?vid=1a1918ce-e869-41ab-b52c-a70b43040238"},"vehicle_type_id":"4","last_reported":1722031737,"current_range_meters":0,"station_id":"ce4bh0p2rcd13ifvqd70","pricing_plan_id":"cebpf4jnsgd1na2vs0mg"},{"bike_id":"1343b33d-4085-4a5e-95ae-710cb47e27f4","system_id":"levelo_inurba_marseille","lat":43.30203,"lon":5.39468,"is_reserved":false,"is_disabled":false,"rental_uris":{"android":"levelo://app?vid=1343b33d-4085-4a5e-95ae-710cb47e27f4","ios":"levelo://app?vid=1343b33d-4085-4a5e-95ae-710cb47e27f4"},"vehicle_type_id":"4","last_reported":1722031737,"current_range_meters":0,"station_id":"ce4bh0p2rcd13ifvqd70","pricing_plan_id":"cebpf4jnsgd1na2vs0mg"},{"bike_id":"3e6e589f-94d7-49fd-b4b2-f717a1e7790a","system_id":"levelo_inurba_marseille","lat":43.29057,"lon":5.35911,"is_reserved":false,"is_disabled":false,"rental_uris":{"android":"levelo://app?vid=3e6e589f-94d7-49fd-b4b2-f717a1e7790a","ios":"levelo://app?vid=3e6e589f-94d7-49fd-b4b2-f717a1e7790a"},"vehicle_type_id":"4","last_reported":1722031737,"current_range_meters":18400,"station_id":"ce4bha92rcd13ifvqeg0","pricing_plan_id":"cebpf4jnsgd1na2vs0mg"},{"bike_id":"c1d339a9-d65a-4ddd-8005-09a72a6f57e4","system_id":"levelo_inurba_marseille","lat":43.29049,"lon":5.35914,"is_reserved":false,"is_disabled":false,"rental_uris":{"android":"levelo://app?vid=c1d339a9-d65a-4ddd-8005-09a72a6f57e4","ios":"levelo://app?vid=c1d339a9-d65a-4ddd-8005-09a72a6f57e4"},"vehicle_type_id":"4","last_reported":1722031737,"current_range_meters":1200,"station_id":"ce4bha92rcd13ifvqeg0","pricing_plan_id":"cebpf4jnsgd1na2vs0mg"},{"bike_id":"8d6a5c03-d04f-4ed2-8a50-95c5cb2dea1f","system_id":"levelo_inurba_marseille","lat":43.290445,"lon":5.359188,"is_reserved":false,"is_disabled":false,"rental_uris":{"android":"levelo://app?vid=8d6a5c03-d04f-4ed2-8a50-95c5cb2dea1f","ios":"levelo://app?vid=8d6a5c03-d04f-4ed2-8a50-95c5cb2dea1f"},"vehicle_type_id":"4","last_reported":1722031737,"current_range_meters":21600,"station_id":"ce4bha92rcd13ifvqeg0","pricing_plan_id":"cebpf4jnsgd1na2vs0mg"},{"bike_id":"e502f73c-4bc7-4b9f-80f7-6f0d928a1c47","system_id":"levelo_inurba_marseille","lat":43.290397,"lon":5.35928,"is_reserved":false,"is_disabled":false,"rental_uris":{"android":"levelo://app?vid=e502f73c-4bc7-4b9f-80f7-6f0d928a1c47","ios":"levelo://app?vid=e502f73c-4bc7-4b9f-80f7-6f0d928a1c47"},"vehicle_type_id":"4","last_reported":1722031737,"current_range_meters":0,"station_id":"ce4bha92rcd13ifvqeg0","pricing_plan_id":"cebpf4jnsgd1na2vs0mg"},{"bike_id":"654c88b5-0f58-4aba-92df-f1e8700bf830","system_id":"levelo_inurba_marseille","lat":43.290327,"lon":5.375711,"is_reserved":false,"is_disabled":false,"rental_uris":{"android":"levelo://app?vid=654c88b5-0f58-4aba-92df-f1e8700bf830","ios":"levelo://app?vid=654c88b5-0f58-4aba-92df-f1e8700bf830"},"vehicle_type_id":"4","last_reported":1722031737,"current_range_meters":0,"station_id":"ce4bh692rcd13ifvqe90","pricing_plan_id":"cebpf4jnsgd1na2vs0mg"},{"bike_id":"4228a5df-c333-4f62-bd21-9d77164f6139","system_id":"levelo_inurba_marseille","lat":43.294153,"lon":5.386305,"is_reserved":false,"is_disabled":false,"rental_uris":{"android":"levelo://app?vid=4228a5df-c333-4f62-bd21-9d77164f6139","ios":"levelo://app?vid=4228a5df-c333-4f62-bd21-9d77164f6139"},"vehicle_type_id":"4","last_reported":1722031737,"current_range_meters":16800,"station_id":"ce4bh2h2rcd13ifvqdh0","pricing_plan_id":"cebpf4jnsgd1na2vs0mg"},{"bike_id":"2ec89f2a-87f8-427d-8404-f9e6a43e1191","system_id":"levelo_inurba_marseille","lat":43.294153,"lon":5.386305,"is_reserved":false,"is_disabled":false,"rental_uris":{"android":"levelo://app?vid=2ec89f2a-87f8-427d-8404-f9e6a43e1191","ios":"levelo://app?vid=2ec89f2a-87f8-427d-8404-f9e6a43e1191"},"vehicle_type_id":"4","last_reported":1722031737,"current_range_meters":0,"station_id":"ce4bh2h2rcd13ifvqdh0","pricing_plan_id":"cebpf4jnsgd1na2vs0mg"},{"bike_id":"4e1b77ae-e30a-4528-bfa7-fd254c7c17ad","system_id":"levelo_inurba_marseille","lat":43.29417,"lon":5.38621,"is_reserved":false,"is_disabled":false,"rental_uris":{"android":"levelo://app?vid=4e1b77ae-e30a-4528-bfa7-fd254c7c17ad","ios":"levelo://app?vid=4e1b77ae-e30a-4528-bfa7-fd254c7c17ad"},"vehicle_type_id":"4","last_reported":1722031737,"current_range_meters":0,"station_id":"ce4bh2h2rcd13ifvqdh0","pricing_plan_id":"cebpf4jnsgd1na2vs0mg"},{"bike_id":"ec7f4533-1820-4a94-8b58-0ea33dfbadc6","system_id":"levelo_inurba_marseille","lat":43.294153,"lon":5.386305,"is_reserved":false,"is_disabled":false,"rental_uris":{"android":"levelo://app?vid=ec7f4533-1820-4a94-8b58-0ea33dfbadc6","ios":"levelo://app?vid=ec7f4533-1820-4a94-8b58-0ea33dfbadc6"},"vehicle_type_id":"4","last_reported":1722031737,"current_range_meters":0,"station_id":"ce4bh2h2rcd13ifvqdh0","pricing_plan_id":"cebpf4jnsgd1na2vs0mg"},{"bike_id":"d1eadb5e-5b5d-41bf-b65f-4ae3a64f9b91","system_id":"levelo_inurba_marseille","lat":43.294153,"lon":5.386305,"is_reserved":false,"is_disabled":false,"rental_uris":{"android":"levelo://app?vid=d1eadb5e-5b5d-41bf-b65f-4ae3a64f9b91","ios":"levelo://app?vid=d1eadb5e-5b5d-41bf-b65f-4ae3a64f9b91"},"vehicle_type_id":"4","last_reported":1722031737,"current_range_meters":3200,"station_id":"ce4bh2h2rcd13ifvqdh0","pricing_plan_id":"cebpf4jnsgd1na2vs0mg"},{"bike_id":"be381eac-4882-4ac3-b361-89bb371c57fe","system_id":"levelo_inurba_marseille","lat":43.290319,"lon":5.375732,"is_reserved":false,"is_disabled":false,"rental_uris":{"android":"levelo://app?vid=be381eac-4882-4ac3-b361-89bb371c57fe","ios":"levelo://app?vid=be381eac-4882-4ac3-b361-89bb371c57fe"},"vehicle_type_id":"4","last_reported":1722031737,"current_range_meters":0,"station_id":"ce4bh692rcd13ifvqe90","pricing_plan_id":"cebpf4jnsgd1na2vs0mg"},{"bike_id":"cd6a1c70-fecd-4865-a1f7-8dfbbcaae4e5","system_id":"levelo_inurba_marseille","lat":43.290319,"lon":5.375732,"is_reserved":false,"is_disabled":false,"rental_uris":{"android":"levelo://app?vid=cd6a1c70-fecd-4865-a1f7-8dfbbcaae4e5","ios":"levelo://app?vid=cd6a1c70-fecd-4865-a1f7-8dfbbcaae4e5"},"vehicle_type_id":"4","last_reported":1722031737,"current_range_meters":400,"station_id":"ce4bh692rcd13ifvqe90","pricing_plan_id":"cebpf4jnsgd1na2vs0mg"},{"bike_id":"3fe0ada0-b3be-4719-83ac-79503348a0be","system_id":"levelo_inurba_marseille","lat":43.29418,"lon":5.38627,"is_reserved":false,"is_disabled":false,"rental_uris":{"android":"levelo://app?vid=3fe0ada0-b3be-4719-83ac-79503348a0be","ios":"levelo://app?vid=3fe0ada0-b3be-4719-83ac-79503348a0be"},"vehicle_type_id":"4","last_reported":1722031737,"current_range_meters":0,"station_id":"ce4bh2h2rcd13ifvqdh0","pricing_plan_id":"cebpf4jnsgd1na2vs0mg"},{"bike_id":"149ad317-2977-4c2d-b9af-065d2c29d5b4","system_id":"levelo_inurba_marseille","lat":43.289912,"lon":5.373317,"is_reserved":false,"is_disabled":false,"rental_uris":{"android":"levelo://app?vid=149ad317-2977-4c2d-b9af-065d2c29d5b4","ios":"levelo://app?vid=149ad317-2977-4c2d-b9af-065d2c29d5b4"},"vehicle_type_id":"4","last_reported":1722031737,"current_range_meters":28400,"station_id":"","pricing_plan_id":"cebpf4jnsgd1na2vs0mg"},{"bike_id":"2227a86e-e289-483c-a809-b3e3b4bd5069","system_id":"levelo_inurba_marseille","lat":43.29417,"lon":5.38629,"is_reserved":false,"is_disabled":false,"rental_uris":{"android":"levelo://app?vid=2227a86e-e289-483c-a809-b3e3b4bd5069","ios":"levelo://app?vid=2227a86e-e289-483c-a809-b3e3b4bd5069"},"vehicle_type_id":"4","last_reported":1722031737,"current_range_meters":0,"station_id":"ce4bh2h2rcd13ifvqdh0","pricing_plan_id":"cebpf4jnsgd1na2vs0mg"},{"bike_id":"305058d9-e92b-4c8b-8e64-0e3df5d400d1","system_id":"levelo_inurba_marseille","lat":43.294162,"lon":5.386292,"is_reserved":false,"is_disabled":false,"rental_uris":{"android":"levelo://app?vid=305058d9-e92b-4c8b-8e64-0e3df5d400d1","ios":"levelo://app?vid=305058d9-e92b-4c8b-8e64-0e3df5d400d1"},"vehicle_type_id":"4","last_reported":1722031737,"current_range_meters":25200,"station_id":"ce4bh2h2rcd13ifvqdh0","pricing_plan_id":"cebpf4jnsgd1na2vs0mg"},{"bike_id":"b680e99c-95e9-4bc8-8353-44384d0e2f0d","system_id":"levelo_inurba_marseille","lat":43.29416,"lon":5.38632,"is_reserved":false,"is_disabled":false,"rental_uris":{"android":"levelo://app?vid=b680e99c-95e9-4bc8-8353-44384d0e2f0d","ios":"levelo://app?vid=b680e99c-95e9-4bc8-8353-44384d0e2f0d"},"vehicle_type_id":"4","last_reported":1722031737,"current_range_meters":0,"station_id":"ce4bh2h2rcd13ifvqdh0","pricing_plan_id":"cebpf4jnsgd1na2vs0mg"},{"bike_id":"a3d196b7-5291-462a-a91c-7fe0805e61c2","system_id":"levelo_inurba_marseille","lat":43.28938,"lon":5.36629,"is_reserved":false,"is_disabled":false,"rental_uris":{"android":"levelo://app?vid=a3d196b7-5291-462a-a91c-7fe0805e61c2","ios":"levelo://app?vid=a3d196b7-5291-462a-a91c-7fe0805e61c2"},"vehicle_type_id":"4","last_reported":1722031737,"current_range_meters":0,"station_id":"ce4bhap2rcd13ifvqek0","pricing_plan_id":"cebpf4jnsgd1na2vs0mg"},{"bike_id":"158fe854-6691-409d-95bf-63ad2c429bee","system_id":"levelo_inurba_marseille","lat":43.289468,"lon":5.363719,"is_reserved":false,"is_disabled":false,"rental_uris":{"android":"levelo://app?vid=158fe854-6691-409d-95bf-63ad2c429bee","ios":"levelo://app?vid=158fe854-6691-409d-95bf-63ad2c429bee"},"vehicle_type_id":"4","last_reported":1722031737,"current_range_meters":0,"station_id":"ce4bhc92rcd13ifvqetg","pricing_plan_id":"cebpf4jnsgd1na2vs0mg"},{"bike_id":"0713a722-96d3-4abc-9877-681f17213ca2","system_id":"levelo_inurba_marseille","lat":43.28936,"lon":5.363927,"is_reserved":false,"is_disabled":false,"rental_uris":{"android":"levelo://app?vid=0713a722-96d3-4abc-9877-681f17213ca2","ios":"levelo://app?vid=0713a722-96d3-4abc-9877-681f17213ca2"},"vehicle_type_id":"4","last_reported":1722031737,"current_range_meters":0,"station_id":"ce4bhc92rcd13ifvqetg","pricing_plan_id":"cebpf4jnsgd1na2vs0mg"},{"bike_id":"5838c930-bcb4-493e-b1bf-e51a491d9536","system_id":"levelo_inurba_marseille","lat":43.292644,"lon":5.384257,"is_reserved":false,"is_disabled":false,"rental_uris":{"android":"levelo://app?vid=5838c930-bcb4-493e-b1bf-e51a491d9536","ios":"levelo://app?vid=5838c930-bcb4-493e-b1bf-e51a491d9536"},"vehicle_type_id":"4","last_reported":1722031737,"current_range_meters":1200,"station_id":"ce4bh692rcd13ifvqea0","pricing_plan_id":"cebpf4jnsgd1na2vs0mg"},{"bike_id":"6e9851dd-8591-4639-b095-c300fb792607","system_id":"levelo_inurba_marseille","lat":43.29268,"lon":5.38442,"is_reserved":false,"is_disabled":false,"rental_uris":{"android":"levelo://app?vid=6e9851dd-8591-4639-b095-c300fb792607","ios":"levelo://app?vid=6e9851dd-8591-4639-b095-c300fb792607"},"vehicle_type_id":"4","last_reported":1722031737,"current_range_meters":0,"station_id":"ce4bh692rcd13ifvqea0","pricing_plan_id":"cebpf4jnsgd1na2vs0mg"},{"bike_id":"f7047ae3-4441-4806-8a91-d86020d42b33","system_id":"levelo_inurba_marseille","lat":43.304274,"lon":5.397513,"is_reserved":false,"is_disabled":false,"rental_uris":{"android":"levelo://app?vid=f7047ae3-4441-4806-8a91-d86020d42b33","ios":"levelo://app?vid=f7047ae3-4441-4806-8a91-d86020d42b33"},"vehicle_type_id":"4","last_reported":1722031737,"current_range_meters":18000,"station_id":"ce4bh092rcd13ifvqd20","pricing_plan_id":"cebpf4jnsgd1na2vs0mg"},{"bike_id":"0e132e91-6eea-4da4-96c6-311fc2c98ee8","system_id":"levelo_inurba_marseille","lat":43.292644,"lon":5.384257,"is_reserved":false,"is_disabled":false,"rental_uris":{"android":"levelo://app?vid=0e132e91-6eea-4da4-96c6-311fc2c98ee8","ios":"levelo://app?vid=0e132e91-6eea-4da4-96c6-311fc2c98ee8"},"vehicle_type_id":"4","last_reported":1722031737,"current_range_meters":400,"station_id":"ce4bh692rcd13ifvqea0","pricing_plan_id":"cebpf4jnsgd1na2vs0mg"},{"bike_id":"d183e5ff-7163-4832-93ce-a678b590013f","system_id":"levelo_inurba_marseille","lat":43.29267,"lon":5.38452,"is_reserved":false,"is_disabled":false,"rental_uris":{"android":"levelo://app?vid=d183e5ff-7163-4832-93ce-a678b590013f","ios":"levelo://app?vid=d183e5ff-7163-4832-93ce-a678b590013f"},"vehicle_type_id":"4","last_reported":1722031737,"current_range_meters":2000,"station_id":"ce4bh692rcd13ifvqea0","pricing_plan_id":"cebpf4jnsgd1na2vs0mg"},{"bike_id":"a8d950dc-4572-40ec-bff0-b3c8ad49a898","system_id":"levelo_inurba_marseille","lat":43.29266,"lon":5.38451,"is_reserved":false,"is_disabled":false,"rental_uris":{"android":"levelo://app?vid=a8d950dc-4572-40ec-bff0-b3c8ad49a898","ios":"levelo://app?vid=a8d950dc-4572-40ec-bff0-b3c8ad49a898"},"vehicle_type_id":"4","last_reported":1722031737,"current_range_meters":0,"station_id":"ce4bh692rcd13ifvqea0","pricing_plan_id":"cebpf4jnsgd1na2vs0mg"},{"bike_id":"00bc8efd-7e8f-4b58-b04f-23d589fb802a","system_id":"levelo_inurba_marseille","lat":43.29262,"lon":5.38443,"is_reserved":false,"is_disabled":false,"rental_uris":{"android":"levelo://app?vid=00bc8efd-7e8f-4b58-b04f-23d589fb802a","ios":"levelo://app?vid=00bc8efd-7e8f-4b58-b04f-23d589fb802a"},"vehicle_type_id":"4","last_reported":1722031737,"current_range_meters":8400,"station_id":"ce4bh692rcd13ifvqea0","pricing_plan_id":"cebpf4jnsgd1na2vs0mg"},{"bike_id":"6294e319-b176-435f-ad4f-cc82223056e9","system_id":"levelo_inurba_marseille","lat":43.29259,"lon":5.3844,"is_reserved":false,"is_disabled":false,"rental_uris":{"android":"levelo://app?vid=6294e319-b176-435f-ad4f-cc82223056e9","ios":"levelo://app?vid=6294e319-b176-435f-ad4f-cc82223056e9"},"vehicle_type_id":"4","last_reported":1722031737,"current_range_meters":0,"station_id":"ce4bh692rcd13ifvqea0","pricing_plan_id":"cebpf4jnsgd1na2vs0mg"},{"bike_id":"9a869b7d-be74-4d2e-ac72-ca49afb51e26","system_id":"levelo_inurba_marseille","lat":43.304274,"lon":5.397513,"is_reserved":false,"is_disabled":false,"rental_uris":{"android":"levelo://app?vid=9a869b7d-be74-4d2e-ac72-ca49afb51e26","ios":"levelo://app?vid=9a869b7d-be74-4d2e-ac72-ca49afb51e26"},"vehicle_type_id":"4","last_reported":1722031737,"current_range_meters":7600,"station_id":"ce4bh092rcd13ifvqd20","pricing_plan_id":"cebpf4jnsgd1na2vs0mg"},{"bike_id":"e161cf28-86f3-4af8-bb50-62cbaffb8038","system_id":"levelo_inurba_marseille","lat":43.304274,"lon":5.397513,"is_reserved":false,"is_disabled":false,"rental_uris":{"android":"levelo://app?vid=e161cf28-86f3-4af8-bb50-62cbaffb8038","ios":"levelo://app?vid=e161cf28-86f3-4af8-bb50-62cbaffb8038"},"vehicle_type_id":"4","last_reported":1722031737,"current_range_meters":20800,"station_id":"ce4bh092rcd13ifvqd20","pricing_plan_id":"cebpf4jnsgd1na2vs0mg"},{"bike_id":"b5ad821e-c281-46e9-9726-58283d0b4b2e","system_id":"levelo_inurba_marseille","lat":43.304274,"lon":5.397513,"is_reserved":false,"is_disabled":false,"rental_uris":{"android":"levelo://app?vid=b5ad821e-c281-46e9-9726-58283d0b4b2e","ios":"levelo://app?vid=b5ad821e-c281-46e9-9726-58283d0b4b2e"},"vehicle_type_id":"4","last_reported":1722031737,"current_range_meters":0,"station_id":"ce4bh092rcd13ifvqd20","pricing_plan_id":"cebpf4jnsgd1na2vs0mg"},{"bike_id":"154b70e5-0b61-446c-b197-55c2ffe5114a","system_id":"levelo_inurba_marseille","lat":43.290104,"lon":5.356111,"is_reserved":false,"is_disabled":false,"rental_uris":{"android":"levelo://app?vid=154b70e5-0b61-446c-b197-55c2ffe5114a","ios":"levelo://app?vid=154b70e5-0b61-446c-b197-55c2ffe5114a"},"vehicle_type_id":"4","last_reported":1722031737,"current_range_meters":0,"station_id":"ce4bhb92rcd13ifvqen0","pricing_plan_id":"cebpf4jnsgd1na2vs0mg"},{"bike_id":"210a4e05-a6ca-4ee5-a6d8-afe0883efb53","system_id":"levelo_inurba_marseille","lat":43.290104,"lon":5.356111,"is_reserved":false,"is_disabled":false,"rental_uris":{"android":"levelo://app?vid=210a4e05-a6ca-4ee5-a6d8-afe0883efb53","ios":"levelo://app?vid=210a4e05-a6ca-4ee5-a6d8-afe0883efb53"},"vehicle_type_id":"4","last_reported":1722031737,"current_range_meters":0,"station_id":"ce4bhb92rcd13ifvqen0","pricing_plan_id":"cebpf4jnsgd1na2vs0mg"},{"bike_id":"dc1f1425-d3f8-4782-8c3a-86d6d1d025f4","system_id":"levelo_inurba_marseille","lat":43.290103,"lon":5.356114,"is_reserved":false,"is_disabled":false,"rental_uris":{"android":"levelo://app?vid=dc1f1425-d3f8-4782-8c3a-86d6d1d025f4","ios":"levelo://app?vid=dc1f1425-d3f8-4782-8c3a-86d6d1d025f4"},"vehicle_type_id":"4","last_reported":1722031737,"current_range_meters":2800,"station_id":"ce4bhb92rcd13ifvqen0","pricing_plan_id":"cebpf4jnsgd1na2vs0mg"},{"bike_id":"993cbca8-d00f-468c-9d60-4b8762621d68","system_id":"levelo_inurba_marseille","lat":43.29003,"lon":5.35624,"is_reserved":false,"is_disabled":false,"rental_uris":{"android":"levelo://app?vid=993cbca8-d00f-468c-9d60-4b8762621d68","ios":"levelo://app?vid=993cbca8-d00f-468c-9d60-4b8762621d68"},"vehicle_type_id":"4","last_reported":1722031737,"current_range_meters":0,"station_id":"ce4bhb92rcd13ifvqen0","pricing_plan_id":"cebpf4jnsgd1na2vs0mg"},{"bike_id":"3e8a7a31-6fef-4928-9ca8-633a3e2f14b8","system_id":"levelo_inurba_marseille","lat":43.290995,"lon":5.381361,"is_reserved":false,"is_disabled":false,"rental_uris":{"android":"levelo://app?vid=3e8a7a31-6fef-4928-9ca8-633a3e2f14b8","ios":"levelo://app?vid=3e8a7a31-6fef-4928-9ca8-633a3e2f14b8"},"vehicle_type_id":"4","last_reported":1722031737,"current_range_meters":27200,"station_id":"ce4bh512rcd13ifvqe2g","pricing_plan_id":"cebpf4jnsgd1na2vs0mg"},{"bike_id":"95b9000f-b655-4d0c-a74c-611ffaa0495b","system_id":"levelo_inurba_marseille","lat":43.295169,"lon":5.390426,"is_reserved":false,"is_disabled":false,"rental_uris":{"android":"levelo://app?vid=95b9000f-b655-4d0c-a74c-611ffaa0495b","ios":"levelo://app?vid=95b9000f-b655-4d0c-a74c-611ffaa0495b"},"vehicle_type_id":"4","last_reported":1722031737,"current_range_meters":15600,"station_id":"ce4bh3p2rcd13ifvqdp0","pricing_plan_id":"cebpf4jnsgd1na2vs0mg"},{"bike_id":"36b071d5-579e-4ec5-b894-84a65cc510c8","system_id":"levelo_inurba_marseille","lat":43.295169,"lon":5.390426,"is_reserved":false,"is_disabled":false,"rental_uris":{"android":"levelo://app?vid=36b071d5-579e-4ec5-b894-84a65cc510c8","ios":"levelo://app?vid=36b071d5-579e-4ec5-b894-84a65cc510c8"},"vehicle_type_id":"4","last_reported":1722031737,"current_range_meters":2000,"station_id":"ce4bh3p2rcd13ifvqdp0","pricing_plan_id":"cebpf4jnsgd1na2vs0mg"},{"bike_id":"1ee43f56-29fe-4904-9cd6-e54b5eedce32","system_id":"levelo_inurba_marseille","lat":43.295169,"lon":5.390426,"is_reserved":false,"is_disabled":false,"rental_uris":{"android":"levelo://app?vid=1ee43f56-29fe-4904-9cd6-e54b5eedce32","ios":"levelo://app?vid=1ee43f56-29fe-4904-9cd6-e54b5eedce32"},"vehicle_type_id":"4","last_reported":1722031737,"current_range_meters":8400,"station_id":"ce4bh3p2rcd13ifvqdp0","pricing_plan_id":"cebpf4jnsgd1na2vs0mg"},{"bike_id":"42cc6e0e-d01f-4078-b327-a14f1dfba582","system_id":"levelo_inurba_marseille","lat":43.289741,"lon":5.378306,"is_reserved":false,"is_disabled":false,"rental_uris":{"android":"levelo://app?vid=42cc6e0e-d01f-4078-b327-a14f1dfba582","ios":"levelo://app?vid=42cc6e0e-d01f-4078-b327-a14f1dfba582"},"vehicle_type_id":"4","last_reported":1722031737,"current_range_meters":5200,"station_id":"ce4bh9p2rcd13ifvqed0","pricing_plan_id":"cebpf4jnsgd1na2vs0mg"},{"bike_id":"45c3581f-d9e3-4b38-84e2-348f77800c04","system_id":"levelo_inurba_marseille","lat":43.295169,"lon":5.390426,"is_reserved":false,"is_disabled":false,"rental_uris":{"android":"levelo://app?vid=45c3581f-d9e3-4b38-84e2-348f77800c04","ios":"levelo://app?vid=45c3581f-d9e3-4b38-84e2-348f77800c04"},"vehicle_type_id":"4","last_reported":1722031737,"current_range_meters":5200,"station_id":"ce4bh3p2rcd13ifvqdp0","pricing_plan_id":"cebpf4jnsgd1na2vs0mg"},{"bike_id":"19c2b059-60a1-4af4-8739-58aa6eca6d13","system_id":"levelo_inurba_marseille","lat":43.330442,"lon":5.389148,"is_reserved":false,"is_disabled":false,"rental_uris":{"android":"levelo://app?vid=19c2b059-60a1-4af4-8739-58aa6eca6d13","ios":"levelo://app?vid=19c2b059-60a1-4af4-8739-58aa6eca6d13"},"vehicle_type_id":"4","last_reported":1722031737,"current_range_meters":8400,"station_id":"ce4bhr92rcd13ifvqhrg","pricing_plan_id":"cebpf4jnsgd1na2vs0mg"},{"bike_id":"572dbc3c-f901-4191-891f-0eca48372098","system_id":"levelo_inurba_marseille","lat":43.295169,"lon":5.390426,"is_reserved":false,"is_disabled":false,"rental_uris":{"android":"levelo://app?vid=572dbc3c-f901-4191-891f-0eca48372098","ios":"levelo://app?vid=572dbc3c-f901-4191-891f-0eca48372098"},"vehicle_type_id":"4","last_reported":1722031737,"current_range_meters":30800,"station_id":"ce4bh3p2rcd13ifvqdp0","pricing_plan_id":"cebpf4jnsgd1na2vs0mg"},{"bike_id":"ba4c5595-e564-4031-9d6e-85346c56a12e","system_id":"levelo_inurba_marseille","lat":43.330442,"lon":5.389148,"is_reserved":false,"is_disabled":false,"rental_uris":{"android":"levelo://app?vid=ba4c5595-e564-4031-9d6e-85346c56a12e","ios":"levelo://app?vid=ba4c5595-e564-4031-9d6e-85346c56a12e"},"vehicle_type_id":"4","last_reported":1722031737,"current_range_meters":13600,"station_id":"ce4bhr92rcd13ifvqhrg","pricing_plan_id":"cebpf4jnsgd1na2vs0mg"},{"bike_id":"0215f4ee-163d-4feb-9e50-89a65ab13b20","system_id":"levelo_inurba_marseille","lat":43.330442,"lon":5.389148,"is_reserved":false,"is_disabled":false,"rental_uris":{"android":"levelo://app?vid=0215f4ee-163d-4feb-9e50-89a65ab13b20","ios":"levelo://app?vid=0215f4ee-163d-4feb-9e50-89a65ab13b20"},"vehicle_type_id":"4","last_reported":1722031737,"current_range_meters":17600,"station_id":"ce4bhr92rcd13ifvqhrg","pricing_plan_id":"cebpf4jnsgd1na2vs0mg"},{"bike_id":"321af818-5e38-4067-97cd-eb1faa83a2a8","system_id":"levelo_inurba_marseille","lat":43.330442,"lon":5.389148,"is_reserved":false,"is_disabled":false,"rental_uris":{"android":"levelo://app?vid=321af818-5e38-4067-97cd-eb1faa83a2a8","ios":"levelo://app?vid=321af818-5e38-4067-97cd-eb1faa83a2a8"},"vehicle_type_id":"4","last_reported":1722031737,"current_range_meters":800,"station_id":"ce4bhr92rcd13ifvqhrg","pricing_plan_id":"cebpf4jnsgd1na2vs0mg"},{"bike_id":"47afbf3f-2ec4-4285-8a8a-14278d6beee6","system_id":"levelo_inurba_marseille","lat":43.33023,"lon":5.39046,"is_reserved":false,"is_disabled":false,"rental_uris":{"android":"levelo://app?vid=47afbf3f-2ec4-4285-8a8a-14278d6beee6","ios":"levelo://app?vid=47afbf3f-2ec4-4285-8a8a-14278d6beee6"},"vehicle_type_id":"4","last_reported":1722031737,"current_range_meters":12000,"station_id":"ce4bhr92rcd13ifvqhrg","pricing_plan_id":"cebpf4jnsgd1na2vs0mg"},{"bike_id":"fd09d8c9-ba0c-4ff9-8a5c-4eeb34c33e6d","system_id":"levelo_inurba_marseille","lat":43.33024,"lon":5.39045,"is_reserved":false,"is_disabled":false,"rental_uris":{"android":"levelo://app?vid=fd09d8c9-ba0c-4ff9-8a5c-4eeb34c33e6d","ios":"levelo://app?vid=fd09d8c9-ba0c-4ff9-8a5c-4eeb34c33e6d"},"vehicle_type_id":"4","last_reported":1722031737,"current_range_meters":4000,"station_id":"ce4bhr92rcd13ifvqhrg","pricing_plan_id":"cebpf4jnsgd1na2vs0mg"},{"bike_id":"0a689393-5348-42b5-bb74-261fd376553c","system_id":"levelo_inurba_marseille","lat":43.33022,"lon":5.39048,"is_reserved":false,"is_disabled":false,"rental_uris":{"android":"levelo://app?vid=0a689393-5348-42b5-bb74-261fd376553c","ios":"levelo://app?vid=0a689393-5348-42b5-bb74-261fd376553c"},"vehicle_type_id":"4","last_reported":1722031737,"current_range_meters":800,"station_id":"ce4bhr92rcd13ifvqhrg","pricing_plan_id":"cebpf4jnsgd1na2vs0mg"},