{"last_updated":1741983005,"ttl":60,"version":"2.2","data":{"bikes":[{"bike_id":"085c816c-2761-4101-b140-49393a7e1883","system_id":"levelo_inurba_marseille","lat":43.2757,"lon":5.38453,"is_reserved":false,"is_disabled":false,"rental_uris":{"android":"levelo://app?vid=085c816c-2761-4101-b140-49393a7e1883","ios":"levelo://app?vid=085c816c-2761-4101-b140-49393a7e1883"},"vehicle_type_id":"4","last_reported":1741983005,"current_range_meters":2800,"station_id":"ce4bhh92rcd13ifvqfi0","pricing_plan_id":"cebpf4jnsgd1na2vs0mg"},{"bike_id":"7ede5137-2e1f-44e6-ac4e-62e726d08520","system_id":"levelo_inurba_marseille","lat":43.26584,"lon":5.39028,"is_reserved":false,"is_disabled":true,"rental_uris":{"android":"levelo://app?vid=7ede5137-2e1f-44e6-ac4e-62e726d08520","ios":"levelo://app?vid=7ede5137-2e1f-44e6-ac4e-62e726d08520"},"vehicle_type_id":"4","last_reported":1741983005,"current_range_meters":3200,"station_id":"","pricing_plan_id":"cebpf4jnsgd1na2vs0mg"},{"bike_id":"86d5d0c6-37a5-41c0-a1d6-867a566b4d1c","system_id":"levelo_inurba_marseille","lat":43.25902,"lon":5.40016,"is_reserved":false,"is_disabled":false,"rental_uris":{"android":"levelo://app?vid=86d5d0c6-37a5-41c0-a1d6-867a566b4d1c","ios":"levelo://app?vid=86d5d0c6-37a5-41c0-a1d6-867a566b4d1c"},"vehicle_type_id":"4","last_reported":1741983005,"current_range_meters":3200,"station_id":"ce4bhl92rcd13ifvqghg","pricing_plan_id":"cebpf4jnsgd1na2vs0mg"},{"bike_id":"154d0f4a-7cf1-4b4a-8919-807104d462e1","system_id":"levelo_inurba_marseille","lat":43.26658,"lon":5.38628,"is_reserved":false,"is_disabled":false,"rental_uris":{"android":"levelo://app?vid=154d0f4a-7cf1-4b4a-8919-807104d462e1","ios":"levelo://app?vid=154d0f4a-7cf1-4b4a-8919-807104d462e1"},"vehicle_type_id":"4","last_reported":1741983005,"current_range_meters":3600,"station_id":"","pricing_plan_id":"cebpf4jnsgd1na2vs0mg"},{"bike_id":"2a574ec5-3235-4f3b-8092-9585e5997086","system_id":"levelo_inurba_marseille","lat":43.26957,"lon":5.38636,"is_reserved":false,"is_disabled":false,"rental_uris":{"android":"levelo://app?vid=2a574ec5-3235-4f3b-8092-9585e5997086","ios":"levelo://app?vid=2a574ec5-3235-4f3b-8092-9585e5997086"},"vehicle_type_id":"4","last_reported":1741983005,"current_range_meters":4400,"station_id":"ce4bhh92rcd13ifvqfh0","pricing_plan_id":"cebpf4jnsgd1na2vs0mg"},{"bike_id":"1ee51659-2a76-4471-9f01-e328f155d763","system_id":"levelo_inurba_marseille","lat":43.2925,"lon":5.38432,"is_reserved":false,"is_disabled":true,"rental_uris":{"android":"levelo://app?vid=1ee51659-2a76-4471-9f01-e328f155d763","ios":"levelo://app?vid=1ee51659-2a76-4471-9f01-e328f155d763"},"vehicle_type_id":"4","last_reported":1741983005,"current_range_meters":4400,"station_id":"ce4bh692rcd13ifvqea0","pricing_plan_id":"cebpf4jnsgd1na2vs0mg"},{"bike_id":"03317a15-545d-410f-8ecc-317af478f11d","system_id":"levelo_inurba_marseille","lat":43.24177,"lon":5.3974,"is_reserved":false,"is_disabled":false,"rental_uris":{"android":"levelo://app?vid=03317a15-545d-410f-8ecc-317af478f11d","ios":"levelo://app?vid=03317a15-545d-410f-8ecc-317af478f11d"},"vehicle_type_id":"4","last_reported":1741983005,"current_range_meters":4800,"station_id":"ce4bhn12rcd13ifvqgpg","pricing_plan_id":"cebpf4jnsgd1na2vs0mg"},{"bike_id":"9f65ba00-4728-45d6-b3f4-c7d852aad71e","system_id":"levelo_inurba_marseille","lat":43.29897,"lon":5.43674,"is_reserved":false,"is_disabled":false,"rental_uris":{"android":"levelo://app?vid=9f65ba00-4728-45d6-b3f4-c7d852aad71e","ios":"levelo://app?vid=9f65ba00-4728-45d6-b3f4-c7d852aad71e"},"vehicle_type_id":"4","last_reported":1741983005,"current_range_meters":4800,"station_id":"ce4bhpp2rcd13ifvqhfg","pricing_plan_id":"cebpf4jnsgd1na2vs0mg"},{"bike_id":"cb811744-3b10-4862-a5f3-cd5fac3f6c20","system_id":"levelo_inurba_marseille","lat":43.24179,"lon":5.39732,"is_reserved":false,"is_disabled":false,"rental_uris":{"android":"levelo://app?vid=cb811744-3b10-4862-a5f3-cd5fac3f6c20","ios":"levelo://app?vid=cb811744-3b10-4862-a5f3-cd5fac3f6c20"},"vehicle_type_id":"4","last_reported":1741983005,"current_range_meters":4800,"station_id":"ce4bhn12rcd13ifvqgpg","pricing_plan_id":"cebpf4jnsgd1na2vs0mg"},{"bike_id":"c1a24c86-1046-401e-ac91-f6dddea36d99","system_id":"levelo_inurba_marseille","lat":43.27932,"lon":5.38716,"is_reserved":false,"is_disabled":false,"rental_uris":{"android":"levelo://app?vid=c1a24c86-1046-401e-ac91-f6dddea36d99","ios":"levelo://app?vid=c1a24c86-1046-401e-ac91-f6dddea36d99"},"vehicle_type_id":"4","last_reported":1741983005,"current_range_meters":5600,"station_id":"ce4bhg12rcd13ifvqf80","pricing_plan_id":"cebpf4jnsgd1na2vs0mg"},{"bike_id":"83aa7ab2-d352-459f-bd36-67e70fb4a7aa","system_id":"levelo_inurba_marseille","lat":43.259339,"lon":5.408973,"is_reserved":false,"is_disabled":false,"rental_uris":{"android":"levelo://app?vid=83aa7ab2-d352-459f-bd36-67e70fb4a7aa","ios":"levelo://app?vid=83aa7ab2-d352-459f-bd36-67e70fb4a7aa"},"vehicle_type_id":"4","last_reported":1741983005,"current_range_meters":5600,"station_id":"ce4bhm92rcd13ifvqglg","pricing_plan_id":"cebpf4jnsgd1na2vs0mg"},{"bike_id":"675cdd3b-811a-49a2-af74-a173f2b14b94","system_id":"levelo_inurba_marseille","lat":43.26782,"lon":5.39421,"is_reserved":false,"is_disabled":false,"rental_uris":{"android":"levelo://app?vid=675cdd3b-811a-49a2-af74-a173f2b14b94","ios":"levelo://app?vid=675cdd3b-811a-49a2-af74-a173f2b14b94"},"vehicle_type_id":"4","last_reported":1741983005,"current_range_meters":5600,"station_id":"ce4bhh12rcd13ifvqfg0","pricing_plan_id":"cebpf4jnsgd1na2vs0mg"},{"bike_id":"af5df027-9916-41a5-8ab7-db2182f63a1a","system_id":"levelo_inurba_marseille","lat":43.29275,"lon":5.37444,"is_reserved":false,"is_disabled":false,"rental_uris":{"android":"levelo://app?vid=af5df027-9916-41a5-8ab7-db2182f63a1a","ios":"levelo://app?vid=af5df027-9916-41a5-8ab7-db2182f63a1a"},"vehicle_type_id":"4","last_reported":1741983005,"current_range_meters":5600,"station_id":"ce4bgi12rcd13ifvqb70","pricing_plan_id":"cebpf4jnsgd1na2vs0mg"},{"bike_id":"7b35ad81-591c-4cc8-b125-1210315faf0d","system_id":"levelo_inurba_marseille","lat":43.23171,"lon":5.43721,"is_reserved":false,"is_disabled":false,"rental_uris":{"android":"levelo://app?vid=7b35ad81-591c-4cc8-b125-1210315faf0d","ios":"levelo://app?vid=7b35ad81-591c-4cc8-b125-1210315faf0d"},"vehicle_type_id":"4","last_reported":1741983005,"current_range_meters":5600,"station_id":"ce4bhmp2rcd13ifvqgog","pricing_plan_id":"cebpf4jnsgd1na2vs0mg"},{"bike_id":"1cbeb49c-8d51-46f2-ad03-8af78ea79d9a","system_id":"levelo_inurba_marseille","lat":43.24172,"lon":5.39698,"is_reserved":false,"is_disabled":false,"rental_uris":{"android":"levelo://app?vid=1cbeb49c-8d51-46f2-ad03-8af78ea79d9a","ios":"levelo://app?vid=1cbeb49c-8d51-46f2-ad03-8af78ea79d9a"},"vehicle_type_id":"4","last_reported":1741983005,"current_range_meters":6000,"station_id":"ce4bhn12rcd13ifvqgpg","pricing_plan_id":"cebpf4jnsgd1na2vs0mg"},{"bike_id":"e350ce66-a995-469c-b4d1-ba6658fe49e2","system_id":"levelo_inurba_marseille","lat":43.27818,"lon":5.40701,"is_reserved":false,"is_disabled":false,"rental_uris":{"android":"levelo://app?vid=e350ce66-a995-469c-b4d1-ba6658fe49e2","ios":"levelo://app?vid=e350ce66-a995-469c-b4d1-ba6658fe49e2"},"vehicle_type_id":"4","last_reported":1741983005,"current_range_meters":5600,"station_id":"ce4bhnh2rcd13ifvqgtg","pricing_plan_id":"cebpf4jnsgd1na2vs0mg"},{"bike_id":"39df283f-35a5-4c44-9f0d-6dd6923a19a4","system_id":"levelo_inurba_marseille","lat":43.32055,"lon":5.36882,"is_reserved":false,"is_disabled":false,"rental_uris":{"android":"levelo://app?vid=39df283f-35a5-4c44-9f0d-6dd6923a19a4","ios":"levelo://app?vid=39df283f-35a5-4c44-9f0d-6dd6923a19a4"},"vehicle_type_id":"4","last_reported":1741983005,"current_range_meters":5600,"station_id":"","pricing_plan_id":"cebpf4jnsgd1na2vs0mg"},{"bike_id":"ab3b3273-086b-4458-b5bf-fb61a149b41e","system_id":"levelo_inurba_marseille","lat":43.26248,"lon":5.40491,"is_reserved":false,"is_disabled":false,"rental_uris":{"android":"levelo://app?vid=ab3b3273-086b-4458-b5bf-fb61a149b41e","ios":"levelo://app?vid=ab3b3273-086b-4458-b5bf-fb61a149b41e"},"vehicle_type_id":"4","last_reported":1741983005,"current_range_meters":6000,"station_id":"","pricing_plan_id":"cebpf4jnsgd1na2vs0mg"},{"bike_id":"45dce5d6-fdd9-43b7-8cb1-c7832923b7a4","system_id":"levelo_inurba_marseille","lat":43.27076,"lon":5.40276,"is_reserved":false,"is_disabled":false,"rental_uris":{"android":"levelo://app?vid=45dce5d6-fdd9-43b7-8cb1-c7832923b7a4","ios":"levelo://app?vid=45dce5d6-fdd9-43b7-8cb1-c7832923b7a4"},"vehicle_type_id":"4","last_reported":1741983005,"current_range_meters":6000,"station_id":"ce4bhk92rcd13ifvqgc0","pricing_plan_id":"cebpf4jnsgd1na2vs0mg"},{"bike_id":"ae38b678-c859-4b06-a525-6b6f5865d4c7","system_id":"levelo_inurba_marseille","lat":43.2954,"lon":5.38544,"is_reserved":false,"is_disabled":false,"rental_uris":{"android":"levelo://app?vid=ae38b678-c859-4b06-a525-6b6f5865d4c7","ios":"levelo://app?vid=ae38b678-c859-4b06-a525-6b6f5865d4c7"},"vehicle_type_id":"4","last_reported":1741983005,"current_range_meters":6400,"station_id":"ce4bgih2rcd13ifvqba0","pricing_plan_id":"cebpf4jnsgd1na2vs0mg"},{"bike_id":"9fb1c228-a1b8-4539-a4b7-479576b779f7","system_id":"levelo_inurba_marseille","lat":43.28973,"lon":5.37843,"is_reserved":false,"is_disabled":false,"rental_uris":{"android":"levelo://app?vid=9fb1c228-a1b8-4539-a4b7-479576b779f7","ios":"levelo://app?vid=9fb1c228-a1b8-4539-a4b7-479576b779f7"},"vehicle_type_id":"4","last_reported":1741983005,"current_range_meters":6400,"station_id":"ce4bh9p2rcd13ifvqed0","pricing_plan_id":"cebpf4jnsgd1na2vs0mg"},{"bike_id":"7846931d-e78e-480f-af9c-db0e7893966a","system_id":"levelo_inurba_marseille","lat":43.27562,"lon":5.38435,"is_reserved":false,"is_disabled":false,"rental_uris":{"android":"levelo://app?vid=7846931d-e78e-480f-af9c-db0e7893966a","ios":"levelo://app?vid=7846931d-e78e-480f-af9c-db0e7893966a"},"vehicle_type_id":"4","last_reported":1741983005,"current_range_meters":6400,"station_id":"ce4bhh92rcd13ifvqfi0","pricing_plan_id":"cebpf4jnsgd1na2vs0mg"},{"bike_id":"9660dc48-862d-4b47-b820-fb425a6ad2ce","system_id":"levelo_inurba_marseille","lat":43.3123,"lon":5.36832,"is_reserved":false,"is_disabled":false,"rental_uris":{"android":"levelo://app?vid=9660dc48-862d-4b47-b820-fb425a6ad2ce","ios":"levelo://app?vid=9660dc48-862d-4b47-b820-fb425a6ad2ce"},"vehicle_type_id":"4","last_reported":1741983005,"current_range_meters":6400,"station_id":"ce4bgl92rcd13ifvqbq0","pricing_plan_id":"cebpf4jnsgd1na2vs0mg"},{"bike_id":"34419613-555b-4a7e-89c4-cf8a91ec83b7","system_id":"levelo_inurba_marseille","lat":43.2705,"lon":5.40263,"is_reserved":false,"is_disabled":false,"rental_uris":{"android":"levelo://app?vid=34419613-555b-4a7e-89c4-cf8a91ec83b7","ios":"levelo://app?vid=34419613-555b-4a7e-89c4-cf8a91ec83b7"},"vehicle_type_id":"4","last_reported":1741983005,"current_range_meters":6800,"station_id":"ce4bhk92rcd13ifvqgc0","pricing_plan_id":"cebpf4jnsgd1na2vs0mg"},{"bike_id":"90f263ed-f955-44be-aa34-2a284417f95a","system_id":"levelo_inurba_marseille","lat":43.33003,"lon":5.39009,"is_reserved":false,"is_disabled":false,"rental_uris":{"android":"levelo://app?vid=90f263ed-f955-44be-aa34-2a284417f95a","ios":"levelo://app?vid=90f263ed-f955-44be-aa34-2a284417f95a"},"vehicle_type_id":"4","last_reported":1741983005,"current_range_meters":6800,"station_id":"ce4bhr92rcd13ifvqhrg","pricing_plan_id":"cebpf4jnsgd1na2vs0mg"},{"bike_id":"aa3c5349-766e-4992-8e95-c670f1f543fb","system_id":"levelo_inurba_marseille","lat":43.22916,"lon":5.40197,"is_reserved":false,"is_disabled":false,"rental_uris":{"android":"levelo://app?vid=aa3c5349-766e-4992-8e95-c670f1f543fb","ios":"levelo://app?vid=aa3c5349-766e-4992-8e95-c670f1f543fb"},"vehicle_type_id":"4","last_reported":1741983005,"current_range_meters":6800,"station_id":"","pricing_plan_id":"cebpf4jnsgd1na2vs0mg"},{"bike_id":"822afc0c-2945-4410-a212-3b069ea780b3","system_id":"levelo_inurba_marseille","lat":43.30642,"lon":5.40107,"is_reserved":false,"is_disabled":false,"rental_uris":{"android":"levelo://app?vid=822afc0c-2945-4410-a212-3b069ea780b3","ios":"levelo://app?vid=822afc0c-2945-4410-a212-3b069ea780b3"},"vehicle_type_id":"4","last_reported":1741983005,"current_range_meters":6800,"station_id":"ce4bh112rcd13ifvqda0","pricing_plan_id":"cebpf4jnsgd1na2vs0mg"},{"bike_id":"1ec9b4ef-c11c-4398-b218-eaed544e6f13","system_id":"levelo_inurba_marseille","lat":43.292616,"lon":5.384372,"is_reserved":false,"is_disabled":false,"rental_uris":{"android":"levelo://app?vid=1ec9b4ef-c11c-4398-b218-eaed544e6f13","ios":"levelo://app?vid=1ec9b4ef-c11c-4398-b218-eaed544e6f13"},"vehicle_type_id":"4","last_reported":1741983005,"current_range_meters":6800,"station_id":"ce4bgop2rcd13ifvqc1g","pricing_plan_id":"cebpf4jnsgd1na2vs0mg"},{"bike_id":"38680f11-7522-45a4-aa4c-fe09709812e3","system_id":"levelo_inurba_marseille","lat":43.23162,"lon":5.43727,"is_reserved":false,"is_disabled":false,"rental_uris":{"android":"levelo://app?vid=38680f11-7522-45a4-aa4c-fe09709812e3","ios":"levelo://app?vid=38680f11-7522-45a4-aa4c-fe09709812e3"},"vehicle_type_id":"4","last_reported":1741983005,"current_range_meters":6800,"station_id":"ce4bhmp2rcd13ifvqgog","pricing_plan_id":"cebpf4jnsgd1na2vs0mg"},{"bike_id":"49099df4-e910-4d19-bac8-b601dd8a9d8e","system_id":"levelo_inurba_marseille","lat":43.27198,"lon":5.39174,"is_reserved":false,"is_disabled":false,"rental_uris":{"android":"levelo://app?vid=49099df4-e910-4d19-bac8-b601dd8a9d8e","ios":"levelo://app?vid=49099df4-e910-4d19-bac8-b601dd8a9d8e"},"vehicle_type_id":"4","last_reported":1741983005,"current_range_meters":6800,"station_id":"ce4bhhp2rcd13ifvqfm0","pricing_plan_id":"cebpf4jnsgd1na2vs0mg"},{"bike_id":"d7e4ad12-4c8c-42b5-ac60-fb2f022b1600","system_id":"levelo_inurba_marseille","lat":43.309103,"lon":5.396406,"is_reserved":false,"is_disabled":false,"rental_uris":{"android":"levelo://app?vid=d7e4ad12-4c8c-42b5-ac60-fb2f022b1600","ios":"levelo://app?vid=d7e4ad12-4c8c-42b5-ac60-fb2f022b1600"},"vehicle_type_id":"4","last_reported":1741983005,"current_range_meters":6400,"station_id":"ce4bh012rcd13ifvqcv0","pricing_plan_id":"cebpf4jnsgd1na2vs0mg"},{"bike_id":"1179ea35-4831-4438-984a-d67269a5255b","system_id":"levelo_inurba_marseille","lat":43.23194,"lon":5.35548,"is_reserved":false,"is_disabled":false,"rental_uris":{"android":"levelo://app?vid=1179ea35-4831-4438-984a-d67269a5255b","ios":"levelo://app?vid=1179ea35-4831-4438-984a-d67269a5255b"},"vehicle_type_id":"4","last_reported":1741983005,"current_range_meters":6800,"station_id":"ce4bhu92rcd13ifvqi70","pricing_plan_id":"cebpf4jnsgd1na2vs0mg"},{"bike_id":"103c7a06-db86-48e4-8c78-cb7bd34356de","system_id":"levelo_inurba_marseille","lat":43.29795,"lon":5.39352,"is_reserved":false,"is_disabled":false,"rental_uris":{"android":"levelo://app?vid=103c7a06-db86-48e4-8c78-cb7bd34356de","ios":"levelo://app?vid=103c7a06-db86-48e4-8c78-cb7bd34356de"},"vehicle_type_id":"4","last_reported":1741983005,"current_range_meters":6800,"station_id":"chh1huq6cuj3fo74tm60","pricing_plan_id":"cebpf4jnsgd1na2vs0mg"},{"bike_id":"8939fbba-2fc8-450a-9027-04db4f4e697a","system_id":"levelo_inurba_marseille","lat":43.31406,"lon":5.40434,"is_reserved":false,"is_disabled":false,"rental_uris":{"android":"levelo://app?vid=8939fbba-2fc8-450a-9027-04db4f4e697a","ios":"levelo://app?vid=8939fbba-2fc8-450a-9027-04db4f4e697a"},"vehicle_type_id":"4","last_reported":1741983005,"current_range_meters":7200,"station_id":"","pricing_plan_id":"cebpf4jnsgd1na2vs0mg"},{"bike_id":"fb25c0f6-5882-4734-a76a-2aeb0b117f9b","system_id":"levelo_inurba_marseille","lat":43.31726,"lon":5.38998,"is_reserved":false,"is_disabled":true,"rental_uris":{"android":"levelo://app?vid=fb25c0f6-5882-4734-a76a-2aeb0b117f9b","ios":"levelo://app?vid=fb25c0f6-5882-4734-a76a-2aeb0b117f9b"},"vehicle_type_id":"4","last_reported":1741983005,"current_range_meters":7200,"station_id":"ce4bhqp2rcd13ifvqhng","pricing_plan_id":"cebpf4jnsgd1na2vs0mg"},{"bike_id":"062c77f5-04bb-45b5-adec-40850e0e68d7","system_id":"levelo_inurba_marseille","lat":43.29298,"lon":5.37447,"is_reserved":false,"is_disabled":false,"rental_uris":{"android":"levelo://app?vid=062c77f5-04bb-45b5-adec-40850e0e68d7","ios":"levelo://app?vid=062c77f5-04bb-45b5-adec-40850e0e68d7"},"vehicle_type_id":"4","last_reported":1741983005,"current_range_meters":7200,"station_id":"ce4bgi12rcd13ifvqb70","pricing_plan_id":"cebpf4jnsgd1na2vs0mg"},{"bike_id":"6cec560f-8635-4801-8462-637e6f2c72c5","system_id":"levelo_inurba_marseille","lat":43.23191,"lon":5.35555,"is_reserved":false,"is_disabled":false,"rental_uris":{"android":"levelo://app?vid=6cec560f-8635-4801-8462-637e6f2c72c5","ios":"levelo://app?vid=6cec560f-8635-4801-8462-637e6f2c72c5"},"vehicle_type_id":"4","last_reported":1741983005,"current_range_meters":7200,"station_id":"ce4bhu92rcd13ifvqi70","pricing_plan_id":"cebpf4jnsgd1na2vs0mg"},{"bike_id":"f134ede8-68ac-4b75-95b6-e496634a353f","system_id":"levelo_inurba_marseille","lat":43.30548,"lon":5.367,"is_reserved":false,"is_disabled":false,"rental_uris":{"android":"levelo://app?vid=f134ede8-68ac-4b75-95b6-e496634a353f","ios":"levelo://app?vid=f134ede8-68ac-4b75-95b6-e496634a353f"},"vehicle_type_id":"4","last_reported":1741983005,"current_range_meters":7200,"station_id":"ce4bgrp2rcd13ifvqc9g","pricing_plan_id":"cebpf4jnsgd1na2vs0mg"},{"bike_id":"8600e973-6bae-49e6-a541-074b0686e3d2","system_id":"levelo_inurba_marseille","lat":43.32328,"lon":5.38901,"is_reserved":false,"is_disabled":false,"rental_uris":{"android":"levelo://app?vid=8600e973-6bae-49e6-a541-074b0686e3d2","ios":"levelo://app?vid=8600e973-6bae-49e6-a541-074b0686e3d2"},"vehicle_type_id":"4","last_reported":1741983005,"current_range_meters":7200,"station_id":"ce4bhqp2rcd13ifvqhog","pricing_plan_id":"cebpf4jnsgd1na2vs0mg"},{"bike_id":"51eb813b-45df-49e4-b2e7-86d16885385a","system_id":"levelo_inurba_marseille","lat":43.29798,"lon":5.38077,"is_reserved":false,"is_disabled":false,"rental_uris":{"android":"levelo://app?vid=51eb813b-45df-49e4-b2e7-86d16885385a","ios":"levelo://app?vid=51eb813b-45df-49e4-b2e7-86d16885385a"},"vehicle_type_id":"4","last_reported":1741983005,"current_range_meters":7200,"station_id":"ce4bgip2rcd13ifvqbb0","pricing_plan_id":"cebpf4jnsgd1na2vs0mg"},{"bike_id":"6944bb06-8a8c-4cf4-86a1-ca9561cf4ee4","system_id":"levelo_inurba_marseille","lat":43.23052,"lon":5.35499,"is_reserved":false,"is_disabled":false,"rental_uris":{"android":"levelo://app?vid=6944bb06-8a8c-4cf4-86a1-ca9561cf4ee4","ios":"levelo://app?vid=6944bb06-8a8c-4cf4-86a1-ca9561cf4ee4"},"vehicle_type_id":"4","last_reported":1741983005,"current_range_meters":7200,"station_id":"cpo3342slgdg3j2ifvpg","pricing_plan_id":"cebpf4jnsgd1na2vs0mg"},{"bike_id":"b88b244a-1dbc-4f6b-94dd-514dee297746","system_id":"levelo_inurba_marseille","lat":43.29849,"lon":5.36274,"is_reserved":false,"is_disabled":false,"rental_uris":{"android":"levelo://app?vid=b88b244a-1dbc-4f6b-94dd-514dee297746","ios":"levelo://app?vid=b88b244a-1dbc-4f6b-94dd-514dee297746"},"vehicle_type_id":"4","last_reported":1741983005,"current_range_meters":7200,"station_id":"ce4bgpp2rcd13ifvqc3g","pricing_plan_id":"cebpf4jnsgd1na2vs0mg"},{"bike_id":"d2c1304d-c6de-4e19-a363-2c0c4bdd9fb1","system_id":"levelo_inurba_marseille","lat":43.24657,"lon":5.38893,"is_reserved":false,"is_disabled":false,"rental_uris":{"android":"levelo://app?vid=d2c1304d-c6de-4e19-a363-2c0c4bdd9fb1","ios":"levelo://app?vid=d2c1304d-c6de-4e19-a363-2c0c4bdd9fb1"},"vehicle_type_id":"4","last_reported":1741983005,"current_range_meters":7200,"station_id":"ce4bhg12rcd13ifvqf60","pricing_plan_id":"cebpf4jnsgd1na2vs0mg"},{"bike_id":"36ec5a15-215b-4367-a3ca-336aadd9a251","system_id":"levelo_inurba_marseille","lat":43.33746,"lon":5.3745,"is_reserved":false,"is_disabled":false,"rental_uris":{"android":"levelo://app?vid=36ec5a15-215b-4367-a3ca-336aadd9a251","ios":"levelo://app?vid=36ec5a15-215b-4367-a3ca-336aadd9a251"},"vehicle_type_id":"4","last_reported":1741983005,"current_range_meters":7200,"station_id":"","pricing_plan_id":"cebpf4jnsgd1na2vs0mg"},{"bike_id":"c9bd92af-ffb5-4eb1-a755-cb523ab505a3","system_id":"levelo_inurba_marseille","lat":43.29843,"lon":5.36291,"is_reserved":false,"is_disabled":false,"rental_uris":{"android":"levelo://app?vid=c9bd92af-ffb5-4eb1-a755-cb523ab505a3","ios":"levelo://app?vid=c9bd92af-ffb5-4eb1-a755-cb523ab505a3"},"vehicle_type_id":"4","last_reported":1741983005,"current_range_meters":8000,"station_id":"ce4bgpp2rcd13ifvqc3g","pricing_plan_id":"cebpf4jnsgd1na2vs0mg"},{"bike_id":"c8191912-9d81-4a05-a76a-33f95f4fbdb4","system_id":"levelo_inurba_marseille","lat":43.24147,"lon":5.39716,"is_reserved":false,"is_disabled":false,"rental_uris":{"android":"levelo://app?vid=c8191912-9d81-4a05-a76a-33f95f4fbdb4","ios":"levelo://app?vid=c8191912-9d81-4a05-a76a-33f95f4fbdb4"},"vehicle_type_id":"4","last_reported":1741983005,"current_range_meters":8000,"station_id":"ce4bhn12rcd13ifvqgpg","pricing_plan_id":"cebpf4jnsgd1na2vs0mg"},{"bike_id":"7121d818-13e2-43ed-b445-7134fefdd64f","system_id":"levelo_inurba_marseille","lat":43.23201,"lon":5.35551,"is_reserved":false,"is_disabled":false,"rental_uris":{"android":"levelo://app?vid=7121d818-13e2-43ed-b445-7134fefdd64f","ios":"levelo://app?vid=7121d818-13e2-43ed-b445-7134fefdd64f"},"vehicle_type_id":"4","last_reported":1741983005,"current_range_meters":8000,"station_id":"ce4bhu92rcd13ifvqi70","pricing_plan_id":"cebpf4jnsgd1na2vs0mg"},{"bike_id":"e680d681-5451-4e79-9861-5f89e81b6e1f","system_id":"levelo_inurba_marseille","lat":43.29019,"lon":5.38111,"is_reserved":false,"is_disabled":true,"rental_uris":{"android":"levelo://app?vid=e680d681-5451-4e79-9861-5f89e81b6e1f","ios":"levelo://app?vid=e680d681-5451-4e79-9861-5f89e81b6e1f"},"vehicle_type_id":"4","last_reported":1741983005,"current_range_meters":8000,"station_id":"ce4bh4p2rcd13ifvqe1g","pricing_plan_id":"cebpf4jnsgd1na2vs0mg"},{"bike_id":"8876630e-c6d4-44a7-9a50-2a02b6916116","system_id":"levelo_inurba_marseille","lat":43.29391,"lon":5.38619,"is_reserved":false,"is_disabled":false,"rental_uris":{"android":"levelo://app?vid=8876630e-c6d4-44a7-9a50-2a02b6916116","ios":"levelo://app?vid=8876630e-c6d4-44a7-9a50-2a02b6916116"},"vehicle_type_id":"4","last_reported":1741983005,"current_range_meters":8000,"station_id":"ce4bh2h2rcd13ifvqdh0","pricing_plan_id":"cebpf4jnsgd1na2vs0mg"},{"bike_id":"e48b5189-9d09-49fd-bc00-62268902f308","system_id":"levelo_inurba_marseille","lat":43.25005,"lon":5.38915,"is_reserved":false,"is_disabled":true,"rental_uris":{"android":"levelo://app?vid=e48b5189-9d09-49fd-bc00-62268902f308","ios":"levelo://app?vid=e48b5189-9d09-49fd-bc00-62268902f308"},"vehicle_type_id":"4","last_reported":1741983005,"current_range_meters":8000,"station_id":"ce4bhgp2rcd13ifvqfd0","pricing_plan_id":"cebpf4jnsgd1na2vs0mg"},{"bike_id":"3533d55c-20db-4d71-ad7a-996f2383f8ad","system_id":"levelo_inurba_marseille","lat":43.28041,"lon":5.36959,"is_reserved":false,"is_disabled":false,"rental_uris":{"android":"levelo://app?vid=3533d55c-20db-4d71-ad7a-996f2383f8ad","ios":"levelo://app?vid=3533d55c-20db-4d71-ad7a-996f2383f8ad"},"vehicle_type_id":"4","last_reported":1741983005,"current_range_meters":8000,"station_id":"ce4bha12rcd13ifvqef0","pricing_plan_id":"cebpf4jnsgd1na2vs0mg"},{"bike_id":"de27148c-9139-4b87-b73a-06e43af57146","system_id":"levelo_inurba_marseille","lat":43.309056,"lon":5.368544,"is_reserved":false,"is_disabled":false,"rental_uris":{"android":"levelo://app?vid=de27148c-9139-4b87-b73a-06e43af57146","ios":"levelo://app?vid=de27148c-9139-4b87-b73a-06e43af57146"},"vehicle_type_id":"4","last_reported":1741983005,"current_range_meters":8000,"station_id":"ce4bgn92rcd13ifvqbvg","pricing_plan_id":"cebpf4jnsgd1na2vs0mg"},{"bike_id":"93d0f336-c58d-4276-876e-7587121576d2","system_id":"levelo_inurba_marseille","lat":43.30147,"lon":5.37424,"is_reserved":false,"is_disabled":false,"rental_uris":{"android":"levelo://app?vid=93d0f336-c58d-4276-876e-7587121576d2","ios":"levelo://app?vid=93d0f336-c58d-4276-876e-7587121576d2"},"vehicle_type_id":"4","last_reported":1741983005,"current_range_meters":8000,"station_id":"ce4bgs92rcd13ifvqcc0","pricing_plan_id":"cebpf4jnsgd1na2vs0mg"},{"bike_id":"b634fcd7-4303-4fed-a2f8-fcd04ed2a4dd","system_id":"levelo_inurba_marseille","lat":43.23056,"lon":5.35502,"is_reserved":false,"is_disabled":false,"rental_uris":{"android":"levelo://app?vid=b634fcd7-4303-4fed-a2f8-fcd04ed2a4dd","ios":"levelo://app?vid=b634fcd7-4303-4fed-a2f8-fcd04ed2a4dd"},"vehicle_type_id":"4","last_reported":1741983005,"current_range_meters":8000,"station_id":"cpo3342slgdg3j2ifvpg","pricing_plan_id":"cebpf4jnsgd1na2vs0mg"},{"bike_id":"cfbfae81-2b5a-4512-adc5-3545d5eb48ff","system_id":"levelo_inurba_marseille","lat":43.32345,"lon":5.38882,"is_reserved":false,"is_disabled":false,"rental_uris":{"android":"levelo://app?vid=cfbfae81-2b5a-4512-adc5-3545d5eb48ff","ios":"levelo://app?vid=cfbfae81-2b5a-4512-adc5-3545d5eb48ff"},"vehicle_type_id":"4","last_reported":1741983005,"current_range_meters":8000,"station_id":"ce4bhqp2rcd13ifvqhog","pricing_plan_id":"cebpf4jnsgd1na2vs0mg"},{"bike_id":"837fc5bc-e1bc-4006-9a1b-01e6a9b6254e","system_id":"levelo_inurba_marseille","lat":43.27948,"lon":5.41041,"is_reserved":false,"is_disabled":false,"rental_uris":{"android":"levelo://app?vid=837fc5bc-e1bc-4006-9a1b-01e6a9b6254e","ios":"levelo://app?vid=837fc5bc-e1bc-4006-9a1b-01e6a9b6254e"},"vehicle_type_id":"4","last_reported":1741983005,"current_range_meters":8000,"station_id":"ce4bhnp2rcd13ifvqh0g","pricing_plan_id":"cebpf4jnsgd1na2vs0mg"},{"bike_id":"22eef8e9-28d0-4055-9740-16ced5bd43fc","system_id":"levelo_inurba_marseille","lat":43.24689,"lon":5.38215,"is_reserved":false,"is_disabled":false,"rental_uris":{"android":"levelo://app?vid=22eef8e9-28d0-4055-9740-16ced5bd43fc","ios":"levelo://app?vid=22eef8e9-28d0-4055-9740-16ced5bd43fc"},"vehicle_type_id":"4","last_reported":1741983005,"current_range_meters":8000,"station_id":"ce4bhih2rcd13ifvqfr0","pricing_plan_id":"cebpf4jnsgd1na2vs0mg"},{"bike_id":"436bf6fd-98f0-4c70-968c-7fcac8f398a5","system_id":"levelo_inurba_marseille","lat":43.25093,"lon":5.41071,"is_reserved":false,"is_disabled":false,"rental_uris":{"android":"levelo://app?vid=436bf6fd-98f0-4c70-968c-7fcac8f398a5","ios":"levelo://app?vid=436bf6fd-98f0-4c70-968c-7fcac8f398a5"},"vehicle_type_id":"4","last_reported":1741983005,"current_range_meters":8400,"station_id":"","pricing_plan_id":"cebpf4jnsgd1na2vs0mg"},{"bike_id":"4de2e2ac-3fc4-4031-add8-0fc8cbcb3a21","system_id":"levelo_inurba_marseille","lat":43.29202,"lon":5.39337,"is_reserved":false,"is_disabled":false,"rental_uris":{"android":"levelo://app?vid=4de2e2ac-3fc4-4031-add8-0fc8cbcb3a21","ios":"levelo://app?vid=4de2e2ac-3fc4-4031-add8-0fc8cbcb3a21"},"vehicle_type_id":"4","last_reported":1741983005,"current_range_meters":8400,"station_id":"ce4bh192rcd13ifvqdd0","pricing_plan_id":"cebpf4jnsgd1na2vs0mg"},{"bike_id":"7ae7b069-5937-401d-8084-f4c9d553767b","system_id":"levelo_inurba_marseille","lat":43.27945,"lon":5.41058,"is_reserved":false,"is_disabled":false,"rental_uris":{"android":"levelo://app?vid=7ae7b069-5937-401d-8084-f4c9d553767b","ios":"levelo://app?vid=7ae7b069-5937-401d-8084-f4c9d553767b"},"vehicle_type_id":"4","last_reported":1741983005,"current_range_meters":8400,"station_id":"ce4bhnp2rcd13ifvqh0g","pricing_plan_id":"cebpf4jnsgd1na2vs0mg"},{"bike_id":"703a27ab-78c1-4da2-9977-9c24f54834c8","system_id":"levelo_inurba_marseille","lat":43.32482,"lon":5.36601,"is_reserved":false,"is_disabled":false,"rental_uris":{"android":"levelo://app?vid=703a27ab-78c1-4da2-9977-9c24f54834c8","ios":"levelo://app?vid=703a27ab-78c1-4da2-9977-9c24f54834c8"},"vehicle_type_id":"4","last_reported":1741983005,"current_range_meters":8400,"station_id":"ce4bhs12rcd13ifvqhvg","pricing_plan_id":"cebpf4jnsgd1na2vs0mg"},{"bike_id":"3363e5ed-aafd-4c83-9f97-12270e6ffcf4","system_id":"levelo_inurba_marseille","lat":43.248579,"lon":5.406504,"is_reserved":false,"is_disabled":false,"rental_uris":{"android":"levelo://app?vid=3363e5ed-aafd-4c83-9f97-12270e6ffcf4","ios":"levelo://app?vid=3363e5ed-aafd-4c83-9f97-12270e6ffcf4"},"vehicle_type_id":"4","last_reported":1741983005,"current_range_meters":8400,"station_id":"","pricing_plan_id":"cebpf4jnsgd1na2vs0mg"},{"bike_id":"e0e30bde-b3cd-401c-8471-106ddd42662e","system_id":"levelo_inurba_marseille","lat":43.31422,"lon":5.38438,"is_reserved":false,"is_disabled":false,"rental_uris":{"android":"levelo://app?vid=e0e30bde-b3cd-401c-8471-106ddd42662e","ios":"levelo://app?vid=e0e30bde-b3cd-401c-8471-106ddd42662e"},"vehicle_type_id":"4","last_reported":1741983005,"current_range_meters":8400,"station_id":"","pricing_plan_id":"cebpf4jnsgd1na2vs0mg"},{"bike_id":"0e7d996e-7cde-46d4-9c6b-af00a3dfc692","system_id":"levelo_inurba_marseille","lat":43.30594,"lon":5.39376,"is_reserved":false,"is_disabled":false,"rental_uris":{"android":"levelo://app?vid=0e7d996e-7cde-46d4-9c6b-af00a3dfc692","ios":"levelo://app?vid=0e7d996e-7cde-46d4-9c6b-af00a3dfc692"},"vehicle_type_id":"4","last_reported":1741983005,"current_range_meters":8400,"station_id":"ce4bh0p2rcd13ifvqd80","pricing_plan_id":"cebpf4jnsgd1na2vs0mg"},{"bike_id":"d38ec561-2826-4710-8b79-38af7b6460aa","system_id":"levelo_inurba_marseille","lat":43.24657,"lon":5.38166,"is_reserved":false,"is_disabled":false,"rental_uris":{"android":"levelo://app?vid=d38ec561-2826-4710-8b79-38af7b6460aa","ios":"levelo://app?vid=d38ec561-2826-4710-8b79-38af7b6460aa"},"vehicle_type_id":"4","last_reported":1741983005,"current_range_meters":8800,"station_id":"ce4bhih2rcd13ifvqfr0","pricing_plan_id":"cebpf4jnsgd1na2vs0mg"},{"bike_id":"05b19951-05c7-4551-b80d-21c23f5b8eea","system_id":"levelo_inurba_marseille","lat":43.29891,"lon":5.38144,"is_reserved":false,"is_disabled":false,"rental_uris":{"android":"levelo://app?vid=05b19951-05c7-4551-b80d-21c23f5b8eea","ios":"levelo://app?vid=05b19951-05c7-4551-b80d-21c23f5b8eea"},"vehicle_type_id":"4","last_reported":1741983005,"current_range_meters":8800,"station_id":"ce4bgj12rcd13ifvqbc0","pricing_plan_id":"cebpf4jnsgd1na2vs0mg"},{"bike_id":"515603ef-90e7-4219-aa8a-d28b97e06146","system_id":"levelo_inurba_marseille","lat":43.29167,"lon":5.37165,"is_reserved":false,"is_disabled":false,"rental_uris":{"android":"levelo://app?vid=515603ef-90e7-4219-aa8a-d28b97e06146","ios":"levelo://app?vid=515603ef-90e7-4219-aa8a-d28b97e06146"},"vehicle_type_id":"4","last_reported":1741983005,"current_range_meters":8800,"station_id":"ce4bha92rcd13ifvqeh0","pricing_plan_id":"cebpf4jnsgd1na2vs0mg"},{"bike_id":"6d69bcb3-9f1f-47de-bcf3-40d0e4d7bc71","system_id":"levelo_inurba_marseille","lat":43.27792,"lon":5.40712,"is_reserved":false,"is_disabled":false,"rental_uris":{"android":"levelo://app?vid=6d69bcb3-9f1f-47de-bcf3-40d0e4d7bc71","ios":"levelo://app?vid=6d69bcb3-9f1f-47de-bcf3-40d0e4d7bc71"},"vehicle_type_id":"4","last_reported":1741983005,"current_range_meters":8800,"station_id":"ce4bhnh2rcd13ifvqgtg","pricing_plan_id":"cebpf4jnsgd1na2vs0mg"},{"bike_id":"07236262-3c87-4de4-99f1-96b5d4ba740c","system_id":"levelo_inurba_marseille","lat":43.29456,"lon":5.38643,"is_reserved":false,"is_disabled":false,"rental_uris":{"android":"levelo://app?vid=07236262-3c87-4de4-99f1-96b5d4ba740c","ios":"levelo://app?vid=07236262-3c87-4de4-99f1-96b5d4ba740c"},"vehicle_type_id":"4","last_reported":1741983005,"current_range_meters":8800,"station_id":"ce4bh2h2rcd13ifvqdh0","pricing_plan_id":"cebpf4jnsgd1na2vs0mg"},{"bike_id":"594a33ea-5c85-49b0-893b-48b1f5e1011a","system_id":"levelo_inurba_marseille","lat":43.30938,"lon":5.40161,"is_reserved":false,"is_disabled":true,"rental_uris":{"android":"levelo://app?vid=594a33ea-5c85-49b0-893b-48b1f5e1011a","ios":"levelo://app?vid=594a33ea-5c85-49b0-893b-48b1f5e1011a"},"vehicle_type_id":"4","last_reported":1741983005,"current_range_meters":8800,"station_id":"ce4bgvp2rcd13ifvqct0","pricing_plan_id":"cebpf4jnsgd1na2vs0mg"},{"bike_id":"38728733-26e0-4cc5-b04d-99d7a3ef894e","system_id":"levelo_inurba_marseille","lat":43.31494,"lon":5.37392,"is_reserved":false,"is_disabled":false,"rental_uris":{"android":"levelo://app?vid=38728733-26e0-4cc5-b04d-99d7a3ef894e","ios":"levelo://app?vid=38728733-26e0-4cc5-b04d-99d7a3ef894e"},"vehicle_type_id":"4","last_reported":1741983005,"current_range_meters":8800,"station_id":"","pricing_plan_id":"cebpf4jnsgd1na2vs0mg"},{"bike_id":"48f968e9-2670-450c-9a50-b12a7ac1907f","system_id":"levelo_inurba_marseille","lat":43.25711,"lon":5.41027,"is_reserved":false,"is_disabled":false,"rental_uris":{"android":"levelo://app?vid=48f968e9-2670-450c-9a50-b12a7ac1907f","ios":"levelo://app?vid=48f968e9-2670-450c-9a50-b12a7ac1907f"},"vehicle_type_id":"4","last_reported":1741983005,"current_range_meters":9200,"station_id":"ce4bhkp2rcd13ifvqgd0","pricing_plan_id":"cebpf4jnsgd1na2vs0mg"},{"bike_id":"91b12a37-f477-4c10-ad1a-c6fc1ad2db69","system_id":"levelo_inurba_marseille","lat":43.27955,"lon":5.42473,"is_reserved":false,"is_disabled":false,"rental_uris":{"android":"levelo://app?vid=91b12a37-f477-4c10-ad1a-c6fc1ad2db69","ios":"levelo://app?vid=91b12a37-f477-4c10-ad1a-c6fc1ad2db69"},"vehicle_type_id":"4","last_reported":1741983005,"current_range_meters":9200,"station_id":"","pricing_plan_id":"cebpf4jnsgd1na2vs0mg"},{"bike_id":"848cd55d-5275-458e-9a9a-4328d4767fa9","system_id":"levelo_inurba_marseille","lat":43.24196,"lon":5.39757,"is_reserved":false,"is_disabled":false,"rental_uris":{"android":"levelo://app?vid=848cd55d-5275-458e-9a9a-4328d4767fa9","ios":"levelo://app?vid=848cd55d-5275-458e-9a9a-4328d4767fa9"},"vehicle_type_id":"4","last_reported":1741983005,"current_range_meters":9200,"station_id":"ce4bhn12rcd13ifvqgpg","pricing_plan_id":"cebpf4jnsgd1na2vs0mg"},{"bike_id":"e6710280-bd86-46cd-80e3-b715c7f5659b","system_id":"levelo_inurba_marseille","lat":43.24409,"lon":5.37079,"is_reserved":false,"is_disabled":false,"rental_uris":{"android":"levelo://app?vid=e6710280-bd86-46cd-80e3-b715c7f5659b","ios":"levelo://app?vid=e6710280-bd86-46cd-80e3-b715c7f5659b"},"vehicle_type_id":"4","last_reported":1741983005,"current_range_meters":9200,"station_id":"ce4bhhh2rcd13ifvqfk0","pricing_plan_id":"cebpf4jnsgd1na2vs0mg"},{"bike_id":"2ec0f046-4e68-4150-a618-5c892d6b2cb5","system_id":"levelo_inurba_marseille","lat":43.26234,"lon":5.40475,"is_reserved":false,"is_disabled":false,"rental_uris":{"android":"levelo://app?vid=2ec0f046-4e68-4150-a618-5c892d6b2cb5","ios":"levelo://app?vid=2ec0f046-4e68-4150-a618-5c892d6b2cb5"},"vehicle_type_id":"4","last_reported":1741983005,"current_range_meters":9200,"station_id":"ce4bhmh2rcd13ifvqgmg","pricing_plan_id":"cebpf4jnsgd1na2vs0mg"},{"bike_id":"d19d132d-5c9b-40d9-b653-007845d6953b","system_id":"levelo_inurba_marseille","lat":43.27904,"lon":5.39602,"is_reserved":false,"is_disabled":false,"rental_uris":{"android":"levelo://app?vid=d19d132d-5c9b-40d9-b653-007845d6953b","ios":"levelo://app?vid=d19d132d-5c9b-40d9-b653-007845d6953b"},"vehicle_type_id":"4","last_reported":1741983005,"current_range_meters":9600,"station_id":"ce4bhf92rcd13ifvqf40","pricing_plan_id":"cebpf4jnsgd1na2vs0mg"},{"bike_id":"ca33933d-7558-4d6c-86e9-77625f57e408","system_id":"levelo_inurba_marseille","lat":43.30444,"lon":5.38878,"is_reserved":false,"is_disabled":false,"rental_uris":{"android":"levelo://app?vid=ca33933d-7558-4d6c-86e9-77625f57e408","ios":"levelo://app?vid=ca33933d-7558-4d6c-86e9-77625f57e408"},"vehicle_type_id":"4","last_reported":1741983005,"current_range_meters":9600,"station_id":"ce4bgk12rcd13ifvqbi0","pricing_plan_id":"cebpf4jnsgd1na2vs0mg"},{"bike_id":"92a4b2de-1a40-47de-8941-8583c8b587d4","system_id":"levelo_inurba_marseille","lat":43.27621,"lon":5.38883,"is_reserved":false,"is_disabled":true,"rental_uris":{"android":"levelo://app?vid=92a4b2de-1a40-47de-8941-8583c8b587d4","ios":"levelo://app?vid=92a4b2de-1a40-47de-8941-8583c8b587d4"},"vehicle_type_id":"4","last_reported":1741983005,"current_range_meters":9600,"station_id":"ce4bhi12rcd13ifvqfo0","pricing_plan_id":"cebpf4jnsgd1na2vs0mg"},{"bike_id":"9d2d752e-416c-49e5-a687-1caacbda7dcb","system_id":"levelo_inurba_marseille","lat":43.28129,"lon":5.39656,"is_reserved":false,"is_disabled":true,"rental_uris":{"android":"levelo://app?vid=9d2d752e-416c-49e5-a687-1caacbda7dcb","ios":"levelo://app?vid=9d2d752e-416c-49e5-a687-1caacbda7dcb"},"vehicle_type_id":"4","last_reported":1741983005,"current_range_meters":9600,"station_id":"","pricing_plan_id":"cebpf4jnsgd1na2vs0mg"},{"bike_id":"e790eff3-7f50-4096-8be0-586a448cabf2","system_id":"levelo_inurba_marseille","lat":43.279424,"lon":5.410495,"is_reserved":false,"is_disabled":false,"rental_uris":{"android":"levelo://app?vid=e790eff3-7f50-4096-8be0-586a448cabf2","ios":"levelo://app?vid=e790eff3-7f50-4096-8be0-586a448cabf2"},"vehicle_type_id":"4","last_reported":1741983005,"current_range_meters":10000,"station_id":"ce4bhnp2rcd13ifvqh0g","pricing_plan_id":"cebpf4jnsgd1na2vs0mg"},{"bike_id":"59822710-2d10-4517-868b-42cfab329759","system_id":"levelo_inurba_marseille","lat":43.23236,"lon":5.35569,"is_reserved":false,"is_disabled":false,"rental_uris":{"android":"levelo://app?vid=59822710-2d10-4517-868b-42cfab329759","ios":"levelo://app?vid=59822710-2d10-4517-868b-42cfab329759"},"vehicle_type_id":"4","last_reported":1741983005,"current_range_meters":10000,"station_id":"","pricing_plan_id":"cebpf4jnsgd1na2vs0mg"},{"bike_id":"904f3f0b-4dba-406e-8b6a-d20c60bd09ce","system_id":"levelo_inurba_marseille","lat":43.29308,"lon":5.37189,"is_reserved":false,"is_disabled":false,"rental_uris":{"android":"levelo://app?vid=904f3f0b-4dba-406e-8b6a-d20c60bd09ce","ios":"levelo://app?vid=904f3f0b-4dba-406e-8b6a-d20c60bd09ce"},"vehicle_type_id":"4","last_reported":1741983005,"current_range_meters":10000,"station_id":"ce4bgh92rcd13ifvqb40","pricing_plan_id":"cebpf4jnsgd1na2vs0mg"},{"bike_id":"dc2dc920-7061-4611-9ad3-02d4898aaa15","system_id":"levelo_inurba_marseille","lat":43.23209,"lon":5.39962,"is_reserved":false,"is_disabled":false,"rental_uris":{"android":"levelo://app?vid=dc2dc920-7061-4611-9ad3-02d4898aaa15","ios":"levelo://app?vid=dc2dc920-7061-4611-9ad3-02d4898aaa15"},"vehicle_type_id":"4","last_reported":1741983005,"current_range_meters":10000,"station_id":"ce4bhn12rcd13ifvqgqg","pricing_plan_id":"cebpf4jnsgd1na2vs0mg"},{"bike_id":"48f3a40e-658c-443b-8908-cf181e5627b0","system_id":"levelo_inurba_marseille","lat":43.3016,"lon":5.37411,"is_reserved":false,"is_disabled":false,"rental_uris":{"android":"levelo://app?vid=48f3a40e-658c-443b-8908-cf181e5627b0","ios":"levelo://app?vid=48f3a40e-658c-443b-8908-cf181e5627b0"},"vehicle_type_id":"4","last_reported":1741983005,"current_range_meters":10000,"station_id":"ce4bgs92rcd13ifvqcc0","pricing_plan_id":"cebpf4jnsgd1na2vs0mg"},{"bike_id":"bd7fb638-a561-41df-90ca-f32685780427","system_id":"levelo_inurba_marseille","lat":43.22922,"lon":5.35379,"is_reserved":false,"is_disabled":false,"rental_uris":{"android":"levelo://app?vid=bd7fb638-a561-41df-90ca-f32685780427","ios":"levelo://app?vid=bd7fb638-a561-41df-90ca-f32685780427"},"vehicle_type_id":"4","last_reported":1741983005,"current_range_meters":10000,"station_id":"cpo3532slgdg3j2ikp40","pricing_plan_id":"cebpf4jnsgd1na2vs0mg"},{"bike_id":"86fcca85-db7a-48fc-8198-762956d50b68","system_id":"levelo_inurba_marseille","lat":43.29327,"lon":5.37169,"is_reserved":false,"is_disabled":false,"rental_uris":{"android":"levelo://app?vid=86fcca85-db7a-48fc-8198-762956d50b68","ios":"levelo://app?vid=86fcca85-db7a-48fc-8198-762956d50b68"},"vehicle_type_id":"4","last_reported":1741983005,"current_range_meters":10000,"station_id":"ce4bgh92rcd13ifvqb40","pricing_plan_id":"cebpf4jnsgd1na2vs0mg"},{"bike_id":"97a33746-5370-4d96-9a94-9c9d4ba754f2","system_id":"levelo_inurba_marseille","lat":43.32273,"lon":5.38279,"is_reserved":false,"is_disabled":false,"rental_uris":{"android":"levelo://app?vid=97a33746-5370-4d96-9a94-9c9d4ba754f2","ios":"levelo://app?vid=97a33746-5370-4d96-9a94-9c9d4ba754f2"},"vehicle_type_id":"4","last_reported":1741983005,"current_range_meters":10800,"station_id":"ce4bhr12rcd13ifvqhqg","pricing_plan_id":"cebpf4jnsgd1na2vs0mg"},{"bike_id":"00b5f516-84b0-41a3-b2de-276bd6882db9","system_id":"levelo_inurba_marseille","lat":43.30185,"lon":5.3661,"is_reserved":false,"is_disabled":false,"rental_uris":{"android":"levelo://app?vid=00b5f516-84b0-41a3-b2de-276bd6882db9","ios":"levelo://app?vid=00b5f516-84b0-41a3-b2de-276bd6882db9"},"vehicle_type_id":"4","last_reported":1741983005,"current_range_meters":10800,"station_id":"ce4bgrh2rcd13ifvqc8g","pricing_plan_id":"cebpf4jnsgd1na2vs0mg"},{"bike_id":"8f1f1487-a0bd-4058-8f23-9bafda49de86","system_id":"levelo_inurba_marseille","lat":43.27375,"lon":5.3625,"is_reserved":false,"is_disabled":false,"rental_uris":{"android":"levelo://app?vid=8f1f1487-a0bd-4058-8f23-9bafda49de86","ios":"levelo://app?vid=8f1f1487-a0bd-4058-8f23-9bafda49de86"},"vehicle_type_id":"4","last_reported":1741983005,"current_range_meters":10800,"station_id":"ce4bhbh2rcd13ifvqeo0","pricing_plan_id":"cebpf4jnsgd1na2vs0mg"},{"bike_id":"cb256735-523d-45d3-9c1c-b9c7b6320183","system_id":"levelo_inurba_marseille","lat":43.31596,"lon":5.40414,"is_reserved":false,"is_disabled":false,"rental_uris":{"android":"levelo://app?vid=cb256735-523d-45d3-9c1c-b9c7b6320183","ios":"levelo://app?vid=cb256735-523d-45d3-9c1c-b9c7b6320183"},"vehicle_type_id":"4","last_reported":1741983005,"current_range_meters":10800,"station_id":"","pricing_plan_id":"cebpf4jnsgd1na2vs0mg"},{"bike_id":"ccd31dea-9090-4259-b977-143b30ebefa0","system_id":"levelo_inurba_marseille","lat":43.26229,"lon":5.3746,"is_reserved":false,"is_disabled":false,"rental_uris":{"android":"levelo://app?vid=ccd31dea-9090-4259-b977-143b30ebefa0","ios":"levelo://app?vid=ccd31dea-9090-4259-b977-143b30ebefa0"},"vehicle_type_id":"4","last_reported":1741983005,"current_range_meters":10800,"station_id":"","pricing_plan_id":"cebpf4jnsgd1na2vs0mg"},{"bike_id":"8a5bd971-61c1-4475-933b-dffdb284dd01","system_id":"levelo_inurba_marseille","lat":43.25022,"lon":5.38913,"is_reserved":false,"is_disabled":false,"rental_uris":{"android":"levelo://app?vid=8a5bd971-61c1-4475-933b-dffdb284dd01","ios":"levelo://app?vid=8a5bd971-61c1-4475-933b-dffdb284dd01"},"vehicle_type_id":"4","last_reported":1741983005,"current_range_meters":11200,"station_id":"ce4bhgp2rcd13ifvqfd0","pricing_plan_id":"cebpf4jnsgd1na2vs0mg"},{"bike_id":"1733e266-22c2-40a0-a3a3-fee44820ad35","system_id":"levelo_inurba_marseille","lat":43.24549,"lon":5.39526,"is_reserved":false,"is_disabled":false,"rental_uris":{"android":"levelo://app?vid=1733e266-22c2-40a0-a3a3-fee44820ad35","ios":"levelo://app?vid=1733e266-22c2-40a0-a3a3-fee44820ad35"},"vehicle_type_id":"4","last_reported":1741983005,"current_range_meters":11600,"station_id":"ce4bhlp2rcd13ifvqgjg","pricing_plan_id":"cebpf4jnsgd1na2vs0mg"},{"bike_id":"2d8050c3-2e9a-46d5-8a98-55d399ba1d01","system_id":"levelo_inurba_marseille","lat":43.27811,"lon":5.40724,"is_reserved":false,"is_disabled":false,"rental_uris":{"android":"levelo://app?vid=2d8050c3-2e9a-46d5-8a98-55d399ba1d01","ios":"levelo://app?vid=2d8050c3-2e9a-46d5-8a98-55d399ba1d01"},"vehicle_type_id":"4","last_reported":1741983005,"current_range_meters":11600,"station_id":"ce4bhnh2rcd13ifvqgtg","pricing_plan_id":"cebpf4jnsgd1na2vs0mg"},{"bike_id":"04f149c6-a120-4218-b435-a952d9eb67d0","system_id":"levelo_inurba_marseille","lat":43.24884,"lon":5.40673,"is_reserved":false,"is_disabled":false,"rental_uris":{"android":"levelo://app?vid=04f149c6-a120-4218-b435-a952d9eb67d0","ios":"levelo://app?vid=04f149c6-a120-4218-b435-a952d9eb67d0"},"vehicle_type_id":"4","last_reported":1741983005,"current_range_meters":11600,"station_id":"","pricing_plan_id":"cebpf4jnsgd1na2vs0mg"},{"bike_id":"aee5fd35-de56-44b0-a09b-6cff0c73f4a2","system_id":"levelo_inurba_marseille","lat":43.24687,"lon":5.38207,"is_reserved":false,"is_disabled":false,"rental_uris":{"android":"levelo://app?vid=aee5fd35-de56-44b0-a09b-6cff0c73f4a2","ios":"levelo://app?vid=aee5fd35-de56-44b0-a09b-6cff0c73f4a2"},"vehicle_type_id":"4","last_reported":1741983005,"current_range_meters":12000,"station_id":"ce4bhnp2rcd13ifvqgvg","pricing_plan_id":"cebpf4jnsgd1na2vs0mg"},{"bike_id":"441146ec-c2e7-45f1-b6bc-e65405bbf9fd","system_id":"levelo_inurba_marseille","lat":43.27619,"lon":5.36118,"is_reserved":false,"is_disabled":false,"rental_uris":{"android":"levelo://app?vid=441146ec-c2e7-45f1-b6bc-e65405bbf9fd","ios":"levelo://app?vid=441146ec-c2e7-45f1-b6bc-e65405bbf9fd"},"vehicle_type_id":"4","last_reported":1741983005,"current_range_meters":12000,"station_id":"ce4bgj92rcd13ifvqbe0","pricing_plan_id":"cebpf4jnsgd1na2vs0mg"},{"bike_id":"385ae15c-2c3c-4490-a507-5eb20fb883a5","system_id":"levelo_inurba_marseille","lat":43.25943,"lon":5.4087,"is_reserved":false,"is_disabled":false,"rental_uris":{"android":"levelo://app?vid=385ae15c-2c3c-4490-a507-5eb20fb883a5","ios":"levelo://app?vid=385ae15c-2c3c-4490-a507-5eb20fb883a5"},"vehicle_type_id":"4","last_reported":1741983005,"current_range_meters":12000,"station_id":"ce4bhm92rcd13ifvqglg","pricing_plan_id":"cebpf4jnsgd1na2vs0mg"},{"bike_id":"1795ce3e-1f1b-43b2-8fde-8a2bd764c39c","system_id":"levelo_inurba_marseille","lat":43.25583,"lon":5.38246,"is_reserved":false,"is_disabled":false,"rental_uris":{"android":"levelo://app?vid=1795ce3e-1f1b-43b2-8fde-8a2bd764c39c","ios":"levelo://app?vid=1795ce3e-1f1b-43b2-8fde-8a2bd764c39c"},"vehicle_type_id":"4","last_reported":1741983005,"current_range_meters":11600,"station_id":"ce4bhih2rcd13ifvqfs0","pricing_plan_id":"cebpf4jnsgd1na2vs0mg"},{"bike_id":"1de892da-b741-41ae-a048-f3b0797643d4","system_id":"levelo_inurba_marseille","lat":43.30605,"lon":5.37237,"is_reserved":false,"is_disabled":false,"rental_uris":{"android":"levelo://app?vid=1de892da-b741-41ae-a048-f3b0797643d4","ios":"levelo://app?vid=1de892da-b741-41ae-a048-f3b0797643d4"},"vehicle_type_id":"4","last_reported":1741983005,"current_range_meters":11600,"station_id":"ce4bgqh2rcd13ifvqc4g","pricing_plan_id":"cebpf4jnsgd1na2vs0mg"},{"bike_id":"676e66c6-8e50-404c-b512-5f94c7d6a8fc","system_id":"levelo_inurba_marseille","lat":43.24159,"lon":5.36444,"is_reserved":false,"is_disabled":false,"rental_uris":{"android":"levelo://app?vid=676e66c6-8e50-404c-b512-5f94c7d6a8fc","ios":"levelo://app?vid=676e66c6-8e50-404c-b512-5f94c7d6a8fc"},"vehicle_type_id":"4","last_reported":1741983005,"current_range_meters":12400,"station_id":"cpo36qri1sfpv3e86is0","pricing_plan_id":"cebpf4jnsgd1na2vs0mg"},{"bike_id":"6d3d3704-cff4-46a1-8ed6-f8aa1cd4a81a","system_id":"levelo_inurba_marseille","lat":43.29982,"lon":5.38487,"is_reserved":false,"is_disabled":false,"rental_uris":{"android":"levelo://app?vid=6d3d3704-cff4-46a1-8ed6-f8aa1cd4a81a","ios":"levelo://app?vid=6d3d3704-cff4-46a1-8ed6-f8aa1cd4a81a"},"vehicle_type_id":"4","last_reported":1741983005,"current_range_meters":12400,"station_id":"ce4bgj92rcd13ifvqbd0","pricing_plan_id":"cebpf4jnsgd1na2vs0mg"},{"bike_id":"65bea2c5-78a7-4fbf-92b5-f338edebb748","system_id":"levelo_inurba_marseille","lat":43.26119,"lon":5.41472,"is_reserved":false,"is_disabled":false,"rental_uris":{"android":"levelo://app?vid=65bea2c5-78a7-4fbf-92b5-f338edebb748","ios":"levelo://app?vid=65bea2c5-78a7-4fbf-92b5-f338edebb748"},"vehicle_type_id":"4","last_reported":1741983005,"current_range_meters":12400,"station_id":"","pricing_plan_id":"cebpf4jnsgd1na2vs0mg"},{"bike_id":"5c09fa10-66af-4d08-984a-1d41e4e2c41b","system_id":"levelo_inurba_marseille","lat":43.2318,"lon":5.40004,"is_reserved":false,"is_disabled":false,"rental_uris":{"android":"levelo://app?vid=5c09fa10-66af-4d08-984a-1d41e4e2c41b","ios":"levelo://app?vid=5c09fa10-66af-4d08-984a-1d41e4e2c41b"},"vehicle_type_id":"4","last_reported":1741983005,"current_range_meters":12400,"station_id":"ce4bhn12rcd13ifvqgqg","pricing_plan_id":"cebpf4jnsgd1na2vs0mg"},{"bike_id":"207744f1-8033-454e-b8b3-634bc550ee8d","system_id":"levelo_inurba_marseille","lat":43.24547,"lon":5.39524,"is_reserved":false,"is_disabled":false,"rental_uris":{"android":"levelo://app?vid=207744f1-8033-454e-b8b3-634bc550ee8d","ios":"levelo://app?vid=207744f1-8033-454e-b8b3-634bc550ee8d"},"vehicle_type_id":"4","last_reported":1741983005,"current_range_meters":12000,"station_id":"ce4bhlp2rcd13ifvqgjg","pricing_plan_id":"cebpf4jnsgd1na2vs0mg"},{"bike_id":"af44b34a-ef1e-45cf-9ec3-d9c292615a7c","system_id":"levelo_inurba_marseille","lat":43.29268,"lon":5.38452,"is_reserved":false,"is_disabled":false,"rental_uris":{"android":"levelo://app?vid=af44b34a-ef1e-45cf-9ec3-d9c292615a7c","ios":"levelo://app?vid=af44b34a-ef1e-45cf-9ec3-d9c292615a7c"},"vehicle_type_id":"4","last_reported":1741983005,"current_range_meters":12400,"station_id":"ce4bh692rcd13ifvqea0","pricing_plan_id":"cebpf4jnsgd1na2vs0mg"},{"bike_id":"0ae3d8bd-8f30-45dc-82a0-3e5600469270","system_id":"levelo_inurba_marseille","lat":43.28353,"lon":5.38105,"is_reserved":false,"is_disabled":false,"rental_uris":{"android":"levelo://app?vid=0ae3d8bd-8f30-45dc-82a0-3e5600469270","ios":"levelo://app?vid=0ae3d8bd-8f30-45dc-82a0-3e5600469270"},"vehicle_type_id":"4","last_reported":1741983005,"current_range_meters":12000,"station_id":"ce4bh412rcd13ifvqdr0","pricing_plan_id":"cebpf4jnsgd1na2vs0mg"},{"bike_id":"689f3d2c-4847-4516-a642-86888fc86b8d","system_id":"levelo_inurba_marseille","lat":43.24645,"lon":5.38904,"is_reserved":false,"is_disabled":false,"rental_uris":{"android":"levelo://app?vid=689f3d2c-4847-4516-a642-86888fc86b8d","ios":"levelo://app?vid=689f3d2c-4847-4516-a642-86888fc86b8d"},"vehicle_type_id":"4","last_reported":1741983005,"current_range_meters":12800,"station_id":"ce4bhg12rcd13ifvqf60","pricing_plan_id":"cebpf4jnsgd1na2vs0mg"},{"bike_id":"184492ce-9f5c-47e4-a3e5-d0eccfcef42b","system_id":"levelo_inurba_marseille","lat":43.2763,"lon":5.36152,"is_reserved":false,"is_disabled":false,"rental_uris":{"android":"levelo://app?vid=184492ce-9f5c-47e4-a3e5-d0eccfcef42b","ios":"levelo://app?vid=184492ce-9f5c-47e4-a3e5-d0eccfcef42b"},"vehicle_type_id":"4","last_reported":1741983005,"current_range_meters":12800,"station_id":"ce4bgj92rcd13ifvqbe0","pricing_plan_id":"cebpf4jnsgd1na2vs0mg"},{"bike_id":"e0f00ea1-5190-455d-8f01-943045ce62ae","system_id":"levelo_inurba_marseille","lat":43.31195,"lon":5.37776,"is_reserved":false,"is_disabled":false,"rental_uris":{"android":"levelo://app?vid=e0f00ea1-5190-455d-8f01-943045ce62ae","ios":"levelo://app?vid=e0f00ea1-5190-455d-8f01-943045ce62ae"},"vehicle_type_id":"4","last_reported":1741983005,"current_range_meters":12800,"station_id":"","pricing_plan_id":"cebpf4jnsgd1na2vs0mg"},{"bike_id":"eaacf235-8450-47cf-be42-cfd7f836e00b","system_id":"levelo_inurba_marseille","lat":43.29301,"lon":5.37184,"is_reserved":false,"is_disabled":false,"rental_uris":{"android":"levelo://app?vid=eaacf235-8450-47cf-be42-cfd7f836e00b","ios":"levelo://app?vid=eaacf235-8450-47cf-be42-cfd7f836e00b"},"vehicle_type_id":"4","last_reported":1741983005,"current_range_meters":12800,"station_id":"ce4bgh92rcd13ifvqb40","pricing_plan_id":"cebpf4jnsgd1na2vs0mg"},{"bike_id":"9b269a96-4db5-48a4-9314-5b3a2a065492","system_id":"levelo_inurba_marseille","lat":43.29621,"lon":5.37742,"is_reserved":false,"is_disabled":false,"rental_uris":{"android":"levelo://app?vid=9b269a96-4db5-48a4-9314-5b3a2a065492","ios":"levelo://app?vid=9b269a96-4db5-48a4-9314-5b3a2a065492"},"vehicle_type_id":"4","last_reported":1741983005,"current_range_meters":12400,"station_id":"ce4bgi92rcd13ifvqb90","pricing_plan_id":"cebpf4jnsgd1na2vs0mg"},{"bike_id":"8c36189c-c882-4f5a-8111-e80c3218fd16","system_id":"levelo_inurba_marseille","lat":43.26062,"lon":5.39397,"is_reserved":false,"is_disabled":false,"rental_uris":{"android":"levelo://app?vid=8c36189c-c882-4f5a-8111-e80c3218fd16","ios":"levelo://app?vid=8c36189c-c882-4f5a-8111-e80c3218fd16"},"vehicle_type_id":"4","last_reported":1741983005,"current_range_meters":12800,"station_id":"ce4bhh92rcd13ifvqfj0","pricing_plan_id":"cebpf4jnsgd1na2vs0mg"},{"bike_id":"a5c03e8d-963a-4cef-ae0b-5196ab18a6c6","system_id":"levelo_inurba_marseille","lat":43.29581,"lon":5.38572,"is_reserved":false,"is_disabled":false,"rental_uris":{"android":"levelo://app?vid=a5c03e8d-963a-4cef-ae0b-5196ab18a6c6","ios":"levelo://app?vid=a5c03e8d-963a-4cef-ae0b-5196ab18a6c6"},"vehicle_type_id":"4","last_reported":1741983005,"current_range_meters":12800,"station_id":"ce4bgih2rcd13ifvqba0","pricing_plan_id":"cebpf4jnsgd1na2vs0mg"},{"bike_id":"cabd3d2d-330e-43b2-8d0b-3e86699f79e1","system_id":"levelo_inurba_marseille","lat":43.24165,"lon":5.36415,"is_reserved":false,"is_disabled":false,"rental_uris":{"android":"levelo://app?vid=cabd3d2d-330e-43b2-8d0b-3e86699f79e1","ios":"levelo://app?vid=cabd3d2d-330e-43b2-8d0b-3e86699f79e1"},"vehicle_type_id":"4","last_reported":1741983005,"current_range_meters":13600,"station_id":"cpo36qri1sfpv3e86is0","pricing_plan_id":"cebpf4jnsgd1na2vs0mg"},{"bike_id":"325eefa4-a32c-45cc-9c99-5ccbb1f77220","system_id":"levelo_inurba_marseille","lat":43.29444,"lon":5.38647,"is_reserved":false,"is_disabled":false,"rental_uris":{"android":"levelo://app?vid=325eefa4-a32c-45cc-9c99-5ccbb1f77220","ios":"levelo://app?vid=325eefa4-a32c-45cc-9c99-5ccbb1f77220"},"vehicle_type_id":"4","last_reported":1741983005,"current_range_meters":13600,"station_id":"ce4bh2h2rcd13ifvqdh0","pricing_plan_id":"cebpf4jnsgd1na2vs0mg"},{"bike_id":"0665d59a-7583-48f5-95a3-603a5eec5e3f","system_id":"levelo_inurba_marseille","lat":43.28026,"lon":5.36955,"is_reserved":false,"is_disabled":false,"rental_uris":{"android":"levelo://app?vid=0665d59a-7583-48f5-95a3-603a5eec5e3f","ios":"levelo://app?vid=0665d59a-7583-48f5-95a3-603a5eec5e3f"},"vehicle_type_id":"4","last_reported":1741983005,"current_range_meters":13600,"station_id":"ce4bha12rcd13ifvqef0","pricing_plan_id":"cebpf4jnsgd1na2vs0mg"},{"bike_id":"269491db-b98a-49e3-a3b5-e04159ff8cbf","system_id":"levelo_inurba_marseille","lat":43.26941,"lon":5.40268,"is_reserved":false,"is_disabled":false,"rental_uris":{"android":"levelo://app?vid=269491db-b98a-49e3-a3b5-e04159ff8cbf","ios":"levelo://app?vid=269491db-b98a-49e3-a3b5-e04159ff8cbf"},"vehicle_type_id":"4","last_reported":1741983005,"current_range_meters":13600,"station_id":"cjm6bp8fraef2m0cb0m0","pricing_plan_id":"cebpf4jnsgd1na2vs0mg"},{"bike_id":"33e9f828-cb5a-49de-aa6b-ec3406405fea","system_id":"levelo_inurba_marseille","lat":43.3301,"lon":5.39038,"is_reserved":false,"is_disabled":false,"rental_uris":{"android":"levelo://app?vid=33e9f828-cb5a-49de-aa6b-ec3406405fea","ios":"levelo://app?vid=33e9f828-cb5a-49de-aa6b-ec3406405fea"},"vehicle_type_id":"4","last_reported":1741983005,"current_range_meters":13600,"station_id":"ce4bhr92rcd13ifvqhrg","pricing_plan_id":"cebpf4jnsgd1na2vs0mg"},{"bike_id":"41576aa0-8157-44e7-b679-86bb5c689c0f","system_id":"levelo_inurba_marseille","lat":43.29541,"lon":5.38547,"is_reserved":false,"is_disabled":false,"rental_uris":{"android":"levelo://app?vid=41576aa0-8157-44e7-b679-86bb5c689c0f","ios":"levelo://app?vid=41576aa0-8157-44e7-b679-86bb5c689c0f"},"vehicle_type_id":"4","last_reported":1741983005,"current_range_meters":13600,"station_id":"ce4bgih2rcd13ifvqba0","pricing_plan_id":"cebpf4jnsgd1na2vs0mg"},{"bike_id":"64986549-2c9e-4b9f-8464-f74cc2571bf2","system_id":"levelo_inurba_marseille","lat":43.24073,"lon":5.37732,"is_reserved":false,"is_disabled":false,"rental_uris":{"android":"levelo://app?vid=64986549-2c9e-4b9f-8464-f74cc2571bf2","ios":"levelo://app?vid=64986549-2c9e-4b9f-8464-f74cc2571bf2"},"vehicle_type_id":"4","last_reported":1741983005,"current_range_meters":13600,"station_id":"ce4bhnp2rcd13ifvqgvg","pricing_plan_id":"cebpf4jnsgd1na2vs0mg"},{"bike_id":"23338175-915e-43cb-a56e-4a1497c3630c","system_id":"levelo_inurba_marseille","lat":43.24178,"lon":5.39747,"is_reserved":false,"is_disabled":false,"rental_uris":{"android":"levelo://app?vid=23338175-915e-43cb-a56e-4a1497c3630c","ios":"levelo://app?vid=23338175-915e-43cb-a56e-4a1497c3630c"},"vehicle_type_id":"4","last_reported":1741983005,"current_range_meters":14000,"station_id":"ce4bhn12rcd13ifvqgpg","pricing_plan_id":"cebpf4jnsgd1na2vs0mg"},{"bike_id":"b37db8b9-d0d9-421b-85af-469fa613b348","system_id":"levelo_inurba_marseille","lat":43.312775,"lon":5.4017,"is_reserved":false,"is_disabled":false,"rental_uris":{"android":"levelo://app?vid=b37db8b9-d0d9-421b-85af-469fa613b348","ios":"levelo://app?vid=b37db8b9-d0d9-421b-85af-469fa613b348"},"vehicle_type_id":"4","last_reported":1741983005,"current_range_meters":14000,"station_id":"ce4bh092rcd13ifvqd30","pricing_plan_id":"cebpf4jnsgd1na2vs0mg"},{"bike_id":"644ac0f1-78b4-4901-9fe2-55084aa694be","system_id":"levelo_inurba_marseille","lat":43.2927,"lon":5.38459,"is_reserved":false,"is_disabled":false,"rental_uris":{"android":"levelo://app?vid=644ac0f1-78b4-4901-9fe2-55084aa694be","ios":"levelo://app?vid=644ac0f1-78b4-4901-9fe2-55084aa694be"},"vehicle_type_id":"4","last_reported":1741983005,"current_range_meters":14000,"station_id":"ce4bh692rcd13ifvqea0","pricing_plan_id":"cebpf4jnsgd1na2vs0mg"},{"bike_id":"5b2797a8-709b-40e9-ab9a-773f9867e12b","system_id":"levelo_inurba_marseille","lat":43.30325,"lon":5.4043,"is_reserved":false,"is_disabled":false,"rental_uris":{"android":"levelo://app?vid=5b2797a8-709b-40e9-ab9a-773f9867e12b","ios":"levelo://app?vid=5b2797a8-709b-40e9-ab9a-773f9867e12b"},"vehicle_type_id":"4","last_reported":1741983005,"current_range_meters":14400,"station_id":"ce4bh012rcd13ifvqd10","pricing_plan_id":"cebpf4jnsgd1na2vs0mg"},{"bike_id":"08d7ad39-29b9-4d1d-ab44-5a56dd13dd34","system_id":"levelo_inurba_marseille","lat":43.24088,"lon":5.37758,"is_reserved":false,"is_disabled":false,"rental_uris":{"android":"levelo://app?vid=08d7ad39-29b9-4d1d-ab44-5a56dd13dd34","ios":"levelo://app?vid=08d7ad39-29b9-4d1d-ab44-5a56dd13dd34"},"vehicle_type_id":"4","last_reported":1741983005,"current_range_meters":14400,"station_id":"ce4bhnp2rcd13ifvqgvg","pricing_plan_id":"cebpf4jnsgd1na2vs0mg"},{"bike_id":"0b7bfdb8-fd03-4687-9225-8085184f929c","system_id":"levelo_inurba_marseille","lat":43.32394,"lon":5.36776,"is_reserved":false,"is_disabled":false,"rental_uris":{"android":"levelo://app?vid=0b7bfdb8-fd03-4687-9225-8085184f929c","ios":"levelo://app?vid=0b7bfdb8-fd03-4687-9225-8085184f929c"},"vehicle_type_id":"4","last_reported":1741983005,"current_range_meters":14400,"station_id":"","pricing_plan_id":"cebpf4jnsgd1na2vs0mg"},{"bike_id":"25228edc-ae2b-41d4-9e7e-87f35203c830","system_id":"levelo_inurba_marseille","lat":43.26716,"lon":5.38279,"is_reserved":false,"is_disabled":false,"rental_uris":{"android":"levelo://app?vid=25228edc-ae2b-41d4-9e7e-87f35203c830","ios":"levelo://app?vid=25228edc-ae2b-41d4-9e7e-87f35203c830"},"vehicle_type_id":"4","last_reported":1741983005,"current_range_meters":14400,"station_id":"ce4bhg92rcd13ifvqf90","pricing_plan_id":"cebpf4jnsgd1na2vs0mg"},{"bike_id":"83783ead-721f-4d82-86e9-a8ac641b2edd","system_id":"levelo_inurba_marseille","lat":43.26238,"lon":5.40469,"is_reserved":false,"is_disabled":false,"rental_uris":{"android":"levelo://app?vid=83783ead-721f-4d82-86e9-a8ac641b2edd","ios":"levelo://app?vid=83783ead-721f-4d82-86e9-a8ac641b2edd"},"vehicle_type_id":"4","last_reported":1741983005,"current_range_meters":14400,"station_id":"ce4bhmh2rcd13ifvqgmg","pricing_plan_id":"cebpf4jnsgd1na2vs0mg"},{"bike_id":"91643563-1736-47ee-a1cd-7bf9439f252c","system_id":"levelo_inurba_marseille","lat":43.30878,"lon":5.37199,"is_reserved":false,"is_disabled":false,"rental_uris":{"android":"levelo://app?vid=91643563-1736-47ee-a1cd-7bf9439f252c","ios":"levelo://app?vid=91643563-1736-47ee-a1cd-7bf9439f252c"},"vehicle_type_id":"4","last_reported":1741983005,"current_range_meters":14400,"station_id":"ce4bguh2rcd13ifvqckg","pricing_plan_id":"cebpf4jnsgd1na2vs0mg"},{"bike_id":"3fbdbed3-81eb-4ebd-99e8-fe7ae5272906","system_id":"levelo_inurba_marseille","lat":43.25823,"lon":5.39452,"is_reserved":false,"is_disabled":false,"rental_uris":{"android":"levelo://app?vid=3fbdbed3-81eb-4ebd-99e8-fe7ae5272906","ios":"levelo://app?vid=3fbdbed3-81eb-4ebd-99e8-fe7ae5272906"},"vehicle_type_id":"4","last_reported":1741983005,"current_range_meters":14400,"station_id":"ce4bhip2rcd13ifvqft0","pricing_plan_id":"cebpf4jnsgd1na2vs0mg"},{"bike_id":"9d9bd579-ca4a-49a8-84d8-e0a9c1600b5e","system_id":"levelo_inurba_marseille","lat":43.25087,"lon":5.39521,"is_reserved":false,"is_disabled":false,"rental_uris":{"android":"levelo://app?vid=9d9bd579-ca4a-49a8-84d8-e0a9c1600b5e","ios":"levelo://app?vid=9d9bd579-ca4a-49a8-84d8-e0a9c1600b5e"},"vehicle_type_id":"4","last_reported":1741983005,"current_range_meters":14800,"station_id":"ce4bhm12rcd13ifvqgkg","pricing_plan_id":"cebpf4jnsgd1na2vs0mg"},{"bike_id":"76b5d343-6624-4366-8e6e-f702d50ae492","system_id":"levelo_inurba_marseille","lat":43.23193,"lon":5.355509,"is_reserved":false,"is_disabled":false,"rental_uris":{"android":"levelo://app?vid=76b5d343-6624-4366-8e6e-f702d50ae492","ios":"levelo://app?vid=76b5d343-6624-4366-8e6e-f702d50ae492"},"vehicle_type_id":"4","last_reported":1741983005,"current_range_meters":14800,"station_id":"ce4bhu92rcd13ifvqi70","pricing_plan_id":"cebpf4jnsgd1na2vs0mg"},{"bike_id":"01c8e77c-c6fb-4f5d-9c6f-03919085f1ab","system_id":"levelo_inurba_marseille","lat":43.31075,"lon":5.3836,"is_reserved":false,"is_disabled":false,"rental_uris":{"android":"levelo://app?vid=01c8e77c-c6fb-4f5d-9c6f-03919085f1ab","ios":"levelo://app?vid=01c8e77c-c6fb-4f5d-9c6f-03919085f1ab"},"vehicle_type_id":"4","last_reported":1741983005,"current_range_meters":14800,"station_id":"ce4bgv92rcd13ifvqcr0","pricing_plan_id":"cebpf4jnsgd1na2vs0mg"},{"bike_id":"2479e0fc-8828-45dc-a275-4de03993c1b6","system_id":"levelo_inurba_marseille","lat":43.2573,"lon":5.41111,"is_reserved":false,"is_disabled":false,"rental_uris":{"android":"levelo://app?vid=2479e0fc-8828-45dc-a275-4de03993c1b6","ios":"levelo://app?vid=2479e0fc-8828-45dc-a275-4de03993c1b6"},"vehicle_type_id":"4","last_reported":1741983005,"current_range_meters":14400,"station_id":"ce4bhkp2rcd13ifvqgd0","pricing_plan_id":"cebpf4jnsgd1na2vs0mg"},{"bike_id":"f7aa1a81-dd32-4a03-a2f0-08b931cfc50e","system_id":"levelo_inurba_marseille","lat":43.32045,"lon":5.41565,"is_reserved":false,"is_disabled":false,"rental_uris":{"android":"levelo://app?vid=f7aa1a81-dd32-4a03-a2f0-08b931cfc50e","ios":"levelo://app?vid=f7aa1a81-dd32-4a03-a2f0-08b931cfc50e"},"vehicle_type_id":"4","last_reported":1741983005,"current_range_meters":14800,"station_id":"ce4bhq92rcd13ifvqhkg","pricing_plan_id":"cebpf4jnsgd1na2vs0mg"},{"bike_id":"7275ac19-f926-4d23-9e9d-7142ec2c130c","system_id":"levelo_inurba_marseille","lat":43.31386,"lon":5.38502,"is_reserved":false,"is_disabled":false,"rental_uris":{"android":"levelo://app?vid=7275ac19-f926-4d23-9e9d-7142ec2c130c","ios":"levelo://app?vid=7275ac19-f926-4d23-9e9d-7142ec2c130c"},"vehicle_type_id":"4","last_reported":1741983005,"current_range_meters":14800,"station_id":"ce4bgt92rcd13ifvqcf0","pricing_plan_id":"cebpf4jnsgd1na2vs0mg"},{"bike_id":"0283a7ac-86b9-43ed-8758-8d5669dd21e8","system_id":"levelo_inurba_marseille","lat":43.29986,"lon":5.38513,"is_reserved":false,"is_disabled":false,"rental_uris":{"android":"levelo://app?vid=0283a7ac-86b9-43ed-8758-8d5669dd21e8","ios":"levelo://app?vid=0283a7ac-86b9-43ed-8758-8d5669dd21e8"},"vehicle_type_id":"4","last_reported":1741983005,"current_range_meters":14800,"station_id":"ce4bgj92rcd13ifvqbd0","pricing_plan_id":"cebpf4jnsgd1na2vs0mg"},{"bike_id":"92bec104-bf6e-48de-9f40-3d3a513802a4","system_id":"levelo_inurba_marseille","lat":43.28154,"lon":5.42638,"is_reserved":false,"is_disabled":false,"rental_uris":{"android":"levelo://app?vid=92bec104-bf6e-48de-9f40-3d3a513802a4","ios":"levelo://app?vid=92bec104-bf6e-48de-9f40-3d3a513802a4"},"vehicle_type_id":"4","last_reported":1741983005,"current_range_meters":15200,"station_id":"ce4bhnh2rcd13ifvqgug","pricing_plan_id":"cebpf4jnsgd1na2vs0mg"},{"bike_id":"59022b32-b91d-41a7-ab26-4982ecdc3a27","system_id":"levelo_inurba_marseille","lat":43.24173,"lon":5.39734,"is_reserved":false,"is_disabled":false,"rental_uris":{"android":"levelo://app?vid=59022b32-b91d-41a7-ab26-4982ecdc3a27","ios":"levelo://app?vid=59022b32-b91d-41a7-ab26-4982ecdc3a27"},"vehicle_type_id":"4","last_reported":1741983005,"current_range_meters":15200,"station_id":"ce4bhn12rcd13ifvqgpg","pricing_plan_id":"cebpf4jnsgd1na2vs0mg"},{"bike_id":"748c1c80-150c-49f8-897a-cfbd0dc2534f","system_id":"levelo_inurba_marseille","lat":43.29785,"lon":5.38079,"is_reserved":false,"is_disabled":false,"rental_uris":{"android":"levelo://app?vid=748c1c80-150c-49f8-897a-cfbd0dc2534f","ios":"levelo://app?vid=748c1c80-150c-49f8-897a-cfbd0dc2534f"},"vehicle_type_id":"4","last_reported":1741983005,"current_range_meters":15200,"station_id":"ce4bgip2rcd13ifvqbb0","pricing_plan_id":"cebpf4jnsgd1na2vs0mg"},{"bike_id":"7e809cf9-4d16-4e10-88b0-f3e27f97828a","system_id":"levelo_inurba_marseille","lat":43.25022,"lon":5.38959,"is_reserved":false,"is_disabled":false,"rental_uris":{"android":"levelo://app?vid=7e809cf9-4d16-4e10-88b0-f3e27f97828a","ios":"levelo://app?vid=7e809cf9-4d16-4e10-88b0-f3e27f97828a"},"vehicle_type_id":"4","last_reported":1741983005,"current_range_meters":15200,"station_id":"ce4bhgp2rcd13ifvqfd0","pricing_plan_id":"cebpf4jnsgd1na2vs0mg"},{"bike_id":"cba5bc6b-a506-445c-961b-9c6e6ecc286f","system_id":"levelo_inurba_marseille","lat":43.27998,"lon":5.40011,"is_reserved":false,"is_disabled":false,"rental_uris":{"android":"levelo://app?vid=cba5bc6b-a506-445c-961b-9c6e6ecc286f","ios":"levelo://app?vid=cba5bc6b-a506-445c-961b-9c6e6ecc286f"},"vehicle_type_id":"4","last_reported":1741983005,"current_range_meters":15200,"station_id":"ce4bho92rcd13ifvqh4g","pricing_plan_id":"cebpf4jnsgd1na2vs0mg"},{"bike_id":"e52b41b5-52df-4c67-a85c-3cebb3bf7504","system_id":"levelo_inurba_marseille","lat":43.3236,"lon":5.36765,"is_reserved":false,"is_disabled":false,"rental_uris":{"android":"levelo://app?vid=e52b41b5-52df-4c67-a85c-3cebb3bf7504","ios":"levelo://app?vid=e52b41b5-52df-4c67-a85c-3cebb3bf7504"},"vehicle_type_id":"4","last_reported":1741983005,"current_range_meters":15200,"station_id":"ce4bhsh2rcd13ifvqi2g","pricing_plan_id":"cebpf4jnsgd1na2vs0mg"},{"bike_id":"9413820c-0489-4085-b970-7089f103069b","system_id":"levelo_inurba_marseille","lat":43.25093,"lon":5.395284,"is_reserved":false,"is_disabled":false,"rental_uris":{"android":"levelo://app?vid=9413820c-0489-4085-b970-7089f103069b","ios":"levelo://app?vid=9413820c-0489-4085-b970-7089f103069b"},"vehicle_type_id":"4","last_reported":1741983005,"current_range_meters":15200,"station_id":"ce4bhg12rcd13ifvqf70","pricing_plan_id":"cebpf4jnsgd1na2vs0mg"},{"bike_id":"976a31ad-70b0-4720-b3ce-5fdecc28ad7a","system_id":"levelo_inurba_marseille","lat":43.2845,"lon":5.37492,"is_reserved":false,"is_disabled":false,"rental_uris":{"android":"levelo://app?vid=976a31ad-70b0-4720-b3ce-5fdecc28ad7a","ios":"levelo://app?vid=976a31ad-70b0-4720-b3ce-5fdecc28ad7a"},"vehicle_type_id":"4","last_reported":1741983005,"current_range_meters":15200,"station_id":"","pricing_plan_id":"cebpf4jnsgd1na2vs0mg"},{"bike_id":"7d24174d-d10b-414c-be10-a866c2e24646","system_id":"levelo_inurba_marseille","lat":43.30534,"lon":5.36709,"is_reserved":false,"is_disabled":false,"rental_uris":{"android":"levelo://app?vid=7d24174d-d10b-414c-be10-a866c2e24646","ios":"levelo://app?vid=7d24174d-d10b-414c-be10-a866c2e24646"},"vehicle_type_id":"4","last_reported":1741983005,"current_range_meters":16000,"station_id":"ce4bgrp2rcd13ifvqc9g","pricing_plan_id":"cebpf4jnsgd1na2vs0mg"},{"bike_id":"f657fd3c-7d21-46d4-a6bf-c7e61923c1c3","system_id":"levelo_inurba_marseille","lat":43.29961,"lon":5.38494,"is_reserved":false,"is_disabled":false,"rental_uris":{"android":"levelo://app?vid=f657fd3c-7d21-46d4-a6bf-c7e61923c1c3","ios":"levelo://app?vid=f657fd3c-7d21-46d4-a6bf-c7e61923c1c3"},"vehicle_type_id":"4","last_reported":1741983005,"current_range_meters":16000,"station_id":"ce4bgj92rcd13ifvqbd0","pricing_plan_id":"cebpf4jnsgd1na2vs0mg"},{"bike_id":"d9a1cca8-ee8b-47f2-9d56-964a9b7f03bf","system_id":"levelo_inurba_marseille","lat":43.31369,"lon":5.39696,"is_reserved":false,"is_disabled":true,"rental_uris":{"android":"levelo://app?vid=d9a1cca8-ee8b-47f2-9d56-964a9b7f03bf","ios":"levelo://app?vid=d9a1cca8-ee8b-47f2-9d56-964a9b7f03bf"},"vehicle_type_id":"4","last_reported":1741983005,"current_range_meters":16000,"station_id":"ce4bgvp2rcd13ifvqcu0","pricing_plan_id":"cebpf4jnsgd1na2vs0mg"},{"bike_id":"f5235cd8-4f5d-4ced-b78e-d1dea6cad30d","system_id":"levelo_inurba_marseille","lat":43.24182,"lon":5.39728,"is_reserved":false,"is_disabled":false,"rental_uris":{"android":"levelo://app?vid=f5235cd8-4f5d-4ced-b78e-d1dea6cad30d","ios":"levelo://app?vid=f5235cd8-4f5d-4ced-b78e-d1dea6cad30d"},"vehicle_type_id":"4","last_reported":1741983005,"current_range_meters":16000,"station_id":"ce4bhn12rcd13ifvqgpg","pricing_plan_id":"cebpf4jnsgd1na2vs0mg"},{"bike_id":"a6c2fbfc-a9fa-4c08-b4da-35f01adc80bd","system_id":"levelo_inurba_marseille","lat":43.27831,"lon":5.4073,"is_reserved":false,"is_disabled":false,"rental_uris":{"android":"levelo://app?vid=a6c2fbfc-a9fa-4c08-b4da-35f01adc80bd","ios":"levelo://app?vid=a6c2fbfc-a9fa-4c08-b4da-35f01adc80bd"},"vehicle_type_id":"4","last_reported":1741983005,"current_range_meters":16000,"station_id":"ce4bhnh2rcd13ifvqgtg","pricing_plan_id":"cebpf4jnsgd1na2vs0mg"},{"bike_id":"d60d57fc-1fb2-4fe1-a1a3-7107d28e8c63","system_id":"levelo_inurba_marseille","lat":43.32658,"lon":5.40989,"is_reserved":false,"is_disabled":false,"rental_uris":{"android":"levelo://app?vid=d60d57fc-1fb2-4fe1-a1a3-7107d28e8c63","ios":"levelo://app?vid=d60d57fc-1fb2-4fe1-a1a3-7107d28e8c63"},"vehicle_type_id":"4","last_reported":1741983005,"current_range_meters":13600,"station_id":"ce4bhpp2rcd13ifvqhgg","pricing_plan_id":"cebpf4jnsgd1na2vs0mg"},{"bike_id":"25d89388-7189-4d55-bc0a-50439d43ae98","system_id":"levelo_inurba_marseille","lat":43.29428,"lon":5.39746,"is_reserved":false,"is_disabled":false,"rental_uris":{"android":"levelo://app?vid=25d89388-7189-4d55-bc0a-50439d43ae98","ios":"levelo://app?vid=25d89388-7189-4d55-bc0a-50439d43ae98"},"vehicle_type_id":"4","last_reported":1741983005,"current_range_meters":16000,"station_id":"ce4bh3h2rcd13ifvqdo0","pricing_plan_id":"cebpf4jnsgd1na2vs0mg"},{"bike_id":"b04c4369-4fa3-4e0b-b3ad-288a26cc29e4","system_id":"levelo_inurba_marseille","lat":43.29259,"lon":5.38437,"is_reserved":false,"is_disabled":false,"rental_uris":{"android":"levelo://app?vid=b04c4369-4fa3-4e0b-b3ad-288a26cc29e4","ios":"levelo://app?vid=b04c4369-4fa3-4e0b-b3ad-288a26cc29e4"},"vehicle_type_id":"4","last_reported":1741983005,"current_range_meters":16400,"station_id":"","pricing_plan_id":"cebpf4jnsgd1na2vs0mg"},{"bike_id":"72fe4211-136e-488e-9061-f6d73fb7ebbf","system_id":"levelo_inurba_marseille","lat":43.27943,"lon":5.41052,"is_reserved":false,"is_disabled":false,"rental_uris":{"android":"levelo://app?vid=72fe4211-136e-488e-9061-f6d73fb7ebbf","ios":"levelo://app?vid=72fe4211-136e-488e-9061-f6d73fb7ebbf"},"vehicle_type_id":"4","last_reported":1741983005,"current_range_meters":16400,"station_id":"ce4bhnp2rcd13ifvqh0g","pricing_plan_id":"cebpf4jnsgd1na2vs0mg"},{"bike_id":"9263b6cb-c2a9-4ade-a7b8-aa3e2867317d","system_id":"levelo_inurba_marseille","lat":43.27312,"lon":5.39084,"is_reserved":false,"is_disabled":false,"rental_uris":{"android":"levelo://app?vid=9263b6cb-c2a9-4ade-a7b8-aa3e2867317d","ios":"levelo://app?vid=9263b6cb-c2a9-4ade-a7b8-aa3e2867317d"},"vehicle_type_id":"4","last_reported":1741983005,"current_range_meters":16400,"station_id":"ce4bhgp2rcd13ifvqfe0","pricing_plan_id":"cebpf4jnsgd1na2vs0mg"},{"bike_id":"6528949f-81a3-41ad-a3bf-0ac6d373bce6","system_id":"levelo_inurba_marseille","lat":43.31519,"lon":5.3756,"is_reserved":false,"is_disabled":false,"rental_uris":{"android":"levelo://app?vid=6528949f-81a3-41ad-a3bf-0ac6d373bce6","ios":"levelo://app?vid=6528949f-81a3-41ad-a3bf-0ac6d373bce6"},"vehicle_type_id":"4","last_reported":1741983005,"current_range_meters":16400,"station_id":"","pricing_plan_id":"cebpf4jnsgd1na2vs0mg"},{"bike_id":"b18521f4-cfb4-4dbf-bfc4-8a0d3ec716a5","system_id":"levelo_inurba_marseille","lat":43.30892,"lon":5.39656,"is_reserved":false,"is_disabled":false,"rental_uris":{"android":"levelo://app?vid=b18521f4-cfb4-4dbf-bfc4-8a0d3ec716a5","ios":"levelo://app?vid=b18521f4-cfb4-4dbf-bfc4-8a0d3ec716a5"},"vehicle_type_id":"4","last_reported":1741983005,"current_range_meters":16400,"station_id":"ce4bh012rcd13ifvqcv0","pricing_plan_id":"cebpf4jnsgd1na2vs0mg"},{"bike_id":"37bb7fb1-84bf-4d84-8e7f-43c00881e27d","system_id":"levelo_inurba_marseille","lat":43.29257,"lon":5.38429,"is_reserved":false,"is_disabled":false,"rental_uris":{"android":"levelo://app?vid=37bb7fb1-84bf-4d84-8e7f-43c00881e27d","ios":"levelo://app?vid=37bb7fb1-84bf-4d84-8e7f-43c00881e27d"},"vehicle_type_id":"4","last_reported":1741983005,"current_range_meters":16400,"station_id":"ce4bh692rcd13ifvqea0","pricing_plan_id":"cebpf4jnsgd1na2vs0mg"},{"bike_id":"5887cce2-f89f-4f14-ada3-b6a60568cbe4","system_id":"levelo_inurba_marseille","lat":43.27054,"lon":5.40289,"is_reserved":false,"is_disabled":false,"rental_uris":{"android":"levelo://app?vid=5887cce2-f89f-4f14-ada3-b6a60568cbe4","ios":"levelo://app?vid=5887cce2-f89f-4f14-ada3-b6a60568cbe4"},"vehicle_type_id":"4","last_reported":1741983005,"current_range_meters":16400,"station_id":"ce4bhk92rcd13ifvqgc0","pricing_plan_id":"cebpf4jnsgd1na2vs0mg"},{"bike_id":"87b7f147-0ac2-4b35-8bcc-3f02f503bd7c","system_id":"levelo_inurba_marseille","lat":43.26223,"lon":5.37974,"is_reserved":false,"is_disabled":false,"rental_uris":{"android":"levelo://app?vid=87b7f147-0ac2-4b35-8bcc-3f02f503bd7c","ios":"levelo://app?vid=87b7f147-0ac2-4b35-8bcc-3f02f503bd7c"},"vehicle_type_id":"4","last_reported":1741983005,"current_range_meters":16400,"station_id":"ce4bhjp2rcd13ifvqg90","pricing_plan_id":"cebpf4jnsgd1na2vs0mg"},{"bike_id":"e8ceb681-ef67-4d43-92d5-8ea8d50bff55","system_id":"levelo_inurba_marseille","lat":43.27793,"lon":5.40705,"is_reserved":false,"is_disabled":false,"rental_uris":{"android":"levelo://app?vid=e8ceb681-ef67-4d43-92d5-8ea8d50bff55","ios":"levelo://app?vid=e8ceb681-ef67-4d43-92d5-8ea8d50bff55"},"vehicle_type_id":"4","last_reported":1741983005,"current_range_meters":16800,"station_id":"ce4bhnh2rcd13ifvqgtg","pricing_plan_id":"cebpf4jnsgd1na2vs0mg"},{"bike_id":"fc071de1-2cc0-488a-a43e-f8037a5a9a49","system_id":"levelo_inurba_marseille","lat":43.23081,"lon":5.35511,"is_reserved":false,"is_disabled":false,"rental_uris":{"android":"levelo://app?vid=fc071de1-2cc0-488a-a43e-f8037a5a9a49","ios":"levelo://app?vid=fc071de1-2cc0-488a-a43e-f8037a5a9a49"},"vehicle_type_id":"4","last_reported":1741983005,"current_range_meters":17200,"station_id":"cpo3342slgdg3j2ifvpg","pricing_plan_id":"cebpf4jnsgd1na2vs0mg"},{"bike_id":"619c77f7-2b87-43c9-a139-201ccadeafc8","system_id":"levelo_inurba_marseille","lat":43.296014,"lon":5.40296,"is_reserved":false,"is_disabled":false,"rental_uris":{"android":"levelo://app?vid=619c77f7-2b87-43c9-a139-201ccadeafc8","ios":"levelo://app?vid=619c77f7-2b87-43c9-a139-201ccadeafc8"},"vehicle_type_id":"4","last_reported":1741983005,"current_range_meters":16800,"station_id":"ce4bh5p2rcd13ifvqe4g","pricing_plan_id":"cebpf4jnsgd1na2vs0mg"},{"bike_id":"608f0462-484e-441f-9837-82475dce48ee","system_id":"levelo_inurba_marseille","lat":43.29891,"lon":5.43673,"is_reserved":false,"is_disabled":false,"rental_uris":{"android":"levelo://app?vid=608f0462-484e-441f-9837-82475dce48ee","ios":"levelo://app?vid=608f0462-484e-441f-9837-82475dce48ee"},"vehicle_type_id":"4","last_reported":1741983005,"current_range_meters":16800,"station_id":"ce4bhpp2rcd13ifvqhfg","pricing_plan_id":"cebpf4jnsgd1na2vs0mg"},{"bike_id":"67ba5532-a4de-45d0-bd2d-aa06a7264fb6","system_id":"levelo_inurba_marseille","lat":43.30904,"lon":5.37206,"is_reserved":false,"is_disabled":false,"rental_uris":{"android":"levelo://app?vid=67ba5532-a4de-45d0-bd2d-aa06a7264fb6","ios":"levelo://app?vid=67ba5532-a4de-45d0-bd2d-aa06a7264fb6"},"vehicle_type_id":"4","last_reported":1741983005,"current_range_meters":16800,"station_id":"ce4bguh2rcd13ifvqckg","pricing_plan_id":"cebpf4jnsgd1na2vs0mg"},{"bike_id":"c9fcf6ca-eb9a-4745-ae75-0839938c01aa","system_id":"levelo_inurba_marseille","lat":43.23955,"lon":5.36631,"is_reserved":false,"is_disabled":false,"rental_uris":{"android":"levelo://app?vid=c9fcf6ca-eb9a-4745-ae75-0839938c01aa","ios":"levelo://app?vid=c9fcf6ca-eb9a-4745-ae75-0839938c01aa"},"vehicle_type_id":"4","last_reported":1741983005,"current_range_meters":16800,"station_id":"ce4bhi12rcd13ifvqfp0","pricing_plan_id":"cebpf4jnsgd1na2vs0mg"},{"bike_id":"273198c8-5bda-44db-902a-0a172cf76098","system_id":"levelo_inurba_marseille","lat":43.29531,"lon":5.38552,"is_reserved":false,"is_disabled":false,"rental_uris":{"android":"levelo://app?vid=273198c8-5bda-44db-902a-0a172cf76098","ios":"levelo://app?vid=273198c8-5bda-44db-902a-0a172cf76098"},"vehicle_type_id":"4","last_reported":1741983005,"current_range_meters":16800,"station_id":"ce4bgih2rcd13ifvqba0","pricing_plan_id":"cebpf4jnsgd1na2vs0mg"},{"bike_id":"7c88e5e6-ab2c-4474-b03d-17818151ba41","system_id":"levelo_inurba_marseille","lat":43.2722,"lon":5.39199,"is_reserved":false,"is_disabled":false,"rental_uris":{"android":"levelo://app?vid=7c88e5e6-ab2c-4474-b03d-17818151ba41","ios":"levelo://app?vid=7c88e5e6-ab2c-4474-b03d-17818151ba41"},"vehicle_type_id":"4","last_reported":1741983005,"current_range_meters":16800,"station_id":"ce4bhhp2rcd13ifvqfm0","pricing_plan_id":"cebpf4jnsgd1na2vs0mg"},{"bike_id":"b51aa77a-78df-48cd-85ee-8a0ca50d540a","system_id":"levelo_inurba_marseille","lat":43.3133,"lon":5.39696,"is_reserved":false,"is_disabled":false,"rental_uris":{"android":"levelo://app?vid=b51aa77a-78df-48cd-85ee-8a0ca50d540a","ios":"levelo://app?vid=b51aa77a-78df-48cd-85ee-8a0ca50d540a"},"vehicle_type_id":"4","last_reported":1741983005,"current_range_meters":16800,"station_id":"ce4bgvp2rcd13ifvqcu0","pricing_plan_id":"cebpf4jnsgd1na2vs0mg"},{"bike_id":"dcf42fcb-51d3-452c-b7db-ca4aa6edc4ad","system_id":"levelo_inurba_marseille","lat":43.29245,"lon":5.38458,"is_reserved":false,"is_disabled":false,"rental_uris":{"android":"levelo://app?vid=dcf42fcb-51d3-452c-b7db-ca4aa6edc4ad","ios":"levelo://app?vid=dcf42fcb-51d3-452c-b7db-ca4aa6edc4ad"},"vehicle_type_id":"4","last_reported":1741983005,"current_range_meters":17200,"station_id":"ce4bh692rcd13ifvqea0","pricing_plan_id":"cebpf4jnsgd1na2vs0mg"},{"bike_id":"d751a31e-a518-44cc-8641-315d036d1e06","system_id":"levelo_inurba_marseille","lat":43.29882,"lon":5.39768,"is_reserved":false,"is_disabled":true,"rental_uris":{"android":"levelo://app?vid=d751a31e-a518-44cc-8641-315d036d1e06","ios":"levelo://app?vid=d751a31e-a518-44cc-8641-315d036d1e06"},"vehicle_type_id":"4","last_reported":1741983005,"current_range_meters":17200,"station_id":"ce4bh0h2rcd13ifvqd50","pricing_plan_id":"cebpf4jnsgd1na2vs0mg"},{"bike_id":"1a0378d2-2e59-45b7-8a60-7ba29995d209","system_id":"levelo_inurba_marseille","lat":43.30935,"lon":5.37197,"is_reserved":false,"is_disabled":false,"rental_uris":{"android":"levelo://app?vid=1a0378d2-2e59-45b7-8a60-7ba29995d209","ios":"levelo://app?vid=1a0378d2-2e59-45b7-8a60-7ba29995d209"},"vehicle_type_id":"4","last_reported":1741983005,"current_range_meters":16800,"station_id":"ce4bguh2rcd13ifvqckg","pricing_plan_id":"cebpf4jnsgd1na2vs0mg"},{"bike_id":"be34e346-6cd0-49dc-bc60-f4bbfdaefa50","system_id":"levelo_inurba_marseille","lat":43.27918,"lon":5.39585,"is_reserved":false,"is_disabled":false,"rental_uris":{"android":"levelo://app?vid=be34e346-6cd0-49dc-bc60-f4bbfdaefa50","ios":"levelo://app?vid=be34e346-6cd0-49dc-bc60-f4bbfdaefa50"},"vehicle_type_id":"4","last_reported":1741983005,"current_range_meters":17200,"station_id":"ce4bhf92rcd13ifvqf40","pricing_plan_id":"cebpf4jnsgd1na2vs0mg"},{"bike_id":"409d45c5-4772-4fde-a8d7-f055de5db0ef","system_id":"levelo_inurba_marseille","lat":43.28659,"lon":5.38663,"is_reserved":false,"is_disabled":false,"rental_uris":{"android":"levelo://app?vid=409d45c5-4772-4fde-a8d7-f055de5db0ef","ios":"levelo://app?vid=409d45c5-4772-4fde-a8d7-f055de5db0ef"},"vehicle_type_id":"4","last_reported":1741983005,"current_range_meters":17200,"station_id":"ce4bh492rcd13ifvqdug","pricing_plan_id":"cebpf4jnsgd1na2vs0mg"},{"bike_id":"3a89315b-62de-4a2c-a0ba-c40dd86a913d","system_id":"levelo_inurba_marseille","lat":43.27077,"lon":5.40284,"is_reserved":false,"is_disabled":false,"rental_uris":{"android":"levelo://app?vid=3a89315b-62de-4a2c-a0ba-c40dd86a913d","ios":"levelo://app?vid=3a89315b-62de-4a2c-a0ba-c40dd86a913d"},"vehicle_type_id":"4","last_reported":1741983005,"current_range_meters":17200,"station_id":"ce4bhk92rcd13ifvqgc0","pricing_plan_id":"cebpf4jnsgd1na2vs0mg"},{"bike_id":"35170032-9fbd-466b-b080-21388ed7720a","system_id":"levelo_inurba_marseille","lat":43.25095,"lon":5.39508,"is_reserved":false,"is_disabled":false,"rental_uris":{"android":"levelo://app?vid=35170032-9fbd-466b-b080-21388ed7720a","ios":"levelo://app?vid=35170032-9fbd-466b-b080-21388ed7720a"},"vehicle_type_id":"4","last_reported":1741983005,"current_range_meters":17600,"station_id":"ce4bhm12rcd13ifvqgkg","pricing_plan_id":"cebpf4jnsgd1na2vs0mg"},{"bike_id":"71b342b8-694b-40d5-99e8-310baf77a970","system_id":"levelo_inurba_marseille","lat":43.23064,"lon":5.35505,"is_reserved":false,"is_disabled":false,"rental_uris":{"android":"levelo://app?vid=71b342b8-694b-40d5-99e8-310baf77a970","ios":"levelo://app?vid=71b342b8-694b-40d5-99e8-310baf77a970"},"vehicle_type_id":"4","last_reported":1741983005,"current_range_meters":17600,"station_id":"cpo3342slgdg3j2ifvpg","pricing_plan_id":"cebpf4jnsgd1na2vs0mg"},{"bike_id":"90c707aa-0edc-4e94-a911-252e6bd4d4c2","system_id":"levelo_inurba_marseille","lat":43.28628,"lon":5.35111,"is_reserved":false,"is_disabled":false,"rental_uris":{"android":"levelo://app?vid=90c707aa-0edc-4e94-a911-252e6bd4d4c2","ios":"levelo://app?vid=90c707aa-0edc-4e94-a911-252e6bd4d4c2"},"vehicle_type_id":"4","last_reported":1741983005,"current_range_meters":17600,"station_id":"ce4bhch2rcd13ifvqeug","pricing_plan_id":"cebpf4jnsgd1na2vs0mg"},{"bike_id":"daf0cefd-6a52-46df-bf42-fa896a57bedf","system_id":"levelo_inurba_marseille","lat":43.29257,"lon":5.38456,"is_reserved":false,"is_disabled":false,"rental_uris":{"android":"levelo://app?vid=daf0cefd-6a52-46df-bf42-fa896a57bedf","ios":"levelo://app?vid=daf0cefd-6a52-46df-bf42-fa896a57bedf"},"vehicle_type_id":"4","last_reported":1741983005,"current_range_meters":17600,"station_id":"ce4bh692rcd13ifvqea0","pricing_plan_id":"cebpf4jnsgd1na2vs0mg"},{"bike_id":"c69a0189-c69b-46b7-bf01-ed8fa65f4cbc","system_id":"levelo_inurba_marseille","lat":43.29008,"lon":5.35617,"is_reserved":false,"is_disabled":false,"rental_uris":{"android":"levelo://app?vid=c69a0189-c69b-46b7-bf01-ed8fa65f4cbc","ios":"levelo://app?vid=c69a0189-c69b-46b7-bf01-ed8fa65f4cbc"},"vehicle_type_id":"4","last_reported":1741983005,"current_range_meters":17600,"station_id":"ce4bhb92rcd13ifvqen0","pricing_plan_id":"cebpf4jnsgd1na2vs0mg"},{"bike_id":"cf074f65-a36e-4f38-b1b9-78bc16980a0d","system_id":"levelo_inurba_marseille","lat":43.27948,"lon":5.41053,"is_reserved":false,"is_disabled":false,"rental_uris":{"android":"levelo://app?vid=cf074f65-a36e-4f38-b1b9-78bc16980a0d","ios":"levelo://app?vid=cf074f65-a36e-4f38-b1b9-78bc16980a0d"},"vehicle_type_id":"4","last_reported":1741983005,"current_range_meters":17600,"station_id":"ce4bhnp2rcd13ifvqh0g","pricing_plan_id":"cebpf4jnsgd1na2vs0mg"},{"bike_id":"8dee89b1-f251-449e-a212-f0a0e46943ef","system_id":"levelo_inurba_marseille","lat":43.27619,"lon":5.36118,"is_reserved":false,"is_disabled":false,"rental_uris":{"android":"levelo://app?vid=8dee89b1-f251-449e-a212-f0a0e46943ef","ios":"levelo://app?vid=8dee89b1-f251-449e-a212-f0a0e46943ef"},"vehicle_type_id":"4","last_reported":1741983005,"current_range_meters":17600,"station_id":"ce4bgj92rcd13ifvqbe0","pricing_plan_id":"cebpf4jnsgd1na2vs0mg"},{"bike_id":"e1bc5517-89cc-4fbd-afdb-e8d3c61b8e55","system_id":"levelo_inurba_marseille","lat":43.323608,"lon":5.36759,"is_reserved":false,"is_disabled":false,"rental_uris":{"android":"levelo://app?vid=e1bc5517-89cc-4fbd-afdb-e8d3c61b8e55","ios":"levelo://app?vid=e1bc5517-89cc-4fbd-afdb-e8d3c61b8e55"},"vehicle_type_id":"4","last_reported":1741983005,"current_range_meters":17600,"station_id":"ce4bhsh2rcd13ifvqi2g","pricing_plan_id":"cebpf4jnsgd1na2vs0mg"},{"bike_id":"b9e0ec7f-009e-468b-a0d0-ac27b008664f","system_id":"levelo_inurba_marseille","lat":43.2815,"lon":5.42635,"is_reserved":false,"is_disabled":false,"rental_uris":{"android":"levelo://app?vid=b9e0ec7f-009e-468b-a0d0-ac27b008664f","ios":"levelo://app?vid=b9e0ec7f-009e-468b-a0d0-ac27b008664f"},"vehicle_type_id":"4","last_reported":1741983005,"current_range_meters":17200,"station_id":"ce4bhnh2rcd13ifvqgug","pricing_plan_id":"cebpf4jnsgd1na2vs0mg"},{"bike_id":"78df367a-4264-4241-a94f-f890135b7404","system_id":"levelo_inurba_marseille","lat":43.33608,"lon":5.40946,"is_reserved":false,"is_disabled":false,"rental_uris":{"android":"levelo://app?vid=78df367a-4264-4241-a94f-f890135b7404","ios":"levelo://app?vid=78df367a-4264-4241-a94f-f890135b7404"},"vehicle_type_id":"4","last_reported":1741983005,"current_range_meters":17600,"station_id":"","pricing_plan_id":"cebpf4jnsgd1na2vs0mg"},{"bike_id":"dd939537-2e58-4be8-8de8-7d7448e0f853","system_id":"levelo_inurba_marseille","lat":43.27691,"lon":5.3888,"is_reserved":false,"is_disabled":false,"rental_uris":{"android":"levelo://app?vid=dd939537-2e58-4be8-8de8-7d7448e0f853","ios":"levelo://app?vid=dd939537-2e58-4be8-8de8-7d7448e0f853"},"vehicle_type_id":"4","last_reported":1741983005,"current_range_meters":17200,"station_id":"ce4bhi12rcd13ifvqfo0","pricing_plan_id":"cebpf4jnsgd1na2vs0mg"},{"bike_id":"ed968fdb-84da-4c7e-9e7e-2ee0ac6d6123","system_id":"levelo_inurba_marseille","lat":43.28074,"lon":5.39657,"is_reserved":false,"is_disabled":false,"rental_uris":{"android":"levelo://app?vid=ed968fdb-84da-4c7e-9e7e-2ee0ac6d6123","ios":"levelo://app?vid=ed968fdb-84da-4c7e-9e7e-2ee0ac6d6123"},"vehicle_type_id":"4","last_reported":1741983005,"current_range_meters":18000,"station_id":"ce4bho12rcd13ifvqh2g","pricing_plan_id":"cebpf4jnsgd1na2vs0mg"},{"bike_id":"14c06552-2844-40f8-963d-3dedffcab250","system_id":"levelo_inurba_marseille","lat":43.29621,"lon":5.37171,"is_reserved":false,"is_disabled":false,"rental_uris":{"android":"levelo://app?vid=14c06552-2844-40f8-963d-3dedffcab250","ios":"levelo://app?vid=14c06552-2844-40f8-963d-3dedffcab250"},"vehicle_type_id":"4","last_reported":1741983005,"current_range_meters":18000,"station_id":"ce4bgnh2rcd13ifvqc0g","pricing_plan_id":"cebpf4jnsgd1na2vs0mg"},{"bike_id":"f238c0df-d3c9-4577-a186-a5d3f05e229a","system_id":"levelo_inurba_marseille","lat":43.2585,"lon":5.39413,"is_reserved":false,"is_disabled":false,"rental_uris":{"android":"levelo://app?vid=f238c0df-d3c9-4577-a186-a5d3f05e229a","ios":"levelo://app?vid=f238c0df-d3c9-4577-a186-a5d3f05e229a"},"vehicle_type_id":"4","last_reported":1741983005,"current_range_meters":18000,"station_id":"ce4bhip2rcd13ifvqft0","pricing_plan_id":"cebpf4jnsgd1na2vs0mg"},{"bike_id":"e687460f-a5d7-4fff-b984-82c233563d8d","system_id":"levelo_inurba_marseille","lat":43.30148,"lon":5.38102,"is_reserved":false,"is_disabled":false,"rental_uris":{"android":"levelo://app?vid=e687460f-a5d7-4fff-b984-82c233563d8d","ios":"levelo://app?vid=e687460f-a5d7-4fff-b984-82c233563d8d"},"vehicle_type_id":"4","last_reported":1741983005,"current_range_meters":18000,"station_id":"ce4bgjp2rcd13ifvqbh0","pricing_plan_id":"cebpf4jnsgd1na2vs0mg"},{"bike_id":"bbca671b-9e22-4888-8372-bf9a27619137","system_id":"levelo_inurba_marseille","lat":43.2847,"lon":5.38417,"is_reserved":false,"is_disabled":false,"rental_uris":{"android":"levelo://app?vid=bbca671b-9e22-4888-8372-bf9a27619137","ios":"levelo://app?vid=bbca671b-9e22-4888-8372-bf9a27619137"},"vehicle_type_id":"4","last_reported":1741983005,"current_range_meters":18000,"station_id":"ce4bh512rcd13ifvqe3g","pricing_plan_id":"cebpf4jnsgd1na2vs0mg"},{"bike_id":"3314a080-d808-4459-b707-180b85895975","system_id":"levelo_inurba_marseille","lat":43.27899,"lon":5.38008,"is_reserved":false,"is_disabled":false,"rental_uris":{"android":"levelo://app?vid=3314a080-d808-4459-b707-180b85895975","ios":"levelo://app?vid=3314a080-d808-4459-b707-180b85895975"},"vehicle_type_id":"4","last_reported":1741983005,"current_range_meters":18000,"station_id":"ce4bhf92rcd13ifvqf50","pricing_plan_id":"cebpf4jnsgd1na2vs0mg"},{"bike_id":"f709cb7e-4bd4-4503-ab85-447b0bd380b5","system_id":"levelo_inurba_marseille","lat":43.32362,"lon":5.389,"is_reserved":false,"is_disabled":false,"rental_uris":{"android":"levelo://app?vid=f709cb7e-4bd4-4503-ab85-447b0bd380b5","ios":"levelo://app?vid=f709cb7e-4bd4-4503-ab85-447b0bd380b5"},"vehicle_type_id":"4","last_reported":1741983005,"current_range_meters":18000,"station_id":"ce4bhqp2rcd13ifvqhog","pricing_plan_id":"cebpf4jnsgd1na2vs0mg"},{"bike_id":"72977fa7-7343-4cff-8728-965991106263","system_id":"levelo_inurba_marseille","lat":43.29647,"lon":5.37139,"is_reserved":false,"is_disabled":false,"rental_uris":{"android":"levelo://app?vid=72977fa7-7343-4cff-8728-965991106263","ios":"levelo://app?vid=72977fa7-7343-4cff-8728-965991106263"},"vehicle_type_id":"4","last_reported":1741983005,"current_range_meters":18000,"station_id":"ce4bgnh2rcd13ifvqc0g","pricing_plan_id":"cebpf4jnsgd1na2vs0mg"},{"bike_id":"d20b1ea1-68d8-4d84-b2b2-7af425a1c02d","system_id":"levelo_inurba_marseille","lat":43.26954,"lon":5.40257,"is_reserved":false,"is_disabled":false,"rental_uris":{"android":"levelo://app?vid=d20b1ea1-68d8-4d84-b2b2-7af425a1c02d","ios":"levelo://app?vid=d20b1ea1-68d8-4d84-b2b2-7af425a1c02d"},"vehicle_type_id":"4","last_reported":1741983005,"current_range_meters":18000,"station_id":"cjm6bp8fraef2m0cb0m0","pricing_plan_id":"cebpf4jnsgd1na2vs0mg"},{"bike_id":"a7bf43f3-dbf8-47c3-97b2-b3dfd7ac0119","system_id":"levelo_inurba_marseille","lat":43.30546,"lon":5.36539,"is_reserved":false,"is_disabled":false,"rental_uris":{"android":"levelo://app?vid=a7bf43f3-dbf8-47c3-97b2-b3dfd7ac0119","ios":"levelo://app?vid=a7bf43f3-dbf8-47c3-97b2-b3dfd7ac0119"},"vehicle_type_id":"4","last_reported":1741983005,"current_range_meters":18000,"station_id":"ce4bgs12rcd13ifvqcag","pricing_plan_id":"cebpf4jnsgd1na2vs0mg"},{"bike_id":"6ffff0a8-172c-4dc2-8429-0d06f4d6bfed","system_id":"levelo_inurba_marseille","lat":43.29565,"lon":5.37518,"is_reserved":false,"is_disabled":false,"rental_uris":{"android":"levelo://app?vid=6ffff0a8-172c-4dc2-8429-0d06f4d6bfed","ios":"levelo://app?vid=6ffff0a8-172c-4dc2-8429-0d06f4d6bfed"},"vehicle_type_id":"4","last_reported":1741983005,"current_range_meters":18000,"station_id":"ce4bgkp2rcd13ifvqbmg","pricing_plan_id":"cebpf4jnsgd1na2vs0mg"},{"bike_id":"8df4a37d-cbe8-41ba-abf2-9e4e5fd63dd0","system_id":"levelo_inurba_marseille","lat":43.29779,"lon":5.38059,"is_reserved":false,"is_disabled":false,"rental_uris":{"android":"levelo://app?vid=8df4a37d-cbe8-41ba-abf2-9e4e5fd63dd0","ios":"levelo://app?vid=8df4a37d-cbe8-41ba-abf2-9e4e5fd63dd0"},"vehicle_type_id":"4","last_reported":1741983005,"current_range_meters":18000,"station_id":"ce4bgip2rcd13ifvqbb0","pricing_plan_id":"cebpf4jnsgd1na2vs0mg"},{"bike_id":"efa182c5-e8bb-4316-9ac4-4d06270b10d4","system_id":"levelo_inurba_marseille","lat":43.32379,"lon":5.38916,"is_reserved":false,"is_disabled":false,"rental_uris":{"android":"levelo://app?vid=efa182c5-e8bb-4316-9ac4-4d06270b10d4","ios":"levelo://app?vid=efa182c5-e8bb-4316-9ac4-4d06270b10d4"},"vehicle_type_id":"4","last_reported":1741983005,"current_range_meters":18000,"station_id":"ce4bhqp2rcd13ifvqhog","pricing_plan_id":"cebpf4jnsgd1na2vs0mg"},{"bike_id":"f0bca22f-e209-4fd9-b311-4c3b7896a530","system_id":"levelo_inurba_marseille","lat":43.29782,"lon":5.40401,"is_reserved":false,"is_disabled":false,"rental_uris":{"android":"levelo://app?vid=f0bca22f-e209-4fd9-b311-4c3b7896a530","ios":"levelo://app?vid=f0bca22f-e209-4fd9-b311-4c3b7896a530"},"vehicle_type_id":"4","last_reported":1741983005,"current_range_meters":18000,"station_id":"ce4bh112rcd13ifvqd90","pricing_plan_id":"cebpf4jnsgd1na2vs0mg"},{"bike_id":"538cf22a-9e32-4b58-bbb6-037ac3526cd8","system_id":"levelo_inurba_marseille","lat":43.29568,"lon":5.37534,"is_reserved":false,"is_disabled":false,"rental_uris":{"android":"levelo://app?vid=538cf22a-9e32-4b58-bbb6-037ac3526cd8","ios":"levelo://app?vid=538cf22a-9e32-4b58-bbb6-037ac3526cd8"},"vehicle_type_id":"4","last_reported":1741983005,"current_range_meters":18000,"station_id":"ce4bgh92rcd13ifvqb50","pricing_plan_id":"cebpf4jnsgd1na2vs0mg"},{"bike_id":"b3df1662-ff3f-4689-9a37-1846960a22d4","system_id":"levelo_inurba_marseille","lat":43.28561,"lon":5.39512,"is_reserved":false,"is_disabled":false,"rental_uris":{"android":"levelo://app?vid=b3df1662-ff3f-4689-9a37-1846960a22d4","ios":"levelo://app?vid=b3df1662-ff3f-4689-9a37-1846960a22d4"},"vehicle_type_id":"4","last_reported":1741983005,"current_range_meters":18000,"station_id":"ce4bh292rcd13ifvqdg0","pricing_plan_id":"cebpf4jnsgd1na2vs0mg"},{"bike_id":"a5028821-6a81-4bbb-94ca-b7ac127e2028","system_id":"levelo_inurba_marseille","lat":43.28609,"lon":5.37067,"is_reserved":false,"is_disabled":false,"rental_uris":{"android":"levelo://app?vid=a5028821-6a81-4bbb-94ca-b7ac127e2028","ios":"levelo://app?vid=a5028821-6a81-4bbb-94ca-b7ac127e2028"},"vehicle_type_id":"4","last_reported":1741983005,"current_range_meters":18800,"station_id":"ce4bht12rcd13ifvqi60","pricing_plan_id":"cebpf4jnsgd1na2vs0mg"},{"bike_id":"b6afa81a-cb71-4756-b59a-060dabf509d7","system_id":"levelo_inurba_marseille","lat":43.29783,"lon":5.39342,"is_reserved":false,"is_disabled":false,"rental_uris":{"android":"levelo://app?vid=b6afa81a-cb71-4756-b59a-060dabf509d7","ios":"levelo://app?vid=b6afa81a-cb71-4756-b59a-060dabf509d7"},"vehicle_type_id":"4","last_reported":1741983005,"current_range_meters":18800,"station_id":"chh1huq6cuj3fo74tm60","pricing_plan_id":"cebpf4jnsgd1na2vs0mg"},{"bike_id":"d0b1c613-e75c-4bb0-8bbe-5769a073ee52","system_id":"levelo_inurba_marseille","lat":43.29527,"lon":5.38545,"is_reserved":false,"is_disabled":false,"rental_uris":{"android":"levelo://app?vid=d0b1c613-e75c-4bb0-8bbe-5769a073ee52","ios":"levelo://app?vid=d0b1c613-e75c-4bb0-8bbe-5769a073ee52"},"vehicle_type_id":"4","last_reported":1741983005,"current_range_meters":18800,"station_id":"ce4bgih2rcd13ifvqba0","pricing_plan_id":"cebpf4jnsgd1na2vs0mg"},{"bike_id":"2e11829c-c539-4249-a99d-d72cb2a8e369","system_id":"levelo_inurba_marseille","lat":43.28853,"lon":5.35854,"is_reserved":false,"is_disabled":false,"rental_uris":{"android":"levelo://app?vid=2e11829c-c539-4249-a99d-d72cb2a8e369","ios":"levelo://app?vid=2e11829c-c539-4249-a99d-d72cb2a8e369"},"vehicle_type_id":"4","last_reported":1741983005,"current_range_meters":18800,"station_id":"ce4bhb12rcd13ifvqem0","pricing_plan_id":"cebpf4jnsgd1na2vs0mg"},{"bike_id":"4d20b878-6603-4328-ab6e-4a7ae0b08224","system_id":"levelo_inurba_marseille","lat":43.25961,"lon":5.4092,"is_reserved":false,"is_disabled":false,"rental_uris":{"android":"levelo://app?vid=4d20b878-6603-4328-ab6e-4a7ae0b08224","ios":"levelo://app?vid=4d20b878-6603-4328-ab6e-4a7ae0b08224"},"vehicle_type_id":"4","last_reported":1741983005,"current_range_meters":18800,"station_id":"ce4bhm92rcd13ifvqglg","pricing_plan_id":"cebpf4jnsgd1na2vs0mg"},{"bike_id":"ece2352d-d6b5-45d3-b559-b4ee2c355f56","system_id":"levelo_inurba_marseille","lat":43.25825,"lon":5.3942,"is_reserved":false,"is_disabled":false,"rental_uris":{"android":"levelo://app?vid=ece2352d-d6b5-45d3-b559-b4ee2c355f56","ios":"levelo://app?vid=ece2352d-d6b5-45d3-b559-b4ee2c355f56"},"vehicle_type_id":"4","last_reported":1741983005,"current_range_meters":18800,"station_id":"ce4bhip2rcd13ifvqft0","pricing_plan_id":"cebpf4jnsgd1na2vs0mg"},{"bike_id":"944fa0ed-d972-450d-a7b3-6e0cabd16378","system_id":"levelo_inurba_marseille","lat":43.2586,"lon":5.39912,"is_reserved":false,"is_disabled":false,"rental_uris":{"android":"levelo://app?vid=944fa0ed-d972-450d-a7b3-6e0cabd16378","ios":"levelo://app?vid=944fa0ed-d972-450d-a7b3-6e0cabd16378"},"vehicle_type_id":"4","last_reported":1741983005,"current_range_meters":18800,"station_id":"ce4bhl92rcd13ifvqghg","pricing_plan_id":"cebpf4jnsgd1na2vs0mg"},{"bike_id":"e45b485b-2b23-4619-b35b-0ea7416474b1","system_id":"levelo_inurba_marseille","lat":43.2958,"lon":5.36731,"is_reserved":false,"is_disabled":false,"rental_uris":{"android":"levelo://app?vid=e45b485b-2b23-4619-b35b-0ea7416474b1","ios":"levelo://app?vid=e45b485b-2b23-4619-b35b-0ea7416474b1"},"vehicle_type_id":"4","last_reported":1741983005,"current_range_meters":18800,"station_id":"ce4bgph2rcd13ifvqc2g","pricing_plan_id":"cebpf4jnsgd1na2vs0mg"},{"bike_id":"c9f25581-f76b-48a2-be2a-e0e0b578dec0","system_id":"levelo_inurba_marseille","lat":43.24179,"lon":5.39732,"is_reserved":false,"is_disabled":false,"rental_uris":{"android":"levelo://app?vid=c9f25581-f76b-48a2-be2a-e0e0b578dec0","ios":"levelo://app?vid=c9f25581-f76b-48a2-be2a-e0e0b578dec0"},"vehicle_type_id":"4","last_reported":1741983005,"current_range_meters":18800,"station_id":"ce4bhn12rcd13ifvqgpg","pricing_plan_id":"cebpf4jnsgd1na2vs0mg"},{"bike_id":"f8a4fd1f-8768-49cb-a929-fdc4f5463ccd","system_id":"levelo_inurba_marseille","lat":43.30157,"lon":5.37435,"is_reserved":false,"is_disabled":false,"rental_uris":{"android":"levelo://app?vid=f8a4fd1f-8768-49cb-a929-fdc4f5463ccd","ios":"levelo://app?vid=f8a4fd1f-8768-49cb-a929-fdc4f5463ccd"},"vehicle_type_id":"4","last_reported":1741983005,"current_range_meters":18800,"station_id":"ce4bgs92rcd13ifvqcc0","pricing_plan_id":"cebpf4jnsgd1na2vs0mg"},{"bike_id":"f30c26ca-804d-4786-9519-dbab41222c3b","system_id":"levelo_inurba_marseille","lat":43.2782,"lon":5.40715,"is_reserved":false,"is_disabled":false,"rental_uris":{"android":"levelo://app?vid=f30c26ca-804d-4786-9519-dbab41222c3b","ios":"levelo://app?vid=f30c26ca-804d-4786-9519-dbab41222c3b"},"vehicle_type_id":"4","last_reported":1741983005,"current_range_meters":18800,"station_id":"ce4bhnh2rcd13ifvqgtg","pricing_plan_id":"cebpf4jnsgd1na2vs0mg"},{"bike_id":"6850f114-f664-4675-ae66-935c99a0db8e","system_id":"levelo_inurba_marseille","lat":43.27056,"lon":5.40279,"is_reserved":false,"is_disabled":false,"rental_uris":{"android":"levelo://app?vid=6850f114-f664-4675-ae66-935c99a0db8e","ios":"levelo://app?vid=6850f114-f664-4675-ae66-935c99a0db8e"},"vehicle_type_id":"4","last_reported":1741983005,"current_range_meters":19200,"station_id":"ce4bhk92rcd13ifvqgc0","pricing_plan_id":"cebpf4jnsgd1na2vs0mg"},{"bike_id":"642d5ba0-f707-4aa5-abbf-944400c409b6","system_id":"levelo_inurba_marseille","lat":43.27642,"lon":5.36126,"is_reserved":false,"is_disabled":false,"rental_uris":{"android":"levelo://app?vid=642d5ba0-f707-4aa5-abbf-944400c409b6","ios":"levelo://app?vid=642d5ba0-f707-4aa5-abbf-944400c409b6"},"vehicle_type_id":"4","last_reported":1741983005,"current_range_meters":19200,"station_id":"ce4bgj92rcd13ifvqbe0","pricing_plan_id":"cebpf4jnsgd1na2vs0mg"},{"bike_id":"96744a18-3316-43e0-9153-7a6032ab1b09","system_id":"levelo_inurba_marseille","lat":43.2503,"lon":5.3893,"is_reserved":false,"is_disabled":false,"rental_uris":{"android":"levelo://app?vid=96744a18-3316-43e0-9153-7a6032ab1b09","ios":"levelo://app?vid=96744a18-3316-43e0-9153-7a6032ab1b09"},"vehicle_type_id":"4","last_reported":1741983005,"current_range_meters":19200,"station_id":"ce4bhgp2rcd13ifvqfd0","pricing_plan_id":"cebpf4jnsgd1na2vs0mg"},{"bike_id":"b89eb48b-e97b-4abf-8014-42ec3603d979","system_id":"levelo_inurba_marseille","lat":43.2624,"lon":5.40465,"is_reserved":false,"is_disabled":false,"rental_uris":{"android":"levelo://app?vid=b89eb48b-e97b-4abf-8014-42ec3603d979","ios":"levelo://app?vid=b89eb48b-e97b-4abf-8014-42ec3603d979"},"vehicle_type_id":"4","last_reported":1741983005,"current_range_meters":19200,"station_id":"ce4bhmh2rcd13ifvqgmg","pricing_plan_id":"cebpf4jnsgd1na2vs0mg"},{"bike_id":"28a7d2d2-223f-495f-aabc-b651e9d029b8","system_id":"levelo_inurba_marseille","lat":43.28153,"lon":5.42648,"is_reserved":false,"is_disabled":false,"rental_uris":{"android":"levelo://app?vid=28a7d2d2-223f-495f-aabc-b651e9d029b8","ios":"levelo://app?vid=28a7d2d2-223f-495f-aabc-b651e9d029b8"},