{"last_updated":1703329553,"ttl":30,"version":"2.2","data":{"bikes":[{"bike_id":"c79695e7-3315-4dd8-894b-f099b75a50ed","system_id":"levelo_inurba_marseille","lat":43.31029,"lon":5.3708,"is_reserved":false,"is_disabled":false,"rental_uris":{"android":"levelo://app?vid=c79695e7-3315-4dd8-894b-f099b75a50ed","ios":"levelo://app?vid=c79695e7-3315-4dd8-894b-f099b75a50ed"},"vehicle_type_id":"4","last_reported":1703329553,"current_range_meters":12400,"station_id":"","pricing_plan_id":"free"},{"bike_id":"727f3797-bab9-4cd4-a328-56af35de684b","system_id":"levelo_inurba_marseille","lat":43.314811,"lon":5.373103,"is_reserved":false,"is_disabled":false,"rental_uris":{"android":"levelo://app?vid=727f3797-bab9-4cd4-a328-56af35de684b","ios":"levelo://app?vid=727f3797-bab9-4cd4-a328-56af35de684b"},"vehicle_type_id":"4","last_reported":1703329553,"current_range_meters":31600,"station_id":"ce4bgt12rcd13ifvqcd0","pricing_plan_id":"free"},{"bike_id":"067eee78-f5e9-4235-8e43-c2a21e14636f","system_id":"levelo_inurba_marseille","lat":43.309039,"lon":5.371797,"is_reserved":false,"is_disabled":false,"rental_uris":{"android":"levelo://app?vid=067eee78-f5e9-4235-8e43-c2a21e14636f","ios":"levelo://app?vid=067eee78-f5e9-4235-8e43-c2a21e14636f"},"vehicle_type_id":"4","last_reported":1703329553,"current_range_meters":30400,"station_id":"ce4bguh2rcd13ifvqckg","pricing_plan_id":"free"},{"bike_id":"d45633d2-b3bd-4b24-85c5-2954bdc48f93","system_id":"levelo_inurba_marseille","lat":43.305712,"lon":5.365641,"is_reserved":false,"is_disabled":false,"rental_uris":{"android":"levelo://app?vid=d45633d2-b3bd-4b24-85c5-2954bdc48f93","ios":"levelo://app?vid=d45633d2-b3bd-4b24-85c5-2954bdc48f93"},"vehicle_type_id":"4","last_reported":1703329553,"current_range_meters":26400,"station_id":"ce4bgs12rcd13ifvqcag","pricing_plan_id":"free"},{"bike_id":"2fcdc8ee-247b-4a47-bb96-932867645b6e","system_id":"levelo_inurba_marseille","lat":43.305712,"lon":5.365641,"is_reserved":false,"is_disabled":false,"rental_uris":{"android":"levelo://app?vid=2fcdc8ee-247b-4a47-bb96-932867645b6e","ios":"levelo://app?vid=2fcdc8ee-247b-4a47-bb96-932867645b6e"},"vehicle_type_id":"4","last_reported":1703329553,"current_range_meters":28400,"station_id":"ce4bgs12rcd13ifvqcag","pricing_plan_id":"free"},{"bike_id":"797ac3d0-3f3c-4c43-8f0b-be2ea75727d8","system_id":"levelo_inurba_marseille","lat":43.305714,"lon":5.365633,"is_reserved":false,"is_disabled":false,"rental_uris":{"android":"levelo://app?vid=797ac3d0-3f3c-4c43-8f0b-be2ea75727d8","ios":"levelo://app?vid=797ac3d0-3f3c-4c43-8f0b-be2ea75727d8"},"vehicle_type_id":"4","last_reported":1703329553,"current_range_meters":20400,"station_id":"ce4bgs12rcd13ifvqcag","pricing_plan_id":"free"},{"bike_id":"db86caf1-3e12-4bac-bc11-1e2d53745b25","system_id":"levelo_inurba_marseille","lat":43.305714,"lon":5.365633,"is_reserved":false,"is_disabled":false,"rental_uris":{"android":"levelo://app?vid=db86caf1-3e12-4bac-bc11-1e2d53745b25","ios":"levelo://app?vid=db86caf1-3e12-4bac-bc11-1e2d53745b25"},"vehicle_type_id":"4","last_reported":1703329553,"current_range_meters":21200,"station_id":"ce4bgs12rcd13ifvqcag","pricing_plan_id":"free"},{"bike_id":"4e8f6e78-6548-4fb8-b927-1bb22f518de4","system_id":"levelo_inurba_marseille","lat":43.305706,"lon":5.365654,"is_reserved":false,"is_disabled":false,"rental_uris":{"android":"levelo://app?vid=4e8f6e78-6548-4fb8-b927-1bb22f518de4","ios":"levelo://app?vid=4e8f6e78-6548-4fb8-b927-1bb22f518de4"},"vehicle_type_id":"4","last_reported":1703329553,"current_range_meters":8800,"station_id":"ce4bgs12rcd13ifvqcag","pricing_plan_id":"free"},{"bike_id":"6dfeca6f-7821-4bb9-97f0-04b1bf7cb347","system_id":"levelo_inurba_marseille","lat":43.301783,"lon":5.366122,"is_reserved":false,"is_disabled":false,"rental_uris":{"android":"levelo://app?vid=6dfeca6f-7821-4bb9-97f0-04b1bf7cb347","ios":"levelo://app?vid=6dfeca6f-7821-4bb9-97f0-04b1bf7cb347"},"vehicle_type_id":"4","last_reported":1703329553,"current_range_meters":28000,"station_id":"ce4bgrh2rcd13ifvqc8g","pricing_plan_id":"free"},{"bike_id":"50b78faf-2d43-45a2-8d76-5d3a60c8952f","system_id":"levelo_inurba_marseille","lat":43.308012,"lon":5.381511,"is_reserved":false,"is_disabled":false,"rental_uris":{"android":"levelo://app?vid=50b78faf-2d43-45a2-8d76-5d3a60c8952f","ios":"levelo://app?vid=50b78faf-2d43-45a2-8d76-5d3a60c8952f"},"vehicle_type_id":"4","last_reported":1703329553,"current_range_meters":21600,"station_id":"ce4bgt12rcd13ifvqce0","pricing_plan_id":"free"},{"bike_id":"9ba530d1-f1b5-44f3-9995-d195fc22ad4e","system_id":"levelo_inurba_marseille","lat":43.304606,"lon":5.379026,"is_reserved":false,"is_disabled":false,"rental_uris":{"android":"levelo://app?vid=9ba530d1-f1b5-44f3-9995-d195fc22ad4e","ios":"levelo://app?vid=9ba530d1-f1b5-44f3-9995-d195fc22ad4e"},"vehicle_type_id":"4","last_reported":1703329553,"current_range_meters":25200,"station_id":"ce4bgup2rcd13ifvqcn0","pricing_plan_id":"free"},{"bike_id":"3604b394-5b01-421c-b249-ec53cc38bcb5","system_id":"levelo_inurba_marseille","lat":43.304606,"lon":5.379026,"is_reserved":false,"is_disabled":false,"rental_uris":{"android":"levelo://app?vid=3604b394-5b01-421c-b249-ec53cc38bcb5","ios":"levelo://app?vid=3604b394-5b01-421c-b249-ec53cc38bcb5"},"vehicle_type_id":"4","last_reported":1703329553,"current_range_meters":31200,"station_id":"ce4bgup2rcd13ifvqcn0","pricing_plan_id":"free"},{"bike_id":"9a04c5c8-638b-4716-9da8-d3437fb09600","system_id":"levelo_inurba_marseille","lat":43.304606,"lon":5.379026,"is_reserved":false,"is_disabled":false,"rental_uris":{"android":"levelo://app?vid=9a04c5c8-638b-4716-9da8-d3437fb09600","ios":"levelo://app?vid=9a04c5c8-638b-4716-9da8-d3437fb09600"},"vehicle_type_id":"4","last_reported":1703329553,"current_range_meters":30000,"station_id":"ce4bgup2rcd13ifvqcn0","pricing_plan_id":"free"},{"bike_id":"a4fcf0a2-cf89-4959-8c0a-1673b1020f39","system_id":"levelo_inurba_marseille","lat":43.304606,"lon":5.379026,"is_reserved":false,"is_disabled":false,"rental_uris":{"android":"levelo://app?vid=a4fcf0a2-cf89-4959-8c0a-1673b1020f39","ios":"levelo://app?vid=a4fcf0a2-cf89-4959-8c0a-1673b1020f39"},"vehicle_type_id":"4","last_reported":1703329553,"current_range_meters":30400,"station_id":"ce4bgup2rcd13ifvqcn0","pricing_plan_id":"free"},{"bike_id":"a5c5a1f0-b469-42c8-a188-b139618f597f","system_id":"levelo_inurba_marseille","lat":43.30468,"lon":5.3791,"is_reserved":false,"is_disabled":false,"rental_uris":{"android":"levelo://app?vid=a5c5a1f0-b469-42c8-a188-b139618f597f","ios":"levelo://app?vid=a5c5a1f0-b469-42c8-a188-b139618f597f"},"vehicle_type_id":"4","last_reported":1703329553,"current_range_meters":12000,"station_id":"ce4bgup2rcd13ifvqcn0","pricing_plan_id":"free"},{"bike_id":"01e73865-ef12-4d6d-8e44-93b2ba799fc8","system_id":"levelo_inurba_marseille","lat":43.304606,"lon":5.379026,"is_reserved":false,"is_disabled":false,"rental_uris":{"android":"levelo://app?vid=01e73865-ef12-4d6d-8e44-93b2ba799fc8","ios":"levelo://app?vid=01e73865-ef12-4d6d-8e44-93b2ba799fc8"},"vehicle_type_id":"4","last_reported":1703329553,"current_range_meters":27200,"station_id":"ce4bgup2rcd13ifvqcn0","pricing_plan_id":"free"},{"bike_id":"3002c767-2d0c-4c42-8614-df0b0b547f8c","system_id":"levelo_inurba_marseille","lat":43.304606,"lon":5.379026,"is_reserved":false,"is_disabled":false,"rental_uris":{"android":"levelo://app?vid=3002c767-2d0c-4c42-8614-df0b0b547f8c","ios":"levelo://app?vid=3002c767-2d0c-4c42-8614-df0b0b547f8c"},"vehicle_type_id":"4","last_reported":1703329553,"current_range_meters":12800,"station_id":"ce4bgup2rcd13ifvqcn0","pricing_plan_id":"free"},{"bike_id":"a0df1d6a-3240-4e17-8b74-45100f7fee8c","system_id":"levelo_inurba_marseille","lat":43.304606,"lon":5.379026,"is_reserved":false,"is_disabled":false,"rental_uris":{"android":"levelo://app?vid=a0df1d6a-3240-4e17-8b74-45100f7fee8c","ios":"levelo://app?vid=a0df1d6a-3240-4e17-8b74-45100f7fee8c"},"vehicle_type_id":"4","last_reported":1703329553,"current_range_meters":27200,"station_id":"ce4bgup2rcd13ifvqcn0","pricing_plan_id":"free"},{"bike_id":"a1f50592-62c3-412e-a892-bb4a3dde137f","system_id":"levelo_inurba_marseille","lat":43.304606,"lon":5.379026,"is_reserved":false,"is_disabled":false,"rental_uris":{"android":"levelo://app?vid=a1f50592-62c3-412e-a892-bb4a3dde137f","ios":"levelo://app?vid=a1f50592-62c3-412e-a892-bb4a3dde137f"},"vehicle_type_id":"4","last_reported":1703329553,"current_range_meters":6400,"station_id":"ce4bgup2rcd13ifvqcn0","pricing_plan_id":"free"},{"bike_id":"f284ced3-6233-4476-9e9a-c5c776559881","system_id":"levelo_inurba_marseille","lat":43.304622,"lon":5.379075,"is_reserved":false,"is_disabled":false,"rental_uris":{"android":"levelo://app?vid=f284ced3-6233-4476-9e9a-c5c776559881","ios":"levelo://app?vid=f284ced3-6233-4476-9e9a-c5c776559881"},"vehicle_type_id":"4","last_reported":1703329553,"current_range_meters":25200,"station_id":"ce4bgup2rcd13ifvqcn0","pricing_plan_id":"free"},{"bike_id":"34dda873-6e52-4cb2-ab13-2a4e4c6b8bf2","system_id":"levelo_inurba_marseille","lat":43.30461,"lon":5.37906,"is_reserved":false,"is_disabled":false,"rental_uris":{"android":"levelo://app?vid=34dda873-6e52-4cb2-ab13-2a4e4c6b8bf2","ios":"levelo://app?vid=34dda873-6e52-4cb2-ab13-2a4e4c6b8bf2"},"vehicle_type_id":"4","last_reported":1703329553,"current_range_meters":27600,"station_id":"ce4bgup2rcd13ifvqcn0","pricing_plan_id":"free"},{"bike_id":"f954a88c-7243-4829-831c-baa7b6369ade","system_id":"levelo_inurba_marseille","lat":43.304606,"lon":5.379026,"is_reserved":false,"is_disabled":false,"rental_uris":{"android":"levelo://app?vid=f954a88c-7243-4829-831c-baa7b6369ade","ios":"levelo://app?vid=f954a88c-7243-4829-831c-baa7b6369ade"},"vehicle_type_id":"4","last_reported":1703329553,"current_range_meters":30000,"station_id":"ce4bgup2rcd13ifvqcn0","pricing_plan_id":"free"},{"bike_id":"8121b578-96fc-41fc-9276-40207de8ccd2","system_id":"levelo_inurba_marseille","lat":43.304606,"lon":5.379026,"is_reserved":false,"is_disabled":false,"rental_uris":{"android":"levelo://app?vid=8121b578-96fc-41fc-9276-40207de8ccd2","ios":"levelo://app?vid=8121b578-96fc-41fc-9276-40207de8ccd2"},"vehicle_type_id":"4","last_reported":1703329553,"current_range_meters":31200,"station_id":"ce4bgup2rcd13ifvqcn0","pricing_plan_id":"free"},{"bike_id":"db0f7faa-1a85-4b45-9e5d-437b32c589e0","system_id":"levelo_inurba_marseille","lat":43.304606,"lon":5.379026,"is_reserved":false,"is_disabled":false,"rental_uris":{"android":"levelo://app?vid=db0f7faa-1a85-4b45-9e5d-437b32c589e0","ios":"levelo://app?vid=db0f7faa-1a85-4b45-9e5d-437b32c589e0"},"vehicle_type_id":"4","last_reported":1703329553,"current_range_meters":16000,"station_id":"ce4bgup2rcd13ifvqcn0","pricing_plan_id":"free"},{"bike_id":"31a1fed4-c9ad-4ea8-83d3-9d5d6e18aa3d","system_id":"levelo_inurba_marseille","lat":43.304606,"lon":5.379026,"is_reserved":false,"is_disabled":false,"rental_uris":{"android":"levelo://app?vid=31a1fed4-c9ad-4ea8-83d3-9d5d6e18aa3d","ios":"levelo://app?vid=31a1fed4-c9ad-4ea8-83d3-9d5d6e18aa3d"},"vehicle_type_id":"4","last_reported":1703329553,"current_range_meters":28000,"station_id":"ce4bgup2rcd13ifvqcn0","pricing_plan_id":"free"},{"bike_id":"a4e42992-7ed2-4fa8-bf9d-9b0ec79f3a5c","system_id":"levelo_inurba_marseille","lat":43.304606,"lon":5.379026,"is_reserved":false,"is_disabled":false,"rental_uris":{"android":"levelo://app?vid=a4e42992-7ed2-4fa8-bf9d-9b0ec79f3a5c","ios":"levelo://app?vid=a4e42992-7ed2-4fa8-bf9d-9b0ec79f3a5c"},"vehicle_type_id":"4","last_reported":1703329553,"current_range_meters":29600,"station_id":"ce4bgup2rcd13ifvqcn0","pricing_plan_id":"free"},{"bike_id":"0ef28047-db7e-4036-aa04-e309ac0a099d","system_id":"levelo_inurba_marseille","lat":43.304637,"lon":5.379107,"is_reserved":false,"is_disabled":false,"rental_uris":{"android":"levelo://app?vid=0ef28047-db7e-4036-aa04-e309ac0a099d","ios":"levelo://app?vid=0ef28047-db7e-4036-aa04-e309ac0a099d"},"vehicle_type_id":"4","last_reported":1703329553,"current_range_meters":16000,"station_id":"ce4bgup2rcd13ifvqcn0","pricing_plan_id":"free"},{"bike_id":"39d6f474-0b47-4212-85ae-d0cae3d25f13","system_id":"levelo_inurba_marseille","lat":43.304593,"lon":5.379063,"is_reserved":false,"is_disabled":false,"rental_uris":{"android":"levelo://app?vid=39d6f474-0b47-4212-85ae-d0cae3d25f13","ios":"levelo://app?vid=39d6f474-0b47-4212-85ae-d0cae3d25f13"},"vehicle_type_id":"4","last_reported":1703329553,"current_range_meters":28000,"station_id":"","pricing_plan_id":"free"},{"bike_id":"32de9eda-4406-4141-9704-04bd75bb80b6","system_id":"levelo_inurba_marseille","lat":43.304606,"lon":5.379026,"is_reserved":false,"is_disabled":false,"rental_uris":{"android":"levelo://app?vid=32de9eda-4406-4141-9704-04bd75bb80b6","ios":"levelo://app?vid=32de9eda-4406-4141-9704-04bd75bb80b6"},"vehicle_type_id":"4","last_reported":1703329553,"current_range_meters":28400,"station_id":"ce4bgup2rcd13ifvqcn0","pricing_plan_id":"free"},{"bike_id":"7b39d7d2-9d1d-4e3b-9c0e-e5e132355a5d","system_id":"levelo_inurba_marseille","lat":43.304606,"lon":5.379026,"is_reserved":false,"is_disabled":false,"rental_uris":{"android":"levelo://app?vid=7b39d7d2-9d1d-4e3b-9c0e-e5e132355a5d","ios":"levelo://app?vid=7b39d7d2-9d1d-4e3b-9c0e-e5e132355a5d"},"vehicle_type_id":"4","last_reported":1703329553,"current_range_meters":30400,"station_id":"ce4bgup2rcd13ifvqcn0","pricing_plan_id":"free"},{"bike_id":"dbd770bb-1d29-4664-a7be-848222c7bcbd","system_id":"levelo_inurba_marseille","lat":43.30461,"lon":5.3791,"is_reserved":false,"is_disabled":false,"rental_uris":{"android":"levelo://app?vid=dbd770bb-1d29-4664-a7be-848222c7bcbd","ios":"levelo://app?vid=dbd770bb-1d29-4664-a7be-848222c7bcbd"},"vehicle_type_id":"4","last_reported":1703329553,"current_range_meters":4800,"station_id":"ce4bgup2rcd13ifvqcn0","pricing_plan_id":"free"},{"bike_id":"e7527bc1-ef05-4986-bf56-638d349d3f72","system_id":"levelo_inurba_marseille","lat":43.304606,"lon":5.379026,"is_reserved":false,"is_disabled":false,"rental_uris":{"android":"levelo://app?vid=e7527bc1-ef05-4986-bf56-638d349d3f72","ios":"levelo://app?vid=e7527bc1-ef05-4986-bf56-638d349d3f72"},"vehicle_type_id":"4","last_reported":1703329553,"current_range_meters":30800,"station_id":"ce4bgup2rcd13ifvqcn0","pricing_plan_id":"free"},{"bike_id":"76c78339-b62e-4966-ab5a-af817a9c8a8b","system_id":"levelo_inurba_marseille","lat":43.304606,"lon":5.379026,"is_reserved":false,"is_disabled":false,"rental_uris":{"android":"levelo://app?vid=76c78339-b62e-4966-ab5a-af817a9c8a8b","ios":"levelo://app?vid=76c78339-b62e-4966-ab5a-af817a9c8a8b"},"vehicle_type_id":"4","last_reported":1703329553,"current_range_meters":6400,"station_id":"ce4bgup2rcd13ifvqcn0","pricing_plan_id":"free"},{"bike_id":"e6ce9342-8679-40e3-8a9c-7716777de6f4","system_id":"levelo_inurba_marseille","lat":43.304606,"lon":5.379026,"is_reserved":false,"is_disabled":false,"rental_uris":{"android":"levelo://app?vid=e6ce9342-8679-40e3-8a9c-7716777de6f4","ios":"levelo://app?vid=e6ce9342-8679-40e3-8a9c-7716777de6f4"},"vehicle_type_id":"4","last_reported":1703329553,"current_range_meters":29600,"station_id":"ce4bgup2rcd13ifvqcn0","pricing_plan_id":"free"},{"bike_id":"6a4bbb7f-1c02-4b87-a8f4-50d57b4689f3","system_id":"levelo_inurba_marseille","lat":43.304587,"lon":5.379102,"is_reserved":false,"is_disabled":false,"rental_uris":{"android":"levelo://app?vid=6a4bbb7f-1c02-4b87-a8f4-50d57b4689f3","ios":"levelo://app?vid=6a4bbb7f-1c02-4b87-a8f4-50d57b4689f3"},"vehicle_type_id":"4","last_reported":1703329553,"current_range_meters":28000,"station_id":"ce4bgup2rcd13ifvqcn0","pricing_plan_id":"free"},{"bike_id":"b02a720a-b58b-442e-a65c-600d43daa45b","system_id":"levelo_inurba_marseille","lat":43.304583,"lon":5.379102,"is_reserved":false,"is_disabled":false,"rental_uris":{"android":"levelo://app?vid=b02a720a-b58b-442e-a65c-600d43daa45b","ios":"levelo://app?vid=b02a720a-b58b-442e-a65c-600d43daa45b"},"vehicle_type_id":"4","last_reported":1703329553,"current_range_meters":18800,"station_id":"ce4bgup2rcd13ifvqcn0","pricing_plan_id":"free"},{"bike_id":"d0c25ccd-a7cf-42e4-a3a8-2af5247ac2da","system_id":"levelo_inurba_marseille","lat":43.304606,"lon":5.379026,"is_reserved":false,"is_disabled":false,"rental_uris":{"android":"levelo://app?vid=d0c25ccd-a7cf-42e4-a3a8-2af5247ac2da","ios":"levelo://app?vid=d0c25ccd-a7cf-42e4-a3a8-2af5247ac2da"},"vehicle_type_id":"4","last_reported":1703329553,"current_range_meters":28800,"station_id":"ce4bgup2rcd13ifvqcn0","pricing_plan_id":"free"},{"bike_id":"74d4acbb-546d-494b-9d3a-cf4e8405752d","system_id":"levelo_inurba_marseille","lat":43.304606,"lon":5.379026,"is_reserved":false,"is_disabled":false,"rental_uris":{"android":"levelo://app?vid=74d4acbb-546d-494b-9d3a-cf4e8405752d","ios":"levelo://app?vid=74d4acbb-546d-494b-9d3a-cf4e8405752d"},"vehicle_type_id":"4","last_reported":1703329553,"current_range_meters":29600,"station_id":"ce4bgup2rcd13ifvqcn0","pricing_plan_id":"free"},{"bike_id":"5accb64e-6147-49d9-908c-b89942418f69","system_id":"levelo_inurba_marseille","lat":43.304606,"lon":5.379026,"is_reserved":false,"is_disabled":false,"rental_uris":{"android":"levelo://app?vid=5accb64e-6147-49d9-908c-b89942418f69","ios":"levelo://app?vid=5accb64e-6147-49d9-908c-b89942418f69"},"vehicle_type_id":"4","last_reported":1703329553,"current_range_meters":27600,"station_id":"ce4bgup2rcd13ifvqcn0","pricing_plan_id":"free"},{"bike_id":"cd3ddfa0-4089-4eb8-8beb-4f4b163843b8","system_id":"levelo_inurba_marseille","lat":43.324771,"lon":5.36557,"is_reserved":false,"is_disabled":false,"rental_uris":{"android":"levelo://app?vid=cd3ddfa0-4089-4eb8-8beb-4f4b163843b8","ios":"levelo://app?vid=cd3ddfa0-4089-4eb8-8beb-4f4b163843b8"},"vehicle_type_id":"4","last_reported":1703329553,"current_range_meters":31200,"station_id":"ce4bhs12rcd13ifvqhvg","pricing_plan_id":"free"},{"bike_id":"97886078-1a9a-408d-ae49-7e974a0c0f47","system_id":"levelo_inurba_marseille","lat":43.302784,"lon":5.377158,"is_reserved":false,"is_disabled":false,"rental_uris":{"android":"levelo://app?vid=97886078-1a9a-408d-ae49-7e974a0c0f47","ios":"levelo://app?vid=97886078-1a9a-408d-ae49-7e974a0c0f47"},"vehicle_type_id":"4","last_reported":1703329553,"current_range_meters":1200,"station_id":"ce4bguh2rcd13ifvqcj0","pricing_plan_id":"free"},{"bike_id":"69599836-e945-413a-a849-741769f44bc7","system_id":"levelo_inurba_marseille","lat":43.302784,"lon":5.377158,"is_reserved":false,"is_disabled":false,"rental_uris":{"android":"levelo://app?vid=69599836-e945-413a-a849-741769f44bc7","ios":"levelo://app?vid=69599836-e945-413a-a849-741769f44bc7"},"vehicle_type_id":"4","last_reported":1703329553,"current_range_meters":14000,"station_id":"ce4bguh2rcd13ifvqcj0","pricing_plan_id":"free"},{"bike_id":"aa0b983b-9e8a-46fb-8abc-a85c1cf01a1f","system_id":"levelo_inurba_marseille","lat":43.30143,"lon":5.37413,"is_reserved":false,"is_disabled":false,"rental_uris":{"android":"levelo://app?vid=aa0b983b-9e8a-46fb-8abc-a85c1cf01a1f","ios":"levelo://app?vid=aa0b983b-9e8a-46fb-8abc-a85c1cf01a1f"},"vehicle_type_id":"4","last_reported":1703329553,"current_range_meters":30400,"station_id":"ce4bgs92rcd13ifvqcc0","pricing_plan_id":"free"},{"bike_id":"e94884da-c8e8-443a-8224-044057dee4ed","system_id":"levelo_inurba_marseille","lat":43.319923,"lon":5.381103,"is_reserved":false,"is_disabled":false,"rental_uris":{"android":"levelo://app?vid=e94884da-c8e8-443a-8224-044057dee4ed","ios":"levelo://app?vid=e94884da-c8e8-443a-8224-044057dee4ed"},"vehicle_type_id":"4","last_reported":1703329553,"current_range_meters":19200,"station_id":"ce4bhr12rcd13ifvqhpg","pricing_plan_id":"free"},{"bike_id":"9c231161-337f-4eba-87d3-44d75eaa84aa","system_id":"levelo_inurba_marseille","lat":43.31991,"lon":5.38142,"is_reserved":false,"is_disabled":false,"rental_uris":{"android":"levelo://app?vid=9c231161-337f-4eba-87d3-44d75eaa84aa","ios":"levelo://app?vid=9c231161-337f-4eba-87d3-44d75eaa84aa"},"vehicle_type_id":"4","last_reported":1703329553,"current_range_meters":28000,"station_id":"ce4bhr12rcd13ifvqhpg","pricing_plan_id":"free"},{"bike_id":"258a26e2-409e-4686-a1ce-371c7d9a38f4","system_id":"levelo_inurba_marseille","lat":43.302784,"lon":5.377158,"is_reserved":false,"is_disabled":false,"rental_uris":{"android":"levelo://app?vid=258a26e2-409e-4686-a1ce-371c7d9a38f4","ios":"levelo://app?vid=258a26e2-409e-4686-a1ce-371c7d9a38f4"},"vehicle_type_id":"4","last_reported":1703329553,"current_range_meters":3200,"station_id":"ce4bguh2rcd13ifvqcj0","pricing_plan_id":"free"},{"bike_id":"c616a760-5d15-46bb-9d75-552ebc124cb7","system_id":"levelo_inurba_marseille","lat":43.31992,"lon":5.38149,"is_reserved":false,"is_disabled":false,"rental_uris":{"android":"levelo://app?vid=c616a760-5d15-46bb-9d75-552ebc124cb7","ios":"levelo://app?vid=c616a760-5d15-46bb-9d75-552ebc124cb7"},"vehicle_type_id":"4","last_reported":1703329553,"current_range_meters":16400,"station_id":"ce4bhr12rcd13ifvqhpg","pricing_plan_id":"free"},{"bike_id":"dc0f6af5-c02c-4610-baea-e5c6ca16f530","system_id":"levelo_inurba_marseille","lat":43.319984,"lon":5.381463,"is_reserved":false,"is_disabled":false,"rental_uris":{"android":"levelo://app?vid=dc0f6af5-c02c-4610-baea-e5c6ca16f530","ios":"levelo://app?vid=dc0f6af5-c02c-4610-baea-e5c6ca16f530"},"vehicle_type_id":"4","last_reported":1703329553,"current_range_meters":25200,"station_id":"ce4bhr12rcd13ifvqhpg","pricing_plan_id":"free"},{"bike_id":"82b7c1aa-506b-4cff-953c-bb835d7847c3","system_id":"levelo_inurba_marseille","lat":43.319935,"lon":5.381699,"is_reserved":false,"is_disabled":false,"rental_uris":{"android":"levelo://app?vid=82b7c1aa-506b-4cff-953c-bb835d7847c3","ios":"levelo://app?vid=82b7c1aa-506b-4cff-953c-bb835d7847c3"},"vehicle_type_id":"4","last_reported":1703329553,"current_range_meters":11200,"station_id":"ce4bhr12rcd13ifvqhpg","pricing_plan_id":"free"},{"bike_id":"a4d91f4c-0227-4bc9-a904-969806ef4ac5","system_id":"levelo_inurba_marseille","lat":43.31994,"lon":5.38154,"is_reserved":false,"is_disabled":false,"rental_uris":{"android":"levelo://app?vid=a4d91f4c-0227-4bc9-a904-969806ef4ac5","ios":"levelo://app?vid=a4d91f4c-0227-4bc9-a904-969806ef4ac5"},"vehicle_type_id":"4","last_reported":1703329553,"current_range_meters":18400,"station_id":"ce4bhr12rcd13ifvqhpg","pricing_plan_id":"free"},{"bike_id":"43cbc324-5842-4172-9757-b16fa987f5af","system_id":"levelo_inurba_marseille","lat":43.299724,"lon":5.371829,"is_reserved":false,"is_disabled":false,"rental_uris":{"android":"levelo://app?vid=43cbc324-5842-4172-9757-b16fa987f5af","ios":"levelo://app?vid=43cbc324-5842-4172-9757-b16fa987f5af"},"vehicle_type_id":"4","last_reported":1703329553,"current_range_meters":9600,"station_id":"ce4bgr92rcd13ifvqc7g","pricing_plan_id":"free"},{"bike_id":"b1e259d6-abcf-4efd-9313-a327e17abcf9","system_id":"levelo_inurba_marseille","lat":43.302742,"lon":5.379459,"is_reserved":false,"is_disabled":false,"rental_uris":{"android":"levelo://app?vid=b1e259d6-abcf-4efd-9313-a327e17abcf9","ios":"levelo://app?vid=b1e259d6-abcf-4efd-9313-a327e17abcf9"},"vehicle_type_id":"4","last_reported":1703329553,"current_range_meters":23200,"station_id":"","pricing_plan_id":"free"},{"bike_id":"48aec4d1-969a-4985-af34-3ccd4e8890ca","system_id":"levelo_inurba_marseille","lat":43.3022,"lon":5.37988,"is_reserved":false,"is_disabled":false,"rental_uris":{"android":"levelo://app?vid=48aec4d1-969a-4985-af34-3ccd4e8890ca","ios":"levelo://app?vid=48aec4d1-969a-4985-af34-3ccd4e8890ca"},"vehicle_type_id":"4","last_reported":1703329553,"current_range_meters":24000,"station_id":"","pricing_plan_id":"free"},{"bike_id":"6781d681-f0ce-4e20-b177-2a4c03c46910","system_id":"levelo_inurba_marseille","lat":43.298433,"lon":5.362774,"is_reserved":false,"is_disabled":false,"rental_uris":{"android":"levelo://app?vid=6781d681-f0ce-4e20-b177-2a4c03c46910","ios":"levelo://app?vid=6781d681-f0ce-4e20-b177-2a4c03c46910"},"vehicle_type_id":"4","last_reported":1703329553,"current_range_meters":27600,"station_id":"ce4bgpp2rcd13ifvqc3g","pricing_plan_id":"free"},{"bike_id":"32262b8b-6fce-48d4-acdc-c9d312a99396","system_id":"levelo_inurba_marseille","lat":43.299243,"lon":5.374807,"is_reserved":false,"is_disabled":false,"rental_uris":{"android":"levelo://app?vid=32262b8b-6fce-48d4-acdc-c9d312a99396","ios":"levelo://app?vid=32262b8b-6fce-48d4-acdc-c9d312a99396"},"vehicle_type_id":"4","last_reported":1703329553,"current_range_meters":0,"station_id":"ce4bgjh2rcd13ifvqbg0","pricing_plan_id":"free"},{"bike_id":"01755339-1ca4-44c9-a818-3c440af4c16b","system_id":"levelo_inurba_marseille","lat":43.3117,"lon":5.3872,"is_reserved":false,"is_disabled":false,"rental_uris":{"android":"levelo://app?vid=01755339-1ca4-44c9-a818-3c440af4c16b","ios":"levelo://app?vid=01755339-1ca4-44c9-a818-3c440af4c16b"},"vehicle_type_id":"4","last_reported":1703329553,"current_range_meters":8800,"station_id":"ce4bgv12rcd13ifvqcp0","pricing_plan_id":"free"},{"bike_id":"3d7fe210-68c1-416e-8fe2-a3416ecf1970","system_id":"levelo_inurba_marseille","lat":43.322872,"lon":5.382756,"is_reserved":false,"is_disabled":false,"rental_uris":{"android":"levelo://app?vid=3d7fe210-68c1-416e-8fe2-a3416ecf1970","ios":"levelo://app?vid=3d7fe210-68c1-416e-8fe2-a3416ecf1970"},"vehicle_type_id":"4","last_reported":1703329553,"current_range_meters":28400,"station_id":"ce4bhr12rcd13ifvqhqg","pricing_plan_id":"free"},{"bike_id":"8034dfa6-6a9a-4910-bdf2-ccf8ebe901e2","system_id":"levelo_inurba_marseille","lat":43.322872,"lon":5.382756,"is_reserved":false,"is_disabled":false,"rental_uris":{"android":"levelo://app?vid=8034dfa6-6a9a-4910-bdf2-ccf8ebe901e2","ios":"levelo://app?vid=8034dfa6-6a9a-4910-bdf2-ccf8ebe901e2"},"vehicle_type_id":"4","last_reported":1703329553,"current_range_meters":31600,"station_id":"ce4bhr12rcd13ifvqhqg","pricing_plan_id":"free"},{"bike_id":"6ef56fd5-1a7c-4c71-8bf8-33afeff899ef","system_id":"levelo_inurba_marseille","lat":43.322872,"lon":5.382756,"is_reserved":false,"is_disabled":false,"rental_uris":{"android":"levelo://app?vid=6ef56fd5-1a7c-4c71-8bf8-33afeff899ef","ios":"levelo://app?vid=6ef56fd5-1a7c-4c71-8bf8-33afeff899ef"},"vehicle_type_id":"4","last_reported":1703329553,"current_range_meters":28000,"station_id":"ce4bhr12rcd13ifvqhqg","pricing_plan_id":"free"},{"bike_id":"d2be49f4-d512-450f-80de-370a6da97420","system_id":"levelo_inurba_marseille","lat":43.328371,"lon":5.366909,"is_reserved":false,"is_disabled":false,"rental_uris":{"android":"levelo://app?vid=d2be49f4-d512-450f-80de-370a6da97420","ios":"levelo://app?vid=d2be49f4-d512-450f-80de-370a6da97420"},"vehicle_type_id":"4","last_reported":1703329553,"current_range_meters":12800,"station_id":"ce4bhs92rcd13ifvqi0g","pricing_plan_id":"free"},{"bike_id":"254a274b-cda3-4fec-a158-9abce0a21925","system_id":"levelo_inurba_marseille","lat":43.328371,"lon":5.366909,"is_reserved":false,"is_disabled":false,"rental_uris":{"android":"levelo://app?vid=254a274b-cda3-4fec-a158-9abce0a21925","ios":"levelo://app?vid=254a274b-cda3-4fec-a158-9abce0a21925"},"vehicle_type_id":"4","last_reported":1703329553,"current_range_meters":400,"station_id":"ce4bhs92rcd13ifvqi0g","pricing_plan_id":"free"},{"bike_id":"d728a8b4-bece-4be0-a14a-8abb6b425cd7","system_id":"levelo_inurba_marseille","lat":43.328371,"lon":5.366909,"is_reserved":false,"is_disabled":false,"rental_uris":{"android":"levelo://app?vid=d728a8b4-bece-4be0-a14a-8abb6b425cd7","ios":"levelo://app?vid=d728a8b4-bece-4be0-a14a-8abb6b425cd7"},"vehicle_type_id":"4","last_reported":1703329553,"current_range_meters":13600,"station_id":"ce4bhs92rcd13ifvqi0g","pricing_plan_id":"free"},{"bike_id":"6cba446c-9ee9-4546-8c3c-626825b73b1e","system_id":"levelo_inurba_marseille","lat":43.328371,"lon":5.366909,"is_reserved":false,"is_disabled":false,"rental_uris":{"android":"levelo://app?vid=6cba446c-9ee9-4546-8c3c-626825b73b1e","ios":"levelo://app?vid=6cba446c-9ee9-4546-8c3c-626825b73b1e"},"vehicle_type_id":"4","last_reported":1703329553,"current_range_meters":31200,"station_id":"ce4bhs92rcd13ifvqi0g","pricing_plan_id":"free"},{"bike_id":"aa3fb6e4-1c03-44e5-96a0-f8edc6b5e34f","system_id":"levelo_inurba_marseille","lat":43.328371,"lon":5.366909,"is_reserved":false,"is_disabled":false,"rental_uris":{"android":"levelo://app?vid=aa3fb6e4-1c03-44e5-96a0-f8edc6b5e34f","ios":"levelo://app?vid=aa3fb6e4-1c03-44e5-96a0-f8edc6b5e34f"},"vehicle_type_id":"4","last_reported":1703329553,"current_range_meters":10000,"station_id":"ce4bhs92rcd13ifvqi0g","pricing_plan_id":"free"},{"bike_id":"b2244d4b-5cac-47c6-abf7-da027fdb3f39","system_id":"levelo_inurba_marseille","lat":43.328371,"lon":5.366909,"is_reserved":false,"is_disabled":false,"rental_uris":{"android":"levelo://app?vid=b2244d4b-5cac-47c6-abf7-da027fdb3f39","ios":"levelo://app?vid=b2244d4b-5cac-47c6-abf7-da027fdb3f39"},"vehicle_type_id":"4","last_reported":1703329553,"current_range_meters":22000,"station_id":"ce4bhs92rcd13ifvqi0g","pricing_plan_id":"free"},{"bike_id":"525f6ec1-c089-48ad-8216-d8e073aa768d","system_id":"levelo_inurba_marseille","lat":43.328371,"lon":5.366909,"is_reserved":false,"is_disabled":false,"rental_uris":{"android":"levelo://app?vid=525f6ec1-c089-48ad-8216-d8e073aa768d","ios":"levelo://app?vid=525f6ec1-c089-48ad-8216-d8e073aa768d"},"vehicle_type_id":"4","last_reported":1703329553,"current_range_meters":10000,"station_id":"ce4bhs92rcd13ifvqi0g","pricing_plan_id":"free"},{"bike_id":"0849d898-0dda-4fb1-b9d1-0d0f6c9fd728","system_id":"levelo_inurba_marseille","lat":43.297163,"lon":5.365866,"is_reserved":false,"is_disabled":false,"rental_uris":{"android":"levelo://app?vid=0849d898-0dda-4fb1-b9d1-0d0f6c9fd728","ios":"levelo://app?vid=0849d898-0dda-4fb1-b9d1-0d0f6c9fd728"},"vehicle_type_id":"4","last_reported":1703329553,"current_range_meters":29600,"station_id":"ce4bgn12rcd13ifvqbt0","pricing_plan_id":"free"},{"bike_id":"37b4f24b-c303-4e09-87d1-c3c8391beb85","system_id":"levelo_inurba_marseille","lat":43.297163,"lon":5.365866,"is_reserved":false,"is_disabled":false,"rental_uris":{"android":"levelo://app?vid=37b4f24b-c303-4e09-87d1-c3c8391beb85","ios":"levelo://app?vid=37b4f24b-c303-4e09-87d1-c3c8391beb85"},"vehicle_type_id":"4","last_reported":1703329553,"current_range_meters":28000,"station_id":"ce4bgn12rcd13ifvqbt0","pricing_plan_id":"free"},{"bike_id":"bfd2f465-a7db-4793-ae2b-796db829d12a","system_id":"levelo_inurba_marseille","lat":43.2968,"lon":5.37291,"is_reserved":false,"is_disabled":false,"rental_uris":{"android":"levelo://app?vid=bfd2f465-a7db-4793-ae2b-796db829d12a","ios":"levelo://app?vid=bfd2f465-a7db-4793-ae2b-796db829d12a"},"vehicle_type_id":"4","last_reported":1703329553,"current_range_meters":21600,"station_id":"ce4bgk12rcd13ifvqbj0","pricing_plan_id":"free"},{"bike_id":"8e112511-a98a-4183-a74a-1e632888f31b","system_id":"levelo_inurba_marseille","lat":43.295852,"lon":5.367329,"is_reserved":false,"is_disabled":false,"rental_uris":{"android":"levelo://app?vid=8e112511-a98a-4183-a74a-1e632888f31b","ios":"levelo://app?vid=8e112511-a98a-4183-a74a-1e632888f31b"},"vehicle_type_id":"4","last_reported":1703329553,"current_range_meters":27200,"station_id":"ce4bgph2rcd13ifvqc2g","pricing_plan_id":"free"},{"bike_id":"58ae8988-d2f9-418a-b161-003b30611509","system_id":"levelo_inurba_marseille","lat":43.29573,"lon":5.367355,"is_reserved":false,"is_disabled":false,"rental_uris":{"android":"levelo://app?vid=58ae8988-d2f9-418a-b161-003b30611509","ios":"levelo://app?vid=58ae8988-d2f9-418a-b161-003b30611509"},"vehicle_type_id":"4","last_reported":1703329553,"current_range_meters":28800,"station_id":"ce4bgph2rcd13ifvqc2g","pricing_plan_id":"free"},{"bike_id":"0a43c42a-7076-4ce6-822c-09db9ee887db","system_id":"levelo_inurba_marseille","lat":43.29575,"lon":5.36739,"is_reserved":false,"is_disabled":false,"rental_uris":{"android":"levelo://app?vid=0a43c42a-7076-4ce6-822c-09db9ee887db","ios":"levelo://app?vid=0a43c42a-7076-4ce6-822c-09db9ee887db"},"vehicle_type_id":"4","last_reported":1703329553,"current_range_meters":28000,"station_id":"ce4bgph2rcd13ifvqc2g","pricing_plan_id":"free"},{"bike_id":"47534cbd-0f43-4183-9cd0-80d56ce8276f","system_id":"levelo_inurba_marseille","lat":43.29573,"lon":5.367355,"is_reserved":false,"is_disabled":false,"rental_uris":{"android":"levelo://app?vid=47534cbd-0f43-4183-9cd0-80d56ce8276f","ios":"levelo://app?vid=47534cbd-0f43-4183-9cd0-80d56ce8276f"},"vehicle_type_id":"4","last_reported":1703329553,"current_range_meters":26800,"station_id":"ce4bgph2rcd13ifvqc2g","pricing_plan_id":"free"},{"bike_id":"879e9778-89c0-451e-9de2-a1c3f27430c2","system_id":"levelo_inurba_marseille","lat":43.296921,"lon":5.376579,"is_reserved":false,"is_disabled":false,"rental_uris":{"android":"levelo://app?vid=879e9778-89c0-451e-9de2-a1c3f27430c2","ios":"levelo://app?vid=879e9778-89c0-451e-9de2-a1c3f27430c2"},"vehicle_type_id":"4","last_reported":1703329553,"current_range_meters":28400,"station_id":"ce4bgkh2rcd13ifvqbl0","pricing_plan_id":"free"},{"bike_id":"c1b46ce4-64e1-4e37-8812-a59c4e6df6b3","system_id":"levelo_inurba_marseille","lat":43.299028,"lon":5.381509,"is_reserved":false,"is_disabled":false,"rental_uris":{"android":"levelo://app?vid=c1b46ce4-64e1-4e37-8812-a59c4e6df6b3","ios":"levelo://app?vid=c1b46ce4-64e1-4e37-8812-a59c4e6df6b3"},"vehicle_type_id":"4","last_reported":1703329553,"current_range_meters":27200,"station_id":"ce4bgj12rcd13ifvqbc0","pricing_plan_id":"free"},{"bike_id":"ff4535bd-dcb1-4642-b716-27d197229ae0","system_id":"levelo_inurba_marseille","lat":43.317557,"lon":5.390173,"is_reserved":false,"is_disabled":false,"rental_uris":{"android":"levelo://app?vid=ff4535bd-dcb1-4642-b716-27d197229ae0","ios":"levelo://app?vid=ff4535bd-dcb1-4642-b716-27d197229ae0"},"vehicle_type_id":"4","last_reported":1703329553,"current_range_meters":18000,"station_id":"ce4bhqp2rcd13ifvqhng","pricing_plan_id":"free"},{"bike_id":"b9c8fefe-fcf2-4e1c-95c9-c0ffed42221d","system_id":"levelo_inurba_marseille","lat":43.317557,"lon":5.390173,"is_reserved":false,"is_disabled":false,"rental_uris":{"android":"levelo://app?vid=b9c8fefe-fcf2-4e1c-95c9-c0ffed42221d","ios":"levelo://app?vid=b9c8fefe-fcf2-4e1c-95c9-c0ffed42221d"},"vehicle_type_id":"4","last_reported":1703329553,"current_range_meters":31200,"station_id":"ce4bhqp2rcd13ifvqhng","pricing_plan_id":"free"},{"bike_id":"d39682ea-d8f1-45a4-b2b8-5a732fb091bc","system_id":"levelo_inurba_marseille","lat":43.317557,"lon":5.390173,"is_reserved":false,"is_disabled":false,"rental_uris":{"android":"levelo://app?vid=d39682ea-d8f1-45a4-b2b8-5a732fb091bc","ios":"levelo://app?vid=d39682ea-d8f1-45a4-b2b8-5a732fb091bc"},"vehicle_type_id":"4","last_reported":1703329553,"current_range_meters":31600,"station_id":"ce4bhqp2rcd13ifvqhng","pricing_plan_id":"free"},{"bike_id":"b3e69c1d-7e5a-4757-bef8-3569af454ae7","system_id":"levelo_inurba_marseille","lat":43.31759,"lon":5.39018,"is_reserved":false,"is_disabled":false,"rental_uris":{"android":"levelo://app?vid=b3e69c1d-7e5a-4757-bef8-3569af454ae7","ios":"levelo://app?vid=b3e69c1d-7e5a-4757-bef8-3569af454ae7"},"vehicle_type_id":"4","last_reported":1703329553,"current_range_meters":18400,"station_id":"ce4bhqp2rcd13ifvqhng","pricing_plan_id":"free"},{"bike_id":"62e22e3e-8174-4ec7-90f7-4445322daa77","system_id":"levelo_inurba_marseille","lat":43.317557,"lon":5.390173,"is_reserved":false,"is_disabled":false,"rental_uris":{"android":"levelo://app?vid=62e22e3e-8174-4ec7-90f7-4445322daa77","ios":"levelo://app?vid=62e22e3e-8174-4ec7-90f7-4445322daa77"},"vehicle_type_id":"4","last_reported":1703329553,"current_range_meters":23600,"station_id":"ce4bhqp2rcd13ifvqhng","pricing_plan_id":"free"},{"bike_id":"cdb3d701-5381-4219-9cdd-c446bf2fa9ab","system_id":"levelo_inurba_marseille","lat":43.295352,"lon":5.361199,"is_reserved":false,"is_disabled":false,"rental_uris":{"android":"levelo://app?vid=cdb3d701-5381-4219-9cdd-c446bf2fa9ab","ios":"levelo://app?vid=cdb3d701-5381-4219-9cdd-c446bf2fa9ab"},"vehicle_type_id":"4","last_reported":1703329553,"current_range_meters":6000,"station_id":"","pricing_plan_id":"free"},{"bike_id":"c9b8b2b6-d4d8-4cb7-8b24-3299addf1de1","system_id":"levelo_inurba_marseille","lat":43.298037,"lon":5.381066,"is_reserved":false,"is_disabled":false,"rental_uris":{"android":"levelo://app?vid=c9b8b2b6-d4d8-4cb7-8b24-3299addf1de1","ios":"levelo://app?vid=c9b8b2b6-d4d8-4cb7-8b24-3299addf1de1"},"vehicle_type_id":"4","last_reported":1703329553,"current_range_meters":25200,"station_id":"ce4bgip2rcd13ifvqbb0","pricing_plan_id":"free"},{"bike_id":"fec21b50-5a48-4216-b04c-b2ef0e0471c3","system_id":"levelo_inurba_marseille","lat":43.295748,"lon":5.37522,"is_reserved":false,"is_disabled":false,"rental_uris":{"android":"levelo://app?vid=fec21b50-5a48-4216-b04c-b2ef0e0471c3","ios":"levelo://app?vid=fec21b50-5a48-4216-b04c-b2ef0e0471c3"},"vehicle_type_id":"4","last_reported":1703329553,"current_range_meters":27200,"station_id":"ce4bgh92rcd13ifvqb50","pricing_plan_id":"free"},{"bike_id":"2136459d-2fbb-41cb-90d0-6ca4652758c2","system_id":"levelo_inurba_marseille","lat":43.295748,"lon":5.37522,"is_reserved":false,"is_disabled":false,"rental_uris":{"android":"levelo://app?vid=2136459d-2fbb-41cb-90d0-6ca4652758c2","ios":"levelo://app?vid=2136459d-2fbb-41cb-90d0-6ca4652758c2"},"vehicle_type_id":"4","last_reported":1703329553,"current_range_meters":28000,"station_id":"ce4bgh92rcd13ifvqb50","pricing_plan_id":"free"},{"bike_id":"d4522635-86cc-4867-8520-65eb81557a77","system_id":"levelo_inurba_marseille","lat":43.29518,"lon":5.37498,"is_reserved":false,"is_disabled":false,"rental_uris":{"android":"levelo://app?vid=d4522635-86cc-4867-8520-65eb81557a77","ios":"levelo://app?vid=d4522635-86cc-4867-8520-65eb81557a77"},"vehicle_type_id":"4","last_reported":1703329553,"current_range_meters":6800,"station_id":"ce4bgkp2rcd13ifvqbmg","pricing_plan_id":"free"},{"bike_id":"4f80e3b9-c93c-4633-a63b-1f1517d9a544","system_id":"levelo_inurba_marseille","lat":43.299717,"lon":5.384845,"is_reserved":false,"is_disabled":false,"rental_uris":{"android":"levelo://app?vid=4f80e3b9-c93c-4633-a63b-1f1517d9a544","ios":"levelo://app?vid=4f80e3b9-c93c-4633-a63b-1f1517d9a544"},"vehicle_type_id":"4","last_reported":1703329553,"current_range_meters":30400,"station_id":"ce4bgj92rcd13ifvqbd0","pricing_plan_id":"free"},{"bike_id":"0da11ce9-28cb-4cdf-a841-aee65e140ae4","system_id":"levelo_inurba_marseille","lat":43.32367,"lon":5.388836,"is_reserved":false,"is_disabled":false,"rental_uris":{"android":"levelo://app?vid=0da11ce9-28cb-4cdf-a841-aee65e140ae4","ios":"levelo://app?vid=0da11ce9-28cb-4cdf-a841-aee65e140ae4"},"vehicle_type_id":"4","last_reported":1703329553,"current_range_meters":28800,"station_id":"ce4bhqp2rcd13ifvqhog","pricing_plan_id":"free"},{"bike_id":"eaa5e0c9-2b1c-4467-ab68-bbff3d6c2e68","system_id":"levelo_inurba_marseille","lat":43.32367,"lon":5.388836,"is_reserved":false,"is_disabled":false,"rental_uris":{"android":"levelo://app?vid=eaa5e0c9-2b1c-4467-ab68-bbff3d6c2e68","ios":"levelo://app?vid=eaa5e0c9-2b1c-4467-ab68-bbff3d6c2e68"},"vehicle_type_id":"4","last_reported":1703329553,"current_range_meters":18400,"station_id":"ce4bhqp2rcd13ifvqhog","pricing_plan_id":"free"},{"bike_id":"f4d0bed8-9520-4abb-9dc0-01291abc8de0","system_id":"levelo_inurba_marseille","lat":43.32367,"lon":5.388836,"is_reserved":false,"is_disabled":false,"rental_uris":{"android":"levelo://app?vid=f4d0bed8-9520-4abb-9dc0-01291abc8de0","ios":"levelo://app?vid=f4d0bed8-9520-4abb-9dc0-01291abc8de0"},"vehicle_type_id":"4","last_reported":1703329553,"current_range_meters":11600,"station_id":"ce4bhqp2rcd13ifvqhog","pricing_plan_id":"free"},{"bike_id":"dc576f31-c21e-42d2-97a4-815b145b7f58","system_id":"levelo_inurba_marseille","lat":43.32367,"lon":5.388836,"is_reserved":false,"is_disabled":false,"rental_uris":{"android":"levelo://app?vid=dc576f31-c21e-42d2-97a4-815b145b7f58","ios":"levelo://app?vid=dc576f31-c21e-42d2-97a4-815b145b7f58"},"vehicle_type_id":"4","last_reported":1703329553,"current_range_meters":31200,"station_id":"ce4bhqp2rcd13ifvqhog","pricing_plan_id":"free"},{"bike_id":"035ba96c-8560-4c70-973e-f7eb3e99c40c","system_id":"levelo_inurba_marseille","lat":43.32367,"lon":5.388836,"is_reserved":false,"is_disabled":false,"rental_uris":{"android":"levelo://app?vid=035ba96c-8560-4c70-973e-f7eb3e99c40c","ios":"levelo://app?vid=035ba96c-8560-4c70-973e-f7eb3e99c40c"},"vehicle_type_id":"4","last_reported":1703329553,"current_range_meters":17600,"station_id":"ce4bhqp2rcd13ifvqhog","pricing_plan_id":"free"},{"bike_id":"0e1212ea-e9a3-4624-a8e3-ec1ae1af627d","system_id":"levelo_inurba_marseille","lat":43.29601,"lon":5.381084,"is_reserved":false,"is_disabled":false,"rental_uris":{"android":"levelo://app?vid=0e1212ea-e9a3-4624-a8e3-ec1ae1af627d","ios":"levelo://app?vid=0e1212ea-e9a3-4624-a8e3-ec1ae1af627d"},"vehicle_type_id":"4","last_reported":1703329553,"current_range_meters":26000,"station_id":"ce4bgl12rcd13ifvqbo0","pricing_plan_id":"free"},{"bike_id":"f99f266a-2a3f-4675-ba7d-8660c84633db","system_id":"levelo_inurba_marseille","lat":43.29601,"lon":5.381084,"is_reserved":false,"is_disabled":false,"rental_uris":{"android":"levelo://app?vid=f99f266a-2a3f-4675-ba7d-8660c84633db","ios":"levelo://app?vid=f99f266a-2a3f-4675-ba7d-8660c84633db"},"vehicle_type_id":"4","last_reported":1703329553,"current_range_meters":16400,"station_id":"ce4bgl12rcd13ifvqbo0","pricing_plan_id":"free"},{"bike_id":"8170efc7-73ca-49b4-84e9-bf77adc0dae1","system_id":"levelo_inurba_marseille","lat":43.293259,"lon":5.371586,"is_reserved":false,"is_disabled":false,"rental_uris":{"android":"levelo://app?vid=8170efc7-73ca-49b4-84e9-bf77adc0dae1","ios":"levelo://app?vid=8170efc7-73ca-49b4-84e9-bf77adc0dae1"},"vehicle_type_id":"4","last_reported":1703329553,"current_range_meters":2800,"station_id":"ce4bgh92rcd13ifvqb40","pricing_plan_id":"free"},{"bike_id":"b2e4d778-dadf-49b4-898d-9dc46fd36f2b","system_id":"levelo_inurba_marseille","lat":43.293009,"lon":5.374584,"is_reserved":false,"is_disabled":false,"rental_uris":{"android":"levelo://app?vid=b2e4d778-dadf-49b4-898d-9dc46fd36f2b","ios":"levelo://app?vid=b2e4d778-dadf-49b4-898d-9dc46fd36f2b"},"vehicle_type_id":"4","last_reported":1703329553,"current_range_meters":26400,"station_id":"ce4bgi12rcd13ifvqb70","pricing_plan_id":"free"},{"bike_id":"c6013f76-0a75-4730-887b-567d417437aa","system_id":"levelo_inurba_marseille","lat":43.293009,"lon":5.374584,"is_reserved":false,"is_disabled":false,"rental_uris":{"android":"levelo://app?vid=c6013f76-0a75-4730-887b-567d417437aa","ios":"levelo://app?vid=c6013f76-0a75-4730-887b-567d417437aa"},"vehicle_type_id":"4","last_reported":1703329553,"current_range_meters":24800,"station_id":"ce4bgi12rcd13ifvqb70","pricing_plan_id":"free"},{"bike_id":"f3072830-110c-4664-b83f-26cbdc14cb27","system_id":"levelo_inurba_marseille","lat":43.293009,"lon":5.374584,"is_reserved":false,"is_disabled":false,"rental_uris":{"android":"levelo://app?vid=f3072830-110c-4664-b83f-26cbdc14cb27","ios":"levelo://app?vid=f3072830-110c-4664-b83f-26cbdc14cb27"},"vehicle_type_id":"4","last_reported":1703329553,"current_range_meters":22400,"station_id":"ce4bgi12rcd13ifvqb70","pricing_plan_id":"free"},{"bike_id":"1a546e89-2951-4a80-b2f5-d034f8e51685","system_id":"levelo_inurba_marseille","lat":43.293009,"lon":5.374584,"is_reserved":false,"is_disabled":false,"rental_uris":{"android":"levelo://app?vid=1a546e89-2951-4a80-b2f5-d034f8e51685","ios":"levelo://app?vid=1a546e89-2951-4a80-b2f5-d034f8e51685"},"vehicle_type_id":"4","last_reported":1703329553,"current_range_meters":24400,"station_id":"ce4bgi12rcd13ifvqb70","pricing_plan_id":"free"},{"bike_id":"76c9fbae-8348-4e16-9dad-1270da57532b","system_id":"levelo_inurba_marseille","lat":43.2936,"lon":5.37835,"is_reserved":false,"is_disabled":false,"rental_uris":{"android":"levelo://app?vid=76c9fbae-8348-4e16-9dad-1270da57532b","ios":"levelo://app?vid=76c9fbae-8348-4e16-9dad-1270da57532b"},"vehicle_type_id":"4","last_reported":1703329553,"current_range_meters":29600,"station_id":"ce4bgjh2rcd13ifvqbf0","pricing_plan_id":"free"},{"bike_id":"d43654ba-fdcf-4047-81a0-afb957cb8da6","system_id":"levelo_inurba_marseille","lat":43.2936,"lon":5.37835,"is_reserved":false,"is_disabled":false,"rental_uris":{"android":"levelo://app?vid=d43654ba-fdcf-4047-81a0-afb957cb8da6","ios":"levelo://app?vid=d43654ba-fdcf-4047-81a0-afb957cb8da6"},"vehicle_type_id":"4","last_reported":1703329553,"current_range_meters":14000,"station_id":"ce4bgjh2rcd13ifvqbf0","pricing_plan_id":"free"},{"bike_id":"8cb2c03d-7086-4d8c-af77-f3a07abb484d","system_id":"levelo_inurba_marseille","lat":43.2936,"lon":5.37835,"is_reserved":false,"is_disabled":false,"rental_uris":{"android":"levelo://app?vid=8cb2c03d-7086-4d8c-af77-f3a07abb484d","ios":"levelo://app?vid=8cb2c03d-7086-4d8c-af77-f3a07abb484d"},"vehicle_type_id":"4","last_reported":1703329553,"current_range_meters":24000,"station_id":"ce4bgjh2rcd13ifvqbf0","pricing_plan_id":"free"},{"bike_id":"3ba5e3dd-f6e1-4d8e-889e-28c849db6641","system_id":"levelo_inurba_marseille","lat":43.292311,"lon":5.360731,"is_reserved":false,"is_disabled":false,"rental_uris":{"android":"levelo://app?vid=3ba5e3dd-f6e1-4d8e-889e-28c849db6641","ios":"levelo://app?vid=3ba5e3dd-f6e1-4d8e-889e-28c849db6641"},"vehicle_type_id":"4","last_reported":1703329553,"current_range_meters":14000,"station_id":"ce4bhbh2rcd13ifvqeqg","pricing_plan_id":"free"},{"bike_id":"62b99d4c-3309-4714-99a2-5a124fe1583a","system_id":"levelo_inurba_marseille","lat":43.292311,"lon":5.360731,"is_reserved":false,"is_disabled":false,"rental_uris":{"android":"levelo://app?vid=62b99d4c-3309-4714-99a2-5a124fe1583a","ios":"levelo://app?vid=62b99d4c-3309-4714-99a2-5a124fe1583a"},"vehicle_type_id":"4","last_reported":1703329553,"current_range_meters":23600,"station_id":"ce4bhbh2rcd13ifvqeqg","pricing_plan_id":"free"},{"bike_id":"b5264dd1-8672-4deb-8d08-06b7f9fd3f2e","system_id":"levelo_inurba_marseille","lat":43.292311,"lon":5.360731,"is_reserved":false,"is_disabled":false,"rental_uris":{"android":"levelo://app?vid=b5264dd1-8672-4deb-8d08-06b7f9fd3f2e","ios":"levelo://app?vid=b5264dd1-8672-4deb-8d08-06b7f9fd3f2e"},"vehicle_type_id":"4","last_reported":1703329553,"current_range_meters":30000,"station_id":"ce4bhbh2rcd13ifvqeqg","pricing_plan_id":"free"},{"bike_id":"701a1df8-6a30-4076-ab51-c8a99851ad93","system_id":"levelo_inurba_marseille","lat":43.292611,"lon":5.376135,"is_reserved":false,"is_disabled":false,"rental_uris":{"android":"levelo://app?vid=701a1df8-6a30-4076-ab51-c8a99851ad93","ios":"levelo://app?vid=701a1df8-6a30-4076-ab51-c8a99851ad93"},"vehicle_type_id":"4","last_reported":1703329553,"current_range_meters":25600,"station_id":"","pricing_plan_id":"free"},{"bike_id":"0818411c-a6e8-49da-bfc4-b6bbc31ae607","system_id":"levelo_inurba_marseille","lat":43.291675,"lon":5.371583,"is_reserved":false,"is_disabled":false,"rental_uris":{"android":"levelo://app?vid=0818411c-a6e8-49da-bfc4-b6bbc31ae607","ios":"levelo://app?vid=0818411c-a6e8-49da-bfc4-b6bbc31ae607"},"vehicle_type_id":"4","last_reported":1703329553,"current_range_meters":20400,"station_id":"ce4bha92rcd13ifvqeh0","pricing_plan_id":"free"},{"bike_id":"af131e53-10bf-4ee5-acd3-6a04c6178bda","system_id":"levelo_inurba_marseille","lat":43.291675,"lon":5.371583,"is_reserved":false,"is_disabled":false,"rental_uris":{"android":"levelo://app?vid=af131e53-10bf-4ee5-acd3-6a04c6178bda","ios":"levelo://app?vid=af131e53-10bf-4ee5-acd3-6a04c6178bda"},"vehicle_type_id":"4","last_reported":1703329553,"current_range_meters":28000,"station_id":"ce4bha92rcd13ifvqeh0","pricing_plan_id":"free"},{"bike_id":"a50c0a0b-877f-4b02-93f4-ce9985ed9ac4","system_id":"levelo_inurba_marseille","lat":43.291675,"lon":5.371583,"is_reserved":false,"is_disabled":false,"rental_uris":{"android":"levelo://app?vid=a50c0a0b-877f-4b02-93f4-ce9985ed9ac4","ios":"levelo://app?vid=a50c0a0b-877f-4b02-93f4-ce9985ed9ac4"},"vehicle_type_id":"4","last_reported":1703329553,"current_range_meters":22400,"station_id":"ce4bha92rcd13ifvqeh0","pricing_plan_id":"free"},{"bike_id":"787a319f-9a79-4164-8fbf-55115fc93c14","system_id":"levelo_inurba_marseille","lat":43.292005,"lon":5.357875,"is_reserved":false,"is_disabled":false,"rental_uris":{"android":"levelo://app?vid=787a319f-9a79-4164-8fbf-55115fc93c14","ios":"levelo://app?vid=787a319f-9a79-4164-8fbf-55115fc93c14"},"vehicle_type_id":"4","last_reported":1703329553,"current_range_meters":0,"station_id":"ce4bhb12rcd13ifvqel0","pricing_plan_id":"free"},{"bike_id":"3da71bf4-1769-44d9-b833-9267627d8551","system_id":"levelo_inurba_marseille","lat":43.313291,"lon":5.396838,"is_reserved":false,"is_disabled":false,"rental_uris":{"android":"levelo://app?vid=3da71bf4-1769-44d9-b833-9267627d8551","ios":"levelo://app?vid=3da71bf4-1769-44d9-b833-9267627d8551"},"vehicle_type_id":"4","last_reported":1703329553,"current_range_meters":12800,"station_id":"ce4bgvp2rcd13ifvqcu0","pricing_plan_id":"free"},{"bike_id":"365351fb-9dc0-4763-85db-886ebe3b10db","system_id":"levelo_inurba_marseille","lat":43.313291,"lon":5.396838,"is_reserved":false,"is_disabled":false,"rental_uris":{"android":"levelo://app?vid=365351fb-9dc0-4763-85db-886ebe3b10db","ios":"levelo://app?vid=365351fb-9dc0-4763-85db-886ebe3b10db"},"vehicle_type_id":"4","last_reported":1703329553,"current_range_meters":28400,"station_id":"ce4bgvp2rcd13ifvqcu0","pricing_plan_id":"free"},{"bike_id":"a90b8b83-e596-4fc1-8b62-b201f740b064","system_id":"levelo_inurba_marseille","lat":43.313291,"lon":5.396838,"is_reserved":false,"is_disabled":false,"rental_uris":{"android":"levelo://app?vid=a90b8b83-e596-4fc1-8b62-b201f740b064","ios":"levelo://app?vid=a90b8b83-e596-4fc1-8b62-b201f740b064"},"vehicle_type_id":"4","last_reported":1703329553,"current_range_meters":31600,"station_id":"ce4bgvp2rcd13ifvqcu0","pricing_plan_id":"free"},{"bike_id":"2312980f-d1c9-4641-a302-cc774978dfa8","system_id":"levelo_inurba_marseille","lat":43.313291,"lon":5.396838,"is_reserved":false,"is_disabled":false,"rental_uris":{"android":"levelo://app?vid=2312980f-d1c9-4641-a302-cc774978dfa8","ios":"levelo://app?vid=2312980f-d1c9-4641-a302-cc774978dfa8"},"vehicle_type_id":"4","last_reported":1703329553,"current_range_meters":18800,"station_id":"ce4bgvp2rcd13ifvqcu0","pricing_plan_id":"free"},{"bike_id":"e267db0a-a303-44fc-b1ec-63dd53481dc8","system_id":"levelo_inurba_marseille","lat":43.309038,"lon":5.396546,"is_reserved":false,"is_disabled":false,"rental_uris":{"android":"levelo://app?vid=e267db0a-a303-44fc-b1ec-63dd53481dc8","ios":"levelo://app?vid=e267db0a-a303-44fc-b1ec-63dd53481dc8"},"vehicle_type_id":"4","last_reported":1703329553,"current_range_meters":4400,"station_id":"ce4bh012rcd13ifvqcv0","pricing_plan_id":"free"},{"bike_id":"eceb5307-053e-422d-bbd0-9af032e873b8","system_id":"levelo_inurba_marseille","lat":43.313291,"lon":5.396838,"is_reserved":false,"is_disabled":false,"rental_uris":{"android":"levelo://app?vid=eceb5307-053e-422d-bbd0-9af032e873b8","ios":"levelo://app?vid=eceb5307-053e-422d-bbd0-9af032e873b8"},"vehicle_type_id":"4","last_reported":1703329553,"current_range_meters":30800,"station_id":"ce4bgvp2rcd13ifvqcu0","pricing_plan_id":"free"},{"bike_id":"edb4a151-e3c9-4970-a826-97124415501e","system_id":"levelo_inurba_marseille","lat":43.313291,"lon":5.396838,"is_reserved":false,"is_disabled":false,"rental_uris":{"android":"levelo://app?vid=edb4a151-e3c9-4970-a826-97124415501e","ios":"levelo://app?vid=edb4a151-e3c9-4970-a826-97124415501e"},"vehicle_type_id":"4","last_reported":1703329553,"current_range_meters":28000,"station_id":"ce4bgvp2rcd13ifvqcu0","pricing_plan_id":"free"},{"bike_id":"4fed9454-d87a-4472-b72c-4a4fd43ab54e","system_id":"levelo_inurba_marseille","lat":43.2952,"lon":5.38546,"is_reserved":false,"is_disabled":false,"rental_uris":{"android":"levelo://app?vid=4fed9454-d87a-4472-b72c-4a4fd43ab54e","ios":"levelo://app?vid=4fed9454-d87a-4472-b72c-4a4fd43ab54e"},"vehicle_type_id":"4","last_reported":1703329553,"current_range_meters":0,"station_id":"ce4bgih2rcd13ifvqba0","pricing_plan_id":"free"},{"bike_id":"deba7968-6b7c-4711-ad59-f7cb54744049","system_id":"levelo_inurba_marseille","lat":43.302008,"lon":5.394694,"is_reserved":false,"is_disabled":false,"rental_uris":{"android":"levelo://app?vid=deba7968-6b7c-4711-ad59-f7cb54744049","ios":"levelo://app?vid=deba7968-6b7c-4711-ad59-f7cb54744049"},"vehicle_type_id":"4","last_reported":1703329553,"current_range_meters":29200,"station_id":"ce4bh0p2rcd13ifvqd70","pricing_plan_id":"free"},{"bike_id":"7f92fb3c-b42c-4172-b949-6d4db54a47b5","system_id":"levelo_inurba_marseille","lat":43.294162,"lon":5.386292,"is_reserved":false,"is_disabled":false,"rental_uris":{"android":"levelo://app?vid=7f92fb3c-b42c-4172-b949-6d4db54a47b5","ios":"levelo://app?vid=7f92fb3c-b42c-4172-b949-6d4db54a47b5"},"vehicle_type_id":"4","last_reported":1703329553,"current_range_meters":28400,"station_id":"ce4bh2h2rcd13ifvqdh0","pricing_plan_id":"free"},{"bike_id":"30d5a7e5-9825-4fed-b690-6537c1035526","system_id":"levelo_inurba_marseille","lat":43.289184,"lon":5.366408,"is_reserved":false,"is_disabled":false,"rental_uris":{"android":"levelo://app?vid=30d5a7e5-9825-4fed-b690-6537c1035526","ios":"levelo://app?vid=30d5a7e5-9825-4fed-b690-6537c1035526"},"vehicle_type_id":"4","last_reported":1703329553,"current_range_meters":26800,"station_id":"ce4bhap2rcd13ifvqek0","pricing_plan_id":"free"},{"bike_id":"63a125a4-31f9-41af-b26e-782595fa4dcd","system_id":"levelo_inurba_marseille","lat":43.294162,"lon":5.386292,"is_reserved":false,"is_disabled":false,"rental_uris":{"android":"levelo://app?vid=63a125a4-31f9-41af-b26e-782595fa4dcd","ios":"levelo://app?vid=63a125a4-31f9-41af-b26e-782595fa4dcd"},"vehicle_type_id":"4","last_reported":1703329553,"current_range_meters":0,"station_id":"ce4bh2h2rcd13ifvqdh0","pricing_plan_id":"free"},{"bike_id":"2a268e3d-9838-4937-838e-8fed8fd7b75a","system_id":"levelo_inurba_marseille","lat":43.294162,"lon":5.386292,"is_reserved":false,"is_disabled":false,"rental_uris":{"android":"levelo://app?vid=2a268e3d-9838-4937-838e-8fed8fd7b75a","ios":"levelo://app?vid=2a268e3d-9838-4937-838e-8fed8fd7b75a"},"vehicle_type_id":"4","last_reported":1703329553,"current_range_meters":6800,"station_id":"ce4bh2h2rcd13ifvqdh0","pricing_plan_id":"free"},{"bike_id":"32ada303-d679-46db-a3da-0e28753dd231","system_id":"levelo_inurba_marseille","lat":43.290104,"lon":5.356111,"is_reserved":false,"is_disabled":false,"rental_uris":{"android":"levelo://app?vid=32ada303-d679-46db-a3da-0e28753dd231","ios":"levelo://app?vid=32ada303-d679-46db-a3da-0e28753dd231"},"vehicle_type_id":"4","last_reported":1703329553,"current_range_meters":21600,"station_id":"ce4bhb92rcd13ifvqen0","pricing_plan_id":"free"},{"bike_id":"284bf4ae-094e-45b0-b9b1-fa1c22246eef","system_id":"levelo_inurba_marseille","lat":43.29003,"lon":5.35607,"is_reserved":false,"is_disabled":false,"rental_uris":{"android":"levelo://app?vid=284bf4ae-094e-45b0-b9b1-fa1c22246eef","ios":"levelo://app?vid=284bf4ae-094e-45b0-b9b1-fa1c22246eef"},"vehicle_type_id":"4","last_reported":1703329553,"current_range_meters":31200,"station_id":"ce4bhb92rcd13ifvqen0","pricing_plan_id":"free"},{"bike_id":"2ecbda24-de80-4b7a-8ff1-48fcc758fbe7","system_id":"levelo_inurba_marseille","lat":43.29002,"lon":5.35607,"is_reserved":false,"is_disabled":false,"rental_uris":{"android":"levelo://app?vid=2ecbda24-de80-4b7a-8ff1-48fcc758fbe7","ios":"levelo://app?vid=2ecbda24-de80-4b7a-8ff1-48fcc758fbe7"},"vehicle_type_id":"4","last_reported":1703329553,"current_range_meters":13600,"station_id":"ce4bhb92rcd13ifvqen0","pricing_plan_id":"free"},{"bike_id":"a0f2f6d8-0120-49ca-9299-c8e2dcf45f79","system_id":"levelo_inurba_marseille","lat":43.29,"lon":5.35604,"is_reserved":false,"is_disabled":false,"rental_uris":{"android":"levelo://app?vid=a0f2f6d8-0120-49ca-9299-c8e2dcf45f79","ios":"levelo://app?vid=a0f2f6d8-0120-49ca-9299-c8e2dcf45f79"},"vehicle_type_id":"4","last_reported":1703329553,"current_range_meters":29600,"station_id":"ce4bhb92rcd13ifvqen0","pricing_plan_id":"free"},{"bike_id":"dbaeb314-3366-4f29-82b5-2d4d9353d529","system_id":"levelo_inurba_marseille","lat":43.290995,"lon":5.381361,"is_reserved":false,"is_disabled":false,"rental_uris":{"android":"levelo://app?vid=dbaeb314-3366-4f29-82b5-2d4d9353d529","ios":"levelo://app?vid=dbaeb314-3366-4f29-82b5-2d4d9353d529"},"vehicle_type_id":"4","last_reported":1703329553,"current_range_meters":20000,"station_id":"ce4bh512rcd13ifvqe2g","pricing_plan_id":"free"},{"bike_id":"2348e2c0-5d34-475d-b3d4-01d67c477146","system_id":"levelo_inurba_marseille","lat":43.290995,"lon":5.381361,"is_reserved":false,"is_disabled":false,"rental_uris":{"android":"levelo://app?vid=2348e2c0-5d34-475d-b3d4-01d67c477146","ios":"levelo://app?vid=2348e2c0-5d34-475d-b3d4-01d67c477146"},"vehicle_type_id":"4","last_reported":1703329553,"current_range_meters":18400,"station_id":"ce4bh512rcd13ifvqe2g","pricing_plan_id":"free"},{"bike_id":"b22f4ecb-cb2f-4439-a892-f04f1383d664","system_id":"levelo_inurba_marseille","lat":43.290995,"lon":5.381361,"is_reserved":false,"is_disabled":false,"rental_uris":{"android":"levelo://app?vid=b22f4ecb-cb2f-4439-a892-f04f1383d664","ios":"levelo://app?vid=b22f4ecb-cb2f-4439-a892-f04f1383d664"},"vehicle_type_id":"4","last_reported":1703329553,"current_range_meters":24000,"station_id":"ce4bh512rcd13ifvqe2g","pricing_plan_id":"free"},{"bike_id":"36dafb7f-f8d9-41f4-ad0f-077df91adbb1","system_id":"levelo_inurba_marseille","lat":43.290995,"lon":5.381361,"is_reserved":false,"is_disabled":false,"rental_uris":{"android":"levelo://app?vid=36dafb7f-f8d9-41f4-ad0f-077df91adbb1","ios":"levelo://app?vid=36dafb7f-f8d9-41f4-ad0f-077df91adbb1"},"vehicle_type_id":"4","last_reported":1703329553,"current_range_meters":25600,"station_id":"ce4bh512rcd13ifvqe2g","pricing_plan_id":"free"},{"bike_id":"ff555ebe-6a83-45d7-9cbc-be54a45d3b19","system_id":"levelo_inurba_marseille","lat":43.290995,"lon":5.381361,"is_reserved":false,"is_disabled":false,"rental_uris":{"android":"levelo://app?vid=ff555ebe-6a83-45d7-9cbc-be54a45d3b19","ios":"levelo://app?vid=ff555ebe-6a83-45d7-9cbc-be54a45d3b19"},"vehicle_type_id":"4","last_reported":1703329553,"current_range_meters":18000,"station_id":"ce4bh512rcd13ifvqe2g","pricing_plan_id":"free"},{"bike_id":"9feb2401-b935-485a-bc26-a78aaafc8a00","system_id":"levelo_inurba_marseille","lat":43.290995,"lon":5.381361,"is_reserved":false,"is_disabled":false,"rental_uris":{"android":"levelo://app?vid=9feb2401-b935-485a-bc26-a78aaafc8a00","ios":"levelo://app?vid=9feb2401-b935-485a-bc26-a78aaafc8a00"},"vehicle_type_id":"4","last_reported":1703329553,"current_range_meters":5200,"station_id":"ce4bh512rcd13ifvqe2g","pricing_plan_id":"free"},{"bike_id":"34861c7e-0188-414e-8b56-b6bc78114077","system_id":"levelo_inurba_marseille","lat":43.289741,"lon":5.378306,"is_reserved":false,"is_disabled":false,"rental_uris":{"android":"levelo://app?vid=34861c7e-0188-414e-8b56-b6bc78114077","ios":"levelo://app?vid=34861c7e-0188-414e-8b56-b6bc78114077"},"vehicle_type_id":"4","last_reported":1703329553,"current_range_meters":16400,"station_id":"ce4bh9p2rcd13ifvqed0","pricing_plan_id":"free"},{"bike_id":"1b6bc37e-9374-4167-91ea-0f0c75c3e088","system_id":"levelo_inurba_marseille","lat":43.289741,"lon":5.378306,"is_reserved":false,"is_disabled":false,"rental_uris":{"android":"levelo://app?vid=1b6bc37e-9374-4167-91ea-0f0c75c3e088","ios":"levelo://app?vid=1b6bc37e-9374-4167-91ea-0f0c75c3e088"},"vehicle_type_id":"4","last_reported":1703329553,"current_range_meters":4800,"station_id":"ce4bh9p2rcd13ifvqed0","pricing_plan_id":"free"},{"bike_id":"102051cf-f0aa-4f71-8f49-e56da6d8d699","system_id":"levelo_inurba_marseille","lat":43.296921,"lon":5.376579,"is_reserved":false,"is_disabled":false,"rental_uris":{"android":"levelo://app?vid=102051cf-f0aa-4f71-8f49-e56da6d8d699","ios":"levelo://app?vid=102051cf-f0aa-4f71-8f49-e56da6d8d699"},"vehicle_type_id":"4","last_reported":1703329553,"current_range_meters":27200,"station_id":"ce4bgkh2rcd13ifvqbl0","pricing_plan_id":"free"},{"bike_id":"90242f99-fcff-4dbc-81c8-099fcddd1dd9","system_id":"levelo_inurba_marseille","lat":43.290094,"lon":5.381264,"is_reserved":false,"is_disabled":false,"rental_uris":{"android":"levelo://app?vid=90242f99-fcff-4dbc-81c8-099fcddd1dd9","ios":"levelo://app?vid=90242f99-fcff-4dbc-81c8-099fcddd1dd9"},"vehicle_type_id":"4","last_reported":1703329553,"current_range_meters":26800,"station_id":"ce4bh4p2rcd13ifvqe1g","pricing_plan_id":"free"},{"bike_id":"53e421d9-65d6-44cf-8edd-899c2cf616e6","system_id":"levelo_inurba_marseille","lat":43.312609,"lon":5.401662,"is_reserved":false,"is_disabled":false,"rental_uris":{"android":"levelo://app?vid=53e421d9-65d6-44cf-8edd-899c2cf616e6","ios":"levelo://app?vid=53e421d9-65d6-44cf-8edd-899c2cf616e6"},"vehicle_type_id":"4","last_reported":1703329553,"current_range_meters":19200,"station_id":"ce4bh092rcd13ifvqd30","pricing_plan_id":"free"},{"bike_id":"711a9a4f-c903-41de-ab40-c6a4c8c4d60c","system_id":"levelo_inurba_marseille","lat":43.312609,"lon":5.401662,"is_reserved":false,"is_disabled":false,"rental_uris":{"android":"levelo://app?vid=711a9a4f-c903-41de-ab40-c6a4c8c4d60c","ios":"levelo://app?vid=711a9a4f-c903-41de-ab40-c6a4c8c4d60c"},"vehicle_type_id":"4","last_reported":1703329553,"current_range_meters":26000,"station_id":"ce4bh092rcd13ifvqd30","pricing_plan_id":"free"},{"bike_id":"56d84a31-2ece-444c-a96f-ec97acb74630","system_id":"levelo_inurba_marseille","lat":43.306412,"lon":5.401035,"is_reserved":false,"is_disabled":false,"rental_uris":{"android":"levelo://app?vid=56d84a31-2ece-444c-a96f-ec97acb74630","ios":"levelo://app?vid=56d84a31-2ece-444c-a96f-ec97acb74630"},"vehicle_type_id":"4","last_reported":1703329553,"current_range_meters":28000,"station_id":"ce4bh112rcd13ifvqda0","pricing_plan_id":"free"},{"bike_id":"49d1e20a-1ea0-4ee8-a295-678d0a82f7f6","system_id":"levelo_inurba_marseille","lat":43.301117,"lon":5.398795,"is_reserved":false,"is_disabled":false,"rental_uris":{"android":"levelo://app?vid=49d1e20a-1ea0-4ee8-a295-678d0a82f7f6","ios":"levelo://app?vid=49d1e20a-1ea0-4ee8-a295-678d0a82f7f6"},"vehicle_type_id":"4","last_reported":1703329553,"current_range_meters":23200,"station_id":"ce4bh0h2rcd13ifvqd40","pricing_plan_id":"free"},{"bike_id":"cdde513f-02e0-43d3-ab6f-f46efc4bc806","system_id":"levelo_inurba_marseille","lat":43.301117,"lon":5.398795,"is_reserved":false,"is_disabled":false,"rental_uris":{"android":"levelo://app?vid=cdde513f-02e0-43d3-ab6f-f46efc4bc806","ios":"levelo://app?vid=cdde513f-02e0-43d3-ab6f-f46efc4bc806"},"vehicle_type_id":"4","last_reported":1703329553,"current_range_meters":27600,"station_id":"ce4bh0h2rcd13ifvqd40","pricing_plan_id":"free"},{"bike_id":"0ccdea83-a06d-482f-bcb8-59d68eb7600a","system_id":"levelo_inurba_marseille","lat":43.28727,"lon":5.36078,"is_reserved":false,"is_disabled":false,"rental_uris":{"android":"levelo://app?vid=0ccdea83-a06d-482f-bcb8-59d68eb7600a","ios":"levelo://app?vid=0ccdea83-a06d-482f-bcb8-59d68eb7600a"},"vehicle_type_id":"4","last_reported":1703329553,"current_range_meters":27200,"station_id":"cki0cbj6b192h4jlfktg","pricing_plan_id":"free"},{"bike_id":"b269c749-19b3-457a-9f11-021ccc443c55","system_id":"levelo_inurba_marseille","lat":43.286039,"lon":5.370679,"is_reserved":false,"is_disabled":false,"rental_uris":{"android":"levelo://app?vid=b269c749-19b3-457a-9f11-021ccc443c55","ios":"levelo://app?vid=b269c749-19b3-457a-9f11-021ccc443c55"},"vehicle_type_id":"4","last_reported":1703329553,"current_range_meters":16000,"station_id":"ce4bht12rcd13ifvqi60","pricing_plan_id":"free"},{"bike_id":"131cc08d-d375-40f4-a928-75f8b6843ec9","system_id":"levelo_inurba_marseille","lat":43.316828,"lon":5.404723,"is_reserved":false,"is_disabled":false,"rental_uris":{"android":"levelo://app?vid=131cc08d-d375-40f4-a928-75f8b6843ec9","ios":"levelo://app?vid=131cc08d-d375-40f4-a928-75f8b6843ec9"},"vehicle_type_id":"4","last_reported":1703329553,"current_range_meters":20400,"station_id":"ce4bh012rcd13ifvqd00","pricing_plan_id":"free"},{"bike_id":"e2adfa7c-882e-48a1-9ee4-b36e6186ebbf","system_id":"levelo_inurba_marseille","lat":43.330912,"lon":5.396935,"is_reserved":false,"is_disabled":false,"rental_uris":{"android":"levelo://app?vid=e2adfa7c-882e-48a1-9ee4-b36e6186ebbf","ios":"levelo://app?vid=e2adfa7c-882e-48a1-9ee4-b36e6186ebbf"},"vehicle_type_id":"4","last_reported":1703329553,"current_range_meters":14800,"station_id":"","pricing_plan_id":"free"},{"bike_id":"8474e580-85cb-4c9f-a378-9a779ed286af","system_id":"levelo_inurba_marseille","lat":43.284538,"lon":5.358657,"is_reserved":false,"is_disabled":false,"rental_uris":{"android":"levelo://app?vid=8474e580-85cb-4c9f-a378-9a779ed286af","ios":"levelo://app?vid=8474e580-85cb-4c9f-a378-9a779ed286af"},"vehicle_type_id":"4","last_reported":1703329553,"current_range_meters":10000,"station_id":"ce4bhah2rcd13ifvqei0","pricing_plan_id":"free"},{"bike_id":"c4a57cfa-f798-4c02-baac-dd5add18a925","system_id":"levelo_inurba_marseille","lat":43.28619,"lon":5.35106,"is_reserved":false,"is_disabled":false,"rental_uris":{"android":"levelo://app?vid=c4a57cfa-f798-4c02-baac-dd5add18a925","ios":"levelo://app?vid=c4a57cfa-f798-4c02-baac-dd5add18a925"},"vehicle_type_id":"4","last_reported":1703329553,"current_range_meters":22000,"station_id":"ce4bhch2rcd13ifvqeug","pricing_plan_id":"free"},{"bike_id":"9c69ac99-0fe9-466a-9e58-8e3ece8f9bb6","system_id":"levelo_inurba_marseille","lat":43.28616,"lon":5.351,"is_reserved":false,"is_disabled":false,"rental_uris":{"android":"levelo://app?vid=9c69ac99-0fe9-466a-9e58-8e3ece8f9bb6","ios":"levelo://app?vid=9c69ac99-0fe9-466a-9e58-8e3ece8f9bb6"},"vehicle_type_id":"4","last_reported":1703329553,"current_range_meters":1600,"station_id":"ce4bhch2rcd13ifvqeug","pricing_plan_id":"free"},{"bike_id":"76436a62-5c11-4ed5-b875-75e6f5c45c82","system_id":"levelo_inurba_marseille","lat":43.285856,"lon":5.350771,"is_reserved":false,"is_disabled":false,"rental_uris":{"android":"levelo://app?vid=76436a62-5c11-4ed5-b875-75e6f5c45c82","ios":"levelo://app?vid=76436a62-5c11-4ed5-b875-75e6f5c45c82"},"vehicle_type_id":"4","last_reported":1703329553,"current_range_meters":31200,"station_id":"ce4bhch2rcd13ifvqeug","pricing_plan_id":"free"},{"bike_id":"433e21c8-76a3-4ce3-990b-2c062c5f6f82","system_id":"levelo_inurba_marseille","lat":43.285856,"lon":5.350771,"is_reserved":false,"is_disabled":false,"rental_uris":{"android":"levelo://app?vid=433e21c8-76a3-4ce3-990b-2c062c5f6f82","ios":"levelo://app?vid=433e21c8-76a3-4ce3-990b-2c062c5f6f82"},"vehicle_type_id":"4","last_reported":1703329553,"current_range_meters":15600,"station_id":"ce4bhch2rcd13ifvqeug","pricing_plan_id":"free"},{"bike_id":"72bf984a-0eb8-43b1-bdd4-6d90f5941f7a","system_id":"levelo_inurba_marseille","lat":43.285856,"lon":5.350771,"is_reserved":false,"is_disabled":false,"rental_uris":{"android":"levelo://app?vid=72bf984a-0eb8-43b1-bdd4-6d90f5941f7a","ios":"levelo://app?vid=72bf984a-0eb8-43b1-bdd4-6d90f5941f7a"},"vehicle_type_id":"4","last_reported":1703329553,"current_range_meters":14400,"station_id":"ce4bhch2rcd13ifvqeug","pricing_plan_id":"free"},{"bike_id":"b3c9e51b-c80f-4974-900b-692321f1358b","system_id":"levelo_inurba_marseille","lat":43.283998,"lon":5.375062,"is_reserved":false,"is_disabled":false,"rental_uris":{"android":"levelo://app?vid=b3c9e51b-c80f-4974-900b-692321f1358b","ios":"levelo://app?vid=b3c9e51b-c80f-4974-900b-692321f1358b"},"vehicle_type_id":"4","last_reported":1703329553,"current_range_meters":4000,"station_id":"ce4bh412rcd13ifvqds0","pricing_plan_id":"free"},{"bike_id":"57d46ea1-ed72-4d0d-8451-e1605f99fb53","system_id":"levelo_inurba_marseille","lat":43.283998,"lon":5.375062,"is_reserved":false,"is_disabled":false,"rental_uris":{"android":"levelo://app?vid=57d46ea1-ed72-4d0d-8451-e1605f99fb53","ios":"levelo://app?vid=57d46ea1-ed72-4d0d-8451-e1605f99fb53"},"vehicle_type_id":"4","last_reported":1703329553,"current_range_meters":16000,"station_id":"ce4bh412rcd13ifvqds0","pricing_plan_id":"free"},{"bike_id":"3b7e3ec0-988e-4aeb-bcf3-3017c628b5d3","system_id":"levelo_inurba_marseille","lat":43.33717,"lon":5.391857,"is_reserved":false,"is_disabled":false,"rental_uris":{"android":"levelo://app?vid=3b7e3ec0-988e-4aeb-bcf3-3017c628b5d3","ios":"levelo://app?vid=3b7e3ec0-988e-4aeb-bcf3-3017c628b5d3"},"vehicle_type_id":"4","last_reported":1703329553,"current_range_meters":29600,"station_id":"ce4bhr92rcd13ifvqhsg","pricing_plan_id":"free"},{"bike_id":"b7c71217-6fce-490c-9bd4-073ff8143718","system_id":"levelo_inurba_marseille","lat":43.33717,"lon":5.391857,"is_reserved":false,"is_disabled":false,"rental_uris":{"android":"levelo://app?vid=b7c71217-6fce-490c-9bd4-073ff8143718","ios":"levelo://app?vid=b7c71217-6fce-490c-9bd4-073ff8143718"},"vehicle_type_id":"4","last_reported":1703329553,"current_range_meters":31200,"station_id":"ce4bhr92rcd13ifvqhsg","pricing_plan_id":"free"},{"bike_id":"4d98e2ae-e5d4-4594-8667-b94b0bb77857","system_id":"levelo_inurba_marseille","lat":43.323464,"lon":5.406297,"is_reserved":false,"is_disabled":false,"rental_uris":{"android":"levelo://app?vid=4d98e2ae-e5d4-4594-8667-b94b0bb77857","ios":"levelo://app?vid=4d98e2ae-e5d4-4594-8667-b94b0bb77857"},"vehicle_type_id":"4","last_reported":1703329553,"current_range_meters":29200,"station_id":"ce4bhq92rcd13ifvqhjg","pricing_plan_id":"free"},{"bike_id":"233eb238-e400-46e7-9601-45e4ec2edf9e","system_id":"levelo_inurba_marseille","lat":43.337168,"lon":5.391825,"is_reserved":false,"is_disabled":false,"rental_uris":{"android":"levelo://app?vid=233eb238-e400-46e7-9601-45e4ec2edf9e","ios":"levelo://app?vid=233eb238-e400-46e7-9601-45e4ec2edf9e"},"vehicle_type_id":"4","last_reported":1703329553,"current_range_meters":26000,"station_id":"ce4bhr92rcd13ifvqhsg","pricing_plan_id":"free"},{"bike_id":"935eef84-62fa-4a94-af78-66abdf00e1cc","system_id":"levelo_inurba_marseille","lat":43.284787,"lon":5.384116,"is_reserved":false,"is_disabled":false,"rental_uris":{"android":"levelo://app?vid=935eef84-62fa-4a94-af78-66abdf00e1cc","ios":"levelo://app?vid=935eef84-62fa-4a94-af78-66abdf00e1cc"},"vehicle_type_id":"4","last_reported":1703329553,"current_range_meters":4800,"station_id":"ce4bh512rcd13ifvqe3g","pricing_plan_id":"free"},{"bike_id":"1feb9691-f0ef-4c84-bf23-29b9431fe361","system_id":"levelo_inurba_marseille","lat":43.284787,"lon":5.384116,"is_reserved":false,"is_disabled":false,"rental_uris":{"android":"levelo://app?vid=1feb9691-f0ef-4c84-bf23-29b9431fe361","ios":"levelo://app?vid=1feb9691-f0ef-4c84-bf23-29b9431fe361"},"vehicle_type_id":"4","last_reported":1703329553,"current_range_meters":11600,"station_id":"ce4bh512rcd13ifvqe3g","pricing_plan_id":"free"},{"bike_id":"69032901-fed5-40e7-ac74-96cef6359164","system_id":"levelo_inurba_marseille","lat":43.288609,"lon":5.393194,"is_reserved":false,"is_disabled":false,"rental_uris":{"android":"levelo://app?vid=69032901-fed5-40e7-ac74-96cef6359164","ios":"levelo://app?vid=69032901-fed5-40e7-ac74-96cef6359164"},"vehicle_type_id":"4","last_reported":1703329553,"current_range_meters":18000,"station_id":"ce4bh2p2rcd13ifvqdi0","pricing_plan_id":"free"},{"bike_id":"fd6583fe-bfb4-4eec-9c48-29450c69b4e5","system_id":"levelo_inurba_marseille","lat":43.283494,"lon":5.380945,"is_reserved":false,"is_disabled":false,"rental_uris":{"android":"levelo://app?vid=fd6583fe-bfb4-4eec-9c48-29450c69b4e5","ios":"levelo://app?vid=fd6583fe-bfb4-4eec-9c48-29450c69b4e5"},"vehicle_type_id":"4","last_reported":1703329553,"current_range_meters":22400,"station_id":"ce4bh412rcd13ifvqdr0","pricing_plan_id":"free"},{"bike_id":"b02feee7-8174-41b3-95be-62f87df2ecbb","system_id":"levelo_inurba_marseille","lat":43.283494,"lon":5.380945,"is_reserved":false,"is_disabled":false,"rental_uris":{"android":"levelo://app?vid=b02feee7-8174-41b3-95be-62f87df2ecbb","ios":"levelo://app?vid=b02feee7-8174-41b3-95be-62f87df2ecbb"},"vehicle_type_id":"4","last_reported":1703329553,"current_range_meters":31600,"station_id":"ce4bh412rcd13ifvqdr0","pricing_plan_id":"free"},{"bike_id":"19962916-146c-48bc-866d-c816596bb144","system_id":"levelo_inurba_marseille","lat":43.284219,"lon":5.3497,"is_reserved":false,"is_disabled":false,"rental_uris":{"android":"levelo://app?vid=19962916-146c-48bc-866d-c816596bb144","ios":"levelo://app?vid=19962916-146c-48bc-866d-c816596bb144"},"vehicle_type_id":"4","last_reported":1703329553,"current_range_meters":27200,"station_id":"ce4bhbh2rcd13ifvqepg","pricing_plan_id":"free"},{"bike_id":"f7221d28-17c7-4baf-8dd5-0e34793fe8b2","system_id":"levelo_inurba_marseille","lat":43.284217,"lon":5.349697,"is_reserved":false,"is_disabled":false,"rental_uris":{"android":"levelo://app?vid=f7221d28-17c7-4baf-8dd5-0e34793fe8b2","ios":"levelo://app?vid=f7221d28-17c7-4baf-8dd5-0e34793fe8b2"},"vehicle_type_id":"4","last_reported":1703329553,"current_range_meters":25200,"station_id":"ce4bhbh2rcd13ifvqepg","pricing_plan_id":"free"},{"bike_id":"35ada7ff-c2c2-4b3e-b290-ab5f0eb84437","system_id":"levelo_inurba_marseille","lat":43.283502,"lon":5.386471,"is_reserved":false,"is_disabled":false,"rental_uris":{"android":"levelo://app?vid=35ada7ff-c2c2-4b3e-b290-ab5f0eb84437","ios":"levelo://app?vid=35ada7ff-c2c2-4b3e-b290-ab5f0eb84437"},"vehicle_type_id":"4","last_reported":1703329553,"current_range_meters":13200,"station_id":"ce4bh492rcd13ifvqdvg","pricing_plan_id":"free"},{"bike_id":"cde4ba6a-ead4-4ab8-83fa-bb2d501f5241","system_id":"levelo_inurba_marseille","lat":43.282754,"lon":5.350519,"is_reserved":false,"is_disabled":false,"rental_uris":{"android":"levelo://app?vid=cde4ba6a-ead4-4ab8-83fa-bb2d501f5241","ios":"levelo://app?vid=cde4ba6a-ead4-4ab8-83fa-bb2d501f5241"},"vehicle_type_id":"4","last_reported":1703329553,"current_range_meters":27600,"station_id":"ce4bhbp2rcd13ifvqerg","pricing_plan_id":"free"},{"bike_id":"9ffafec3-6611-4556-9571-530e1d819b18","system_id":"levelo_inurba_marseille","lat":43.280382,"lon":5.369291,"is_reserved":false,"is_disabled":false,"rental_uris":{"android":"levelo://app?vid=9ffafec3-6611-4556-9571-530e1d819b18","ios":"levelo://app?vid=9ffafec3-6611-4556-9571-530e1d819b18"},"vehicle_type_id":"4","last_reported":1703329553,"current_range_meters":14800,"station_id":"ce4bha12rcd13ifvqef0","pricing_plan_id":"free"},{"bike_id":"2024a61b-7173-4785-8359-84679011d211","system_id":"levelo_inurba_marseille","lat":43.280382,"lon":5.369291,"is_reserved":false,"is_disabled":false,"rental_uris":{"android":"levelo://app?vid=2024a61b-7173-4785-8359-84679011d211","ios":"levelo://app?vid=2024a61b-7173-4785-8359-84679011d211"},"vehicle_type_id":"4","last_reported":1703329553,"current_range_meters":31200,"station_id":"ce4bha12rcd13ifvqef0","pricing_plan_id":"free"},{"bike_id":"70ad0df2-8ecd-4238-9f1a-48f277387692","system_id":"levelo_inurba_marseille","lat":43.290412,"lon":5.399633,"is_reserved":false,"is_disabled":false,"rental_uris":{"android":"levelo://app?vid=70ad0df2-8ecd-4238-9f1a-48f277387692","ios":"levelo://app?vid=70ad0df2-8ecd-4238-9f1a-48f277387692"},"vehicle_type_id":"4","last_reported":1703329553,"current_range_meters":29200,"station_id":"ce4bh392rcd13ifvqdm0","pricing_plan_id":"free"},{"bike_id":"ba3fb1ae-ee39-4438-8e89-9496e07b4841","system_id":"levelo_inurba_marseille","lat":43.296263,"lon":5.40601,"is_reserved":false,"is_disabled":false,"rental_uris":{"android":"levelo://app?vid=ba3fb1ae-ee39-4438-8e89-9496e07b4841","ios":"levelo://app?vid=ba3fb1ae-ee39-4438-8e89-9496e07b4841"},"vehicle_type_id":"4","last_reported":1703329553,"current_range_meters":24000,"station_id":"ce4bh0h2rcd13ifvqd60","pricing_plan_id":"free"},{"bike_id":"101cbdb1-4515-42ba-9152-4025dc3da03a","system_id":"levelo_inurba_marseille","lat":43.284462,"lon":5.392121,"is_reserved":false,"is_disabled":false,"rental_uris":{"android":"levelo://app?vid=101cbdb1-4515-42ba-9152-4025dc3da03a","ios":"levelo://app?vid=101cbdb1-4515-42ba-9152-4025dc3da03a"},"vehicle_type_id":"4","last_reported":1703329553,"current_range_meters":28000,"station_id":"ce4bhoh2rcd13ifvqh5g","pricing_plan_id":"free"},{"bike_id":"8ecf2c52-afc0-45b7-b92e-0b9a18218abb","system_id":"levelo_inurba_marseille","lat":43.285742,"lon":5.395004,"is_reserved":false,"is_disabled":false,"rental_uris":{"android":"levelo://app?vid=8ecf2c52-afc0-45b7-b92e-0b9a18218abb","ios":"levelo://app?vid=8ecf2c52-afc0-45b7-b92e-0b9a18218abb"},"vehicle_type_id":"4","last_reported":1703329553,"current_range_meters":26000,"station_id":"ce4bh292rcd13ifvqdg0","pricing_plan_id":"free"},{"bike_id":"2dce41b4-f1e9-4565-979b-d206af37124f","system_id":"levelo_inurba_marseille","lat":43.32657,"lon":5.40941,"is_reserved":false,"is_disabled":false,"rental_uris":{"android":"levelo://app?vid=2dce41b4-f1e9-4565-979b-d206af37124f","ios":"levelo://app?vid=2dce41b4-f1e9-4565-979b-d206af37124f"},"vehicle_type_id":"4","last_reported":1703329553,"current_range_meters":31200,"station_id":"ce4bhpp2rcd13ifvqhgg","pricing_plan_id":"free"},{"bike_id":"921b424d-ad0d-4c7a-9d74-66e3a49bfa19","system_id":"levelo_inurba_marseille","lat":43.32655,"lon":5.40944,"is_reserved":false,"is_disabled":false,"rental_uris":{"android":"levelo://app?vid=921b424d-ad0d-4c7a-9d74-66e3a49bfa19","ios":"levelo://app?vid=921b424d-ad0d-4c7a-9d74-66e3a49bfa19"},"vehicle_type_id":"4","last_reported":1703329553,"current_range_meters":30400,"station_id":"ce4bhpp2rcd13ifvqhgg","pricing_plan_id":"free"},{"bike_id":"8f78cfe8-ffab-418a-bf98-6c86b3f878cd","system_id":"levelo_inurba_marseille","lat":43.304188,"lon":5.412904,"is_reserved":false,"is_disabled":false,"rental_uris":{"android":"levelo://app?vid=8f78cfe8-ffab-418a-bf98-6c86b3f878cd","ios":"levelo://app?vid=8f78cfe8-ffab-418a-bf98-6c86b3f878cd"},"vehicle_type_id":"4","last_reported":1703329553,"current_range_meters":12800,"station_id":"ce4bhop2rcd13ifvqh8g","pricing_plan_id":"free"},{"bike_id":"b2549058-3c4a-44aa-bf4a-8a90d4ff0a9e","system_id":"levelo_inurba_marseille","lat":43.304188,"lon":5.412904,"is_reserved":false,"is_disabled":false,"rental_uris":{"android":"levelo://app?vid=b2549058-3c4a-44aa-bf4a-8a90d4ff0a9e","ios":"levelo://app?vid=b2549058-3c4a-44aa-bf4a-8a90d4ff0a9e"},"vehicle_type_id":"4","last_reported":1703329553,"current_range_meters":30800,"station_id":"ce4bhop2rcd13ifvqh8g","pricing_plan_id":"free"},{"bike_id":"fe87567e-3071-4b55-9307-935431684157","system_id":"levelo_inurba_marseille","lat":43.304188,"lon":5.412904,"is_reserved":false,"is_disabled":false,"rental_uris":{"android":"levelo://app?vid=fe87567e-3071-4b55-9307-935431684157","ios":"levelo://app?vid=fe87567e-3071-4b55-9307-935431684157"},"vehicle_type_id":"4","last_reported":1703329553,"current_range_meters":30000,"station_id":"ce4bhop2rcd13ifvqh8g","pricing_plan_id":"free"},{"bike_id":"2994219f-f282-434d-a4a5-dcac2f9151e5","system_id":"levelo_inurba_marseille","lat":43.304188,"lon":5.412904,"is_reserved":false,"is_disabled":false,"rental_uris":{"android":"levelo://app?vid=2994219f-f282-434d-a4a5-dcac2f9151e5","ios":"levelo://app?vid=2994219f-f282-434d-a4a5-dcac2f9151e5"},"vehicle_type_id":"4","last_reported":1703329553,"current_range_meters":18400,"station_id":"ce4bhop2rcd13ifvqh8g","pricing_plan_id":"free"},{"bike_id":"793c6ef3-a566-40ae-baa7-b29d71419daf","system_id":"levelo_inurba_marseille","lat":43.287154,"lon":5.399979,"is_reserved":false,"is_disabled":false,"rental_uris":{"android":"levelo://app?vid=793c6ef3-a566-40ae-baa7-b29d71419daf","ios":"levelo://app?vid=793c6ef3-a566-40ae-baa7-b29d71419daf"},"vehicle_type_id":"4","last_reported":1703329553,"current_range_meters":0,"station_id":"ce4bho92rcd13ifvqh3g","pricing_plan_id":"free"},{"bike_id":"eac5b61a-3740-411a-b8ea-9da715a63fc5","system_id":"levelo_inurba_marseille","lat":43.287154,"lon":5.399979,"is_reserved":false,"is_disabled":false,"rental_uris":{"android":"levelo://app?vid=eac5b61a-3740-411a-b8ea-9da715a63fc5","ios":"levelo://app?vid=eac5b61a-3740-411a-b8ea-9da715a63fc5"},"vehicle_type_id":"4","last_reported":1703329553,"current_range_meters":14000,"station_id":"ce4bho92rcd13ifvqh3g","pricing_plan_id":"free"},{"bike_id":"7448c4f5-0d8f-4768-b763-52184f30c053","system_id":"levelo_inurba_marseille","lat":43.299579,"lon":5.413255,"is_reserved":false,"is_disabled":false,"rental_uris":{"android":"levelo://app?vid=7448c4f5-0d8f-4768-b763-52184f30c053","ios":"levelo://app?vid=7448c4f5-0d8f-4768-b763-52184f30c053"},"vehicle_type_id":"4","last_reported":1703329553,"current_range_meters":27200,"station_id":"ce4bhp12rcd13ifvqh9g","pricing_plan_id":"free"},{"bike_id":"48279459-055f-4ba5-908d-239be802e3b5","system_id":"levelo_inurba_marseille","lat":43.299577,"lon":5.413277,"is_reserved":false,"is_disabled":false,"rental_uris":{"android":"levelo://app?vid=48279459-055f-4ba5-908d-239be802e3b5","ios":"levelo://app?vid=48279459-055f-4ba5-908d-239be802e3b5"},"vehicle_type_id":"4","last_reported":1703329553,"current_range_meters":30000,"station_id":"ce4bhp12rcd13ifvqh9g","pricing_plan_id":"free"},{"bike_id":"39aacaa1-8361-4b2a-bfa1-8c6dd49daa90","system_id":"levelo_inurba_marseille","lat":43.279742,"lon":5.38744,"is_reserved":false,"is_disabled":false,"rental_uris":{"android":"levelo://app?vid=39aacaa1-8361-4b2a-bfa1-8c6dd49daa90","ios":"levelo://app?vid=39aacaa1-8361-4b2a-bfa1-8c6dd49daa90"},"vehicle_type_id":"4","last_reported":1703329553,"current_range_meters":2400,"station_id":"ce4bhg12rcd13ifvqf80","pricing_plan_id":"free"},{"bike_id":"fad3c03f-0b26-4f6c-ab1b-6e3d5e8efcae","system_id":"levelo_inurba_marseille","lat":43.279742,"lon":5.38744,"is_reserved":false,"is_disabled":false,"rental_uris":{"android":"levelo://app?vid=fad3c03f-0b26-4f6c-ab1b-6e3d5e8efcae","ios":"levelo://app?vid=fad3c03f-0b26-4f6c-ab1b-6e3d5e8efcae"},"vehicle_type_id":"4","last_reported":1703329553,"current_range_meters":30800,"station_id":"ce4bhg12rcd13ifvqf80","pricing_plan_id":"free"},{"bike_id":"46244ac6-670c-4c74-aa00-44e5ba4c1d4b","system_id":"levelo_inurba_marseille","lat":43.292571,"lon":5.409107,"is_reserved":false,"is_disabled":false,"rental_uris":{"android":"levelo://app?vid=46244ac6-670c-4c74-aa00-44e5ba4c1d4b","ios":"levelo://app?vid=46244ac6-670c-4c74-aa00-44e5ba4c1d4b"},"vehicle_type_id":"4","last_reported":1703329553,"current_range_meters":30400,"station_id":"ce4bh192rcd13ifvqdc0","pricing_plan_id":"free"},{"bike_id":"10122d25-aa99-48ef-b368-dd156589dbf6","system_id":"levelo_inurba_marseille","lat":43.292569,"lon":5.409107,"is_reserved":false,"is_disabled":false,"rental_uris":{"android":"levelo://app?vid=10122d25-aa99-48ef-b368-dd156589dbf6","ios":"levelo://app?vid=10122d25-aa99-48ef-b368-dd156589dbf6"},"vehicle_type_id":"4","last_reported":1703329553,"current_range_meters":11200,"station_id":"ce4bh192rcd13ifvqdc0","pricing_plan_id":"free"},{"bike_id":"bd00b1d9-2407-47f2-8a62-5e5e1be65f8e","system_id":"levelo_inurba_marseille","lat":43.325233,"lon":5.414318,"is_reserved":false,"is_disabled":false,"rental_uris":{"android":"levelo://app?vid=bd00b1d9-2407-47f2-8a62-5e5e1be65f8e","ios":"levelo://app?vid=bd00b1d9-2407-47f2-8a62-5e5e1be65f8e"},"vehicle_type_id":"4","last_reported":1703329553,"current_range_meters":18800,"station_id":"ce4bhq12rcd13ifvqhhg","pricing_plan_id":"free"},{"bike_id":"f4beaea7-abd6-46e8-a470-d6091fb9db1a","system_id":"levelo_inurba_marseille","lat":43.292569,"lon":5.409107,"is_reserved":false,"is_disabled":false,"rental_uris":{"android":"levelo://app?vid=f4beaea7-abd6-46e8-a470-d6091fb9db1a","ios":"levelo://app?vid=f4beaea7-abd6-46e8-a470-d6091fb9db1a"},"vehicle_type_id":"4","last_reported":1703329553,"current_range_meters":19200,"station_id":"ce4bh192rcd13ifvqdc0","pricing_plan_id":"free"},{"bike_id":"0bc55e99-77b8-416c-916d-b3eaac1708e2","system_id":"levelo_inurba_marseille","lat":43.280784,"lon":5.396622,"is_reserved":false,"is_disabled":false,"rental_uris":{"android":"levelo://app?vid=0bc55e99-77b8-416c-916d-b3eaac1708e2","ios":"levelo://app?vid=0bc55e99-77b8-416c-916d-b3eaac1708e2"},"vehicle_type_id":"4","last_reported":1703329553,"current_range_meters":26400,"station_id":"ce4bho12rcd13ifvqh2g","pricing_plan_id":"free"},{"bike_id":"93bfab9c-e028-499d-81c2-9238ac1d0f98","system_id":"levelo_inurba_marseille","lat":43.303837,"lon":5.418724,"is_reserved":false,"is_disabled":false,"rental_uris":{"android":"levelo://app?vid=93bfab9c-e028-499d-81c2-9238ac1d0f98","ios":"levelo://app?vid=93bfab9c-e028-499d-81c2-9238ac1d0f98"},"vehicle_type_id":"4","last_reported":1703329553,"current_range_meters":26800,"station_id":"ce4bhop2rcd13ifvqh7g","pricing_plan_id":"free"},{"bike_id":"23a321f9-7f65-470f-9fce-32e9345de5d0","system_id":"levelo_inurba_marseille","lat":43.27831,"lon":5.39208,"is_reserved":false,"is_disabled":false,"rental_uris":{"android":"levelo://app?vid=23a321f9-7f65-470f-9fce-32e9345de5d0","ios":"levelo://app?vid=23a321f9-7f65-470f-9fce-32e9345de5d0"},"vehicle_type_id":"4","last_reported":1703329553,"current_range_meters":0,"station_id":"ce4bhjp2rcd13ifvqga0","pricing_plan_id":"free"},{"bike_id":"48cb72d6-5769-46dd-a4f2-54dfd0bfb283","system_id":"levelo_inurba_marseille","lat":43.27371,"lon":5.36256,"is_reserved":false,"is_disabled":false,"rental_uris":{"android":"levelo://app?vid=48cb72d6-5769-46dd-a4f2-54dfd0bfb283","ios":"levelo://app?vid=48cb72d6-5769-46dd-a4f2-54dfd0bfb283"},"vehicle_type_id":"4","last_reported":1703329553,"current_range_meters":30400,"station_id":"ce4bhbh2rcd13ifvqeo0","pricing_plan_id":"free"},{"bike_id":"c6ebeb5d-01e9-4eb0-a091-e416a5d04898","system_id":"levelo_inurba_marseille","lat":43.336134,"lon":5.410341,"is_reserved":false,"is_disabled":false,"rental_uris":{"android":"levelo://app?vid=c6ebeb5d-01e9-4eb0-a091-e416a5d04898","ios":"levelo://app?vid=c6ebeb5d-01e9-4eb0-a091-e416a5d04898"},"vehicle_type_id":"4","last_reported":1703329553,"current_range_meters":30400,"station_id":"ce4bhqh2rcd13ifvqhmg","pricing_plan_id":"free"},{"bike_id":"e09a6d18-e62b-45bc-ba72-f8db6df2fcf5","system_id":"levelo_inurba_marseille","lat":43.273609,"lon":5.362708,"is_reserved":false,"is_disabled":false,"rental_uris":{"android":"levelo://app?vid=e09a6d18-e62b-45bc-ba72-f8db6df2fcf5","ios":"levelo://app?vid=e09a6d18-e62b-45bc-ba72-f8db6df2fcf5"},"vehicle_type_id":"4","last_reported":1703329553,"current_range_meters":31200,"station_id":"ce4bhbh2rcd13ifvqeo0","pricing_plan_id":"free"},{"bike_id":"f087a095-3da5-44bf-8d38-197e0d4335f2","system_id":"levelo_inurba_marseille","lat":43.336134,"lon":5.410341,"is_reserved":false,"is_disabled":false,"rental_uris":{"android":"levelo://app?vid=f087a095-3da5-44bf-8d38-197e0d4335f2","ios":"levelo://app?vid=f087a095-3da5-44bf-8d38-197e0d4335f2"},"vehicle_type_id":"4","last_reported":1703329553,"current_range_meters":25600,"station_id":"ce4bhqh2rcd13ifvqhmg","pricing_plan_id":"free"},{"bike_id":"d1671e61-3a36-43f5-afec-240ed0b602ca","system_id":"levelo_inurba_marseille","lat":43.336148,"lon":5.410349,"is_reserved":false,"is_disabled":false,"rental_uris":{"android":"levelo://app?vid=d1671e61-3a36-43f5-afec-240ed0b602ca","ios":"levelo://app?vid=d1671e61-3a36-43f5-afec-240ed0b602ca"},"vehicle_type_id":"4","last_reported":1703329553,"current_range_meters":22400,"station_id":"ce4bhqh2rcd13ifvqhmg","pricing_plan_id":"free"},{"bike_id":"89dc93f5-fafe-4437-9a6c-0ca033a769f2","system_id":"levelo_inurba_marseille","lat":43.276769,"lon":5.388787,"is_reserved":false,"is_disabled":false,"rental_uris":{"android":"levelo://app?vid=89dc93f5-fafe-4437-9a6c-0ca033a769f2","ios":"levelo://app?vid=89dc93f5-fafe-4437-9a6c-0ca033a769f2"},"vehicle_type_id":"4","last_reported":1703329553,"current_range_meters":12800,"station_id":"ce4bhi12rcd13ifvqfo0","pricing_plan_id":"free"},{"bike_id":"358230c6-2f53-4c94-bd58-3ab03d16e35d","system_id":"levelo_inurba_marseille","lat":43.276769,"lon":5.388787,"is_reserved":false,"is_disabled":false,"rental_uris":{"android":"levelo://app?vid=358230c6-2f53-4c94-bd58-3ab03d16e35d","ios":"levelo://app?vid=358230c6-2f53-4c94-bd58-3ab03d16e35d"},"vehicle_type_id":"4","last_reported":1703329553,"current_range_meters":18800,"station_id":"ce4bhi12rcd13ifvqfo0","pricing_plan_id":"free"},{"bike_id":"6a72faea-4f57-4289-b2d7-493c224a4ca2","system_id":"levelo_inurba_marseille","lat":43.279952,"lon":5.400085,"is_reserved":false,"is_disabled":false,"rental_uris":{"android":"levelo://app?vid=6a72faea-4f57-4289-b2d7-493c224a4ca2","ios":"levelo://app?vid=6a72faea-4f57-4289-b2d7-493c224a4ca2"},"vehicle_type_id":"4","last_reported":1703329553,"current_range_meters":31200,"station_id":"ce4bho92rcd13ifvqh4g","pricing_plan_id":"free"},{"bike_id":"1a71dfdb-7dca-4fd3-82de-9c0aa3b39531","system_id":"levelo_inurba_marseille","lat":43.279952,"lon":5.400085,"is_reserved":false,"is_disabled":false,"rental_uris":{"android":"levelo://app?vid=1a71dfdb-7dca-4fd3-82de-9c0aa3b39531","ios":"levelo://app?vid=1a71dfdb-7dca-4fd3-82de-9c0aa3b39531"},"vehicle_type_id":"4","last_reported":1703329553,"current_range_meters":19200,"station_id":"ce4bho92rcd13ifvqh4g","pricing_plan_id":"free"},{"bike_id":"9d8a300c-7356-461f-8e60-7c138328974e","system_id":"levelo_inurba_marseille","lat":43.317121,"lon":5.423936,"is_reserved":false,"is_disabled":false,"rental_uris":{"android":"levelo://app?vid=9d8a300c-7356-461f-8e60-7c138328974e","ios":"levelo://app?vid=9d8a300c-7356-461f-8e60-7c138328974e"},"vehicle_type_id":"4","last_reported":1703329553,"current_range_meters":29600,"station_id":"ce4bhp92rcd13ifvqhbg","pricing_plan_id":"free"},{"bike_id":"7c92ac06-9f8b-4771-8927-7d3efcae43ac","system_id":"levelo_inurba_marseille","lat":43.310785,"lon":5.424305,"is_reserved":false,"is_disabled":false,"rental_uris":{"android":"levelo://app?vid=7c92ac06-9f8b-4771-8927-7d3efcae43ac","ios":"levelo://app?vid=7c92ac06-9f8b-4771-8927-7d3efcae43ac"},"vehicle_type_id":"4","last_reported":1703329553,"current_range_meters":20000,"station_id":"ce4bhp92rcd13ifvqhag","pricing_plan_id":"free"},{"bike_id":"03c66dac-183d-4ff1-8500-aedc025d3ffc","system_id":"levelo_inurba_marseille","lat":43.340804,"lon":5.410219,"is_reserved":false,"is_disabled":false,"rental_uris":{"android":"levelo://app?vid=03c66dac-183d-4ff1-8500-aedc025d3ffc","ios":"levelo://app?vid=03c66dac-183d-4ff1-8500-aedc025d3ffc"},"vehicle_type_id":"4","last_reported":1703329553,"current_range_meters":29600,"station_id":"ce4bhqh2rcd13ifvqhlg","pricing_plan_id":"free"},{"bike_id":"6acb992e-1001-4ff9-8015-71ffdc5c41aa","system_id":"levelo_inurba_marseille","lat":43.295523,"lon":5.422926,"is_reserved":false,"is_disabled":false,"rental_uris":{"android":"levelo://app?vid=6acb992e-1001-4ff9-8015-71ffdc5c41aa","ios":"levelo://app?vid=6acb992e-1001-4ff9-8015-71ffdc5c41aa"},"vehicle_type_id":"4","last_reported":1703329553,"current_range_meters":20000,"station_id":"ce4bhph2rcd13ifvqhdg","pricing_plan_id":"free"},{"bike_id":"6965e81e-41c1-4439-8294-0afad852a221","system_id":"levelo_inurba_marseille","lat":43.269319,"lon":5.389397,"is_reserved":false,"is_disabled":false,"rental_uris":{"android":"levelo://app?vid=6965e81e-41c1-4439-8294-0afad852a221","ios":"levelo://app?vid=6965e81e-41c1-4439-8294-0afad852a221"},"vehicle_type_id":"4","last_reported":1703329553,"current_range_meters":29600,"station_id":"ce4bhhh2rcd13ifvqfl0","pricing_plan_id":"free"},{"bike_id":"7f6e989c-6f89-4ebe-9276-5c1e010662d3","system_id":"levelo_inurba_marseille","lat":43.267966,"lon":5.393976,"is_reserved":false,"is_disabled":false,"rental_uris":{"android":"levelo://app?vid=7f6e989c-6f89-4ebe-9276-5c1e010662d3","ios":"levelo://app?vid=7f6e989c-6f89-4ebe-9276-5c1e010662d3"},"vehicle_type_id":"4","last_reported":1703329553,"current_range_meters":24000,"station_id":"ce4bhh12rcd13ifvqfg0","pricing_plan_id":"free"},{"bike_id":"e29cc4bf-17bb-4255-8bcb-1952ba7ecdbe","system_id":"levelo_inurba_marseille","lat":43.267966,"lon":5.393976,"is_reserved":false,"is_disabled":false,"rental_uris":{"android":"levelo://app?vid=e29cc4bf-17bb-4255-8bcb-1952ba7ecdbe","ios":"levelo://app?vid=e29cc4bf-17bb-4255-8bcb-1952ba7ecdbe"},"vehicle_type_id":"4","last_reported":1703329553,"current_range_meters":29600,"station_id":"ce4bhh12rcd13ifvqfg0","pricing_plan_id":"free"},{"bike_id":"8e789bf2-ec7c-4179-8768-67c9d4782431","system_id":"levelo_inurba_marseille","lat":43.265714,"lon":5.372891,"is_reserved":false,"is_disabled":false,"rental_uris":{"android":"levelo://app?vid=8e789bf2-ec7c-4179-8768-67c9d4782431","ios":"levelo://app?vid=8e789bf2-ec7c-4179-8768-67c9d4782431"},"vehicle_type_id":"4","last_reported":1703329553,"current_range_meters":19200,"station_id":"ce4bhg12rcd13ifvqf70","pricing_plan_id":"free"},{"bike_id":"d352c16c-d0b1-4836-a5a9-8cb15da31633","system_id":"levelo_inurba_marseille","lat":43.308051,"lon":5.43527,"is_reserved":false,"is_disabled":false,"rental_uris":{"android":"levelo://app?vid=d352c16c-d0b1-4836-a5a9-8cb15da31633","ios":"levelo://app?vid=d352c16c-d0b1-4836-a5a9-8cb15da31633"},"vehicle_type_id":"4","last_reported":1703329553,"current_range_meters":25200,"station_id":"ce4bhph2rcd13ifvqheg","pricing_plan_id":"free"},{"bike_id":"ef3a5473-7174-4996-9020-1194bf042c64","system_id":"levelo_inurba_marseille","lat":43.261782,"lon":5.374515,"is_reserved":false,"is_disabled":false,"rental_uris":{"android":"levelo://app?vid=ef3a5473-7174-4996-9020-1194bf042c64","ios":"levelo://app?vid=ef3a5473-7174-4996-9020-1194bf042c64"},"vehicle_type_id":"4","last_reported":1703329553,"current_range_meters":10800,"station_id":"ce4bhgp2rcd13ifvqfc0","pricing_plan_id":"free"},{"bike_id":"860ed095-4cf8-4171-b135-647804ff1498","system_id":"levelo_inurba_marseille","lat":43.261782,"lon":5.374515,"is_reserved":false,"is_disabled":false,"rental_uris":{"android":"levelo://app?vid=860ed095-4cf8-4171-b135-647804ff1498","ios":"levelo://app?vid=860ed095-4cf8-4171-b135-647804ff1498"},"vehicle_type_id":"4","last_reported":1703329553,"current_range_meters":29600,"station_id":"ce4bhgp2rcd13ifvqfc0","pricing_plan_id":"free"},{"bike_id":"f2937d21-e2a5-4557-85ff-29184a73d3bf","system_id":"levelo_inurba_marseille","lat":43.26185,"lon":5.37441,"is_reserved":false,"is_disabled":false,"rental_uris":{"android":"levelo://app?vid=f2937d21-e2a5-4557-85ff-29184a73d3bf","ios":"levelo://app?vid=f2937d21-e2a5-4557-85ff-29184a73d3bf"},"vehicle_type_id":"4","last_reported":1703329553,"current_range_meters":28000,"station_id":"ce4bhgp2rcd13ifvqfc0","pricing_plan_id":"free"},{"bike_id":"9ae51110-6160-4830-8874-7193cd37da3a","system_id":"levelo_inurba_marseille","lat":43.261782,"lon":5.374515,"is_reserved":false,"is_disabled":false,"rental_uris":{"android":"levelo://app?vid=9ae51110-6160-4830-8874-7193cd37da3a","ios":"levelo://app?vid=9ae51110-6160-4830-8874-7193cd37da3a"},"vehicle_type_id":"4","last_reported":1703329553,"current_range_meters":21600,"station_id":"ce4bhgp2rcd13ifvqfc0","pricing_plan_id":"free"},{"bike_id":"40273045-01d7-47dc-b8f7-4d8ff927b15c","system_id":"levelo_inurba_marseille","lat":43.261833,"lon":5.374395,"is_reserved":false,"is_disabled":false,"rental_uris":{"android":"levelo://app?vid=40273045-01d7-47dc-b8f7-4d8ff927b15c","ios":"levelo://app?vid=40273045-01d7-47dc-b8f7-4d8ff927b15c"},"vehicle_type_id":"4","last_reported":1703329553,"current_range_meters":28000,"station_id":"ce4bhgp2rcd13ifvqfc0","pricing_plan_id":"free"},{"bike_id":"9a22b759-cb02-4a9f-b32d-4de2997c4531","system_id":"levelo_inurba_marseille","lat":43.317104,"lon":5.436818,"is_reserved":false,"is_disabled":false,"rental_uris":{"android":"levelo://app?vid=9a22b759-cb02-4a9f-b32d-4de2997c4531","ios":"levelo://app?vid=9a22b759-cb02-4a9f-b32d-4de2997c4531"},"vehicle_type_id":"4","last_reported":1703329553,"current_range_meters":0,"station_id":"ce4bhp92rcd13ifvqhcg","pricing_plan_id":"free"},{"bike_id":"3c97a8a7-622c-4d01-a316-783cde5fc7f9","system_id":"levelo_inurba_marseille","lat":43.317104,"lon":5.436818,"is_reserved":false,"is_disabled":false,"rental_uris":{"android":"levelo://app?vid=3c97a8a7-622c-4d01-a316-783cde5fc7f9","ios":"levelo://app?vid=3c97a8a7-622c-4d01-a316-783cde5fc7f9"},"vehicle_type_id":"4","last_reported":1703329553,"current_range_meters":25600,"station_id":"ce4bhp92rcd13ifvqhcg","pricing_plan_id":"free"},{"bike_id":"e09c8bec-45a3-49f6-8d20-e9c1a1ca8928","system_id":"levelo_inurba_marseille","lat":43.261782,"lon":5.374515,"is_reserved":false,"is_disabled":false,"rental_uris":{"android":"levelo://app?vid=e09c8bec-45a3-49f6-8d20-e9c1a1ca8928","ios":"levelo://app?vid=e09c8bec-45a3-49f6-8d20-e9c1a1ca8928"},"vehicle_type_id":"4","last_reported":1703329553,"current_range_meters":10800,"station_id":"ce4bhgp2rcd13ifvqfc0","pricing_plan_id":"free"},{"bike_id":"7fbe02a0-b05d-40e2-885a-21861b971e54","system_id":"levelo_inurba_marseille","lat":43.317104,"lon":5.436818,"is_reserved":false,"is_disabled":false,"rental_uris":{"android":"levelo://app?vid=7fbe02a0-b05d-40e2-885a-21861b971e54","ios":"levelo://app?vid=7fbe02a0-b05d-40e2-885a-21861b971e54"},"vehicle_type_id":"4","last_reported":1703329553,"current_range_meters":8400,"station_id":"ce4bhp92rcd13ifvqhcg","pricing_plan_id":"free"},{"bike_id":"ecded0b1-26e9-4178-868a-0ff40f1e2ee0","system_id":"levelo_inurba_marseille","lat":43.271388,"lon":5.409269,"is_reserved":false,"is_disabled":false,"rental_uris":{"android":"levelo://app?vid=ecded0b1-26e9-4178-868a-0ff40f1e2ee0","ios":"levelo://app?vid=ecded0b1-26e9-4178-868a-0ff40f1e2ee0"},"vehicle_type_id":"4","last_reported":1703329553,"current_range_meters":31200,"station_id":"ce4bhl12rcd13ifvqgf0","pricing_plan_id":"free"},{"bike_id":"cb3bedef-14c4-4d98-84e3-b4d224805958","system_id":"levelo_inurba_marseille","lat":43.271368,"lon":5.40928,"is_reserved":false,"is_disabled":false,"rental_uris":{"android":"levelo://app?vid=cb3bedef-14c4-4d98-84e3-b4d224805958","ios":"levelo://app?vid=cb3bedef-14c4-4d98-84e3-b4d224805958"},"vehicle_type_id":"4","last_reported":1703329553,"current_range_meters":28800,"station_id":"ce4bhl12rcd13ifvqgf0","pricing_plan_id":"free"},{"bike_id":"de265f19-a4ff-4c37-8a5b-17cd374ae327","system_id":"levelo_inurba_marseille","lat":43.26202,"lon":5.379299,"is_reserved":false,"is_disabled":false,"rental_uris":{"android":"levelo://app?vid=de265f19-a4ff-4c37-8a5b-17cd374ae327","ios":"levelo://app?vid=de265f19-a4ff-4c37-8a5b-17cd374ae327"},"vehicle_type_id":"4","last_reported":1703329553,"current_range_meters":26000,"station_id":"ce4bhjp2rcd13ifvqg90","pricing_plan_id":"free"},{"bike_id":"301ba89b-ba2b-4bb9-8410-1927ee00234d","system_id":"levelo_inurba_marseille","lat":43.271388,"lon":5.409269,"is_reserved":false,"is_disabled":false,"rental_uris":{"android":"levelo://app?vid=301ba89b-ba2b-4bb9-8410-1927ee00234d","ios":"levelo://app?vid=301ba89b-ba2b-4bb9-8410-1927ee00234d"},"vehicle_type_id":"4","last_reported":1703329553,"current_range_meters":24400,"station_id":"ce4bhl12rcd13ifvqgf0","pricing_plan_id":"free"},{"bike_id":"54157858-3928-4161-8d2f-c2d2265e4b4d","system_id":"levelo_inurba_marseille","lat":43.26202,"lon":5.379299,"is_reserved":false,"is_disabled":false,"rental_uris":{"android":"levelo://app?vid=54157858-3928-4161-8d2f-c2d2265e4b4d","ios":"levelo://app?vid=54157858-3928-4161-8d2f-c2d2265e4b4d"},"vehicle_type_id":"4","last_reported":1703329553,"current_range_meters":20000,"station_id":"ce4bhjp2rcd13ifvqg90","pricing_plan_id":"free"},{"bike_id":"394212ae-5c87-4cd5-a521-966f90ae8f5c","system_id":"levelo_inurba_marseille","lat":43.2651,"lon":5.39469,"is_reserved":false,"is_disabled":false,"rental_uris":{"android":"levelo://app?vid=394212ae-5c87-4cd5-a521-966f90ae8f5c","ios":"levelo://app?vid=394212ae-5c87-4cd5-a521-966f90ae8f5c"},"vehicle_type_id":"4","last_reported":1703329553,"current_range_meters":20800,"station_id":"ce4bhi12rcd13ifvqfq0","pricing_plan_id":"free"},{"bike_id":"88ff194f-0557-4d85-8240-bd44fbfc2dd4","system_id":"levelo_inurba_marseille","lat":43.2651,"lon":5.39469,"is_reserved":false,"is_disabled":false,"rental_uris":{"android":"levelo://app?vid=88ff194f-0557-4d85-8240-bd44fbfc2dd4","ios":"levelo://app?vid=88ff194f-0557-4d85-8240-bd44fbfc2dd4"},"vehicle_type_id":"4","last_reported":1703329553,"current_range_meters":16400,"station_id":"ce4bhi12rcd13ifvqfq0","pricing_plan_id":"free"},{"bike_id":"0131924d-5605-48f3-988f-22a5f29a2c50","system_id":"levelo_inurba_marseille","lat":43.298768,"lon":5.43643,"is_reserved":false,"is_disabled":false,"rental_uris":{"android":"levelo://app?vid=0131924d-5605-48f3-988f-22a5f29a2c50","ios":"levelo://app?vid=0131924d-5605-48f3-988f-22a5f29a2c50"},"vehicle_type_id":"4","last_reported":1703329553,"current_range_meters":29200,"station_id":"ce4bhpp2rcd13ifvqhfg","pricing_plan_id":"free"},