{"last_updated":1773304249,"ttl":60,"version":"2.2","data":{"bikes":[{"bike_id":"6768b180-bce9-4c1c-8522-6e9ab135b4f0","system_id":"levelo_inurba_marseille","lat":43.29071,"lon":5.39897,"is_reserved":false,"is_disabled":false,"rental_uris":{"android":"levelo://app?vid=6768b180-bce9-4c1c-8522-6e9ab135b4f0","ios":"levelo://app?vid=6768b180-bce9-4c1c-8522-6e9ab135b4f0"},"vehicle_type_id":"4","last_reported":1773304250,"current_range_meters":39200,"station_id":"ce4bh392rcd13ifvqdm0","pricing_plan_id":"cebpf4jnsgd1na2vs0mg"},{"bike_id":"3b1d8790-5d02-4b5f-8989-319c6c483703","system_id":"levelo_inurba_marseille","lat":43.28431,"lon":5.39156,"is_reserved":false,"is_disabled":false,"rental_uris":{"android":"levelo://app?vid=3b1d8790-5d02-4b5f-8989-319c6c483703","ios":"levelo://app?vid=3b1d8790-5d02-4b5f-8989-319c6c483703"},"vehicle_type_id":"4","last_reported":1773304250,"current_range_meters":37600,"station_id":"ce4bhoh2rcd13ifvqh5g","pricing_plan_id":"cebpf4jnsgd1na2vs0mg"},{"bike_id":"4cdd6ee8-e7c8-4aab-ab00-a44db3c0fcfb","system_id":"levelo_inurba_marseille","lat":43.26371,"lon":5.41089,"is_reserved":false,"is_disabled":false,"rental_uris":{"android":"levelo://app?vid=4cdd6ee8-e7c8-4aab-ab00-a44db3c0fcfb","ios":"levelo://app?vid=4cdd6ee8-e7c8-4aab-ab00-a44db3c0fcfb"},"vehicle_type_id":"4","last_reported":1773304250,"current_range_meters":7200,"station_id":"st_d4e5ca6na9uc73bfl5fg","pricing_plan_id":"cebpf4jnsgd1na2vs0mg"},{"bike_id":"667489a9-5e67-403e-9484-87dd99ac8c18","system_id":"levelo_inurba_marseille","lat":43.29025,"lon":5.39975,"is_reserved":false,"is_disabled":false,"rental_uris":{"android":"levelo://app?vid=667489a9-5e67-403e-9484-87dd99ac8c18","ios":"levelo://app?vid=667489a9-5e67-403e-9484-87dd99ac8c18"},"vehicle_type_id":"4","last_reported":1773304250,"current_range_meters":40000,"station_id":"ce4bh392rcd13ifvqdm0","pricing_plan_id":"cebpf4jnsgd1na2vs0mg"},{"bike_id":"0551c756-ca94-4501-b375-2f058f30a99e","system_id":"levelo_inurba_marseille","lat":43.2861,"lon":5.44082,"is_reserved":false,"is_disabled":false,"rental_uris":{"android":"levelo://app?vid=0551c756-ca94-4501-b375-2f058f30a99e","ios":"levelo://app?vid=0551c756-ca94-4501-b375-2f058f30a99e"},"vehicle_type_id":"4","last_reported":1773304250,"current_range_meters":17200,"station_id":"","pricing_plan_id":"cebpf4jnsgd1na2vs0mg"},{"bike_id":"47b6cd2f-83c0-435a-8450-cade692e54a7","system_id":"levelo_inurba_marseille","lat":43.27932,"lon":5.41036,"is_reserved":false,"is_disabled":false,"rental_uris":{"android":"levelo://app?vid=47b6cd2f-83c0-435a-8450-cade692e54a7","ios":"levelo://app?vid=47b6cd2f-83c0-435a-8450-cade692e54a7"},"vehicle_type_id":"4","last_reported":1773304250,"current_range_meters":33600,"station_id":"ce4bhnp2rcd13ifvqh0g","pricing_plan_id":"cebpf4jnsgd1na2vs0mg"},{"bike_id":"4d2ed247-c300-416c-8c6f-d2ecc9f55d1f","system_id":"levelo_inurba_marseille","lat":43.29273,"lon":5.40123,"is_reserved":false,"is_disabled":false,"rental_uris":{"android":"levelo://app?vid=4d2ed247-c300-416c-8c6f-d2ecc9f55d1f","ios":"levelo://app?vid=4d2ed247-c300-416c-8c6f-d2ecc9f55d1f"},"vehicle_type_id":"4","last_reported":1773304250,"current_range_meters":9600,"station_id":"ce4bh312rcd13ifvqdk0","pricing_plan_id":"cebpf4jnsgd1na2vs0mg"},{"bike_id":"d5317123-9bf9-4493-ba3f-18b283994230","system_id":"levelo_inurba_marseille","lat":43.26669,"lon":5.38241,"is_reserved":false,"is_disabled":false,"rental_uris":{"android":"levelo://app?vid=d5317123-9bf9-4493-ba3f-18b283994230","ios":"levelo://app?vid=d5317123-9bf9-4493-ba3f-18b283994230"},"vehicle_type_id":"4","last_reported":1773304250,"current_range_meters":9200,"station_id":"ce4bhg92rcd13ifvqf90","pricing_plan_id":"cebpf4jnsgd1na2vs0mg"},{"bike_id":"2dde38a6-7040-4591-b258-f00f6d384fc3","system_id":"levelo_inurba_marseille","lat":43.32992,"lon":5.39045,"is_reserved":false,"is_disabled":false,"rental_uris":{"android":"levelo://app?vid=2dde38a6-7040-4591-b258-f00f6d384fc3","ios":"levelo://app?vid=2dde38a6-7040-4591-b258-f00f6d384fc3"},"vehicle_type_id":"4","last_reported":1773304250,"current_range_meters":38400,"station_id":"ce4bhr92rcd13ifvqhrg","pricing_plan_id":"cebpf4jnsgd1na2vs0mg"},{"bike_id":"4d4392ad-1317-428d-95a4-1044e6c4b5c3","system_id":"levelo_inurba_marseille","lat":43.26392,"lon":5.41064,"is_reserved":false,"is_disabled":false,"rental_uris":{"android":"levelo://app?vid=4d4392ad-1317-428d-95a4-1044e6c4b5c3","ios":"levelo://app?vid=4d4392ad-1317-428d-95a4-1044e6c4b5c3"},"vehicle_type_id":"4","last_reported":1773304250,"current_range_meters":28000,"station_id":"st_d4e5ca6na9uc73bfl5fg","pricing_plan_id":"cebpf4jnsgd1na2vs0mg"},{"bike_id":"9faea34b-1c48-4a1b-8f51-2bafe5184a50","system_id":"levelo_inurba_marseille","lat":43.28477,"lon":5.48394,"is_reserved":false,"is_disabled":false,"rental_uris":{"android":"levelo://app?vid=9faea34b-1c48-4a1b-8f51-2bafe5184a50","ios":"levelo://app?vid=9faea34b-1c48-4a1b-8f51-2bafe5184a50"},"vehicle_type_id":"4","last_reported":1773304250,"current_range_meters":32000,"station_id":"","pricing_plan_id":"cebpf4jnsgd1na2vs0mg"},{"bike_id":"bd0135ea-2cde-4c88-9947-7d16e31861df","system_id":"levelo_inurba_marseille","lat":43.30737,"lon":5.36798,"is_reserved":false,"is_disabled":false,"rental_uris":{"android":"levelo://app?vid=bd0135ea-2cde-4c88-9947-7d16e31861df","ios":"levelo://app?vid=bd0135ea-2cde-4c88-9947-7d16e31861df"},"vehicle_type_id":"4","last_reported":1773304250,"current_range_meters":28800,"station_id":"","pricing_plan_id":"cebpf4jnsgd1na2vs0mg"},{"bike_id":"d427d34d-e739-4c0f-a843-74b85111544b","system_id":"levelo_inurba_marseille","lat":43.33159,"lon":5.37689,"is_reserved":false,"is_disabled":false,"rental_uris":{"android":"levelo://app?vid=d427d34d-e739-4c0f-a843-74b85111544b","ios":"levelo://app?vid=d427d34d-e739-4c0f-a843-74b85111544b"},"vehicle_type_id":"4","last_reported":1773304250,"current_range_meters":22000,"station_id":"st_d46cu089ee8s73dldbu0","pricing_plan_id":"cebpf4jnsgd1na2vs0mg"},{"bike_id":"394fc2b1-22af-48ad-8a63-7f18448c05a0","system_id":"levelo_inurba_marseille","lat":43.2986,"lon":5.36285,"is_reserved":false,"is_disabled":false,"rental_uris":{"android":"levelo://app?vid=394fc2b1-22af-48ad-8a63-7f18448c05a0","ios":"levelo://app?vid=394fc2b1-22af-48ad-8a63-7f18448c05a0"},"vehicle_type_id":"4","last_reported":1773304250,"current_range_meters":38400,"station_id":"ce4bgpp2rcd13ifvqc3g","pricing_plan_id":"cebpf4jnsgd1na2vs0mg"},{"bike_id":"c943c8f2-fd97-497f-b02c-47e60712859d","system_id":"levelo_inurba_marseille","lat":43.25838,"lon":5.39434,"is_reserved":false,"is_disabled":false,"rental_uris":{"android":"levelo://app?vid=c943c8f2-fd97-497f-b02c-47e60712859d","ios":"levelo://app?vid=c943c8f2-fd97-497f-b02c-47e60712859d"},"vehicle_type_id":"4","last_reported":1773304250,"current_range_meters":24800,"station_id":"ce4bhip2rcd13ifvqft0","pricing_plan_id":"cebpf4jnsgd1na2vs0mg"},{"bike_id":"df1d31a1-3b6d-49a0-8dc9-75df64c6aedb","system_id":"levelo_inurba_marseille","lat":43.28699,"lon":5.399833,"is_reserved":false,"is_disabled":false,"rental_uris":{"android":"levelo://app?vid=df1d31a1-3b6d-49a0-8dc9-75df64c6aedb","ios":"levelo://app?vid=df1d31a1-3b6d-49a0-8dc9-75df64c6aedb"},"vehicle_type_id":"4","last_reported":1773304250,"current_range_meters":14000,"station_id":"ce4bho92rcd13ifvqh3g","pricing_plan_id":"cebpf4jnsgd1na2vs0mg"},{"bike_id":"b5a70d44-6cd2-4596-a9b3-e82e9858ce0d","system_id":"levelo_inurba_marseille","lat":43.30524,"lon":5.36545,"is_reserved":false,"is_disabled":false,"rental_uris":{"android":"levelo://app?vid=b5a70d44-6cd2-4596-a9b3-e82e9858ce0d","ios":"levelo://app?vid=b5a70d44-6cd2-4596-a9b3-e82e9858ce0d"},"vehicle_type_id":"4","last_reported":1773304250,"current_range_meters":3200,"station_id":"ce4bgs12rcd13ifvqcag","pricing_plan_id":"cebpf4jnsgd1na2vs0mg"},{"bike_id":"6817a9da-9214-48d8-a346-d5c658bb35d2","system_id":"levelo_inurba_marseille","lat":43.2969,"lon":5.377,"is_reserved":false,"is_disabled":false,"rental_uris":{"android":"levelo://app?vid=6817a9da-9214-48d8-a346-d5c658bb35d2","ios":"levelo://app?vid=6817a9da-9214-48d8-a346-d5c658bb35d2"},"vehicle_type_id":"4","last_reported":1773304250,"current_range_meters":21600,"station_id":"ce4bgkh2rcd13ifvqbl0","pricing_plan_id":"cebpf4jnsgd1na2vs0mg"},{"bike_id":"fee06328-0848-48be-bb8b-947aae963eba","system_id":"levelo_inurba_marseille","lat":43.30521,"lon":5.36715,"is_reserved":false,"is_disabled":false,"rental_uris":{"android":"levelo://app?vid=fee06328-0848-48be-bb8b-947aae963eba","ios":"levelo://app?vid=fee06328-0848-48be-bb8b-947aae963eba"},"vehicle_type_id":"4","last_reported":1773304250,"current_range_meters":40000,"station_id":"ce4bgrp2rcd13ifvqc9g","pricing_plan_id":"cebpf4jnsgd1na2vs0mg"},{"bike_id":"b93a357c-54e0-4442-be00-cbc58767907f","system_id":"levelo_inurba_marseille","lat":43.3208,"lon":5.41554,"is_reserved":false,"is_disabled":false,"rental_uris":{"android":"levelo://app?vid=b93a357c-54e0-4442-be00-cbc58767907f","ios":"levelo://app?vid=b93a357c-54e0-4442-be00-cbc58767907f"},"vehicle_type_id":"4","last_reported":1773304250,"current_range_meters":37600,"station_id":"ce4bhq92rcd13ifvqhkg","pricing_plan_id":"cebpf4jnsgd1na2vs0mg"},{"bike_id":"c1ec77a3-84f4-47db-94b6-6aec401b4b2a","system_id":"levelo_inurba_marseille","lat":43.29605,"lon":5.38096,"is_reserved":false,"is_disabled":false,"rental_uris":{"android":"levelo://app?vid=c1ec77a3-84f4-47db-94b6-6aec401b4b2a","ios":"levelo://app?vid=c1ec77a3-84f4-47db-94b6-6aec401b4b2a"},"vehicle_type_id":"4","last_reported":1773304250,"current_range_meters":17600,"station_id":"ce4bgl12rcd13ifvqbo0","pricing_plan_id":"cebpf4jnsgd1na2vs0mg"},{"bike_id":"55bcc017-9e41-40f3-a9de-397b47690482","system_id":"levelo_inurba_marseille","lat":43.32662,"lon":5.41255,"is_reserved":false,"is_disabled":false,"rental_uris":{"android":"levelo://app?vid=55bcc017-9e41-40f3-a9de-397b47690482","ios":"levelo://app?vid=55bcc017-9e41-40f3-a9de-397b47690482"},"vehicle_type_id":"4","last_reported":1773304250,"current_range_meters":38400,"station_id":"","pricing_plan_id":"cebpf4jnsgd1na2vs0mg"},{"bike_id":"8f82668e-3825-4e2d-afca-16910ac971bd","system_id":"levelo_inurba_marseille","lat":43.27919,"lon":5.39573,"is_reserved":false,"is_disabled":false,"rental_uris":{"android":"levelo://app?vid=8f82668e-3825-4e2d-afca-16910ac971bd","ios":"levelo://app?vid=8f82668e-3825-4e2d-afca-16910ac971bd"},"vehicle_type_id":"4","last_reported":1773304250,"current_range_meters":32000,"station_id":"ce4bhf92rcd13ifvqf40","pricing_plan_id":"cebpf4jnsgd1na2vs0mg"},{"bike_id":"ed701d5d-010e-43b3-aff1-bb3197aa0d5a","system_id":"levelo_inurba_marseille","lat":43.30361,"lon":5.41866,"is_reserved":false,"is_disabled":false,"rental_uris":{"android":"levelo://app?vid=ed701d5d-010e-43b3-aff1-bb3197aa0d5a","ios":"levelo://app?vid=ed701d5d-010e-43b3-aff1-bb3197aa0d5a"},"vehicle_type_id":"4","last_reported":1773304250,"current_range_meters":39200,"station_id":"ce4bhop2rcd13ifvqh7g","pricing_plan_id":"cebpf4jnsgd1na2vs0mg"},{"bike_id":"f18a97ed-e43a-4a4a-9a1c-f27f3fa368f5","system_id":"levelo_inurba_marseille","lat":43.2795,"lon":5.41049,"is_reserved":false,"is_disabled":false,"rental_uris":{"android":"levelo://app?vid=f18a97ed-e43a-4a4a-9a1c-f27f3fa368f5","ios":"levelo://app?vid=f18a97ed-e43a-4a4a-9a1c-f27f3fa368f5"},"vehicle_type_id":"4","last_reported":1773304250,"current_range_meters":17200,"station_id":"ce4bhnp2rcd13ifvqh0g","pricing_plan_id":"cebpf4jnsgd1na2vs0mg"},{"bike_id":"6e19cedf-1d2d-4934-b74b-ca0eef137772","system_id":"levelo_inurba_marseille","lat":43.30359,"lon":5.42478,"is_reserved":false,"is_disabled":false,"rental_uris":{"android":"levelo://app?vid=6e19cedf-1d2d-4934-b74b-ca0eef137772","ios":"levelo://app?vid=6e19cedf-1d2d-4934-b74b-ca0eef137772"},"vehicle_type_id":"4","last_reported":1773304250,"current_range_meters":33200,"station_id":"ce4bhoh2rcd13ifvqh6g","pricing_plan_id":"cebpf4jnsgd1na2vs0mg"},{"bike_id":"2910c25c-8e17-4198-83e3-9b82182f5216","system_id":"levelo_inurba_marseille","lat":43.24162,"lon":5.36413,"is_reserved":false,"is_disabled":false,"rental_uris":{"android":"levelo://app?vid=2910c25c-8e17-4198-83e3-9b82182f5216","ios":"levelo://app?vid=2910c25c-8e17-4198-83e3-9b82182f5216"},"vehicle_type_id":"4","last_reported":1773304250,"current_range_meters":30400,"station_id":"cpo36qri1sfpv3e86is0","pricing_plan_id":"cebpf4jnsgd1na2vs0mg"},{"bike_id":"b4c5f4b8-a1ad-40fa-afb2-512ebcf9ac7a","system_id":"levelo_inurba_marseille","lat":43.30146,"lon":5.3876,"is_reserved":false,"is_disabled":true,"rental_uris":{"android":"levelo://app?vid=b4c5f4b8-a1ad-40fa-afb2-512ebcf9ac7a","ios":"levelo://app?vid=b4c5f4b8-a1ad-40fa-afb2-512ebcf9ac7a"},"vehicle_type_id":"4","last_reported":1773304250,"current_range_meters":38400,"station_id":"","pricing_plan_id":"cebpf4jnsgd1na2vs0mg"},{"bike_id":"0351fc46-01ea-4af2-bf07-c7417afde98b","system_id":"levelo_inurba_marseille","lat":43.275,"lon":5.39383,"is_reserved":false,"is_disabled":false,"rental_uris":{"android":"levelo://app?vid=0351fc46-01ea-4af2-bf07-c7417afde98b","ios":"levelo://app?vid=0351fc46-01ea-4af2-bf07-c7417afde98b"},"vehicle_type_id":"4","last_reported":1773304250,"current_range_meters":27600,"station_id":"ce4bhdp2rcd13ifvqf20","pricing_plan_id":"cebpf4jnsgd1na2vs0mg"},{"bike_id":"4d63ba94-123a-40ef-a00b-9f058c52b926","system_id":"levelo_inurba_marseille","lat":43.31236,"lon":5.36854,"is_reserved":false,"is_disabled":false,"rental_uris":{"android":"levelo://app?vid=4d63ba94-123a-40ef-a00b-9f058c52b926","ios":"levelo://app?vid=4d63ba94-123a-40ef-a00b-9f058c52b926"},"vehicle_type_id":"4","last_reported":1773304250,"current_range_meters":19600,"station_id":"ce4bgl92rcd13ifvqbq0","pricing_plan_id":"cebpf4jnsgd1na2vs0mg"},{"bike_id":"23ba3335-938f-476f-a82c-5f731a0f3a9b","system_id":"levelo_inurba_marseille","lat":43.31196,"lon":5.36839,"is_reserved":false,"is_disabled":false,"rental_uris":{"android":"levelo://app?vid=23ba3335-938f-476f-a82c-5f731a0f3a9b","ios":"levelo://app?vid=23ba3335-938f-476f-a82c-5f731a0f3a9b"},"vehicle_type_id":"4","last_reported":1773304250,"current_range_meters":6800,"station_id":"ce4bgl92rcd13ifvqbq0","pricing_plan_id":"cebpf4jnsgd1na2vs0mg"},{"bike_id":"22048dba-791d-40fe-8f4b-149144b0d986","system_id":"levelo_inurba_marseille","lat":43.30182,"lon":5.36622,"is_reserved":false,"is_disabled":false,"rental_uris":{"android":"levelo://app?vid=22048dba-791d-40fe-8f4b-149144b0d986","ios":"levelo://app?vid=22048dba-791d-40fe-8f4b-149144b0d986"},"vehicle_type_id":"4","last_reported":1773304250,"current_range_meters":12800,"station_id":"ce4bgrh2rcd13ifvqc8g","pricing_plan_id":"cebpf4jnsgd1na2vs0mg"},{"bike_id":"2dad0c98-b487-4f43-b096-6f6538facef1","system_id":"levelo_inurba_marseille","lat":43.29032,"lon":5.39972,"is_reserved":false,"is_disabled":false,"rental_uris":{"android":"levelo://app?vid=2dad0c98-b487-4f43-b096-6f6538facef1","ios":"levelo://app?vid=2dad0c98-b487-4f43-b096-6f6538facef1"},"vehicle_type_id":"4","last_reported":1773304250,"current_range_meters":24400,"station_id":"ce4bh392rcd13ifvqdm0","pricing_plan_id":"cebpf4jnsgd1na2vs0mg"},{"bike_id":"cfdcc226-98a9-40cc-ab94-5dcbeb67234b","system_id":"levelo_inurba_marseille","lat":43.29934,"lon":5.37463,"is_reserved":false,"is_disabled":false,"rental_uris":{"android":"levelo://app?vid=cfdcc226-98a9-40cc-ab94-5dcbeb67234b","ios":"levelo://app?vid=cfdcc226-98a9-40cc-ab94-5dcbeb67234b"},"vehicle_type_id":"4","last_reported":1773304250,"current_range_meters":39200,"station_id":"ce4bgjh2rcd13ifvqbg0","pricing_plan_id":"cebpf4jnsgd1na2vs0mg"},{"bike_id":"ce511df9-4784-459c-acbc-9c1c2ee2387f","system_id":"levelo_inurba_marseille","lat":43.26943,"lon":5.40273,"is_reserved":false,"is_disabled":false,"rental_uris":{"android":"levelo://app?vid=ce511df9-4784-459c-acbc-9c1c2ee2387f","ios":"levelo://app?vid=ce511df9-4784-459c-acbc-9c1c2ee2387f"},"vehicle_type_id":"4","last_reported":1773304250,"current_range_meters":32800,"station_id":"cjm6bp8fraef2m0cb0m0","pricing_plan_id":"cebpf4jnsgd1na2vs0mg"},{"bike_id":"182982c2-ad4b-4720-99b5-ac2ca378f95a","system_id":"levelo_inurba_marseille","lat":43.24685,"lon":5.38189,"is_reserved":false,"is_disabled":false,"rental_uris":{"android":"levelo://app?vid=182982c2-ad4b-4720-99b5-ac2ca378f95a","ios":"levelo://app?vid=182982c2-ad4b-4720-99b5-ac2ca378f95a"},"vehicle_type_id":"4","last_reported":1773304250,"current_range_meters":39200,"station_id":"ce4bhih2rcd13ifvqfr0","pricing_plan_id":"cebpf4jnsgd1na2vs0mg"},{"bike_id":"12fb0a3b-0411-4b2b-8082-15a7f0d13467","system_id":"levelo_inurba_marseille","lat":43.25934,"lon":5.40899,"is_reserved":false,"is_disabled":false,"rental_uris":{"android":"levelo://app?vid=12fb0a3b-0411-4b2b-8082-15a7f0d13467","ios":"levelo://app?vid=12fb0a3b-0411-4b2b-8082-15a7f0d13467"},"vehicle_type_id":"4","last_reported":1773304250,"current_range_meters":10000,"station_id":"ce4bhm92rcd13ifvqglg","pricing_plan_id":"cebpf4jnsgd1na2vs0mg"},{"bike_id":"2d139dbe-4a51-46ac-bf7e-5e630dc6608b","system_id":"levelo_inurba_marseille","lat":43.30916,"lon":5.38259,"is_reserved":false,"is_disabled":false,"rental_uris":{"android":"levelo://app?vid=2d139dbe-4a51-46ac-bf7e-5e630dc6608b","ios":"levelo://app?vid=2d139dbe-4a51-46ac-bf7e-5e630dc6608b"},"vehicle_type_id":"4","last_reported":1773304250,"current_range_meters":16000,"station_id":"","pricing_plan_id":"cebpf4jnsgd1na2vs0mg"},{"bike_id":"4bb62ff6-d74f-463a-b8b6-6cc2683cb41d","system_id":"levelo_inurba_marseille","lat":43.3013,"lon":5.37417,"is_reserved":false,"is_disabled":false,"rental_uris":{"android":"levelo://app?vid=4bb62ff6-d74f-463a-b8b6-6cc2683cb41d","ios":"levelo://app?vid=4bb62ff6-d74f-463a-b8b6-6cc2683cb41d"},"vehicle_type_id":"4","last_reported":1773304250,"current_range_meters":40000,"station_id":"ce4bgs92rcd13ifvqcc0","pricing_plan_id":"cebpf4jnsgd1na2vs0mg"},{"bike_id":"1203a036-e28c-4847-b52e-5b6c307c477b","system_id":"levelo_inurba_marseille","lat":43.33155,"lon":5.37717,"is_reserved":false,"is_disabled":false,"rental_uris":{"android":"levelo://app?vid=1203a036-e28c-4847-b52e-5b6c307c477b","ios":"levelo://app?vid=1203a036-e28c-4847-b52e-5b6c307c477b"},"vehicle_type_id":"4","last_reported":1773304250,"current_range_meters":7200,"station_id":"st_d46cu089ee8s73dldbu0","pricing_plan_id":"cebpf4jnsgd1na2vs0mg"},{"bike_id":"17ce7070-d813-4eaf-a544-6259968aa271","system_id":"levelo_inurba_marseille","lat":43.31015,"lon":5.36919,"is_reserved":false,"is_disabled":false,"rental_uris":{"android":"levelo://app?vid=17ce7070-d813-4eaf-a544-6259968aa271","ios":"levelo://app?vid=17ce7070-d813-4eaf-a544-6259968aa271"},"vehicle_type_id":"4","last_reported":1773304250,"current_range_meters":6400,"station_id":"","pricing_plan_id":"cebpf4jnsgd1na2vs0mg"},{"bike_id":"1836e166-b457-4410-82cc-048e879c1f3a","system_id":"levelo_inurba_marseille","lat":43.30955,"lon":5.39048,"is_reserved":false,"is_disabled":false,"rental_uris":{"android":"levelo://app?vid=1836e166-b457-4410-82cc-048e879c1f3a","ios":"levelo://app?vid=1836e166-b457-4410-82cc-048e879c1f3a"},"vehicle_type_id":"4","last_reported":1773304250,"current_range_meters":39200,"station_id":"ce4bgup2rcd13ifvqco0","pricing_plan_id":"cebpf4jnsgd1na2vs0mg"},{"bike_id":"84edac93-97f0-4f16-980c-7e1b057bc44a","system_id":"levelo_inurba_marseille","lat":43.26811,"lon":5.40292,"is_reserved":false,"is_disabled":true,"rental_uris":{"android":"levelo://app?vid=84edac93-97f0-4f16-980c-7e1b057bc44a","ios":"levelo://app?vid=84edac93-97f0-4f16-980c-7e1b057bc44a"},"vehicle_type_id":"4","last_reported":1773304250,"current_range_meters":23200,"station_id":"ce501612rcd8frsf0b60","pricing_plan_id":"cebpf4jnsgd1na2vs0mg"},{"bike_id":"16ced00d-b75b-480f-bfe3-587817c52078","system_id":"levelo_inurba_marseille","lat":43.24654,"lon":5.38895,"is_reserved":false,"is_disabled":false,"rental_uris":{"android":"levelo://app?vid=16ced00d-b75b-480f-bfe3-587817c52078","ios":"levelo://app?vid=16ced00d-b75b-480f-bfe3-587817c52078"},"vehicle_type_id":"4","last_reported":1773304250,"current_range_meters":36400,"station_id":"ce4bhg12rcd13ifvqf60","pricing_plan_id":"cebpf4jnsgd1na2vs0mg"},{"bike_id":"566d1d1a-0852-4e0d-907b-e1334e0d6bf9","system_id":"levelo_inurba_marseille","lat":43.23785,"lon":5.36654,"is_reserved":false,"is_disabled":false,"rental_uris":{"android":"levelo://app?vid=566d1d1a-0852-4e0d-907b-e1334e0d6bf9","ios":"levelo://app?vid=566d1d1a-0852-4e0d-907b-e1334e0d6bf9"},"vehicle_type_id":"4","last_reported":1773304250,"current_range_meters":39200,"station_id":"st_d3nk18o9ro0c73en2l3g","pricing_plan_id":"cebpf4jnsgd1na2vs0mg"},{"bike_id":"2c2ea3a3-6646-4718-8e82-41f856f2f6a0","system_id":"levelo_inurba_marseille","lat":43.29558,"lon":5.3753,"is_reserved":false,"is_disabled":false,"rental_uris":{"android":"levelo://app?vid=2c2ea3a3-6646-4718-8e82-41f856f2f6a0","ios":"levelo://app?vid=2c2ea3a3-6646-4718-8e82-41f856f2f6a0"},"vehicle_type_id":"4","last_reported":1773304250,"current_range_meters":20400,"station_id":"ce4bgh92rcd13ifvqb50","pricing_plan_id":"cebpf4jnsgd1na2vs0mg"},{"bike_id":"f96117d6-7d22-4b57-9564-78f617580e63","system_id":"levelo_inurba_marseille","lat":43.2919,"lon":5.35809,"is_reserved":false,"is_disabled":false,"rental_uris":{"android":"levelo://app?vid=f96117d6-7d22-4b57-9564-78f617580e63","ios":"levelo://app?vid=f96117d6-7d22-4b57-9564-78f617580e63"},"vehicle_type_id":"4","last_reported":1773304250,"current_range_meters":14400,"station_id":"ce4bhb12rcd13ifvqel0","pricing_plan_id":"cebpf4jnsgd1na2vs0mg"},{"bike_id":"bd2c93e2-0518-4334-81a1-4a432ce819d8","system_id":"levelo_inurba_marseille","lat":43.308955,"lon":5.368509,"is_reserved":false,"is_disabled":false,"rental_uris":{"android":"levelo://app?vid=bd2c93e2-0518-4334-81a1-4a432ce819d8","ios":"levelo://app?vid=bd2c93e2-0518-4334-81a1-4a432ce819d8"},"vehicle_type_id":"4","last_reported":1773304250,"current_range_meters":39200,"station_id":"ce4bgn92rcd13ifvqbvg","pricing_plan_id":"cebpf4jnsgd1na2vs0mg"},{"bike_id":"1c573354-cf53-44d3-9111-eb37080df88e","system_id":"levelo_inurba_marseille","lat":43.31569,"lon":5.37392,"is_reserved":false,"is_disabled":false,"rental_uris":{"android":"levelo://app?vid=1c573354-cf53-44d3-9111-eb37080df88e","ios":"levelo://app?vid=1c573354-cf53-44d3-9111-eb37080df88e"},"vehicle_type_id":"4","last_reported":1773304250,"current_range_meters":14000,"station_id":"","pricing_plan_id":"cebpf4jnsgd1na2vs0mg"},{"bike_id":"74ac0a3e-5d07-4a64-ace3-8c1c26f2feff","system_id":"levelo_inurba_marseille","lat":43.30916,"lon":5.36833,"is_reserved":false,"is_disabled":true,"rental_uris":{"android":"levelo://app?vid=74ac0a3e-5d07-4a64-ace3-8c1c26f2feff","ios":"levelo://app?vid=74ac0a3e-5d07-4a64-ace3-8c1c26f2feff"},"vehicle_type_id":"4","last_reported":1773304250,"current_range_meters":38400,"station_id":"ce4bgn92rcd13ifvqbvg","pricing_plan_id":"cebpf4jnsgd1na2vs0mg"},{"bike_id":"df262a9a-640d-4444-9713-91b7c35cc658","system_id":"levelo_inurba_marseille","lat":43.29578,"lon":5.37512,"is_reserved":false,"is_disabled":false,"rental_uris":{"android":"levelo://app?vid=df262a9a-640d-4444-9713-91b7c35cc658","ios":"levelo://app?vid=df262a9a-640d-4444-9713-91b7c35cc658"},"vehicle_type_id":"4","last_reported":1773304250,"current_range_meters":3600,"station_id":"ce4bgh92rcd13ifvqb50","pricing_plan_id":"cebpf4jnsgd1na2vs0mg"},{"bike_id":"290affd8-9a09-4ca7-8cc6-b1a8e5ea56f6","system_id":"levelo_inurba_marseille","lat":43.28831,"lon":5.35851,"is_reserved":false,"is_disabled":false,"rental_uris":{"android":"levelo://app?vid=290affd8-9a09-4ca7-8cc6-b1a8e5ea56f6","ios":"levelo://app?vid=290affd8-9a09-4ca7-8cc6-b1a8e5ea56f6"},"vehicle_type_id":"4","last_reported":1773304250,"current_range_meters":17200,"station_id":"ce4bhb12rcd13ifvqem0","pricing_plan_id":"cebpf4jnsgd1na2vs0mg"},{"bike_id":"5da62214-3882-4c21-9cea-f26eb7d0f848","system_id":"levelo_inurba_marseille","lat":43.29816,"lon":5.38083,"is_reserved":false,"is_disabled":false,"rental_uris":{"android":"levelo://app?vid=5da62214-3882-4c21-9cea-f26eb7d0f848","ios":"levelo://app?vid=5da62214-3882-4c21-9cea-f26eb7d0f848"},"vehicle_type_id":"4","last_reported":1773304250,"current_range_meters":28800,"station_id":"ce4bgip2rcd13ifvqbb0","pricing_plan_id":"cebpf4jnsgd1na2vs0mg"},{"bike_id":"98a69b82-3426-4662-b314-8ddb62a05de5","system_id":"levelo_inurba_marseille","lat":43.30045,"lon":5.43733,"is_reserved":false,"is_disabled":false,"rental_uris":{"android":"levelo://app?vid=98a69b82-3426-4662-b314-8ddb62a05de5","ios":"levelo://app?vid=98a69b82-3426-4662-b314-8ddb62a05de5"},"vehicle_type_id":"4","last_reported":1773304250,"current_range_meters":18000,"station_id":"","pricing_plan_id":"cebpf4jnsgd1na2vs0mg"},{"bike_id":"c6c0ebab-0295-4a0b-844e-e34d619beca3","system_id":"levelo_inurba_marseille","lat":43.2318,"lon":5.39972,"is_reserved":false,"is_disabled":false,"rental_uris":{"android":"levelo://app?vid=c6c0ebab-0295-4a0b-844e-e34d619beca3","ios":"levelo://app?vid=c6c0ebab-0295-4a0b-844e-e34d619beca3"},"vehicle_type_id":"4","last_reported":1773304250,"current_range_meters":34800,"station_id":"ce4bhn12rcd13ifvqgqg","pricing_plan_id":"cebpf4jnsgd1na2vs0mg"},{"bike_id":"a5eb7e2e-f45f-42c7-8ba3-bf76c2472338","system_id":"levelo_inurba_marseille","lat":43.30207,"lon":5.39438,"is_reserved":false,"is_disabled":false,"rental_uris":{"android":"levelo://app?vid=a5eb7e2e-f45f-42c7-8ba3-bf76c2472338","ios":"levelo://app?vid=a5eb7e2e-f45f-42c7-8ba3-bf76c2472338"},"vehicle_type_id":"4","last_reported":1773304250,"current_range_meters":20400,"station_id":"ce4bh0p2rcd13ifvqd70","pricing_plan_id":"cebpf4jnsgd1na2vs0mg"},{"bike_id":"a6bf6a0e-804b-4f95-903f-d306eb4acdb5","system_id":"levelo_inurba_marseille","lat":43.30231,"lon":5.3707,"is_reserved":false,"is_disabled":false,"rental_uris":{"android":"levelo://app?vid=a6bf6a0e-804b-4f95-903f-d306eb4acdb5","ios":"levelo://app?vid=a6bf6a0e-804b-4f95-903f-d306eb4acdb5"},"vehicle_type_id":"4","last_reported":1773304250,"current_range_meters":36400,"station_id":"","pricing_plan_id":"cebpf4jnsgd1na2vs0mg"},{"bike_id":"7e1abbe1-756e-46e7-ba29-550f152b4425","system_id":"levelo_inurba_marseille","lat":43.29309,"lon":5.37185,"is_reserved":false,"is_disabled":false,"rental_uris":{"android":"levelo://app?vid=7e1abbe1-756e-46e7-ba29-550f152b4425","ios":"levelo://app?vid=7e1abbe1-756e-46e7-ba29-550f152b4425"},"vehicle_type_id":"4","last_reported":1773304250,"current_range_meters":38800,"station_id":"ce4bgh92rcd13ifvqb40","pricing_plan_id":"cebpf4jnsgd1na2vs0mg"},{"bike_id":"3d236d94-cc73-4767-acdb-e504497fc2d4","system_id":"levelo_inurba_marseille","lat":43.32539,"lon":5.41436,"is_reserved":false,"is_disabled":false,"rental_uris":{"android":"levelo://app?vid=3d236d94-cc73-4767-acdb-e504497fc2d4","ios":"levelo://app?vid=3d236d94-cc73-4767-acdb-e504497fc2d4"},"vehicle_type_id":"4","last_reported":1773304250,"current_range_meters":36400,"station_id":"ce4bhq12rcd13ifvqhhg","pricing_plan_id":"cebpf4jnsgd1na2vs0mg"},{"bike_id":"93d7042a-f10b-4d13-89cf-2727391f5d25","system_id":"levelo_inurba_marseille","lat":43.2679,"lon":5.39451,"is_reserved":false,"is_disabled":false,"rental_uris":{"android":"levelo://app?vid=93d7042a-f10b-4d13-89cf-2727391f5d25","ios":"levelo://app?vid=93d7042a-f10b-4d13-89cf-2727391f5d25"},"vehicle_type_id":"4","last_reported":1773304250,"current_range_meters":9600,"station_id":"ce4bhh12rcd13ifvqfg0","pricing_plan_id":"cebpf4jnsgd1na2vs0mg"},{"bike_id":"aeb83bae-4f37-4eee-86a8-e1d5afa726aa","system_id":"levelo_inurba_marseille","lat":43.299817,"lon":5.371834,"is_reserved":false,"is_disabled":false,"rental_uris":{"android":"levelo://app?vid=aeb83bae-4f37-4eee-86a8-e1d5afa726aa","ios":"levelo://app?vid=aeb83bae-4f37-4eee-86a8-e1d5afa726aa"},"vehicle_type_id":"4","last_reported":1773304250,"current_range_meters":38000,"station_id":"ce4bgr92rcd13ifvqc7g","pricing_plan_id":"cebpf4jnsgd1na2vs0mg"},{"bike_id":"d9aa3ad6-f358-4ccf-9e1a-329645658448","system_id":"levelo_inurba_marseille","lat":43.32332,"lon":5.38904,"is_reserved":false,"is_disabled":false,"rental_uris":{"android":"levelo://app?vid=d9aa3ad6-f358-4ccf-9e1a-329645658448","ios":"levelo://app?vid=d9aa3ad6-f358-4ccf-9e1a-329645658448"},"vehicle_type_id":"4","last_reported":1773304250,"current_range_meters":8000,"station_id":"ce4bhqp2rcd13ifvqhog","pricing_plan_id":"cebpf4jnsgd1na2vs0mg"},{"bike_id":"3d7b1bec-2a06-47da-a7d0-796cda99d14f","system_id":"levelo_inurba_marseille","lat":43.27082,"lon":5.38299,"is_reserved":false,"is_disabled":false,"rental_uris":{"android":"levelo://app?vid=3d7b1bec-2a06-47da-a7d0-796cda99d14f","ios":"levelo://app?vid=3d7b1bec-2a06-47da-a7d0-796cda99d14f"},"vehicle_type_id":"4","last_reported":1773304250,"current_range_meters":17600,"station_id":"st_d3n2fo6cfp8s73cte1j0","pricing_plan_id":"cebpf4jnsgd1na2vs0mg"},{"bike_id":"95928081-d3e9-42eb-ab0d-1b2b0bc8b064","system_id":"levelo_inurba_marseille","lat":43.2903,"lon":5.39998,"is_reserved":false,"is_disabled":false,"rental_uris":{"android":"levelo://app?vid=95928081-d3e9-42eb-ab0d-1b2b0bc8b064","ios":"levelo://app?vid=95928081-d3e9-42eb-ab0d-1b2b0bc8b064"},"vehicle_type_id":"4","last_reported":1773304250,"current_range_meters":36000,"station_id":"ce4bh392rcd13ifvqdm0","pricing_plan_id":"cebpf4jnsgd1na2vs0mg"},{"bike_id":"dd20139a-6cbd-413d-a58e-dd56f48046b9","system_id":"levelo_inurba_marseille","lat":43.30913,"lon":5.36858,"is_reserved":false,"is_disabled":false,"rental_uris":{"android":"levelo://app?vid=dd20139a-6cbd-413d-a58e-dd56f48046b9","ios":"levelo://app?vid=dd20139a-6cbd-413d-a58e-dd56f48046b9"},"vehicle_type_id":"4","last_reported":1773304250,"current_range_meters":30000,"station_id":"ce4bgn92rcd13ifvqbvg","pricing_plan_id":"cebpf4jnsgd1na2vs0mg"},{"bike_id":"988db3b8-861f-418c-a7ec-7ae78131696e","system_id":"levelo_inurba_marseille","lat":43.2468,"lon":5.4336,"is_reserved":false,"is_disabled":false,"rental_uris":{"android":"levelo://app?vid=988db3b8-861f-418c-a7ec-7ae78131696e","ios":"levelo://app?vid=988db3b8-861f-418c-a7ec-7ae78131696e"},"vehicle_type_id":"4","last_reported":1773304250,"current_range_meters":27200,"station_id":"","pricing_plan_id":"cebpf4jnsgd1na2vs0mg"},{"bike_id":"7c052335-831c-4299-8ac4-ea3f91aae545","system_id":"levelo_inurba_marseille","lat":43.27493,"lon":5.42459,"is_reserved":false,"is_disabled":true,"rental_uris":{"android":"levelo://app?vid=7c052335-831c-4299-8ac4-ea3f91aae545","ios":"levelo://app?vid=7c052335-831c-4299-8ac4-ea3f91aae545"},"vehicle_type_id":"4","last_reported":1773304250,"current_range_meters":18000,"station_id":"ce4bhn92rcd13ifvqgrg","pricing_plan_id":"cebpf4jnsgd1na2vs0mg"},{"bike_id":"dd854777-f378-4132-94e6-63027cc18b82","system_id":"levelo_inurba_marseille","lat":43.29727,"lon":5.41059,"is_reserved":false,"is_disabled":false,"rental_uris":{"android":"levelo://app?vid=dd854777-f378-4132-94e6-63027cc18b82","ios":"levelo://app?vid=dd854777-f378-4132-94e6-63027cc18b82"},"vehicle_type_id":"4","last_reported":1773304250,"current_range_meters":25200,"station_id":"","pricing_plan_id":"cebpf4jnsgd1na2vs0mg"},{"bike_id":"8aa72cbf-7b67-4e69-9dc2-a16a316391ec","system_id":"levelo_inurba_marseille","lat":43.30146,"lon":5.38084,"is_reserved":false,"is_disabled":false,"rental_uris":{"android":"levelo://app?vid=8aa72cbf-7b67-4e69-9dc2-a16a316391ec","ios":"levelo://app?vid=8aa72cbf-7b67-4e69-9dc2-a16a316391ec"},"vehicle_type_id":"4","last_reported":1773304250,"current_range_meters":37600,"station_id":"ce4bgjp2rcd13ifvqbh0","pricing_plan_id":"cebpf4jnsgd1na2vs0mg"},{"bike_id":"6d9de3cc-6ad3-438d-a99a-4a2e443ea08b","system_id":"levelo_inurba_marseille","lat":43.26779,"lon":5.39426,"is_reserved":false,"is_disabled":true,"rental_uris":{"android":"levelo://app?vid=6d9de3cc-6ad3-438d-a99a-4a2e443ea08b","ios":"levelo://app?vid=6d9de3cc-6ad3-438d-a99a-4a2e443ea08b"},"vehicle_type_id":"4","last_reported":1773304250,"current_range_meters":27200,"station_id":"ce4bhh12rcd13ifvqfg0","pricing_plan_id":"cebpf4jnsgd1na2vs0mg"},{"bike_id":"7f915ef6-14bc-4386-90b7-42e8354aed79","system_id":"levelo_inurba_marseille","lat":43.3028,"lon":5.37701,"is_reserved":false,"is_disabled":false,"rental_uris":{"android":"levelo://app?vid=7f915ef6-14bc-4386-90b7-42e8354aed79","ios":"levelo://app?vid=7f915ef6-14bc-4386-90b7-42e8354aed79"},"vehicle_type_id":"4","last_reported":1773304250,"current_range_meters":10800,"station_id":"ce4bguh2rcd13ifvqcj0","pricing_plan_id":"cebpf4jnsgd1na2vs0mg"},{"bike_id":"85b5b118-e47b-4adc-aa0c-e9bbc2d708e9","system_id":"levelo_inurba_marseille","lat":43.27425,"lon":5.42427,"is_reserved":false,"is_disabled":false,"rental_uris":{"android":"levelo://app?vid=85b5b118-e47b-4adc-aa0c-e9bbc2d708e9","ios":"levelo://app?vid=85b5b118-e47b-4adc-aa0c-e9bbc2d708e9"},"vehicle_type_id":"4","last_reported":1773304250,"current_range_meters":19200,"station_id":"","pricing_plan_id":"cebpf4jnsgd1na2vs0mg"},{"bike_id":"58e00aef-9f33-4c05-87cc-f03d52bc9628","system_id":"levelo_inurba_marseille","lat":43.29049,"lon":5.39976,"is_reserved":false,"is_disabled":false,"rental_uris":{"android":"levelo://app?vid=58e00aef-9f33-4c05-87cc-f03d52bc9628","ios":"levelo://app?vid=58e00aef-9f33-4c05-87cc-f03d52bc9628"},"vehicle_type_id":"4","last_reported":1773304250,"current_range_meters":22800,"station_id":"ce4bh392rcd13ifvqdm0","pricing_plan_id":"cebpf4jnsgd1na2vs0mg"},{"bike_id":"532f1fe9-6384-4056-88f3-ddfdd084688a","system_id":"levelo_inurba_marseille","lat":43.28979,"lon":5.42582,"is_reserved":false,"is_disabled":false,"rental_uris":{"android":"levelo://app?vid=532f1fe9-6384-4056-88f3-ddfdd084688a","ios":"levelo://app?vid=532f1fe9-6384-4056-88f3-ddfdd084688a"},"vehicle_type_id":"4","last_reported":1773304250,"current_range_meters":32000,"station_id":"","pricing_plan_id":"cebpf4jnsgd1na2vs0mg"},{"bike_id":"2277c514-2ba1-4e5b-affb-cba00e72960b","system_id":"levelo_inurba_marseille","lat":43.29619,"lon":5.37722,"is_reserved":false,"is_disabled":false,"rental_uris":{"android":"levelo://app?vid=2277c514-2ba1-4e5b-affb-cba00e72960b","ios":"levelo://app?vid=2277c514-2ba1-4e5b-affb-cba00e72960b"},"vehicle_type_id":"4","last_reported":1773304250,"current_range_meters":10800,"station_id":"ce4bgi92rcd13ifvqb90","pricing_plan_id":"cebpf4jnsgd1na2vs0mg"},{"bike_id":"4c0ccf91-bafb-4cb2-ada9-07d388c5af7c","system_id":"levelo_inurba_marseille","lat":43.29622,"lon":5.37717,"is_reserved":false,"is_disabled":false,"rental_uris":{"android":"levelo://app?vid=4c0ccf91-bafb-4cb2-ada9-07d388c5af7c","ios":"levelo://app?vid=4c0ccf91-bafb-4cb2-ada9-07d388c5af7c"},"vehicle_type_id":"4","last_reported":1773304250,"current_range_meters":9200,"station_id":"ce4bgi92rcd13ifvqb90","pricing_plan_id":"cebpf4jnsgd1na2vs0mg"},{"bike_id":"9514db0d-5296-4e59-a96c-1113a72fd9e8","system_id":"levelo_inurba_marseille","lat":43.23196,"lon":5.39992,"is_reserved":false,"is_disabled":false,"rental_uris":{"android":"levelo://app?vid=9514db0d-5296-4e59-a96c-1113a72fd9e8","ios":"levelo://app?vid=9514db0d-5296-4e59-a96c-1113a72fd9e8"},"vehicle_type_id":"4","last_reported":1773304250,"current_range_meters":28800,"station_id":"ce4bhn12rcd13ifvqgqg","pricing_plan_id":"cebpf4jnsgd1na2vs0mg"},{"bike_id":"8ad13d94-8a14-494a-b1dc-20d3fa038a3a","system_id":"levelo_inurba_marseille","lat":43.24118,"lon":5.39803,"is_reserved":false,"is_disabled":false,"rental_uris":{"android":"levelo://app?vid=8ad13d94-8a14-494a-b1dc-20d3fa038a3a","ios":"levelo://app?vid=8ad13d94-8a14-494a-b1dc-20d3fa038a3a"},"vehicle_type_id":"4","last_reported":1773304250,"current_range_meters":30400,"station_id":"ce4bhn12rcd13ifvqgpg","pricing_plan_id":"cebpf4jnsgd1na2vs0mg"},{"bike_id":"5573f956-11e3-4687-aa68-ec18dbea97ad","system_id":"levelo_inurba_marseille","lat":43.25683,"lon":5.41118,"is_reserved":false,"is_disabled":false,"rental_uris":{"android":"levelo://app?vid=5573f956-11e3-4687-aa68-ec18dbea97ad","ios":"levelo://app?vid=5573f956-11e3-4687-aa68-ec18dbea97ad"},"vehicle_type_id":"4","last_reported":1773304250,"current_range_meters":10000,"station_id":"ce4bhkp2rcd13ifvqgd0","pricing_plan_id":"cebpf4jnsgd1na2vs0mg"},{"bike_id":"d10417da-18fa-464c-8c1a-3edbe1f03711","system_id":"levelo_inurba_marseille","lat":43.30139,"lon":5.37406,"is_reserved":false,"is_disabled":false,"rental_uris":{"android":"levelo://app?vid=d10417da-18fa-464c-8c1a-3edbe1f03711","ios":"levelo://app?vid=d10417da-18fa-464c-8c1a-3edbe1f03711"},"vehicle_type_id":"4","last_reported":1773304250,"current_range_meters":30000,"station_id":"ce4bgs92rcd13ifvqcc0","pricing_plan_id":"cebpf4jnsgd1na2vs0mg"},{"bike_id":"f086bfef-919c-47d1-b992-643fcdb40279","system_id":"levelo_inurba_marseille","lat":43.29718,"lon":5.37667,"is_reserved":false,"is_disabled":false,"rental_uris":{"android":"levelo://app?vid=f086bfef-919c-47d1-b992-643fcdb40279","ios":"levelo://app?vid=f086bfef-919c-47d1-b992-643fcdb40279"},"vehicle_type_id":"4","last_reported":1773304250,"current_range_meters":34800,"station_id":"ce4bgkh2rcd13ifvqbl0","pricing_plan_id":"cebpf4jnsgd1na2vs0mg"},{"bike_id":"e8cfc960-6b81-4fc9-81a5-40ee7862baf8","system_id":"levelo_inurba_marseille","lat":43.32021,"lon":5.4157,"is_reserved":false,"is_disabled":false,"rental_uris":{"android":"levelo://app?vid=e8cfc960-6b81-4fc9-81a5-40ee7862baf8","ios":"levelo://app?vid=e8cfc960-6b81-4fc9-81a5-40ee7862baf8"},"vehicle_type_id":"4","last_reported":1773304250,"current_range_meters":36400,"station_id":"ce4bhq92rcd13ifvqhkg","pricing_plan_id":"cebpf4jnsgd1na2vs0mg"},{"bike_id":"b94c3b6d-7912-4bb7-bd16-b874ff101a3d","system_id":"levelo_inurba_marseille","lat":43.24791,"lon":5.37454,"is_reserved":false,"is_disabled":false,"rental_uris":{"android":"levelo://app?vid=b94c3b6d-7912-4bb7-bd16-b874ff101a3d","ios":"levelo://app?vid=b94c3b6d-7912-4bb7-bd16-b874ff101a3d"},"vehicle_type_id":"4","last_reported":1773304250,"current_range_meters":26800,"station_id":"ce4bhgh2rcd13ifvqfb0","pricing_plan_id":"cebpf4jnsgd1na2vs0mg"},{"bike_id":"acf3f37d-c224-4635-8d04-0096fa9cc908","system_id":"levelo_inurba_marseille","lat":43.30386,"lon":5.42481,"is_reserved":false,"is_disabled":false,"rental_uris":{"android":"levelo://app?vid=acf3f37d-c224-4635-8d04-0096fa9cc908","ios":"levelo://app?vid=acf3f37d-c224-4635-8d04-0096fa9cc908"},"vehicle_type_id":"4","last_reported":1773304250,"current_range_meters":30800,"station_id":"ce4bhoh2rcd13ifvqh6g","pricing_plan_id":"cebpf4jnsgd1na2vs0mg"},{"bike_id":"1866c223-50ab-4283-b8a6-28a247e511e9","system_id":"levelo_inurba_marseille","lat":43.32991,"lon":5.39042,"is_reserved":false,"is_disabled":false,"rental_uris":{"android":"levelo://app?vid=1866c223-50ab-4283-b8a6-28a247e511e9","ios":"levelo://app?vid=1866c223-50ab-4283-b8a6-28a247e511e9"},"vehicle_type_id":"4","last_reported":1773304250,"current_range_meters":39200,"station_id":"ce4bhr92rcd13ifvqhrg","pricing_plan_id":"cebpf4jnsgd1na2vs0mg"},{"bike_id":"6994b374-5940-471e-a4f1-64d45a68f73b","system_id":"levelo_inurba_marseille","lat":43.29017,"lon":5.39965,"is_reserved":false,"is_disabled":false,"rental_uris":{"android":"levelo://app?vid=6994b374-5940-471e-a4f1-64d45a68f73b","ios":"levelo://app?vid=6994b374-5940-471e-a4f1-64d45a68f73b"},"vehicle_type_id":"4","last_reported":1773304250,"current_range_meters":39200,"station_id":"ce4bh392rcd13ifvqdm0","pricing_plan_id":"cebpf4jnsgd1na2vs0mg"},{"bike_id":"3a859f3a-22b6-4486-a6ee-6f262c3f2aa0","system_id":"levelo_inurba_marseille","lat":43.29019,"lon":5.39964,"is_reserved":false,"is_disabled":false,"rental_uris":{"android":"levelo://app?vid=3a859f3a-22b6-4486-a6ee-6f262c3f2aa0","ios":"levelo://app?vid=3a859f3a-22b6-4486-a6ee-6f262c3f2aa0"},"vehicle_type_id":"4","last_reported":1773304250,"current_range_meters":38400,"station_id":"ce4bh392rcd13ifvqdm0","pricing_plan_id":"cebpf4jnsgd1na2vs0mg"},{"bike_id":"1a067d96-050e-44a3-8b21-d8d3429506cc","system_id":"levelo_inurba_marseille","lat":43.27652,"lon":5.38963,"is_reserved":false,"is_disabled":false,"rental_uris":{"android":"levelo://app?vid=1a067d96-050e-44a3-8b21-d8d3429506cc","ios":"levelo://app?vid=1a067d96-050e-44a3-8b21-d8d3429506cc"},"vehicle_type_id":"4","last_reported":1773304250,"current_range_meters":39200,"station_id":"","pricing_plan_id":"cebpf4jnsgd1na2vs0mg"},{"bike_id":"74cb2b6f-9305-47f1-bb68-6c880d035389","system_id":"levelo_inurba_marseille","lat":43.29638,"lon":5.37145,"is_reserved":false,"is_disabled":false,"rental_uris":{"android":"levelo://app?vid=74cb2b6f-9305-47f1-bb68-6c880d035389","ios":"levelo://app?vid=74cb2b6f-9305-47f1-bb68-6c880d035389"},"vehicle_type_id":"4","last_reported":1773304250,"current_range_meters":38400,"station_id":"ce4bgnh2rcd13ifvqc0g","pricing_plan_id":"cebpf4jnsgd1na2vs0mg"},{"bike_id":"70014ff1-2570-4680-8d8c-6578de7f27e9","system_id":"levelo_inurba_marseille","lat":43.29713,"lon":5.37684,"is_reserved":false,"is_disabled":false,"rental_uris":{"android":"levelo://app?vid=70014ff1-2570-4680-8d8c-6578de7f27e9","ios":"levelo://app?vid=70014ff1-2570-4680-8d8c-6578de7f27e9"},"vehicle_type_id":"4","last_reported":1773304250,"current_range_meters":12400,"station_id":"ce4bgkh2rcd13ifvqbl0","pricing_plan_id":"cebpf4jnsgd1na2vs0mg"},{"bike_id":"3dc7668a-cf4b-469f-bd61-01ed382f3bda","system_id":"levelo_inurba_marseille","lat":43.25573,"lon":5.38247,"is_reserved":false,"is_disabled":false,"rental_uris":{"android":"levelo://app?vid=3dc7668a-cf4b-469f-bd61-01ed382f3bda","ios":"levelo://app?vid=3dc7668a-cf4b-469f-bd61-01ed382f3bda"},"vehicle_type_id":"4","last_reported":1773304250,"current_range_meters":31200,"station_id":"ce4bhih2rcd13ifvqfs0","pricing_plan_id":"cebpf4jnsgd1na2vs0mg"},{"bike_id":"d2bcd2b3-b9c0-44b8-b65e-328220c5307e","system_id":"levelo_inurba_marseille","lat":43.29116,"lon":5.43276,"is_reserved":false,"is_disabled":false,"rental_uris":{"android":"levelo://app?vid=d2bcd2b3-b9c0-44b8-b65e-328220c5307e","ios":"levelo://app?vid=d2bcd2b3-b9c0-44b8-b65e-328220c5307e"},"vehicle_type_id":"4","last_reported":1773304250,"current_range_meters":38800,"station_id":"","pricing_plan_id":"cebpf4jnsgd1na2vs0mg"},{"bike_id":"7d538e1b-80d7-4048-8273-aeb629a41021","system_id":"levelo_inurba_marseille","lat":43.33621,"lon":5.41032,"is_reserved":false,"is_disabled":false,"rental_uris":{"android":"levelo://app?vid=7d538e1b-80d7-4048-8273-aeb629a41021","ios":"levelo://app?vid=7d538e1b-80d7-4048-8273-aeb629a41021"},"vehicle_type_id":"4","last_reported":1773304250,"current_range_meters":38000,"station_id":"ce4bhqh2rcd13ifvqhmg","pricing_plan_id":"cebpf4jnsgd1na2vs0mg"},{"bike_id":"b8f4b9ea-cff0-4c69-82aa-0114c0bd8bea","system_id":"levelo_inurba_marseille","lat":43.25938,"lon":5.40903,"is_reserved":false,"is_disabled":false,"rental_uris":{"android":"levelo://app?vid=b8f4b9ea-cff0-4c69-82aa-0114c0bd8bea","ios":"levelo://app?vid=b8f4b9ea-cff0-4c69-82aa-0114c0bd8bea"},"vehicle_type_id":"4","last_reported":1773304250,"current_range_meters":30400,"station_id":"ce4bhm92rcd13ifvqglg","pricing_plan_id":"cebpf4jnsgd1na2vs0mg"},{"bike_id":"a50db47c-b4f2-4a58-ae7d-0a4f7384612e","system_id":"levelo_inurba_marseille","lat":43.30472,"lon":5.37913,"is_reserved":false,"is_disabled":false,"rental_uris":{"android":"levelo://app?vid=a50db47c-b4f2-4a58-ae7d-0a4f7384612e","ios":"levelo://app?vid=a50db47c-b4f2-4a58-ae7d-0a4f7384612e"},"vehicle_type_id":"4","last_reported":1773304250,"current_range_meters":33200,"station_id":"ce4bgup2rcd13ifvqcn0","pricing_plan_id":"cebpf4jnsgd1na2vs0mg"},{"bike_id":"896440e6-cef8-4268-bb86-ac2c6e2de747","system_id":"levelo_inurba_marseille","lat":43.28477,"lon":5.48403,"is_reserved":false,"is_disabled":false,"rental_uris":{"android":"levelo://app?vid=896440e6-cef8-4268-bb86-ac2c6e2de747","ios":"levelo://app?vid=896440e6-cef8-4268-bb86-ac2c6e2de747"},"vehicle_type_id":"4","last_reported":1773304250,"current_range_meters":28800,"station_id":"","pricing_plan_id":"cebpf4jnsgd1na2vs0mg"},{"bike_id":"38c92d2f-8b12-4925-83db-50c4a865862f","system_id":"levelo_inurba_marseille","lat":43.30193,"lon":5.38071,"is_reserved":false,"is_disabled":false,"rental_uris":{"android":"levelo://app?vid=38c92d2f-8b12-4925-83db-50c4a865862f","ios":"levelo://app?vid=38c92d2f-8b12-4925-83db-50c4a865862f"},"vehicle_type_id":"4","last_reported":1773304250,"current_range_meters":27600,"station_id":"","pricing_plan_id":"cebpf4jnsgd1na2vs0mg"},{"bike_id":"c7edf450-6aa2-45f0-bd13-d0472387380d","system_id":"levelo_inurba_marseille","lat":43.32538,"lon":5.4143,"is_reserved":false,"is_disabled":false,"rental_uris":{"android":"levelo://app?vid=c7edf450-6aa2-45f0-bd13-d0472387380d","ios":"levelo://app?vid=c7edf450-6aa2-45f0-bd13-d0472387380d"},"vehicle_type_id":"4","last_reported":1773304250,"current_range_meters":28000,"station_id":"ce4bhq12rcd13ifvqhhg","pricing_plan_id":"cebpf4jnsgd1na2vs0mg"},{"bike_id":"2c1215f2-9624-4e50-bbbb-a53264cdd31e","system_id":"levelo_inurba_marseille","lat":43.28475,"lon":5.48386,"is_reserved":false,"is_disabled":false,"rental_uris":{"android":"levelo://app?vid=2c1215f2-9624-4e50-bbbb-a53264cdd31e","ios":"levelo://app?vid=2c1215f2-9624-4e50-bbbb-a53264cdd31e"},"vehicle_type_id":"4","last_reported":1773304250,"current_range_meters":20000,"station_id":"","pricing_plan_id":"cebpf4jnsgd1na2vs0mg"},{"bike_id":"d3021de4-6e3a-44cd-95eb-48f8bb5c9c5b","system_id":"levelo_inurba_marseille","lat":43.3249,"lon":5.38296,"is_reserved":false,"is_disabled":false,"rental_uris":{"android":"levelo://app?vid=d3021de4-6e3a-44cd-95eb-48f8bb5c9c5b","ios":"levelo://app?vid=d3021de4-6e3a-44cd-95eb-48f8bb5c9c5b"},"vehicle_type_id":"4","last_reported":1773304250,"current_range_meters":28400,"station_id":"st_d4asgbiv49dc73anf9m0","pricing_plan_id":"cebpf4jnsgd1na2vs0mg"},{"bike_id":"c1db54c2-038e-4f3d-a503-c0e3fc6c96ed","system_id":"levelo_inurba_marseille","lat":43.33539,"lon":5.37471,"is_reserved":false,"is_disabled":false,"rental_uris":{"android":"levelo://app?vid=c1db54c2-038e-4f3d-a503-c0e3fc6c96ed","ios":"levelo://app?vid=c1db54c2-038e-4f3d-a503-c0e3fc6c96ed"},"vehicle_type_id":"4","last_reported":1773304250,"current_range_meters":14800,"station_id":"st_d46tts09ee8s73dlu43g","pricing_plan_id":"cebpf4jnsgd1na2vs0mg"},{"bike_id":"a0ab89fd-d4e3-4039-8377-577b0acf001d","system_id":"levelo_inurba_marseille","lat":43.24367,"lon":5.44099,"is_reserved":false,"is_disabled":true,"rental_uris":{"android":"levelo://app?vid=a0ab89fd-d4e3-4039-8377-577b0acf001d","ios":"levelo://app?vid=a0ab89fd-d4e3-4039-8377-577b0acf001d"},"vehicle_type_id":"4","last_reported":1773304250,"current_range_meters":8800,"station_id":"","pricing_plan_id":"cebpf4jnsgd1na2vs0mg"},{"bike_id":"6fb95fc6-417d-4a7b-b380-4768b101e832","system_id":"levelo_inurba_marseille","lat":43.30914,"lon":5.36855,"is_reserved":false,"is_disabled":false,"rental_uris":{"android":"levelo://app?vid=6fb95fc6-417d-4a7b-b380-4768b101e832","ios":"levelo://app?vid=6fb95fc6-417d-4a7b-b380-4768b101e832"},"vehicle_type_id":"4","last_reported":1773304250,"current_range_meters":35200,"station_id":"ce4bgn92rcd13ifvqbvg","pricing_plan_id":"cebpf4jnsgd1na2vs0mg"},{"bike_id":"c2216d2f-320b-47b8-a671-325fea966310","system_id":"levelo_inurba_marseille","lat":43.30496,"lon":5.37888,"is_reserved":false,"is_disabled":false,"rental_uris":{"android":"levelo://app?vid=c2216d2f-320b-47b8-a671-325fea966310","ios":"levelo://app?vid=c2216d2f-320b-47b8-a671-325fea966310"},"vehicle_type_id":"4","last_reported":1773304250,"current_range_meters":39200,"station_id":"ce4bgup2rcd13ifvqcn0","pricing_plan_id":"cebpf4jnsgd1na2vs0mg"},{"bike_id":"b0582740-1de1-4a42-8551-6424ab811d11","system_id":"levelo_inurba_marseille","lat":43.26774,"lon":5.39422,"is_reserved":false,"is_disabled":true,"rental_uris":{"android":"levelo://app?vid=b0582740-1de1-4a42-8551-6424ab811d11","ios":"levelo://app?vid=b0582740-1de1-4a42-8551-6424ab811d11"},"vehicle_type_id":"4","last_reported":1773304250,"current_range_meters":38400,"station_id":"ce4bhh12rcd13ifvqfg0","pricing_plan_id":"cebpf4jnsgd1na2vs0mg"},{"bike_id":"074abf32-ac3f-4657-8880-be02438a7ff0","system_id":"levelo_inurba_marseille","lat":43.23197,"lon":5.39991,"is_reserved":false,"is_disabled":false,"rental_uris":{"android":"levelo://app?vid=074abf32-ac3f-4657-8880-be02438a7ff0","ios":"levelo://app?vid=074abf32-ac3f-4657-8880-be02438a7ff0"},"vehicle_type_id":"4","last_reported":1773304250,"current_range_meters":38000,"station_id":"ce4bhn12rcd13ifvqgqg","pricing_plan_id":"cebpf4jnsgd1na2vs0mg"},{"bike_id":"7ffaea73-40b6-4070-a110-9ca9f0cb40a4","system_id":"levelo_inurba_marseille","lat":43.29901,"lon":5.38162,"is_reserved":false,"is_disabled":false,"rental_uris":{"android":"levelo://app?vid=7ffaea73-40b6-4070-a110-9ca9f0cb40a4","ios":"levelo://app?vid=7ffaea73-40b6-4070-a110-9ca9f0cb40a4"},"vehicle_type_id":"4","last_reported":1773304250,"current_range_meters":39200,"station_id":"ce4bgj12rcd13ifvqbc0","pricing_plan_id":"cebpf4jnsgd1na2vs0mg"},{"bike_id":"e8b7d766-9ece-4870-a1b8-5b316a1b8e67","system_id":"levelo_inurba_marseille","lat":43.22561,"lon":5.41624,"is_reserved":false,"is_disabled":false,"rental_uris":{"android":"levelo://app?vid=e8b7d766-9ece-4870-a1b8-5b316a1b8e67","ios":"levelo://app?vid=e8b7d766-9ece-4870-a1b8-5b316a1b8e67"},"vehicle_type_id":"4","last_reported":1773304250,"current_range_meters":16000,"station_id":"st_d2o4gvlbi1j2169b742g","pricing_plan_id":"cebpf4jnsgd1na2vs0mg"},{"bike_id":"3ec29e2e-9f07-482a-be09-30e539a4dc16","system_id":"levelo_inurba_marseille","lat":43.27821,"lon":5.40744,"is_reserved":false,"is_disabled":true,"rental_uris":{"android":"levelo://app?vid=3ec29e2e-9f07-482a-be09-30e539a4dc16","ios":"levelo://app?vid=3ec29e2e-9f07-482a-be09-30e539a4dc16"},"vehicle_type_id":"4","last_reported":1773304250,"current_range_meters":38400,"station_id":"ce4bhnh2rcd13ifvqgtg","pricing_plan_id":"cebpf4jnsgd1na2vs0mg"},{"bike_id":"7fec08d5-ee68-460a-ac18-925555054430","system_id":"levelo_inurba_marseille","lat":43.24166,"lon":5.36413,"is_reserved":false,"is_disabled":false,"rental_uris":{"android":"levelo://app?vid=7fec08d5-ee68-460a-ac18-925555054430","ios":"levelo://app?vid=7fec08d5-ee68-460a-ac18-925555054430"},"vehicle_type_id":"4","last_reported":1773304250,"current_range_meters":13600,"station_id":"cpo36qri1sfpv3e86is0","pricing_plan_id":"cebpf4jnsgd1na2vs0mg"},{"bike_id":"3ecf70a0-cb4b-4cf0-a67e-bc48de80fe63","system_id":"levelo_inurba_marseille","lat":43.30153,"lon":5.38083,"is_reserved":false,"is_disabled":false,"rental_uris":{"android":"levelo://app?vid=3ecf70a0-cb4b-4cf0-a67e-bc48de80fe63","ios":"levelo://app?vid=3ecf70a0-cb4b-4cf0-a67e-bc48de80fe63"},"vehicle_type_id":"4","last_reported":1773304250,"current_range_meters":34800,"station_id":"ce4bgjp2rcd13ifvqbh0","pricing_plan_id":"cebpf4jnsgd1na2vs0mg"},{"bike_id":"78c33cbb-a58c-42be-8521-cd5d3ca77cea","system_id":"levelo_inurba_marseille","lat":43.23362,"lon":5.41245,"is_reserved":false,"is_disabled":false,"rental_uris":{"android":"levelo://app?vid=78c33cbb-a58c-42be-8521-cd5d3ca77cea","ios":"levelo://app?vid=78c33cbb-a58c-42be-8521-cd5d3ca77cea"},"vehicle_type_id":"4","last_reported":1773304250,"current_range_meters":10000,"station_id":"","pricing_plan_id":"cebpf4jnsgd1na2vs0mg"},{"bike_id":"7d60e954-8740-4b77-8b08-34d5244da699","system_id":"levelo_inurba_marseille","lat":43.30152,"lon":5.37399,"is_reserved":false,"is_disabled":false,"rental_uris":{"android":"levelo://app?vid=7d60e954-8740-4b77-8b08-34d5244da699","ios":"levelo://app?vid=7d60e954-8740-4b77-8b08-34d5244da699"},"vehicle_type_id":"4","last_reported":1773304250,"current_range_meters":10000,"station_id":"ce4bgs92rcd13ifvqcc0","pricing_plan_id":"cebpf4jnsgd1na2vs0mg"},{"bike_id":"e50c6797-fb66-441b-97d0-c7fbbc3eb9c6","system_id":"levelo_inurba_marseille","lat":43.31745,"lon":5.43694,"is_reserved":false,"is_disabled":false,"rental_uris":{"android":"levelo://app?vid=e50c6797-fb66-441b-97d0-c7fbbc3eb9c6","ios":"levelo://app?vid=e50c6797-fb66-441b-97d0-c7fbbc3eb9c6"},"vehicle_type_id":"4","last_reported":1773304250,"current_range_meters":26800,"station_id":"ce4bhp92rcd13ifvqhcg","pricing_plan_id":"cebpf4jnsgd1na2vs0mg"},{"bike_id":"d936ee88-e6c5-41eb-94c9-c0f089a32b91","system_id":"levelo_inurba_marseille","lat":43.31182,"lon":5.37721,"is_reserved":false,"is_disabled":false,"rental_uris":{"android":"levelo://app?vid=d936ee88-e6c5-41eb-94c9-c0f089a32b91","ios":"levelo://app?vid=d936ee88-e6c5-41eb-94c9-c0f089a32b91"},"vehicle_type_id":"4","last_reported":1773304250,"current_range_meters":30000,"station_id":"","pricing_plan_id":"cebpf4jnsgd1na2vs0mg"},{"bike_id":"ae4e4d86-c7ed-495f-ae90-503c78b29086","system_id":"levelo_inurba_marseille","lat":43.292701,"lon":5.368457,"is_reserved":false,"is_disabled":false,"rental_uris":{"android":"levelo://app?vid=ae4e4d86-c7ed-495f-ae90-503c78b29086","ios":"levelo://app?vid=ae4e4d86-c7ed-495f-ae90-503c78b29086"},"vehicle_type_id":"4","last_reported":1773304250,"current_range_meters":16400,"station_id":"ce4bhbp2rcd13ifvqesg","pricing_plan_id":"cebpf4jnsgd1na2vs0mg"},{"bike_id":"28368de5-f99a-4131-872b-db4b9c333326","system_id":"levelo_inurba_marseille","lat":43.27823,"lon":5.40714,"is_reserved":false,"is_disabled":false,"rental_uris":{"android":"levelo://app?vid=28368de5-f99a-4131-872b-db4b9c333326","ios":"levelo://app?vid=28368de5-f99a-4131-872b-db4b9c333326"},"vehicle_type_id":"4","last_reported":1773304250,"current_range_meters":37600,"station_id":"ce4bhnh2rcd13ifvqgtg","pricing_plan_id":"cebpf4jnsgd1na2vs0mg"},{"bike_id":"2b281f2c-6ea4-4b7a-bc6b-ab7b54f4217b","system_id":"levelo_inurba_marseille","lat":43.31183,"lon":5.36866,"is_reserved":false,"is_disabled":false,"rental_uris":{"android":"levelo://app?vid=2b281f2c-6ea4-4b7a-bc6b-ab7b54f4217b","ios":"levelo://app?vid=2b281f2c-6ea4-4b7a-bc6b-ab7b54f4217b"},"vehicle_type_id":"4","last_reported":1773304250,"current_range_meters":27600,"station_id":"ce4bgl92rcd13ifvqbq0","pricing_plan_id":"cebpf4jnsgd1na2vs0mg"},{"bike_id":"7c5d90d1-8ba7-4d11-a859-9263fa5d367b","system_id":"levelo_inurba_marseille","lat":43.337444,"lon":5.374475,"is_reserved":false,"is_disabled":true,"rental_uris":{"android":"levelo://app?vid=7c5d90d1-8ba7-4d11-a859-9263fa5d367b","ios":"levelo://app?vid=7c5d90d1-8ba7-4d11-a859-9263fa5d367b"},"vehicle_type_id":"4","last_reported":1773304250,"current_range_meters":8400,"station_id":"","pricing_plan_id":"cebpf4jnsgd1na2vs0mg"},{"bike_id":"7d14355d-4518-4b4f-b3ee-50f9581b0bb7","system_id":"levelo_inurba_marseille","lat":43.28431,"lon":5.39177,"is_reserved":false,"is_disabled":false,"rental_uris":{"android":"levelo://app?vid=7d14355d-4518-4b4f-b3ee-50f9581b0bb7","ios":"levelo://app?vid=7d14355d-4518-4b4f-b3ee-50f9581b0bb7"},"vehicle_type_id":"4","last_reported":1773304250,"current_range_meters":39200,"station_id":"ce4bhoh2rcd13ifvqh5g","pricing_plan_id":"cebpf4jnsgd1na2vs0mg"},{"bike_id":"50a73f54-c66b-4c80-91d3-9ed072d24bd4","system_id":"levelo_inurba_marseille","lat":43.290796,"lon":5.381359,"is_reserved":false,"is_disabled":false,"rental_uris":{"android":"levelo://app?vid=50a73f54-c66b-4c80-91d3-9ed072d24bd4","ios":"levelo://app?vid=50a73f54-c66b-4c80-91d3-9ed072d24bd4"},"vehicle_type_id":"4","last_reported":1773304250,"current_range_meters":28400,"station_id":"ce4bh512rcd13ifvqe2g","pricing_plan_id":"cebpf4jnsgd1na2vs0mg"},{"bike_id":"2747c85c-374e-45b4-84a4-d941c63b9167","system_id":"levelo_inurba_marseille","lat":43.31346,"lon":5.38494,"is_reserved":false,"is_disabled":false,"rental_uris":{"android":"levelo://app?vid=2747c85c-374e-45b4-84a4-d941c63b9167","ios":"levelo://app?vid=2747c85c-374e-45b4-84a4-d941c63b9167"},"vehicle_type_id":"4","last_reported":1773304250,"current_range_meters":39200,"station_id":"ce4bgt92rcd13ifvqcf0","pricing_plan_id":"cebpf4jnsgd1na2vs0mg"},{"bike_id":"3107859d-1495-4aad-80eb-703d2e7dc114","system_id":"levelo_inurba_marseille","lat":43.28612,"lon":5.37052,"is_reserved":false,"is_disabled":false,"rental_uris":{"android":"levelo://app?vid=3107859d-1495-4aad-80eb-703d2e7dc114","ios":"levelo://app?vid=3107859d-1495-4aad-80eb-703d2e7dc114"},"vehicle_type_id":"4","last_reported":1773304250,"current_range_meters":39200,"station_id":"ce4bht12rcd13ifvqi60","pricing_plan_id":"cebpf4jnsgd1na2vs0mg"},{"bike_id":"f62cbee2-12e5-4cdd-bfbc-04088f9f32fa","system_id":"levelo_inurba_marseille","lat":43.28487,"lon":5.48392,"is_reserved":false,"is_disabled":false,"rental_uris":{"android":"levelo://app?vid=f62cbee2-12e5-4cdd-bfbc-04088f9f32fa","ios":"levelo://app?vid=f62cbee2-12e5-4cdd-bfbc-04088f9f32fa"},"vehicle_type_id":"4","last_reported":1773304250,"current_range_meters":16800,"station_id":"","pricing_plan_id":"cebpf4jnsgd1na2vs0mg"},{"bike_id":"a1ee4bc1-20db-4069-813e-4305e4870a79","system_id":"levelo_inurba_marseille","lat":43.2909,"lon":5.38143,"is_reserved":false,"is_disabled":false,"rental_uris":{"android":"levelo://app?vid=a1ee4bc1-20db-4069-813e-4305e4870a79","ios":"levelo://app?vid=a1ee4bc1-20db-4069-813e-4305e4870a79"},"vehicle_type_id":"4","last_reported":1773304250,"current_range_meters":23200,"station_id":"ce4bh512rcd13ifvqe2g","pricing_plan_id":"cebpf4jnsgd1na2vs0mg"},{"bike_id":"799ed459-1dc6-46c4-bc88-3ab1e80d0be4","system_id":"levelo_inurba_marseille","lat":43.28676,"lon":5.40015,"is_reserved":false,"is_disabled":false,"rental_uris":{"android":"levelo://app?vid=799ed459-1dc6-46c4-bc88-3ab1e80d0be4","ios":"levelo://app?vid=799ed459-1dc6-46c4-bc88-3ab1e80d0be4"},"vehicle_type_id":"4","last_reported":1773304250,"current_range_meters":37600,"station_id":"ce4bho92rcd13ifvqh3g","pricing_plan_id":"cebpf4jnsgd1na2vs0mg"},{"bike_id":"19789858-1ce6-4714-be96-8a45f06c1294","system_id":"levelo_inurba_marseille","lat":43.29559,"lon":5.42272,"is_reserved":false,"is_disabled":false,"rental_uris":{"android":"levelo://app?vid=19789858-1ce6-4714-be96-8a45f06c1294","ios":"levelo://app?vid=19789858-1ce6-4714-be96-8a45f06c1294"},"vehicle_type_id":"4","last_reported":1773304250,"current_range_meters":39200,"station_id":"ce4bhph2rcd13ifvqhdg","pricing_plan_id":"cebpf4jnsgd1na2vs0mg"},{"bike_id":"681fca49-d7d0-4d64-ba5f-a1615360789c","system_id":"levelo_inurba_marseille","lat":43.25812,"lon":5.39467,"is_reserved":false,"is_disabled":false,"rental_uris":{"android":"levelo://app?vid=681fca49-d7d0-4d64-ba5f-a1615360789c","ios":"levelo://app?vid=681fca49-d7d0-4d64-ba5f-a1615360789c"},"vehicle_type_id":"4","last_reported":1773304250,"current_range_meters":33600,"station_id":"ce4bhip2rcd13ifvqft0","pricing_plan_id":"cebpf4jnsgd1na2vs0mg"},{"bike_id":"0c140bc2-c84c-4f19-bcf3-8b2008304a8e","system_id":"levelo_inurba_marseille","lat":43.27325,"lon":5.39118,"is_reserved":false,"is_disabled":false,"rental_uris":{"android":"levelo://app?vid=0c140bc2-c84c-4f19-bcf3-8b2008304a8e","ios":"levelo://app?vid=0c140bc2-c84c-4f19-bcf3-8b2008304a8e"},"vehicle_type_id":"4","last_reported":1773304250,"current_range_meters":3600,"station_id":"ce4bhgp2rcd13ifvqfe0","pricing_plan_id":"cebpf4jnsgd1na2vs0mg"},{"bike_id":"45ee731d-7a69-4d02-a2f6-7d85942ec4fa","system_id":"levelo_inurba_marseille","lat":43.31187,"lon":5.36853,"is_reserved":false,"is_disabled":false,"rental_uris":{"android":"levelo://app?vid=45ee731d-7a69-4d02-a2f6-7d85942ec4fa","ios":"levelo://app?vid=45ee731d-7a69-4d02-a2f6-7d85942ec4fa"},"vehicle_type_id":"4","last_reported":1773304250,"current_range_meters":36800,"station_id":"ce4bgl92rcd13ifvqbq0","pricing_plan_id":"cebpf4jnsgd1na2vs0mg"},{"bike_id":"ba3a231f-10a0-4302-b0e7-08f11861cd04","system_id":"levelo_inurba_marseille","lat":43.28475,"lon":5.48389,"is_reserved":false,"is_disabled":false,"rental_uris":{"android":"levelo://app?vid=ba3a231f-10a0-4302-b0e7-08f11861cd04","ios":"levelo://app?vid=ba3a231f-10a0-4302-b0e7-08f11861cd04"},"vehicle_type_id":"4","last_reported":1773304250,"current_range_meters":36800,"station_id":"","pricing_plan_id":"cebpf4jnsgd1na2vs0mg"},{"bike_id":"2f280020-4fd0-4c35-a3e5-87e99fea2ecd","system_id":"levelo_inurba_marseille","lat":43.29603,"lon":5.37721,"is_reserved":false,"is_disabled":false,"rental_uris":{"android":"levelo://app?vid=2f280020-4fd0-4c35-a3e5-87e99fea2ecd","ios":"levelo://app?vid=2f280020-4fd0-4c35-a3e5-87e99fea2ecd"},"vehicle_type_id":"4","last_reported":1773304250,"current_range_meters":30400,"station_id":"ce4bgi92rcd13ifvqb90","pricing_plan_id":"cebpf4jnsgd1na2vs0mg"},{"bike_id":"3e512c2d-1711-4b69-b13a-4fdd4d403888","system_id":"levelo_inurba_marseille","lat":43.24187,"lon":5.39718,"is_reserved":false,"is_disabled":false,"rental_uris":{"android":"levelo://app?vid=3e512c2d-1711-4b69-b13a-4fdd4d403888","ios":"levelo://app?vid=3e512c2d-1711-4b69-b13a-4fdd4d403888"},"vehicle_type_id":"4","last_reported":1773304250,"current_range_meters":25200,"station_id":"ce4bhn12rcd13ifvqgpg","pricing_plan_id":"cebpf4jnsgd1na2vs0mg"},{"bike_id":"be671c5b-fb45-47d4-8232-4da9e39592ca","system_id":"levelo_inurba_marseille","lat":43.24152,"lon":5.36424,"is_reserved":false,"is_disabled":false,"rental_uris":{"android":"levelo://app?vid=be671c5b-fb45-47d4-8232-4da9e39592ca","ios":"levelo://app?vid=be671c5b-fb45-47d4-8232-4da9e39592ca"},"vehicle_type_id":"4","last_reported":1773304250,"current_range_meters":17200,"station_id":"cpo36qri1sfpv3e86is0","pricing_plan_id":"cebpf4jnsgd1na2vs0mg"},{"bike_id":"352c9f7d-89b4-42e5-9e2e-76d972a274bd","system_id":"levelo_inurba_marseille","lat":43.28906,"lon":5.43251,"is_reserved":false,"is_disabled":false,"rental_uris":{"android":"levelo://app?vid=352c9f7d-89b4-42e5-9e2e-76d972a274bd","ios":"levelo://app?vid=352c9f7d-89b4-42e5-9e2e-76d972a274bd"},"vehicle_type_id":"4","last_reported":1773304250,"current_range_meters":8400,"station_id":"","pricing_plan_id":"cebpf4jnsgd1na2vs0mg"},{"bike_id":"8095d99b-77e2-403b-90e4-77fb486014bb","system_id":"levelo_inurba_marseille","lat":43.30345,"lon":5.41886,"is_reserved":false,"is_disabled":false,"rental_uris":{"android":"levelo://app?vid=8095d99b-77e2-403b-90e4-77fb486014bb","ios":"levelo://app?vid=8095d99b-77e2-403b-90e4-77fb486014bb"},"vehicle_type_id":"4","last_reported":1773304250,"current_range_meters":39200,"station_id":"ce4bhop2rcd13ifvqh7g","pricing_plan_id":"cebpf4jnsgd1na2vs0mg"},{"bike_id":"2f62903c-1ac0-407f-97e8-2aace392e622","system_id":"levelo_inurba_marseille","lat":43.26928,"lon":5.38689,"is_reserved":false,"is_disabled":false,"rental_uris":{"android":"levelo://app?vid=2f62903c-1ac0-407f-97e8-2aace392e622","ios":"levelo://app?vid=2f62903c-1ac0-407f-97e8-2aace392e622"},"vehicle_type_id":"4","last_reported":1773304250,"current_range_meters":7200,"station_id":"ce4bhh92rcd13ifvqfh0","pricing_plan_id":"cebpf4jnsgd1na2vs0mg"},{"bike_id":"c59a5209-1b70-42df-8250-859beecf23e1","system_id":"levelo_inurba_marseille","lat":43.232,"lon":5.35553,"is_reserved":false,"is_disabled":false,"rental_uris":{"android":"levelo://app?vid=c59a5209-1b70-42df-8250-859beecf23e1","ios":"levelo://app?vid=c59a5209-1b70-42df-8250-859beecf23e1"},"vehicle_type_id":"4","last_reported":1773304250,"current_range_meters":37600,"station_id":"ce4bhu92rcd13ifvqi70","pricing_plan_id":"cebpf4jnsgd1na2vs0mg"},{"bike_id":"8ecc944a-3971-4591-ae66-55fc4ddd9154","system_id":"levelo_inurba_marseille","lat":43.30905,"lon":5.36842,"is_reserved":false,"is_disabled":false,"rental_uris":{"android":"levelo://app?vid=8ecc944a-3971-4591-ae66-55fc4ddd9154","ios":"levelo://app?vid=8ecc944a-3971-4591-ae66-55fc4ddd9154"},"vehicle_type_id":"4","last_reported":1773304250,"current_range_meters":33600,"station_id":"ce4bgn92rcd13ifvqbvg","pricing_plan_id":"cebpf4jnsgd1na2vs0mg"},{"bike_id":"fed428a6-a508-4132-94d7-783075e10fe3","system_id":"levelo_inurba_marseille","lat":43.32365,"lon":5.3671,"is_reserved":false,"is_disabled":false,"rental_uris":{"android":"levelo://app?vid=fed428a6-a508-4132-94d7-783075e10fe3","ios":"levelo://app?vid=fed428a6-a508-4132-94d7-783075e10fe3"},"vehicle_type_id":"4","last_reported":1773304250,"current_range_meters":32000,"station_id":"","pricing_plan_id":"cebpf4jnsgd1na2vs0mg"},{"bike_id":"4b8a1996-ed7a-4a25-bdf6-a383b894a1dd","system_id":"levelo_inurba_marseille","lat":43.29253,"lon":5.37624,"is_reserved":false,"is_disabled":false,"rental_uris":{"android":"levelo://app?vid=4b8a1996-ed7a-4a25-bdf6-a383b894a1dd","ios":"levelo://app?vid=4b8a1996-ed7a-4a25-bdf6-a383b894a1dd"},"vehicle_type_id":"4","last_reported":1773304250,"current_range_meters":20400,"station_id":"ce4bgi12rcd13ifvqb80","pricing_plan_id":"cebpf4jnsgd1na2vs0mg"},{"bike_id":"fc45e36d-ff5a-41fc-9ed2-034fb423b782","system_id":"levelo_inurba_marseille","lat":43.27307,"lon":5.39118,"is_reserved":false,"is_disabled":false,"rental_uris":{"android":"levelo://app?vid=fc45e36d-ff5a-41fc-9ed2-034fb423b782","ios":"levelo://app?vid=fc45e36d-ff5a-41fc-9ed2-034fb423b782"},"vehicle_type_id":"4","last_reported":1773304250,"current_range_meters":33600,"station_id":"ce4bhgp2rcd13ifvqfe0","pricing_plan_id":"cebpf4jnsgd1na2vs0mg"},{"bike_id":"937b53e7-b522-4866-a8c3-ff1dc27a0b58","system_id":"levelo_inurba_marseille","lat":43.31528,"lon":5.38046,"is_reserved":false,"is_disabled":false,"rental_uris":{"android":"levelo://app?vid=937b53e7-b522-4866-a8c3-ff1dc27a0b58","ios":"levelo://app?vid=937b53e7-b522-4866-a8c3-ff1dc27a0b58"},"vehicle_type_id":"4","last_reported":1773304250,"current_range_meters":30400,"station_id":"ce4bhsp2rcd13ifvqi50","pricing_plan_id":"cebpf4jnsgd1na2vs0mg"},{"bike_id":"a6308c57-1a36-41de-bb48-5ab4640b043f","system_id":"levelo_inurba_marseille","lat":43.29584,"lon":5.36748,"is_reserved":false,"is_disabled":false,"rental_uris":{"android":"levelo://app?vid=a6308c57-1a36-41de-bb48-5ab4640b043f","ios":"levelo://app?vid=a6308c57-1a36-41de-bb48-5ab4640b043f"},"vehicle_type_id":"4","last_reported":1773304250,"current_range_meters":24000,"station_id":"ce4bgph2rcd13ifvqc2g","pricing_plan_id":"cebpf4jnsgd1na2vs0mg"},{"bike_id":"87cd554a-14b8-4616-b3dc-349497fb5096","system_id":"levelo_inurba_marseille","lat":43.29031,"lon":5.39975,"is_reserved":false,"is_disabled":false,"rental_uris":{"android":"levelo://app?vid=87cd554a-14b8-4616-b3dc-349497fb5096","ios":"levelo://app?vid=87cd554a-14b8-4616-b3dc-349497fb5096"},"vehicle_type_id":"4","last_reported":1773304250,"current_range_meters":30000,"station_id":"ce4bh392rcd13ifvqdm0","pricing_plan_id":"cebpf4jnsgd1na2vs0mg"},{"bike_id":"e8e891cf-164b-4375-8667-e5eaa1ef09df","system_id":"levelo_inurba_marseille","lat":43.31736,"lon":5.39058,"is_reserved":false,"is_disabled":false,"rental_uris":{"android":"levelo://app?vid=e8e891cf-164b-4375-8667-e5eaa1ef09df","ios":"levelo://app?vid=e8e891cf-164b-4375-8667-e5eaa1ef09df"},"vehicle_type_id":"4","last_reported":1773304250,"current_range_meters":36000,"station_id":"ce4bhqp2rcd13ifvqhng","pricing_plan_id":"cebpf4jnsgd1na2vs0mg"},{"bike_id":"77044ba6-284b-43f3-8fd5-1abc415f09db","system_id":"levelo_inurba_marseille","lat":43.25575,"lon":5.38233,"is_reserved":false,"is_disabled":false,"rental_uris":{"android":"levelo://app?vid=77044ba6-284b-43f3-8fd5-1abc415f09db","ios":"levelo://app?vid=77044ba6-284b-43f3-8fd5-1abc415f09db"},"vehicle_type_id":"4","last_reported":1773304250,"current_range_meters":35600,"station_id":"ce4bhih2rcd13ifvqfs0","pricing_plan_id":"cebpf4jnsgd1na2vs0mg"},{"bike_id":"a540b441-3928-4042-84dc-78cbd8de6fd0","system_id":"levelo_inurba_marseille","lat":43.24443,"lon":5.37048,"is_reserved":false,"is_disabled":false,"rental_uris":{"android":"levelo://app?vid=a540b441-3928-4042-84dc-78cbd8de6fd0","ios":"levelo://app?vid=a540b441-3928-4042-84dc-78cbd8de6fd0"},"vehicle_type_id":"4","last_reported":1773304250,"current_range_meters":30800,"station_id":"","pricing_plan_id":"cebpf4jnsgd1na2vs0mg"},{"bike_id":"32bd028c-4df1-4648-ba2a-263dd3d46a56","system_id":"levelo_inurba_marseille","lat":43.27674,"lon":5.38879,"is_reserved":false,"is_disabled":false,"rental_uris":{"android":"levelo://app?vid=32bd028c-4df1-4648-ba2a-263dd3d46a56","ios":"levelo://app?vid=32bd028c-4df1-4648-ba2a-263dd3d46a56"},"vehicle_type_id":"4","last_reported":1773304250,"current_range_meters":38800,"station_id":"ce4bhi12rcd13ifvqfo0","pricing_plan_id":"cebpf4jnsgd1na2vs0mg"},{"bike_id":"08131f05-e3b5-4642-99ed-147f9e94babc","system_id":"levelo_inurba_marseille","lat":43.29633,"lon":5.37716,"is_reserved":false,"is_disabled":false,"rental_uris":{"android":"levelo://app?vid=08131f05-e3b5-4642-99ed-147f9e94babc","ios":"levelo://app?vid=08131f05-e3b5-4642-99ed-147f9e94babc"},"vehicle_type_id":"4","last_reported":1773304250,"current_range_meters":28000,"station_id":"ce4bgi92rcd13ifvqb90","pricing_plan_id":"cebpf4jnsgd1na2vs0mg"},{"bike_id":"f09bf0e2-856c-4852-991d-8bb38054f10c","system_id":"levelo_inurba_marseille","lat":43.24064,"lon":5.37763,"is_reserved":false,"is_disabled":false,"rental_uris":{"android":"levelo://app?vid=f09bf0e2-856c-4852-991d-8bb38054f10c","ios":"levelo://app?vid=f09bf0e2-856c-4852-991d-8bb38054f10c"},"vehicle_type_id":"4","last_reported":1773304250,"current_range_meters":31200,"station_id":"ce4bhnp2rcd13ifvqgvg","pricing_plan_id":"cebpf4jnsgd1na2vs0mg"},{"bike_id":"43bc1bbd-0d36-4423-8a22-c8dc4e1955ca","system_id":"levelo_inurba_marseille","lat":43.30164,"lon":5.38073,"is_reserved":false,"is_disabled":false,"rental_uris":{"android":"levelo://app?vid=43bc1bbd-0d36-4423-8a22-c8dc4e1955ca","ios":"levelo://app?vid=43bc1bbd-0d36-4423-8a22-c8dc4e1955ca"},"vehicle_type_id":"4","last_reported":1773304250,"current_range_meters":32400,"station_id":"ce4bgjp2rcd13ifvqbh0","pricing_plan_id":"cebpf4jnsgd1na2vs0mg"},{"bike_id":"4647bd8c-2a64-4024-bb27-57172580053c","system_id":"levelo_inurba_marseille","lat":43.26951,"lon":5.40257,"is_reserved":false,"is_disabled":false,"rental_uris":{"android":"levelo://app?vid=4647bd8c-2a64-4024-bb27-57172580053c","ios":"levelo://app?vid=4647bd8c-2a64-4024-bb27-57172580053c"},"vehicle_type_id":"4","last_reported":1773304250,"current_range_meters":19200,"station_id":"cjm6bp8fraef2m0cb0m0","pricing_plan_id":"cebpf4jnsgd1na2vs0mg"},{"bike_id":"412ebc32-5589-4f6e-8ac6-13ac9134d8c4","system_id":"levelo_inurba_marseille","lat":43.279694,"lon":5.387333,"is_reserved":false,"is_disabled":true,"rental_uris":{"android":"levelo://app?vid=412ebc32-5589-4f6e-8ac6-13ac9134d8c4","ios":"levelo://app?vid=412ebc32-5589-4f6e-8ac6-13ac9134d8c4"},"vehicle_type_id":"4","last_reported":1773304250,"current_range_meters":10000,"station_id":"ce4bhg12rcd13ifvqf80","pricing_plan_id":"cebpf4jnsgd1na2vs0mg"},{"bike_id":"49180d75-c6b9-4945-8a4e-8dd802a3ed5d","system_id":"levelo_inurba_marseille","lat":43.285,"lon":5.38411,"is_reserved":false,"is_disabled":true,"rental_uris":{"android":"levelo://app?vid=49180d75-c6b9-4945-8a4e-8dd802a3ed5d","ios":"levelo://app?vid=49180d75-c6b9-4945-8a4e-8dd802a3ed5d"},"vehicle_type_id":"4","last_reported":1773304250,"current_range_meters":0,"station_id":"ce4bh512rcd13ifvqe3g","pricing_plan_id":"cebpf4jnsgd1na2vs0mg"},{"bike_id":"9c37c959-e40e-4036-bb6d-05b7579986fd","system_id":"levelo_inurba_marseille","lat":43.23235,"lon":5.35562,"is_reserved":false,"is_disabled":false,"rental_uris":{"android":"levelo://app?vid=9c37c959-e40e-4036-bb6d-05b7579986fd","ios":"levelo://app?vid=9c37c959-e40e-4036-bb6d-05b7579986fd"},"vehicle_type_id":"4","last_reported":1773304250,"current_range_meters":30000,"station_id":"ce4bhu92rcd13ifvqi70","pricing_plan_id":"cebpf4jnsgd1na2vs0mg"},{"bike_id":"aae9161a-0eb3-4953-8483-659e8e0544a0","system_id":"levelo_inurba_marseille","lat":43.25864,"lon":5.39903,"is_reserved":false,"is_disabled":false,"rental_uris":{"android":"levelo://app?vid=aae9161a-0eb3-4953-8483-659e8e0544a0","ios":"levelo://app?vid=aae9161a-0eb3-4953-8483-659e8e0544a0"},"vehicle_type_id":"4","last_reported":1773304250,"current_range_meters":34000,"station_id":"ce4bhl92rcd13ifvqghg","pricing_plan_id":"cebpf4jnsgd1na2vs0mg"},{"bike_id":"d551195e-f5b0-490f-bac9-9dae68d902a4","system_id":"levelo_inurba_marseille","lat":43.21771,"lon":5.34585,"is_reserved":false,"is_disabled":false,"rental_uris":{"android":"levelo://app?vid=d551195e-f5b0-490f-bac9-9dae68d902a4","ios":"levelo://app?vid=d551195e-f5b0-490f-bac9-9dae68d902a4"},"vehicle_type_id":"4","last_reported":1773304250,"current_range_meters":34000,"station_id":"st_cvj6r9ubvosntc0bgbag","pricing_plan_id":"cebpf4jnsgd1na2vs0mg"},{"bike_id":"88ef34cf-eb20-47fd-826e-e977305528d7","system_id":"levelo_inurba_marseille","lat":43.29363,"lon":5.37845,"is_reserved":false,"is_disabled":false,"rental_uris":{"android":"levelo://app?vid=88ef34cf-eb20-47fd-826e-e977305528d7","ios":"levelo://app?vid=88ef34cf-eb20-47fd-826e-e977305528d7"},"vehicle_type_id":"4","last_reported":1773304250,"current_range_meters":39200,"station_id":"ce4bgjh2rcd13ifvqbf0","pricing_plan_id":"cebpf4jnsgd1na2vs0mg"},{"bike_id":"0a2f9b28-6219-4106-b011-3026133a767c","system_id":"levelo_inurba_marseille","lat":43.29617,"lon":5.38082,"is_reserved":false,"is_disabled":true,"rental_uris":{"android":"levelo://app?vid=0a2f9b28-6219-4106-b011-3026133a767c","ios":"levelo://app?vid=0a2f9b28-6219-4106-b011-3026133a767c"},"vehicle_type_id":"4","last_reported":1773304250,"current_range_meters":21600,"station_id":"","pricing_plan_id":"cebpf4jnsgd1na2vs0mg"},{"bike_id":"cc089a67-f9b7-428c-b27c-04620a17d5aa","system_id":"levelo_inurba_marseille","lat":43.27494,"lon":5.42461,"is_reserved":false,"is_disabled":false,"rental_uris":{"android":"levelo://app?vid=cc089a67-f9b7-428c-b27c-04620a17d5aa","ios":"levelo://app?vid=cc089a67-f9b7-428c-b27c-04620a17d5aa"},"vehicle_type_id":"4","last_reported":1773304250,"current_range_meters":27200,"station_id":"ce4bhn92rcd13ifvqgrg","pricing_plan_id":"cebpf4jnsgd1na2vs0mg"},{"bike_id":"8cb5acce-f9c6-4dcb-9422-4fcf68d5ef05","system_id":"levelo_inurba_marseille","lat":43.29502,"lon":5.38554,"is_reserved":false,"is_disabled":false,"rental_uris":{"android":"levelo://app?vid=8cb5acce-f9c6-4dcb-9422-4fcf68d5ef05","ios":"levelo://app?vid=8cb5acce-f9c6-4dcb-9422-4fcf68d5ef05"},"vehicle_type_id":"4","last_reported":1773304250,"current_range_meters":23200,"station_id":"ce4bgih2rcd13ifvqba0","pricing_plan_id":"cebpf4jnsgd1na2vs0mg"},{"bike_id":"c73dc152-9938-46ce-972e-77003c30697b","system_id":"levelo_inurba_marseille","lat":43.25873,"lon":5.39466,"is_reserved":false,"is_disabled":false,"rental_uris":{"android":"levelo://app?vid=c73dc152-9938-46ce-972e-77003c30697b","ios":"levelo://app?vid=c73dc152-9938-46ce-972e-77003c30697b"},"vehicle_type_id":"4","last_reported":1773304250,"current_range_meters":37600,"station_id":"","pricing_plan_id":"cebpf4jnsgd1na2vs0mg"},{"bike_id":"e17b8e76-0f76-40aa-a687-3f87eeadab84","system_id":"levelo_inurba_marseille","lat":43.26812,"lon":5.40249,"is_reserved":false,"is_disabled":false,"rental_uris":{"android":"levelo://app?vid=e17b8e76-0f76-40aa-a687-3f87eeadab84","ios":"levelo://app?vid=e17b8e76-0f76-40aa-a687-3f87eeadab84"},"vehicle_type_id":"4","last_reported":1773304250,"current_range_meters":31200,"station_id":"ce501612rcd8frsf0b60","pricing_plan_id":"cebpf4jnsgd1na2vs0mg"},{"bike_id":"cd0e7918-cb50-4686-9841-9d9629f842f8","system_id":"levelo_inurba_marseille","lat":43.29892,"lon":5.38151,"is_reserved":false,"is_disabled":false,"rental_uris":{"android":"levelo://app?vid=cd0e7918-cb50-4686-9841-9d9629f842f8","ios":"levelo://app?vid=cd0e7918-cb50-4686-9841-9d9629f842f8"},"vehicle_type_id":"4","last_reported":1773304250,"current_range_meters":39200,"station_id":"ce4bgj12rcd13ifvqbc0","pricing_plan_id":"cebpf4jnsgd1na2vs0mg"},{"bike_id":"a975d39d-4a14-4e0c-8235-9aa6495c9757","system_id":"levelo_inurba_marseille","lat":43.27425,"lon":5.42477,"is_reserved":false,"is_disabled":true,"rental_uris":{"android":"levelo://app?vid=a975d39d-4a14-4e0c-8235-9aa6495c9757","ios":"levelo://app?vid=a975d39d-4a14-4e0c-8235-9aa6495c9757"},"vehicle_type_id":"4","last_reported":1773304250,"current_range_meters":30400,"station_id":"","pricing_plan_id":"cebpf4jnsgd1na2vs0mg"},{"bike_id":"42c23f21-e078-4684-bab5-a30fd2bf0118","system_id":"levelo_inurba_marseille","lat":43.2972,"lon":5.37682,"is_reserved":false,"is_disabled":true,"rental_uris":{"android":"levelo://app?vid=42c23f21-e078-4684-bab5-a30fd2bf0118","ios":"levelo://app?vid=42c23f21-e078-4684-bab5-a30fd2bf0118"},"vehicle_type_id":"4","last_reported":1773304250,"current_range_meters":3200,"station_id":"ce4bgkh2rcd13ifvqbl0","pricing_plan_id":"cebpf4jnsgd1na2vs0mg"},{"bike_id":"d9849dd9-3303-4185-9d05-6a13aab6bc35","system_id":"levelo_inurba_marseille","lat":43.34136,"lon":5.40914,"is_reserved":false,"is_disabled":false,"rental_uris":{"android":"levelo://app?vid=d9849dd9-3303-4185-9d05-6a13aab6bc35","ios":"levelo://app?vid=d9849dd9-3303-4185-9d05-6a13aab6bc35"},"vehicle_type_id":"4","last_reported":1773304250,"current_range_meters":32000,"station_id":"ce4bhqh2rcd13ifvqhlg","pricing_plan_id":"cebpf4jnsgd1na2vs0mg"},{"bike_id":"bee871d3-07ca-4830-9795-16242e3d8f72","system_id":"levelo_inurba_marseille","lat":43.27502,"lon":5.42487,"is_reserved":false,"is_disabled":false,"rental_uris":{"android":"levelo://app?vid=bee871d3-07ca-4830-9795-16242e3d8f72","ios":"levelo://app?vid=bee871d3-07ca-4830-9795-16242e3d8f72"},"vehicle_type_id":"4","last_reported":1773304250,"current_range_meters":34800,"station_id":"ce4bhn92rcd13ifvqgrg","pricing_plan_id":"cebpf4jnsgd1na2vs0mg"},{"bike_id":"648ef0c3-dc3d-4c0b-a0fa-86816163a300","system_id":"levelo_inurba_marseille","lat":43.25005,"lon":5.38954,"is_reserved":false,"is_disabled":false,"rental_uris":{"android":"levelo://app?vid=648ef0c3-dc3d-4c0b-a0fa-86816163a300","ios":"levelo://app?vid=648ef0c3-dc3d-4c0b-a0fa-86816163a300"},"vehicle_type_id":"4","last_reported":1773304250,"current_range_meters":39200,"station_id":"ce4bhgp2rcd13ifvqfd0","pricing_plan_id":"cebpf4jnsgd1na2vs0mg"},{"bike_id":"57876b69-0036-4116-9e9e-47e6051f551f","system_id":"levelo_inurba_marseille","lat":43.30917,"lon":5.36877,"is_reserved":false,"is_disabled":false,"rental_uris":{"android":"levelo://app?vid=57876b69-0036-4116-9e9e-47e6051f551f","ios":"levelo://app?vid=57876b69-0036-4116-9e9e-47e6051f551f"},"vehicle_type_id":"4","last_reported":1773304250,"current_range_meters":31200,"station_id":"ce4bgn92rcd13ifvqbvg","pricing_plan_id":"cebpf4jnsgd1na2vs0mg"},{"bike_id":"a4877db2-3dac-4ee7-b0f5-ecce32aa4ef4","system_id":"levelo_inurba_marseille","lat":43.29976,"lon":5.3845,"is_reserved":false,"is_disabled":false,"rental_uris":{"android":"levelo://app?vid=a4877db2-3dac-4ee7-b0f5-ecce32aa4ef4","ios":"levelo://app?vid=a4877db2-3dac-4ee7-b0f5-ecce32aa4ef4"},"vehicle_type_id":"4","last_reported":1773304250,"current_range_meters":17600,"station_id":"ce4bgj92rcd13ifvqbd0","pricing_plan_id":"cebpf4jnsgd1na2vs0mg"},{"bike_id":"e99c9edd-3050-4618-8d36-cd73b8428723","system_id":"levelo_inurba_marseille","lat":43.34144,"lon":5.40903,"is_reserved":false,"is_disabled":false,"rental_uris":{"android":"levelo://app?vid=e99c9edd-3050-4618-8d36-cd73b8428723","ios":"levelo://app?vid=e99c9edd-3050-4618-8d36-cd73b8428723"},"vehicle_type_id":"4","last_reported":1773304250,"current_range_meters":25600,"station_id":"ce4bhqh2rcd13ifvqhlg","pricing_plan_id":"cebpf4jnsgd1na2vs0mg"},{"bike_id":"eaea9a02-90be-4a9f-b6d8-28175064e3dd","system_id":"levelo_inurba_marseille","lat":43.27418,"lon":5.39409,"is_reserved":false,"is_disabled":false,"rental_uris":{"android":"levelo://app?vid=eaea9a02-90be-4a9f-b6d8-28175064e3dd","ios":"levelo://app?vid=eaea9a02-90be-4a9f-b6d8-28175064e3dd"},"vehicle_type_id":"4","last_reported":1773304250,"current_range_meters":38000,"station_id":"ce4bhdp2rcd13ifvqf20","pricing_plan_id":"cebpf4jnsgd1na2vs0mg"},{"bike_id":"22851193-2dc4-42f2-8eb5-e7d0f3df0f19","system_id":"levelo_inurba_marseille","lat":43.25722,"lon":5.4111,"is_reserved":false,"is_disabled":false,"rental_uris":{"android":"levelo://app?vid=22851193-2dc4-42f2-8eb5-e7d0f3df0f19","ios":"levelo://app?vid=22851193-2dc4-42f2-8eb5-e7d0f3df0f19"},"vehicle_type_id":"4","last_reported":1773304250,"current_range_meters":31200,"station_id":"ce4bhkp2rcd13ifvqgd0","pricing_plan_id":"cebpf4jnsgd1na2vs0mg"},{"bike_id":"34f67e69-6b22-4c95-8433-44ed5a9fe043","system_id":"levelo_inurba_marseille","lat":43.26549,"lon":5.37293,"is_reserved":false,"is_disabled":false,"rental_uris":{"android":"levelo://app?vid=34f67e69-6b22-4c95-8433-44ed5a9fe043","ios":"levelo://app?vid=34f67e69-6b22-4c95-8433-44ed5a9fe043"},"vehicle_type_id":"4","last_reported":1773304250,"current_range_meters":16400,"station_id":"","pricing_plan_id":"cebpf4jnsgd1na2vs0mg"},{"bike_id":"3faa16cc-6e1f-493a-a741-02df3aeeba1e","system_id":"levelo_inurba_marseille","lat":43.29011,"lon":5.40013,"is_reserved":false,"is_disabled":false,"rental_uris":{"android":"levelo://app?vid=3faa16cc-6e1f-493a-a741-02df3aeeba1e","ios":"levelo://app?vid=3faa16cc-6e1f-493a-a741-02df3aeeba1e"},"vehicle_type_id":"4","last_reported":1773304250,"current_range_meters":18000,"station_id":"","pricing_plan_id":"cebpf4jnsgd1na2vs0mg"},{"bike_id":"a63d22a1-9803-47da-97c5-9eb5069b8019","system_id":"levelo_inurba_marseille","lat":43.25837,"lon":5.39419,"is_reserved":false,"is_disabled":false,"rental_uris":{"android":"levelo://app?vid=a63d22a1-9803-47da-97c5-9eb5069b8019","ios":"levelo://app?vid=a63d22a1-9803-47da-97c5-9eb5069b8019"},"vehicle_type_id":"4","last_reported":1773304250,"current_range_meters":37600,"station_id":"ce4bhip2rcd13ifvqft0","pricing_plan_id":"cebpf4jnsgd1na2vs0mg"},{"bike_id":"c60a1f6e-b77b-4b54-9406-84b147463065","system_id":"levelo_inurba_marseille","lat":43.25,"lon":5.38932,"is_reserved":false,"is_disabled":false,"rental_uris":{"android":"levelo://app?vid=c60a1f6e-b77b-4b54-9406-84b147463065","ios":"levelo://app?vid=c60a1f6e-b77b-4b54-9406-84b147463065"},"vehicle_type_id":"4","last_reported":1773304250,"current_range_meters":16800,"station_id":"ce4bhgp2rcd13ifvqfd0","pricing_plan_id":"cebpf4jnsgd1na2vs0mg"},{"bike_id":"712f73a5-ccbd-4df8-a2bf-f8199628c205","system_id":"levelo_inurba_marseille","lat":43.2595,"lon":5.40896,"is_reserved":false,"is_disabled":true,"rental_uris":{"android":"levelo://app?vid=712f73a5-ccbd-4df8-a2bf-f8199628c205","ios":"levelo://app?vid=712f73a5-ccbd-4df8-a2bf-f8199628c205"},"vehicle_type_id":"4","last_reported":1773304250,"current_range_meters":0,"station_id":"ce4bhm92rcd13ifvqglg","pricing_plan_id":"cebpf4jnsgd1na2vs0mg"},{"bike_id":"83cfba9f-efeb-47ab-979a-b88615e72865","system_id":"levelo_inurba_marseille","lat":43.272,"lon":5.39176,"is_reserved":false,"is_disabled":false,"rental_uris":{"android":"levelo://app?vid=83cfba9f-efeb-47ab-979a-b88615e72865","ios":"levelo://app?vid=83cfba9f-efeb-47ab-979a-b88615e72865"},"vehicle_type_id":"4","last_reported":1773304250,"current_range_meters":40000,"station_id":"ce4bhhp2rcd13ifvqfm0","pricing_plan_id":"cebpf4jnsgd1na2vs0mg"},{"bike_id":"8b2e521b-1101-44fe-9d4a-0344f080c81c","system_id":"levelo_inurba_marseille","lat":43.28478,"lon":5.484,"is_reserved":false,"is_disabled":false,"rental_uris":{"android":"levelo://app?vid=8b2e521b-1101-44fe-9d4a-0344f080c81c","ios":"levelo://app?vid=8b2e521b-1101-44fe-9d4a-0344f080c81c"},"vehicle_type_id":"4","last_reported":1773304250,"current_range_meters":34000,"station_id":"","pricing_plan_id":"cebpf4jnsgd1na2vs0mg"},{"bike_id":"4c04798d-1c50-4891-9e81-0a41cacca102","system_id":"levelo_inurba_marseille","lat":43.30488,"lon":5.37906,"is_reserved":false,"is_disabled":false,"rental_uris":{"android":"levelo://app?vid=4c04798d-1c50-4891-9e81-0a41cacca102","ios":"levelo://app?vid=4c04798d-1c50-4891-9e81-0a41cacca102"},"vehicle_type_id":"4","last_reported":1773304250,"current_range_meters":30400,"station_id":"ce4bgup2rcd13ifvqcn0","pricing_plan_id":"cebpf4jnsgd1na2vs0mg"},{"bike_id":"7814c3e3-4ac3-4b10-8dfa-88d309b2e93b","system_id":"levelo_inurba_marseille","lat":43.26808,"lon":5.39461,"is_reserved":false,"is_disabled":false,"rental_uris":{"android":"levelo://app?vid=7814c3e3-4ac3-4b10-8dfa-88d309b2e93b","ios":"levelo://app?vid=7814c3e3-4ac3-4b10-8dfa-88d309b2e93b"},"vehicle_type_id":"4","last_reported":1773304250,"current_range_meters":38400,"station_id":"ce4bhh12rcd13ifvqfg0","pricing_plan_id":"cebpf4jnsgd1na2vs0mg"},{"bike_id":"1697678c-c8a4-4c47-ade7-901915c540a8","system_id":"levelo_inurba_marseille","lat":43.29598,"lon":5.38108,"is_reserved":false,"is_disabled":true,"rental_uris":{"android":"levelo://app?vid=1697678c-c8a4-4c47-ade7-901915c540a8","ios":"levelo://app?vid=1697678c-c8a4-4c47-ade7-901915c540a8"},"vehicle_type_id":"4","last_reported":1773304250,"current_range_meters":3200,"station_id":"ce4bgl12rcd13ifvqbo0","pricing_plan_id":"cebpf4jnsgd1na2vs0mg"},{"bike_id":"66528f80-fb68-498d-bd2d-ca4ea15bdef0","system_id":"levelo_inurba_marseille","lat":43.26495,"lon":5.39537,"is_reserved":false,"is_disabled":false,"rental_uris":{"android":"levelo://app?vid=66528f80-fb68-498d-bd2d-ca4ea15bdef0","ios":"levelo://app?vid=66528f80-fb68-498d-bd2d-ca4ea15bdef0"},"vehicle_type_id":"4","last_reported":1773304250,"current_range_meters":36800,"station_id":"ce4bhi12rcd13ifvqfq0","pricing_plan_id":"cebpf4jnsgd1na2vs0mg"},{"bike_id":"b25d2da3-e55a-45fd-ac7e-cf696fba5f30","system_id":"levelo_inurba_marseille","lat":43.27497,"lon":5.42449,"is_reserved":false,"is_disabled":false,"rental_uris":{"android":"levelo://app?vid=b25d2da3-e55a-45fd-ac7e-cf696fba5f30","ios":"levelo://app?vid=b25d2da3-e55a-45fd-ac7e-cf696fba5f30"},"vehicle_type_id":"4","last_reported":1773304250,"current_range_meters":4000,"station_id":"ce4bhn92rcd13ifvqgrg","pricing_plan_id":"cebpf4jnsgd1na2vs0mg"},{"bike_id":"eb10580c-7923-402b-ac31-ee02067a1730","system_id":"levelo_inurba_marseille","lat":43.28497,"lon":5.39243,"is_reserved":false,"is_disabled":false,"rental_uris":{"android":"levelo://app?vid=eb10580c-7923-402b-ac31-ee02067a1730","ios":"levelo://app?vid=eb10580c-7923-402b-ac31-ee02067a1730"},"vehicle_type_id":"4","last_reported":1773304250,"current_range_meters":24400,"station_id":"","pricing_plan_id":"cebpf4jnsgd1na2vs0mg"},{"bike_id":"98d1559e-d2bf-470b-aa3b-e89fc9e63aa5","system_id":"levelo_inurba_marseille","lat":43.24148,"lon":5.37745,"is_reserved":false,"is_disabled":false,"rental_uris":{"android":"levelo://app?vid=98d1559e-d2bf-470b-aa3b-e89fc9e63aa5","ios":"levelo://app?vid=98d1559e-d2bf-470b-aa3b-e89fc9e63aa5"},"vehicle_type_id":"4","last_reported":1773304250,"current_range_meters":23200,"station_id":"ce4bhnp2rcd13ifvqgvg","pricing_plan_id":"cebpf4jnsgd1na2vs0mg"},{"bike_id":"65a7fe50-2450-4c8f-8e44-981be7bdae37","system_id":"levelo_inurba_marseille","lat":43.24731,"lon":5.38232,"is_reserved":false,"is_disabled":false,"rental_uris":{"android":"levelo://app?vid=65a7fe50-2450-4c8f-8e44-981be7bdae37","ios":"levelo://app?vid=65a7fe50-2450-4c8f-8e44-981be7bdae37"},"vehicle_type_id":"4","last_reported":1773304250,"current_range_meters":15200,"station_id":"ce4bguh2rcd13ifvqckg","pricing_plan_id":"cebpf4jnsgd1na2vs0mg"},{"bike_id":"e866f69f-3bec-49a1-9a39-2ad3a9b49ffe","system_id":"levelo_inurba_marseille","lat":43.29029,"lon":5.39977,"is_reserved":false,"is_disabled":false,"rental_uris":{"android":"levelo://app?vid=e866f69f-3bec-49a1-9a39-2ad3a9b49ffe","ios":"levelo://app?vid=e866f69f-3bec-49a1-9a39-2ad3a9b49ffe"},"vehicle_type_id":"4","last_reported":1773304250,"current_range_meters":34800,"station_id":"ce4bh392rcd13ifvqdm0","pricing_plan_id":"cebpf4jnsgd1na2vs0mg"},{"bike_id":"710fecc5-0ea6-451d-a347-d8a0a4d842b2","system_id":"levelo_inurba_marseille","lat":43.245926,"lon":5.380529,"is_reserved":false,"is_disabled":false,"rental_uris":{"android":"levelo://app?vid=710fecc5-0ea6-451d-a347-d8a0a4d842b2","ios":"levelo://app?vid=710fecc5-0ea6-451d-a347-d8a0a4d842b2"},"vehicle_type_id":"4","last_reported":1773304250,"current_range_meters":36400,"station_id":"ce4bhih2rcd13ifvqfr0","pricing_plan_id":"cebpf4jnsgd1na2vs0mg"},{"bike_id":"1341cee3-1fed-4544-bc59-875506a906ea","system_id":"levelo_inurba_marseille","lat":43.31742,"lon":5.40419,"is_reserved":false,"is_disabled":false,"rental_uris":{"android":"levelo://app?vid=1341cee3-1fed-4544-bc59-875506a906ea","ios":"levelo://app?vid=1341cee3-1fed-4544-bc59-875506a906ea"},"vehicle_type_id":"4","last_reported":1773304250,"current_range_meters":31200,"station_id":"","pricing_plan_id":"cebpf4jnsgd1na2vs0mg"},{"bike_id":"bdb22846-664a-4af9-8cde-492476ee01e6","system_id":"levelo_inurba_marseille","lat":43.29267,"lon":5.38435,"is_reserved":false,"is_disabled":false,"rental_uris":{"android":"levelo://app?vid=bdb22846-664a-4af9-8cde-492476ee01e6","ios":"levelo://app?vid=bdb22846-664a-4af9-8cde-492476ee01e6"},"vehicle_type_id":"4","last_reported":1773304250,"current_range_meters":10000,"station_id":"ce4bh692rcd13ifvqea0","pricing_plan_id":"cebpf4jnsgd1na2vs0mg"},{"bike_id":"2ec0d240-9fa8-4251-9c9b-1cc6d98b3d6c","system_id":"levelo_inurba_marseille","lat":43.25557,"lon":5.38277,"is_reserved":false,"is_disabled":false,"rental_uris":{"android":"levelo://app?vid=2ec0d240-9fa8-4251-9c9b-1cc6d98b3d6c","ios":"levelo://app?vid=2ec0d240-9fa8-4251-9c9b-1cc6d98b3d6c"},"vehicle_type_id":"4","last_reported":1773304250,"current_range_meters":26000,"station_id":"ce4bhih2rcd13ifvqfs0","pricing_plan_id":"cebpf4jnsgd1na2vs0mg"},{"bike_id":"26a6b2e2-002a-4072-a1a2-b594f4e8b66c","system_id":"levelo_inurba_marseille","lat":43.30879,"lon":5.37342,"is_reserved":false,"is_disabled":false,"rental_uris":{"android":"levelo://app?vid=26a6b2e2-002a-4072-a1a2-b594f4e8b66c","ios":"levelo://app?vid=26a6b2e2-002a-4072-a1a2-b594f4e8b66c"},"vehicle_type_id":"4","last_reported":1773304250,"current_range_meters":27200,"station_id":"","pricing_plan_id":"cebpf4jnsgd1na2vs0mg"},{"bike_id":"5427f33b-9c12-4d35-9e4f-95e705df3b08","system_id":"levelo_inurba_marseille","lat":43.2962,"lon":5.3717,"is_reserved":false,"is_disabled":false,"rental_uris":{"android":"levelo://app?vid=5427f33b-9c12-4d35-9e4f-95e705df3b08","ios":"levelo://app?vid=5427f33b-9c12-4d35-9e4f-95e705df3b08"},"vehicle_type_id":"4","last_reported":1773304250,"current_range_meters":34800,"station_id":"ce4bgnh2rcd13ifvqc0g","pricing_plan_id":"cebpf4jnsgd1na2vs0mg"},{"bike_id":"1445cfca-2724-4b39-a1db-eda5037e9849","system_id":"levelo_inurba_marseille","lat":43.27218,"lon":5.39178,"is_reserved":false,"is_disabled":false,"rental_uris":{"android":"levelo://app?vid=1445cfca-2724-4b39-a1db-eda5037e9849","ios":"levelo://app?vid=1445cfca-2724-4b39-a1db-eda5037e9849"},"vehicle_type_id":"4","last_reported":1773304250,"current_range_meters":4800,"station_id":"ce4bhhp2rcd13ifvqfm0","pricing_plan_id":"cebpf4jnsgd1na2vs0mg"},{"bike_id":"43dec2c9-0ed1-464f-872a-fff85f3760db","system_id":"levelo_inurba_marseille","lat":43.29574,"lon":5.36764,"is_reserved":false,"is_disabled":false,"rental_uris":{"android":"levelo://app?vid=43dec2c9-0ed1-464f-872a-fff85f3760db","ios":"levelo://app?vid=43dec2c9-0ed1-464f-872a-fff85f3760db"},"vehicle_type_id":"4","last_reported":1773304250,"current_range_meters":29600,"station_id":"ce4bgph2rcd13ifvqc2g","pricing_plan_id":"cebpf4jnsgd1na2vs0mg"},{"bike_id":"b3ec3554-eb1f-4735-9561-8fa9053610e4","system_id":"levelo_inurba_marseille","lat":43.24384,"lon":5.37068,"is_reserved":false,"is_disabled":false,"rental_uris":{"android":"levelo://app?vid=b3ec3554-eb1f-4735-9561-8fa9053610e4","ios":"levelo://app?vid=b3ec3554-eb1f-4735-9561-8fa9053610e4"},"vehicle_type_id":"4","last_reported":1773304250,"current_range_meters":38400,"station_id":"ce4bhhh2rcd13ifvqfk0","pricing_plan_id":"cebpf4jnsgd1na2vs0mg"},{"bike_id":"90bd2d1f-82d1-4564-b345-0f67ac79399c","system_id":"levelo_inurba_marseille","lat":43.30284,"lon":5.37733,"is_reserved":false,"is_disabled":false,"rental_uris":{"android":"levelo://app?vid=90bd2d1f-82d1-4564-b345-0f67ac79399c","ios":"levelo://app?vid=90bd2d1f-82d1-4564-b345-0f67ac79399c"},"vehicle_type_id":"4","last_reported":1773304250,"current_range_meters":8800,"station_id":"ce4bguh2rcd13ifvqcj0","pricing_plan_id":"cebpf4jnsgd1na2vs0mg"},{"bike_id":"7bd84bb6-ca2a-41e7-9c20-59dd9d4273ed","system_id":"levelo_inurba_marseille","lat":43.2997,"lon":5.37168,"is_reserved":false,"is_disabled":true,"rental_uris":{"android":"levelo://app?vid=7bd84bb6-ca2a-41e7-9c20-59dd9d4273ed","ios":"levelo://app?vid=7bd84bb6-ca2a-41e7-9c20-59dd9d4273ed"},"vehicle_type_id":"4","last_reported":1773304250,"current_range_meters":800,"station_id":"ce4bgr92rcd13ifvqc7g","pricing_plan_id":"cebpf4jnsgd1na2vs0mg"},{"bike_id":"354b5bda-3949-4498-85b6-eb76538c91b8","system_id":"levelo_inurba_marseille","lat":43.26055,"lon":5.39403,"is_reserved":false,"is_disabled":false,"rental_uris":{"android":"levelo://app?vid=354b5bda-3949-4498-85b6-eb76538c91b8","ios":"levelo://app?vid=354b5bda-3949-4498-85b6-eb76538c91b8"},"vehicle_type_id":"4","last_reported":1773304250,"current_range_meters":38000,"station_id":"ce4bhh92rcd13ifvqfj0","pricing_plan_id":"cebpf4jnsgd1na2vs0mg"},{"bike_id":"31eab7aa-d2ff-4d19-8af0-c2c63f0c6b5f","system_id":"levelo_inurba_marseille","lat":43.26558,"lon":5.37291,"is_reserved":false,"is_disabled":false,"rental_uris":{"android":"levelo://app?vid=31eab7aa-d2ff-4d19-8af0-c2c63f0c6b5f","ios":"levelo://app?vid=31eab7aa-d2ff-4d19-8af0-c2c63f0c6b5f"},"vehicle_type_id":"4","last_reported":1773304250,"current_range_meters":21600,"station_id":"","pricing_plan_id":"cebpf4jnsgd1na2vs0mg"},{"bike_id":"4cd63f56-88f2-44dc-8d79-97be63a73aac","system_id":"levelo_inurba_marseille","lat":43.33177,"lon":5.37694,"is_reserved":false,"is_disabled":false,"rental_uris":{"android":"levelo://app?vid=4cd63f56-88f2-44dc-8d79-97be63a73aac","ios":"levelo://app?vid=4cd63f56-88f2-44dc-8d79-97be63a73aac"},"vehicle_type_id":"4","last_reported":1773304250,"current_range_meters":9600,"station_id":"st_d46cu089ee8s73dldbu0","pricing_plan_id":"cebpf4jnsgd1na2vs0mg"},{"bike_id":"4bfb174a-06d3-4562-9b73-992b914fe592","system_id":"levelo_inurba_marseille","lat":43.31356,"lon":5.36714,"is_reserved":false,"is_disabled":false,"rental_uris":{"android":"levelo://app?vid=4bfb174a-06d3-4562-9b73-992b914fe592","ios":"levelo://app?vid=4bfb174a-06d3-4562-9b73-992b914fe592"},"vehicle_type_id":"4","last_reported":1773304250,"current_range_meters":36400,"station_id":"ce4bgr92rcd13ifvqc6g","pricing_plan_id":"cebpf4jnsgd1na2vs0mg"},{"bike_id":"3fadec7d-de5b-4e2d-8f99-a2af1d84d7bc","system_id":"levelo_inurba_marseille","lat":43.3169,"lon":5.40464,"is_reserved":false,"is_disabled":false,"rental_uris":{"android":"levelo://app?vid=3fadec7d-de5b-4e2d-8f99-a2af1d84d7bc","ios":"levelo://app?vid=3fadec7d-de5b-4e2d-8f99-a2af1d84d7bc"},"vehicle_type_id":"4","last_reported":1773304250,"current_range_meters":38400,"station_id":"ce4bh012rcd13ifvqd00","pricing_plan_id":"cebpf4jnsgd1na2vs0mg"},{"bike_id":"05e28071-265b-4d5c-bcaf-12dc4f5c6740","system_id":"levelo_inurba_marseille","lat":43.27373,"lon":5.36258,"is_reserved":false,"is_disabled":false,"rental_uris":{"android":"levelo://app?vid=05e28071-265b-4d5c-bcaf-12dc4f5c6740","ios":"levelo://app?vid=05e28071-265b-4d5c-bcaf-12dc4f5c6740"},"vehicle_type_id":"4","last_reported":1773304250,"current_range_meters":39200,"station_id":"ce4bhbh2rcd13ifvqeo0","pricing_plan_id":"cebpf4jnsgd1na2vs0mg"},{"bike_id":"229ffee0-5f42-4769-891d-25241baabe25","system_id":"levelo_inurba_marseille","lat":43.28055,"lon":5.36934,"is_reserved":false,"is_disabled":false,"rental_uris":{"android":"levelo://app?vid=229ffee0-5f42-4769-891d-25241baabe25","ios":"levelo://app?vid=229ffee0-5f42-4769-891d-25241baabe25"},"vehicle_type_id":"4","last_reported":1773304250,"current_range_meters":8000,"station_id":"ce4bha12rcd13ifvqef0","pricing_plan_id":"cebpf4jnsgd1na2vs0mg"},{"bike_id":"bd619dcb-2e9f-489f-8639-caa5d42aaf20","system_id":"levelo_inurba_marseille","lat":43.31197,"lon":5.36871,"is_reserved":false,"is_disabled":false,"rental_uris":{"android":"levelo://app?vid=bd619dcb-2e9f-489f-8639-caa5d42aaf20","ios":"levelo://app?vid=bd619dcb-2e9f-489f-8639-caa5d42aaf20"},"vehicle_type_id":"4","last_reported":1773304250,"current_range_meters":2800,"station_id":"ce4bgl92rcd13ifvqbq0","pricing_plan_id":"cebpf4jnsgd1na2vs0mg"},{"bike_id":"016d5e43-042e-4019-9635-50c34bfeaaa7","system_id":"levelo_inurba_marseille","lat":43.27315,"lon":5.39077,"is_reserved":false,"is_disabled":false,"rental_uris":{"android":"levelo://app?vid=016d5e43-042e-4019-9635-50c34bfeaaa7","ios":"levelo://app?vid=016d5e43-042e-4019-9635-50c34bfeaaa7"},"vehicle_type_id":"4","last_reported":1773304250,"current_range_meters":22400,"station_id":"ce4bhgp2rcd13ifvqfe0","pricing_plan_id":"cebpf4jnsgd1na2vs0mg"},{"bike_id":"1860051d-ebfa-4ef0-851b-02847655affa","system_id":"levelo_inurba_marseille","lat":43.244,"lon":5.37074,"is_reserved":false,"is_disabled":false,"rental_uris":{"android":"levelo://app?vid=1860051d-ebfa-4ef0-851b-02847655affa","ios":"levelo://app?vid=1860051d-ebfa-4ef0-851b-02847655affa"},"vehicle_type_id":"4","last_reported":1773304250,"current_range_meters":38400,"station_id":"ce4bhhh2rcd13ifvqfk0","pricing_plan_id":"cebpf4jnsgd1na2vs0mg"},{"bike_id":"5e893874-b58e-4469-8646-af6c97dae0bd","system_id":"levelo_inurba_marseille","lat":43.28973,"lon":5.37842,"is_reserved":false,"is_disabled":false,"rental_uris":{"android":"levelo://app?vid=5e893874-b58e-4469-8646-af6c97dae0bd","ios":"levelo://app?vid=5e893874-b58e-4469-8646-af6c97dae0bd"},"vehicle_type_id":"4","last_reported":1773304250,"current_range_meters":6800,"station_id":"ce4bh9p2rcd13ifvqed0","pricing_plan_id":"cebpf4jnsgd1na2vs0mg"},{"bike_id":"fc76f298-f78b-4817-be52-1648bd9cbcfa","system_id":"levelo_inurba_marseille","lat":43.28147,"lon":5.37892,"is_reserved":false,"is_disabled":false,"rental_uris":{"android":"levelo://app?vid=fc76f298-f78b-4817-be52-1648bd9cbcfa","ios":"levelo://app?vid=fc76f298-f78b-4817-be52-1648bd9cbcfa"},"vehicle_type_id":"4","last_reported":1773304250,"current_range_meters":11600,"station_id":"","pricing_plan_id":"cebpf4jnsgd1na2vs0mg"},{"bike_id":"61d8cf09-cad2-4ecf-a4a5-b740782ddea5","system_id":"levelo_inurba_marseille","lat":43.31192,"lon":5.36876,"is_reserved":false,"is_disabled":false,"rental_uris":{"android":"levelo://app?vid=61d8cf09-cad2-4ecf-a4a5-b740782ddea5","ios":"levelo://app?vid=61d8cf09-cad2-4ecf-a4a5-b740782ddea5"},"vehicle_type_id":"4","last_reported":1773304250,"current_range_meters":12800,"station_id":"ce4bgl92rcd13ifvqbq0","pricing_plan_id":"cebpf4jnsgd1na2vs0mg"},{"bike_id":"eee030f9-7359-435a-8db7-cd8193b34512","system_id":"levelo_inurba_marseille","lat":43.26062,"lon":5.39376,"is_reserved":false,"is_disabled":false,"rental_uris":{"android":"levelo://app?vid=eee030f9-7359-435a-8db7-cd8193b34512","ios":"levelo://app?vid=eee030f9-7359-435a-8db7-cd8193b34512"},"vehicle_type_id":"4","last_reported":1773304250,"current_range_meters":28400,"station_id":"ce4bhh92rcd13ifvqfj0","pricing_plan_id":"cebpf4jnsgd1na2vs0mg"},{"bike_id":"e1953514-6bba-4fb4-94e4-40c57b362e06","system_id":"levelo_inurba_marseille","lat":43.28006,"lon":5.40014,"is_reserved":false,"is_disabled":false,"rental_uris":{"android":"levelo://app?vid=e1953514-6bba-4fb4-94e4-40c57b362e06","ios":"levelo://app?vid=e1953514-6bba-4fb4-94e4-40c57b362e06"},"vehicle_type_id":"4","last_reported":1773304250,"current_range_meters":16800,"station_id":"ce4bho92rcd13ifvqh4g","pricing_plan_id":"cebpf4jnsgd1na2vs0mg"},{"bike_id":"862f1a3e-115c-41ff-964e-638a1ba46535","system_id":"levelo_inurba_marseille","lat":43.27956,"lon":5.41065,"is_reserved":false,"is_disabled":true,"rental_uris":{"android":"levelo://app?vid=862f1a3e-115c-41ff-964e-638a1ba46535","ios":"levelo://app?vid=862f1a3e-115c-41ff-964e-638a1ba46535"},"vehicle_type_id":"4","last_reported":1773304250,"current_range_meters":38400,"station_id":"ce4bhnp2rcd13ifvqh0g","pricing_plan_id":"cebpf4jnsgd1na2vs0mg"},{"bike_id":"ab300351-e058-48ac-a184-e5f1ffbde233","system_id":"levelo_inurba_marseille","lat":43.28949,"lon":5.39627,"is_reserved":false,"is_disabled":false,"rental_uris":{"android":"levelo://app?vid=ab300351-e058-48ac-a184-e5f1ffbde233","ios":"levelo://app?vid=ab300351-e058-48ac-a184-e5f1ffbde233"},"vehicle_type_id":"4","last_reported":1773304250,"current_range_meters":37600,"station_id":"ce4bh3h2rcd13ifvqdn0","pricing_plan_id":"cebpf4jnsgd1na2vs0mg"},{"bike_id":"82cfcbb4-c2dc-4303-8d5e-622e80657082","system_id":"levelo_inurba_marseille","lat":43.29839,"lon":5.36264,"is_reserved":false,"is_disabled":false,"rental_uris":{"android":"levelo://app?vid=82cfcbb4-c2dc-4303-8d5e-622e80657082","ios":"levelo://app?vid=82cfcbb4-c2dc-4303-8d5e-622e80657082"},"vehicle_type_id":"4","last_reported":1773304250,"current_range_meters":36800,"station_id":"ce4bgpp2rcd13ifvqc3g","pricing_plan_id":"cebpf4jnsgd1na2vs0mg"},