{"last_updated":1736439070,"ttl":60,"version":"2.2","data":{"bikes":[{"bike_id":"62bb4262-d219-4b7d-916f-af68a26578c9","system_id":"levelo_inurba_marseille","lat":43.2857,"lon":5.395,"is_reserved":false,"is_disabled":false,"rental_uris":{"android":"levelo://app?vid=62bb4262-d219-4b7d-916f-af68a26578c9","ios":"levelo://app?vid=62bb4262-d219-4b7d-916f-af68a26578c9"},"vehicle_type_id":"4","last_reported":1736439070,"current_range_meters":33200,"station_id":"ce4bh292rcd13ifvqdg0","pricing_plan_id":"cebpf4jnsgd1na2vs0mg"},{"bike_id":"452cd929-9f46-45c7-84ee-5aa82d70cce0","system_id":"levelo_inurba_marseille","lat":43.311603,"lon":5.387279,"is_reserved":false,"is_disabled":false,"rental_uris":{"android":"levelo://app?vid=452cd929-9f46-45c7-84ee-5aa82d70cce0","ios":"levelo://app?vid=452cd929-9f46-45c7-84ee-5aa82d70cce0"},"vehicle_type_id":"4","last_reported":1736439070,"current_range_meters":31200,"station_id":"ce4bgv12rcd13ifvqcp0","pricing_plan_id":"cebpf4jnsgd1na2vs0mg"},{"bike_id":"0d5fd85b-fa8e-4af5-bce7-42c80f3e8027","system_id":"levelo_inurba_marseille","lat":43.32335,"lon":5.40625,"is_reserved":false,"is_disabled":false,"rental_uris":{"android":"levelo://app?vid=0d5fd85b-fa8e-4af5-bce7-42c80f3e8027","ios":"levelo://app?vid=0d5fd85b-fa8e-4af5-bce7-42c80f3e8027"},"vehicle_type_id":"4","last_reported":1736439070,"current_range_meters":33600,"station_id":"ce4bhq92rcd13ifvqhjg","pricing_plan_id":"cebpf4jnsgd1na2vs0mg"},{"bike_id":"75d87b10-e255-43ff-b26a-cb295f47d643","system_id":"levelo_inurba_marseille","lat":43.27333,"lon":5.39088,"is_reserved":false,"is_disabled":false,"rental_uris":{"android":"levelo://app?vid=75d87b10-e255-43ff-b26a-cb295f47d643","ios":"levelo://app?vid=75d87b10-e255-43ff-b26a-cb295f47d643"},"vehicle_type_id":"4","last_reported":1736439070,"current_range_meters":38800,"station_id":"ce4bhgp2rcd13ifvqfe0","pricing_plan_id":"cebpf4jnsgd1na2vs0mg"},{"bike_id":"87c59741-1f05-4e3d-8c14-38f01f8816a9","system_id":"levelo_inurba_marseille","lat":43.23199,"lon":5.35544,"is_reserved":false,"is_disabled":false,"rental_uris":{"android":"levelo://app?vid=87c59741-1f05-4e3d-8c14-38f01f8816a9","ios":"levelo://app?vid=87c59741-1f05-4e3d-8c14-38f01f8816a9"},"vehicle_type_id":"4","last_reported":1736439070,"current_range_meters":15200,"station_id":"ce4bhu92rcd13ifvqi70","pricing_plan_id":"cebpf4jnsgd1na2vs0mg"},{"bike_id":"e3ed715f-8540-4a0c-8d1a-84fadaf0dd0f","system_id":"levelo_inurba_marseille","lat":43.34168,"lon":5.37754,"is_reserved":false,"is_disabled":false,"rental_uris":{"android":"levelo://app?vid=e3ed715f-8540-4a0c-8d1a-84fadaf0dd0f","ios":"levelo://app?vid=e3ed715f-8540-4a0c-8d1a-84fadaf0dd0f"},"vehicle_type_id":"4","last_reported":1736439070,"current_range_meters":38400,"station_id":"","pricing_plan_id":"cebpf4jnsgd1na2vs0mg"},{"bike_id":"079a2489-d193-414b-8b47-82e93bfb4b65","system_id":"levelo_inurba_marseille","lat":43.28902,"lon":5.37995,"is_reserved":false,"is_disabled":false,"rental_uris":{"android":"levelo://app?vid=079a2489-d193-414b-8b47-82e93bfb4b65","ios":"levelo://app?vid=079a2489-d193-414b-8b47-82e93bfb4b65"},"vehicle_type_id":"4","last_reported":1736439070,"current_range_meters":32000,"station_id":"","pricing_plan_id":"cebpf4jnsgd1na2vs0mg"},{"bike_id":"bab50cc8-030c-4e73-9e85-f316fe004df4","system_id":"levelo_inurba_marseille","lat":43.27493,"lon":5.42444,"is_reserved":false,"is_disabled":false,"rental_uris":{"android":"levelo://app?vid=bab50cc8-030c-4e73-9e85-f316fe004df4","ios":"levelo://app?vid=bab50cc8-030c-4e73-9e85-f316fe004df4"},"vehicle_type_id":"4","last_reported":1736439070,"current_range_meters":28800,"station_id":"ce4bhn92rcd13ifvqgrg","pricing_plan_id":"cebpf4jnsgd1na2vs0mg"},{"bike_id":"bb5a06d3-92d7-499b-9cd2-be350851f92e","system_id":"levelo_inurba_marseille","lat":43.24655,"lon":5.38914,"is_reserved":false,"is_disabled":false,"rental_uris":{"android":"levelo://app?vid=bb5a06d3-92d7-499b-9cd2-be350851f92e","ios":"levelo://app?vid=bb5a06d3-92d7-499b-9cd2-be350851f92e"},"vehicle_type_id":"4","last_reported":1736439070,"current_range_meters":35600,"station_id":"ce4bhg12rcd13ifvqf60","pricing_plan_id":"cebpf4jnsgd1na2vs0mg"},{"bike_id":"cb489c6a-2371-4da3-be4a-5c64a7054d0b","system_id":"levelo_inurba_marseille","lat":43.32483,"lon":5.3657,"is_reserved":false,"is_disabled":false,"rental_uris":{"android":"levelo://app?vid=cb489c6a-2371-4da3-be4a-5c64a7054d0b","ios":"levelo://app?vid=cb489c6a-2371-4da3-be4a-5c64a7054d0b"},"vehicle_type_id":"4","last_reported":1736439070,"current_range_meters":27600,"station_id":"ce4bhs12rcd13ifvqhvg","pricing_plan_id":"cebpf4jnsgd1na2vs0mg"},{"bike_id":"740b5579-b028-4f3e-9199-e2857799c049","system_id":"levelo_inurba_marseille","lat":43.32335,"lon":5.40626,"is_reserved":false,"is_disabled":false,"rental_uris":{"android":"levelo://app?vid=740b5579-b028-4f3e-9199-e2857799c049","ios":"levelo://app?vid=740b5579-b028-4f3e-9199-e2857799c049"},"vehicle_type_id":"4","last_reported":1736439070,"current_range_meters":15200,"station_id":"ce4bhq92rcd13ifvqhjg","pricing_plan_id":"cebpf4jnsgd1na2vs0mg"},{"bike_id":"c9a1a51a-7cf2-42ce-a548-3ac3e9769a28","system_id":"levelo_inurba_marseille","lat":43.31339,"lon":5.36716,"is_reserved":false,"is_disabled":false,"rental_uris":{"android":"levelo://app?vid=c9a1a51a-7cf2-42ce-a548-3ac3e9769a28","ios":"levelo://app?vid=c9a1a51a-7cf2-42ce-a548-3ac3e9769a28"},"vehicle_type_id":"4","last_reported":1736439070,"current_range_meters":24800,"station_id":"ce4bgr92rcd13ifvqc6g","pricing_plan_id":"cebpf4jnsgd1na2vs0mg"},{"bike_id":"98f6a5c1-cf73-40b1-b5db-c72340a61f5e","system_id":"levelo_inurba_marseille","lat":43.27053,"lon":5.40256,"is_reserved":false,"is_disabled":false,"rental_uris":{"android":"levelo://app?vid=98f6a5c1-cf73-40b1-b5db-c72340a61f5e","ios":"levelo://app?vid=98f6a5c1-cf73-40b1-b5db-c72340a61f5e"},"vehicle_type_id":"4","last_reported":1736439070,"current_range_meters":20000,"station_id":"ce4bhk92rcd13ifvqgc0","pricing_plan_id":"cebpf4jnsgd1na2vs0mg"},{"bike_id":"b1346f2c-7cab-41f4-b9e9-053904c9fb2b","system_id":"levelo_inurba_marseille","lat":43.239966,"lon":5.366553,"is_reserved":false,"is_disabled":false,"rental_uris":{"android":"levelo://app?vid=b1346f2c-7cab-41f4-b9e9-053904c9fb2b","ios":"levelo://app?vid=b1346f2c-7cab-41f4-b9e9-053904c9fb2b"},"vehicle_type_id":"4","last_reported":1736439070,"current_range_meters":10800,"station_id":"ce4bhi12rcd13ifvqfp0","pricing_plan_id":"cebpf4jnsgd1na2vs0mg"},{"bike_id":"4f439c6b-4554-4213-8983-cec78740d5f8","system_id":"levelo_inurba_marseille","lat":43.23209,"lon":5.35543,"is_reserved":false,"is_disabled":false,"rental_uris":{"android":"levelo://app?vid=4f439c6b-4554-4213-8983-cec78740d5f8","ios":"levelo://app?vid=4f439c6b-4554-4213-8983-cec78740d5f8"},"vehicle_type_id":"4","last_reported":1736439070,"current_range_meters":25200,"station_id":"ce4bhu92rcd13ifvqi70","pricing_plan_id":"cebpf4jnsgd1na2vs0mg"},{"bike_id":"ece82557-6569-4215-9027-5b44a37fe52e","system_id":"levelo_inurba_marseille","lat":43.29042,"lon":5.38009,"is_reserved":false,"is_disabled":true,"rental_uris":{"android":"levelo://app?vid=ece82557-6569-4215-9027-5b44a37fe52e","ios":"levelo://app?vid=ece82557-6569-4215-9027-5b44a37fe52e"},"vehicle_type_id":"4","last_reported":1736439070,"current_range_meters":0,"station_id":"","pricing_plan_id":"cebpf4jnsgd1na2vs0mg"},{"bike_id":"b835c39e-415c-4023-88dd-d0a5abed34e3","system_id":"levelo_inurba_marseille","lat":43.29264,"lon":5.38442,"is_reserved":false,"is_disabled":false,"rental_uris":{"android":"levelo://app?vid=b835c39e-415c-4023-88dd-d0a5abed34e3","ios":"levelo://app?vid=b835c39e-415c-4023-88dd-d0a5abed34e3"},"vehicle_type_id":"4","last_reported":1736439070,"current_range_meters":21600,"station_id":"ce4bh692rcd13ifvqea0","pricing_plan_id":"cebpf4jnsgd1na2vs0mg"},{"bike_id":"dbf69a6d-88c5-42d2-b271-06c7a122ec44","system_id":"levelo_inurba_marseille","lat":43.29914,"lon":5.37475,"is_reserved":false,"is_disabled":false,"rental_uris":{"android":"levelo://app?vid=dbf69a6d-88c5-42d2-b271-06c7a122ec44","ios":"levelo://app?vid=dbf69a6d-88c5-42d2-b271-06c7a122ec44"},"vehicle_type_id":"4","last_reported":1736439070,"current_range_meters":38800,"station_id":"ce4bgjh2rcd13ifvqbg0","pricing_plan_id":"cebpf4jnsgd1na2vs0mg"},{"bike_id":"2fbf8d12-0742-4ea3-8422-36ffc63445bf","system_id":"levelo_inurba_marseille","lat":43.30151,"lon":5.38094,"is_reserved":false,"is_disabled":true,"rental_uris":{"android":"levelo://app?vid=2fbf8d12-0742-4ea3-8422-36ffc63445bf","ios":"levelo://app?vid=2fbf8d12-0742-4ea3-8422-36ffc63445bf"},"vehicle_type_id":"4","last_reported":1736439070,"current_range_meters":0,"station_id":"ce4bgjp2rcd13ifvqbh0","pricing_plan_id":"cebpf4jnsgd1na2vs0mg"},{"bike_id":"563c4a7d-5391-46eb-ab20-093cc97fac26","system_id":"levelo_inurba_marseille","lat":43.28454,"lon":5.35888,"is_reserved":false,"is_disabled":false,"rental_uris":{"android":"levelo://app?vid=563c4a7d-5391-46eb-ab20-093cc97fac26","ios":"levelo://app?vid=563c4a7d-5391-46eb-ab20-093cc97fac26"},"vehicle_type_id":"4","last_reported":1736439070,"current_range_meters":12000,"station_id":"ce4bhah2rcd13ifvqei0","pricing_plan_id":"cebpf4jnsgd1na2vs0mg"},{"bike_id":"4bf95e96-add7-4b29-a56b-49a43054368a","system_id":"levelo_inurba_marseille","lat":43.24812,"lon":5.37454,"is_reserved":false,"is_disabled":false,"rental_uris":{"android":"levelo://app?vid=4bf95e96-add7-4b29-a56b-49a43054368a","ios":"levelo://app?vid=4bf95e96-add7-4b29-a56b-49a43054368a"},"vehicle_type_id":"4","last_reported":1736439070,"current_range_meters":38800,"station_id":"ce4bhgh2rcd13ifvqfb0","pricing_plan_id":"cebpf4jnsgd1na2vs0mg"},{"bike_id":"004c2ac5-7f25-4e48-8a80-9a02537f6ba6","system_id":"levelo_inurba_marseille","lat":43.32113,"lon":5.36763,"is_reserved":false,"is_disabled":false,"rental_uris":{"android":"levelo://app?vid=004c2ac5-7f25-4e48-8a80-9a02537f6ba6","ios":"levelo://app?vid=004c2ac5-7f25-4e48-8a80-9a02537f6ba6"},"vehicle_type_id":"4","last_reported":1736439070,"current_range_meters":38800,"station_id":"ce4bhrh2rcd13ifvqhug","pricing_plan_id":"cebpf4jnsgd1na2vs0mg"},{"bike_id":"e9ca9ffc-62cf-4744-95c2-12b0950f0bdc","system_id":"levelo_inurba_marseille","lat":43.27319,"lon":5.39084,"is_reserved":false,"is_disabled":false,"rental_uris":{"android":"levelo://app?vid=e9ca9ffc-62cf-4744-95c2-12b0950f0bdc","ios":"levelo://app?vid=e9ca9ffc-62cf-4744-95c2-12b0950f0bdc"},"vehicle_type_id":"4","last_reported":1736439070,"current_range_meters":38800,"station_id":"ce4bhgp2rcd13ifvqfe0","pricing_plan_id":"cebpf4jnsgd1na2vs0mg"},{"bike_id":"79bd6696-818b-4c50-8577-baec0071d91c","system_id":"levelo_inurba_marseille","lat":43.28358,"lon":5.38105,"is_reserved":false,"is_disabled":false,"rental_uris":{"android":"levelo://app?vid=79bd6696-818b-4c50-8577-baec0071d91c","ios":"levelo://app?vid=79bd6696-818b-4c50-8577-baec0071d91c"},"vehicle_type_id":"4","last_reported":1736439070,"current_range_meters":3200,"station_id":"ce4bh412rcd13ifvqdr0","pricing_plan_id":"cebpf4jnsgd1na2vs0mg"},{"bike_id":"bb9f2a78-1f15-4f1f-90ee-8bb4ea3a2677","system_id":"levelo_inurba_marseille","lat":43.27209,"lon":5.39185,"is_reserved":false,"is_disabled":false,"rental_uris":{"android":"levelo://app?vid=bb9f2a78-1f15-4f1f-90ee-8bb4ea3a2677","ios":"levelo://app?vid=bb9f2a78-1f15-4f1f-90ee-8bb4ea3a2677"},"vehicle_type_id":"4","last_reported":1736439070,"current_range_meters":22000,"station_id":"ce4bhhp2rcd13ifvqfm0","pricing_plan_id":"cebpf4jnsgd1na2vs0mg"},{"bike_id":"adbfaaa7-ba24-4e87-9d87-98bd6b39e6d7","system_id":"levelo_inurba_marseille","lat":43.2827,"lon":5.35061,"is_reserved":false,"is_disabled":true,"rental_uris":{"android":"levelo://app?vid=adbfaaa7-ba24-4e87-9d87-98bd6b39e6d7","ios":"levelo://app?vid=adbfaaa7-ba24-4e87-9d87-98bd6b39e6d7"},"vehicle_type_id":"4","last_reported":1736439070,"current_range_meters":0,"station_id":"ce4bhbp2rcd13ifvqerg","pricing_plan_id":"cebpf4jnsgd1na2vs0mg"},{"bike_id":"c75d4175-c9eb-4dc6-a6fe-60d1e39a072b","system_id":"levelo_inurba_marseille","lat":43.274415,"lon":5.39423,"is_reserved":false,"is_disabled":false,"rental_uris":{"android":"levelo://app?vid=c75d4175-c9eb-4dc6-a6fe-60d1e39a072b","ios":"levelo://app?vid=c75d4175-c9eb-4dc6-a6fe-60d1e39a072b"},"vehicle_type_id":"4","last_reported":1736439070,"current_range_meters":31200,"station_id":"ce4bhdp2rcd13ifvqf20","pricing_plan_id":"cebpf4jnsgd1na2vs0mg"},{"bike_id":"f0da7c67-89bc-42d5-8de1-b30e0113d6d0","system_id":"levelo_inurba_marseille","lat":43.29684,"lon":5.37286,"is_reserved":false,"is_disabled":false,"rental_uris":{"android":"levelo://app?vid=f0da7c67-89bc-42d5-8de1-b30e0113d6d0","ios":"levelo://app?vid=f0da7c67-89bc-42d5-8de1-b30e0113d6d0"},"vehicle_type_id":"4","last_reported":1736439070,"current_range_meters":38800,"station_id":"ce4bgk12rcd13ifvqbj0","pricing_plan_id":"cebpf4jnsgd1na2vs0mg"},{"bike_id":"f9c7acbd-5345-46d3-af4c-70b33f8a316e","system_id":"levelo_inurba_marseille","lat":43.27985,"lon":5.41659,"is_reserved":false,"is_disabled":true,"rental_uris":{"android":"levelo://app?vid=f9c7acbd-5345-46d3-af4c-70b33f8a316e","ios":"levelo://app?vid=f9c7acbd-5345-46d3-af4c-70b33f8a316e"},"vehicle_type_id":"4","last_reported":1736439070,"current_range_meters":16800,"station_id":"ce4bho12rcd13ifvqh1g","pricing_plan_id":"cebpf4jnsgd1na2vs0mg"},{"bike_id":"a5fb48ab-1876-4efb-bc63-f6f5fee9a86d","system_id":"levelo_inurba_marseille","lat":43.32364,"lon":5.36759,"is_reserved":false,"is_disabled":false,"rental_uris":{"android":"levelo://app?vid=a5fb48ab-1876-4efb-bc63-f6f5fee9a86d","ios":"levelo://app?vid=a5fb48ab-1876-4efb-bc63-f6f5fee9a86d"},"vehicle_type_id":"4","last_reported":1736439070,"current_range_meters":9600,"station_id":"ce4bhsh2rcd13ifvqi2g","pricing_plan_id":"cebpf4jnsgd1na2vs0mg"},{"bike_id":"47668183-4c9e-47ff-acce-6a5e2d65bc54","system_id":"levelo_inurba_marseille","lat":43.23966,"lon":5.36633,"is_reserved":false,"is_disabled":false,"rental_uris":{"android":"levelo://app?vid=47668183-4c9e-47ff-acce-6a5e2d65bc54","ios":"levelo://app?vid=47668183-4c9e-47ff-acce-6a5e2d65bc54"},"vehicle_type_id":"4","last_reported":1736439070,"current_range_meters":28400,"station_id":"ce4bhi12rcd13ifvqfp0","pricing_plan_id":"cebpf4jnsgd1na2vs0mg"},{"bike_id":"b6d947ad-f5e3-416b-b159-ca8c6626505c","system_id":"levelo_inurba_marseille","lat":43.32669,"lon":5.4099,"is_reserved":false,"is_disabled":false,"rental_uris":{"android":"levelo://app?vid=b6d947ad-f5e3-416b-b159-ca8c6626505c","ios":"levelo://app?vid=b6d947ad-f5e3-416b-b159-ca8c6626505c"},"vehicle_type_id":"4","last_reported":1736439070,"current_range_meters":30400,"station_id":"ce4bhpp2rcd13ifvqhgg","pricing_plan_id":"cebpf4jnsgd1na2vs0mg"},{"bike_id":"88c93b5a-64d3-4598-bbca-0f7e2425ab41","system_id":"levelo_inurba_marseille","lat":43.28841,"lon":5.3931,"is_reserved":false,"is_disabled":false,"rental_uris":{"android":"levelo://app?vid=88c93b5a-64d3-4598-bbca-0f7e2425ab41","ios":"levelo://app?vid=88c93b5a-64d3-4598-bbca-0f7e2425ab41"},"vehicle_type_id":"4","last_reported":1736439070,"current_range_meters":16800,"station_id":"ce4bh2p2rcd13ifvqdi0","pricing_plan_id":"cebpf4jnsgd1na2vs0mg"},{"bike_id":"6630cfff-48f7-459d-a512-7a547595eef4","system_id":"levelo_inurba_marseille","lat":43.26492,"lon":5.39542,"is_reserved":false,"is_disabled":false,"rental_uris":{"android":"levelo://app?vid=6630cfff-48f7-459d-a512-7a547595eef4","ios":"levelo://app?vid=6630cfff-48f7-459d-a512-7a547595eef4"},"vehicle_type_id":"4","last_reported":1736439070,"current_range_meters":24400,"station_id":"ce4bhi12rcd13ifvqfq0","pricing_plan_id":"cebpf4jnsgd1na2vs0mg"},{"bike_id":"64b15e4f-4089-45af-9b53-9a7fa82abf72","system_id":"levelo_inurba_marseille","lat":43.284246,"lon":5.349838,"is_reserved":false,"is_disabled":false,"rental_uris":{"android":"levelo://app?vid=64b15e4f-4089-45af-9b53-9a7fa82abf72","ios":"levelo://app?vid=64b15e4f-4089-45af-9b53-9a7fa82abf72"},"vehicle_type_id":"4","last_reported":1736439070,"current_range_meters":37600,"station_id":"ce4bhbh2rcd13ifvqepg","pricing_plan_id":"cebpf4jnsgd1na2vs0mg"},{"bike_id":"feeeae9a-4bcc-477a-bc8c-e9391fa8aedd","system_id":"levelo_inurba_marseille","lat":43.291858,"lon":5.393179,"is_reserved":false,"is_disabled":true,"rental_uris":{"android":"levelo://app?vid=feeeae9a-4bcc-477a-bc8c-e9391fa8aedd","ios":"levelo://app?vid=feeeae9a-4bcc-477a-bc8c-e9391fa8aedd"},"vehicle_type_id":"4","last_reported":1736439070,"current_range_meters":0,"station_id":"ce4bh192rcd13ifvqdd0","pricing_plan_id":"cebpf4jnsgd1na2vs0mg"},{"bike_id":"bbb42691-618e-438b-93dc-2acd2c34e075","system_id":"levelo_inurba_marseille","lat":43.30798,"lon":5.43515,"is_reserved":false,"is_disabled":false,"rental_uris":{"android":"levelo://app?vid=bbb42691-618e-438b-93dc-2acd2c34e075","ios":"levelo://app?vid=bbb42691-618e-438b-93dc-2acd2c34e075"},"vehicle_type_id":"4","last_reported":1736439070,"current_range_meters":38800,"station_id":"ce4bhph2rcd13ifvqheg","pricing_plan_id":"cebpf4jnsgd1na2vs0mg"},{"bike_id":"dbe4d7d2-95f9-4a28-b000-f9ac7c3f52eb","system_id":"levelo_inurba_marseille","lat":43.29194,"lon":5.39304,"is_reserved":false,"is_disabled":true,"rental_uris":{"android":"levelo://app?vid=dbe4d7d2-95f9-4a28-b000-f9ac7c3f52eb","ios":"levelo://app?vid=dbe4d7d2-95f9-4a28-b000-f9ac7c3f52eb"},"vehicle_type_id":"4","last_reported":1736439070,"current_range_meters":0,"station_id":"ce4bh192rcd13ifvqdd0","pricing_plan_id":"cebpf4jnsgd1na2vs0mg"},{"bike_id":"fb91667e-a559-4f91-8475-0f061f33a4a1","system_id":"levelo_inurba_marseille","lat":43.29711,"lon":5.36588,"is_reserved":false,"is_disabled":false,"rental_uris":{"android":"levelo://app?vid=fb91667e-a559-4f91-8475-0f061f33a4a1","ios":"levelo://app?vid=fb91667e-a559-4f91-8475-0f061f33a4a1"},"vehicle_type_id":"4","last_reported":1736439070,"current_range_meters":14400,"station_id":"ce4bgn12rcd13ifvqbt0","pricing_plan_id":"cebpf4jnsgd1na2vs0mg"},{"bike_id":"850c8c32-31ea-45fe-8c48-610c59d15175","system_id":"levelo_inurba_marseille","lat":43.25578,"lon":5.38238,"is_reserved":false,"is_disabled":false,"rental_uris":{"android":"levelo://app?vid=850c8c32-31ea-45fe-8c48-610c59d15175","ios":"levelo://app?vid=850c8c32-31ea-45fe-8c48-610c59d15175"},"vehicle_type_id":"4","last_reported":1736439070,"current_range_meters":38800,"station_id":"ce4bhih2rcd13ifvqfs0","pricing_plan_id":"cebpf4jnsgd1na2vs0mg"},{"bike_id":"6d907632-b7a4-409f-98d5-031bae93ab87","system_id":"levelo_inurba_marseille","lat":43.23963,"lon":5.36626,"is_reserved":false,"is_disabled":false,"rental_uris":{"android":"levelo://app?vid=6d907632-b7a4-409f-98d5-031bae93ab87","ios":"levelo://app?vid=6d907632-b7a4-409f-98d5-031bae93ab87"},"vehicle_type_id":"4","last_reported":1736439070,"current_range_meters":10800,"station_id":"ce4bhi12rcd13ifvqfp0","pricing_plan_id":"cebpf4jnsgd1na2vs0mg"},{"bike_id":"4f608113-602b-4fcd-a2fb-5a45e549eb1e","system_id":"levelo_inurba_marseille","lat":43.31488,"lon":5.37304,"is_reserved":false,"is_disabled":false,"rental_uris":{"android":"levelo://app?vid=4f608113-602b-4fcd-a2fb-5a45e549eb1e","ios":"levelo://app?vid=4f608113-602b-4fcd-a2fb-5a45e549eb1e"},"vehicle_type_id":"4","last_reported":1736439070,"current_range_meters":39200,"station_id":"ce4bgt12rcd13ifvqcd0","pricing_plan_id":"cebpf4jnsgd1na2vs0mg"},{"bike_id":"07e82d96-2b36-4368-a217-0bee627ae6e1","system_id":"levelo_inurba_marseille","lat":43.30541,"lon":5.36529,"is_reserved":false,"is_disabled":false,"rental_uris":{"android":"levelo://app?vid=07e82d96-2b36-4368-a217-0bee627ae6e1","ios":"levelo://app?vid=07e82d96-2b36-4368-a217-0bee627ae6e1"},"vehicle_type_id":"4","last_reported":1736439070,"current_range_meters":36000,"station_id":"ce4bgs12rcd13ifvqcag","pricing_plan_id":"cebpf4jnsgd1na2vs0mg"},{"bike_id":"7932feb2-4e05-4abe-b64b-613b3bfe8976","system_id":"levelo_inurba_marseille","lat":43.25721,"lon":5.41112,"is_reserved":false,"is_disabled":false,"rental_uris":{"android":"levelo://app?vid=7932feb2-4e05-4abe-b64b-613b3bfe8976","ios":"levelo://app?vid=7932feb2-4e05-4abe-b64b-613b3bfe8976"},"vehicle_type_id":"4","last_reported":1736439070,"current_range_meters":26800,"station_id":"ce4bhkp2rcd13ifvqgd0","pricing_plan_id":"cebpf4jnsgd1na2vs0mg"},{"bike_id":"a816258e-3246-4099-b421-3c9b784b731d","system_id":"levelo_inurba_marseille","lat":43.241893,"lon":5.396987,"is_reserved":false,"is_disabled":false,"rental_uris":{"android":"levelo://app?vid=a816258e-3246-4099-b421-3c9b784b731d","ios":"levelo://app?vid=a816258e-3246-4099-b421-3c9b784b731d"},"vehicle_type_id":"4","last_reported":1736439070,"current_range_meters":38800,"station_id":"ce4bhn12rcd13ifvqgpg","pricing_plan_id":"cebpf4jnsgd1na2vs0mg"},{"bike_id":"af2bd5d9-fb31-42c2-8449-805e98f22fe2","system_id":"levelo_inurba_marseille","lat":43.29533,"lon":5.38545,"is_reserved":false,"is_disabled":false,"rental_uris":{"android":"levelo://app?vid=af2bd5d9-fb31-42c2-8449-805e98f22fe2","ios":"levelo://app?vid=af2bd5d9-fb31-42c2-8449-805e98f22fe2"},"vehicle_type_id":"4","last_reported":1736439070,"current_range_meters":35200,"station_id":"ce4bgih2rcd13ifvqba0","pricing_plan_id":"cebpf4jnsgd1na2vs0mg"},{"bike_id":"ce2d8ed5-628b-4a8c-aa47-43a70d53e398","system_id":"levelo_inurba_marseille","lat":43.2792,"lon":5.39576,"is_reserved":false,"is_disabled":false,"rental_uris":{"android":"levelo://app?vid=ce2d8ed5-628b-4a8c-aa47-43a70d53e398","ios":"levelo://app?vid=ce2d8ed5-628b-4a8c-aa47-43a70d53e398"},"vehicle_type_id":"4","last_reported":1736439070,"current_range_meters":16800,"station_id":"ce4bhf92rcd13ifvqf40","pricing_plan_id":"cebpf4jnsgd1na2vs0mg"},{"bike_id":"b7596136-ea9c-4d32-84c1-1b89a3920532","system_id":"levelo_inurba_marseille","lat":43.23188,"lon":5.39968,"is_reserved":false,"is_disabled":false,"rental_uris":{"android":"levelo://app?vid=b7596136-ea9c-4d32-84c1-1b89a3920532","ios":"levelo://app?vid=b7596136-ea9c-4d32-84c1-1b89a3920532"},"vehicle_type_id":"4","last_reported":1736439070,"current_range_meters":26800,"station_id":"ce4bhn12rcd13ifvqgqg","pricing_plan_id":"cebpf4jnsgd1na2vs0mg"},{"bike_id":"38d0c53e-a765-4eb8-9fcf-204c9744ffd4","system_id":"levelo_inurba_marseille","lat":43.26204,"lon":5.37912,"is_reserved":false,"is_disabled":false,"rental_uris":{"android":"levelo://app?vid=38d0c53e-a765-4eb8-9fcf-204c9744ffd4","ios":"levelo://app?vid=38d0c53e-a765-4eb8-9fcf-204c9744ffd4"},"vehicle_type_id":"4","last_reported":1736439070,"current_range_meters":28400,"station_id":"ce4bhjp2rcd13ifvqg90","pricing_plan_id":"cebpf4jnsgd1na2vs0mg"},{"bike_id":"8f923880-a48a-4dce-84f0-3ab60560b86a","system_id":"levelo_inurba_marseille","lat":43.28572,"lon":5.39487,"is_reserved":false,"is_disabled":false,"rental_uris":{"android":"levelo://app?vid=8f923880-a48a-4dce-84f0-3ab60560b86a","ios":"levelo://app?vid=8f923880-a48a-4dce-84f0-3ab60560b86a"},"vehicle_type_id":"4","last_reported":1736439070,"current_range_meters":30000,"station_id":"ce4bh292rcd13ifvqdg0","pricing_plan_id":"cebpf4jnsgd1na2vs0mg"},{"bike_id":"f5bc7085-74da-4e06-bc38-80e9b76c030c","system_id":"levelo_inurba_marseille","lat":43.2717,"lon":5.40994,"is_reserved":false,"is_disabled":false,"rental_uris":{"android":"levelo://app?vid=f5bc7085-74da-4e06-bc38-80e9b76c030c","ios":"levelo://app?vid=f5bc7085-74da-4e06-bc38-80e9b76c030c"},"vehicle_type_id":"4","last_reported":1736439070,"current_range_meters":28800,"station_id":"ce4bhl12rcd13ifvqgf0","pricing_plan_id":"cebpf4jnsgd1na2vs0mg"},{"bike_id":"2efead72-824c-45ef-8cf3-b657af317181","system_id":"levelo_inurba_marseille","lat":43.29857,"lon":5.36275,"is_reserved":false,"is_disabled":false,"rental_uris":{"android":"levelo://app?vid=2efead72-824c-45ef-8cf3-b657af317181","ios":"levelo://app?vid=2efead72-824c-45ef-8cf3-b657af317181"},"vehicle_type_id":"4","last_reported":1736439070,"current_range_meters":38800,"station_id":"ce4bgpp2rcd13ifvqc3g","pricing_plan_id":"cebpf4jnsgd1na2vs0mg"},{"bike_id":"3965b4bc-83b0-48b6-8bba-edbef38dd6c5","system_id":"levelo_inurba_marseille","lat":43.29426,"lon":5.38605,"is_reserved":false,"is_disabled":false,"rental_uris":{"android":"levelo://app?vid=3965b4bc-83b0-48b6-8bba-edbef38dd6c5","ios":"levelo://app?vid=3965b4bc-83b0-48b6-8bba-edbef38dd6c5"},"vehicle_type_id":"4","last_reported":1736439070,"current_range_meters":37600,"station_id":"ce4bh2h2rcd13ifvqdh0","pricing_plan_id":"cebpf4jnsgd1na2vs0mg"},{"bike_id":"24181dd3-0787-4379-b3c6-dd5adf68524c","system_id":"levelo_inurba_marseille","lat":43.30436,"lon":5.38867,"is_reserved":false,"is_disabled":false,"rental_uris":{"android":"levelo://app?vid=24181dd3-0787-4379-b3c6-dd5adf68524c","ios":"levelo://app?vid=24181dd3-0787-4379-b3c6-dd5adf68524c"},"vehicle_type_id":"4","last_reported":1736439070,"current_range_meters":32400,"station_id":"ce4bgk12rcd13ifvqbi0","pricing_plan_id":"cebpf4jnsgd1na2vs0mg"},{"bike_id":"f5ca1267-8796-4e04-ae34-eb0613d65667","system_id":"levelo_inurba_marseille","lat":43.29613,"lon":5.37707,"is_reserved":false,"is_disabled":true,"rental_uris":{"android":"levelo://app?vid=f5ca1267-8796-4e04-ae34-eb0613d65667","ios":"levelo://app?vid=f5ca1267-8796-4e04-ae34-eb0613d65667"},"vehicle_type_id":"4","last_reported":1736439070,"current_range_meters":19200,"station_id":"ce4bgi92rcd13ifvqb90","pricing_plan_id":"cebpf4jnsgd1na2vs0mg"},{"bike_id":"ef55feca-657c-488b-9e32-b2fe658b0af8","system_id":"levelo_inurba_marseille","lat":43.27207,"lon":5.39167,"is_reserved":false,"is_disabled":false,"rental_uris":{"android":"levelo://app?vid=ef55feca-657c-488b-9e32-b2fe658b0af8","ios":"levelo://app?vid=ef55feca-657c-488b-9e32-b2fe658b0af8"},"vehicle_type_id":"4","last_reported":1736439070,"current_range_meters":38400,"station_id":"ce4bhhp2rcd13ifvqfm0","pricing_plan_id":"cebpf4jnsgd1na2vs0mg"},{"bike_id":"e74bade2-655e-4dd9-b587-2816d139261b","system_id":"levelo_inurba_marseille","lat":43.30094,"lon":5.39078,"is_reserved":false,"is_disabled":false,"rental_uris":{"android":"levelo://app?vid=e74bade2-655e-4dd9-b587-2816d139261b","ios":"levelo://app?vid=e74bade2-655e-4dd9-b587-2816d139261b"},"vehicle_type_id":"4","last_reported":1736439070,"current_range_meters":12400,"station_id":"ce4bh192rcd13ifvqdb0","pricing_plan_id":"cebpf4jnsgd1na2vs0mg"},{"bike_id":"4445bdac-50b8-4b63-9a1d-60360f86ae93","system_id":"levelo_inurba_marseille","lat":43.31081,"lon":5.42424,"is_reserved":false,"is_disabled":false,"rental_uris":{"android":"levelo://app?vid=4445bdac-50b8-4b63-9a1d-60360f86ae93","ios":"levelo://app?vid=4445bdac-50b8-4b63-9a1d-60360f86ae93"},"vehicle_type_id":"4","last_reported":1736439070,"current_range_meters":12000,"station_id":"ce4bhp92rcd13ifvqhag","pricing_plan_id":"cebpf4jnsgd1na2vs0mg"},{"bike_id":"7e647b87-ee39-48c8-8a57-8ca415c7293d","system_id":"levelo_inurba_marseille","lat":43.23053,"lon":5.35492,"is_reserved":false,"is_disabled":false,"rental_uris":{"android":"levelo://app?vid=7e647b87-ee39-48c8-8a57-8ca415c7293d","ios":"levelo://app?vid=7e647b87-ee39-48c8-8a57-8ca415c7293d"},"vehicle_type_id":"4","last_reported":1736439070,"current_range_meters":33200,"station_id":"cpo3342slgdg3j2ifvpg","pricing_plan_id":"cebpf4jnsgd1na2vs0mg"},{"bike_id":"a0df9193-55f6-4a03-826a-744e803b6ed4","system_id":"levelo_inurba_marseille","lat":43.24662,"lon":5.38156,"is_reserved":false,"is_disabled":false,"rental_uris":{"android":"levelo://app?vid=a0df9193-55f6-4a03-826a-744e803b6ed4","ios":"levelo://app?vid=a0df9193-55f6-4a03-826a-744e803b6ed4"},"vehicle_type_id":"4","last_reported":1736439070,"current_range_meters":32000,"station_id":"ce4bhih2rcd13ifvqfr0","pricing_plan_id":"cebpf4jnsgd1na2vs0mg"},{"bike_id":"b3235d33-613c-4817-b2d7-f386fe4e079a","system_id":"levelo_inurba_marseille","lat":43.31351,"lon":5.37273,"is_reserved":false,"is_disabled":false,"rental_uris":{"android":"levelo://app?vid=b3235d33-613c-4817-b2d7-f386fe4e079a","ios":"levelo://app?vid=b3235d33-613c-4817-b2d7-f386fe4e079a"},"vehicle_type_id":"4","last_reported":1736439070,"current_range_meters":27200,"station_id":"","pricing_plan_id":"cebpf4jnsgd1na2vs0mg"},{"bike_id":"21bc6e9c-ceeb-414d-b012-9bd69da81632","system_id":"levelo_inurba_marseille","lat":43.26782,"lon":5.39415,"is_reserved":false,"is_disabled":false,"rental_uris":{"android":"levelo://app?vid=21bc6e9c-ceeb-414d-b012-9bd69da81632","ios":"levelo://app?vid=21bc6e9c-ceeb-414d-b012-9bd69da81632"},"vehicle_type_id":"4","last_reported":1736439070,"current_range_meters":35600,"station_id":"ce4bhh12rcd13ifvqfg0","pricing_plan_id":"cebpf4jnsgd1na2vs0mg"},{"bike_id":"95080515-c909-4d80-b47e-bd910cceccba","system_id":"levelo_inurba_marseille","lat":43.27434,"lon":5.39375,"is_reserved":false,"is_disabled":false,"rental_uris":{"android":"levelo://app?vid=95080515-c909-4d80-b47e-bd910cceccba","ios":"levelo://app?vid=95080515-c909-4d80-b47e-bd910cceccba"},"vehicle_type_id":"4","last_reported":1736439070,"current_range_meters":6800,"station_id":"ce4bhdp2rcd13ifvqf20","pricing_plan_id":"cebpf4jnsgd1na2vs0mg"},{"bike_id":"3ac451eb-64aa-437a-a411-f22393b14279","system_id":"levelo_inurba_marseille","lat":43.29426,"lon":5.38624,"is_reserved":false,"is_disabled":false,"rental_uris":{"android":"levelo://app?vid=3ac451eb-64aa-437a-a411-f22393b14279","ios":"levelo://app?vid=3ac451eb-64aa-437a-a411-f22393b14279"},"vehicle_type_id":"4","last_reported":1736439070,"current_range_meters":8000,"station_id":"ce4bh2h2rcd13ifvqdh0","pricing_plan_id":"cebpf4jnsgd1na2vs0mg"},{"bike_id":"f5a6ca4d-669a-402f-9584-da75e520c018","system_id":"levelo_inurba_marseille","lat":43.24179,"lon":5.39735,"is_reserved":false,"is_disabled":true,"rental_uris":{"android":"levelo://app?vid=f5a6ca4d-669a-402f-9584-da75e520c018","ios":"levelo://app?vid=f5a6ca4d-669a-402f-9584-da75e520c018"},"vehicle_type_id":"4","last_reported":1736439070,"current_range_meters":0,"station_id":"ce4bhn12rcd13ifvqgpg","pricing_plan_id":"cebpf4jnsgd1na2vs0mg"},{"bike_id":"48a87bca-d525-453d-8aaf-673ab33c0ab7","system_id":"levelo_inurba_marseille","lat":43.25488,"lon":5.37646,"is_reserved":false,"is_disabled":false,"rental_uris":{"android":"levelo://app?vid=48a87bca-d525-453d-8aaf-673ab33c0ab7","ios":"levelo://app?vid=48a87bca-d525-453d-8aaf-673ab33c0ab7"},"vehicle_type_id":"4","last_reported":1736439070,"current_range_meters":24000,"station_id":"ce4bhh12rcd13ifvqff0","pricing_plan_id":"cebpf4jnsgd1na2vs0mg"},{"bike_id":"d10417ff-387e-4ec1-84f5-a6c3f2fc3ef6","system_id":"levelo_inurba_marseille","lat":43.29228,"lon":5.3606,"is_reserved":false,"is_disabled":false,"rental_uris":{"android":"levelo://app?vid=d10417ff-387e-4ec1-84f5-a6c3f2fc3ef6","ios":"levelo://app?vid=d10417ff-387e-4ec1-84f5-a6c3f2fc3ef6"},"vehicle_type_id":"4","last_reported":1736439070,"current_range_meters":36800,"station_id":"ce4bhbh2rcd13ifvqeqg","pricing_plan_id":"cebpf4jnsgd1na2vs0mg"},{"bike_id":"fccbecdc-7f6b-4c85-b510-cd5a92912b79","system_id":"levelo_inurba_marseille","lat":43.296645,"lon":5.372935,"is_reserved":false,"is_disabled":false,"rental_uris":{"android":"levelo://app?vid=fccbecdc-7f6b-4c85-b510-cd5a92912b79","ios":"levelo://app?vid=fccbecdc-7f6b-4c85-b510-cd5a92912b79"},"vehicle_type_id":"4","last_reported":1736439070,"current_range_meters":38800,"station_id":"ce4bgk12rcd13ifvqbj0","pricing_plan_id":"cebpf4jnsgd1na2vs0mg"},{"bike_id":"2d1536de-ed9a-4813-bbd6-10bda74ca621","system_id":"levelo_inurba_marseille","lat":43.24796,"lon":5.37443,"is_reserved":false,"is_disabled":false,"rental_uris":{"android":"levelo://app?vid=2d1536de-ed9a-4813-bbd6-10bda74ca621","ios":"levelo://app?vid=2d1536de-ed9a-4813-bbd6-10bda74ca621"},"vehicle_type_id":"4","last_reported":1736439070,"current_range_meters":39200,"station_id":"ce4bhgh2rcd13ifvqfb0","pricing_plan_id":"cebpf4jnsgd1na2vs0mg"},{"bike_id":"dd95b172-24fd-4056-9bb1-1ba37d74b460","system_id":"levelo_inurba_marseille","lat":43.25594,"lon":5.38219,"is_reserved":false,"is_disabled":false,"rental_uris":{"android":"levelo://app?vid=dd95b172-24fd-4056-9bb1-1ba37d74b460","ios":"levelo://app?vid=dd95b172-24fd-4056-9bb1-1ba37d74b460"},"vehicle_type_id":"4","last_reported":1736439070,"current_range_meters":19600,"station_id":"ce4bhih2rcd13ifvqfs0","pricing_plan_id":"cebpf4jnsgd1na2vs0mg"},{"bike_id":"d5bb272d-b3a4-4a9f-ab16-c5c4d707b09e","system_id":"levelo_inurba_marseille","lat":43.30364,"lon":5.41869,"is_reserved":false,"is_disabled":false,"rental_uris":{"android":"levelo://app?vid=d5bb272d-b3a4-4a9f-ab16-c5c4d707b09e","ios":"levelo://app?vid=d5bb272d-b3a4-4a9f-ab16-c5c4d707b09e"},"vehicle_type_id":"4","last_reported":1736439070,"current_range_meters":25600,"station_id":"ce4bhop2rcd13ifvqh7g","pricing_plan_id":"cebpf4jnsgd1na2vs0mg"},{"bike_id":"464dd38b-b87d-4903-a2d2-da5b7ebe9453","system_id":"levelo_inurba_marseille","lat":43.29005,"lon":5.3562,"is_reserved":false,"is_disabled":false,"rental_uris":{"android":"levelo://app?vid=464dd38b-b87d-4903-a2d2-da5b7ebe9453","ios":"levelo://app?vid=464dd38b-b87d-4903-a2d2-da5b7ebe9453"},"vehicle_type_id":"4","last_reported":1736439070,"current_range_meters":31200,"station_id":"ce4bhb92rcd13ifvqen0","pricing_plan_id":"cebpf4jnsgd1na2vs0mg"},{"bike_id":"e5e105f8-6f91-47dd-95af-74b6f0a1ed23","system_id":"levelo_inurba_marseille","lat":43.28104,"lon":5.37833,"is_reserved":false,"is_disabled":false,"rental_uris":{"android":"levelo://app?vid=e5e105f8-6f91-47dd-95af-74b6f0a1ed23","ios":"levelo://app?vid=e5e105f8-6f91-47dd-95af-74b6f0a1ed23"},"vehicle_type_id":"4","last_reported":1736439070,"current_range_meters":19600,"station_id":"ce4bha12rcd13ifvqee0","pricing_plan_id":"cebpf4jnsgd1na2vs0mg"},{"bike_id":"3b4478aa-aa08-44e3-8c3e-0ca0badb5e7a","system_id":"levelo_inurba_marseille","lat":43.3134,"lon":5.39695,"is_reserved":false,"is_disabled":false,"rental_uris":{"android":"levelo://app?vid=3b4478aa-aa08-44e3-8c3e-0ca0badb5e7a","ios":"levelo://app?vid=3b4478aa-aa08-44e3-8c3e-0ca0badb5e7a"},"vehicle_type_id":"4","last_reported":1736439070,"current_range_meters":38800,"station_id":"ce4bgvp2rcd13ifvqcu0","pricing_plan_id":"cebpf4jnsgd1na2vs0mg"},{"bike_id":"3f52a82f-1f82-41df-b1fa-819119ab43b8","system_id":"levelo_inurba_marseille","lat":43.2808,"lon":5.39656,"is_reserved":false,"is_disabled":false,"rental_uris":{"android":"levelo://app?vid=3f52a82f-1f82-41df-b1fa-819119ab43b8","ios":"levelo://app?vid=3f52a82f-1f82-41df-b1fa-819119ab43b8"},"vehicle_type_id":"4","last_reported":1736439070,"current_range_meters":37600,"station_id":"ce4bho12rcd13ifvqh2g","pricing_plan_id":"cebpf4jnsgd1na2vs0mg"},{"bike_id":"23abe2bf-84e3-41fe-972c-4918ef8d82a9","system_id":"levelo_inurba_marseille","lat":43.27204,"lon":5.3918,"is_reserved":false,"is_disabled":false,"rental_uris":{"android":"levelo://app?vid=23abe2bf-84e3-41fe-972c-4918ef8d82a9","ios":"levelo://app?vid=23abe2bf-84e3-41fe-972c-4918ef8d82a9"},"vehicle_type_id":"4","last_reported":1736439070,"current_range_meters":38400,"station_id":"ce4bhhp2rcd13ifvqfm0","pricing_plan_id":"cebpf4jnsgd1na2vs0mg"},{"bike_id":"4afd1126-a949-46b6-bd24-b5f4cf9266e6","system_id":"levelo_inurba_marseille","lat":43.30642,"lon":5.40095,"is_reserved":false,"is_disabled":false,"rental_uris":{"android":"levelo://app?vid=4afd1126-a949-46b6-bd24-b5f4cf9266e6","ios":"levelo://app?vid=4afd1126-a949-46b6-bd24-b5f4cf9266e6"},"vehicle_type_id":"4","last_reported":1736439070,"current_range_meters":26000,"station_id":"ce4bh112rcd13ifvqda0","pricing_plan_id":"cebpf4jnsgd1na2vs0mg"},{"bike_id":"8bae5f33-78f7-4346-b7d2-3626418fa38c","system_id":"levelo_inurba_marseille","lat":43.23202,"lon":5.35548,"is_reserved":false,"is_disabled":false,"rental_uris":{"android":"levelo://app?vid=8bae5f33-78f7-4346-b7d2-3626418fa38c","ios":"levelo://app?vid=8bae5f33-78f7-4346-b7d2-3626418fa38c"},"vehicle_type_id":"4","last_reported":1736439070,"current_range_meters":38800,"station_id":"ce4bhu92rcd13ifvqi70","pricing_plan_id":"cebpf4jnsgd1na2vs0mg"},{"bike_id":"58318a90-7640-4f3f-b193-62a2764b3df1","system_id":"levelo_inurba_marseille","lat":43.23187,"lon":5.35548,"is_reserved":false,"is_disabled":false,"rental_uris":{"android":"levelo://app?vid=58318a90-7640-4f3f-b193-62a2764b3df1","ios":"levelo://app?vid=58318a90-7640-4f3f-b193-62a2764b3df1"},"vehicle_type_id":"4","last_reported":1736439070,"current_range_meters":12400,"station_id":"ce4bhu92rcd13ifvqi70","pricing_plan_id":"cebpf4jnsgd1na2vs0mg"},{"bike_id":"d11f8d41-b43d-4864-86bc-a272892ddd07","system_id":"levelo_inurba_marseille","lat":43.27842,"lon":5.39216,"is_reserved":false,"is_disabled":false,"rental_uris":{"android":"levelo://app?vid=d11f8d41-b43d-4864-86bc-a272892ddd07","ios":"levelo://app?vid=d11f8d41-b43d-4864-86bc-a272892ddd07"},"vehicle_type_id":"4","last_reported":1736439070,"current_range_meters":16400,"station_id":"ce4bhjp2rcd13ifvqga0","pricing_plan_id":"cebpf4jnsgd1na2vs0mg"},{"bike_id":"5d78c106-a971-4198-af25-0346c1dbcb17","system_id":"levelo_inurba_marseille","lat":43.28271,"lon":5.35064,"is_reserved":false,"is_disabled":false,"rental_uris":{"android":"levelo://app?vid=5d78c106-a971-4198-af25-0346c1dbcb17","ios":"levelo://app?vid=5d78c106-a971-4198-af25-0346c1dbcb17"},"vehicle_type_id":"4","last_reported":1736439070,"current_range_meters":38800,"station_id":"ce4bhbp2rcd13ifvqerg","pricing_plan_id":"cebpf4jnsgd1na2vs0mg"},{"bike_id":"a023b9e2-2413-4b3d-a218-b9727e7097b5","system_id":"levelo_inurba_marseille","lat":43.292991,"lon":5.374633,"is_reserved":false,"is_disabled":true,"rental_uris":{"android":"levelo://app?vid=a023b9e2-2413-4b3d-a218-b9727e7097b5","ios":"levelo://app?vid=a023b9e2-2413-4b3d-a218-b9727e7097b5"},"vehicle_type_id":"4","last_reported":1736439070,"current_range_meters":28800,"station_id":"ce4bgi12rcd13ifvqb70","pricing_plan_id":"cebpf4jnsgd1na2vs0mg"},{"bike_id":"0674d2ef-86ed-4426-8d32-8e7450b119f1","system_id":"levelo_inurba_marseille","lat":43.33022,"lon":5.39056,"is_reserved":false,"is_disabled":false,"rental_uris":{"android":"levelo://app?vid=0674d2ef-86ed-4426-8d32-8e7450b119f1","ios":"levelo://app?vid=0674d2ef-86ed-4426-8d32-8e7450b119f1"},"vehicle_type_id":"4","last_reported":1736439070,"current_range_meters":24800,"station_id":"ce4bhr92rcd13ifvqhrg","pricing_plan_id":"cebpf4jnsgd1na2vs0mg"},{"bike_id":"b61410a3-14e1-4aff-ac94-d44098cd6c7f","system_id":"levelo_inurba_marseille","lat":43.31361,"lon":5.38502,"is_reserved":false,"is_disabled":false,"rental_uris":{"android":"levelo://app?vid=b61410a3-14e1-4aff-ac94-d44098cd6c7f","ios":"levelo://app?vid=b61410a3-14e1-4aff-ac94-d44098cd6c7f"},"vehicle_type_id":"4","last_reported":1736439070,"current_range_meters":38800,"station_id":"ce4bgt92rcd13ifvqcf0","pricing_plan_id":"cebpf4jnsgd1na2vs0mg"},{"bike_id":"dca00bba-2f39-40a8-ad4d-72c38ee8461a","system_id":"levelo_inurba_marseille","lat":43.27467,"lon":5.39368,"is_reserved":false,"is_disabled":false,"rental_uris":{"android":"levelo://app?vid=dca00bba-2f39-40a8-ad4d-72c38ee8461a","ios":"levelo://app?vid=dca00bba-2f39-40a8-ad4d-72c38ee8461a"},"vehicle_type_id":"4","last_reported":1736439070,"current_range_meters":32800,"station_id":"","pricing_plan_id":"cebpf4jnsgd1na2vs0mg"},{"bike_id":"e065a6e3-83c5-4fc8-a46d-4e58dc648e8f","system_id":"levelo_inurba_marseille","lat":43.27208,"lon":5.39177,"is_reserved":false,"is_disabled":false,"rental_uris":{"android":"levelo://app?vid=e065a6e3-83c5-4fc8-a46d-4e58dc648e8f","ios":"levelo://app?vid=e065a6e3-83c5-4fc8-a46d-4e58dc648e8f"},"vehicle_type_id":"4","last_reported":1736439070,"current_range_meters":3600,"station_id":"ce4bhhp2rcd13ifvqfm0","pricing_plan_id":"cebpf4jnsgd1na2vs0mg"},{"bike_id":"fcda1bf7-c69b-4557-a8f1-0ada65d0d425","system_id":"levelo_inurba_marseille","lat":43.29919,"lon":5.38146,"is_reserved":false,"is_disabled":false,"rental_uris":{"android":"levelo://app?vid=fcda1bf7-c69b-4557-a8f1-0ada65d0d425","ios":"levelo://app?vid=fcda1bf7-c69b-4557-a8f1-0ada65d0d425"},"vehicle_type_id":"4","last_reported":1736439070,"current_range_meters":38800,"station_id":"ce4bgj12rcd13ifvqbc0","pricing_plan_id":"cebpf4jnsgd1na2vs0mg"},{"bike_id":"e9ec0a66-1ceb-493f-9f5c-d3fdb8ffafe5","system_id":"levelo_inurba_marseille","lat":43.28432,"lon":5.39181,"is_reserved":false,"is_disabled":false,"rental_uris":{"android":"levelo://app?vid=e9ec0a66-1ceb-493f-9f5c-d3fdb8ffafe5","ios":"levelo://app?vid=e9ec0a66-1ceb-493f-9f5c-d3fdb8ffafe5"},"vehicle_type_id":"4","last_reported":1736439070,"current_range_meters":36800,"station_id":"ce4bhoh2rcd13ifvqh5g","pricing_plan_id":"cebpf4jnsgd1na2vs0mg"},{"bike_id":"cb9e88a2-0f49-4702-87dd-06d2b1648625","system_id":"levelo_inurba_marseille","lat":43.29916,"lon":5.37486,"is_reserved":false,"is_disabled":false,"rental_uris":{"android":"levelo://app?vid=cb9e88a2-0f49-4702-87dd-06d2b1648625","ios":"levelo://app?vid=cb9e88a2-0f49-4702-87dd-06d2b1648625"},"vehicle_type_id":"4","last_reported":1736439070,"current_range_meters":35600,"station_id":"ce4bgjh2rcd13ifvqbg0","pricing_plan_id":"cebpf4jnsgd1na2vs0mg"},{"bike_id":"e5ccf9e4-160d-41ab-80cd-ce1fc59bf72c","system_id":"levelo_inurba_marseille","lat":43.29308,"lon":5.37176,"is_reserved":false,"is_disabled":false,"rental_uris":{"android":"levelo://app?vid=e5ccf9e4-160d-41ab-80cd-ce1fc59bf72c","ios":"levelo://app?vid=e5ccf9e4-160d-41ab-80cd-ce1fc59bf72c"},"vehicle_type_id":"4","last_reported":1736439070,"current_range_meters":32800,"station_id":"ce4bgh92rcd13ifvqb40","pricing_plan_id":"cebpf4jnsgd1na2vs0mg"},{"bike_id":"5aa46582-8066-4fee-8988-4c6252810ea1","system_id":"levelo_inurba_marseille","lat":43.32366,"lon":5.38884,"is_reserved":false,"is_disabled":false,"rental_uris":{"android":"levelo://app?vid=5aa46582-8066-4fee-8988-4c6252810ea1","ios":"levelo://app?vid=5aa46582-8066-4fee-8988-4c6252810ea1"},"vehicle_type_id":"4","last_reported":1736439070,"current_range_meters":16800,"station_id":"ce4bhqp2rcd13ifvqhog","pricing_plan_id":"cebpf4jnsgd1na2vs0mg"},{"bike_id":"3bcb6c04-3f4b-4ab4-9911-3082a7f49a3f","system_id":"levelo_inurba_marseille","lat":43.27198,"lon":5.39182,"is_reserved":false,"is_disabled":false,"rental_uris":{"android":"levelo://app?vid=3bcb6c04-3f4b-4ab4-9911-3082a7f49a3f","ios":"levelo://app?vid=3bcb6c04-3f4b-4ab4-9911-3082a7f49a3f"},"vehicle_type_id":"4","last_reported":1736439070,"current_range_meters":32800,"station_id":"ce4bhhp2rcd13ifvqfm0","pricing_plan_id":"cebpf4jnsgd1na2vs0mg"},{"bike_id":"98a82f75-6cf2-4827-b845-90695d2b2297","system_id":"levelo_inurba_marseille","lat":43.28269,"lon":5.35066,"is_reserved":false,"is_disabled":false,"rental_uris":{"android":"levelo://app?vid=98a82f75-6cf2-4827-b845-90695d2b2297","ios":"levelo://app?vid=98a82f75-6cf2-4827-b845-90695d2b2297"},"vehicle_type_id":"4","last_reported":1736439070,"current_range_meters":2800,"station_id":"ce4bhbp2rcd13ifvqerg","pricing_plan_id":"cebpf4jnsgd1na2vs0mg"},{"bike_id":"4efd2084-9715-446a-aae8-df22bb0734d5","system_id":"levelo_inurba_marseille","lat":43.25932,"lon":5.40897,"is_reserved":false,"is_disabled":false,"rental_uris":{"android":"levelo://app?vid=4efd2084-9715-446a-aae8-df22bb0734d5","ios":"levelo://app?vid=4efd2084-9715-446a-aae8-df22bb0734d5"},"vehicle_type_id":"4","last_reported":1736439070,"current_range_meters":21600,"station_id":"ce4bhm92rcd13ifvqglg","pricing_plan_id":"cebpf4jnsgd1na2vs0mg"},{"bike_id":"c87becc9-eed9-4931-9153-932a66f8320c","system_id":"levelo_inurba_marseille","lat":43.30137,"lon":5.37424,"is_reserved":false,"is_disabled":false,"rental_uris":{"android":"levelo://app?vid=c87becc9-eed9-4931-9153-932a66f8320c","ios":"levelo://app?vid=c87becc9-eed9-4931-9153-932a66f8320c"},"vehicle_type_id":"4","last_reported":1736439070,"current_range_meters":17600,"station_id":"ce4bgs92rcd13ifvqcc0","pricing_plan_id":"cebpf4jnsgd1na2vs0mg"},{"bike_id":"9693d7b8-b91e-46af-ae33-8f0f51b4cb9f","system_id":"levelo_inurba_marseille","lat":43.29036,"lon":5.38652,"is_reserved":false,"is_disabled":false,"rental_uris":{"android":"levelo://app?vid=9693d7b8-b91e-46af-ae33-8f0f51b4cb9f","ios":"levelo://app?vid=9693d7b8-b91e-46af-ae33-8f0f51b4cb9f"},"vehicle_type_id":"4","last_reported":1736439070,"current_range_meters":15200,"station_id":"ce4bh4p2rcd13ifvqe0g","pricing_plan_id":"cebpf4jnsgd1na2vs0mg"},{"bike_id":"7a0a8a69-615c-43f3-a001-073b74f4a57b","system_id":"levelo_inurba_marseille","lat":43.25581,"lon":5.38239,"is_reserved":false,"is_disabled":false,"rental_uris":{"android":"levelo://app?vid=7a0a8a69-615c-43f3-a001-073b74f4a57b","ios":"levelo://app?vid=7a0a8a69-615c-43f3-a001-073b74f4a57b"},"vehicle_type_id":"4","last_reported":1736439070,"current_range_meters":30000,"station_id":"ce4bhih2rcd13ifvqfs0","pricing_plan_id":"cebpf4jnsgd1na2vs0mg"},{"bike_id":"8e9b7426-4337-4cd7-9c5d-8fb0e8d9b77e","system_id":"levelo_inurba_marseille","lat":43.25855,"lon":5.399,"is_reserved":false,"is_disabled":true,"rental_uris":{"android":"levelo://app?vid=8e9b7426-4337-4cd7-9c5d-8fb0e8d9b77e","ios":"levelo://app?vid=8e9b7426-4337-4cd7-9c5d-8fb0e8d9b77e"},"vehicle_type_id":"4","last_reported":1736439070,"current_range_meters":800,"station_id":"ce4bhl92rcd13ifvqghg","pricing_plan_id":"cebpf4jnsgd1na2vs0mg"},{"bike_id":"d03baa4e-a1ff-4dbb-aa3a-8f7610789178","system_id":"levelo_inurba_marseille","lat":43.33749,"lon":5.39169,"is_reserved":false,"is_disabled":false,"rental_uris":{"android":"levelo://app?vid=d03baa4e-a1ff-4dbb-aa3a-8f7610789178","ios":"levelo://app?vid=d03baa4e-a1ff-4dbb-aa3a-8f7610789178"},"vehicle_type_id":"4","last_reported":1736439070,"current_range_meters":38800,"station_id":"ce4bhr92rcd13ifvqhsg","pricing_plan_id":"cebpf4jnsgd1na2vs0mg"},{"bike_id":"6f96d0f2-3b3d-432b-b5c4-758032d92913","system_id":"levelo_inurba_marseille","lat":43.314951,"lon":5.372968,"is_reserved":false,"is_disabled":false,"rental_uris":{"android":"levelo://app?vid=6f96d0f2-3b3d-432b-b5c4-758032d92913","ios":"levelo://app?vid=6f96d0f2-3b3d-432b-b5c4-758032d92913"},"vehicle_type_id":"4","last_reported":1736439070,"current_range_meters":32000,"station_id":"ce4bgt12rcd13ifvqcd0","pricing_plan_id":"cebpf4jnsgd1na2vs0mg"},{"bike_id":"ad744619-fbc5-4026-9541-81b1adebd4d3","system_id":"levelo_inurba_marseille","lat":43.26027,"lon":5.37564,"is_reserved":false,"is_disabled":true,"rental_uris":{"android":"levelo://app?vid=ad744619-fbc5-4026-9541-81b1adebd4d3","ios":"levelo://app?vid=ad744619-fbc5-4026-9541-81b1adebd4d3"},"vehicle_type_id":"4","last_reported":1736439070,"current_range_meters":38800,"station_id":"ce4bhgh2rcd13ifvqfa0","pricing_plan_id":"cebpf4jnsgd1na2vs0mg"},{"bike_id":"2b68127b-8c99-46f9-b65f-98bf288dc9b7","system_id":"levelo_inurba_marseille","lat":43.25584,"lon":5.38221,"is_reserved":false,"is_disabled":false,"rental_uris":{"android":"levelo://app?vid=2b68127b-8c99-46f9-b65f-98bf288dc9b7","ios":"levelo://app?vid=2b68127b-8c99-46f9-b65f-98bf288dc9b7"},"vehicle_type_id":"4","last_reported":1736439070,"current_range_meters":9600,"station_id":"ce4bhih2rcd13ifvqfs0","pricing_plan_id":"cebpf4jnsgd1na2vs0mg"},{"bike_id":"a9ca8c08-7f2a-481a-adb7-28d8382302a5","system_id":"levelo_inurba_marseille","lat":43.280426,"lon":5.369157,"is_reserved":false,"is_disabled":false,"rental_uris":{"android":"levelo://app?vid=a9ca8c08-7f2a-481a-adb7-28d8382302a5","ios":"levelo://app?vid=a9ca8c08-7f2a-481a-adb7-28d8382302a5"},"vehicle_type_id":"4","last_reported":1736439070,"current_range_meters":16800,"station_id":"ce4bha12rcd13ifvqef0","pricing_plan_id":"cebpf4jnsgd1na2vs0mg"},{"bike_id":"03150058-0a35-42f2-a29e-9a2d94dc6c68","system_id":"levelo_inurba_marseille","lat":43.27821,"lon":5.4072,"is_reserved":false,"is_disabled":false,"rental_uris":{"android":"levelo://app?vid=03150058-0a35-42f2-a29e-9a2d94dc6c68","ios":"levelo://app?vid=03150058-0a35-42f2-a29e-9a2d94dc6c68"},"vehicle_type_id":"4","last_reported":1736439070,"current_range_meters":2800,"station_id":"ce4bhnh2rcd13ifvqgtg","pricing_plan_id":"cebpf4jnsgd1na2vs0mg"},{"bike_id":"166c466e-3bf4-4e93-9f61-e2e316ee1bfa","system_id":"levelo_inurba_marseille","lat":43.26492,"lon":5.39537,"is_reserved":false,"is_disabled":false,"rental_uris":{"android":"levelo://app?vid=166c466e-3bf4-4e93-9f61-e2e316ee1bfa","ios":"levelo://app?vid=166c466e-3bf4-4e93-9f61-e2e316ee1bfa"},"vehicle_type_id":"4","last_reported":1736439070,"current_range_meters":39200,"station_id":"ce4bhi12rcd13ifvqfq0","pricing_plan_id":"cebpf4jnsgd1na2vs0mg"},{"bike_id":"ec319423-7fa8-45ee-b7f8-ab3cf86bce10","system_id":"levelo_inurba_marseille","lat":43.29953,"lon":5.36528,"is_reserved":false,"is_disabled":false,"rental_uris":{"android":"levelo://app?vid=ec319423-7fa8-45ee-b7f8-ab3cf86bce10","ios":"levelo://app?vid=ec319423-7fa8-45ee-b7f8-ab3cf86bce10"},"vehicle_type_id":"4","last_reported":1736439070,"current_range_meters":38800,"station_id":"ce4bgm92rcd13ifvqbr0","pricing_plan_id":"cebpf4jnsgd1na2vs0mg"},{"bike_id":"0cec5784-4164-4a5a-b802-45c03b753e77","system_id":"levelo_inurba_marseille","lat":43.29877,"lon":5.38916,"is_reserved":false,"is_disabled":false,"rental_uris":{"android":"levelo://app?vid=0cec5784-4164-4a5a-b802-45c03b753e77","ios":"levelo://app?vid=0cec5784-4164-4a5a-b802-45c03b753e77"},"vehicle_type_id":"4","last_reported":1736439070,"current_range_meters":8400,"station_id":"ce4bh392rcd13ifvqdl0","pricing_plan_id":"cebpf4jnsgd1na2vs0mg"},{"bike_id":"84873bbc-c49e-45a6-843d-6c19ab604686","system_id":"levelo_inurba_marseille","lat":43.24563,"lon":5.38033,"is_reserved":false,"is_disabled":false,"rental_uris":{"android":"levelo://app?vid=84873bbc-c49e-45a6-843d-6c19ab604686","ios":"levelo://app?vid=84873bbc-c49e-45a6-843d-6c19ab604686"},"vehicle_type_id":"4","last_reported":1736439070,"current_range_meters":24400,"station_id":"","pricing_plan_id":"cebpf4jnsgd1na2vs0mg"},{"bike_id":"e93f83ab-0e3e-4fd9-8d9e-6775678c8e02","system_id":"levelo_inurba_marseille","lat":43.33003,"lon":5.39023,"is_reserved":false,"is_disabled":false,"rental_uris":{"android":"levelo://app?vid=e93f83ab-0e3e-4fd9-8d9e-6775678c8e02","ios":"levelo://app?vid=e93f83ab-0e3e-4fd9-8d9e-6775678c8e02"},"vehicle_type_id":"4","last_reported":1736439070,"current_range_meters":38800,"station_id":"ce4bhr92rcd13ifvqhrg","pricing_plan_id":"cebpf4jnsgd1na2vs0mg"},{"bike_id":"380532f5-9862-43e2-9bc8-8d4dae90d2a6","system_id":"levelo_inurba_marseille","lat":43.29805,"lon":5.40414,"is_reserved":false,"is_disabled":false,"rental_uris":{"android":"levelo://app?vid=380532f5-9862-43e2-9bc8-8d4dae90d2a6","ios":"levelo://app?vid=380532f5-9862-43e2-9bc8-8d4dae90d2a6"},"vehicle_type_id":"4","last_reported":1736439070,"current_range_meters":38800,"station_id":"ce4bh112rcd13ifvqd90","pricing_plan_id":"cebpf4jnsgd1na2vs0mg"},{"bike_id":"bb5f7b1b-fafb-45b0-a6b7-306e5a25c30d","system_id":"levelo_inurba_marseille","lat":43.23149,"lon":5.43719,"is_reserved":false,"is_disabled":false,"rental_uris":{"android":"levelo://app?vid=bb5f7b1b-fafb-45b0-a6b7-306e5a25c30d","ios":"levelo://app?vid=bb5f7b1b-fafb-45b0-a6b7-306e5a25c30d"},"vehicle_type_id":"4","last_reported":1736439070,"current_range_meters":38800,"station_id":"ce4bhmp2rcd13ifvqgog","pricing_plan_id":"cebpf4jnsgd1na2vs0mg"},{"bike_id":"a47fe619-f905-4b0f-bfbd-d4d8421462e1","system_id":"levelo_inurba_marseille","lat":43.26557,"lon":5.37288,"is_reserved":false,"is_disabled":false,"rental_uris":{"android":"levelo://app?vid=a47fe619-f905-4b0f-bfbd-d4d8421462e1","ios":"levelo://app?vid=a47fe619-f905-4b0f-bfbd-d4d8421462e1"},"vehicle_type_id":"4","last_reported":1736439070,"current_range_meters":29600,"station_id":"ce4bhg12rcd13ifvqf70","pricing_plan_id":"cebpf4jnsgd1na2vs0mg"},{"bike_id":"b13af8bd-301a-4399-940d-676246151c0b","system_id":"levelo_inurba_marseille","lat":43.28305,"lon":5.38057,"is_reserved":false,"is_disabled":false,"rental_uris":{"android":"levelo://app?vid=b13af8bd-301a-4399-940d-676246151c0b","ios":"levelo://app?vid=b13af8bd-301a-4399-940d-676246151c0b"},"vehicle_type_id":"4","last_reported":1736439070,"current_range_meters":9600,"station_id":"ce4bh412rcd13ifvqdr0","pricing_plan_id":"cebpf4jnsgd1na2vs0mg"},{"bike_id":"cd768c42-b264-477f-bc95-8aa46e738998","system_id":"levelo_inurba_marseille","lat":43.30926,"lon":5.40142,"is_reserved":false,"is_disabled":false,"rental_uris":{"android":"levelo://app?vid=cd768c42-b264-477f-bc95-8aa46e738998","ios":"levelo://app?vid=cd768c42-b264-477f-bc95-8aa46e738998"},"vehicle_type_id":"4","last_reported":1736439070,"current_range_meters":38800,"station_id":"ce4bgvp2rcd13ifvqct0","pricing_plan_id":"cebpf4jnsgd1na2vs0mg"},{"bike_id":"9c034c72-3b9e-49ce-9a4d-4c4d5e20e5dd","system_id":"levelo_inurba_marseille","lat":43.3301,"lon":5.39017,"is_reserved":false,"is_disabled":false,"rental_uris":{"android":"levelo://app?vid=9c034c72-3b9e-49ce-9a4d-4c4d5e20e5dd","ios":"levelo://app?vid=9c034c72-3b9e-49ce-9a4d-4c4d5e20e5dd"},"vehicle_type_id":"4","last_reported":1736439070,"current_range_meters":13600,"station_id":"ce4bhr92rcd13ifvqhrg","pricing_plan_id":"cebpf4jnsgd1na2vs0mg"},{"bike_id":"9ef02171-5a7f-4f1e-ac8b-38c7b01a0981","system_id":"levelo_inurba_marseille","lat":43.30437,"lon":5.38885,"is_reserved":false,"is_disabled":false,"rental_uris":{"android":"levelo://app?vid=9ef02171-5a7f-4f1e-ac8b-38c7b01a0981","ios":"levelo://app?vid=9ef02171-5a7f-4f1e-ac8b-38c7b01a0981"},"vehicle_type_id":"4","last_reported":1736439070,"current_range_meters":24400,"station_id":"ce4bgk12rcd13ifvqbi0","pricing_plan_id":"cebpf4jnsgd1na2vs0mg"},{"bike_id":"66eda994-8d95-4600-b811-96d39a21ab20","system_id":"levelo_inurba_marseille","lat":43.27182,"lon":5.39192,"is_reserved":false,"is_disabled":false,"rental_uris":{"android":"levelo://app?vid=66eda994-8d95-4600-b811-96d39a21ab20","ios":"levelo://app?vid=66eda994-8d95-4600-b811-96d39a21ab20"},"vehicle_type_id":"4","last_reported":1736439070,"current_range_meters":26800,"station_id":"ce4bhhp2rcd13ifvqfm0","pricing_plan_id":"cebpf4jnsgd1na2vs0mg"},{"bike_id":"37d8e1ef-d932-49d7-b893-49542cf44d13","system_id":"levelo_inurba_marseille","lat":43.32345,"lon":5.40629,"is_reserved":false,"is_disabled":true,"rental_uris":{"android":"levelo://app?vid=37d8e1ef-d932-49d7-b893-49542cf44d13","ios":"levelo://app?vid=37d8e1ef-d932-49d7-b893-49542cf44d13"},"vehicle_type_id":"4","last_reported":1736439070,"current_range_meters":0,"station_id":"ce4bhq92rcd13ifvqhjg","pricing_plan_id":"cebpf4jnsgd1na2vs0mg"},{"bike_id":"458c3d58-e6a5-4d1a-8df2-05d9cb3e0072","system_id":"levelo_inurba_marseille","lat":43.25588,"lon":5.38223,"is_reserved":false,"is_disabled":false,"rental_uris":{"android":"levelo://app?vid=458c3d58-e6a5-4d1a-8df2-05d9cb3e0072","ios":"levelo://app?vid=458c3d58-e6a5-4d1a-8df2-05d9cb3e0072"},"vehicle_type_id":"4","last_reported":1736439070,"current_range_meters":20400,"station_id":"ce4bhih2rcd13ifvqfs0","pricing_plan_id":"cebpf4jnsgd1na2vs0mg"},{"bike_id":"7de8d9ac-4f29-46dc-a2a1-c043eb579698","system_id":"levelo_inurba_marseille","lat":43.26053,"lon":5.39398,"is_reserved":false,"is_disabled":false,"rental_uris":{"android":"levelo://app?vid=7de8d9ac-4f29-46dc-a2a1-c043eb579698","ios":"levelo://app?vid=7de8d9ac-4f29-46dc-a2a1-c043eb579698"},"vehicle_type_id":"4","last_reported":1736439070,"current_range_meters":25200,"station_id":"ce4bhh92rcd13ifvqfj0","pricing_plan_id":"cebpf4jnsgd1na2vs0mg"},{"bike_id":"da6743bd-ba20-40f9-8840-fa3f640bc022","system_id":"levelo_inurba_marseille","lat":43.31365,"lon":5.38497,"is_reserved":false,"is_disabled":false,"rental_uris":{"android":"levelo://app?vid=da6743bd-ba20-40f9-8840-fa3f640bc022","ios":"levelo://app?vid=da6743bd-ba20-40f9-8840-fa3f640bc022"},"vehicle_type_id":"4","last_reported":1736439070,"current_range_meters":38800,"station_id":"ce4bgt92rcd13ifvqcf0","pricing_plan_id":"cebpf4jnsgd1na2vs0mg"},{"bike_id":"9a4f5b41-60a6-4eaa-b293-4af55f6b32ed","system_id":"levelo_inurba_marseille","lat":43.24663,"lon":5.38167,"is_reserved":false,"is_disabled":false,"rental_uris":{"android":"levelo://app?vid=9a4f5b41-60a6-4eaa-b293-4af55f6b32ed","ios":"levelo://app?vid=9a4f5b41-60a6-4eaa-b293-4af55f6b32ed"},"vehicle_type_id":"4","last_reported":1736439070,"current_range_meters":30800,"station_id":"ce4bhih2rcd13ifvqfr0","pricing_plan_id":"cebpf4jnsgd1na2vs0mg"},{"bike_id":"263d3f02-c0ce-4595-baad-e0e05c6a3c4c","system_id":"levelo_inurba_marseille","lat":43.255858,"lon":5.382397,"is_reserved":false,"is_disabled":false,"rental_uris":{"android":"levelo://app?vid=263d3f02-c0ce-4595-baad-e0e05c6a3c4c","ios":"levelo://app?vid=263d3f02-c0ce-4595-baad-e0e05c6a3c4c"},"vehicle_type_id":"4","last_reported":1736439070,"current_range_meters":28000,"station_id":"ce4bhih2rcd13ifvqfs0","pricing_plan_id":"cebpf4jnsgd1na2vs0mg"},{"bike_id":"22024e6f-fc7c-4967-97cf-e9d63a44e8f1","system_id":"levelo_inurba_marseille","lat":43.29519,"lon":5.38569,"is_reserved":false,"is_disabled":false,"rental_uris":{"android":"levelo://app?vid=22024e6f-fc7c-4967-97cf-e9d63a44e8f1","ios":"levelo://app?vid=22024e6f-fc7c-4967-97cf-e9d63a44e8f1"},"vehicle_type_id":"4","last_reported":1736439070,"current_range_meters":38800,"station_id":"ce4bgih2rcd13ifvqba0","pricing_plan_id":"cebpf4jnsgd1na2vs0mg"},{"bike_id":"73506a2a-d06c-45de-92d0-b96c574a5cbc","system_id":"levelo_inurba_marseille","lat":43.29367,"lon":5.37859,"is_reserved":false,"is_disabled":false,"rental_uris":{"android":"levelo://app?vid=73506a2a-d06c-45de-92d0-b96c574a5cbc","ios":"levelo://app?vid=73506a2a-d06c-45de-92d0-b96c574a5cbc"},"vehicle_type_id":"4","last_reported":1736439070,"current_range_meters":30000,"station_id":"ce4bgjh2rcd13ifvqbf0","pricing_plan_id":"cebpf4jnsgd1na2vs0mg"},{"bike_id":"385264b1-4061-488d-8853-f978ac44f3cb","system_id":"levelo_inurba_marseille","lat":43.2925,"lon":5.40918,"is_reserved":false,"is_disabled":false,"rental_uris":{"android":"levelo://app?vid=385264b1-4061-488d-8853-f978ac44f3cb","ios":"levelo://app?vid=385264b1-4061-488d-8853-f978ac44f3cb"},"vehicle_type_id":"4","last_reported":1736439070,"current_range_meters":38800,"station_id":"ce4bh192rcd13ifvqdc0","pricing_plan_id":"cebpf4jnsgd1na2vs0mg"},{"bike_id":"4b9552e7-7313-44cc-ba72-6ebb3cfea997","system_id":"levelo_inurba_marseille","lat":43.26058,"lon":5.39401,"is_reserved":false,"is_disabled":false,"rental_uris":{"android":"levelo://app?vid=4b9552e7-7313-44cc-ba72-6ebb3cfea997","ios":"levelo://app?vid=4b9552e7-7313-44cc-ba72-6ebb3cfea997"},"vehicle_type_id":"4","last_reported":1736439070,"current_range_meters":38800,"station_id":"ce4bhh92rcd13ifvqfj0","pricing_plan_id":"cebpf4jnsgd1na2vs0mg"},{"bike_id":"c150f8af-fc8f-4eb5-ac98-0b06dadf4ce0","system_id":"levelo_inurba_marseille","lat":43.2558,"lon":5.38232,"is_reserved":false,"is_disabled":false,"rental_uris":{"android":"levelo://app?vid=c150f8af-fc8f-4eb5-ac98-0b06dadf4ce0","ios":"levelo://app?vid=c150f8af-fc8f-4eb5-ac98-0b06dadf4ce0"},"vehicle_type_id":"4","last_reported":1736439070,"current_range_meters":36800,"station_id":"ce4bhih2rcd13ifvqfs0","pricing_plan_id":"cebpf4jnsgd1na2vs0mg"},{"bike_id":"98516c6c-770c-419d-b009-47d399b69de8","system_id":"levelo_inurba_marseille","lat":43.28032,"lon":5.36942,"is_reserved":false,"is_disabled":false,"rental_uris":{"android":"levelo://app?vid=98516c6c-770c-419d-b009-47d399b69de8","ios":"levelo://app?vid=98516c6c-770c-419d-b009-47d399b69de8"},"vehicle_type_id":"4","last_reported":1736439070,"current_range_meters":28000,"station_id":"ce4bha12rcd13ifvqef0","pricing_plan_id":"cebpf4jnsgd1na2vs0mg"},{"bike_id":"d60d203f-1a71-4871-82ec-58cf54255d9b","system_id":"levelo_inurba_marseille","lat":43.29897,"lon":5.38134,"is_reserved":false,"is_disabled":false,"rental_uris":{"android":"levelo://app?vid=d60d203f-1a71-4871-82ec-58cf54255d9b","ios":"levelo://app?vid=d60d203f-1a71-4871-82ec-58cf54255d9b"},"vehicle_type_id":"4","last_reported":1736439070,"current_range_meters":18000,"station_id":"ce4bgj12rcd13ifvqbc0","pricing_plan_id":"cebpf4jnsgd1na2vs0mg"},{"bike_id":"3802f60b-1086-4694-a9f7-3c1f6de2582f","system_id":"levelo_inurba_marseille","lat":43.24815,"lon":5.37462,"is_reserved":false,"is_disabled":false,"rental_uris":{"android":"levelo://app?vid=3802f60b-1086-4694-a9f7-3c1f6de2582f","ios":"levelo://app?vid=3802f60b-1086-4694-a9f7-3c1f6de2582f"},"vehicle_type_id":"4","last_reported":1736439070,"current_range_meters":28000,"station_id":"ce4bhgh2rcd13ifvqfb0","pricing_plan_id":"cebpf4jnsgd1na2vs0mg"},{"bike_id":"6fa6353d-f1b3-43b0-abf3-6949ce22123a","system_id":"levelo_inurba_marseille","lat":43.28938,"lon":5.36382,"is_reserved":false,"is_disabled":false,"rental_uris":{"android":"levelo://app?vid=6fa6353d-f1b3-43b0-abf3-6949ce22123a","ios":"levelo://app?vid=6fa6353d-f1b3-43b0-abf3-6949ce22123a"},"vehicle_type_id":"4","last_reported":1736439070,"current_range_meters":35200,"station_id":"ce4bhc92rcd13ifvqetg","pricing_plan_id":"cebpf4jnsgd1na2vs0mg"},{"bike_id":"80e537a7-4b1b-4d9e-8aa6-dc7d17e9da82","system_id":"levelo_inurba_marseille","lat":43.27972,"lon":5.38732,"is_reserved":false,"is_disabled":false,"rental_uris":{"android":"levelo://app?vid=80e537a7-4b1b-4d9e-8aa6-dc7d17e9da82","ios":"levelo://app?vid=80e537a7-4b1b-4d9e-8aa6-dc7d17e9da82"},"vehicle_type_id":"4","last_reported":1736439070,"current_range_meters":34000,"station_id":"ce4bhg12rcd13ifvqf80","pricing_plan_id":"cebpf4jnsgd1na2vs0mg"},{"bike_id":"60ce1b70-e47d-4caf-abee-52e7d5bfe299","system_id":"levelo_inurba_marseille","lat":43.24646,"lon":5.38884,"is_reserved":false,"is_disabled":false,"rental_uris":{"android":"levelo://app?vid=60ce1b70-e47d-4caf-abee-52e7d5bfe299","ios":"levelo://app?vid=60ce1b70-e47d-4caf-abee-52e7d5bfe299"},"vehicle_type_id":"4","last_reported":1736439070,"current_range_meters":37600,"station_id":"ce4bhg12rcd13ifvqf60","pricing_plan_id":"cebpf4jnsgd1na2vs0mg"},{"bike_id":"7627c0f8-e30b-4018-a991-3dd21750fc78","system_id":"levelo_inurba_marseille","lat":43.28736,"lon":5.3795,"is_reserved":false,"is_disabled":true,"rental_uris":{"android":"levelo://app?vid=7627c0f8-e30b-4018-a991-3dd21750fc78","ios":"levelo://app?vid=7627c0f8-e30b-4018-a991-3dd21750fc78"},"vehicle_type_id":"4","last_reported":1736439070,"current_range_meters":38800,"station_id":"ce4bh9p2rcd13ifvqec0","pricing_plan_id":"cebpf4jnsgd1na2vs0mg"},{"bike_id":"bf34816d-cef3-45df-a814-b99e8dc67c6d","system_id":"levelo_inurba_marseille","lat":43.23176,"lon":5.39985,"is_reserved":false,"is_disabled":false,"rental_uris":{"android":"levelo://app?vid=bf34816d-cef3-45df-a814-b99e8dc67c6d","ios":"levelo://app?vid=bf34816d-cef3-45df-a814-b99e8dc67c6d"},"vehicle_type_id":"4","last_reported":1736439070,"current_range_meters":28000,"station_id":"ce4bhn12rcd13ifvqgqg","pricing_plan_id":"cebpf4jnsgd1na2vs0mg"},{"bike_id":"3743378e-c936-44df-b0f3-bd79034a742b","system_id":"levelo_inurba_marseille","lat":43.2781,"lon":5.40711,"is_reserved":false,"is_disabled":false,"rental_uris":{"android":"levelo://app?vid=3743378e-c936-44df-b0f3-bd79034a742b","ios":"levelo://app?vid=3743378e-c936-44df-b0f3-bd79034a742b"},"vehicle_type_id":"4","last_reported":1736439070,"current_range_meters":38000,"station_id":"ce4bhnh2rcd13ifvqgtg","pricing_plan_id":"cebpf4jnsgd1na2vs0mg"},{"bike_id":"fccb27bf-abbb-42b8-8c71-be1ef504107f","system_id":"levelo_inurba_marseille","lat":43.28439,"lon":5.39192,"is_reserved":false,"is_disabled":false,"rental_uris":{"android":"levelo://app?vid=fccb27bf-abbb-42b8-8c71-be1ef504107f","ios":"levelo://app?vid=fccb27bf-abbb-42b8-8c71-be1ef504107f"},"vehicle_type_id":"4","last_reported":1736439070,"current_range_meters":39200,"station_id":"ce4bhoh2rcd13ifvqh5g","pricing_plan_id":"cebpf4jnsgd1na2vs0mg"},{"bike_id":"a04c750d-c2a3-4826-bb16-b9d8bd34b860","system_id":"levelo_inurba_marseille","lat":43.25581,"lon":5.38232,"is_reserved":false,"is_disabled":false,"rental_uris":{"android":"levelo://app?vid=a04c750d-c2a3-4826-bb16-b9d8bd34b860","ios":"levelo://app?vid=a04c750d-c2a3-4826-bb16-b9d8bd34b860"},"vehicle_type_id":"4","last_reported":1736439070,"current_range_meters":38800,"station_id":"ce4bhih2rcd13ifvqfs0","pricing_plan_id":"cebpf4jnsgd1na2vs0mg"},{"bike_id":"e1d4dca2-11a7-49c7-ad4b-40d04b27466c","system_id":"levelo_inurba_marseille","lat":43.30126,"lon":5.39861,"is_reserved":false,"is_disabled":false,"rental_uris":{"android":"levelo://app?vid=e1d4dca2-11a7-49c7-ad4b-40d04b27466c","ios":"levelo://app?vid=e1d4dca2-11a7-49c7-ad4b-40d04b27466c"},"vehicle_type_id":"4","last_reported":1736439070,"current_range_meters":20800,"station_id":"ce4bh0h2rcd13ifvqd40","pricing_plan_id":"cebpf4jnsgd1na2vs0mg"},{"bike_id":"4b4165a2-cf34-497a-a955-c9336504b59d","system_id":"levelo_inurba_marseille","lat":43.29196,"lon":5.35807,"is_reserved":false,"is_disabled":false,"rental_uris":{"android":"levelo://app?vid=4b4165a2-cf34-497a-a955-c9336504b59d","ios":"levelo://app?vid=4b4165a2-cf34-497a-a955-c9336504b59d"},"vehicle_type_id":"4","last_reported":1736439070,"current_range_meters":38000,"station_id":"ce4bhb12rcd13ifvqel0","pricing_plan_id":"cebpf4jnsgd1na2vs0mg"},{"bike_id":"b1d394e4-03db-464c-9f53-0ab94ab7a06a","system_id":"levelo_inurba_marseille","lat":43.31069,"lon":5.38354,"is_reserved":false,"is_disabled":true,"rental_uris":{"android":"levelo://app?vid=b1d394e4-03db-464c-9f53-0ab94ab7a06a","ios":"levelo://app?vid=b1d394e4-03db-464c-9f53-0ab94ab7a06a"},"vehicle_type_id":"4","last_reported":1736439070,"current_range_meters":30000,"station_id":"ce4bgv92rcd13ifvqcr0","pricing_plan_id":"cebpf4jnsgd1na2vs0mg"},{"bike_id":"b268b390-6c4e-40c9-ac21-5f56bb49ab62","system_id":"levelo_inurba_marseille","lat":43.2394,"lon":5.36643,"is_reserved":false,"is_disabled":false,"rental_uris":{"android":"levelo://app?vid=b268b390-6c4e-40c9-ac21-5f56bb49ab62","ios":"levelo://app?vid=b268b390-6c4e-40c9-ac21-5f56bb49ab62"},"vehicle_type_id":"4","last_reported":1736439070,"current_range_meters":6000,"station_id":"ce4bhi12rcd13ifvqfp0","pricing_plan_id":"cebpf4jnsgd1na2vs0mg"},{"bike_id":"3cbd5e48-3669-47e0-a3b4-efb92db61728","system_id":"levelo_inurba_marseille","lat":43.28031,"lon":5.36951,"is_reserved":false,"is_disabled":false,"rental_uris":{"android":"levelo://app?vid=3cbd5e48-3669-47e0-a3b4-efb92db61728","ios":"levelo://app?vid=3cbd5e48-3669-47e0-a3b4-efb92db61728"},"vehicle_type_id":"4","last_reported":1736439070,"current_range_meters":38800,"station_id":"ce4bha12rcd13ifvqef0","pricing_plan_id":"cebpf4jnsgd1na2vs0mg"},{"bike_id":"6c9daffc-e174-4a9a-8b3e-30a6cf4027c8","system_id":"levelo_inurba_marseille","lat":43.32109,"lon":5.3677,"is_reserved":false,"is_disabled":false,"rental_uris":{"android":"levelo://app?vid=6c9daffc-e174-4a9a-8b3e-30a6cf4027c8","ios":"levelo://app?vid=6c9daffc-e174-4a9a-8b3e-30a6cf4027c8"},"vehicle_type_id":"4","last_reported":1736439070,"current_range_meters":38800,"station_id":"ce4bhrh2rcd13ifvqhug","pricing_plan_id":"cebpf4jnsgd1na2vs0mg"},{"bike_id":"feb1c606-2341-4918-8abd-da8a12f4e1f7","system_id":"levelo_inurba_marseille","lat":43.313609,"lon":5.384978,"is_reserved":false,"is_disabled":false,"rental_uris":{"android":"levelo://app?vid=feb1c606-2341-4918-8abd-da8a12f4e1f7","ios":"levelo://app?vid=feb1c606-2341-4918-8abd-da8a12f4e1f7"},"vehicle_type_id":"4","last_reported":1736439070,"current_range_meters":36400,"station_id":"ce4bgt92rcd13ifvqcf0","pricing_plan_id":"cebpf4jnsgd1na2vs0mg"},{"bike_id":"7475f743-fa68-4b23-ab37-60e01b01184f","system_id":"levelo_inurba_marseille","lat":43.32112,"lon":5.36767,"is_reserved":false,"is_disabled":false,"rental_uris":{"android":"levelo://app?vid=7475f743-fa68-4b23-ab37-60e01b01184f","ios":"levelo://app?vid=7475f743-fa68-4b23-ab37-60e01b01184f"},"vehicle_type_id":"4","last_reported":1736439070,"current_range_meters":36400,"station_id":"ce4bhrh2rcd13ifvqhug","pricing_plan_id":"cebpf4jnsgd1na2vs0mg"},{"bike_id":"cfb415c6-da59-4905-81c1-91453da2b754","system_id":"levelo_inurba_marseille","lat":43.22929,"lon":5.35376,"is_reserved":false,"is_disabled":false,"rental_uris":{"android":"levelo://app?vid=cfb415c6-da59-4905-81c1-91453da2b754","ios":"levelo://app?vid=cfb415c6-da59-4905-81c1-91453da2b754"},"vehicle_type_id":"4","last_reported":1736439070,"current_range_meters":10800,"station_id":"cpo3532slgdg3j2ikp40","pricing_plan_id":"cebpf4jnsgd1na2vs0mg"},{"bike_id":"1f310177-0a39-46be-858b-aa2c2a7e968e","system_id":"levelo_inurba_marseille","lat":43.28943,"lon":5.36638,"is_reserved":false,"is_disabled":false,"rental_uris":{"android":"levelo://app?vid=1f310177-0a39-46be-858b-aa2c2a7e968e","ios":"levelo://app?vid=1f310177-0a39-46be-858b-aa2c2a7e968e"},"vehicle_type_id":"4","last_reported":1736439070,"current_range_meters":10000,"station_id":"ce4bhap2rcd13ifvqek0","pricing_plan_id":"cebpf4jnsgd1na2vs0mg"},{"bike_id":"3d97d3e0-d45c-47c2-9a56-3b2182dc5b15","system_id":"levelo_inurba_marseille","lat":43.27968,"lon":5.38757,"is_reserved":false,"is_disabled":true,"rental_uris":{"android":"levelo://app?vid=3d97d3e0-d45c-47c2-9a56-3b2182dc5b15","ios":"levelo://app?vid=3d97d3e0-d45c-47c2-9a56-3b2182dc5b15"},"vehicle_type_id":"4","last_reported":1736439070,"current_range_meters":0,"station_id":"ce4bhg12rcd13ifvqf80","pricing_plan_id":"cebpf4jnsgd1na2vs0mg"},{"bike_id":"8fb4a4e8-d912-4ace-b88c-b341c0ed27e0","system_id":"levelo_inurba_marseille","lat":43.28437,"lon":5.39173,"is_reserved":false,"is_disabled":false,"rental_uris":{"android":"levelo://app?vid=8fb4a4e8-d912-4ace-b88c-b341c0ed27e0","ios":"levelo://app?vid=8fb4a4e8-d912-4ace-b88c-b341c0ed27e0"},"vehicle_type_id":"4","last_reported":1736439070,"current_range_meters":9600,"station_id":"ce4bhoh2rcd13ifvqh5g","pricing_plan_id":"cebpf4jnsgd1na2vs0mg"},{"bike_id":"2d1e850e-d4ae-4916-9484-3db580c69d06","system_id":"levelo_inurba_marseille","lat":43.30906,"lon":5.36844,"is_reserved":false,"is_disabled":false,"rental_uris":{"android":"levelo://app?vid=2d1e850e-d4ae-4916-9484-3db580c69d06","ios":"levelo://app?vid=2d1e850e-d4ae-4916-9484-3db580c69d06"},"vehicle_type_id":"4","last_reported":1736439070,"current_range_meters":17600,"station_id":"ce4bgn92rcd13ifvqbvg","pricing_plan_id":"cebpf4jnsgd1na2vs0mg"},{"bike_id":"2eb264c8-1e8d-4f17-a831-3cda07857865","system_id":"levelo_inurba_marseille","lat":43.32112,"lon":5.36768,"is_reserved":false,"is_disabled":false,"rental_uris":{"android":"levelo://app?vid=2eb264c8-1e8d-4f17-a831-3cda07857865","ios":"levelo://app?vid=2eb264c8-1e8d-4f17-a831-3cda07857865"},"vehicle_type_id":"4","last_reported":1736439070,"current_range_meters":37600,"station_id":"ce4bhrh2rcd13ifvqhug","pricing_plan_id":"cebpf4jnsgd1na2vs0mg"},{"bike_id":"36aeb8f3-ec0b-4161-8ac5-2338fb2d4c0d","system_id":"levelo_inurba_marseille","lat":43.30799,"lon":5.38153,"is_reserved":false,"is_disabled":false,"rental_uris":{"android":"levelo://app?vid=36aeb8f3-ec0b-4161-8ac5-2338fb2d4c0d","ios":"levelo://app?vid=36aeb8f3-ec0b-4161-8ac5-2338fb2d4c0d"},"vehicle_type_id":"4","last_reported":1736439070,"current_range_meters":38800,"station_id":"ce4bgt12rcd13ifvqce0","pricing_plan_id":"cebpf4jnsgd1na2vs0mg"},{"bike_id":"1e2223a2-c032-49e7-8dbf-982df86a0520","system_id":"levelo_inurba_marseille","lat":43.22927,"lon":5.35367,"is_reserved":false,"is_disabled":false,"rental_uris":{"android":"levelo://app?vid=1e2223a2-c032-49e7-8dbf-982df86a0520","ios":"levelo://app?vid=1e2223a2-c032-49e7-8dbf-982df86a0520"},"vehicle_type_id":"4","last_reported":1736439070,"current_range_meters":36400,"station_id":"cpo3532slgdg3j2ikp40","pricing_plan_id":"cebpf4jnsgd1na2vs0mg"},{"bike_id":"d6fca370-0e9f-4e2a-9a2e-900af41aedf2","system_id":"levelo_inurba_marseille","lat":43.3032,"lon":5.40439,"is_reserved":false,"is_disabled":false,"rental_uris":{"android":"levelo://app?vid=d6fca370-0e9f-4e2a-9a2e-900af41aedf2","ios":"levelo://app?vid=d6fca370-0e9f-4e2a-9a2e-900af41aedf2"},"vehicle_type_id":"4","last_reported":1736439070,"current_range_meters":38000,"station_id":"ce4bh012rcd13ifvqd10","pricing_plan_id":"cebpf4jnsgd1na2vs0mg"},{"bike_id":"3aefb9c1-3e4a-487c-b413-b90ef97c7063","system_id":"levelo_inurba_marseille","lat":43.23151,"lon":5.43704,"is_reserved":false,"is_disabled":false,"rental_uris":{"android":"levelo://app?vid=3aefb9c1-3e4a-487c-b413-b90ef97c7063","ios":"levelo://app?vid=3aefb9c1-3e4a-487c-b413-b90ef97c7063"},"vehicle_type_id":"4","last_reported":1736439070,"current_range_meters":14400,"station_id":"ce4bhmp2rcd13ifvqgog","pricing_plan_id":"cebpf4jnsgd1na2vs0mg"},{"bike_id":"be8a233f-ad85-41b2-af03-bfa1e3033438","system_id":"levelo_inurba_marseille","lat":43.23219,"lon":5.35555,"is_reserved":false,"is_disabled":false,"rental_uris":{"android":"levelo://app?vid=be8a233f-ad85-41b2-af03-bfa1e3033438","ios":"levelo://app?vid=be8a233f-ad85-41b2-af03-bfa1e3033438"},"vehicle_type_id":"4","last_reported":1736439070,"current_range_meters":27600,"station_id":"ce4bhu92rcd13ifvqi70","pricing_plan_id":"cebpf4jnsgd1na2vs0mg"},{"bike_id":"b124ca2f-2fd0-4c56-960f-1b8a90949c3b","system_id":"levelo_inurba_marseille","lat":43.29534,"lon":5.37507,"is_reserved":false,"is_disabled":true,"rental_uris":{"android":"levelo://app?vid=b124ca2f-2fd0-4c56-960f-1b8a90949c3b","ios":"levelo://app?vid=b124ca2f-2fd0-4c56-960f-1b8a90949c3b"},"vehicle_type_id":"4","last_reported":1736439070,"current_range_meters":28400,"station_id":"ce4bgkp2rcd13ifvqbmg","pricing_plan_id":"cebpf4jnsgd1na2vs0mg"},{"bike_id":"4e961a78-0f5c-4fc7-98ca-40069191b9f0","system_id":"levelo_inurba_marseille","lat":43.28424,"lon":5.34982,"is_reserved":false,"is_disabled":false,"rental_uris":{"android":"levelo://app?vid=4e961a78-0f5c-4fc7-98ca-40069191b9f0","ios":"levelo://app?vid=4e961a78-0f5c-4fc7-98ca-40069191b9f0"},"vehicle_type_id":"4","last_reported":1736439070,"current_range_meters":37600,"station_id":"ce4bhbh2rcd13ifvqepg","pricing_plan_id":"cebpf4jnsgd1na2vs0mg"},{"bike_id":"92d29797-7287-43de-b4c8-fb28835453a9","system_id":"levelo_inurba_marseille","lat":43.27377,"lon":5.36255,"is_reserved":false,"is_disabled":false,"rental_uris":{"android":"levelo://app?vid=92d29797-7287-43de-b4c8-fb28835453a9","ios":"levelo://app?vid=92d29797-7287-43de-b4c8-fb28835453a9"},"vehicle_type_id":"4","last_reported":1736439070,"current_range_meters":11200,"station_id":"ce4bhbh2rcd13ifvqeo0","pricing_plan_id":"cebpf4jnsgd1na2vs0mg"},{"bike_id":"2bf137df-75b1-44ad-8782-8d7ae5906911","system_id":"levelo_inurba_marseille","lat":43.304403,"lon":5.388986,"is_reserved":false,"is_disabled":false,"rental_uris":{"android":"levelo://app?vid=2bf137df-75b1-44ad-8782-8d7ae5906911","ios":"levelo://app?vid=2bf137df-75b1-44ad-8782-8d7ae5906911"},"vehicle_type_id":"4","last_reported":1736439070,"current_range_meters":37600,"station_id":"ce4bgk12rcd13ifvqbi0","pricing_plan_id":"cebpf4jnsgd1na2vs0mg"},{"bike_id":"ea0719f3-eceb-440b-85a2-c16b31e4d610","system_id":"levelo_inurba_marseille","lat":43.29217,"lon":5.3607,"is_reserved":false,"is_disabled":false,"rental_uris":{"android":"levelo://app?vid=ea0719f3-eceb-440b-85a2-c16b31e4d610","ios":"levelo://app?vid=ea0719f3-eceb-440b-85a2-c16b31e4d610"},"vehicle_type_id":"4","last_reported":1736439070,"current_range_meters":38800,"station_id":"ce4bhbh2rcd13ifvqeqg","pricing_plan_id":"cebpf4jnsgd1na2vs0mg"},{"bike_id":"e81dfa25-49ef-4571-9fb6-b0fd62c714e8","system_id":"levelo_inurba_marseille","lat":43.29971,"lon":5.38534,"is_reserved":false,"is_disabled":false,"rental_uris":{"android":"levelo://app?vid=e81dfa25-49ef-4571-9fb6-b0fd62c714e8","ios":"levelo://app?vid=e81dfa25-49ef-4571-9fb6-b0fd62c714e8"},"vehicle_type_id":"4","last_reported":1736439070,"current_range_meters":38000,"station_id":"ce4bgj92rcd13ifvqbd0","pricing_plan_id":"cebpf4jnsgd1na2vs0mg"},{"bike_id":"8b442552-2db2-4c2b-8f15-7728187a5a3b","system_id":"levelo_inurba_marseille","lat":43.282715,"lon":5.350599,"is_reserved":false,"is_disabled":false,"rental_uris":{"android":"levelo://app?vid=8b442552-2db2-4c2b-8f15-7728187a5a3b","ios":"levelo://app?vid=8b442552-2db2-4c2b-8f15-7728187a5a3b"},"vehicle_type_id":"4","last_reported":1736439070,"current_range_meters":18800,"station_id":"ce4bhbp2rcd13ifvqerg","pricing_plan_id":"cebpf4jnsgd1na2vs0mg"},{"bike_id":"54135c59-405f-4165-a05a-78ca8b78fedf","system_id":"levelo_inurba_marseille","lat":43.23151,"lon":5.43716,"is_reserved":false,"is_disabled":true,"rental_uris":{"android":"levelo://app?vid=54135c59-405f-4165-a05a-78ca8b78fedf","ios":"levelo://app?vid=54135c59-405f-4165-a05a-78ca8b78fedf"},"vehicle_type_id":"4","last_reported":1736439070,"current_range_meters":0,"station_id":"ce4bhmp2rcd13ifvqgog","pricing_plan_id":"cebpf4jnsgd1na2vs0mg"},{"bike_id":"aca58d84-ee45-42b2-bfa7-a284870e32cc","system_id":"levelo_inurba_marseille","lat":43.30924,"lon":5.36838,"is_reserved":false,"is_disabled":false,"rental_uris":{"android":"levelo://app?vid=aca58d84-ee45-42b2-bfa7-a284870e32cc","ios":"levelo://app?vid=aca58d84-ee45-42b2-bfa7-a284870e32cc"},"vehicle_type_id":"4","last_reported":1736439070,"current_range_meters":38800,"station_id":"ce4bgn92rcd13ifvqbvg","pricing_plan_id":"cebpf4jnsgd1na2vs0mg"},{"bike_id":"661421ef-43d8-4a9a-9b63-a317032c4e73","system_id":"levelo_inurba_marseille","lat":43.30134,"lon":5.3878,"is_reserved":false,"is_disabled":true,"rental_uris":{"android":"levelo://app?vid=661421ef-43d8-4a9a-9b63-a317032c4e73","ios":"levelo://app?vid=661421ef-43d8-4a9a-9b63-a317032c4e73"},"vehicle_type_id":"4","last_reported":1736439070,"current_range_meters":38800,"station_id":"ce4bghh2rcd13ifvqb60","pricing_plan_id":"cebpf4jnsgd1na2vs0mg"},{"bike_id":"26a7b49d-f384-4920-9690-df136bdd493d","system_id":"levelo_inurba_marseille","lat":43.3033,"lon":5.40421,"is_reserved":false,"is_disabled":false,"rental_uris":{"android":"levelo://app?vid=26a7b49d-f384-4920-9690-df136bdd493d","ios":"levelo://app?vid=26a7b49d-f384-4920-9690-df136bdd493d"},"vehicle_type_id":"4","last_reported":1736439070,"current_range_meters":23200,"station_id":"ce4bh012rcd13ifvqd10","pricing_plan_id":"cebpf4jnsgd1na2vs0mg"},{"bike_id":"fc9288ed-9da0-4c7f-9aba-d64070cdbf51","system_id":"levelo_inurba_marseille","lat":43.23153,"lon":5.437,"is_reserved":false,"is_disabled":true,"rental_uris":{"android":"levelo://app?vid=fc9288ed-9da0-4c7f-9aba-d64070cdbf51","ios":"levelo://app?vid=fc9288ed-9da0-4c7f-9aba-d64070cdbf51"},"vehicle_type_id":"4","last_reported":1736439070,"current_range_meters":1600,"station_id":"ce4bhmp2rcd13ifvqgog","pricing_plan_id":"cebpf4jnsgd1na2vs0mg"},{"bike_id":"0ff10b5b-3ba9-435e-9fb7-a6405b9c388e","system_id":"levelo_inurba_marseille","lat":43.26558,"lon":5.37279,"is_reserved":false,"is_disabled":false,"rental_uris":{"android":"levelo://app?vid=0ff10b5b-3ba9-435e-9fb7-a6405b9c388e","ios":"levelo://app?vid=0ff10b5b-3ba9-435e-9fb7-a6405b9c388e"},"vehicle_type_id":"4","last_reported":1736439070,"current_range_meters":28000,"station_id":"ce4bhg12rcd13ifvqf70","pricing_plan_id":"cebpf4jnsgd1na2vs0mg"},{"bike_id":"ad28bd53-1c8c-44ea-9a1c-1e5a5b2498fe","system_id":"levelo_inurba_marseille","lat":43.24164,"lon":5.36393,"is_reserved":false,"is_disabled":false,"rental_uris":{"android":"levelo://app?vid=ad28bd53-1c8c-44ea-9a1c-1e5a5b2498fe","ios":"levelo://app?vid=ad28bd53-1c8c-44ea-9a1c-1e5a5b2498fe"},"vehicle_type_id":"4","last_reported":1736439070,"current_range_meters":14400,"station_id":"cpo36qri1sfpv3e86is0","pricing_plan_id":"cebpf4jnsgd1na2vs0mg"},{"bike_id":"2d2fbc61-7484-43d8-82f1-4c77f4e113dc","system_id":"levelo_inurba_marseille","lat":43.24085,"lon":5.37742,"is_reserved":false,"is_disabled":false,"rental_uris":{"android":"levelo://app?vid=2d2fbc61-7484-43d8-82f1-4c77f4e113dc","ios":"levelo://app?vid=2d2fbc61-7484-43d8-82f1-4c77f4e113dc"},"vehicle_type_id":"4","last_reported":1736439070,"current_range_meters":22000,"station_id":"ce4bhnp2rcd13ifvqgvg","pricing_plan_id":"cebpf4jnsgd1na2vs0mg"},{"bike_id":"3f634eef-006f-450a-8804-c61d85614ac9","system_id":"levelo_inurba_marseille","lat":43.2549,"lon":5.37636,"is_reserved":false,"is_disabled":false,"rental_uris":{"android":"levelo://app?vid=3f634eef-006f-450a-8804-c61d85614ac9","ios":"levelo://app?vid=3f634eef-006f-450a-8804-c61d85614ac9"},"vehicle_type_id":"4","last_reported":1736439070,"current_range_meters":23200,"station_id":"ce4bhh12rcd13ifvqff0","pricing_plan_id":"cebpf4jnsgd1na2vs0mg"},{"bike_id":"9bf8f15d-1df1-4ddd-809c-15e73eeb5b87","system_id":"levelo_inurba_marseille","lat":43.29045,"lon":5.39961,"is_reserved":false,"is_disabled":false,"rental_uris":{"android":"levelo://app?vid=9bf8f15d-1df1-4ddd-809c-15e73eeb5b87","ios":"levelo://app?vid=9bf8f15d-1df1-4ddd-809c-15e73eeb5b87"},"vehicle_type_id":"4","last_reported":1736439070,"current_range_meters":24800,"station_id":"ce4bh392rcd13ifvqdm0","pricing_plan_id":"cebpf4jnsgd1na2vs0mg"},{"bike_id":"b8acbba0-a715-4ced-a2aa-0517db10ac9d","system_id":"levelo_inurba_marseille","lat":43.22929,"lon":5.353793,"is_reserved":false,"is_disabled":false,"rental_uris":{"android":"levelo://app?vid=b8acbba0-a715-4ced-a2aa-0517db10ac9d","ios":"levelo://app?vid=b8acbba0-a715-4ced-a2aa-0517db10ac9d"},"vehicle_type_id":"4","last_reported":1736439070,"current_range_meters":10800,"station_id":"cpo3532slgdg3j2ikp40","pricing_plan_id":"cebpf4jnsgd1na2vs0mg"},{"bike_id":"24310845-dd7b-4d25-a99d-65d599b0ee35","system_id":"levelo_inurba_marseille","lat":43.26033,"lon":5.37542,"is_reserved":false,"is_disabled":false,"rental_uris":{"android":"levelo://app?vid=24310845-dd7b-4d25-a99d-65d599b0ee35","ios":"levelo://app?vid=24310845-dd7b-4d25-a99d-65d599b0ee35"},"vehicle_type_id":"4","last_reported":1736439070,"current_range_meters":38400,"station_id":"ce4bhgh2rcd13ifvqfa0","pricing_plan_id":"cebpf4jnsgd1na2vs0mg"},{"bike_id":"2cf17449-1370-4b11-a88e-fbceae255983","system_id":"levelo_inurba_marseille","lat":43.29884,"lon":5.39748,"is_reserved":false,"is_disabled":false,"rental_uris":{"android":"levelo://app?vid=2cf17449-1370-4b11-a88e-fbceae255983","ios":"levelo://app?vid=2cf17449-1370-4b11-a88e-fbceae255983"},"vehicle_type_id":"4","last_reported":1736439070,"current_range_meters":27600,"station_id":"ce4bh0h2rcd13ifvqd50","pricing_plan_id":"cebpf4jnsgd1na2vs0mg"},{"bike_id":"f5160a19-7c33-40dd-b3a1-230126f661b1","system_id":"levelo_inurba_marseille","lat":43.2512,"lon":5.40318,"is_reserved":false,"is_disabled":false,"rental_uris":{"android":"levelo://app?vid=f5160a19-7c33-40dd-b3a1-230126f661b1","ios":"levelo://app?vid=f5160a19-7c33-40dd-b3a1-230126f661b1"},"vehicle_type_id":"4","last_reported":1736439070,"current_range_meters":22800,"station_id":"ce4bhlh2rcd13ifvqgig","pricing_plan_id":"cebpf4jnsgd1na2vs0mg"},{"bike_id":"ec330e38-f10e-446f-82bf-fbfa91faa885","system_id":"levelo_inurba_marseille","lat":43.29517,"lon":5.39401,"is_reserved":false,"is_disabled":false,"rental_uris":{"android":"levelo://app?vid=ec330e38-f10e-446f-82bf-fbfa91faa885","ios":"levelo://app?vid=ec330e38-f10e-446f-82bf-fbfa91faa885"},"vehicle_type_id":"4","last_reported":1736439070,"current_range_meters":17200,"station_id":"ce4bh292rcd13ifvqdf0","pricing_plan_id":"cebpf4jnsgd1na2vs0mg"},{"bike_id":"ca28c05e-bfc5-443c-b699-0afa6d6ec689","system_id":"levelo_inurba_marseille","lat":43.2985,"lon":5.36287,"is_reserved":false,"is_disabled":false,"rental_uris":{"android":"levelo://app?vid=ca28c05e-bfc5-443c-b699-0afa6d6ec689","ios":"levelo://app?vid=ca28c05e-bfc5-443c-b699-0afa6d6ec689"},"vehicle_type_id":"4","last_reported":1736439070,"current_range_meters":34800,"station_id":"ce4bgpp2rcd13ifvqc3g","pricing_plan_id":"cebpf4jnsgd1na2vs0mg"},{"bike_id":"94d7f15d-c2eb-48e0-ab06-c718661b3572","system_id":"levelo_inurba_marseille","lat":43.30917,"lon":5.3685,"is_reserved":false,"is_disabled":false,"rental_uris":{"android":"levelo://app?vid=94d7f15d-c2eb-48e0-ab06-c718661b3572","ios":"levelo://app?vid=94d7f15d-c2eb-48e0-ab06-c718661b3572"},"vehicle_type_id":"4","last_reported":1736439070,"current_range_meters":37600,"station_id":"ce4bgn92rcd13ifvqbvg","pricing_plan_id":"cebpf4jnsgd1na2vs0mg"},{"bike_id":"9f45806b-0439-44e8-9147-35b59088d5f3","system_id":"levelo_inurba_marseille","lat":43.2417,"lon":5.36394,"is_reserved":false,"is_disabled":false,"rental_uris":{"android":"levelo://app?vid=9f45806b-0439-44e8-9147-35b59088d5f3","ios":"levelo://app?vid=9f45806b-0439-44e8-9147-35b59088d5f3"},"vehicle_type_id":"4","last_reported":1736439070,"current_range_meters":18000,"station_id":"cpo36qri1sfpv3e86is0","pricing_plan_id":"cebpf4jnsgd1na2vs0mg"},{"bike_id":"5651b9e6-8165-4362-bef7-7a9575ca630e","system_id":"levelo_inurba_marseille","lat":43.309,"lon":5.36855,"is_reserved":false,"is_disabled":false,"rental_uris":{"android":"levelo://app?vid=5651b9e6-8165-4362-bef7-7a9575ca630e","ios":"levelo://app?vid=5651b9e6-8165-4362-bef7-7a9575ca630e"},"vehicle_type_id":"4","last_reported":1736439070,"current_range_meters":38800,"station_id":"ce4bgn92rcd13ifvqbvg","pricing_plan_id":"cebpf4jnsgd1na2vs0mg"},{"bike_id":"e264fea9-cc7f-4a68-86cf-aa174cc493b3","system_id":"levelo_inurba_marseille","lat":43.32367,"lon":5.38888,"is_reserved":false,"is_disabled":false,"rental_uris":{"android":"levelo://app?vid=e264fea9-cc7f-4a68-86cf-aa174cc493b3","ios":"levelo://app?vid=e264fea9-cc7f-4a68-86cf-aa174cc493b3"},"vehicle_type_id":"4","last_reported":1736439070,"current_range_meters":22800,"station_id":"ce4bhqp2rcd13ifvqhog","pricing_plan_id":"cebpf4jnsgd1na2vs0mg"},{"bike_id":"9b72e67d-1f67-48fa-986a-30ed58099a02","system_id":"levelo_inurba_marseille","lat":43.26809,"lon":5.402652,"is_reserved":false,"is_disabled":false,"rental_uris":{"android":"levelo://app?vid=9b72e67d-1f67-48fa-986a-30ed58099a02","ios":"levelo://app?vid=9b72e67d-1f67-48fa-986a-30ed58099a02"},"vehicle_type_id":"4","last_reported":1736439070,"current_range_meters":30400,"station_id":"ce501612rcd8frsf0b60","pricing_plan_id":"cebpf4jnsgd1na2vs0mg"},{"bike_id":"5c06e8af-7277-453d-bdde-379fa8e86970","system_id":"levelo_inurba_marseille","lat":43.30285,"lon":5.37697,"is_reserved":false,"is_disabled":false,"rental_uris":{"android":"levelo://app?vid=5c06e8af-7277-453d-bdde-379fa8e86970","ios":"levelo://app?vid=5c06e8af-7277-453d-bdde-379fa8e86970"},"vehicle_type_id":"4","last_reported":1736439070,"current_range_meters":38800,"station_id":"ce4bguh2rcd13ifvqcj0","pricing_plan_id":"cebpf4jnsgd1na2vs0mg"},{"bike_id":"02549678-af99-46b3-963d-4149fd59e615","system_id":"levelo_inurba_marseille","lat":43.31492,"lon":5.37317,"is_reserved":false,"is_disabled":false,"rental_uris":{"android":"levelo://app?vid=02549678-af99-46b3-963d-4149fd59e615","ios":"levelo://app?vid=02549678-af99-46b3-963d-4149fd59e615"},"vehicle_type_id":"4","last_reported":1736439070,"current_range_meters":39200,"station_id":"ce4bgt12rcd13ifvqcd0","pricing_plan_id":"cebpf4jnsgd1na2vs0mg"},{"bike_id":"fca7aa83-9566-473c-a0db-4f38beb60448","system_id":"levelo_inurba_marseille","lat":43.31203,"lon":5.36871,"is_reserved":false,"is_disabled":false,"rental_uris":{"android":"levelo://app?vid=fca7aa83-9566-473c-a0db-4f38beb60448","ios":"levelo://app?vid=fca7aa83-9566-473c-a0db-4f38beb60448"},"vehicle_type_id":"4","last_reported":1736439070,"current_range_meters":30400,"station_id":"ce4bgl92rcd13ifvqbq0","pricing_plan_id":"cebpf4jnsgd1na2vs0mg"},{"bike_id":"27d05254-9b7a-4dc8-80fa-c273f4447231","system_id":"levelo_inurba_marseille","lat":43.31225,"lon":5.36862,"is_reserved":false,"is_disabled":true,"rental_uris":{"android":"levelo://app?vid=27d05254-9b7a-4dc8-80fa-c273f4447231","ios":"levelo://app?vid=27d05254-9b7a-4dc8-80fa-c273f4447231"},"vehicle_type_id":"4","last_reported":1736439070,"current_range_meters":0,"station_id":"ce4bgl92rcd13ifvqbq0","pricing_plan_id":"cebpf4jnsgd1na2vs0mg"},{"bike_id":"147d128a-e84d-44e9-9122-f2ae79c41bd3","system_id":"levelo_inurba_marseille","lat":43.30554,"lon":5.36529,"is_reserved":false,"is_disabled":false,"rental_uris":{"android":"levelo://app?vid=147d128a-e84d-44e9-9122-f2ae79c41bd3","ios":"levelo://app?vid=147d128a-e84d-44e9-9122-f2ae79c41bd3"},"vehicle_type_id":"4","last_reported":1736439070,"current_range_meters":28400,"station_id":"ce4bgs12rcd13ifvqcag","pricing_plan_id":"cebpf4jnsgd1na2vs0mg"},{"bike_id":"b9b8fdbf-6e31-4186-8b5e-7c6b0705272b","system_id":"levelo_inurba_marseille","lat":43.30925,"lon":5.36824,"is_reserved":false,"is_disabled":false,"rental_uris":{"android":"levelo://app?vid=b9b8fdbf-6e31-4186-8b5e-7c6b0705272b","ios":"levelo://app?vid=b9b8fdbf-6e31-4186-8b5e-7c6b0705272b"},"vehicle_type_id":"4","last_reported":1736439070,"current_range_meters":37600,"station_id":"ce4bgn92rcd13ifvqbvg","pricing_plan_id":"cebpf4jnsgd1na2vs0mg"},{"bike_id":"cbda44bc-0a10-4a7f-926c-f768506dac61","system_id":"levelo_inurba_marseille","lat":43.25863,"lon":5.399,"is_reserved":false,"is_disabled":false,"rental_uris":{"android":"levelo://app?vid=cbda44bc-0a10-4a7f-926c-f768506dac61","ios":"levelo://app?vid=cbda44bc-0a10-4a7f-926c-f768506dac61"},"vehicle_type_id":"4","last_reported":1736439070,"current_range_meters":13600,"station_id":"ce4bhl92rcd13ifvqghg","pricing_plan_id":"cebpf4jnsgd1na2vs0mg"},{"bike_id":"f3d4cc36-d790-4ff4-b3bb-b63b1c69f7a3","system_id":"levelo_inurba_marseille","lat":43.2455,"lon":5.39519,"is_reserved":false,"is_disabled":false,"rental_uris":{"android":"levelo://app?vid=f3d4cc36-d790-4ff4-b3bb-b63b1c69f7a3","ios":"levelo://app?vid=f3d4cc36-d790-4ff4-b3bb-b63b1c69f7a3"},"vehicle_type_id":"4","last_reported":1736439070,"current_range_meters":16400,"station_id":"ce4bhlp2rcd13ifvqgjg","pricing_plan_id":"cebpf4jnsgd1na2vs0mg"},{"bike_id":"522f8f33-6ce1-444d-954f-85b296770c9d","system_id":"levelo_inurba_marseille","lat":43.30306,"lon":5.39218,"is_reserved":false,"is_disabled":true,"rental_uris":{"android":"levelo://app?vid=522f8f33-6ce1-444d-954f-85b296770c9d","ios":"levelo://app?vid=522f8f33-6ce1-444d-954f-85b296770c9d"},"vehicle_type_id":"4","last_reported":1736439070,"current_range_meters":38800,"station_id":"ce4bgkh2rcd13ifvqbk0","pricing_plan_id":"cebpf4jnsgd1na2vs0mg"},{"bike_id":"ca186c50-0f19-4dfb-8d6a-f5c0cec7459e","system_id":"levelo_inurba_marseille","lat":43.27815,"lon":5.4072,"is_reserved":false,"is_disabled":false,"rental_uris":{"android":"levelo://app?vid=ca186c50-0f19-4dfb-8d6a-f5c0cec7459e","ios":"levelo://app?vid=ca186c50-0f19-4dfb-8d6a-f5c0cec7459e"},"vehicle_type_id":"4","last_reported":1736439070,"current_range_meters":30000,"station_id":"ce4bhnh2rcd13ifvqgtg","pricing_plan_id":"cebpf4jnsgd1na2vs0mg"},{"bike_id":"10837590-8cff-4e9e-a42f-5348f2c9d3bc","system_id":"levelo_inurba_marseille","lat":43.26879,"lon":5.38852,"is_reserved":false,"is_disabled":true,"rental_uris":{"android":"levelo://app?vid=10837590-8cff-4e9e-a42f-5348f2c9d3bc","ios":"levelo://app?vid=10837590-8cff-4e9e-a42f-5348f2c9d3bc"},"vehicle_type_id":"4","last_reported":1736439070,"current_range_meters":0,"station_id":"","pricing_plan_id":"cebpf4jnsgd1na2vs0mg"},{"bike_id":"f714926f-208a-48d8-a796-ed36ca75c707","system_id":"levelo_inurba_marseille","lat":43.28345,"lon":5.38109,"is_reserved":false,"is_disabled":true,"rental_uris":{"android":"levelo://app?vid=f714926f-208a-48d8-a796-ed36ca75c707","ios":"levelo://app?vid=f714926f-208a-48d8-a796-ed36ca75c707"},"vehicle_type_id":"4","last_reported":1736439070,"current_range_meters":800,"station_id":"ce4bh412rcd13ifvqdr0","pricing_plan_id":"cebpf4jnsgd1na2vs0mg"},{"bike_id":"644f53a2-1cc4-4b75-8551-0f7e809980a1","system_id":"levelo_inurba_marseille","lat":43.29725,"lon":5.37753,"is_reserved":false,"is_disabled":false,"rental_uris":{"android":"levelo://app?vid=644f53a2-1cc4-4b75-8551-0f7e809980a1","ios":"levelo://app?vid=644f53a2-1cc4-4b75-8551-0f7e809980a1"},"vehicle_type_id":"4","last_reported":1736439070,"current_range_meters":36800,"station_id":"","pricing_plan_id":"cebpf4jnsgd1na2vs0mg"},{"bike_id":"b9d90f1c-44e2-459b-80d9-37f91fa508d2","system_id":"levelo_inurba_marseille","lat":43.28963,"lon":5.3964,"is_reserved":false,"is_disabled":true,"rental_uris":{"android":"levelo://app?vid=b9d90f1c-44e2-459b-80d9-37f91fa508d2","ios":"levelo://app?vid=b9d90f1c-44e2-459b-80d9-37f91fa508d2"},"vehicle_type_id":"4","last_reported":1736439070,"current_range_meters":8800,"station_id":"ce4bh3h2rcd13ifvqdn0","pricing_plan_id":"cebpf4jnsgd1na2vs0mg"},{"bike_id":"9049cff3-bf64-4a4c-aa97-9a5871e0f4a0","system_id":"levelo_inurba_marseille","lat":43.23154,"lon":5.43699,"is_reserved":false,"is_disabled":false,"rental_uris":{"android":"levelo://app?vid=9049cff3-bf64-4a4c-aa97-9a5871e0f4a0","ios":"levelo://app?vid=9049cff3-bf64-4a4c-aa97-9a5871e0f4a0"},"vehicle_type_id":"4","last_reported":1736439070,"current_range_meters":38800,"station_id":"ce4bhmp2rcd13ifvqgog","pricing_plan_id":"cebpf4jnsgd1na2vs0mg"},{"bike_id":"1984d69d-51c2-4a8e-b8a7-26501036581d","system_id":"levelo_inurba_marseille","lat":43.31354,"lon":5.38492,"is_reserved":false,"is_disabled":false,"rental_uris":{"android":"levelo://app?vid=1984d69d-51c2-4a8e-b8a7-26501036581d","ios":"levelo://app?vid=1984d69d-51c2-4a8e-b8a7-26501036581d"},"vehicle_type_id":"4","last_reported":1736439070,"current_range_meters":38800,"station_id":"ce4bgt92rcd13ifvqcf0","pricing_plan_id":"cebpf4jnsgd1na2vs0mg"},{"bike_id":"179d31bf-bf08-4328-807d-23d52397749e","system_id":"levelo_inurba_marseille","lat":43.25509,"lon":5.37653,"is_reserved":false,"is_disabled":false,"rental_uris":{"android":"levelo://app?vid=179d31bf-bf08-4328-807d-23d52397749e","ios":"levelo://app?vid=179d31bf-bf08-4328-807d-23d52397749e"},"vehicle_type_id":"4","last_reported":1736439070,"current_range_meters":38800,"station_id":"ce4bhh12rcd13ifvqff0","pricing_plan_id":"cebpf4jnsgd1na2vs0mg"},{"bike_id":"fc2c2ad5-9b09-443d-98de-9a001b050f74","system_id":"levelo_inurba_marseille","lat":43.2803,"lon":5.36937,"is_reserved":false,"is_disabled":false,"rental_uris":{"android":"levelo://app?vid=fc2c2ad5-9b09-443d-98de-9a001b050f74","ios":"levelo://app?vid=fc2c2ad5-9b09-443d-98de-9a001b050f74"},"vehicle_type_id":"4","last_reported":1736439070,"current_range_meters":38800,"station_id":"ce4bha12rcd13ifvqef0","pricing_plan_id":"cebpf4jnsgd1na2vs0mg"},{"bike_id":"b47332c8-9cc2-45e1-94e1-a71f886d9abf","system_id":"levelo_inurba_marseille","lat":43.29179,"lon":5.35795,"is_reserved":false,"is_disabled":false,"rental_uris":{"android":"levelo://app?vid=b47332c8-9cc2-45e1-94e1-a71f886d9abf","ios":"levelo://app?vid=b47332c8-9cc2-45e1-94e1-a71f886d9abf"},"vehicle_type_id":"4","last_reported":1736439070,"current_range_meters":26800,"station_id":"ce4bhb12rcd13ifvqel0","pricing_plan_id":"cebpf4jnsgd1na2vs0mg"},{"bike_id":"ee87d477-a87b-4be5-9638-1e18243c737b","system_id":"levelo_inurba_marseille","lat":43.29801,"lon":5.40402,"is_reserved":false,"is_disabled":false,"rental_uris":{"android":"levelo://app?vid=ee87d477-a87b-4be5-9638-1e18243c737b","ios":"levelo://app?vid=ee87d477-a87b-4be5-9638-1e18243c737b"},"vehicle_type_id":"4","last_reported":1736439070,"current_range_meters":28000,"station_id":"ce4bh112rcd13ifvqd90","pricing_plan_id":"cebpf4jnsgd1na2vs0mg"},{"bike_id":"ca7c1210-c025-46c9-8f5b-de7d9fe9712d","system_id":"levelo_inurba_marseille","lat":43.28375,"lon":5.3864,"is_reserved":false,"is_disabled":false,"rental_uris":{"android":"levelo://app?vid=ca7c1210-c025-46c9-8f5b-de7d9fe9712d","ios":"levelo://app?vid=ca7c1210-c025-46c9-8f5b-de7d9fe9712d"},"vehicle_type_id":"4","last_reported":1736439070,"current_range_meters":39200,"station_id":"ce4bh492rcd13ifvqdvg","pricing_plan_id":"cebpf4jnsgd1na2vs0mg"},{"bike_id":"48fc208d-a117-4545-ac5a-33b0eada3400","system_id":"levelo_inurba_marseille","lat":43.27905,"lon":5.38013,"is_reserved":false,"is_disabled":false,"rental_uris":{"android":"levelo://app?vid=48fc208d-a117-4545-ac5a-33b0eada3400","ios":"levelo://app?vid=48fc208d-a117-4545-ac5a-33b0eada3400"},"vehicle_type_id":"4","last_reported":1736439070,"current_range_meters":6800,"station_id":"ce4bhf92rcd13ifvqf50","pricing_plan_id":"cebpf4jnsgd1na2vs0mg"},{"bike_id":"4fa4f2f1-a9b5-4f1e-bfc4-6c358c1ceddd","system_id":"levelo_inurba_marseille","lat":43.28017,"lon":5.40014,"is_reserved":false,"is_disabled":false,"rental_uris":{"android":"levelo://app?vid=4fa4f2f1-a9b5-4f1e-bfc4-6c358c1ceddd","ios":"levelo://app?vid=4fa4f2f1-a9b5-4f1e-bfc4-6c358c1ceddd"},"vehicle_type_id":"4","last_reported":1736439070,"current_range_meters":38800,"station_id":"ce4bho92rcd13ifvqh4g","pricing_plan_id":"cebpf4jnsgd1na2vs0mg"},{"bike_id":"c445f19a-0eb1-4efb-ab2a-1a6527f07cb7","system_id":"levelo_inurba_marseille","lat":43.27372,"lon":5.36245,"is_reserved":false,"is_disabled":false,"rental_uris":{"android":"levelo://app?vid=c445f19a-0eb1-4efb-ab2a-1a6527f07cb7","ios":"levelo://app?vid=c445f19a-0eb1-4efb-ab2a-1a6527f07cb7"},"vehicle_type_id":"4","last_reported":1736439070,"current_range_meters":38800,"station_id":"ce4bhbh2rcd13ifvqeo0","pricing_plan_id":"cebpf4jnsgd1na2vs0mg"},{"bike_id":"8d6178d9-3bcb-4628-8827-acc0197854ec","system_id":"levelo_inurba_marseille","lat":43.268084,"lon":5.402444,"is_reserved":false,"is_disabled":false,"rental_uris":{"android":"levelo://app?vid=8d6178d9-3bcb-4628-8827-acc0197854ec","ios":"levelo://app?vid=8d6178d9-3bcb-4628-8827-acc0197854ec"},"vehicle_type_id":"4","last_reported":1736439070,"current_range_meters":38800,"station_id":"ce501612rcd8frsf0b60","pricing_plan_id":"cebpf4jnsgd1na2vs0mg"},{"bike_id":"420adc21-29c7-4494-9b40-231786e591c5","system_id":"levelo_inurba_marseille","lat":43.25937,"lon":5.40885,"is_reserved":false,"is_disabled":false,"rental_uris":{"android":"levelo://app?vid=420adc21-29c7-4494-9b40-231786e591c5","ios":"levelo://app?vid=420adc21-29c7-4494-9b40-231786e591c5"},"vehicle_type_id":"4","last_reported":1736439070,"current_range_meters":22400,"station_id":"ce4bhm92rcd13ifvqglg","pricing_plan_id":"cebpf4jnsgd1na2vs0mg"},{"bike_id":"2ff52220-e124-4b7f-8a63-e8d137b306d7","system_id":"levelo_inurba_marseille","lat":43.28615,"lon":5.35106,"is_reserved":false,"is_disabled":false,"rental_uris":{"android":"levelo://app?vid=2ff52220-e124-4b7f-8a63-e8d137b306d7","ios":"levelo://app?vid=2ff52220-e124-4b7f-8a63-e8d137b306d7"},"vehicle_type_id":"4","last_reported":1736439070,"current_range_meters":21600,"station_id":"ce4bhch2rcd13ifvqeug","pricing_plan_id":"cebpf4jnsgd1na2vs0mg"},{"bike_id":"3d663528-e855-4c58-9388-0e35e98398ae","system_id":"levelo_inurba_marseille","lat":43.25927,"lon":5.40896,"is_reserved":false,"is_disabled":false,"rental_uris":{"android":"levelo://app?vid=3d663528-e855-4c58-9388-0e35e98398ae","ios":"levelo://app?vid=3d663528-e855-4c58-9388-0e35e98398ae"},"vehicle_type_id":"4","last_reported":1736439070,"current_range_meters":24000,"station_id":"ce4bhm92rcd13ifvqglg","pricing_plan_id":"cebpf4jnsgd1na2vs0mg"},{"bike_id":"6fdecff2-2545-405f-8c66-4d246590b289","system_id":"levelo_inurba_marseille","lat":43.24164,"lon":5.36395,"is_reserved":false,"is_disabled":false,"rental_uris":{"android":"levelo://app?vid=6fdecff2-2545-405f-8c66-4d246590b289","ios":"levelo://app?vid=6fdecff2-2545-405f-8c66-4d246590b289"},"vehicle_type_id":"4","last_reported":1736439070,"current_range_meters":18800,"station_id":"cpo36qri1sfpv3e86is0","pricing_plan_id":"cebpf4jnsgd1na2vs0mg"},{"bike_id":"49371825-051a-4da1-914c-52e83e3f4026","system_id":"levelo_inurba_marseille","lat":43.28613,"lon":5.35111,"is_reserved":false,"is_disabled":false,"rental_uris":{"android":"levelo://app?vid=49371825-051a-4da1-914c-52e83e3f4026","ios":"levelo://app?vid=49371825-051a-4da1-914c-52e83e3f4026"},"vehicle_type_id":"4","last_reported":1736439070,"current_range_meters":30800,"station_id":"ce4bhch2rcd13ifvqeug","pricing_plan_id":"cebpf4jnsgd1na2vs0mg"},{"bike_id":"3169ca3f-056c-4a6a-896a-81f6d87587b5","system_id":"levelo_inurba_marseille","lat":43.30144,"lon":5.37415,"is_reserved":false,"is_disabled":false,"rental_uris":{"android":"levelo://app?vid=3169ca3f-056c-4a6a-896a-81f6d87587b5","ios":"levelo://app?vid=3169ca3f-056c-4a6a-896a-81f6d87587b5"},"vehicle_type_id":"4","last_reported":1736439070,"current_range_meters":22000,"station_id":"ce4bgs92rcd13ifvqcc0","pricing_plan_id":"cebpf4jnsgd1na2vs0mg"},{"bike_id":"fda197e3-c046-4801-8cec-a8543cea965b","system_id":"levelo_inurba_marseille","lat":43.24673,"lon":5.38171,"is_reserved":false,"is_disabled":false,"rental_uris":{"android":"levelo://app?vid=fda197e3-c046-4801-8cec-a8543cea965b","ios":"levelo://app?vid=fda197e3-c046-4801-8cec-a8543cea965b"},"vehicle_type_id":"4","last_reported":1736439070,"current_range_meters":37600,"station_id":"ce4bhih2rcd13ifvqfr0","pricing_plan_id":"cebpf4jnsgd1na2vs0mg"},{"bike_id":"1acc10bb-92aa-490e-94b3-b87b3e0f8e36","system_id":"levelo_inurba_marseille","lat":43.28071,"lon":5.39647,"is_reserved":false,"is_disabled":false,"rental_uris":{"android":"levelo://app?vid=1acc10bb-92aa-490e-94b3-b87b3e0f8e36","ios":"levelo://app?vid=1acc10bb-92aa-490e-94b3-b87b3e0f8e36"},"vehicle_type_id":"4","last_reported":1736439070,"current_range_meters":38400,"station_id":"ce4bho12rcd13ifvqh2g","pricing_plan_id":"cebpf4jnsgd1na2vs0mg"},