{"last_updated":1736993217,"ttl":60,"version":"2.2","data":{"bikes":[{"bike_id":"86945d6f-cb0a-4bce-9a7a-6417e51fc425","system_id":"levelo_inurba_marseille","lat":43.3032,"lon":5.40441,"is_reserved":false,"is_disabled":false,"rental_uris":{"android":"levelo://app?vid=86945d6f-cb0a-4bce-9a7a-6417e51fc425","ios":"levelo://app?vid=86945d6f-cb0a-4bce-9a7a-6417e51fc425"},"vehicle_type_id":"4","last_reported":1736993217,"current_range_meters":39200,"station_id":"ce4bh012rcd13ifvqd10","pricing_plan_id":"cebpf4jnsgd1na2vs0mg"},{"bike_id":"b9334cd5-9518-40f6-900b-eb7b30663b07","system_id":"levelo_inurba_marseille","lat":43.31353,"lon":5.38498,"is_reserved":false,"is_disabled":false,"rental_uris":{"android":"levelo://app?vid=b9334cd5-9518-40f6-900b-eb7b30663b07","ios":"levelo://app?vid=b9334cd5-9518-40f6-900b-eb7b30663b07"},"vehicle_type_id":"4","last_reported":1736993217,"current_range_meters":28400,"station_id":"ce4bgt92rcd13ifvqcf0","pricing_plan_id":"cebpf4jnsgd1na2vs0mg"},{"bike_id":"bb2bff4f-1a83-4e7f-9557-c5605347308e","system_id":"levelo_inurba_marseille","lat":43.31765,"lon":5.39005,"is_reserved":false,"is_disabled":false,"rental_uris":{"android":"levelo://app?vid=bb2bff4f-1a83-4e7f-9557-c5605347308e","ios":"levelo://app?vid=bb2bff4f-1a83-4e7f-9557-c5605347308e"},"vehicle_type_id":"4","last_reported":1736993217,"current_range_meters":24800,"station_id":"ce4bhqp2rcd13ifvqhng","pricing_plan_id":"cebpf4jnsgd1na2vs0mg"},{"bike_id":"ca1ed96c-2e01-4b7a-9a66-0ef019564289","system_id":"levelo_inurba_marseille","lat":43.28353,"lon":5.38621,"is_reserved":false,"is_disabled":false,"rental_uris":{"android":"levelo://app?vid=ca1ed96c-2e01-4b7a-9a66-0ef019564289","ios":"levelo://app?vid=ca1ed96c-2e01-4b7a-9a66-0ef019564289"},"vehicle_type_id":"4","last_reported":1736993217,"current_range_meters":39200,"station_id":"ce4bh492rcd13ifvqdvg","pricing_plan_id":"cebpf4jnsgd1na2vs0mg"},{"bike_id":"e9f90bb9-81fe-44a5-bbce-a82ed5ca829e","system_id":"levelo_inurba_marseille","lat":43.301247,"lon":5.39842,"is_reserved":false,"is_disabled":false,"rental_uris":{"android":"levelo://app?vid=e9f90bb9-81fe-44a5-bbce-a82ed5ca829e","ios":"levelo://app?vid=e9f90bb9-81fe-44a5-bbce-a82ed5ca829e"},"vehicle_type_id":"4","last_reported":1736993217,"current_range_meters":38000,"station_id":"ce4bh0h2rcd13ifvqd40","pricing_plan_id":"cebpf4jnsgd1na2vs0mg"},{"bike_id":"481bda0e-fe18-4926-a202-e5913cf32d5b","system_id":"levelo_inurba_marseille","lat":43.24624,"lon":5.3889,"is_reserved":false,"is_disabled":false,"rental_uris":{"android":"levelo://app?vid=481bda0e-fe18-4926-a202-e5913cf32d5b","ios":"levelo://app?vid=481bda0e-fe18-4926-a202-e5913cf32d5b"},"vehicle_type_id":"4","last_reported":1736993217,"current_range_meters":30000,"station_id":"ce4bhg12rcd13ifvqf60","pricing_plan_id":"cebpf4jnsgd1na2vs0mg"},{"bike_id":"f3ad909e-5298-4e1c-b615-b28684ff798b","system_id":"levelo_inurba_marseille","lat":43.27986,"lon":5.41652,"is_reserved":false,"is_disabled":false,"rental_uris":{"android":"levelo://app?vid=f3ad909e-5298-4e1c-b615-b28684ff798b","ios":"levelo://app?vid=f3ad909e-5298-4e1c-b615-b28684ff798b"},"vehicle_type_id":"4","last_reported":1736993217,"current_range_meters":38800,"station_id":"ce4bho12rcd13ifvqh1g","pricing_plan_id":"cebpf4jnsgd1na2vs0mg"},{"bike_id":"6d2a11a4-1d4d-4f20-ad3c-b47d5eaff74a","system_id":"levelo_inurba_marseille","lat":43.28336,"lon":5.3811,"is_reserved":false,"is_disabled":false,"rental_uris":{"android":"levelo://app?vid=6d2a11a4-1d4d-4f20-ad3c-b47d5eaff74a","ios":"levelo://app?vid=6d2a11a4-1d4d-4f20-ad3c-b47d5eaff74a"},"vehicle_type_id":"4","last_reported":1736993217,"current_range_meters":38400,"station_id":"ce4bh412rcd13ifvqdr0","pricing_plan_id":"cebpf4jnsgd1na2vs0mg"},{"bike_id":"6d540c0f-98a4-4311-9d97-d8f4a0c4b88a","system_id":"levelo_inurba_marseille","lat":43.23178,"lon":5.39992,"is_reserved":false,"is_disabled":false,"rental_uris":{"android":"levelo://app?vid=6d540c0f-98a4-4311-9d97-d8f4a0c4b88a","ios":"levelo://app?vid=6d540c0f-98a4-4311-9d97-d8f4a0c4b88a"},"vehicle_type_id":"4","last_reported":1736993217,"current_range_meters":20800,"station_id":"ce4bhn12rcd13ifvqgqg","pricing_plan_id":"cebpf4jnsgd1na2vs0mg"},{"bike_id":"b80161e1-2168-4ade-a2d2-f1956561ac66","system_id":"levelo_inurba_marseille","lat":43.25855,"lon":5.39917,"is_reserved":false,"is_disabled":false,"rental_uris":{"android":"levelo://app?vid=b80161e1-2168-4ade-a2d2-f1956561ac66","ios":"levelo://app?vid=b80161e1-2168-4ade-a2d2-f1956561ac66"},"vehicle_type_id":"4","last_reported":1736993217,"current_range_meters":35600,"station_id":"ce4bhl92rcd13ifvqghg","pricing_plan_id":"cebpf4jnsgd1na2vs0mg"},{"bike_id":"72e10142-2895-4e95-9217-bd2f39e60a09","system_id":"levelo_inurba_marseille","lat":43.30541,"lon":5.38423,"is_reserved":false,"is_disabled":false,"rental_uris":{"android":"levelo://app?vid=72e10142-2895-4e95-9217-bd2f39e60a09","ios":"levelo://app?vid=72e10142-2895-4e95-9217-bd2f39e60a09"},"vehicle_type_id":"4","last_reported":1736993217,"current_range_meters":35600,"station_id":"ce4bgg92rcd13ifvqb30","pricing_plan_id":"cebpf4jnsgd1na2vs0mg"},{"bike_id":"43e961d2-b18e-4b0a-90c4-3cbd9a55614c","system_id":"levelo_inurba_marseille","lat":43.29514,"lon":5.39407,"is_reserved":false,"is_disabled":false,"rental_uris":{"android":"levelo://app?vid=43e961d2-b18e-4b0a-90c4-3cbd9a55614c","ios":"levelo://app?vid=43e961d2-b18e-4b0a-90c4-3cbd9a55614c"},"vehicle_type_id":"4","last_reported":1736993217,"current_range_meters":35600,"station_id":"ce4bh292rcd13ifvqdf0","pricing_plan_id":"cebpf4jnsgd1na2vs0mg"},{"bike_id":"4fa358ca-b741-467a-a03f-b8033021b471","system_id":"levelo_inurba_marseille","lat":43.337571,"lon":5.374567,"is_reserved":false,"is_disabled":false,"rental_uris":{"android":"levelo://app?vid=4fa358ca-b741-467a-a03f-b8033021b471","ios":"levelo://app?vid=4fa358ca-b741-467a-a03f-b8033021b471"},"vehicle_type_id":"4","last_reported":1736993217,"current_range_meters":34800,"station_id":"","pricing_plan_id":"cebpf4jnsgd1na2vs0mg"},{"bike_id":"5db5f749-55d7-4666-b989-2cc4222957b1","system_id":"levelo_inurba_marseille","lat":43.28436,"lon":5.39191,"is_reserved":false,"is_disabled":true,"rental_uris":{"android":"levelo://app?vid=5db5f749-55d7-4666-b989-2cc4222957b1","ios":"levelo://app?vid=5db5f749-55d7-4666-b989-2cc4222957b1"},"vehicle_type_id":"4","last_reported":1736993217,"current_range_meters":38400,"station_id":"ce4bhoh2rcd13ifvqh5g","pricing_plan_id":"cebpf4jnsgd1na2vs0mg"},{"bike_id":"2b2cb29b-656b-412b-b107-6e49fdf15518","system_id":"levelo_inurba_marseille","lat":43.27502,"lon":5.42468,"is_reserved":false,"is_disabled":true,"rental_uris":{"android":"levelo://app?vid=2b2cb29b-656b-412b-b107-6e49fdf15518","ios":"levelo://app?vid=2b2cb29b-656b-412b-b107-6e49fdf15518"},"vehicle_type_id":"4","last_reported":1736993217,"current_range_meters":0,"station_id":"ce4bhn92rcd13ifvqgrg","pricing_plan_id":"cebpf4jnsgd1na2vs0mg"},{"bike_id":"568479cf-899b-434a-9af7-c6bc9aaff64f","system_id":"levelo_inurba_marseille","lat":43.311223,"lon":5.377672,"is_reserved":false,"is_disabled":false,"rental_uris":{"android":"levelo://app?vid=568479cf-899b-434a-9af7-c6bc9aaff64f","ios":"levelo://app?vid=568479cf-899b-434a-9af7-c6bc9aaff64f"},"vehicle_type_id":"4","last_reported":1736993217,"current_range_meters":18000,"station_id":"ce4bgt92rcd13ifvqcg0","pricing_plan_id":"cebpf4jnsgd1na2vs0mg"},{"bike_id":"e7525fb8-d58c-4068-a38f-e353cc185a02","system_id":"levelo_inurba_marseille","lat":43.30911,"lon":5.40131,"is_reserved":false,"is_disabled":false,"rental_uris":{"android":"levelo://app?vid=e7525fb8-d58c-4068-a38f-e353cc185a02","ios":"levelo://app?vid=e7525fb8-d58c-4068-a38f-e353cc185a02"},"vehicle_type_id":"4","last_reported":1736993217,"current_range_meters":27600,"station_id":"ce4bgvp2rcd13ifvqct0","pricing_plan_id":"cebpf4jnsgd1na2vs0mg"},{"bike_id":"e815a81b-bac9-44d8-927b-cad09d4c7319","system_id":"levelo_inurba_marseille","lat":43.27833,"lon":5.40729,"is_reserved":false,"is_disabled":false,"rental_uris":{"android":"levelo://app?vid=e815a81b-bac9-44d8-927b-cad09d4c7319","ios":"levelo://app?vid=e815a81b-bac9-44d8-927b-cad09d4c7319"},"vehicle_type_id":"4","last_reported":1736993217,"current_range_meters":38800,"station_id":"ce4bhnh2rcd13ifvqgtg","pricing_plan_id":"cebpf4jnsgd1na2vs0mg"},{"bike_id":"8b6e82d0-66b7-456f-9b91-01d48e3a5bc5","system_id":"levelo_inurba_marseille","lat":43.29782,"lon":5.39358,"is_reserved":false,"is_disabled":false,"rental_uris":{"android":"levelo://app?vid=8b6e82d0-66b7-456f-9b91-01d48e3a5bc5","ios":"levelo://app?vid=8b6e82d0-66b7-456f-9b91-01d48e3a5bc5"},"vehicle_type_id":"4","last_reported":1736993217,"current_range_meters":36000,"station_id":"chh1huq6cuj3fo74tm60","pricing_plan_id":"cebpf4jnsgd1na2vs0mg"},{"bike_id":"850ca51b-fe0f-489e-b5dd-6952938fa9c2","system_id":"levelo_inurba_marseille","lat":43.29058,"lon":5.39956,"is_reserved":false,"is_disabled":false,"rental_uris":{"android":"levelo://app?vid=850ca51b-fe0f-489e-b5dd-6952938fa9c2","ios":"levelo://app?vid=850ca51b-fe0f-489e-b5dd-6952938fa9c2"},"vehicle_type_id":"4","last_reported":1736993217,"current_range_meters":38000,"station_id":"ce4bh392rcd13ifvqdm0","pricing_plan_id":"cebpf4jnsgd1na2vs0mg"},{"bike_id":"b5e08de0-8cf7-47e4-a15b-685b67b6200e","system_id":"levelo_inurba_marseille","lat":43.29533,"lon":5.37507,"is_reserved":false,"is_disabled":true,"rental_uris":{"android":"levelo://app?vid=b5e08de0-8cf7-47e4-a15b-685b67b6200e","ios":"levelo://app?vid=b5e08de0-8cf7-47e4-a15b-685b67b6200e"},"vehicle_type_id":"4","last_reported":1736993217,"current_range_meters":38000,"station_id":"ce4bgkp2rcd13ifvqbmg","pricing_plan_id":"cebpf4jnsgd1na2vs0mg"},{"bike_id":"7da582b5-d718-412b-abc6-2fad630c4547","system_id":"levelo_inurba_marseille","lat":43.29785,"lon":5.37114,"is_reserved":false,"is_disabled":false,"rental_uris":{"android":"levelo://app?vid=7da582b5-d718-412b-abc6-2fad630c4547","ios":"levelo://app?vid=7da582b5-d718-412b-abc6-2fad630c4547"},"vehicle_type_id":"4","last_reported":1736993217,"current_range_meters":38800,"station_id":"ce4bgop2rcd13ifvqc1g","pricing_plan_id":"cebpf4jnsgd1na2vs0mg"},{"bike_id":"1196e9f5-0570-4505-b30c-37b2b9c61113","system_id":"levelo_inurba_marseille","lat":43.25492,"lon":5.3766,"is_reserved":false,"is_disabled":false,"rental_uris":{"android":"levelo://app?vid=1196e9f5-0570-4505-b30c-37b2b9c61113","ios":"levelo://app?vid=1196e9f5-0570-4505-b30c-37b2b9c61113"},"vehicle_type_id":"4","last_reported":1736993217,"current_range_meters":38000,"station_id":"ce4bhh12rcd13ifvqff0","pricing_plan_id":"cebpf4jnsgd1na2vs0mg"},{"bike_id":"05dcce0a-1f30-4267-9930-c165e5e4ea9d","system_id":"levelo_inurba_marseille","lat":43.24042,"lon":5.37735,"is_reserved":false,"is_disabled":false,"rental_uris":{"android":"levelo://app?vid=05dcce0a-1f30-4267-9930-c165e5e4ea9d","ios":"levelo://app?vid=05dcce0a-1f30-4267-9930-c165e5e4ea9d"},"vehicle_type_id":"4","last_reported":1736993217,"current_range_meters":38800,"station_id":"ce4bhnp2rcd13ifvqgvg","pricing_plan_id":"cebpf4jnsgd1na2vs0mg"},{"bike_id":"94b0bc95-8a4c-4caf-a373-611103dee1d4","system_id":"levelo_inurba_marseille","lat":43.30133,"lon":5.39866,"is_reserved":false,"is_disabled":false,"rental_uris":{"android":"levelo://app?vid=94b0bc95-8a4c-4caf-a373-611103dee1d4","ios":"levelo://app?vid=94b0bc95-8a4c-4caf-a373-611103dee1d4"},"vehicle_type_id":"4","last_reported":1736993217,"current_range_meters":38000,"station_id":"ce4bh0h2rcd13ifvqd40","pricing_plan_id":"cebpf4jnsgd1na2vs0mg"},{"bike_id":"0e842b39-329d-48e2-b781-7e3babc96cf4","system_id":"levelo_inurba_marseille","lat":43.22932,"lon":5.35381,"is_reserved":false,"is_disabled":false,"rental_uris":{"android":"levelo://app?vid=0e842b39-329d-48e2-b781-7e3babc96cf4","ios":"levelo://app?vid=0e842b39-329d-48e2-b781-7e3babc96cf4"},"vehicle_type_id":"4","last_reported":1736993217,"current_range_meters":18000,"station_id":"cpo3532slgdg3j2ikp40","pricing_plan_id":"cebpf4jnsgd1na2vs0mg"},{"bike_id":"66d86647-f3d9-43c2-8067-2511dcc8853d","system_id":"levelo_inurba_marseille","lat":43.26986,"lon":5.40306,"is_reserved":false,"is_disabled":true,"rental_uris":{"android":"levelo://app?vid=66d86647-f3d9-43c2-8067-2511dcc8853d","ios":"levelo://app?vid=66d86647-f3d9-43c2-8067-2511dcc8853d"},"vehicle_type_id":"4","last_reported":1736993217,"current_range_meters":1200,"station_id":"cjm6bp8fraef2m0cb0m0","pricing_plan_id":"cebpf4jnsgd1na2vs0mg"},{"bike_id":"04bfd732-e3f2-4dbb-a7c9-bb99355282fc","system_id":"levelo_inurba_marseille","lat":43.3171,"lon":5.42409,"is_reserved":false,"is_disabled":false,"rental_uris":{"android":"levelo://app?vid=04bfd732-e3f2-4dbb-a7c9-bb99355282fc","ios":"levelo://app?vid=04bfd732-e3f2-4dbb-a7c9-bb99355282fc"},"vehicle_type_id":"4","last_reported":1736993217,"current_range_meters":39200,"station_id":"ce4bhp92rcd13ifvqhbg","pricing_plan_id":"cebpf4jnsgd1na2vs0mg"},{"bike_id":"d4d7adfe-943d-4585-86b3-b9cf81c5a37b","system_id":"levelo_inurba_marseille","lat":43.26684,"lon":5.38243,"is_reserved":false,"is_disabled":false,"rental_uris":{"android":"levelo://app?vid=d4d7adfe-943d-4585-86b3-b9cf81c5a37b","ios":"levelo://app?vid=d4d7adfe-943d-4585-86b3-b9cf81c5a37b"},"vehicle_type_id":"4","last_reported":1736993217,"current_range_meters":38000,"station_id":"ce4bhg92rcd13ifvqf90","pricing_plan_id":"cebpf4jnsgd1na2vs0mg"},{"bike_id":"0e7c3373-583a-438f-8dea-9a5760a26114","system_id":"levelo_inurba_marseille","lat":43.30885,"lon":5.37199,"is_reserved":false,"is_disabled":false,"rental_uris":{"android":"levelo://app?vid=0e7c3373-583a-438f-8dea-9a5760a26114","ios":"levelo://app?vid=0e7c3373-583a-438f-8dea-9a5760a26114"},"vehicle_type_id":"4","last_reported":1736993217,"current_range_meters":23200,"station_id":"ce4bguh2rcd13ifvqckg","pricing_plan_id":"cebpf4jnsgd1na2vs0mg"},{"bike_id":"8b6182c3-3c5e-4a05-80f5-f25cf3a13217","system_id":"levelo_inurba_marseille","lat":43.24543,"lon":5.39517,"is_reserved":false,"is_disabled":false,"rental_uris":{"android":"levelo://app?vid=8b6182c3-3c5e-4a05-80f5-f25cf3a13217","ios":"levelo://app?vid=8b6182c3-3c5e-4a05-80f5-f25cf3a13217"},"vehicle_type_id":"4","last_reported":1736993217,"current_range_meters":25600,"station_id":"ce4bhlp2rcd13ifvqgjg","pricing_plan_id":"cebpf4jnsgd1na2vs0mg"},{"bike_id":"8e1dce65-5991-4aa9-ba51-975a26518dd4","system_id":"levelo_inurba_marseille","lat":43.26801,"lon":5.40255,"is_reserved":false,"is_disabled":false,"rental_uris":{"android":"levelo://app?vid=8e1dce65-5991-4aa9-ba51-975a26518dd4","ios":"levelo://app?vid=8e1dce65-5991-4aa9-ba51-975a26518dd4"},"vehicle_type_id":"4","last_reported":1736993217,"current_range_meters":30800,"station_id":"ce501612rcd8frsf0b60","pricing_plan_id":"cebpf4jnsgd1na2vs0mg"},{"bike_id":"4af4ca32-774e-44b0-95f6-4885616519b8","system_id":"levelo_inurba_marseille","lat":43.30291,"lon":5.39209,"is_reserved":false,"is_disabled":false,"rental_uris":{"android":"levelo://app?vid=4af4ca32-774e-44b0-95f6-4885616519b8","ios":"levelo://app?vid=4af4ca32-774e-44b0-95f6-4885616519b8"},"vehicle_type_id":"4","last_reported":1736993217,"current_range_meters":26000,"station_id":"ce4bgkh2rcd13ifvqbk0","pricing_plan_id":"cebpf4jnsgd1na2vs0mg"},{"bike_id":"85fb2bf8-5b4b-4be2-81d5-99a2452f7f4a","system_id":"levelo_inurba_marseille","lat":43.2589,"lon":5.39887,"is_reserved":false,"is_disabled":false,"rental_uris":{"android":"levelo://app?vid=85fb2bf8-5b4b-4be2-81d5-99a2452f7f4a","ios":"levelo://app?vid=85fb2bf8-5b4b-4be2-81d5-99a2452f7f4a"},"vehicle_type_id":"4","last_reported":1736993217,"current_range_meters":38400,"station_id":"ce4bhl92rcd13ifvqghg","pricing_plan_id":"cebpf4jnsgd1na2vs0mg"},{"bike_id":"21991245-c0ed-460a-96c0-efd1586188d9","system_id":"levelo_inurba_marseille","lat":43.25995,"lon":5.37563,"is_reserved":false,"is_disabled":false,"rental_uris":{"android":"levelo://app?vid=21991245-c0ed-460a-96c0-efd1586188d9","ios":"levelo://app?vid=21991245-c0ed-460a-96c0-efd1586188d9"},"vehicle_type_id":"4","last_reported":1736993217,"current_range_meters":36800,"station_id":"ce4bhgh2rcd13ifvqfa0","pricing_plan_id":"cebpf4jnsgd1na2vs0mg"},{"bike_id":"a113a636-9709-4346-9337-9ff9f13c7d24","system_id":"levelo_inurba_marseille","lat":43.26564,"lon":5.37276,"is_reserved":false,"is_disabled":false,"rental_uris":{"android":"levelo://app?vid=a113a636-9709-4346-9337-9ff9f13c7d24","ios":"levelo://app?vid=a113a636-9709-4346-9337-9ff9f13c7d24"},"vehicle_type_id":"4","last_reported":1736993217,"current_range_meters":16400,"station_id":"ce4bhg12rcd13ifvqf70","pricing_plan_id":"cebpf4jnsgd1na2vs0mg"},{"bike_id":"b96abaf4-0fa5-4720-8999-93f7ce59d4e6","system_id":"levelo_inurba_marseille","lat":43.27068,"lon":5.42261,"is_reserved":false,"is_disabled":false,"rental_uris":{"android":"levelo://app?vid=b96abaf4-0fa5-4720-8999-93f7ce59d4e6","ios":"levelo://app?vid=b96abaf4-0fa5-4720-8999-93f7ce59d4e6"},"vehicle_type_id":"4","last_reported":1736993217,"current_range_meters":36400,"station_id":"ce4bhk92rcd13ifvqgb0","pricing_plan_id":"cebpf4jnsgd1na2vs0mg"},{"bike_id":"bf640603-83b1-45ec-97b9-6f63203dda4b","system_id":"levelo_inurba_marseille","lat":43.28138,"lon":5.4265,"is_reserved":false,"is_disabled":false,"rental_uris":{"android":"levelo://app?vid=bf640603-83b1-45ec-97b9-6f63203dda4b","ios":"levelo://app?vid=bf640603-83b1-45ec-97b9-6f63203dda4b"},"vehicle_type_id":"4","last_reported":1736993217,"current_range_meters":24000,"station_id":"ce4bhnh2rcd13ifvqgug","pricing_plan_id":"cebpf4jnsgd1na2vs0mg"},{"bike_id":"43fd6972-8b77-49c4-9232-69d397e2e1ec","system_id":"levelo_inurba_marseille","lat":43.24108,"lon":5.37742,"is_reserved":false,"is_disabled":false,"rental_uris":{"android":"levelo://app?vid=43fd6972-8b77-49c4-9232-69d397e2e1ec","ios":"levelo://app?vid=43fd6972-8b77-49c4-9232-69d397e2e1ec"},"vehicle_type_id":"4","last_reported":1736993217,"current_range_meters":9600,"station_id":"ce4bhnp2rcd13ifvqgvg","pricing_plan_id":"cebpf4jnsgd1na2vs0mg"},{"bike_id":"abd70145-a4d5-456b-aff2-316f688b7c3d","system_id":"levelo_inurba_marseille","lat":43.29881,"lon":5.39738,"is_reserved":false,"is_disabled":false,"rental_uris":{"android":"levelo://app?vid=abd70145-a4d5-456b-aff2-316f688b7c3d","ios":"levelo://app?vid=abd70145-a4d5-456b-aff2-316f688b7c3d"},"vehicle_type_id":"4","last_reported":1736993217,"current_range_meters":28800,"station_id":"ce4bh0h2rcd13ifvqd50","pricing_plan_id":"cebpf4jnsgd1na2vs0mg"},{"bike_id":"ada49849-33d8-4082-8c23-de50c15aac1c","system_id":"levelo_inurba_marseille","lat":43.31124,"lon":5.37767,"is_reserved":false,"is_disabled":false,"rental_uris":{"android":"levelo://app?vid=ada49849-33d8-4082-8c23-de50c15aac1c","ios":"levelo://app?vid=ada49849-33d8-4082-8c23-de50c15aac1c"},"vehicle_type_id":"4","last_reported":1736993217,"current_range_meters":36800,"station_id":"ce4bgt92rcd13ifvqcg0","pricing_plan_id":"cebpf4jnsgd1na2vs0mg"},{"bike_id":"73bbd733-8668-482c-b82d-a3e1fe3cf3e3","system_id":"levelo_inurba_marseille","lat":43.28721,"lon":5.36082,"is_reserved":false,"is_disabled":false,"rental_uris":{"android":"levelo://app?vid=73bbd733-8668-482c-b82d-a3e1fe3cf3e3","ios":"levelo://app?vid=73bbd733-8668-482c-b82d-a3e1fe3cf3e3"},"vehicle_type_id":"4","last_reported":1736993217,"current_range_meters":28800,"station_id":"cki0cbj6b192h4jlfktg","pricing_plan_id":"cebpf4jnsgd1na2vs0mg"},{"bike_id":"f8df8702-d3f4-43b5-a8c0-49f59afccc7f","system_id":"levelo_inurba_marseille","lat":43.30906,"lon":5.4017,"is_reserved":false,"is_disabled":false,"rental_uris":{"android":"levelo://app?vid=f8df8702-d3f4-43b5-a8c0-49f59afccc7f","ios":"levelo://app?vid=f8df8702-d3f4-43b5-a8c0-49f59afccc7f"},"vehicle_type_id":"4","last_reported":1736993217,"current_range_meters":30800,"station_id":"ce4bgvp2rcd13ifvqct0","pricing_plan_id":"cebpf4jnsgd1na2vs0mg"},{"bike_id":"c8e997c0-8580-4d0f-8d9f-0766596381e1","system_id":"levelo_inurba_marseille","lat":43.33918,"lon":5.37562,"is_reserved":false,"is_disabled":true,"rental_uris":{"android":"levelo://app?vid=c8e997c0-8580-4d0f-8d9f-0766596381e1","ios":"levelo://app?vid=c8e997c0-8580-4d0f-8d9f-0766596381e1"},"vehicle_type_id":"4","last_reported":1736993217,"current_range_meters":0,"station_id":"","pricing_plan_id":"cebpf4jnsgd1na2vs0mg"},{"bike_id":"ad1ccaac-d0f5-4efb-87d0-5d27d52d334f","system_id":"levelo_inurba_marseille","lat":43.31531,"lon":5.3804,"is_reserved":false,"is_disabled":false,"rental_uris":{"android":"levelo://app?vid=ad1ccaac-d0f5-4efb-87d0-5d27d52d334f","ios":"levelo://app?vid=ad1ccaac-d0f5-4efb-87d0-5d27d52d334f"},"vehicle_type_id":"4","last_reported":1736993217,"current_range_meters":38400,"station_id":"ce4bhsp2rcd13ifvqi50","pricing_plan_id":"cebpf4jnsgd1na2vs0mg"},{"bike_id":"28d58d01-ff9a-4d04-a9a2-3f3598663adb","system_id":"levelo_inurba_marseille","lat":43.28684,"lon":5.37404,"is_reserved":false,"is_disabled":false,"rental_uris":{"android":"levelo://app?vid=28d58d01-ff9a-4d04-a9a2-3f3598663adb","ios":"levelo://app?vid=28d58d01-ff9a-4d04-a9a2-3f3598663adb"},"vehicle_type_id":"4","last_reported":1736993217,"current_range_meters":23200,"station_id":"ce4bh3p2rcd13ifvqdq0","pricing_plan_id":"cebpf4jnsgd1na2vs0mg"},{"bike_id":"d897c182-a994-41ed-8182-39285d609a0b","system_id":"levelo_inurba_marseille","lat":43.30327,"lon":5.40438,"is_reserved":false,"is_disabled":false,"rental_uris":{"android":"levelo://app?vid=d897c182-a994-41ed-8182-39285d609a0b","ios":"levelo://app?vid=d897c182-a994-41ed-8182-39285d609a0b"},"vehicle_type_id":"4","last_reported":1736993217,"current_range_meters":34000,"station_id":"ce4bh012rcd13ifvqd10","pricing_plan_id":"cebpf4jnsgd1na2vs0mg"},{"bike_id":"7311783b-16d9-43d6-8952-8843dbc55ff7","system_id":"levelo_inurba_marseille","lat":43.30547,"lon":5.38439,"is_reserved":false,"is_disabled":false,"rental_uris":{"android":"levelo://app?vid=7311783b-16d9-43d6-8952-8843dbc55ff7","ios":"levelo://app?vid=7311783b-16d9-43d6-8952-8843dbc55ff7"},"vehicle_type_id":"4","last_reported":1736993217,"current_range_meters":36800,"station_id":"ce4bgg92rcd13ifvqb30","pricing_plan_id":"cebpf4jnsgd1na2vs0mg"},{"bike_id":"85a7b7fe-337d-47e7-b225-17728841ea08","system_id":"levelo_inurba_marseille","lat":43.31165,"lon":5.38729,"is_reserved":false,"is_disabled":false,"rental_uris":{"android":"levelo://app?vid=85a7b7fe-337d-47e7-b225-17728841ea08","ios":"levelo://app?vid=85a7b7fe-337d-47e7-b225-17728841ea08"},"vehicle_type_id":"4","last_reported":1736993217,"current_range_meters":11600,"station_id":"ce4bgv12rcd13ifvqcp0","pricing_plan_id":"cebpf4jnsgd1na2vs0mg"},{"bike_id":"bc3905c6-7197-4ab3-a60f-0e7158599edc","system_id":"levelo_inurba_marseille","lat":43.29958,"lon":5.4131,"is_reserved":false,"is_disabled":false,"rental_uris":{"android":"levelo://app?vid=bc3905c6-7197-4ab3-a60f-0e7158599edc","ios":"levelo://app?vid=bc3905c6-7197-4ab3-a60f-0e7158599edc"},"vehicle_type_id":"4","last_reported":1736993217,"current_range_meters":38000,"station_id":"ce4bhp12rcd13ifvqh9g","pricing_plan_id":"cebpf4jnsgd1na2vs0mg"},{"bike_id":"bb90d116-cd2d-49c0-9a85-782232d09c9e","system_id":"levelo_inurba_marseille","lat":43.28935,"lon":5.36388,"is_reserved":false,"is_disabled":false,"rental_uris":{"android":"levelo://app?vid=bb90d116-cd2d-49c0-9a85-782232d09c9e","ios":"levelo://app?vid=bb90d116-cd2d-49c0-9a85-782232d09c9e"},"vehicle_type_id":"4","last_reported":1736993217,"current_range_meters":21600,"station_id":"ce4bhc92rcd13ifvqetg","pricing_plan_id":"cebpf4jnsgd1na2vs0mg"},{"bike_id":"dc4535a7-40c5-4b41-8fda-d9bfcdb5020b","system_id":"levelo_inurba_marseille","lat":43.28822,"lon":5.35842,"is_reserved":false,"is_disabled":false,"rental_uris":{"android":"levelo://app?vid=dc4535a7-40c5-4b41-8fda-d9bfcdb5020b","ios":"levelo://app?vid=dc4535a7-40c5-4b41-8fda-d9bfcdb5020b"},"vehicle_type_id":"4","last_reported":1736993217,"current_range_meters":28400,"station_id":"ce4bhb12rcd13ifvqem0","pricing_plan_id":"cebpf4jnsgd1na2vs0mg"},{"bike_id":"98384fdc-4e22-410d-8ac0-a95f275d2dff","system_id":"levelo_inurba_marseille","lat":43.3077,"lon":5.3764,"is_reserved":false,"is_disabled":false,"rental_uris":{"android":"levelo://app?vid=98384fdc-4e22-410d-8ac0-a95f275d2dff","ios":"levelo://app?vid=98384fdc-4e22-410d-8ac0-a95f275d2dff"},"vehicle_type_id":"4","last_reported":1736993217,"current_range_meters":28000,"station_id":"ce4bgv92rcd13ifvqcq0","pricing_plan_id":"cebpf4jnsgd1na2vs0mg"},{"bike_id":"7b693463-6b82-4e9a-aa2d-726f031e21f9","system_id":"levelo_inurba_marseille","lat":43.30794,"lon":5.43519,"is_reserved":false,"is_disabled":false,"rental_uris":{"android":"levelo://app?vid=7b693463-6b82-4e9a-aa2d-726f031e21f9","ios":"levelo://app?vid=7b693463-6b82-4e9a-aa2d-726f031e21f9"},"vehicle_type_id":"4","last_reported":1736993217,"current_range_meters":35600,"station_id":"ce4bhph2rcd13ifvqheg","pricing_plan_id":"cebpf4jnsgd1na2vs0mg"},{"bike_id":"922ed1aa-795c-4556-b33d-37e0e82eb86c","system_id":"levelo_inurba_marseille","lat":43.33602,"lon":5.40987,"is_reserved":false,"is_disabled":false,"rental_uris":{"android":"levelo://app?vid=922ed1aa-795c-4556-b33d-37e0e82eb86c","ios":"levelo://app?vid=922ed1aa-795c-4556-b33d-37e0e82eb86c"},"vehicle_type_id":"4","last_reported":1736993217,"current_range_meters":37600,"station_id":"ce4bhqh2rcd13ifvqhmg","pricing_plan_id":"cebpf4jnsgd1na2vs0mg"},{"bike_id":"ee28e867-21e8-4831-b259-c94c83f948c2","system_id":"levelo_inurba_marseille","lat":43.29582,"lon":5.36729,"is_reserved":false,"is_disabled":false,"rental_uris":{"android":"levelo://app?vid=ee28e867-21e8-4831-b259-c94c83f948c2","ios":"levelo://app?vid=ee28e867-21e8-4831-b259-c94c83f948c2"},"vehicle_type_id":"4","last_reported":1736993217,"current_range_meters":30000,"station_id":"ce4bgph2rcd13ifvqc2g","pricing_plan_id":"cebpf4jnsgd1na2vs0mg"},{"bike_id":"5416b3d0-0626-4e79-9d40-c2d4d2711930","system_id":"levelo_inurba_marseille","lat":43.30314,"lon":5.4044,"is_reserved":false,"is_disabled":false,"rental_uris":{"android":"levelo://app?vid=5416b3d0-0626-4e79-9d40-c2d4d2711930","ios":"levelo://app?vid=5416b3d0-0626-4e79-9d40-c2d4d2711930"},"vehicle_type_id":"4","last_reported":1736993217,"current_range_meters":38800,"station_id":"ce4bh012rcd13ifvqd10","pricing_plan_id":"cebpf4jnsgd1na2vs0mg"},{"bike_id":"fa53afd0-c3c0-46c2-be7e-d056eb14f6b8","system_id":"levelo_inurba_marseille","lat":43.24052,"lon":5.37728,"is_reserved":false,"is_disabled":false,"rental_uris":{"android":"levelo://app?vid=fa53afd0-c3c0-46c2-be7e-d056eb14f6b8","ios":"levelo://app?vid=fa53afd0-c3c0-46c2-be7e-d056eb14f6b8"},"vehicle_type_id":"4","last_reported":1736993217,"current_range_meters":38800,"station_id":"ce4bhnp2rcd13ifvqgvg","pricing_plan_id":"cebpf4jnsgd1na2vs0mg"},{"bike_id":"b713aa20-673e-4776-ad1a-f1df82a1e4e1","system_id":"levelo_inurba_marseille","lat":43.28436,"lon":5.35891,"is_reserved":false,"is_disabled":false,"rental_uris":{"android":"levelo://app?vid=b713aa20-673e-4776-ad1a-f1df82a1e4e1","ios":"levelo://app?vid=b713aa20-673e-4776-ad1a-f1df82a1e4e1"},"vehicle_type_id":"4","last_reported":1736993217,"current_range_meters":34000,"station_id":"ce4bhah2rcd13ifvqei0","pricing_plan_id":"cebpf4jnsgd1na2vs0mg"},{"bike_id":"d0667ff6-79fe-403d-86e3-e40bf5a92767","system_id":"levelo_inurba_marseille","lat":43.28675,"lon":5.37397,"is_reserved":false,"is_disabled":false,"rental_uris":{"android":"levelo://app?vid=d0667ff6-79fe-403d-86e3-e40bf5a92767","ios":"levelo://app?vid=d0667ff6-79fe-403d-86e3-e40bf5a92767"},"vehicle_type_id":"4","last_reported":1736993217,"current_range_meters":35200,"station_id":"ce4bh3p2rcd13ifvqdq0","pricing_plan_id":"cebpf4jnsgd1na2vs0mg"},{"bike_id":"6f7c6a9b-f0fe-4abb-820c-ab63a7496cb5","system_id":"levelo_inurba_marseille","lat":43.31525,"lon":5.38056,"is_reserved":false,"is_disabled":false,"rental_uris":{"android":"levelo://app?vid=6f7c6a9b-f0fe-4abb-820c-ab63a7496cb5","ios":"levelo://app?vid=6f7c6a9b-f0fe-4abb-820c-ab63a7496cb5"},"vehicle_type_id":"4","last_reported":1736993217,"current_range_meters":38000,"station_id":"ce4bhsp2rcd13ifvqi50","pricing_plan_id":"cebpf4jnsgd1na2vs0mg"},{"bike_id":"155dbf4b-d6fe-46aa-9097-9994452a5158","system_id":"levelo_inurba_marseille","lat":43.23062,"lon":5.3548,"is_reserved":false,"is_disabled":false,"rental_uris":{"android":"levelo://app?vid=155dbf4b-d6fe-46aa-9097-9994452a5158","ios":"levelo://app?vid=155dbf4b-d6fe-46aa-9097-9994452a5158"},"vehicle_type_id":"4","last_reported":1736993217,"current_range_meters":10000,"station_id":"cpo3342slgdg3j2ifvpg","pricing_plan_id":"cebpf4jnsgd1na2vs0mg"},{"bike_id":"e5dac3e9-311e-4c35-a93e-6977f4c3e4f6","system_id":"levelo_inurba_marseille","lat":43.28699,"lon":5.374,"is_reserved":false,"is_disabled":false,"rental_uris":{"android":"levelo://app?vid=e5dac3e9-311e-4c35-a93e-6977f4c3e4f6","ios":"levelo://app?vid=e5dac3e9-311e-4c35-a93e-6977f4c3e4f6"},"vehicle_type_id":"4","last_reported":1736993217,"current_range_meters":38800,"station_id":"ce4bh3p2rcd13ifvqdq0","pricing_plan_id":"cebpf4jnsgd1na2vs0mg"},{"bike_id":"842ef00a-17e2-4e07-b07c-963a4da58c03","system_id":"levelo_inurba_marseille","lat":43.30248,"lon":5.40083,"is_reserved":false,"is_disabled":false,"rental_uris":{"android":"levelo://app?vid=842ef00a-17e2-4e07-b07c-963a4da58c03","ios":"levelo://app?vid=842ef00a-17e2-4e07-b07c-963a4da58c03"},"vehicle_type_id":"4","last_reported":1736993217,"current_range_meters":24400,"station_id":"ce4bgvh2rcd13ifvqcs0","pricing_plan_id":"cebpf4jnsgd1na2vs0mg"},{"bike_id":"fea1b24d-bbfb-474a-b028-8645483cd7e6","system_id":"levelo_inurba_marseille","lat":43.33759,"lon":5.37468,"is_reserved":false,"is_disabled":false,"rental_uris":{"android":"levelo://app?vid=fea1b24d-bbfb-474a-b028-8645483cd7e6","ios":"levelo://app?vid=fea1b24d-bbfb-474a-b028-8645483cd7e6"},"vehicle_type_id":"4","last_reported":1736993217,"current_range_meters":36000,"station_id":"","pricing_plan_id":"cebpf4jnsgd1na2vs0mg"},{"bike_id":"38bab05e-778b-4bd4-82ae-2fe0acda18d3","system_id":"levelo_inurba_marseille","lat":43.341513,"lon":5.408943,"is_reserved":false,"is_disabled":false,"rental_uris":{"android":"levelo://app?vid=38bab05e-778b-4bd4-82ae-2fe0acda18d3","ios":"levelo://app?vid=38bab05e-778b-4bd4-82ae-2fe0acda18d3"},"vehicle_type_id":"4","last_reported":1736993217,"current_range_meters":38000,"station_id":"ce4bhqh2rcd13ifvqhlg","pricing_plan_id":"cebpf4jnsgd1na2vs0mg"},{"bike_id":"9a63f0cd-32ef-484a-a164-6bb057ec52f3","system_id":"levelo_inurba_marseille","lat":43.30921,"lon":5.40134,"is_reserved":false,"is_disabled":false,"rental_uris":{"android":"levelo://app?vid=9a63f0cd-32ef-484a-a164-6bb057ec52f3","ios":"levelo://app?vid=9a63f0cd-32ef-484a-a164-6bb057ec52f3"},"vehicle_type_id":"4","last_reported":1736993217,"current_range_meters":32000,"station_id":"ce4bgvp2rcd13ifvqct0","pricing_plan_id":"cebpf4jnsgd1na2vs0mg"},{"bike_id":"e979d60c-d5ee-4666-9345-5faffd5dfc17","system_id":"levelo_inurba_marseille","lat":43.30144,"lon":5.39865,"is_reserved":false,"is_disabled":false,"rental_uris":{"android":"levelo://app?vid=e979d60c-d5ee-4666-9345-5faffd5dfc17","ios":"levelo://app?vid=e979d60c-d5ee-4666-9345-5faffd5dfc17"},"vehicle_type_id":"4","last_reported":1736993217,"current_range_meters":22800,"station_id":"ce4bh0h2rcd13ifvqd40","pricing_plan_id":"cebpf4jnsgd1na2vs0mg"},{"bike_id":"72eec60a-2667-4f1f-a2bb-7c5536e9c1b2","system_id":"levelo_inurba_marseille","lat":43.28726,"lon":5.36077,"is_reserved":false,"is_disabled":false,"rental_uris":{"android":"levelo://app?vid=72eec60a-2667-4f1f-a2bb-7c5536e9c1b2","ios":"levelo://app?vid=72eec60a-2667-4f1f-a2bb-7c5536e9c1b2"},"vehicle_type_id":"4","last_reported":1736993217,"current_range_meters":32800,"station_id":"cki0cbj6b192h4jlfktg","pricing_plan_id":"cebpf4jnsgd1na2vs0mg"},{"bike_id":"e1fe12c3-1829-4f11-ac72-e281b2a37c12","system_id":"levelo_inurba_marseille","lat":43.30885,"lon":5.39639,"is_reserved":false,"is_disabled":false,"rental_uris":{"android":"levelo://app?vid=e1fe12c3-1829-4f11-ac72-e281b2a37c12","ios":"levelo://app?vid=e1fe12c3-1829-4f11-ac72-e281b2a37c12"},"vehicle_type_id":"4","last_reported":1736993217,"current_range_meters":20800,"station_id":"ce4bh012rcd13ifvqcv0","pricing_plan_id":"cebpf4jnsgd1na2vs0mg"},{"bike_id":"0de1c0c3-224c-470c-9c40-92abbb1e542e","system_id":"levelo_inurba_marseille","lat":43.27401,"lon":5.39433,"is_reserved":false,"is_disabled":true,"rental_uris":{"android":"levelo://app?vid=0de1c0c3-224c-470c-9c40-92abbb1e542e","ios":"levelo://app?vid=0de1c0c3-224c-470c-9c40-92abbb1e542e"},"vehicle_type_id":"4","last_reported":1736993217,"current_range_meters":26000,"station_id":"ce4bhdp2rcd13ifvqf20","pricing_plan_id":"cebpf4jnsgd1na2vs0mg"},{"bike_id":"c128629d-a6b0-4e56-8fb2-9acca0407eec","system_id":"levelo_inurba_marseille","lat":43.2845,"lon":5.35871,"is_reserved":false,"is_disabled":false,"rental_uris":{"android":"levelo://app?vid=c128629d-a6b0-4e56-8fb2-9acca0407eec","ios":"levelo://app?vid=c128629d-a6b0-4e56-8fb2-9acca0407eec"},"vehicle_type_id":"4","last_reported":1736993217,"current_range_meters":38000,"station_id":"ce4bhah2rcd13ifvqei0","pricing_plan_id":"cebpf4jnsgd1na2vs0mg"},{"bike_id":"45c4b311-d420-4285-be5e-8fbbcedd6483","system_id":"levelo_inurba_marseille","lat":43.28082,"lon":5.39637,"is_reserved":false,"is_disabled":false,"rental_uris":{"android":"levelo://app?vid=45c4b311-d420-4285-be5e-8fbbcedd6483","ios":"levelo://app?vid=45c4b311-d420-4285-be5e-8fbbcedd6483"},"vehicle_type_id":"4","last_reported":1736993217,"current_range_meters":38800,"station_id":"ce4bho12rcd13ifvqh2g","pricing_plan_id":"cebpf4jnsgd1na2vs0mg"},{"bike_id":"1f149e26-9d4e-4970-96ec-1b76430b914b","system_id":"levelo_inurba_marseille","lat":43.24395,"lon":5.37052,"is_reserved":false,"is_disabled":false,"rental_uris":{"android":"levelo://app?vid=1f149e26-9d4e-4970-96ec-1b76430b914b","ios":"levelo://app?vid=1f149e26-9d4e-4970-96ec-1b76430b914b"},"vehicle_type_id":"4","last_reported":1736993217,"current_range_meters":36800,"station_id":"ce4bhhh2rcd13ifvqfk0","pricing_plan_id":"cebpf4jnsgd1na2vs0mg"},{"bike_id":"da3afe3c-5cdd-453f-9551-77e8476e7381","system_id":"levelo_inurba_marseille","lat":43.29527,"lon":5.38532,"is_reserved":false,"is_disabled":true,"rental_uris":{"android":"levelo://app?vid=da3afe3c-5cdd-453f-9551-77e8476e7381","ios":"levelo://app?vid=da3afe3c-5cdd-453f-9551-77e8476e7381"},"vehicle_type_id":"4","last_reported":1736993217,"current_range_meters":38000,"station_id":"ce4bgih2rcd13ifvqba0","pricing_plan_id":"cebpf4jnsgd1na2vs0mg"},{"bike_id":"7ae55881-355c-4568-817f-c94fd19ee31d","system_id":"levelo_inurba_marseille","lat":43.28669,"lon":5.36329,"is_reserved":false,"is_disabled":false,"rental_uris":{"android":"levelo://app?vid=7ae55881-355c-4568-817f-c94fd19ee31d","ios":"levelo://app?vid=7ae55881-355c-4568-817f-c94fd19ee31d"},"vehicle_type_id":"4","last_reported":1736993217,"current_range_meters":38000,"station_id":"ce4bhah2rcd13ifvqej0","pricing_plan_id":"cebpf4jnsgd1na2vs0mg"},{"bike_id":"e5ae2f7c-bcf7-4e90-8647-01cc30d26abe","system_id":"levelo_inurba_marseille","lat":43.287,"lon":5.39982,"is_reserved":false,"is_disabled":false,"rental_uris":{"android":"levelo://app?vid=e5ae2f7c-bcf7-4e90-8647-01cc30d26abe","ios":"levelo://app?vid=e5ae2f7c-bcf7-4e90-8647-01cc30d26abe"},"vehicle_type_id":"4","last_reported":1736993217,"current_range_meters":39200,"station_id":"ce4bho92rcd13ifvqh3g","pricing_plan_id":"cebpf4jnsgd1na2vs0mg"},{"bike_id":"e052f47d-c314-4142-a490-846c18d74eff","system_id":"levelo_inurba_marseille","lat":43.28725,"lon":5.37949,"is_reserved":false,"is_disabled":true,"rental_uris":{"android":"levelo://app?vid=e052f47d-c314-4142-a490-846c18d74eff","ios":"levelo://app?vid=e052f47d-c314-4142-a490-846c18d74eff"},"vehicle_type_id":"4","last_reported":1736993217,"current_range_meters":28400,"station_id":"ce4bh9p2rcd13ifvqec0","pricing_plan_id":"cebpf4jnsgd1na2vs0mg"},{"bike_id":"e7af7e06-2d36-457b-b6a0-8cbaf295eb44","system_id":"levelo_inurba_marseille","lat":43.30288,"lon":5.39217,"is_reserved":false,"is_disabled":false,"rental_uris":{"android":"levelo://app?vid=e7af7e06-2d36-457b-b6a0-8cbaf295eb44","ios":"levelo://app?vid=e7af7e06-2d36-457b-b6a0-8cbaf295eb44"},"vehicle_type_id":"4","last_reported":1736993217,"current_range_meters":36000,"station_id":"ce4bgkh2rcd13ifvqbk0","pricing_plan_id":"cebpf4jnsgd1na2vs0mg"},{"bike_id":"63cc8642-685b-489d-905f-b1e9c7c25773","system_id":"levelo_inurba_marseille","lat":43.280336,"lon":5.369375,"is_reserved":false,"is_disabled":false,"rental_uris":{"android":"levelo://app?vid=63cc8642-685b-489d-905f-b1e9c7c25773","ios":"levelo://app?vid=63cc8642-685b-489d-905f-b1e9c7c25773"},"vehicle_type_id":"4","last_reported":1736993217,"current_range_meters":12400,"station_id":"ce4bha12rcd13ifvqef0","pricing_plan_id":"cebpf4jnsgd1na2vs0mg"},{"bike_id":"b85c581f-730e-4cc8-a0fe-b3c19f390caf","system_id":"levelo_inurba_marseille","lat":43.29865,"lon":5.39753,"is_reserved":false,"is_disabled":false,"rental_uris":{"android":"levelo://app?vid=b85c581f-730e-4cc8-a0fe-b3c19f390caf","ios":"levelo://app?vid=b85c581f-730e-4cc8-a0fe-b3c19f390caf"},"vehicle_type_id":"4","last_reported":1736993217,"current_range_meters":16000,"station_id":"ce4bh0h2rcd13ifvqd50","pricing_plan_id":"cebpf4jnsgd1na2vs0mg"},{"bike_id":"2c839bfc-228b-4afd-9c45-0e54b8f36672","system_id":"levelo_inurba_marseille","lat":43.24626,"lon":5.3891,"is_reserved":false,"is_disabled":false,"rental_uris":{"android":"levelo://app?vid=2c839bfc-228b-4afd-9c45-0e54b8f36672","ios":"levelo://app?vid=2c839bfc-228b-4afd-9c45-0e54b8f36672"},"vehicle_type_id":"4","last_reported":1736993217,"current_range_meters":38800,"station_id":"ce4bhg12rcd13ifvqf60","pricing_plan_id":"cebpf4jnsgd1na2vs0mg"},{"bike_id":"68d7a66f-9c87-40de-a5df-76e11ce0a8bc","system_id":"levelo_inurba_marseille","lat":43.27495,"lon":5.42444,"is_reserved":false,"is_disabled":false,"rental_uris":{"android":"levelo://app?vid=68d7a66f-9c87-40de-a5df-76e11ce0a8bc","ios":"levelo://app?vid=68d7a66f-9c87-40de-a5df-76e11ce0a8bc"},"vehicle_type_id":"4","last_reported":1736993217,"current_range_meters":24400,"station_id":"ce4bhn92rcd13ifvqgrg","pricing_plan_id":"cebpf4jnsgd1na2vs0mg"},{"bike_id":"de1d8a1b-4cab-447b-9f65-4b79d54767a1","system_id":"levelo_inurba_marseille","lat":43.30607,"lon":5.39323,"is_reserved":false,"is_disabled":false,"rental_uris":{"android":"levelo://app?vid=de1d8a1b-4cab-447b-9f65-4b79d54767a1","ios":"levelo://app?vid=de1d8a1b-4cab-447b-9f65-4b79d54767a1"},"vehicle_type_id":"4","last_reported":1736993217,"current_range_meters":38400,"station_id":"ce4bh0p2rcd13ifvqd80","pricing_plan_id":"cebpf4jnsgd1na2vs0mg"},{"bike_id":"5ac6e81e-c019-47ef-b708-c59262b0c774","system_id":"levelo_inurba_marseille","lat":43.24043,"lon":5.37777,"is_reserved":false,"is_disabled":false,"rental_uris":{"android":"levelo://app?vid=5ac6e81e-c019-47ef-b708-c59262b0c774","ios":"levelo://app?vid=5ac6e81e-c019-47ef-b708-c59262b0c774"},"vehicle_type_id":"4","last_reported":1736993217,"current_range_meters":29600,"station_id":"ce4bhnp2rcd13ifvqgvg","pricing_plan_id":"cebpf4jnsgd1na2vs0mg"},{"bike_id":"663d7f2c-2062-4d24-ae4c-cbceda4e4161","system_id":"levelo_inurba_marseille","lat":43.2722,"lon":5.40956,"is_reserved":false,"is_disabled":false,"rental_uris":{"android":"levelo://app?vid=663d7f2c-2062-4d24-ae4c-cbceda4e4161","ios":"levelo://app?vid=663d7f2c-2062-4d24-ae4c-cbceda4e4161"},"vehicle_type_id":"4","last_reported":1736993217,"current_range_meters":30000,"station_id":"","pricing_plan_id":"cebpf4jnsgd1na2vs0mg"},{"bike_id":"eb36113f-26ca-4395-b635-d082ab13ba53","system_id":"levelo_inurba_marseille","lat":43.2891,"lon":5.36396,"is_reserved":false,"is_disabled":false,"rental_uris":{"android":"levelo://app?vid=eb36113f-26ca-4395-b635-d082ab13ba53","ios":"levelo://app?vid=eb36113f-26ca-4395-b635-d082ab13ba53"},"vehicle_type_id":"4","last_reported":1736993217,"current_range_meters":38400,"station_id":"ce4bhc92rcd13ifvqetg","pricing_plan_id":"cebpf4jnsgd1na2vs0mg"},{"bike_id":"df9ae605-a47c-414c-b226-4d803c96838f","system_id":"levelo_inurba_marseille","lat":43.30892,"lon":5.37206,"is_reserved":false,"is_disabled":false,"rental_uris":{"android":"levelo://app?vid=df9ae605-a47c-414c-b226-4d803c96838f","ios":"levelo://app?vid=df9ae605-a47c-414c-b226-4d803c96838f"},"vehicle_type_id":"4","last_reported":1736993217,"current_range_meters":38400,"station_id":"ce4bguh2rcd13ifvqckg","pricing_plan_id":"cebpf4jnsgd1na2vs0mg"},{"bike_id":"252bf06b-b6d6-4417-8a42-0541eb1240b8","system_id":"levelo_inurba_marseille","lat":43.30882,"lon":5.3963,"is_reserved":false,"is_disabled":true,"rental_uris":{"android":"levelo://app?vid=252bf06b-b6d6-4417-8a42-0541eb1240b8","ios":"levelo://app?vid=252bf06b-b6d6-4417-8a42-0541eb1240b8"},"vehicle_type_id":"4","last_reported":1736993217,"current_range_meters":1200,"station_id":"ce4bh012rcd13ifvqcv0","pricing_plan_id":"cebpf4jnsgd1na2vs0mg"},{"bike_id":"a15980ac-c225-4e68-8982-6cc8c4cbfd79","system_id":"levelo_inurba_marseille","lat":43.23198,"lon":5.35563,"is_reserved":false,"is_disabled":false,"rental_uris":{"android":"levelo://app?vid=a15980ac-c225-4e68-8982-6cc8c4cbfd79","ios":"levelo://app?vid=a15980ac-c225-4e68-8982-6cc8c4cbfd79"},"vehicle_type_id":"4","last_reported":1736993217,"current_range_meters":38800,"station_id":"ce4bhu92rcd13ifvqi70","pricing_plan_id":"cebpf4jnsgd1na2vs0mg"},{"bike_id":"a36bbba5-4c56-4543-aded-fa7c13f2ecca","system_id":"levelo_inurba_marseille","lat":43.28708,"lon":5.37927,"is_reserved":false,"is_disabled":false,"rental_uris":{"android":"levelo://app?vid=a36bbba5-4c56-4543-aded-fa7c13f2ecca","ios":"levelo://app?vid=a36bbba5-4c56-4543-aded-fa7c13f2ecca"},"vehicle_type_id":"4","last_reported":1736993217,"current_range_meters":39200,"station_id":"ce4bh9p2rcd13ifvqec0","pricing_plan_id":"cebpf4jnsgd1na2vs0mg"},{"bike_id":"ea9c226e-d68d-47c8-895a-27a477ee9d20","system_id":"levelo_inurba_marseille","lat":43.25109,"lon":5.40328,"is_reserved":false,"is_disabled":false,"rental_uris":{"android":"levelo://app?vid=ea9c226e-d68d-47c8-895a-27a477ee9d20","ios":"levelo://app?vid=ea9c226e-d68d-47c8-895a-27a477ee9d20"},"vehicle_type_id":"4","last_reported":1736993217,"current_range_meters":38000,"station_id":"ce4bhlh2rcd13ifvqgig","pricing_plan_id":"cebpf4jnsgd1na2vs0mg"},{"bike_id":"a72f9127-8fde-413a-96f3-4b81783ba6ca","system_id":"levelo_inurba_marseille","lat":43.30308,"lon":5.40453,"is_reserved":false,"is_disabled":false,"rental_uris":{"android":"levelo://app?vid=a72f9127-8fde-413a-96f3-4b81783ba6ca","ios":"levelo://app?vid=a72f9127-8fde-413a-96f3-4b81783ba6ca"},"vehicle_type_id":"4","last_reported":1736993217,"current_range_meters":37600,"station_id":"ce4bh012rcd13ifvqd10","pricing_plan_id":"cebpf4jnsgd1na2vs0mg"},{"bike_id":"a0f052b6-765c-4f88-94e0-860938c612c5","system_id":"levelo_inurba_marseille","lat":43.27196,"lon":5.40966,"is_reserved":false,"is_disabled":false,"rental_uris":{"android":"levelo://app?vid=a0f052b6-765c-4f88-94e0-860938c612c5","ios":"levelo://app?vid=a0f052b6-765c-4f88-94e0-860938c612c5"},"vehicle_type_id":"4","last_reported":1736993217,"current_range_meters":38800,"station_id":"ce4bhl12rcd13ifvqgf0","pricing_plan_id":"cebpf4jnsgd1na2vs0mg"},{"bike_id":"c1d914f9-317b-4356-9031-7d930891593e","system_id":"levelo_inurba_marseille","lat":43.28088,"lon":5.37864,"is_reserved":false,"is_disabled":false,"rental_uris":{"android":"levelo://app?vid=c1d914f9-317b-4356-9031-7d930891593e","ios":"levelo://app?vid=c1d914f9-317b-4356-9031-7d930891593e"},"vehicle_type_id":"4","last_reported":1736993217,"current_range_meters":28000,"station_id":"ce4bha12rcd13ifvqee0","pricing_plan_id":"cebpf4jnsgd1na2vs0mg"},{"bike_id":"4f26bc33-39ee-44c8-a9e9-5ae03626a86e","system_id":"levelo_inurba_marseille","lat":43.3238,"lon":5.38866,"is_reserved":false,"is_disabled":false,"rental_uris":{"android":"levelo://app?vid=4f26bc33-39ee-44c8-a9e9-5ae03626a86e","ios":"levelo://app?vid=4f26bc33-39ee-44c8-a9e9-5ae03626a86e"},"vehicle_type_id":"4","last_reported":1736993217,"current_range_meters":38800,"station_id":"ce4bhqp2rcd13ifvqhog","pricing_plan_id":"cebpf4jnsgd1na2vs0mg"},{"bike_id":"52161f7b-e043-4299-9331-b019d9ffba37","system_id":"levelo_inurba_marseille","lat":43.29557,"lon":5.37488,"is_reserved":false,"is_disabled":false,"rental_uris":{"android":"levelo://app?vid=52161f7b-e043-4299-9331-b019d9ffba37","ios":"levelo://app?vid=52161f7b-e043-4299-9331-b019d9ffba37"},"vehicle_type_id":"4","last_reported":1736993217,"current_range_meters":24000,"station_id":"ce4bgkp2rcd13ifvqbmg","pricing_plan_id":"cebpf4jnsgd1na2vs0mg"},{"bike_id":"78eae67c-a4f7-48b2-9885-b3b915b1a5ec","system_id":"levelo_inurba_marseille","lat":43.30441,"lon":5.3888,"is_reserved":false,"is_disabled":false,"rental_uris":{"android":"levelo://app?vid=78eae67c-a4f7-48b2-9885-b3b915b1a5ec","ios":"levelo://app?vid=78eae67c-a4f7-48b2-9885-b3b915b1a5ec"},"vehicle_type_id":"4","last_reported":1736993217,"current_range_meters":35200,"station_id":"ce4bgk12rcd13ifvqbi0","pricing_plan_id":"cebpf4jnsgd1na2vs0mg"},{"bike_id":"d7ab7de0-4a8c-457a-a21a-73391af488df","system_id":"levelo_inurba_marseille","lat":43.32097,"lon":5.36786,"is_reserved":false,"is_disabled":false,"rental_uris":{"android":"levelo://app?vid=d7ab7de0-4a8c-457a-a21a-73391af488df","ios":"levelo://app?vid=d7ab7de0-4a8c-457a-a21a-73391af488df"},"vehicle_type_id":"4","last_reported":1736993217,"current_range_meters":38800,"station_id":"ce4bhrh2rcd13ifvqhug","pricing_plan_id":"cebpf4jnsgd1na2vs0mg"},{"bike_id":"51bb6953-dea8-4e82-96bf-52696267905f","system_id":"levelo_inurba_marseille","lat":43.23054,"lon":5.35494,"is_reserved":false,"is_disabled":false,"rental_uris":{"android":"levelo://app?vid=51bb6953-dea8-4e82-96bf-52696267905f","ios":"levelo://app?vid=51bb6953-dea8-4e82-96bf-52696267905f"},"vehicle_type_id":"4","last_reported":1736993217,"current_range_meters":38000,"station_id":"cpo3342slgdg3j2ifvpg","pricing_plan_id":"cebpf4jnsgd1na2vs0mg"},{"bike_id":"b702870c-1d78-46d2-88fc-1641a595db26","system_id":"levelo_inurba_marseille","lat":43.34166,"lon":5.40901,"is_reserved":false,"is_disabled":false,"rental_uris":{"android":"levelo://app?vid=b702870c-1d78-46d2-88fc-1641a595db26","ios":"levelo://app?vid=b702870c-1d78-46d2-88fc-1641a595db26"},"vehicle_type_id":"4","last_reported":1736993217,"current_range_meters":37600,"station_id":"ce4bhqh2rcd13ifvqhlg","pricing_plan_id":"cebpf4jnsgd1na2vs0mg"},{"bike_id":"bcaf1888-0e72-497a-935f-c6ecf67bfe31","system_id":"levelo_inurba_marseille","lat":43.30704,"lon":5.39553,"is_reserved":false,"is_disabled":false,"rental_uris":{"android":"levelo://app?vid=bcaf1888-0e72-497a-935f-c6ecf67bfe31","ios":"levelo://app?vid=bcaf1888-0e72-497a-935f-c6ecf67bfe31"},"vehicle_type_id":"4","last_reported":1736993217,"current_range_meters":28800,"station_id":"","pricing_plan_id":"cebpf4jnsgd1na2vs0mg"},{"bike_id":"fd7be8f0-9c83-4f08-bd24-065ae8f50b31","system_id":"levelo_inurba_marseille","lat":43.24646,"lon":5.38892,"is_reserved":false,"is_disabled":false,"rental_uris":{"android":"levelo://app?vid=fd7be8f0-9c83-4f08-bd24-065ae8f50b31","ios":"levelo://app?vid=fd7be8f0-9c83-4f08-bd24-065ae8f50b31"},"vehicle_type_id":"4","last_reported":1736993217,"current_range_meters":38800,"station_id":"ce4bhg12rcd13ifvqf60","pricing_plan_id":"cebpf4jnsgd1na2vs0mg"},{"bike_id":"d62aabf6-9ee5-4808-8677-670939ad6911","system_id":"levelo_inurba_marseille","lat":43.28946,"lon":5.363953,"is_reserved":false,"is_disabled":false,"rental_uris":{"android":"levelo://app?vid=d62aabf6-9ee5-4808-8677-670939ad6911","ios":"levelo://app?vid=d62aabf6-9ee5-4808-8677-670939ad6911"},"vehicle_type_id":"4","last_reported":1736993217,"current_range_meters":36400,"station_id":"ce4bhc92rcd13ifvqetg","pricing_plan_id":"cebpf4jnsgd1na2vs0mg"},{"bike_id":"78218188-10d8-41e6-bf5a-150ff3b43099","system_id":"levelo_inurba_marseille","lat":43.23977,"lon":5.36607,"is_reserved":false,"is_disabled":false,"rental_uris":{"android":"levelo://app?vid=78218188-10d8-41e6-bf5a-150ff3b43099","ios":"levelo://app?vid=78218188-10d8-41e6-bf5a-150ff3b43099"},"vehicle_type_id":"4","last_reported":1736993217,"current_range_meters":6800,"station_id":"ce4bhi12rcd13ifvqfp0","pricing_plan_id":"cebpf4jnsgd1na2vs0mg"},{"bike_id":"3bea599d-9d1d-4ce1-a78c-b94821d3e8a3","system_id":"levelo_inurba_marseille","lat":43.24998,"lon":5.38933,"is_reserved":false,"is_disabled":false,"rental_uris":{"android":"levelo://app?vid=3bea599d-9d1d-4ce1-a78c-b94821d3e8a3","ios":"levelo://app?vid=3bea599d-9d1d-4ce1-a78c-b94821d3e8a3"},"vehicle_type_id":"4","last_reported":1736993217,"current_range_meters":38800,"station_id":"ce4bhgp2rcd13ifvqfd0","pricing_plan_id":"cebpf4jnsgd1na2vs0mg"},{"bike_id":"4ed35703-7db0-45cb-9540-60199c11afca","system_id":"levelo_inurba_marseille","lat":43.31046,"lon":5.38348,"is_reserved":false,"is_disabled":false,"rental_uris":{"android":"levelo://app?vid=4ed35703-7db0-45cb-9540-60199c11afca","ios":"levelo://app?vid=4ed35703-7db0-45cb-9540-60199c11afca"},"vehicle_type_id":"4","last_reported":1736993217,"current_range_meters":38800,"station_id":"ce4bgv92rcd13ifvqcr0","pricing_plan_id":"cebpf4jnsgd1na2vs0mg"},{"bike_id":"22086968-6826-4a37-97ae-ffe81d3b7d5d","system_id":"levelo_inurba_marseille","lat":43.3172,"lon":5.40446,"is_reserved":false,"is_disabled":false,"rental_uris":{"android":"levelo://app?vid=22086968-6826-4a37-97ae-ffe81d3b7d5d","ios":"levelo://app?vid=22086968-6826-4a37-97ae-ffe81d3b7d5d"},"vehicle_type_id":"4","last_reported":1736993217,"current_range_meters":35200,"station_id":"ce4bh012rcd13ifvqd00","pricing_plan_id":"cebpf4jnsgd1na2vs0mg"},{"bike_id":"1a88b36a-bdcc-4ab6-a257-59715f73d204","system_id":"levelo_inurba_marseille","lat":43.2669,"lon":5.38267,"is_reserved":false,"is_disabled":false,"rental_uris":{"android":"levelo://app?vid=1a88b36a-bdcc-4ab6-a257-59715f73d204","ios":"levelo://app?vid=1a88b36a-bdcc-4ab6-a257-59715f73d204"},"vehicle_type_id":"4","last_reported":1736993217,"current_range_meters":23200,"station_id":"ce4bhg92rcd13ifvqf90","pricing_plan_id":"cebpf4jnsgd1na2vs0mg"},{"bike_id":"f6b5a21b-caca-4bab-9767-62a516c88435","system_id":"levelo_inurba_marseille","lat":43.24663,"lon":5.38871,"is_reserved":false,"is_disabled":false,"rental_uris":{"android":"levelo://app?vid=f6b5a21b-caca-4bab-9767-62a516c88435","ios":"levelo://app?vid=f6b5a21b-caca-4bab-9767-62a516c88435"},"vehicle_type_id":"4","last_reported":1736993217,"current_range_meters":39200,"station_id":"ce4bhg12rcd13ifvqf60","pricing_plan_id":"cebpf4jnsgd1na2vs0mg"},{"bike_id":"ee8d712c-ac74-4c5c-a149-82b10ba49214","system_id":"levelo_inurba_marseille","lat":43.26935,"lon":5.3891,"is_reserved":false,"is_disabled":false,"rental_uris":{"android":"levelo://app?vid=ee8d712c-ac74-4c5c-a149-82b10ba49214","ios":"levelo://app?vid=ee8d712c-ac74-4c5c-a149-82b10ba49214"},"vehicle_type_id":"4","last_reported":1736993217,"current_range_meters":38000,"station_id":"ce4bhhh2rcd13ifvqfl0","pricing_plan_id":"cebpf4jnsgd1na2vs0mg"},{"bike_id":"26bf88bc-9ab6-4d8a-bd3b-8823091c5a70","system_id":"levelo_inurba_marseille","lat":43.28145,"lon":5.42659,"is_reserved":false,"is_disabled":false,"rental_uris":{"android":"levelo://app?vid=26bf88bc-9ab6-4d8a-bd3b-8823091c5a70","ios":"levelo://app?vid=26bf88bc-9ab6-4d8a-bd3b-8823091c5a70"},"vehicle_type_id":"4","last_reported":1736993217,"current_range_meters":20000,"station_id":"ce4bhnh2rcd13ifvqgug","pricing_plan_id":"cebpf4jnsgd1na2vs0mg"},{"bike_id":"4a8c20d9-670a-4029-9219-52996fd0718d","system_id":"levelo_inurba_marseille","lat":43.28071,"lon":5.39645,"is_reserved":false,"is_disabled":false,"rental_uris":{"android":"levelo://app?vid=4a8c20d9-670a-4029-9219-52996fd0718d","ios":"levelo://app?vid=4a8c20d9-670a-4029-9219-52996fd0718d"},"vehicle_type_id":"4","last_reported":1736993217,"current_range_meters":37600,"station_id":"ce4bho12rcd13ifvqh2g","pricing_plan_id":"cebpf4jnsgd1na2vs0mg"},{"bike_id":"9f01486f-2bf6-4386-82c7-df7001a32308","system_id":"levelo_inurba_marseille","lat":43.25125,"lon":5.4033,"is_reserved":false,"is_disabled":true,"rental_uris":{"android":"levelo://app?vid=9f01486f-2bf6-4386-82c7-df7001a32308","ios":"levelo://app?vid=9f01486f-2bf6-4386-82c7-df7001a32308"},"vehicle_type_id":"4","last_reported":1736993217,"current_range_meters":38800,"station_id":"ce4bhlh2rcd13ifvqgig","pricing_plan_id":"cebpf4jnsgd1na2vs0mg"},{"bike_id":"34d539e3-424c-4526-80dc-2c2933b2adfb","system_id":"levelo_inurba_marseille","lat":43.30322,"lon":5.40437,"is_reserved":false,"is_disabled":false,"rental_uris":{"android":"levelo://app?vid=34d539e3-424c-4526-80dc-2c2933b2adfb","ios":"levelo://app?vid=34d539e3-424c-4526-80dc-2c2933b2adfb"},"vehicle_type_id":"4","last_reported":1736993217,"current_range_meters":30800,"station_id":"ce4bh012rcd13ifvqd10","pricing_plan_id":"cebpf4jnsgd1na2vs0mg"},{"bike_id":"cb57f13e-0f96-498a-b9ca-57c0b42e7a64","system_id":"levelo_inurba_marseille","lat":43.239609,"lon":5.366304,"is_reserved":false,"is_disabled":false,"rental_uris":{"android":"levelo://app?vid=cb57f13e-0f96-498a-b9ca-57c0b42e7a64","ios":"levelo://app?vid=cb57f13e-0f96-498a-b9ca-57c0b42e7a64"},"vehicle_type_id":"4","last_reported":1736993217,"current_range_meters":20800,"station_id":"ce4bhi12rcd13ifvqfp0","pricing_plan_id":"cebpf4jnsgd1na2vs0mg"},{"bike_id":"a56bdef2-14b8-4e02-b3bc-538917283971","system_id":"levelo_inurba_marseille","lat":43.25084,"lon":5.39518,"is_reserved":false,"is_disabled":false,"rental_uris":{"android":"levelo://app?vid=a56bdef2-14b8-4e02-b3bc-538917283971","ios":"levelo://app?vid=a56bdef2-14b8-4e02-b3bc-538917283971"},"vehicle_type_id":"4","last_reported":1736993217,"current_range_meters":25600,"station_id":"ce4bhm12rcd13ifvqgkg","pricing_plan_id":"cebpf4jnsgd1na2vs0mg"},{"bike_id":"4a580b3d-1de7-410c-b007-9f6f811026cd","system_id":"levelo_inurba_marseille","lat":43.2581,"lon":5.39434,"is_reserved":false,"is_disabled":false,"rental_uris":{"android":"levelo://app?vid=4a580b3d-1de7-410c-b007-9f6f811026cd","ios":"levelo://app?vid=4a580b3d-1de7-410c-b007-9f6f811026cd"},"vehicle_type_id":"4","last_reported":1736993217,"current_range_meters":39200,"station_id":"ce4bhip2rcd13ifvqft0","pricing_plan_id":"cebpf4jnsgd1na2vs0mg"},{"bike_id":"1e040693-baaf-4374-8c35-8fd64d6321d0","system_id":"levelo_inurba_marseille","lat":43.28466,"lon":5.38973,"is_reserved":false,"is_disabled":false,"rental_uris":{"android":"levelo://app?vid=1e040693-baaf-4374-8c35-8fd64d6321d0","ios":"levelo://app?vid=1e040693-baaf-4374-8c35-8fd64d6321d0"},"vehicle_type_id":"4","last_reported":1736993217,"current_range_meters":32400,"station_id":"","pricing_plan_id":"cebpf4jnsgd1na2vs0mg"},{"bike_id":"944551cb-bc5e-419f-8a98-9b450af1f656","system_id":"levelo_inurba_marseille","lat":43.25581,"lon":5.3823,"is_reserved":false,"is_disabled":false,"rental_uris":{"android":"levelo://app?vid=944551cb-bc5e-419f-8a98-9b450af1f656","ios":"levelo://app?vid=944551cb-bc5e-419f-8a98-9b450af1f656"},"vehicle_type_id":"4","last_reported":1736993217,"current_range_meters":27200,"station_id":"ce4bhih2rcd13ifvqfs0","pricing_plan_id":"cebpf4jnsgd1na2vs0mg"},{"bike_id":"13f0fab4-fd5c-4376-8665-f2bb295d2983","system_id":"levelo_inurba_marseille","lat":43.30901,"lon":5.39649,"is_reserved":false,"is_disabled":false,"rental_uris":{"android":"levelo://app?vid=13f0fab4-fd5c-4376-8665-f2bb295d2983","ios":"levelo://app?vid=13f0fab4-fd5c-4376-8665-f2bb295d2983"},"vehicle_type_id":"4","last_reported":1736993217,"current_range_meters":18800,"station_id":"ce4bh012rcd13ifvqcv0","pricing_plan_id":"cebpf4jnsgd1na2vs0mg"},{"bike_id":"e5b9252e-eebf-4c90-b028-b53cc4934330","system_id":"levelo_inurba_marseille","lat":43.30368,"lon":5.41908,"is_reserved":false,"is_disabled":true,"rental_uris":{"android":"levelo://app?vid=e5b9252e-eebf-4c90-b028-b53cc4934330","ios":"levelo://app?vid=e5b9252e-eebf-4c90-b028-b53cc4934330"},"vehicle_type_id":"4","last_reported":1736993217,"current_range_meters":15200,"station_id":"ce4bhop2rcd13ifvqh7g","pricing_plan_id":"cebpf4jnsgd1na2vs0mg"},{"bike_id":"478e430e-958e-46e1-944b-c9fbb0aeb287","system_id":"levelo_inurba_marseille","lat":43.298898,"lon":5.397309,"is_reserved":false,"is_disabled":false,"rental_uris":{"android":"levelo://app?vid=478e430e-958e-46e1-944b-c9fbb0aeb287","ios":"levelo://app?vid=478e430e-958e-46e1-944b-c9fbb0aeb287"},"vehicle_type_id":"4","last_reported":1736993217,"current_range_meters":37600,"station_id":"ce4bh0h2rcd13ifvqd50","pricing_plan_id":"cebpf4jnsgd1na2vs0mg"},{"bike_id":"616f800e-b36e-415d-af31-5ce43bcd69c8","system_id":"levelo_inurba_marseille","lat":43.25083,"lon":5.39517,"is_reserved":false,"is_disabled":false,"rental_uris":{"android":"levelo://app?vid=616f800e-b36e-415d-af31-5ce43bcd69c8","ios":"levelo://app?vid=616f800e-b36e-415d-af31-5ce43bcd69c8"},"vehicle_type_id":"4","last_reported":1736993217,"current_range_meters":12000,"station_id":"ce4bhm12rcd13ifvqgkg","pricing_plan_id":"cebpf4jnsgd1na2vs0mg"},{"bike_id":"93af35ad-738e-40e4-afcb-6d3589d7e732","system_id":"levelo_inurba_marseille","lat":43.23157,"lon":5.43694,"is_reserved":false,"is_disabled":false,"rental_uris":{"android":"levelo://app?vid=93af35ad-738e-40e4-afcb-6d3589d7e732","ios":"levelo://app?vid=93af35ad-738e-40e4-afcb-6d3589d7e732"},"vehicle_type_id":"4","last_reported":1736993217,"current_range_meters":24800,"station_id":"ce4bhmp2rcd13ifvqgog","pricing_plan_id":"cebpf4jnsgd1na2vs0mg"},{"bike_id":"653d7eb5-e932-4d0f-8eba-b2bccd81fbe5","system_id":"levelo_inurba_marseille","lat":43.31364,"lon":5.36701,"is_reserved":false,"is_disabled":true,"rental_uris":{"android":"levelo://app?vid=653d7eb5-e932-4d0f-8eba-b2bccd81fbe5","ios":"levelo://app?vid=653d7eb5-e932-4d0f-8eba-b2bccd81fbe5"},"vehicle_type_id":"4","last_reported":1736993217,"current_range_meters":0,"station_id":"ce4bgr92rcd13ifvqc6g","pricing_plan_id":"cebpf4jnsgd1na2vs0mg"},{"bike_id":"f82ceb99-c44d-4f9d-bec0-701c6e43c0c2","system_id":"levelo_inurba_marseille","lat":43.31154,"lon":5.38725,"is_reserved":false,"is_disabled":false,"rental_uris":{"android":"levelo://app?vid=f82ceb99-c44d-4f9d-bec0-701c6e43c0c2","ios":"levelo://app?vid=f82ceb99-c44d-4f9d-bec0-701c6e43c0c2"},"vehicle_type_id":"4","last_reported":1736993217,"current_range_meters":16400,"station_id":"ce4bgv12rcd13ifvqcp0","pricing_plan_id":"cebpf4jnsgd1na2vs0mg"},{"bike_id":"edc3ef82-4f7e-4056-942f-8e28e925ea2f","system_id":"levelo_inurba_marseille","lat":43.24071,"lon":5.3775,"is_reserved":false,"is_disabled":false,"rental_uris":{"android":"levelo://app?vid=edc3ef82-4f7e-4056-942f-8e28e925ea2f","ios":"levelo://app?vid=edc3ef82-4f7e-4056-942f-8e28e925ea2f"},"vehicle_type_id":"4","last_reported":1736993217,"current_range_meters":38800,"station_id":"ce4bhnp2rcd13ifvqgvg","pricing_plan_id":"cebpf4jnsgd1na2vs0mg"},{"bike_id":"48f101cc-dfef-4933-a09b-b6d0ee025ad9","system_id":"levelo_inurba_marseille","lat":43.323622,"lon":5.388857,"is_reserved":false,"is_disabled":false,"rental_uris":{"android":"levelo://app?vid=48f101cc-dfef-4933-a09b-b6d0ee025ad9","ios":"levelo://app?vid=48f101cc-dfef-4933-a09b-b6d0ee025ad9"},"vehicle_type_id":"4","last_reported":1736993217,"current_range_meters":36800,"station_id":"ce4bhqp2rcd13ifvqhog","pricing_plan_id":"cebpf4jnsgd1na2vs0mg"},{"bike_id":"4b5a720b-ef9e-421e-b75e-c96b247c25a9","system_id":"levelo_inurba_marseille","lat":43.3077,"lon":5.37657,"is_reserved":false,"is_disabled":false,"rental_uris":{"android":"levelo://app?vid=4b5a720b-ef9e-421e-b75e-c96b247c25a9","ios":"levelo://app?vid=4b5a720b-ef9e-421e-b75e-c96b247c25a9"},"vehicle_type_id":"4","last_reported":1736993217,"current_range_meters":38400,"station_id":"ce4bgv92rcd13ifvqcq0","pricing_plan_id":"cebpf4jnsgd1na2vs0mg"},{"bike_id":"48dc9977-942c-469c-90b6-18ec7a2f483b","system_id":"levelo_inurba_marseille","lat":43.33012,"lon":5.39039,"is_reserved":false,"is_disabled":false,"rental_uris":{"android":"levelo://app?vid=48dc9977-942c-469c-90b6-18ec7a2f483b","ios":"levelo://app?vid=48dc9977-942c-469c-90b6-18ec7a2f483b"},"vehicle_type_id":"4","last_reported":1736993217,"current_range_meters":28000,"station_id":"ce4bhr92rcd13ifvqhrg","pricing_plan_id":"cebpf4jnsgd1na2vs0mg"},{"bike_id":"0adbfa65-465c-487a-8c44-6247250163c9","system_id":"levelo_inurba_marseille","lat":43.31198,"lon":5.36845,"is_reserved":false,"is_disabled":true,"rental_uris":{"android":"levelo://app?vid=0adbfa65-465c-487a-8c44-6247250163c9","ios":"levelo://app?vid=0adbfa65-465c-487a-8c44-6247250163c9"},"vehicle_type_id":"4","last_reported":1736993217,"current_range_meters":2000,"station_id":"ce4bgl92rcd13ifvqbq0","pricing_plan_id":"cebpf4jnsgd1na2vs0mg"},{"bike_id":"c57f7411-350c-444f-bc55-fcab7a54283f","system_id":"levelo_inurba_marseille","lat":43.27954,"lon":5.41046,"is_reserved":false,"is_disabled":false,"rental_uris":{"android":"levelo://app?vid=c57f7411-350c-444f-bc55-fcab7a54283f","ios":"levelo://app?vid=c57f7411-350c-444f-bc55-fcab7a54283f"},"vehicle_type_id":"4","last_reported":1736993217,"current_range_meters":31200,"station_id":"ce4bhnp2rcd13ifvqh0g","pricing_plan_id":"cebpf4jnsgd1na2vs0mg"},{"bike_id":"d8e3941b-0cae-4b8e-ae3c-c34a4b3b2c65","system_id":"levelo_inurba_marseille","lat":43.32066,"lon":5.38136,"is_reserved":false,"is_disabled":false,"rental_uris":{"android":"levelo://app?vid=d8e3941b-0cae-4b8e-ae3c-c34a4b3b2c65","ios":"levelo://app?vid=d8e3941b-0cae-4b8e-ae3c-c34a4b3b2c65"},"vehicle_type_id":"4","last_reported":1736993217,"current_range_meters":37600,"station_id":"ce4bhr12rcd13ifvqhpg","pricing_plan_id":"cebpf4jnsgd1na2vs0mg"},{"bike_id":"677a97a2-66c9-4a76-8afb-120370db4982","system_id":"levelo_inurba_marseille","lat":43.304618,"lon":5.378998,"is_reserved":false,"is_disabled":false,"rental_uris":{"android":"levelo://app?vid=677a97a2-66c9-4a76-8afb-120370db4982","ios":"levelo://app?vid=677a97a2-66c9-4a76-8afb-120370db4982"},"vehicle_type_id":"4","last_reported":1736993217,"current_range_meters":38000,"station_id":"ce4bgup2rcd13ifvqcn0","pricing_plan_id":"cebpf4jnsgd1na2vs0mg"},{"bike_id":"ef7adbc7-f956-407a-a3eb-ebdd3e60d992","system_id":"levelo_inurba_marseille","lat":43.30543,"lon":5.36572,"is_reserved":false,"is_disabled":true,"rental_uris":{"android":"levelo://app?vid=ef7adbc7-f956-407a-a3eb-ebdd3e60d992","ios":"levelo://app?vid=ef7adbc7-f956-407a-a3eb-ebdd3e60d992"},"vehicle_type_id":"4","last_reported":1736993217,"current_range_meters":5600,"station_id":"ce4bgs12rcd13ifvqcag","pricing_plan_id":"cebpf4jnsgd1na2vs0mg"},{"bike_id":"f5ea83ca-f3f7-4d62-ab7d-6af55e2e03de","system_id":"levelo_inurba_marseille","lat":43.28705,"lon":5.39961,"is_reserved":false,"is_disabled":false,"rental_uris":{"android":"levelo://app?vid=f5ea83ca-f3f7-4d62-ab7d-6af55e2e03de","ios":"levelo://app?vid=f5ea83ca-f3f7-4d62-ab7d-6af55e2e03de"},"vehicle_type_id":"4","last_reported":1736993217,"current_range_meters":30000,"station_id":"ce4bho92rcd13ifvqh3g","pricing_plan_id":"cebpf4jnsgd1na2vs0mg"},{"bike_id":"8a5a41c6-c6c6-427e-a7d8-5be0f418b8ed","system_id":"levelo_inurba_marseille","lat":43.26776,"lon":5.40252,"is_reserved":false,"is_disabled":false,"rental_uris":{"android":"levelo://app?vid=8a5a41c6-c6c6-427e-a7d8-5be0f418b8ed","ios":"levelo://app?vid=8a5a41c6-c6c6-427e-a7d8-5be0f418b8ed"},"vehicle_type_id":"4","last_reported":1736993217,"current_range_meters":39200,"station_id":"ce501612rcd8frsf0b60","pricing_plan_id":"cebpf4jnsgd1na2vs0mg"},{"bike_id":"c1b93f11-c5af-455c-b2e3-1cfe9a6876da","system_id":"levelo_inurba_marseille","lat":43.30641,"lon":5.40078,"is_reserved":false,"is_disabled":false,"rental_uris":{"android":"levelo://app?vid=c1b93f11-c5af-455c-b2e3-1cfe9a6876da","ios":"levelo://app?vid=c1b93f11-c5af-455c-b2e3-1cfe9a6876da"},"vehicle_type_id":"4","last_reported":1736993217,"current_range_meters":25200,"station_id":"ce4bh112rcd13ifvqda0","pricing_plan_id":"cebpf4jnsgd1na2vs0mg"},{"bike_id":"7ebf07d7-c8bf-4d43-bde1-2cc7b110aab2","system_id":"levelo_inurba_marseille","lat":43.3081,"lon":5.38152,"is_reserved":false,"is_disabled":false,"rental_uris":{"android":"levelo://app?vid=7ebf07d7-c8bf-4d43-bde1-2cc7b110aab2","ios":"levelo://app?vid=7ebf07d7-c8bf-4d43-bde1-2cc7b110aab2"},"vehicle_type_id":"4","last_reported":1736993217,"current_range_meters":38800,"station_id":"ce4bgt12rcd13ifvqce0","pricing_plan_id":"cebpf4jnsgd1na2vs0mg"},{"bike_id":"e1c27fcd-d2f7-4eb4-ad93-396f77fe7029","system_id":"levelo_inurba_marseille","lat":43.31122,"lon":5.37769,"is_reserved":false,"is_disabled":false,"rental_uris":{"android":"levelo://app?vid=e1c27fcd-d2f7-4eb4-ad93-396f77fe7029","ios":"levelo://app?vid=e1c27fcd-d2f7-4eb4-ad93-396f77fe7029"},"vehicle_type_id":"4","last_reported":1736993217,"current_range_meters":27600,"station_id":"ce4bgt92rcd13ifvqcg0","pricing_plan_id":"cebpf4jnsgd1na2vs0mg"},{"bike_id":"fdde3f1f-c750-414c-8968-e36b0bbcf26a","system_id":"levelo_inurba_marseille","lat":43.29788,"lon":5.37103,"is_reserved":false,"is_disabled":false,"rental_uris":{"android":"levelo://app?vid=fdde3f1f-c750-414c-8968-e36b0bbcf26a","ios":"levelo://app?vid=fdde3f1f-c750-414c-8968-e36b0bbcf26a"},"vehicle_type_id":"4","last_reported":1736993217,"current_range_meters":27600,"station_id":"ce4bgop2rcd13ifvqc1g","pricing_plan_id":"cebpf4jnsgd1na2vs0mg"},{"bike_id":"48129861-065e-44a1-be0d-32348f0bdedb","system_id":"levelo_inurba_marseille","lat":43.2872,"lon":5.39972,"is_reserved":false,"is_disabled":false,"rental_uris":{"android":"levelo://app?vid=48129861-065e-44a1-be0d-32348f0bdedb","ios":"levelo://app?vid=48129861-065e-44a1-be0d-32348f0bdedb"},"vehicle_type_id":"4","last_reported":1736993217,"current_range_meters":18000,"station_id":"ce4bho92rcd13ifvqh3g","pricing_plan_id":"cebpf4jnsgd1na2vs0mg"},{"bike_id":"0bee06f7-2a8e-4683-b4fb-ba4223d8810d","system_id":"levelo_inurba_marseille","lat":43.30881,"lon":5.40166,"is_reserved":false,"is_disabled":false,"rental_uris":{"android":"levelo://app?vid=0bee06f7-2a8e-4683-b4fb-ba4223d8810d","ios":"levelo://app?vid=0bee06f7-2a8e-4683-b4fb-ba4223d8810d"},"vehicle_type_id":"4","last_reported":1736993217,"current_range_meters":39200,"station_id":"ce4bgvp2rcd13ifvqct0","pricing_plan_id":"cebpf4jnsgd1na2vs0mg"},{"bike_id":"e8a63cd5-0015-4448-a93d-2fed9cfa5ba5","system_id":"levelo_inurba_marseille","lat":43.31681,"lon":5.38383,"is_reserved":false,"is_disabled":false,"rental_uris":{"android":"levelo://app?vid=e8a63cd5-0015-4448-a93d-2fed9cfa5ba5","ios":"levelo://app?vid=e8a63cd5-0015-4448-a93d-2fed9cfa5ba5"},"vehicle_type_id":"4","last_reported":1736993217,"current_range_meters":39200,"station_id":"ce4bgt92rcd13ifvqcf0","pricing_plan_id":"cebpf4jnsgd1na2vs0mg"},{"bike_id":"e54d3737-b658-43e0-b269-2b5f2f7570ee","system_id":"levelo_inurba_marseille","lat":43.2866,"lon":5.36349,"is_reserved":false,"is_disabled":false,"rental_uris":{"android":"levelo://app?vid=e54d3737-b658-43e0-b269-2b5f2f7570ee","ios":"levelo://app?vid=e54d3737-b658-43e0-b269-2b5f2f7570ee"},"vehicle_type_id":"4","last_reported":1736993217,"current_range_meters":6800,"station_id":"ce4bhah2rcd13ifvqej0","pricing_plan_id":"cebpf4jnsgd1na2vs0mg"},{"bike_id":"7dafb13a-c010-4e97-a0b8-ce1813ba0a32","system_id":"levelo_inurba_marseille","lat":43.28601,"lon":5.37068,"is_reserved":false,"is_disabled":false,"rental_uris":{"android":"levelo://app?vid=7dafb13a-c010-4e97-a0b8-ce1813ba0a32","ios":"levelo://app?vid=7dafb13a-c010-4e97-a0b8-ce1813ba0a32"},"vehicle_type_id":"4","last_reported":1736993217,"current_range_meters":37600,"station_id":"ce4bht12rcd13ifvqi60","pricing_plan_id":"cebpf4jnsgd1na2vs0mg"},{"bike_id":"7a26b63c-652f-4d2d-8353-1a9dfb4e945a","system_id":"levelo_inurba_marseille","lat":43.33729,"lon":5.39189,"is_reserved":false,"is_disabled":false,"rental_uris":{"android":"levelo://app?vid=7a26b63c-652f-4d2d-8353-1a9dfb4e945a","ios":"levelo://app?vid=7a26b63c-652f-4d2d-8353-1a9dfb4e945a"},"vehicle_type_id":"4","last_reported":1736993217,"current_range_meters":39200,"station_id":"ce4bhr92rcd13ifvqhsg","pricing_plan_id":"cebpf4jnsgd1na2vs0mg"},{"bike_id":"e96d83a8-cde8-404a-9e40-5bc9e9229ea9","system_id":"levelo_inurba_marseille","lat":43.33775,"lon":5.37433,"is_reserved":false,"is_disabled":false,"rental_uris":{"android":"levelo://app?vid=e96d83a8-cde8-404a-9e40-5bc9e9229ea9","ios":"levelo://app?vid=e96d83a8-cde8-404a-9e40-5bc9e9229ea9"},"vehicle_type_id":"4","last_reported":1736993217,"current_range_meters":36400,"station_id":"","pricing_plan_id":"cebpf4jnsgd1na2vs0mg"},{"bike_id":"f4764a42-86eb-4d76-b558-df598e488f6c","system_id":"levelo_inurba_marseille","lat":43.23926,"lon":5.37601,"is_reserved":false,"is_disabled":true,"rental_uris":{"android":"levelo://app?vid=f4764a42-86eb-4d76-b558-df598e488f6c","ios":"levelo://app?vid=f4764a42-86eb-4d76-b558-df598e488f6c"},"vehicle_type_id":"4","last_reported":1736993217,"current_range_meters":2000,"station_id":"","pricing_plan_id":"cebpf4jnsgd1na2vs0mg"},{"bike_id":"5e5fc1d6-193c-4267-9b79-66f1a3263221","system_id":"levelo_inurba_marseille","lat":43.24088,"lon":5.37753,"is_reserved":false,"is_disabled":false,"rental_uris":{"android":"levelo://app?vid=5e5fc1d6-193c-4267-9b79-66f1a3263221","ios":"levelo://app?vid=5e5fc1d6-193c-4267-9b79-66f1a3263221"},"vehicle_type_id":"4","last_reported":1736993217,"current_range_meters":36800,"station_id":"ce4bhnp2rcd13ifvqgvg","pricing_plan_id":"cebpf4jnsgd1na2vs0mg"},{"bike_id":"56b8e9bc-f750-4815-bc98-9098414d16db","system_id":"levelo_inurba_marseille","lat":43.23194,"lon":5.35554,"is_reserved":false,"is_disabled":true,"rental_uris":{"android":"levelo://app?vid=56b8e9bc-f750-4815-bc98-9098414d16db","ios":"levelo://app?vid=56b8e9bc-f750-4815-bc98-9098414d16db"},"vehicle_type_id":"4","last_reported":1736993217,"current_range_meters":0,"station_id":"ce4bhu92rcd13ifvqi70","pricing_plan_id":"cebpf4jnsgd1na2vs0mg"},{"bike_id":"8e734dd1-aaf0-44fe-8abc-175106067a04","system_id":"levelo_inurba_marseille","lat":43.28939,"lon":5.36395,"is_reserved":false,"is_disabled":false,"rental_uris":{"android":"levelo://app?vid=8e734dd1-aaf0-44fe-8abc-175106067a04","ios":"levelo://app?vid=8e734dd1-aaf0-44fe-8abc-175106067a04"},"vehicle_type_id":"4","last_reported":1736993217,"current_range_meters":38800,"station_id":"ce4bhc92rcd13ifvqetg","pricing_plan_id":"cebpf4jnsgd1na2vs0mg"},{"bike_id":"886c2bbb-1b99-4795-80cb-99bf8240c559","system_id":"levelo_inurba_marseille","lat":43.24617,"lon":5.38895,"is_reserved":false,"is_disabled":false,"rental_uris":{"android":"levelo://app?vid=886c2bbb-1b99-4795-80cb-99bf8240c559","ios":"levelo://app?vid=886c2bbb-1b99-4795-80cb-99bf8240c559"},"vehicle_type_id":"4","last_reported":1736993217,"current_range_meters":24800,"station_id":"ce4bhg12rcd13ifvqf60","pricing_plan_id":"cebpf4jnsgd1na2vs0mg"},{"bike_id":"56b31172-4f32-4011-8cd1-17d51ee6f061","system_id":"levelo_inurba_marseille","lat":43.299153,"lon":5.37474,"is_reserved":false,"is_disabled":false,"rental_uris":{"android":"levelo://app?vid=56b31172-4f32-4011-8cd1-17d51ee6f061","ios":"levelo://app?vid=56b31172-4f32-4011-8cd1-17d51ee6f061"},"vehicle_type_id":"4","last_reported":1736993217,"current_range_meters":18800,"station_id":"ce4bgjh2rcd13ifvqbg0","pricing_plan_id":"cebpf4jnsgd1na2vs0mg"},{"bike_id":"8fa56adc-0eaa-4d1e-86c0-b8759c4fb267","system_id":"levelo_inurba_marseille","lat":43.25084,"lon":5.39511,"is_reserved":false,"is_disabled":false,"rental_uris":{"android":"levelo://app?vid=8fa56adc-0eaa-4d1e-86c0-b8759c4fb267","ios":"levelo://app?vid=8fa56adc-0eaa-4d1e-86c0-b8759c4fb267"},"vehicle_type_id":"4","last_reported":1736993217,"current_range_meters":36000,"station_id":"ce4bhm12rcd13ifvqgkg","pricing_plan_id":"cebpf4jnsgd1na2vs0mg"},{"bike_id":"f6bb3330-51df-4aaa-8269-ab7638db39bd","system_id":"levelo_inurba_marseille","lat":43.24388,"lon":5.37051,"is_reserved":false,"is_disabled":false,"rental_uris":{"android":"levelo://app?vid=f6bb3330-51df-4aaa-8269-ab7638db39bd","ios":"levelo://app?vid=f6bb3330-51df-4aaa-8269-ab7638db39bd"},"vehicle_type_id":"4","last_reported":1736993217,"current_range_meters":29600,"station_id":"ce4bhhh2rcd13ifvqfk0","pricing_plan_id":"cebpf4jnsgd1na2vs0mg"},{"bike_id":"ef87f77f-d203-49b7-892a-ffc95d000999","system_id":"levelo_inurba_marseille","lat":43.28752,"lon":5.36073,"is_reserved":false,"is_disabled":false,"rental_uris":{"android":"levelo://app?vid=ef87f77f-d203-49b7-892a-ffc95d000999","ios":"levelo://app?vid=ef87f77f-d203-49b7-892a-ffc95d000999"},"vehicle_type_id":"4","last_reported":1736993217,"current_range_meters":37600,"station_id":"cki0cbj6b192h4jlfktg","pricing_plan_id":"cebpf4jnsgd1na2vs0mg"},{"bike_id":"6801b75f-ba24-4717-968a-a8d23abfc515","system_id":"levelo_inurba_marseille","lat":43.2516,"lon":5.40314,"is_reserved":false,"is_disabled":false,"rental_uris":{"android":"levelo://app?vid=6801b75f-ba24-4717-968a-a8d23abfc515","ios":"levelo://app?vid=6801b75f-ba24-4717-968a-a8d23abfc515"},"vehicle_type_id":"4","last_reported":1736993217,"current_range_meters":39200,"station_id":"","pricing_plan_id":"cebpf4jnsgd1na2vs0mg"},{"bike_id":"12b5f6a3-f139-4417-8263-7e4fcd1e2ee5","system_id":"levelo_inurba_marseille","lat":43.28705,"lon":5.37954,"is_reserved":false,"is_disabled":false,"rental_uris":{"android":"levelo://app?vid=12b5f6a3-f139-4417-8263-7e4fcd1e2ee5","ios":"levelo://app?vid=12b5f6a3-f139-4417-8263-7e4fcd1e2ee5"},"vehicle_type_id":"4","last_reported":1736993217,"current_range_meters":38400,"station_id":"ce4bh9p2rcd13ifvqec0","pricing_plan_id":"cebpf4jnsgd1na2vs0mg"},{"bike_id":"dccac9f7-22cb-4419-8286-e3f3fc1791cb","system_id":"levelo_inurba_marseille","lat":43.31328,"lon":5.3969,"is_reserved":false,"is_disabled":false,"rental_uris":{"android":"levelo://app?vid=dccac9f7-22cb-4419-8286-e3f3fc1791cb","ios":"levelo://app?vid=dccac9f7-22cb-4419-8286-e3f3fc1791cb"},"vehicle_type_id":"4","last_reported":1736993217,"current_range_meters":38800,"station_id":"ce4bgvp2rcd13ifvqcu0","pricing_plan_id":"cebpf4jnsgd1na2vs0mg"},{"bike_id":"a08e71c9-abf6-4a17-a67e-f648d5a64d05","system_id":"levelo_inurba_marseille","lat":43.30293,"lon":5.3922,"is_reserved":false,"is_disabled":false,"rental_uris":{"android":"levelo://app?vid=a08e71c9-abf6-4a17-a67e-f648d5a64d05","ios":"levelo://app?vid=a08e71c9-abf6-4a17-a67e-f648d5a64d05"},"vehicle_type_id":"4","last_reported":1736993217,"current_range_meters":26800,"station_id":"ce4bgkh2rcd13ifvqbk0","pricing_plan_id":"cebpf4jnsgd1na2vs0mg"},{"bike_id":"66c7ef40-be78-46fe-ac73-71f11e84f5c4","system_id":"levelo_inurba_marseille","lat":43.25569,"lon":5.38237,"is_reserved":false,"is_disabled":false,"rental_uris":{"android":"levelo://app?vid=66c7ef40-be78-46fe-ac73-71f11e84f5c4","ios":"levelo://app?vid=66c7ef40-be78-46fe-ac73-71f11e84f5c4"},"vehicle_type_id":"4","last_reported":1736993217,"current_range_meters":12000,"station_id":"ce4bhih2rcd13ifvqfs0","pricing_plan_id":"cebpf4jnsgd1na2vs0mg"},{"bike_id":"c5748c79-66ea-4909-9026-e66a2b573a47","system_id":"levelo_inurba_marseille","lat":43.30291,"lon":5.36922,"is_reserved":false,"is_disabled":true,"rental_uris":{"android":"levelo://app?vid=c5748c79-66ea-4909-9026-e66a2b573a47","ios":"levelo://app?vid=c5748c79-66ea-4909-9026-e66a2b573a47"},"vehicle_type_id":"4","last_reported":1736993217,"current_range_meters":26800,"station_id":"ce4bgqh2rcd13ifvqc5g","pricing_plan_id":"cebpf4jnsgd1na2vs0mg"},{"bike_id":"0e18534e-89a6-40db-9523-ed9670e204b7","system_id":"levelo_inurba_marseille","lat":43.27073,"lon":5.42268,"is_reserved":false,"is_disabled":false,"rental_uris":{"android":"levelo://app?vid=0e18534e-89a6-40db-9523-ed9670e204b7","ios":"levelo://app?vid=0e18534e-89a6-40db-9523-ed9670e204b7"},"vehicle_type_id":"4","last_reported":1736993217,"current_range_meters":36000,"station_id":"ce4bhk92rcd13ifvqgb0","pricing_plan_id":"cebpf4jnsgd1na2vs0mg"},{"bike_id":"60c48e84-151f-4edd-83cd-789ff87c7f63","system_id":"levelo_inurba_marseille","lat":43.28686,"lon":5.37399,"is_reserved":false,"is_disabled":true,"rental_uris":{"android":"levelo://app?vid=60c48e84-151f-4edd-83cd-789ff87c7f63","ios":"levelo://app?vid=60c48e84-151f-4edd-83cd-789ff87c7f63"},"vehicle_type_id":"4","last_reported":1736993217,"current_range_meters":27200,"station_id":"ce4bh3p2rcd13ifvqdq0","pricing_plan_id":"cebpf4jnsgd1na2vs0mg"},{"bike_id":"1ea05333-113b-43e7-929a-470579ef95c0","system_id":"levelo_inurba_marseille","lat":43.29521,"lon":5.3941,"is_reserved":false,"is_disabled":true,"rental_uris":{"android":"levelo://app?vid=1ea05333-113b-43e7-929a-470579ef95c0","ios":"levelo://app?vid=1ea05333-113b-43e7-929a-470579ef95c0"},"vehicle_type_id":"4","last_reported":1736993217,"current_range_meters":15200,"station_id":"ce4bh292rcd13ifvqdf0","pricing_plan_id":"cebpf4jnsgd1na2vs0mg"},{"bike_id":"24092b94-a31a-4656-9d5a-5357bace1919","system_id":"levelo_inurba_marseille","lat":43.26692,"lon":5.38284,"is_reserved":false,"is_disabled":false,"rental_uris":{"android":"levelo://app?vid=24092b94-a31a-4656-9d5a-5357bace1919","ios":"levelo://app?vid=24092b94-a31a-4656-9d5a-5357bace1919"},"vehicle_type_id":"4","last_reported":1736993217,"current_range_meters":37600,"station_id":"ce4bhg92rcd13ifvqf90","pricing_plan_id":"cebpf4jnsgd1na2vs0mg"},{"bike_id":"557bdeaa-471c-464a-90e1-5911c6fabaf0","system_id":"levelo_inurba_marseille","lat":43.32365,"lon":5.38882,"is_reserved":false,"is_disabled":false,"rental_uris":{"android":"levelo://app?vid=557bdeaa-471c-464a-90e1-5911c6fabaf0","ios":"levelo://app?vid=557bdeaa-471c-464a-90e1-5911c6fabaf0"},"vehicle_type_id":"4","last_reported":1736993217,"current_range_meters":35600,"station_id":"ce4bhqp2rcd13ifvqhog","pricing_plan_id":"cebpf4jnsgd1na2vs0mg"},{"bike_id":"8877e7a6-4aa2-4c5a-ac5a-26bcf6368000","system_id":"levelo_inurba_marseille","lat":43.28034,"lon":5.36938,"is_reserved":false,"is_disabled":false,"rental_uris":{"android":"levelo://app?vid=8877e7a6-4aa2-4c5a-ac5a-26bcf6368000","ios":"levelo://app?vid=8877e7a6-4aa2-4c5a-ac5a-26bcf6368000"},"vehicle_type_id":"4","last_reported":1736993217,"current_range_meters":28400,"station_id":"ce4bha12rcd13ifvqef0","pricing_plan_id":"cebpf4jnsgd1na2vs0mg"},{"bike_id":"a0ffede7-3341-4855-b911-b1e6e871db85","system_id":"levelo_inurba_marseille","lat":43.32057,"lon":5.41564,"is_reserved":false,"is_disabled":false,"rental_uris":{"android":"levelo://app?vid=a0ffede7-3341-4855-b911-b1e6e871db85","ios":"levelo://app?vid=a0ffede7-3341-4855-b911-b1e6e871db85"},"vehicle_type_id":"4","last_reported":1736993217,"current_range_meters":11600,"station_id":"ce4bhq92rcd13ifvqhkg","pricing_plan_id":"cebpf4jnsgd1na2vs0mg"},{"bike_id":"72c1a72b-7611-4579-b0e3-c6973d08e01a","system_id":"levelo_inurba_marseille","lat":43.29248,"lon":5.36886,"is_reserved":false,"is_disabled":false,"rental_uris":{"android":"levelo://app?vid=72c1a72b-7611-4579-b0e3-c6973d08e01a","ios":"levelo://app?vid=72c1a72b-7611-4579-b0e3-c6973d08e01a"},"vehicle_type_id":"4","last_reported":1736993217,"current_range_meters":8000,"station_id":"ce4bhbp2rcd13ifvqesg","pricing_plan_id":"cebpf4jnsgd1na2vs0mg"},{"bike_id":"95d7c7d6-8ec6-4089-af1c-dfbf9c91ee3f","system_id":"levelo_inurba_marseille","lat":43.29876,"lon":5.39744,"is_reserved":false,"is_disabled":false,"rental_uris":{"android":"levelo://app?vid=95d7c7d6-8ec6-4089-af1c-dfbf9c91ee3f","ios":"levelo://app?vid=95d7c7d6-8ec6-4089-af1c-dfbf9c91ee3f"},"vehicle_type_id":"4","last_reported":1736993217,"current_range_meters":32800,"station_id":"ce4bh0h2rcd13ifvqd50","pricing_plan_id":"cebpf4jnsgd1na2vs0mg"},{"bike_id":"c89b232d-343f-46cb-b833-7d43ba08c02a","system_id":"levelo_inurba_marseille","lat":43.33012,"lon":5.3904,"is_reserved":false,"is_disabled":false,"rental_uris":{"android":"levelo://app?vid=c89b232d-343f-46cb-b833-7d43ba08c02a","ios":"levelo://app?vid=c89b232d-343f-46cb-b833-7d43ba08c02a"},"vehicle_type_id":"4","last_reported":1736993217,"current_range_meters":33600,"station_id":"ce4bhr92rcd13ifvqhrg","pricing_plan_id":"cebpf4jnsgd1na2vs0mg"},{"bike_id":"23f5ea08-82a0-4cba-b3a5-e1cda91a8208","system_id":"levelo_inurba_marseille","lat":43.31722,"lon":5.42394,"is_reserved":false,"is_disabled":false,"rental_uris":{"android":"levelo://app?vid=23f5ea08-82a0-4cba-b3a5-e1cda91a8208","ios":"levelo://app?vid=23f5ea08-82a0-4cba-b3a5-e1cda91a8208"},"vehicle_type_id":"4","last_reported":1736993217,"current_range_meters":38000,"station_id":"ce4bhp92rcd13ifvqhbg","pricing_plan_id":"cebpf4jnsgd1na2vs0mg"},{"bike_id":"9f89b701-7d41-4871-a620-462fe45589bd","system_id":"levelo_inurba_marseille","lat":43.27361,"lon":5.36251,"is_reserved":false,"is_disabled":false,"rental_uris":{"android":"levelo://app?vid=9f89b701-7d41-4871-a620-462fe45589bd","ios":"levelo://app?vid=9f89b701-7d41-4871-a620-462fe45589bd"},"vehicle_type_id":"4","last_reported":1736993217,"current_range_meters":38800,"station_id":"ce4bhbh2rcd13ifvqeo0","pricing_plan_id":"cebpf4jnsgd1na2vs0mg"},{"bike_id":"917148ce-4c9d-450a-97ee-d2deee4d50c3","system_id":"levelo_inurba_marseille","lat":43.32496,"lon":5.36559,"is_reserved":false,"is_disabled":false,"rental_uris":{"android":"levelo://app?vid=917148ce-4c9d-450a-97ee-d2deee4d50c3","ios":"levelo://app?vid=917148ce-4c9d-450a-97ee-d2deee4d50c3"},"vehicle_type_id":"4","last_reported":1736993217,"current_range_meters":12800,"station_id":"ce4bhs12rcd13ifvqhvg","pricing_plan_id":"cebpf4jnsgd1na2vs0mg"},{"bike_id":"6f0a34a5-dcd2-40df-a525-7f6c1402acf2","system_id":"levelo_inurba_marseille","lat":43.298985,"lon":5.397424,"is_reserved":false,"is_disabled":false,"rental_uris":{"android":"levelo://app?vid=6f0a34a5-dcd2-40df-a525-7f6c1402acf2","ios":"levelo://app?vid=6f0a34a5-dcd2-40df-a525-7f6c1402acf2"},"vehicle_type_id":"4","last_reported":1736993217,"current_range_meters":9200,"station_id":"ce4bh0h2rcd13ifvqd50","pricing_plan_id":"cebpf4jnsgd1na2vs0mg"},{"bike_id":"c4944fc2-d767-48b9-bd43-af584a393e70","system_id":"levelo_inurba_marseille","lat":43.30323,"lon":5.40443,"is_reserved":false,"is_disabled":false,"rental_uris":{"android":"levelo://app?vid=c4944fc2-d767-48b9-bd43-af584a393e70","ios":"levelo://app?vid=c4944fc2-d767-48b9-bd43-af584a393e70"},"vehicle_type_id":"4","last_reported":1736993217,"current_range_meters":4000,"station_id":"ce4bh012rcd13ifvqd10","pricing_plan_id":"cebpf4jnsgd1na2vs0mg"},{"bike_id":"becd60ec-8baa-4bd4-baf7-76ee6c6b3447","system_id":"levelo_inurba_marseille","lat":43.28621,"lon":5.35108,"is_reserved":false,"is_disabled":false,"rental_uris":{"android":"levelo://app?vid=becd60ec-8baa-4bd4-baf7-76ee6c6b3447","ios":"levelo://app?vid=becd60ec-8baa-4bd4-baf7-76ee6c6b3447"},"vehicle_type_id":"4","last_reported":1736993217,"current_range_meters":38400,"station_id":"ce4bhch2rcd13ifvqeug","pricing_plan_id":"cebpf4jnsgd1na2vs0mg"},{"bike_id":"2635dd77-daaa-46f8-b481-18d8bd38ecb3","system_id":"levelo_inurba_marseille","lat":43.284211,"lon":5.34991,"is_reserved":false,"is_disabled":false,"rental_uris":{"android":"levelo://app?vid=2635dd77-daaa-46f8-b481-18d8bd38ecb3","ios":"levelo://app?vid=2635dd77-daaa-46f8-b481-18d8bd38ecb3"},"vehicle_type_id":"4","last_reported":1736993217,"current_range_meters":16000,"station_id":"ce4bhbh2rcd13ifvqepg","pricing_plan_id":"cebpf4jnsgd1na2vs0mg"},{"bike_id":"08427958-dadb-449a-a72a-55745025d77c","system_id":"levelo_inurba_marseille","lat":43.2987,"lon":5.39733,"is_reserved":false,"is_disabled":false,"rental_uris":{"android":"levelo://app?vid=08427958-dadb-449a-a72a-55745025d77c","ios":"levelo://app?vid=08427958-dadb-449a-a72a-55745025d77c"},"vehicle_type_id":"4","last_reported":1736993217,"current_range_meters":28800,"station_id":"ce4bh0h2rcd13ifvqd50","pricing_plan_id":"cebpf4jnsgd1na2vs0mg"},{"bike_id":"f582b59d-1225-4cb5-8d0c-2c17265f6846","system_id":"levelo_inurba_marseille","lat":43.28087,"lon":5.37853,"is_reserved":false,"is_disabled":false,"rental_uris":{"android":"levelo://app?vid=f582b59d-1225-4cb5-8d0c-2c17265f6846","ios":"levelo://app?vid=f582b59d-1225-4cb5-8d0c-2c17265f6846"},"vehicle_type_id":"4","last_reported":1736993217,"current_range_meters":36000,"station_id":"ce4bha12rcd13ifvqee0","pricing_plan_id":"cebpf4jnsgd1na2vs0mg"},{"bike_id":"2d7f3353-743b-41e1-85f2-e32181d4ae48","system_id":"levelo_inurba_marseille","lat":43.3201,"lon":5.38162,"is_reserved":false,"is_disabled":false,"rental_uris":{"android":"levelo://app?vid=2d7f3353-743b-41e1-85f2-e32181d4ae48","ios":"levelo://app?vid=2d7f3353-743b-41e1-85f2-e32181d4ae48"},"vehicle_type_id":"4","last_reported":1736993217,"current_range_meters":35600,"station_id":"ce4bhr12rcd13ifvqhpg","pricing_plan_id":"cebpf4jnsgd1na2vs0mg"},{"bike_id":"7e3ee2e7-7482-4133-a472-006dba3905fa","system_id":"levelo_inurba_marseille","lat":43.25482,"lon":5.37654,"is_reserved":false,"is_disabled":false,"rental_uris":{"android":"levelo://app?vid=7e3ee2e7-7482-4133-a472-006dba3905fa","ios":"levelo://app?vid=7e3ee2e7-7482-4133-a472-006dba3905fa"},"vehicle_type_id":"4","last_reported":1736993217,"current_range_meters":28800,"station_id":"ce4bhh12rcd13ifvqff0","pricing_plan_id":"cebpf4jnsgd1na2vs0mg"},{"bike_id":"4b9616fb-f934-46c3-b012-54b53053349a","system_id":"levelo_inurba_marseille","lat":43.30904,"lon":5.39624,"is_reserved":false,"is_disabled":false,"rental_uris":{"android":"levelo://app?vid=4b9616fb-f934-46c3-b012-54b53053349a","ios":"levelo://app?vid=4b9616fb-f934-46c3-b012-54b53053349a"},"vehicle_type_id":"4","last_reported":1736993217,"current_range_meters":33200,"station_id":"ce4bh012rcd13ifvqcv0","pricing_plan_id":"cebpf4jnsgd1na2vs0mg"},{"bike_id":"363da7d7-f331-4be5-b616-92543340adb3","system_id":"levelo_inurba_marseille","lat":43.27199,"lon":5.40989,"is_reserved":false,"is_disabled":false,"rental_uris":{"android":"levelo://app?vid=363da7d7-f331-4be5-b616-92543340adb3","ios":"levelo://app?vid=363da7d7-f331-4be5-b616-92543340adb3"},"vehicle_type_id":"4","last_reported":1736993217,"current_range_meters":36000,"station_id":"ce4bhl12rcd13ifvqgf0","pricing_plan_id":"cebpf4jnsgd1na2vs0mg"},{"bike_id":"3b81ae39-027f-428c-b2db-070b6b26668c","system_id":"levelo_inurba_marseille","lat":43.281018,"lon":5.378361,"is_reserved":false,"is_disabled":false,"rental_uris":{"android":"levelo://app?vid=3b81ae39-027f-428c-b2db-070b6b26668c","ios":"levelo://app?vid=3b81ae39-027f-428c-b2db-070b6b26668c"},"vehicle_type_id":"4","last_reported":1736993217,"current_range_meters":24000,"station_id":"ce4bha12rcd13ifvqee0","pricing_plan_id":"cebpf4jnsgd1na2vs0mg"},{"bike_id":"f7e38dc7-32fb-4613-b8a0-f1dcd3094a54","system_id":"levelo_inurba_marseille","lat":43.31183,"lon":5.38741,"is_reserved":false,"is_disabled":false,"rental_uris":{"android":"levelo://app?vid=f7e38dc7-32fb-4613-b8a0-f1dcd3094a54","ios":"levelo://app?vid=f7e38dc7-32fb-4613-b8a0-f1dcd3094a54"},"vehicle_type_id":"4","last_reported":1736993217,"current_range_meters":38000,"station_id":"ce4bgv12rcd13ifvqcp0","pricing_plan_id":"cebpf4jnsgd1na2vs0mg"},{"bike_id":"1d6528fb-0c16-40a0-8901-74c2906f9d60","system_id":"levelo_inurba_marseille","lat":43.31764,"lon":5.39007,"is_reserved":false,"is_disabled":false,"rental_uris":{"android":"levelo://app?vid=1d6528fb-0c16-40a0-8901-74c2906f9d60","ios":"levelo://app?vid=1d6528fb-0c16-40a0-8901-74c2906f9d60"},"vehicle_type_id":"4","last_reported":1736993217,"current_range_meters":14400,"station_id":"ce4bhqp2rcd13ifvqhng","pricing_plan_id":"cebpf4jnsgd1na2vs0mg"},{"bike_id":"c3e35290-6491-44eb-9866-0c9e8e5b99c9","system_id":"levelo_inurba_marseille","lat":43.32278,"lon":5.38274,"is_reserved":false,"is_disabled":false,"rental_uris":{"android":"levelo://app?vid=c3e35290-6491-44eb-9866-0c9e8e5b99c9","ios":"levelo://app?vid=c3e35290-6491-44eb-9866-0c9e8e5b99c9"},"vehicle_type_id":"4","last_reported":1736993217,"current_range_meters":38400,"station_id":"ce4bhr12rcd13ifvqhqg","pricing_plan_id":"cebpf4jnsgd1na2vs0mg"},{"bike_id":"b583689d-4b3b-4fec-a4c3-0358dd755494","system_id":"levelo_inurba_marseille","lat":43.26698,"lon":5.38271,"is_reserved":false,"is_disabled":false,"rental_uris":{"android":"levelo://app?vid=b583689d-4b3b-4fec-a4c3-0358dd755494","ios":"levelo://app?vid=b583689d-4b3b-4fec-a4c3-0358dd755494"},"vehicle_type_id":"4","last_reported":1736993217,"current_range_meters":25600,"station_id":"ce4bhg92rcd13ifvqf90","pricing_plan_id":"cebpf4jnsgd1na2vs0mg"},{"bike_id":"85c43035-ad51-429b-8e06-2b5a61d8dcf1","system_id":"levelo_inurba_marseille","lat":43.29188,"lon":5.39326,"is_reserved":false,"is_disabled":false,"rental_uris":{"android":"levelo://app?vid=85c43035-ad51-429b-8e06-2b5a61d8dcf1","ios":"levelo://app?vid=85c43035-ad51-429b-8e06-2b5a61d8dcf1"},"vehicle_type_id":"4","last_reported":1736993217,"current_range_meters":34800,"station_id":"ce4bh192rcd13ifvqdd0","pricing_plan_id":"cebpf4jnsgd1na2vs0mg"},{"bike_id":"eba05962-a26b-40af-8ae4-84f831972fde","system_id":"levelo_inurba_marseille","lat":43.3116,"lon":5.38724,"is_reserved":false,"is_disabled":false,"rental_uris":{"android":"levelo://app?vid=eba05962-a26b-40af-8ae4-84f831972fde","ios":"levelo://app?vid=eba05962-a26b-40af-8ae4-84f831972fde"},"vehicle_type_id":"4","last_reported":1736993217,"current_range_meters":34000,"station_id":"ce4bgv12rcd13ifvqcp0","pricing_plan_id":"cebpf4jnsgd1na2vs0mg"},{"bike_id":"8534aaf4-535f-4db5-8998-0f97ef68ef36","system_id":"levelo_inurba_marseille","lat":43.24438,"lon":5.37,"is_reserved":false,"is_disabled":false,"rental_uris":{"android":"levelo://app?vid=8534aaf4-535f-4db5-8998-0f97ef68ef36","ios":"levelo://app?vid=8534aaf4-535f-4db5-8998-0f97ef68ef36"},"vehicle_type_id":"4","last_reported":1736993217,"current_range_meters":12000,"station_id":"","pricing_plan_id":"cebpf4jnsgd1na2vs0mg"},{"bike_id":"5d42a98e-bef8-43af-946e-751274f82d4c","system_id":"levelo_inurba_marseille","lat":43.23656,"lon":5.43604,"is_reserved":false,"is_disabled":false,"rental_uris":{"android":"levelo://app?vid=5d42a98e-bef8-43af-946e-751274f82d4c","ios":"levelo://app?vid=5d42a98e-bef8-43af-946e-751274f82d4c"},"vehicle_type_id":"4","last_reported":1736993217,"current_range_meters":33600,"station_id":"","pricing_plan_id":"cebpf4jnsgd1na2vs0mg"},{"bike_id":"b9086b18-df91-424a-b73b-9e86c285b849","system_id":"levelo_inurba_marseille","lat":43.28418,"lon":5.37525,"is_reserved":false,"is_disabled":false,"rental_uris":{"android":"levelo://app?vid=b9086b18-df91-424a-b73b-9e86c285b849","ios":"levelo://app?vid=b9086b18-df91-424a-b73b-9e86c285b849"},"vehicle_type_id":"4","last_reported":1736993217,"current_range_meters":32400,"station_id":"ce4bh412rcd13ifvqds0","pricing_plan_id":"cebpf4jnsgd1na2vs0mg"},{"bike_id":"a2908b4f-e283-49c6-a08d-76ce2a17372d","system_id":"levelo_inurba_marseille","lat":43.299715,"lon":5.384861,"is_reserved":false,"is_disabled":true,"rental_uris":{"android":"levelo://app?vid=a2908b4f-e283-49c6-a08d-76ce2a17372d","ios":"levelo://app?vid=a2908b4f-e283-49c6-a08d-76ce2a17372d"},"vehicle_type_id":"4","last_reported":1736993217,"current_range_meters":38400,"station_id":"ce4bgj92rcd13ifvqbd0","pricing_plan_id":"cebpf4jnsgd1na2vs0mg"},{"bike_id":"05f99b36-9cf7-43cd-9526-71c0f6c7002c","system_id":"levelo_inurba_marseille","lat":43.26046,"lon":5.39408,"is_reserved":false,"is_disabled":false,"rental_uris":{"android":"levelo://app?vid=05f99b36-9cf7-43cd-9526-71c0f6c7002c","ios":"levelo://app?vid=05f99b36-9cf7-43cd-9526-71c0f6c7002c"},"vehicle_type_id":"4","last_reported":1736993217,"current_range_meters":36000,"station_id":"ce4bhh92rcd13ifvqfj0","pricing_plan_id":"cebpf4jnsgd1na2vs0mg"},{"bike_id":"11278e1c-be2e-4e31-bf3c-f5d6585df2f8","system_id":"levelo_inurba_marseille","lat":43.30801,"lon":5.38154,"is_reserved":false,"is_disabled":false,"rental_uris":{"android":"levelo://app?vid=11278e1c-be2e-4e31-bf3c-f5d6585df2f8","ios":"levelo://app?vid=11278e1c-be2e-4e31-bf3c-f5d6585df2f8"},"vehicle_type_id":"4","last_reported":1736993217,"current_range_meters":39200,"station_id":"ce4bgt12rcd13ifvqce0","pricing_plan_id":"cebpf4jnsgd1na2vs0mg"},{"bike_id":"6c02ae22-4e33-4b73-a0d5-7fa499611cc2","system_id":"levelo_inurba_marseille","lat":43.23159,"lon":5.43702,"is_reserved":false,"is_disabled":false,"rental_uris":{"android":"levelo://app?vid=6c02ae22-4e33-4b73-a0d5-7fa499611cc2","ios":"levelo://app?vid=6c02ae22-4e33-4b73-a0d5-7fa499611cc2"},"vehicle_type_id":"4","last_reported":1736993217,"current_range_meters":36400,"station_id":"ce4bhmp2rcd13ifvqgog","pricing_plan_id":"cebpf4jnsgd1na2vs0mg"},{"bike_id":"26c59f0b-5c67-41af-a7c3-448cd620e554","system_id":"levelo_inurba_marseille","lat":43.26803,"lon":5.40253,"is_reserved":false,"is_disabled":false,"rental_uris":{"android":"levelo://app?vid=26c59f0b-5c67-41af-a7c3-448cd620e554","ios":"levelo://app?vid=26c59f0b-5c67-41af-a7c3-448cd620e554"},"vehicle_type_id":"4","last_reported":1736993217,"current_range_meters":38800,"station_id":"ce501612rcd8frsf0b60","pricing_plan_id":"cebpf4jnsgd1na2vs0mg"},{"bike_id":"f3000f12-d78d-46d5-99ca-8a4e13f94f9e","system_id":"levelo_inurba_marseille","lat":43.255,"lon":5.37649,"is_reserved":false,"is_disabled":false,"rental_uris":{"android":"levelo://app?vid=f3000f12-d78d-46d5-99ca-8a4e13f94f9e","ios":"levelo://app?vid=f3000f12-d78d-46d5-99ca-8a4e13f94f9e"},"vehicle_type_id":"4","last_reported":1736993217,"current_range_meters":38800,"station_id":"ce4bhh12rcd13ifvqff0","pricing_plan_id":"cebpf4jnsgd1na2vs0mg"},{"bike_id":"7241fb88-c4be-4279-8256-9b9eda4440ff","system_id":"levelo_inurba_marseille","lat":43.24652,"lon":5.38888,"is_reserved":false,"is_disabled":false,"rental_uris":{"android":"levelo://app?vid=7241fb88-c4be-4279-8256-9b9eda4440ff","ios":"levelo://app?vid=7241fb88-c4be-4279-8256-9b9eda4440ff"},"vehicle_type_id":"4","last_reported":1736993217,"current_range_meters":28400,"station_id":"ce4bhg12rcd13ifvqf60","pricing_plan_id":"cebpf4jnsgd1na2vs0mg"},{"bike_id":"daed1ccd-abf9-45c7-831e-19fefaff00a6","system_id":"levelo_inurba_marseille","lat":43.28163,"lon":5.42638,"is_reserved":false,"is_disabled":false,"rental_uris":{"android":"levelo://app?vid=daed1ccd-abf9-45c7-831e-19fefaff00a6","ios":"levelo://app?vid=daed1ccd-abf9-45c7-831e-19fefaff00a6"},"vehicle_type_id":"4","last_reported":1736993217,"current_range_meters":25600,"station_id":"ce4bhnh2rcd13ifvqgug","pricing_plan_id":"cebpf4jnsgd1na2vs0mg"},{"bike_id":"6003524c-18e4-4d25-8fc7-903f93c12173","system_id":"levelo_inurba_marseille","lat":43.30151,"lon":5.38776,"is_reserved":false,"is_disabled":true,"rental_uris":{"android":"levelo://app?vid=6003524c-18e4-4d25-8fc7-903f93c12173","ios":"levelo://app?vid=6003524c-18e4-4d25-8fc7-903f93c12173"},"vehicle_type_id":"4","last_reported":1736993217,"current_range_meters":24800,"station_id":"ce4bhoh2rcd13ifvqh6g","pricing_plan_id":"cebpf4jnsgd1na2vs0mg"},{"bike_id":"57edb4d6-08bb-4140-842e-8411bf1bbd16","system_id":"levelo_inurba_marseille","lat":43.31366,"lon":5.38498,"is_reserved":false,"is_disabled":false,"rental_uris":{"android":"levelo://app?vid=57edb4d6-08bb-4140-842e-8411bf1bbd16","ios":"levelo://app?vid=57edb4d6-08bb-4140-842e-8411bf1bbd16"},"vehicle_type_id":"4","last_reported":1736993217,"current_range_meters":16800,"station_id":"ce4bgt92rcd13ifvqcf0","pricing_plan_id":"cebpf4jnsgd1na2vs0mg"},{"bike_id":"18aa87ac-4f2a-414a-88f7-f106e8544a48","system_id":"levelo_inurba_marseille","lat":43.28451,"lon":5.35882,"is_reserved":false,"is_disabled":false,"rental_uris":{"android":"levelo://app?vid=18aa87ac-4f2a-414a-88f7-f106e8544a48","ios":"levelo://app?vid=18aa87ac-4f2a-414a-88f7-f106e8544a48"},"vehicle_type_id":"4","last_reported":1736993217,"current_range_meters":26000,"station_id":"ce4bhah2rcd13ifvqei0","pricing_plan_id":"cebpf4jnsgd1na2vs0mg"},{"bike_id":"f8bb08a1-0db5-46dc-aa64-c2185c8a7491","system_id":"levelo_inurba_marseille","lat":43.31146,"lon":5.38728,"is_reserved":false,"is_disabled":false,"rental_uris":{"android":"levelo://app?vid=f8bb08a1-0db5-46dc-aa64-c2185c8a7491","ios":"levelo://app?vid=f8bb08a1-0db5-46dc-aa64-c2185c8a7491"},"vehicle_type_id":"4","last_reported":1736993217,"current_range_meters":35600,"station_id":"ce4bgv12rcd13ifvqcp0","pricing_plan_id":"cebpf4jnsgd1na2vs0mg"},{"bike_id":"7b2dad03-0db0-43a1-9f51-dcbeeaadc873","system_id":"levelo_inurba_marseille","lat":43.24807,"lon":5.37452,"is_reserved":false,"is_disabled":false,"rental_uris":{"android":"levelo://app?vid=7b2dad03-0db0-43a1-9f51-dcbeeaadc873","ios":"levelo://app?vid=7b2dad03-0db0-43a1-9f51-dcbeeaadc873"},"vehicle_type_id":"4","last_reported":1736993217,"current_range_meters":39200,"station_id":"ce4bhgh2rcd13ifvqfb0","pricing_plan_id":"cebpf4jnsgd1na2vs0mg"},{"bike_id":"e1ef5d1c-0e65-4750-a161-52ba58c02508","system_id":"levelo_inurba_marseille","lat":43.25826,"lon":5.39422,"is_reserved":false,"is_disabled":false,"rental_uris":{"android":"levelo://app?vid=e1ef5d1c-0e65-4750-a161-52ba58c02508","ios":"levelo://app?vid=e1ef5d1c-0e65-4750-a161-52ba58c02508"},"vehicle_type_id":"4","last_reported":1736993217,"current_range_meters":39200,"station_id":"ce4bhip2rcd13ifvqft0","pricing_plan_id":"cebpf4jnsgd1na2vs0mg"},{"bike_id":"76fa4a10-90fd-4c10-828d-b6d10a725eac","system_id":"levelo_inurba_marseille","lat":43.28479,"lon":5.38418,"is_reserved":false,"is_disabled":false,"rental_uris":{"android":"levelo://app?vid=76fa4a10-90fd-4c10-828d-b6d10a725eac","ios":"levelo://app?vid=76fa4a10-90fd-4c10-828d-b6d10a725eac"},"vehicle_type_id":"4","last_reported":1736993217,"current_range_meters":34800,"station_id":"ce4bh512rcd13ifvqe3g","pricing_plan_id":"cebpf4jnsgd1na2vs0mg"},{"bike_id":"436208d9-22ee-4b59-8ade-7d37f5f818f8","system_id":"levelo_inurba_marseille","lat":43.30325,"lon":5.39112,"is_reserved":false,"is_disabled":true,"rental_uris":{"android":"levelo://app?vid=436208d9-22ee-4b59-8ade-7d37f5f818f8","ios":"levelo://app?vid=436208d9-22ee-4b59-8ade-7d37f5f818f8"},"vehicle_type_id":"4","last_reported":1736993217,"current_range_meters":6000,"station_id":"ce4bgkh2rcd13ifvqbk0","pricing_plan_id":"cebpf4jnsgd1na2vs0mg"},{"bike_id":"ba1008a8-8bd4-4cbd-ad17-281945b98710","system_id":"levelo_inurba_marseille","lat":43.26532,"lon":5.39046,"is_reserved":false,"is_disabled":true,"rental_uris":{"android":"levelo://app?vid=ba1008a8-8bd4-4cbd-ad17-281945b98710","ios":"levelo://app?vid=ba1008a8-8bd4-4cbd-ad17-281945b98710"},"vehicle_type_id":"4","last_reported":1736993217,"current_range_meters":38400,"station_id":"ce4bhe12rcd13ifvqf30","pricing_plan_id":"cebpf4jnsgd1na2vs0mg"},{"bike_id":"1c9427b4-46b3-4347-9d29-a2fa75472eb9","system_id":"levelo_inurba_marseille","lat":43.30011,"lon":5.37194,"is_reserved":false,"is_disabled":false,"rental_uris":{"android":"levelo://app?vid=1c9427b4-46b3-4347-9d29-a2fa75472eb9","ios":"levelo://app?vid=1c9427b4-46b3-4347-9d29-a2fa75472eb9"},"vehicle_type_id":"4","last_reported":1736993217,"current_range_meters":10800,"station_id":"ce4bgr92rcd13ifvqc7g","pricing_plan_id":"cebpf4jnsgd1na2vs0mg"},{"bike_id":"71bcce36-8466-4391-85d6-adf03de6bf7b","system_id":"levelo_inurba_marseille","lat":43.30447,"lon":5.38896,"is_reserved":false,"is_disabled":false,"rental_uris":{"android":"levelo://app?vid=71bcce36-8466-4391-85d6-adf03de6bf7b","ios":"levelo://app?vid=71bcce36-8466-4391-85d6-adf03de6bf7b"},"vehicle_type_id":"4","last_reported":1736993217,"current_range_meters":33600,"station_id":"ce4bgk12rcd13ifvqbi0","pricing_plan_id":"cebpf4jnsgd1na2vs0mg"},{"bike_id":"b66c8a7c-98ac-480c-a383-f54813a2d5aa","system_id":"levelo_inurba_marseille","lat":43.25813,"lon":5.39434,"is_reserved":false,"is_disabled":false,"rental_uris":{"android":"levelo://app?vid=b66c8a7c-98ac-480c-a383-f54813a2d5aa","ios":"levelo://app?vid=b66c8a7c-98ac-480c-a383-f54813a2d5aa"},"vehicle_type_id":"4","last_reported":1736993217,"current_range_meters":38800,"station_id":"ce4bhip2rcd13ifvqft0","pricing_plan_id":"cebpf4jnsgd1na2vs0mg"},{"bike_id":"94d8daab-33a0-439a-9244-54c73e49ea00","system_id":"levelo_inurba_marseille","lat":43.29267,"lon":5.40885,"is_reserved":false,"is_disabled":false,"rental_uris":{"android":"levelo://app?vid=94d8daab-33a0-439a-9244-54c73e49ea00","ios":"levelo://app?vid=94d8daab-33a0-439a-9244-54c73e49ea00"},"vehicle_type_id":"4","last_reported":1736993217,"current_range_meters":36800,"station_id":"ce4bh192rcd13ifvqdc0","pricing_plan_id":"cebpf4jnsgd1na2vs0mg"},{"bike_id":"2d396419-1d6f-4319-9157-927ac359a413","system_id":"levelo_inurba_marseille","lat":43.23961,"lon":5.36623,"is_reserved":false,"is_disabled":false,"rental_uris":{"android":"levelo://app?vid=2d396419-1d6f-4319-9157-927ac359a413","ios":"levelo://app?vid=2d396419-1d6f-4319-9157-927ac359a413"},"vehicle_type_id":"4","last_reported":1736993217,"current_range_meters":10800,"station_id":"ce4bhi12rcd13ifvqfp0","pricing_plan_id":"cebpf4jnsgd1na2vs0mg"},