{"last_updated":1720285577,"ttl":30,"version":"2.2","data":{"bikes":[{"bike_id":"afb78a4f-d430-43af-90dc-2ef578d98f0a","system_id":"levelo_inurba_marseille","lat":43.30917,"lon":5.36837,"is_reserved":false,"is_disabled":false,"rental_uris":{"android":"levelo://app?vid=afb78a4f-d430-43af-90dc-2ef578d98f0a","ios":"levelo://app?vid=afb78a4f-d430-43af-90dc-2ef578d98f0a"},"vehicle_type_id":"4","last_reported":1720285577,"current_range_meters":1200,"station_id":"ce4bgn92rcd13ifvqbvg","pricing_plan_id":"cebpf4jnsgd1na2vs0mg"},{"bike_id":"7718cd45-4791-4dbf-839c-661dd13ba3d5","system_id":"levelo_inurba_marseille","lat":43.309076,"lon":5.368465,"is_reserved":false,"is_disabled":false,"rental_uris":{"android":"levelo://app?vid=7718cd45-4791-4dbf-839c-661dd13ba3d5","ios":"levelo://app?vid=7718cd45-4791-4dbf-839c-661dd13ba3d5"},"vehicle_type_id":"4","last_reported":1720285577,"current_range_meters":4800,"station_id":"ce4bgn92rcd13ifvqbvg","pricing_plan_id":"cebpf4jnsgd1na2vs0mg"},{"bike_id":"f8581327-396e-481c-8456-cd4030467d43","system_id":"levelo_inurba_marseille","lat":43.309034,"lon":5.371783,"is_reserved":false,"is_disabled":false,"rental_uris":{"android":"levelo://app?vid=f8581327-396e-481c-8456-cd4030467d43","ios":"levelo://app?vid=f8581327-396e-481c-8456-cd4030467d43"},"vehicle_type_id":"4","last_reported":1720285577,"current_range_meters":10000,"station_id":"ce4bguh2rcd13ifvqckg","pricing_plan_id":"cebpf4jnsgd1na2vs0mg"},{"bike_id":"42a60161-d8ae-42fe-98d2-a1789f8a1b15","system_id":"levelo_inurba_marseille","lat":43.309039,"lon":5.371797,"is_reserved":false,"is_disabled":false,"rental_uris":{"android":"levelo://app?vid=42a60161-d8ae-42fe-98d2-a1789f8a1b15","ios":"levelo://app?vid=42a60161-d8ae-42fe-98d2-a1789f8a1b15"},"vehicle_type_id":"4","last_reported":1720285577,"current_range_meters":6400,"station_id":"ce4bguh2rcd13ifvqckg","pricing_plan_id":"cebpf4jnsgd1na2vs0mg"},{"bike_id":"e4653f7b-43fe-4e70-89a3-4df59b69d008","system_id":"levelo_inurba_marseille","lat":43.31558,"lon":5.37311,"is_reserved":false,"is_disabled":false,"rental_uris":{"android":"levelo://app?vid=e4653f7b-43fe-4e70-89a3-4df59b69d008","ios":"levelo://app?vid=e4653f7b-43fe-4e70-89a3-4df59b69d008"},"vehicle_type_id":"4","last_reported":1720285577,"current_range_meters":0,"station_id":"","pricing_plan_id":"cebpf4jnsgd1na2vs0mg"},{"bike_id":"41cdcdd6-ded1-4424-b142-2da7b544bf9d","system_id":"levelo_inurba_marseille","lat":43.31784,"lon":5.36942,"is_reserved":false,"is_disabled":false,"rental_uris":{"android":"levelo://app?vid=41cdcdd6-ded1-4424-b142-2da7b544bf9d","ios":"levelo://app?vid=41cdcdd6-ded1-4424-b142-2da7b544bf9d"},"vehicle_type_id":"4","last_reported":1720285577,"current_range_meters":5200,"station_id":"","pricing_plan_id":"cebpf4jnsgd1na2vs0mg"},{"bike_id":"5bacee6e-0651-445f-bad0-4485bbc1cc34","system_id":"levelo_inurba_marseille","lat":43.31339,"lon":5.37554,"is_reserved":false,"is_disabled":false,"rental_uris":{"android":"levelo://app?vid=5bacee6e-0651-445f-bad0-4485bbc1cc34","ios":"levelo://app?vid=5bacee6e-0651-445f-bad0-4485bbc1cc34"},"vehicle_type_id":"4","last_reported":1720285577,"current_range_meters":16000,"station_id":"","pricing_plan_id":"cebpf4jnsgd1na2vs0mg"},{"bike_id":"c028b95d-efba-4d39-8385-13b89c20a474","system_id":"levelo_inurba_marseille","lat":43.30551,"lon":5.3669,"is_reserved":false,"is_disabled":false,"rental_uris":{"android":"levelo://app?vid=c028b95d-efba-4d39-8385-13b89c20a474","ios":"levelo://app?vid=c028b95d-efba-4d39-8385-13b89c20a474"},"vehicle_type_id":"4","last_reported":1720285577,"current_range_meters":0,"station_id":"ce4bgrp2rcd13ifvqc9g","pricing_plan_id":"cebpf4jnsgd1na2vs0mg"},{"bike_id":"543c3d05-2abf-4589-a5e7-57c51ecb4736","system_id":"levelo_inurba_marseille","lat":43.305714,"lon":5.365633,"is_reserved":false,"is_disabled":false,"rental_uris":{"android":"levelo://app?vid=543c3d05-2abf-4589-a5e7-57c51ecb4736","ios":"levelo://app?vid=543c3d05-2abf-4589-a5e7-57c51ecb4736"},"vehicle_type_id":"4","last_reported":1720285577,"current_range_meters":0,"station_id":"ce4bgs12rcd13ifvqcag","pricing_plan_id":"cebpf4jnsgd1na2vs0mg"},{"bike_id":"ae69c434-9689-4c5d-9ea2-4acd5dc46c21","system_id":"levelo_inurba_marseille","lat":43.307945,"lon":5.376487,"is_reserved":false,"is_disabled":false,"rental_uris":{"android":"levelo://app?vid=ae69c434-9689-4c5d-9ea2-4acd5dc46c21","ios":"levelo://app?vid=ae69c434-9689-4c5d-9ea2-4acd5dc46c21"},"vehicle_type_id":"4","last_reported":1720285577,"current_range_meters":400,"station_id":"ce4bgv92rcd13ifvqcq0","pricing_plan_id":"cebpf4jnsgd1na2vs0mg"},{"bike_id":"5e68900c-9c53-49d8-ac99-05b33c8d9514","system_id":"levelo_inurba_marseille","lat":43.307945,"lon":5.376487,"is_reserved":false,"is_disabled":false,"rental_uris":{"android":"levelo://app?vid=5e68900c-9c53-49d8-ac99-05b33c8d9514","ios":"levelo://app?vid=5e68900c-9c53-49d8-ac99-05b33c8d9514"},"vehicle_type_id":"4","last_reported":1720285577,"current_range_meters":0,"station_id":"ce4bgv92rcd13ifvqcq0","pricing_plan_id":"cebpf4jnsgd1na2vs0mg"},{"bike_id":"dbde5257-261d-4680-8361-e48ecdad95d5","system_id":"levelo_inurba_marseille","lat":43.307945,"lon":5.376487,"is_reserved":false,"is_disabled":false,"rental_uris":{"android":"levelo://app?vid=dbde5257-261d-4680-8361-e48ecdad95d5","ios":"levelo://app?vid=dbde5257-261d-4680-8361-e48ecdad95d5"},"vehicle_type_id":"4","last_reported":1720285577,"current_range_meters":29200,"station_id":"ce4bgv92rcd13ifvqcq0","pricing_plan_id":"cebpf4jnsgd1na2vs0mg"},{"bike_id":"454ef15a-8992-4165-bd34-8cc5fb9f5007","system_id":"levelo_inurba_marseille","lat":43.32023,"lon":5.37308,"is_reserved":false,"is_disabled":false,"rental_uris":{"android":"levelo://app?vid=454ef15a-8992-4165-bd34-8cc5fb9f5007","ios":"levelo://app?vid=454ef15a-8992-4165-bd34-8cc5fb9f5007"},"vehicle_type_id":"4","last_reported":1720285577,"current_range_meters":0,"station_id":"","pricing_plan_id":"cebpf4jnsgd1na2vs0mg"},{"bike_id":"558aa874-9466-49b2-9deb-b1f9b7def0d2","system_id":"levelo_inurba_marseille","lat":43.261782,"lon":5.374515,"is_reserved":false,"is_disabled":false,"rental_uris":{"android":"levelo://app?vid=558aa874-9466-49b2-9deb-b1f9b7def0d2","ios":"levelo://app?vid=558aa874-9466-49b2-9deb-b1f9b7def0d2"},"vehicle_type_id":"4","last_reported":1720285577,"current_range_meters":18400,"station_id":"ce4bhgp2rcd13ifvqfc0","pricing_plan_id":"cebpf4jnsgd1na2vs0mg"},{"bike_id":"7a72dd39-e93f-4949-bd96-d27e620a226c","system_id":"levelo_inurba_marseille","lat":43.301939,"lon":5.366286,"is_reserved":false,"is_disabled":false,"rental_uris":{"android":"levelo://app?vid=7a72dd39-e93f-4949-bd96-d27e620a226c","ios":"levelo://app?vid=7a72dd39-e93f-4949-bd96-d27e620a226c"},"vehicle_type_id":"4","last_reported":1720285577,"current_range_meters":18400,"station_id":"ce4bgrh2rcd13ifvqc8g","pricing_plan_id":"cebpf4jnsgd1na2vs0mg"},{"bike_id":"bd9d75a1-2bb5-460b-a349-3137d233516c","system_id":"levelo_inurba_marseille","lat":43.308012,"lon":5.381511,"is_reserved":false,"is_disabled":false,"rental_uris":{"android":"levelo://app?vid=bd9d75a1-2bb5-460b-a349-3137d233516c","ios":"levelo://app?vid=bd9d75a1-2bb5-460b-a349-3137d233516c"},"vehicle_type_id":"4","last_reported":1720285577,"current_range_meters":0,"station_id":"ce4bgt12rcd13ifvqce0","pricing_plan_id":"cebpf4jnsgd1na2vs0mg"},{"bike_id":"64052e2c-36bb-4ac0-b164-cd992ea7d56f","system_id":"levelo_inurba_marseille","lat":43.308012,"lon":5.381511,"is_reserved":false,"is_disabled":false,"rental_uris":{"android":"levelo://app?vid=64052e2c-36bb-4ac0-b164-cd992ea7d56f","ios":"levelo://app?vid=64052e2c-36bb-4ac0-b164-cd992ea7d56f"},"vehicle_type_id":"4","last_reported":1720285577,"current_range_meters":13200,"station_id":"ce4bgt12rcd13ifvqce0","pricing_plan_id":"cebpf4jnsgd1na2vs0mg"},{"bike_id":"de7f94a0-f3a6-4702-b950-2ed30e4e8005","system_id":"levelo_inurba_marseille","lat":43.31599,"lon":5.38238,"is_reserved":false,"is_disabled":false,"rental_uris":{"android":"levelo://app?vid=de7f94a0-f3a6-4702-b950-2ed30e4e8005","ios":"levelo://app?vid=de7f94a0-f3a6-4702-b950-2ed30e4e8005"},"vehicle_type_id":"4","last_reported":1720285577,"current_range_meters":16000,"station_id":"","pricing_plan_id":"cebpf4jnsgd1na2vs0mg"},{"bike_id":"ad8c02c3-b43c-4efb-8ba1-4ac0faed2346","system_id":"levelo_inurba_marseille","lat":43.30101,"lon":5.368715,"is_reserved":false,"is_disabled":false,"rental_uris":{"android":"levelo://app?vid=ad8c02c3-b43c-4efb-8ba1-4ac0faed2346","ios":"levelo://app?vid=ad8c02c3-b43c-4efb-8ba1-4ac0faed2346"},"vehicle_type_id":"4","last_reported":1720285577,"current_range_meters":17600,"station_id":"","pricing_plan_id":"cebpf4jnsgd1na2vs0mg"},{"bike_id":"5d0f7a04-8135-4b74-9688-9c520cdcb889","system_id":"levelo_inurba_marseille","lat":43.32472,"lon":5.36576,"is_reserved":false,"is_disabled":false,"rental_uris":{"android":"levelo://app?vid=5d0f7a04-8135-4b74-9688-9c520cdcb889","ios":"levelo://app?vid=5d0f7a04-8135-4b74-9688-9c520cdcb889"},"vehicle_type_id":"4","last_reported":1720285577,"current_range_meters":5200,"station_id":"ce4bhs12rcd13ifvqhvg","pricing_plan_id":"cebpf4jnsgd1na2vs0mg"},{"bike_id":"c8f77e45-6f3f-4be7-878f-2657ee7c4baf","system_id":"levelo_inurba_marseille","lat":43.324771,"lon":5.36557,"is_reserved":false,"is_disabled":false,"rental_uris":{"android":"levelo://app?vid=c8f77e45-6f3f-4be7-878f-2657ee7c4baf","ios":"levelo://app?vid=c8f77e45-6f3f-4be7-878f-2657ee7c4baf"},"vehicle_type_id":"4","last_reported":1720285577,"current_range_meters":10800,"station_id":"ce4bhs12rcd13ifvqhvg","pricing_plan_id":"cebpf4jnsgd1na2vs0mg"},{"bike_id":"be077d4e-c552-4f87-8e53-586e36c234b1","system_id":"levelo_inurba_marseille","lat":43.324771,"lon":5.36557,"is_reserved":false,"is_disabled":false,"rental_uris":{"android":"levelo://app?vid=be077d4e-c552-4f87-8e53-586e36c234b1","ios":"levelo://app?vid=be077d4e-c552-4f87-8e53-586e36c234b1"},"vehicle_type_id":"4","last_reported":1720285577,"current_range_meters":17200,"station_id":"ce4bhs12rcd13ifvqhvg","pricing_plan_id":"cebpf4jnsgd1na2vs0mg"},{"bike_id":"4d2f8fec-a9ef-40ca-8d83-bc8e0ff3a985","system_id":"levelo_inurba_marseille","lat":43.32478,"lon":5.36583,"is_reserved":false,"is_disabled":false,"rental_uris":{"android":"levelo://app?vid=4d2f8fec-a9ef-40ca-8d83-bc8e0ff3a985","ios":"levelo://app?vid=4d2f8fec-a9ef-40ca-8d83-bc8e0ff3a985"},"vehicle_type_id":"4","last_reported":1720285577,"current_range_meters":0,"station_id":"ce4bhs12rcd13ifvqhvg","pricing_plan_id":"cebpf4jnsgd1na2vs0mg"},{"bike_id":"1eb25b86-d038-48b0-8f32-da6d23d22a36","system_id":"levelo_inurba_marseille","lat":43.3248,"lon":5.36571,"is_reserved":false,"is_disabled":false,"rental_uris":{"android":"levelo://app?vid=1eb25b86-d038-48b0-8f32-da6d23d22a36","ios":"levelo://app?vid=1eb25b86-d038-48b0-8f32-da6d23d22a36"},"vehicle_type_id":"4","last_reported":1720285577,"current_range_meters":0,"station_id":"ce4bhs12rcd13ifvqhvg","pricing_plan_id":"cebpf4jnsgd1na2vs0mg"},{"bike_id":"8536a988-d3b3-43c7-a25a-ada20a485dbf","system_id":"levelo_inurba_marseille","lat":43.310804,"lon":5.38359,"is_reserved":false,"is_disabled":false,"rental_uris":{"android":"levelo://app?vid=8536a988-d3b3-43c7-a25a-ada20a485dbf","ios":"levelo://app?vid=8536a988-d3b3-43c7-a25a-ada20a485dbf"},"vehicle_type_id":"4","last_reported":1720285577,"current_range_meters":18000,"station_id":"ce4bgv92rcd13ifvqcr0","pricing_plan_id":"cebpf4jnsgd1na2vs0mg"},{"bike_id":"afe53602-939d-4aa1-877d-8a27a479f3a9","system_id":"levelo_inurba_marseille","lat":43.310804,"lon":5.38359,"is_reserved":false,"is_disabled":false,"rental_uris":{"android":"levelo://app?vid=afe53602-939d-4aa1-877d-8a27a479f3a9","ios":"levelo://app?vid=afe53602-939d-4aa1-877d-8a27a479f3a9"},"vehicle_type_id":"4","last_reported":1720285577,"current_range_meters":800,"station_id":"ce4bgv92rcd13ifvqcr0","pricing_plan_id":"cebpf4jnsgd1na2vs0mg"},{"bike_id":"71bea1da-d5ad-49d2-b690-5936aa49a6e1","system_id":"levelo_inurba_marseille","lat":43.30285,"lon":5.37698,"is_reserved":false,"is_disabled":false,"rental_uris":{"android":"levelo://app?vid=71bea1da-d5ad-49d2-b690-5936aa49a6e1","ios":"levelo://app?vid=71bea1da-d5ad-49d2-b690-5936aa49a6e1"},"vehicle_type_id":"4","last_reported":1720285577,"current_range_meters":16400,"station_id":"ce4bguh2rcd13ifvqcj0","pricing_plan_id":"cebpf4jnsgd1na2vs0mg"},{"bike_id":"d943525b-06ac-4583-bea8-c1de38aca777","system_id":"levelo_inurba_marseille","lat":43.30073,"lon":5.371015,"is_reserved":false,"is_disabled":false,"rental_uris":{"android":"levelo://app?vid=d943525b-06ac-4583-bea8-c1de38aca777","ios":"levelo://app?vid=d943525b-06ac-4583-bea8-c1de38aca777"},"vehicle_type_id":"4","last_reported":1720285577,"current_range_meters":9600,"station_id":"","pricing_plan_id":"cebpf4jnsgd1na2vs0mg"},{"bike_id":"9cfac786-ea18-4eb6-9dcd-e54b9580a913","system_id":"levelo_inurba_marseille","lat":43.30025,"lon":5.36555,"is_reserved":false,"is_disabled":false,"rental_uris":{"android":"levelo://app?vid=9cfac786-ea18-4eb6-9dcd-e54b9580a913","ios":"levelo://app?vid=9cfac786-ea18-4eb6-9dcd-e54b9580a913"},"vehicle_type_id":"4","last_reported":1720285577,"current_range_meters":1200,"station_id":"","pricing_plan_id":"cebpf4jnsgd1na2vs0mg"},{"bike_id":"aaabf849-82c6-407b-86ed-3c3dfff2144b","system_id":"levelo_inurba_marseille","lat":43.319935,"lon":5.381699,"is_reserved":false,"is_disabled":false,"rental_uris":{"android":"levelo://app?vid=aaabf849-82c6-407b-86ed-3c3dfff2144b","ios":"levelo://app?vid=aaabf849-82c6-407b-86ed-3c3dfff2144b"},"vehicle_type_id":"4","last_reported":1720285577,"current_range_meters":16400,"station_id":"ce4bhr12rcd13ifvqhpg","pricing_plan_id":"cebpf4jnsgd1na2vs0mg"},{"bike_id":"3cdbcaa7-ec6d-432a-9104-96a1ecf2a7f9","system_id":"levelo_inurba_marseille","lat":43.319935,"lon":5.381699,"is_reserved":false,"is_disabled":false,"rental_uris":{"android":"levelo://app?vid=3cdbcaa7-ec6d-432a-9104-96a1ecf2a7f9","ios":"levelo://app?vid=3cdbcaa7-ec6d-432a-9104-96a1ecf2a7f9"},"vehicle_type_id":"4","last_reported":1720285577,"current_range_meters":26000,"station_id":"ce4bhr12rcd13ifvqhpg","pricing_plan_id":"cebpf4jnsgd1na2vs0mg"},{"bike_id":"382045e6-1bc0-4798-9782-a9e396c6f66b","system_id":"levelo_inurba_marseille","lat":43.299222,"lon":5.365554,"is_reserved":false,"is_disabled":false,"rental_uris":{"android":"levelo://app?vid=382045e6-1bc0-4798-9782-a9e396c6f66b","ios":"levelo://app?vid=382045e6-1bc0-4798-9782-a9e396c6f66b"},"vehicle_type_id":"4","last_reported":1720285577,"current_range_meters":0,"station_id":"ce4bgm92rcd13ifvqbr0","pricing_plan_id":"cebpf4jnsgd1na2vs0mg"},{"bike_id":"d9a35379-8288-4b7b-ae26-34a1ddbffb4a","system_id":"levelo_inurba_marseille","lat":43.311722,"lon":5.387247,"is_reserved":false,"is_disabled":false,"rental_uris":{"android":"levelo://app?vid=d9a35379-8288-4b7b-ae26-34a1ddbffb4a","ios":"levelo://app?vid=d9a35379-8288-4b7b-ae26-34a1ddbffb4a"},"vehicle_type_id":"4","last_reported":1720285577,"current_range_meters":17600,"station_id":"ce4bgv12rcd13ifvqcp0","pricing_plan_id":"cebpf4jnsgd1na2vs0mg"},{"bike_id":"89461a40-1723-401a-a63b-7e5e8a7c8b91","system_id":"levelo_inurba_marseille","lat":43.299243,"lon":5.374807,"is_reserved":false,"is_disabled":false,"rental_uris":{"android":"levelo://app?vid=89461a40-1723-401a-a63b-7e5e8a7c8b91","ios":"levelo://app?vid=89461a40-1723-401a-a63b-7e5e8a7c8b91"},"vehicle_type_id":"4","last_reported":1720285577,"current_range_meters":25200,"station_id":"ce4bgjh2rcd13ifvqbg0","pricing_plan_id":"cebpf4jnsgd1na2vs0mg"},{"bike_id":"99201b3d-abb9-4cb7-8b2d-989d14b49e73","system_id":"levelo_inurba_marseille","lat":43.311722,"lon":5.387247,"is_reserved":false,"is_disabled":false,"rental_uris":{"android":"levelo://app?vid=99201b3d-abb9-4cb7-8b2d-989d14b49e73","ios":"levelo://app?vid=99201b3d-abb9-4cb7-8b2d-989d14b49e73"},"vehicle_type_id":"4","last_reported":1720285577,"current_range_meters":3200,"station_id":"ce4bgv12rcd13ifvqcp0","pricing_plan_id":"cebpf4jnsgd1na2vs0mg"},{"bike_id":"fc61b835-51c9-4ea3-a943-cad07f427fb1","system_id":"levelo_inurba_marseille","lat":43.310359,"lon":5.387111,"is_reserved":false,"is_disabled":false,"rental_uris":{"android":"levelo://app?vid=fc61b835-51c9-4ea3-a943-cad07f427fb1","ios":"levelo://app?vid=fc61b835-51c9-4ea3-a943-cad07f427fb1"},"vehicle_type_id":"4","last_reported":1720285577,"current_range_meters":800,"station_id":"","pricing_plan_id":"cebpf4jnsgd1na2vs0mg"},{"bike_id":"f2b637c7-40fa-4125-8706-0096523ba21b","system_id":"levelo_inurba_marseille","lat":43.322872,"lon":5.382756,"is_reserved":false,"is_disabled":false,"rental_uris":{"android":"levelo://app?vid=f2b637c7-40fa-4125-8706-0096523ba21b","ios":"levelo://app?vid=f2b637c7-40fa-4125-8706-0096523ba21b"},"vehicle_type_id":"4","last_reported":1720285577,"current_range_meters":13600,"station_id":"ce4bhr12rcd13ifvqhqg","pricing_plan_id":"cebpf4jnsgd1na2vs0mg"},{"bike_id":"7540c7d1-bf5f-48d6-91e1-1b86aaa5c3df","system_id":"levelo_inurba_marseille","lat":43.322872,"lon":5.382756,"is_reserved":false,"is_disabled":false,"rental_uris":{"android":"levelo://app?vid=7540c7d1-bf5f-48d6-91e1-1b86aaa5c3df","ios":"levelo://app?vid=7540c7d1-bf5f-48d6-91e1-1b86aaa5c3df"},"vehicle_type_id":"4","last_reported":1720285577,"current_range_meters":4800,"station_id":"ce4bhr12rcd13ifvqhqg","pricing_plan_id":"cebpf4jnsgd1na2vs0mg"},{"bike_id":"57f21258-4d19-4cd6-909d-28d5a46deebc","system_id":"levelo_inurba_marseille","lat":43.322872,"lon":5.382756,"is_reserved":false,"is_disabled":false,"rental_uris":{"android":"levelo://app?vid=57f21258-4d19-4cd6-909d-28d5a46deebc","ios":"levelo://app?vid=57f21258-4d19-4cd6-909d-28d5a46deebc"},"vehicle_type_id":"4","last_reported":1720285577,"current_range_meters":19200,"station_id":"ce4bhr12rcd13ifvqhqg","pricing_plan_id":"cebpf4jnsgd1na2vs0mg"},{"bike_id":"82fe9dae-0bd2-4692-876f-4d5ba1de45f5","system_id":"levelo_inurba_marseille","lat":43.322872,"lon":5.382756,"is_reserved":false,"is_disabled":false,"rental_uris":{"android":"levelo://app?vid=82fe9dae-0bd2-4692-876f-4d5ba1de45f5","ios":"levelo://app?vid=82fe9dae-0bd2-4692-876f-4d5ba1de45f5"},"vehicle_type_id":"4","last_reported":1720285577,"current_range_meters":18800,"station_id":"ce4bhr12rcd13ifvqhqg","pricing_plan_id":"cebpf4jnsgd1na2vs0mg"},{"bike_id":"d4ec22c2-40d4-4c88-92fe-ff3b5c553e5d","system_id":"levelo_inurba_marseille","lat":43.297163,"lon":5.365866,"is_reserved":false,"is_disabled":false,"rental_uris":{"android":"levelo://app?vid=d4ec22c2-40d4-4c88-92fe-ff3b5c553e5d","ios":"levelo://app?vid=d4ec22c2-40d4-4c88-92fe-ff3b5c553e5d"},"vehicle_type_id":"4","last_reported":1720285577,"current_range_meters":27600,"station_id":"ce4bgn12rcd13ifvqbt0","pricing_plan_id":"cebpf4jnsgd1na2vs0mg"},{"bike_id":"ea4e80a3-6c28-4724-b87d-fc5267f11bad","system_id":"levelo_inurba_marseille","lat":43.297163,"lon":5.365866,"is_reserved":false,"is_disabled":false,"rental_uris":{"android":"levelo://app?vid=ea4e80a3-6c28-4724-b87d-fc5267f11bad","ios":"levelo://app?vid=ea4e80a3-6c28-4724-b87d-fc5267f11bad"},"vehicle_type_id":"4","last_reported":1720285577,"current_range_meters":27200,"station_id":"ce4bgn12rcd13ifvqbt0","pricing_plan_id":"cebpf4jnsgd1na2vs0mg"},{"bike_id":"16b04613-3c99-4e12-ac47-e482d453b761","system_id":"levelo_inurba_marseille","lat":43.297163,"lon":5.365866,"is_reserved":false,"is_disabled":false,"rental_uris":{"android":"levelo://app?vid=16b04613-3c99-4e12-ac47-e482d453b761","ios":"levelo://app?vid=16b04613-3c99-4e12-ac47-e482d453b761"},"vehicle_type_id":"4","last_reported":1720285577,"current_range_meters":0,"station_id":"ce4bgn12rcd13ifvqbt0","pricing_plan_id":"cebpf4jnsgd1na2vs0mg"},{"bike_id":"964a8cca-b965-418c-8667-1bb77ae51c60","system_id":"levelo_inurba_marseille","lat":43.29709,"lon":5.36614,"is_reserved":false,"is_disabled":false,"rental_uris":{"android":"levelo://app?vid=964a8cca-b965-418c-8667-1bb77ae51c60","ios":"levelo://app?vid=964a8cca-b965-418c-8667-1bb77ae51c60"},"vehicle_type_id":"4","last_reported":1720285577,"current_range_meters":0,"station_id":"ce4bgn12rcd13ifvqbt0","pricing_plan_id":"cebpf4jnsgd1na2vs0mg"},{"bike_id":"b42bec56-0e20-4909-b44d-96cb82f68dbf","system_id":"levelo_inurba_marseille","lat":43.297163,"lon":5.365866,"is_reserved":false,"is_disabled":false,"rental_uris":{"android":"levelo://app?vid=b42bec56-0e20-4909-b44d-96cb82f68dbf","ios":"levelo://app?vid=b42bec56-0e20-4909-b44d-96cb82f68dbf"},"vehicle_type_id":"4","last_reported":1720285577,"current_range_meters":2800,"station_id":"ce4bgn12rcd13ifvqbt0","pricing_plan_id":"cebpf4jnsgd1na2vs0mg"},{"bike_id":"c4fe9d16-e699-41b5-b2b0-1315887f5ef0","system_id":"levelo_inurba_marseille","lat":43.29703,"lon":5.3661,"is_reserved":false,"is_disabled":false,"rental_uris":{"android":"levelo://app?vid=c4fe9d16-e699-41b5-b2b0-1315887f5ef0","ios":"levelo://app?vid=c4fe9d16-e699-41b5-b2b0-1315887f5ef0"},"vehicle_type_id":"4","last_reported":1720285577,"current_range_meters":0,"station_id":"ce4bgn12rcd13ifvqbt0","pricing_plan_id":"cebpf4jnsgd1na2vs0mg"},{"bike_id":"82f58178-8f89-479f-a33f-971fd10a7a10","system_id":"levelo_inurba_marseille","lat":43.298291,"lon":5.377028,"is_reserved":false,"is_disabled":false,"rental_uris":{"android":"levelo://app?vid=82f58178-8f89-479f-a33f-971fd10a7a10","ios":"levelo://app?vid=82f58178-8f89-479f-a33f-971fd10a7a10"},"vehicle_type_id":"4","last_reported":1720285577,"current_range_meters":800,"station_id":"","pricing_plan_id":"cebpf4jnsgd1na2vs0mg"},{"bike_id":"edb44196-7ba9-41cf-b884-4179c1c93eae","system_id":"levelo_inurba_marseille","lat":43.30044,"lon":5.38146,"is_reserved":false,"is_disabled":false,"rental_uris":{"android":"levelo://app?vid=edb44196-7ba9-41cf-b884-4179c1c93eae","ios":"levelo://app?vid=edb44196-7ba9-41cf-b884-4179c1c93eae"},"vehicle_type_id":"4","last_reported":1720285577,"current_range_meters":13600,"station_id":"","pricing_plan_id":"cebpf4jnsgd1na2vs0mg"},{"bike_id":"4ab09594-bf25-464e-987f-60a2a7ad0f3c","system_id":"levelo_inurba_marseille","lat":43.2968,"lon":5.37291,"is_reserved":false,"is_disabled":false,"rental_uris":{"android":"levelo://app?vid=4ab09594-bf25-464e-987f-60a2a7ad0f3c","ios":"levelo://app?vid=4ab09594-bf25-464e-987f-60a2a7ad0f3c"},"vehicle_type_id":"4","last_reported":1720285577,"current_range_meters":15600,"station_id":"ce4bgk12rcd13ifvqbj0","pricing_plan_id":"cebpf4jnsgd1na2vs0mg"},{"bike_id":"c9dba0f7-2c2f-46bc-b5ae-f6bb9450142c","system_id":"levelo_inurba_marseille","lat":43.30358,"lon":5.38595,"is_reserved":false,"is_disabled":false,"rental_uris":{"android":"levelo://app?vid=c9dba0f7-2c2f-46bc-b5ae-f6bb9450142c","ios":"levelo://app?vid=c9dba0f7-2c2f-46bc-b5ae-f6bb9450142c"},"vehicle_type_id":"4","last_reported":1720285577,"current_range_meters":16400,"station_id":"","pricing_plan_id":"cebpf4jnsgd1na2vs0mg"},{"bike_id":"b42ba4ea-1156-4d33-b885-d4b2c585400a","system_id":"levelo_inurba_marseille","lat":43.31117,"lon":5.38986,"is_reserved":false,"is_disabled":false,"rental_uris":{"android":"levelo://app?vid=b42ba4ea-1156-4d33-b885-d4b2c585400a","ios":"levelo://app?vid=b42ba4ea-1156-4d33-b885-d4b2c585400a"},"vehicle_type_id":"4","last_reported":1720285577,"current_range_meters":1200,"station_id":"","pricing_plan_id":"cebpf4jnsgd1na2vs0mg"},{"bike_id":"280525b4-850d-4349-9c72-4f70d3424eeb","system_id":"levelo_inurba_marseille","lat":43.327264,"lon":5.378522,"is_reserved":false,"is_disabled":false,"rental_uris":{"android":"levelo://app?vid=280525b4-850d-4349-9c72-4f70d3424eeb","ios":"levelo://app?vid=280525b4-850d-4349-9c72-4f70d3424eeb"},"vehicle_type_id":"4","last_reported":1720285577,"current_range_meters":4400,"station_id":"","pricing_plan_id":"cebpf4jnsgd1na2vs0mg"},{"bike_id":"cb68efe0-01c6-42f2-a769-4c58b49c2390","system_id":"levelo_inurba_marseille","lat":43.29622,"lon":5.37154,"is_reserved":false,"is_disabled":false,"rental_uris":{"android":"levelo://app?vid=cb68efe0-01c6-42f2-a769-4c58b49c2390","ios":"levelo://app?vid=cb68efe0-01c6-42f2-a769-4c58b49c2390"},"vehicle_type_id":"4","last_reported":1720285577,"current_range_meters":0,"station_id":"","pricing_plan_id":"cebpf4jnsgd1na2vs0mg"},{"bike_id":"21367832-a162-4761-9c6c-ee5ed9a801c1","system_id":"levelo_inurba_marseille","lat":43.299028,"lon":5.381509,"is_reserved":false,"is_disabled":false,"rental_uris":{"android":"levelo://app?vid=21367832-a162-4761-9c6c-ee5ed9a801c1","ios":"levelo://app?vid=21367832-a162-4761-9c6c-ee5ed9a801c1"},"vehicle_type_id":"4","last_reported":1720285577,"current_range_meters":23600,"station_id":"ce4bgj12rcd13ifvqbc0","pricing_plan_id":"cebpf4jnsgd1na2vs0mg"},{"bike_id":"e16545ff-5379-4a5b-bdb0-8bedf8c0c79d","system_id":"levelo_inurba_marseille","lat":43.296935,"lon":5.376544,"is_reserved":false,"is_disabled":false,"rental_uris":{"android":"levelo://app?vid=e16545ff-5379-4a5b-bdb0-8bedf8c0c79d","ios":"levelo://app?vid=e16545ff-5379-4a5b-bdb0-8bedf8c0c79d"},"vehicle_type_id":"4","last_reported":1720285577,"current_range_meters":1600,"station_id":"ce4bgkh2rcd13ifvqbl0","pricing_plan_id":"cebpf4jnsgd1na2vs0mg"},{"bike_id":"428c6648-71c3-49d9-aac5-1216ae80f538","system_id":"levelo_inurba_marseille","lat":43.309589,"lon":5.390258,"is_reserved":false,"is_disabled":false,"rental_uris":{"android":"levelo://app?vid=428c6648-71c3-49d9-aac5-1216ae80f538","ios":"levelo://app?vid=428c6648-71c3-49d9-aac5-1216ae80f538"},"vehicle_type_id":"4","last_reported":1720285577,"current_range_meters":27600,"station_id":"ce4bgup2rcd13ifvqco0","pricing_plan_id":"cebpf4jnsgd1na2vs0mg"},{"bike_id":"fadb5cbe-4bc7-4194-9808-080c39aea7ac","system_id":"levelo_inurba_marseille","lat":43.317557,"lon":5.390173,"is_reserved":false,"is_disabled":false,"rental_uris":{"android":"levelo://app?vid=fadb5cbe-4bc7-4194-9808-080c39aea7ac","ios":"levelo://app?vid=fadb5cbe-4bc7-4194-9808-080c39aea7ac"},"vehicle_type_id":"4","last_reported":1720285577,"current_range_meters":29600,"station_id":"ce4bhqp2rcd13ifvqhng","pricing_plan_id":"cebpf4jnsgd1na2vs0mg"},{"bike_id":"e513d7b2-3b78-4f18-88cf-496adffcff6e","system_id":"levelo_inurba_marseille","lat":43.298037,"lon":5.381066,"is_reserved":false,"is_disabled":false,"rental_uris":{"android":"levelo://app?vid=e513d7b2-3b78-4f18-88cf-496adffcff6e","ios":"levelo://app?vid=e513d7b2-3b78-4f18-88cf-496adffcff6e"},"vehicle_type_id":"4","last_reported":1720285577,"current_range_meters":9600,"station_id":"ce4bgip2rcd13ifvqbb0","pricing_plan_id":"cebpf4jnsgd1na2vs0mg"},{"bike_id":"81bfa829-dacc-42c7-a43c-88147850b803","system_id":"levelo_inurba_marseille","lat":43.29789,"lon":5.38096,"is_reserved":false,"is_disabled":false,"rental_uris":{"android":"levelo://app?vid=81bfa829-dacc-42c7-a43c-88147850b803","ios":"levelo://app?vid=81bfa829-dacc-42c7-a43c-88147850b803"},"vehicle_type_id":"4","last_reported":1720285577,"current_range_meters":0,"station_id":"ce4bgip2rcd13ifvqbb0","pricing_plan_id":"cebpf4jnsgd1na2vs0mg"},{"bike_id":"642a4071-7f4d-49a8-a71e-99c1c6c013af","system_id":"levelo_inurba_marseille","lat":43.298037,"lon":5.381066,"is_reserved":false,"is_disabled":false,"rental_uris":{"android":"levelo://app?vid=642a4071-7f4d-49a8-a71e-99c1c6c013af","ios":"levelo://app?vid=642a4071-7f4d-49a8-a71e-99c1c6c013af"},"vehicle_type_id":"4","last_reported":1720285577,"current_range_meters":9600,"station_id":"ce4bgip2rcd13ifvqbb0","pricing_plan_id":"cebpf4jnsgd1na2vs0mg"},{"bike_id":"565fc2b7-6dfe-4a67-8a08-0d9b1170e99e","system_id":"levelo_inurba_marseille","lat":43.29625,"lon":5.37705,"is_reserved":false,"is_disabled":false,"rental_uris":{"android":"levelo://app?vid=565fc2b7-6dfe-4a67-8a08-0d9b1170e99e","ios":"levelo://app?vid=565fc2b7-6dfe-4a67-8a08-0d9b1170e99e"},"vehicle_type_id":"4","last_reported":1720285577,"current_range_meters":0,"station_id":"ce4bgi92rcd13ifvqb90","pricing_plan_id":"cebpf4jnsgd1na2vs0mg"},{"bike_id":"80e72770-e95a-4c81-9c75-c3323d9107d7","system_id":"levelo_inurba_marseille","lat":43.296277,"lon":5.377108,"is_reserved":false,"is_disabled":false,"rental_uris":{"android":"levelo://app?vid=80e72770-e95a-4c81-9c75-c3323d9107d7","ios":"levelo://app?vid=80e72770-e95a-4c81-9c75-c3323d9107d7"},"vehicle_type_id":"4","last_reported":1720285577,"current_range_meters":0,"station_id":"ce4bgi92rcd13ifvqb90","pricing_plan_id":"cebpf4jnsgd1na2vs0mg"},{"bike_id":"db3e0710-a5de-4824-9fcf-dc277eeae2d3","system_id":"levelo_inurba_marseille","lat":43.299707,"lon":5.384859,"is_reserved":false,"is_disabled":false,"rental_uris":{"android":"levelo://app?vid=db3e0710-a5de-4824-9fcf-dc277eeae2d3","ios":"levelo://app?vid=db3e0710-a5de-4824-9fcf-dc277eeae2d3"},"vehicle_type_id":"4","last_reported":1720285577,"current_range_meters":2400,"station_id":"ce4bgj92rcd13ifvqbd0","pricing_plan_id":"cebpf4jnsgd1na2vs0mg"},{"bike_id":"41e28b16-3ded-4f62-8f61-b14688c336aa","system_id":"levelo_inurba_marseille","lat":43.295279,"lon":5.375048,"is_reserved":false,"is_disabled":false,"rental_uris":{"android":"levelo://app?vid=41e28b16-3ded-4f62-8f61-b14688c336aa","ios":"levelo://app?vid=41e28b16-3ded-4f62-8f61-b14688c336aa"},"vehicle_type_id":"4","last_reported":1720285577,"current_range_meters":6800,"station_id":"ce4bgkp2rcd13ifvqbmg","pricing_plan_id":"cebpf4jnsgd1na2vs0mg"},{"bike_id":"90728000-19ff-4f93-b73f-ba4bd3c878c3","system_id":"levelo_inurba_marseille","lat":43.299717,"lon":5.384845,"is_reserved":false,"is_disabled":false,"rental_uris":{"android":"levelo://app?vid=90728000-19ff-4f93-b73f-ba4bd3c878c3","ios":"levelo://app?vid=90728000-19ff-4f93-b73f-ba4bd3c878c3"},"vehicle_type_id":"4","last_reported":1720285577,"current_range_meters":0,"station_id":"ce4bgj92rcd13ifvqbd0","pricing_plan_id":"cebpf4jnsgd1na2vs0mg"},{"bike_id":"aa1e3ff9-5cee-43bb-8d41-d407e760d1eb","system_id":"levelo_inurba_marseille","lat":43.299724,"lon":5.384848,"is_reserved":false,"is_disabled":false,"rental_uris":{"android":"levelo://app?vid=aa1e3ff9-5cee-43bb-8d41-d407e760d1eb","ios":"levelo://app?vid=aa1e3ff9-5cee-43bb-8d41-d407e760d1eb"},"vehicle_type_id":"4","last_reported":1720285577,"current_range_meters":5600,"station_id":"ce4bgj92rcd13ifvqbd0","pricing_plan_id":"cebpf4jnsgd1na2vs0mg"},{"bike_id":"05c216f0-8d77-4208-ac42-a509af58d4ba","system_id":"levelo_inurba_marseille","lat":43.299724,"lon":5.384848,"is_reserved":false,"is_disabled":false,"rental_uris":{"android":"levelo://app?vid=05c216f0-8d77-4208-ac42-a509af58d4ba","ios":"levelo://app?vid=05c216f0-8d77-4208-ac42-a509af58d4ba"},"vehicle_type_id":"4","last_reported":1720285577,"current_range_meters":16800,"station_id":"ce4bgj92rcd13ifvqbd0","pricing_plan_id":"cebpf4jnsgd1na2vs0mg"},{"bike_id":"be7c0675-86b4-4dda-ab89-a4e3c9e86e80","system_id":"levelo_inurba_marseille","lat":43.299724,"lon":5.384848,"is_reserved":false,"is_disabled":false,"rental_uris":{"android":"levelo://app?vid=be7c0675-86b4-4dda-ab89-a4e3c9e86e80","ios":"levelo://app?vid=be7c0675-86b4-4dda-ab89-a4e3c9e86e80"},"vehicle_type_id":"4","last_reported":1720285577,"current_range_meters":11600,"station_id":"ce4bgj92rcd13ifvqbd0","pricing_plan_id":"cebpf4jnsgd1na2vs0mg"},{"bike_id":"c0f028df-033d-4f8d-9ad0-bc0cdcdb6045","system_id":"levelo_inurba_marseille","lat":43.299724,"lon":5.384848,"is_reserved":false,"is_disabled":false,"rental_uris":{"android":"levelo://app?vid=c0f028df-033d-4f8d-9ad0-bc0cdcdb6045","ios":"levelo://app?vid=c0f028df-033d-4f8d-9ad0-bc0cdcdb6045"},"vehicle_type_id":"4","last_reported":1720285577,"current_range_meters":400,"station_id":"ce4bgj92rcd13ifvqbd0","pricing_plan_id":"cebpf4jnsgd1na2vs0mg"},{"bike_id":"4fc8b0a9-6d76-4195-b2f4-143bd4479b36","system_id":"levelo_inurba_marseille","lat":43.29489,"lon":5.3743,"is_reserved":false,"is_disabled":false,"rental_uris":{"android":"levelo://app?vid=4fc8b0a9-6d76-4195-b2f4-143bd4479b36","ios":"levelo://app?vid=4fc8b0a9-6d76-4195-b2f4-143bd4479b36"},"vehicle_type_id":"4","last_reported":1720285577,"current_range_meters":0,"station_id":"","pricing_plan_id":"cebpf4jnsgd1na2vs0mg"},{"bike_id":"f39b4d4a-451c-4a19-87a9-7e34db5ccbaf","system_id":"levelo_inurba_marseille","lat":43.29658,"lon":5.37977,"is_reserved":false,"is_disabled":false,"rental_uris":{"android":"levelo://app?vid=f39b4d4a-451c-4a19-87a9-7e34db5ccbaf","ios":"levelo://app?vid=f39b4d4a-451c-4a19-87a9-7e34db5ccbaf"},"vehicle_type_id":"4","last_reported":1720285577,"current_range_meters":11600,"station_id":"","pricing_plan_id":"cebpf4jnsgd1na2vs0mg"},{"bike_id":"c68718ba-3358-4e9b-bab4-752b33eb84e2","system_id":"levelo_inurba_marseille","lat":43.301396,"lon":5.387812,"is_reserved":false,"is_disabled":false,"rental_uris":{"android":"levelo://app?vid=c68718ba-3358-4e9b-bab4-752b33eb84e2","ios":"levelo://app?vid=c68718ba-3358-4e9b-bab4-752b33eb84e2"},"vehicle_type_id":"4","last_reported":1720285577,"current_range_meters":30400,"station_id":"ce4bghh2rcd13ifvqb60","pricing_plan_id":"cebpf4jnsgd1na2vs0mg"},{"bike_id":"9cb07fed-d0c6-4094-8dec-1278e2b99ccd","system_id":"levelo_inurba_marseille","lat":43.301396,"lon":5.387812,"is_reserved":false,"is_disabled":false,"rental_uris":{"android":"levelo://app?vid=9cb07fed-d0c6-4094-8dec-1278e2b99ccd","ios":"levelo://app?vid=9cb07fed-d0c6-4094-8dec-1278e2b99ccd"},"vehicle_type_id":"4","last_reported":1720285577,"current_range_meters":20400,"station_id":"ce4bghh2rcd13ifvqb60","pricing_plan_id":"cebpf4jnsgd1na2vs0mg"},{"bike_id":"db69fb0c-c138-425b-b779-2869460b8e6a","system_id":"levelo_inurba_marseille","lat":43.29642,"lon":5.38026,"is_reserved":false,"is_disabled":false,"rental_uris":{"android":"levelo://app?vid=db69fb0c-c138-425b-b779-2869460b8e6a","ios":"levelo://app?vid=db69fb0c-c138-425b-b779-2869460b8e6a"},"vehicle_type_id":"4","last_reported":1720285577,"current_range_meters":16800,"station_id":"","pricing_plan_id":"cebpf4jnsgd1na2vs0mg"},{"bike_id":"5ea0cda3-2cfb-485e-b18a-be10650f2015","system_id":"levelo_inurba_marseille","lat":43.32361,"lon":5.38875,"is_reserved":false,"is_disabled":false,"rental_uris":{"android":"levelo://app?vid=5ea0cda3-2cfb-485e-b18a-be10650f2015","ios":"levelo://app?vid=5ea0cda3-2cfb-485e-b18a-be10650f2015"},"vehicle_type_id":"4","last_reported":1720285577,"current_range_meters":5200,"station_id":"ce4bhqp2rcd13ifvqhog","pricing_plan_id":"cebpf4jnsgd1na2vs0mg"},{"bike_id":"27357795-74f6-4274-9e57-bc876736a0ef","system_id":"levelo_inurba_marseille","lat":43.32367,"lon":5.388836,"is_reserved":false,"is_disabled":false,"rental_uris":{"android":"levelo://app?vid=27357795-74f6-4274-9e57-bc876736a0ef","ios":"levelo://app?vid=27357795-74f6-4274-9e57-bc876736a0ef"},"vehicle_type_id":"4","last_reported":1720285577,"current_range_meters":400,"station_id":"ce4bhqp2rcd13ifvqhog","pricing_plan_id":"cebpf4jnsgd1na2vs0mg"},{"bike_id":"a033c965-b3f0-4b82-93cc-44c3644a816f","system_id":"levelo_inurba_marseille","lat":43.32367,"lon":5.388836,"is_reserved":false,"is_disabled":false,"rental_uris":{"android":"levelo://app?vid=a033c965-b3f0-4b82-93cc-44c3644a816f","ios":"levelo://app?vid=a033c965-b3f0-4b82-93cc-44c3644a816f"},"vehicle_type_id":"4","last_reported":1720285577,"current_range_meters":16400,"station_id":"ce4bhqp2rcd13ifvqhog","pricing_plan_id":"cebpf4jnsgd1na2vs0mg"},{"bike_id":"238a7d0c-d680-4ba3-825c-3a6cb3ec2c9d","system_id":"levelo_inurba_marseille","lat":43.32364,"lon":5.38884,"is_reserved":false,"is_disabled":false,"rental_uris":{"android":"levelo://app?vid=238a7d0c-d680-4ba3-825c-3a6cb3ec2c9d","ios":"levelo://app?vid=238a7d0c-d680-4ba3-825c-3a6cb3ec2c9d"},"vehicle_type_id":"4","last_reported":1720285577,"current_range_meters":3200,"station_id":"ce4bhqp2rcd13ifvqhog","pricing_plan_id":"cebpf4jnsgd1na2vs0mg"},{"bike_id":"b90fe265-f9fd-473b-9ab0-a0c5fdf53401","system_id":"levelo_inurba_marseille","lat":43.32367,"lon":5.38882,"is_reserved":false,"is_disabled":false,"rental_uris":{"android":"levelo://app?vid=b90fe265-f9fd-473b-9ab0-a0c5fdf53401","ios":"levelo://app?vid=b90fe265-f9fd-473b-9ab0-a0c5fdf53401"},"vehicle_type_id":"4","last_reported":1720285577,"current_range_meters":0,"station_id":"ce4bhqp2rcd13ifvqhog","pricing_plan_id":"cebpf4jnsgd1na2vs0mg"},{"bike_id":"e0a7ec7c-d00c-4580-983b-eac419aa5fb5","system_id":"levelo_inurba_marseille","lat":43.32367,"lon":5.388836,"is_reserved":false,"is_disabled":false,"rental_uris":{"android":"levelo://app?vid=e0a7ec7c-d00c-4580-983b-eac419aa5fb5","ios":"levelo://app?vid=e0a7ec7c-d00c-4580-983b-eac419aa5fb5"},"vehicle_type_id":"4","last_reported":1720285577,"current_range_meters":4000,"station_id":"ce4bhqp2rcd13ifvqhog","pricing_plan_id":"cebpf4jnsgd1na2vs0mg"},{"bike_id":"e3cfe1ca-c837-47c4-b61f-a5b972f44058","system_id":"levelo_inurba_marseille","lat":43.32368,"lon":5.38885,"is_reserved":false,"is_disabled":false,"rental_uris":{"android":"levelo://app?vid=e3cfe1ca-c837-47c4-b61f-a5b972f44058","ios":"levelo://app?vid=e3cfe1ca-c837-47c4-b61f-a5b972f44058"},"vehicle_type_id":"4","last_reported":1720285577,"current_range_meters":800,"station_id":"ce4bhqp2rcd13ifvqhog","pricing_plan_id":"cebpf4jnsgd1na2vs0mg"},{"bike_id":"c85c4811-c21b-4323-a635-b5a4dc3b3dd9","system_id":"levelo_inurba_marseille","lat":43.32367,"lon":5.38889,"is_reserved":false,"is_disabled":false,"rental_uris":{"android":"levelo://app?vid=c85c4811-c21b-4323-a635-b5a4dc3b3dd9","ios":"levelo://app?vid=c85c4811-c21b-4323-a635-b5a4dc3b3dd9"},"vehicle_type_id":"4","last_reported":1720285577,"current_range_meters":2000,"station_id":"ce4bhqp2rcd13ifvqhog","pricing_plan_id":"cebpf4jnsgd1na2vs0mg"},{"bike_id":"a2dde7ae-8d1a-4b3b-8e17-921b4164655a","system_id":"levelo_inurba_marseille","lat":43.29382,"lon":5.37301,"is_reserved":false,"is_disabled":false,"rental_uris":{"android":"levelo://app?vid=a2dde7ae-8d1a-4b3b-8e17-921b4164655a","ios":"levelo://app?vid=a2dde7ae-8d1a-4b3b-8e17-921b4164655a"},"vehicle_type_id":"4","last_reported":1720285577,"current_range_meters":4800,"station_id":"","pricing_plan_id":"cebpf4jnsgd1na2vs0mg"},{"bike_id":"e0563e1f-0149-41f0-9695-7384eab361a1","system_id":"levelo_inurba_marseille","lat":43.29602,"lon":5.381084,"is_reserved":false,"is_disabled":false,"rental_uris":{"android":"levelo://app?vid=e0563e1f-0149-41f0-9695-7384eab361a1","ios":"levelo://app?vid=e0563e1f-0149-41f0-9695-7384eab361a1"},"vehicle_type_id":"4","last_reported":1720285577,"current_range_meters":23600,"station_id":"ce4bgl12rcd13ifvqbo0","pricing_plan_id":"cebpf4jnsgd1na2vs0mg"},{"bike_id":"45184ba7-af22-4556-ad26-2d42a15c9323","system_id":"levelo_inurba_marseille","lat":43.293259,"lon":5.371586,"is_reserved":false,"is_disabled":false,"rental_uris":{"android":"levelo://app?vid=45184ba7-af22-4556-ad26-2d42a15c9323","ios":"levelo://app?vid=45184ba7-af22-4556-ad26-2d42a15c9323"},"vehicle_type_id":"4","last_reported":1720285577,"current_range_meters":800,"station_id":"ce4bgh92rcd13ifvqb40","pricing_plan_id":"cebpf4jnsgd1na2vs0mg"},{"bike_id":"9efbb27a-1c89-451b-b0d5-22b2b85ba738","system_id":"levelo_inurba_marseille","lat":43.305994,"lon":5.393687,"is_reserved":false,"is_disabled":false,"rental_uris":{"android":"levelo://app?vid=9efbb27a-1c89-451b-b0d5-22b2b85ba738","ios":"levelo://app?vid=9efbb27a-1c89-451b-b0d5-22b2b85ba738"},"vehicle_type_id":"4","last_reported":1720285577,"current_range_meters":17600,"station_id":"ce4bh0p2rcd13ifvqd80","pricing_plan_id":"cebpf4jnsgd1na2vs0mg"},{"bike_id":"87db3d36-e0b0-42c9-a08a-71e3cd0b1051","system_id":"levelo_inurba_marseille","lat":43.305994,"lon":5.393687,"is_reserved":false,"is_disabled":false,"rental_uris":{"android":"levelo://app?vid=87db3d36-e0b0-42c9-a08a-71e3cd0b1051","ios":"levelo://app?vid=87db3d36-e0b0-42c9-a08a-71e3cd0b1051"},"vehicle_type_id":"4","last_reported":1720285577,"current_range_meters":31200,"station_id":"ce4bh0p2rcd13ifvqd80","pricing_plan_id":"cebpf4jnsgd1na2vs0mg"},{"bike_id":"dd035f9b-6fb2-49e8-a956-266348ee54b1","system_id":"levelo_inurba_marseille","lat":43.305994,"lon":5.393687,"is_reserved":false,"is_disabled":false,"rental_uris":{"android":"levelo://app?vid=dd035f9b-6fb2-49e8-a956-266348ee54b1","ios":"levelo://app?vid=dd035f9b-6fb2-49e8-a956-266348ee54b1"},"vehicle_type_id":"4","last_reported":1720285577,"current_range_meters":31200,"station_id":"ce4bh0p2rcd13ifvqd80","pricing_plan_id":"cebpf4jnsgd1na2vs0mg"},{"bike_id":"3b1919f0-fc4b-422d-82a9-16fae40aa958","system_id":"levelo_inurba_marseille","lat":43.305994,"lon":5.393687,"is_reserved":false,"is_disabled":false,"rental_uris":{"android":"levelo://app?vid=3b1919f0-fc4b-422d-82a9-16fae40aa958","ios":"levelo://app?vid=3b1919f0-fc4b-422d-82a9-16fae40aa958"},"vehicle_type_id":"4","last_reported":1720285577,"current_range_meters":31200,"station_id":"ce4bh0p2rcd13ifvqd80","pricing_plan_id":"cebpf4jnsgd1na2vs0mg"},{"bike_id":"5bdb9acc-36b9-4d45-b8d8-19cab4a63d39","system_id":"levelo_inurba_marseille","lat":43.30296,"lon":5.39188,"is_reserved":false,"is_disabled":false,"rental_uris":{"android":"levelo://app?vid=5bdb9acc-36b9-4d45-b8d8-19cab4a63d39","ios":"levelo://app?vid=5bdb9acc-36b9-4d45-b8d8-19cab4a63d39"},"vehicle_type_id":"4","last_reported":1720285577,"current_range_meters":0,"station_id":"ce4bgkh2rcd13ifvqbk0","pricing_plan_id":"cebpf4jnsgd1na2vs0mg"},{"bike_id":"586f304c-be91-4d4d-9723-e3edc5d38daf","system_id":"levelo_inurba_marseille","lat":43.303002,"lon":5.392142,"is_reserved":false,"is_disabled":false,"rental_uris":{"android":"levelo://app?vid=586f304c-be91-4d4d-9723-e3edc5d38daf","ios":"levelo://app?vid=586f304c-be91-4d4d-9723-e3edc5d38daf"},"vehicle_type_id":"4","last_reported":1720285577,"current_range_meters":0,"station_id":"ce4bgkh2rcd13ifvqbk0","pricing_plan_id":"cebpf4jnsgd1na2vs0mg"},{"bike_id":"67b89616-e8d9-4455-a132-f50aa78586c5","system_id":"levelo_inurba_marseille","lat":43.302992,"lon":5.392136,"is_reserved":false,"is_disabled":false,"rental_uris":{"android":"levelo://app?vid=67b89616-e8d9-4455-a132-f50aa78586c5","ios":"levelo://app?vid=67b89616-e8d9-4455-a132-f50aa78586c5"},"vehicle_type_id":"4","last_reported":1720285577,"current_range_meters":8000,"station_id":"ce4bgkh2rcd13ifvqbk0","pricing_plan_id":"cebpf4jnsgd1na2vs0mg"},{"bike_id":"fdd69daa-3f7c-45c4-8230-22d04babb4f2","system_id":"levelo_inurba_marseille","lat":43.303064,"lon":5.392142,"is_reserved":false,"is_disabled":false,"rental_uris":{"android":"levelo://app?vid=fdd69daa-3f7c-45c4-8230-22d04babb4f2","ios":"levelo://app?vid=fdd69daa-3f7c-45c4-8230-22d04babb4f2"},"vehicle_type_id":"4","last_reported":1720285577,"current_range_meters":31200,"station_id":"","pricing_plan_id":"cebpf4jnsgd1na2vs0mg"},{"bike_id":"5d2fca71-c028-40c8-b6df-91bfaa4dd3b8","system_id":"levelo_inurba_marseille","lat":43.302992,"lon":5.392136,"is_reserved":false,"is_disabled":false,"rental_uris":{"android":"levelo://app?vid=5d2fca71-c028-40c8-b6df-91bfaa4dd3b8","ios":"levelo://app?vid=5d2fca71-c028-40c8-b6df-91bfaa4dd3b8"},"vehicle_type_id":"4","last_reported":1720285577,"current_range_meters":23600,"station_id":"ce4bgkh2rcd13ifvqbk0","pricing_plan_id":"cebpf4jnsgd1na2vs0mg"},{"bike_id":"02da1b60-d3ac-4e6a-bf9d-d993ac1f003f","system_id":"levelo_inurba_marseille","lat":43.302992,"lon":5.392136,"is_reserved":false,"is_disabled":false,"rental_uris":{"android":"levelo://app?vid=02da1b60-d3ac-4e6a-bf9d-d993ac1f003f","ios":"levelo://app?vid=02da1b60-d3ac-4e6a-bf9d-d993ac1f003f"},"vehicle_type_id":"4","last_reported":1720285577,"current_range_meters":6400,"station_id":"ce4bgkh2rcd13ifvqbk0","pricing_plan_id":"cebpf4jnsgd1na2vs0mg"},{"bike_id":"8dcd390e-b3f7-43ee-859d-6ae5c9470013","system_id":"levelo_inurba_marseille","lat":43.300852,"lon":5.390859,"is_reserved":false,"is_disabled":false,"rental_uris":{"android":"levelo://app?vid=8dcd390e-b3f7-43ee-859d-6ae5c9470013","ios":"levelo://app?vid=8dcd390e-b3f7-43ee-859d-6ae5c9470013"},"vehicle_type_id":"4","last_reported":1720285577,"current_range_meters":6000,"station_id":"ce4bh192rcd13ifvqdb0","pricing_plan_id":"cebpf4jnsgd1na2vs0mg"},{"bike_id":"1c3b4199-0cb5-484f-9f84-3e660bf3379d","system_id":"levelo_inurba_marseille","lat":43.292311,"lon":5.360731,"is_reserved":false,"is_disabled":false,"rental_uris":{"android":"levelo://app?vid=1c3b4199-0cb5-484f-9f84-3e660bf3379d","ios":"levelo://app?vid=1c3b4199-0cb5-484f-9f84-3e660bf3379d"},"vehicle_type_id":"4","last_reported":1720285577,"current_range_meters":0,"station_id":"ce4bhbh2rcd13ifvqeqg","pricing_plan_id":"cebpf4jnsgd1na2vs0mg"},{"bike_id":"dd71bd7f-d778-411e-a820-fbc1c9026bdb","system_id":"levelo_inurba_marseille","lat":43.292311,"lon":5.360731,"is_reserved":false,"is_disabled":false,"rental_uris":{"android":"levelo://app?vid=dd71bd7f-d778-411e-a820-fbc1c9026bdb","ios":"levelo://app?vid=dd71bd7f-d778-411e-a820-fbc1c9026bdb"},"vehicle_type_id":"4","last_reported":1720285577,"current_range_meters":22400,"station_id":"ce4bhbh2rcd13ifvqeqg","pricing_plan_id":"cebpf4jnsgd1na2vs0mg"},{"bike_id":"708e5a28-5589-4cd7-9b93-e6ba96af6bfd","system_id":"levelo_inurba_marseille","lat":43.313291,"lon":5.396838,"is_reserved":false,"is_disabled":false,"rental_uris":{"android":"levelo://app?vid=708e5a28-5589-4cd7-9b93-e6ba96af6bfd","ios":"levelo://app?vid=708e5a28-5589-4cd7-9b93-e6ba96af6bfd"},"vehicle_type_id":"4","last_reported":1720285577,"current_range_meters":14000,"station_id":"ce4bgvp2rcd13ifvqcu0","pricing_plan_id":"cebpf4jnsgd1na2vs0mg"},{"bike_id":"41722e43-1280-4c99-b67b-77d09cdcf635","system_id":"levelo_inurba_marseille","lat":43.309047,"lon":5.396551,"is_reserved":false,"is_disabled":false,"rental_uris":{"android":"levelo://app?vid=41722e43-1280-4c99-b67b-77d09cdcf635","ios":"levelo://app?vid=41722e43-1280-4c99-b67b-77d09cdcf635"},"vehicle_type_id":"4","last_reported":1720285577,"current_range_meters":6800,"station_id":"ce4bh012rcd13ifvqcv0","pricing_plan_id":"cebpf4jnsgd1na2vs0mg"},{"bike_id":"190f8051-8e45-4f2b-8d08-72af442b1a84","system_id":"levelo_inurba_marseille","lat":43.309038,"lon":5.396546,"is_reserved":false,"is_disabled":false,"rental_uris":{"android":"levelo://app?vid=190f8051-8e45-4f2b-8d08-72af442b1a84","ios":"levelo://app?vid=190f8051-8e45-4f2b-8d08-72af442b1a84"},"vehicle_type_id":"4","last_reported":1720285577,"current_range_meters":18800,"station_id":"ce4bh012rcd13ifvqcv0","pricing_plan_id":"cebpf4jnsgd1na2vs0mg"},{"bike_id":"49261288-fb85-4976-bffa-87abd64f1bda","system_id":"levelo_inurba_marseille","lat":43.31326,"lon":5.39693,"is_reserved":false,"is_disabled":false,"rental_uris":{"android":"levelo://app?vid=49261288-fb85-4976-bffa-87abd64f1bda","ios":"levelo://app?vid=49261288-fb85-4976-bffa-87abd64f1bda"},"vehicle_type_id":"4","last_reported":1720285577,"current_range_meters":31200,"station_id":"ce4bgvp2rcd13ifvqcu0","pricing_plan_id":"cebpf4jnsgd1na2vs0mg"},{"bike_id":"322c3fa5-8b2c-443d-a8b6-4b76d4642525","system_id":"levelo_inurba_marseille","lat":43.313291,"lon":5.396838,"is_reserved":false,"is_disabled":false,"rental_uris":{"android":"levelo://app?vid=322c3fa5-8b2c-443d-a8b6-4b76d4642525","ios":"levelo://app?vid=322c3fa5-8b2c-443d-a8b6-4b76d4642525"},"vehicle_type_id":"4","last_reported":1720285577,"current_range_meters":30000,"station_id":"ce4bgvp2rcd13ifvqcu0","pricing_plan_id":"cebpf4jnsgd1na2vs0mg"},{"bike_id":"b81fa1d3-655b-4e8e-8021-8bb788f65b2f","system_id":"levelo_inurba_marseille","lat":43.31334,"lon":5.39693,"is_reserved":false,"is_disabled":false,"rental_uris":{"android":"levelo://app?vid=b81fa1d3-655b-4e8e-8021-8bb788f65b2f","ios":"levelo://app?vid=b81fa1d3-655b-4e8e-8021-8bb788f65b2f"},"vehicle_type_id":"4","last_reported":1720285577,"current_range_meters":18400,"station_id":"ce4bgvp2rcd13ifvqcu0","pricing_plan_id":"cebpf4jnsgd1na2vs0mg"},{"bike_id":"3498a9b4-4929-4da0-9622-aa79857bbdcc","system_id":"levelo_inurba_marseille","lat":43.31329,"lon":5.39694,"is_reserved":false,"is_disabled":false,"rental_uris":{"android":"levelo://app?vid=3498a9b4-4929-4da0-9622-aa79857bbdcc","ios":"levelo://app?vid=3498a9b4-4929-4da0-9622-aa79857bbdcc"},"vehicle_type_id":"4","last_reported":1720285577,"current_range_meters":3200,"station_id":"ce4bgvp2rcd13ifvqcu0","pricing_plan_id":"cebpf4jnsgd1na2vs0mg"},{"bike_id":"86b59337-2252-48fc-bd0c-0d4d6ae9a5b7","system_id":"levelo_inurba_marseille","lat":43.309047,"lon":5.396551,"is_reserved":false,"is_disabled":false,"rental_uris":{"android":"levelo://app?vid=86b59337-2252-48fc-bd0c-0d4d6ae9a5b7","ios":"levelo://app?vid=86b59337-2252-48fc-bd0c-0d4d6ae9a5b7"},"vehicle_type_id":"4","last_reported":1720285577,"current_range_meters":1600,"station_id":"ce4bh012rcd13ifvqcv0","pricing_plan_id":"cebpf4jnsgd1na2vs0mg"},{"bike_id":"758305cc-17ae-4f19-9476-cfb1f225ba4d","system_id":"levelo_inurba_marseille","lat":43.313291,"lon":5.396838,"is_reserved":false,"is_disabled":false,"rental_uris":{"android":"levelo://app?vid=758305cc-17ae-4f19-9476-cfb1f225ba4d","ios":"levelo://app?vid=758305cc-17ae-4f19-9476-cfb1f225ba4d"},"vehicle_type_id":"4","last_reported":1720285577,"current_range_meters":18400,"station_id":"ce4bgvp2rcd13ifvqcu0","pricing_plan_id":"cebpf4jnsgd1na2vs0mg"},{"bike_id":"63f6d2cf-b353-4192-9ebd-3d712244656a","system_id":"levelo_inurba_marseille","lat":43.309047,"lon":5.396551,"is_reserved":false,"is_disabled":false,"rental_uris":{"android":"levelo://app?vid=63f6d2cf-b353-4192-9ebd-3d712244656a","ios":"levelo://app?vid=63f6d2cf-b353-4192-9ebd-3d712244656a"},"vehicle_type_id":"4","last_reported":1720285577,"current_range_meters":22000,"station_id":"ce4bh012rcd13ifvqcv0","pricing_plan_id":"cebpf4jnsgd1na2vs0mg"},{"bike_id":"de0647f1-5a69-44b2-baf1-491e2ec1e446","system_id":"levelo_inurba_marseille","lat":43.31328,"lon":5.39696,"is_reserved":false,"is_disabled":false,"rental_uris":{"android":"levelo://app?vid=de0647f1-5a69-44b2-baf1-491e2ec1e446","ios":"levelo://app?vid=de0647f1-5a69-44b2-baf1-491e2ec1e446"},"vehicle_type_id":"4","last_reported":1720285577,"current_range_meters":16800,"station_id":"ce4bgvp2rcd13ifvqcu0","pricing_plan_id":"cebpf4jnsgd1na2vs0mg"},{"bike_id":"af905e0a-418a-41d1-b2b1-7491a1c111af","system_id":"levelo_inurba_marseille","lat":43.31328,"lon":5.39697,"is_reserved":false,"is_disabled":false,"rental_uris":{"android":"levelo://app?vid=af905e0a-418a-41d1-b2b1-7491a1c111af","ios":"levelo://app?vid=af905e0a-418a-41d1-b2b1-7491a1c111af"},"vehicle_type_id":"4","last_reported":1720285577,"current_range_meters":7200,"station_id":"ce4bgvp2rcd13ifvqcu0","pricing_plan_id":"cebpf4jnsgd1na2vs0mg"},{"bike_id":"00fd51f6-4684-4e71-bf49-11fcbfdcd701","system_id":"levelo_inurba_marseille","lat":43.31329,"lon":5.39698,"is_reserved":false,"is_disabled":false,"rental_uris":{"android":"levelo://app?vid=00fd51f6-4684-4e71-bf49-11fcbfdcd701","ios":"levelo://app?vid=00fd51f6-4684-4e71-bf49-11fcbfdcd701"},"vehicle_type_id":"4","last_reported":1720285577,"current_range_meters":19600,"station_id":"ce4bgvp2rcd13ifvqcu0","pricing_plan_id":"cebpf4jnsgd1na2vs0mg"},{"bike_id":"2673111b-92f0-4620-a77f-37870d0e81b6","system_id":"levelo_inurba_marseille","lat":43.313291,"lon":5.396838,"is_reserved":false,"is_disabled":false,"rental_uris":{"android":"levelo://app?vid=2673111b-92f0-4620-a77f-37870d0e81b6","ios":"levelo://app?vid=2673111b-92f0-4620-a77f-37870d0e81b6"},"vehicle_type_id":"4","last_reported":1720285577,"current_range_meters":20400,"station_id":"ce4bgvp2rcd13ifvqcu0","pricing_plan_id":"cebpf4jnsgd1na2vs0mg"},{"bike_id":"d2d25c2a-ce5e-4e4c-b75c-20d1c63cf403","system_id":"levelo_inurba_marseille","lat":43.313291,"lon":5.396838,"is_reserved":false,"is_disabled":false,"rental_uris":{"android":"levelo://app?vid=d2d25c2a-ce5e-4e4c-b75c-20d1c63cf403","ios":"levelo://app?vid=d2d25c2a-ce5e-4e4c-b75c-20d1c63cf403"},"vehicle_type_id":"4","last_reported":1720285577,"current_range_meters":25200,"station_id":"ce4bgvp2rcd13ifvqcu0","pricing_plan_id":"cebpf4jnsgd1na2vs0mg"},{"bike_id":"428da2d4-a31d-4582-9adc-d3d8552c86e1","system_id":"levelo_inurba_marseille","lat":43.309038,"lon":5.396546,"is_reserved":false,"is_disabled":false,"rental_uris":{"android":"levelo://app?vid=428da2d4-a31d-4582-9adc-d3d8552c86e1","ios":"levelo://app?vid=428da2d4-a31d-4582-9adc-d3d8552c86e1"},"vehicle_type_id":"4","last_reported":1720285577,"current_range_meters":15200,"station_id":"ce4bh012rcd13ifvqcv0","pricing_plan_id":"cebpf4jnsgd1na2vs0mg"},{"bike_id":"e83ddcd5-fdc5-405b-8cbd-2a0d62dcc555","system_id":"levelo_inurba_marseille","lat":43.313291,"lon":5.396838,"is_reserved":false,"is_disabled":false,"rental_uris":{"android":"levelo://app?vid=e83ddcd5-fdc5-405b-8cbd-2a0d62dcc555","ios":"levelo://app?vid=e83ddcd5-fdc5-405b-8cbd-2a0d62dcc555"},"vehicle_type_id":"4","last_reported":1720285577,"current_range_meters":27200,"station_id":"ce4bgvp2rcd13ifvqcu0","pricing_plan_id":"cebpf4jnsgd1na2vs0mg"},{"bike_id":"6dfe39e2-c4be-4c94-8336-67978c5310c6","system_id":"levelo_inurba_marseille","lat":43.309038,"lon":5.396546,"is_reserved":false,"is_disabled":false,"rental_uris":{"android":"levelo://app?vid=6dfe39e2-c4be-4c94-8336-67978c5310c6","ios":"levelo://app?vid=6dfe39e2-c4be-4c94-8336-67978c5310c6"},"vehicle_type_id":"4","last_reported":1720285577,"current_range_meters":4800,"station_id":"ce4bh012rcd13ifvqcv0","pricing_plan_id":"cebpf4jnsgd1na2vs0mg"},{"bike_id":"80efa6ef-40f4-49ca-9afe-fd5bda0e4608","system_id":"levelo_inurba_marseille","lat":43.313291,"lon":5.396838,"is_reserved":false,"is_disabled":false,"rental_uris":{"android":"levelo://app?vid=80efa6ef-40f4-49ca-9afe-fd5bda0e4608","ios":"levelo://app?vid=80efa6ef-40f4-49ca-9afe-fd5bda0e4608"},"vehicle_type_id":"4","last_reported":1720285577,"current_range_meters":31600,"station_id":"ce4bgvp2rcd13ifvqcu0","pricing_plan_id":"cebpf4jnsgd1na2vs0mg"},{"bike_id":"f2643025-9716-43b6-8158-0c23c9002d5d","system_id":"levelo_inurba_marseille","lat":43.313291,"lon":5.396838,"is_reserved":false,"is_disabled":false,"rental_uris":{"android":"levelo://app?vid=f2643025-9716-43b6-8158-0c23c9002d5d","ios":"levelo://app?vid=f2643025-9716-43b6-8158-0c23c9002d5d"},"vehicle_type_id":"4","last_reported":1720285577,"current_range_meters":13200,"station_id":"ce4bgvp2rcd13ifvqcu0","pricing_plan_id":"cebpf4jnsgd1na2vs0mg"},{"bike_id":"5ca12f0d-b589-4aff-8d42-09aba372cd0c","system_id":"levelo_inurba_marseille","lat":43.309038,"lon":5.396546,"is_reserved":false,"is_disabled":false,"rental_uris":{"android":"levelo://app?vid=5ca12f0d-b589-4aff-8d42-09aba372cd0c","ios":"levelo://app?vid=5ca12f0d-b589-4aff-8d42-09aba372cd0c"},"vehicle_type_id":"4","last_reported":1720285577,"current_range_meters":24000,"station_id":"ce4bh012rcd13ifvqcv0","pricing_plan_id":"cebpf4jnsgd1na2vs0mg"},{"bike_id":"1a9ac8ff-cd6c-4ae6-9b6e-828765b45d80","system_id":"levelo_inurba_marseille","lat":43.313291,"lon":5.396838,"is_reserved":false,"is_disabled":false,"rental_uris":{"android":"levelo://app?vid=1a9ac8ff-cd6c-4ae6-9b6e-828765b45d80","ios":"levelo://app?vid=1a9ac8ff-cd6c-4ae6-9b6e-828765b45d80"},"vehicle_type_id":"4","last_reported":1720285577,"current_range_meters":18400,"station_id":"ce4bgvp2rcd13ifvqcu0","pricing_plan_id":"cebpf4jnsgd1na2vs0mg"},{"bike_id":"b6d1962a-58da-46e8-83a6-023ae444e587","system_id":"levelo_inurba_marseille","lat":43.309038,"lon":5.396546,"is_reserved":false,"is_disabled":false,"rental_uris":{"android":"levelo://app?vid=b6d1962a-58da-46e8-83a6-023ae444e587","ios":"levelo://app?vid=b6d1962a-58da-46e8-83a6-023ae444e587"},"vehicle_type_id":"4","last_reported":1720285577,"current_range_meters":14000,"station_id":"ce4bh012rcd13ifvqcv0","pricing_plan_id":"cebpf4jnsgd1na2vs0mg"},{"bike_id":"671ee311-e924-4de6-b49f-6ed7d0c6e807","system_id":"levelo_inurba_marseille","lat":43.309038,"lon":5.396546,"is_reserved":false,"is_disabled":false,"rental_uris":{"android":"levelo://app?vid=671ee311-e924-4de6-b49f-6ed7d0c6e807","ios":"levelo://app?vid=671ee311-e924-4de6-b49f-6ed7d0c6e807"},"vehicle_type_id":"4","last_reported":1720285577,"current_range_meters":14400,"station_id":"ce4bh012rcd13ifvqcv0","pricing_plan_id":"cebpf4jnsgd1na2vs0mg"},{"bike_id":"c4a77b29-8659-4c8c-8dcf-e266bb25736d","system_id":"levelo_inurba_marseille","lat":43.29529,"lon":5.385581,"is_reserved":false,"is_disabled":false,"rental_uris":{"android":"levelo://app?vid=c4a77b29-8659-4c8c-8dcf-e266bb25736d","ios":"levelo://app?vid=c4a77b29-8659-4c8c-8dcf-e266bb25736d"},"vehicle_type_id":"4","last_reported":1720285577,"current_range_meters":25200,"station_id":"ce4bgih2rcd13ifvqba0","pricing_plan_id":"cebpf4jnsgd1na2vs0mg"},{"bike_id":"9ecbd498-5a5c-4f76-bd41-ac447bbb0f8b","system_id":"levelo_inurba_marseille","lat":43.313291,"lon":5.396838,"is_reserved":false,"is_disabled":false,"rental_uris":{"android":"levelo://app?vid=9ecbd498-5a5c-4f76-bd41-ac447bbb0f8b","ios":"levelo://app?vid=9ecbd498-5a5c-4f76-bd41-ac447bbb0f8b"},"vehicle_type_id":"4","last_reported":1720285577,"current_range_meters":15200,"station_id":"ce4bgvp2rcd13ifvqcu0","pricing_plan_id":"cebpf4jnsgd1na2vs0mg"},{"bike_id":"bab0874f-f27f-4663-8f43-7051300478ce","system_id":"levelo_inurba_marseille","lat":43.313291,"lon":5.396838,"is_reserved":false,"is_disabled":false,"rental_uris":{"android":"levelo://app?vid=bab0874f-f27f-4663-8f43-7051300478ce","ios":"levelo://app?vid=bab0874f-f27f-4663-8f43-7051300478ce"},"vehicle_type_id":"4","last_reported":1720285577,"current_range_meters":4800,"station_id":"ce4bgvp2rcd13ifvqcu0","pricing_plan_id":"cebpf4jnsgd1na2vs0mg"},{"bike_id":"43c70a72-1fb6-40dc-b725-f8f4e9bd9758","system_id":"levelo_inurba_marseille","lat":43.29529,"lon":5.385581,"is_reserved":false,"is_disabled":false,"rental_uris":{"android":"levelo://app?vid=43c70a72-1fb6-40dc-b725-f8f4e9bd9758","ios":"levelo://app?vid=43c70a72-1fb6-40dc-b725-f8f4e9bd9758"},"vehicle_type_id":"4","last_reported":1720285577,"current_range_meters":18400,"station_id":"ce4bgih2rcd13ifvqba0","pricing_plan_id":"cebpf4jnsgd1na2vs0mg"},{"bike_id":"f92431bb-c602-443e-aa6c-5d6ab6c4a9b8","system_id":"levelo_inurba_marseille","lat":43.29529,"lon":5.385581,"is_reserved":false,"is_disabled":false,"rental_uris":{"android":"levelo://app?vid=f92431bb-c602-443e-aa6c-5d6ab6c4a9b8","ios":"levelo://app?vid=f92431bb-c602-443e-aa6c-5d6ab6c4a9b8"},"vehicle_type_id":"4","last_reported":1720285577,"current_range_meters":29200,"station_id":"ce4bgih2rcd13ifvqba0","pricing_plan_id":"cebpf4jnsgd1na2vs0mg"},{"bike_id":"77f83bba-7e7e-48a0-8d8a-1358a4f2bb2a","system_id":"levelo_inurba_marseille","lat":43.29529,"lon":5.385581,"is_reserved":false,"is_disabled":false,"rental_uris":{"android":"levelo://app?vid=77f83bba-7e7e-48a0-8d8a-1358a4f2bb2a","ios":"levelo://app?vid=77f83bba-7e7e-48a0-8d8a-1358a4f2bb2a"},"vehicle_type_id":"4","last_reported":1720285577,"current_range_meters":22800,"station_id":"ce4bgih2rcd13ifvqba0","pricing_plan_id":"cebpf4jnsgd1na2vs0mg"},{"bike_id":"001be1a5-6aa6-40b6-8c8e-13687cd0627a","system_id":"levelo_inurba_marseille","lat":43.29529,"lon":5.385581,"is_reserved":false,"is_disabled":false,"rental_uris":{"android":"levelo://app?vid=001be1a5-6aa6-40b6-8c8e-13687cd0627a","ios":"levelo://app?vid=001be1a5-6aa6-40b6-8c8e-13687cd0627a"},"vehicle_type_id":"4","last_reported":1720285577,"current_range_meters":11200,"station_id":"ce4bgih2rcd13ifvqba0","pricing_plan_id":"cebpf4jnsgd1na2vs0mg"},{"bike_id":"511e215a-c5a1-44a8-a75c-a4e08d566ffc","system_id":"levelo_inurba_marseille","lat":43.290779,"lon":5.371482,"is_reserved":false,"is_disabled":false,"rental_uris":{"android":"levelo://app?vid=511e215a-c5a1-44a8-a75c-a4e08d566ffc","ios":"levelo://app?vid=511e215a-c5a1-44a8-a75c-a4e08d566ffc"},"vehicle_type_id":"4","last_reported":1720285577,"current_range_meters":4000,"station_id":"ce4bh5p2rcd13ifvqe4g","pricing_plan_id":"cebpf4jnsgd1na2vs0mg"},{"bike_id":"8e97d32d-5b4e-4739-b059-8a1fcecce6db","system_id":"levelo_inurba_marseille","lat":43.290779,"lon":5.371482,"is_reserved":false,"is_disabled":false,"rental_uris":{"android":"levelo://app?vid=8e97d32d-5b4e-4739-b059-8a1fcecce6db","ios":"levelo://app?vid=8e97d32d-5b4e-4739-b059-8a1fcecce6db"},"vehicle_type_id":"4","last_reported":1720285577,"current_range_meters":2400,"station_id":"ce4bh5p2rcd13ifvqe4g","pricing_plan_id":"cebpf4jnsgd1na2vs0mg"},{"bike_id":"62a35df2-3e74-43a2-b7a4-4032a18c29a0","system_id":"levelo_inurba_marseille","lat":43.290779,"lon":5.371482,"is_reserved":false,"is_disabled":false,"rental_uris":{"android":"levelo://app?vid=62a35df2-3e74-43a2-b7a4-4032a18c29a0","ios":"levelo://app?vid=62a35df2-3e74-43a2-b7a4-4032a18c29a0"},"vehicle_type_id":"4","last_reported":1720285577,"current_range_meters":18000,"station_id":"ce4bh5p2rcd13ifvqe4g","pricing_plan_id":"cebpf4jnsgd1na2vs0mg"},{"bike_id":"e8c54220-c2fa-4435-8897-69f2e0469efd","system_id":"levelo_inurba_marseille","lat":43.294153,"lon":5.386305,"is_reserved":false,"is_disabled":false,"rental_uris":{"android":"levelo://app?vid=e8c54220-c2fa-4435-8897-69f2e0469efd","ios":"levelo://app?vid=e8c54220-c2fa-4435-8897-69f2e0469efd"},"vehicle_type_id":"4","last_reported":1720285577,"current_range_meters":7600,"station_id":"ce4bh2h2rcd13ifvqdh0","pricing_plan_id":"cebpf4jnsgd1na2vs0mg"},{"bike_id":"4df1d8be-7d84-4ee0-921b-0093de35d83f","system_id":"levelo_inurba_marseille","lat":43.294162,"lon":5.386292,"is_reserved":false,"is_disabled":false,"rental_uris":{"android":"levelo://app?vid=4df1d8be-7d84-4ee0-921b-0093de35d83f","ios":"levelo://app?vid=4df1d8be-7d84-4ee0-921b-0093de35d83f"},"vehicle_type_id":"4","last_reported":1720285577,"current_range_meters":0,"station_id":"ce4bh2h2rcd13ifvqdh0","pricing_plan_id":"cebpf4jnsgd1na2vs0mg"},{"bike_id":"9dde5c21-15a6-4196-9b5f-48884a5713e2","system_id":"levelo_inurba_marseille","lat":43.294153,"lon":5.386305,"is_reserved":false,"is_disabled":false,"rental_uris":{"android":"levelo://app?vid=9dde5c21-15a6-4196-9b5f-48884a5713e2","ios":"levelo://app?vid=9dde5c21-15a6-4196-9b5f-48884a5713e2"},"vehicle_type_id":"4","last_reported":1720285577,"current_range_meters":11600,"station_id":"ce4bh2h2rcd13ifvqdh0","pricing_plan_id":"cebpf4jnsgd1na2vs0mg"},{"bike_id":"56f3685d-7ea0-48cd-9755-b55e8a97f0fa","system_id":"levelo_inurba_marseille","lat":43.294162,"lon":5.386292,"is_reserved":false,"is_disabled":false,"rental_uris":{"android":"levelo://app?vid=56f3685d-7ea0-48cd-9755-b55e8a97f0fa","ios":"levelo://app?vid=56f3685d-7ea0-48cd-9755-b55e8a97f0fa"},"vehicle_type_id":"4","last_reported":1720285577,"current_range_meters":1200,"station_id":"ce4bh2h2rcd13ifvqdh0","pricing_plan_id":"cebpf4jnsgd1na2vs0mg"},{"bike_id":"d5cc5815-1a3d-4550-8983-b3643f71814b","system_id":"levelo_inurba_marseille","lat":43.294162,"lon":5.386292,"is_reserved":false,"is_disabled":false,"rental_uris":{"android":"levelo://app?vid=d5cc5815-1a3d-4550-8983-b3643f71814b","ios":"levelo://app?vid=d5cc5815-1a3d-4550-8983-b3643f71814b"},"vehicle_type_id":"4","last_reported":1720285577,"current_range_meters":10800,"station_id":"ce4bh2h2rcd13ifvqdh0","pricing_plan_id":"cebpf4jnsgd1na2vs0mg"},{"bike_id":"30e1603c-1a62-42b7-b2d6-eb86e9084cd2","system_id":"levelo_inurba_marseille","lat":43.294153,"lon":5.386305,"is_reserved":false,"is_disabled":false,"rental_uris":{"android":"levelo://app?vid=30e1603c-1a62-42b7-b2d6-eb86e9084cd2","ios":"levelo://app?vid=30e1603c-1a62-42b7-b2d6-eb86e9084cd2"},"vehicle_type_id":"4","last_reported":1720285577,"current_range_meters":3600,"station_id":"ce4bh2h2rcd13ifvqdh0","pricing_plan_id":"cebpf4jnsgd1na2vs0mg"},{"bike_id":"4e9e5ffd-3898-4b5c-a7b0-01f18b7bc9eb","system_id":"levelo_inurba_marseille","lat":43.289184,"lon":5.366408,"is_reserved":false,"is_disabled":false,"rental_uris":{"android":"levelo://app?vid=4e9e5ffd-3898-4b5c-a7b0-01f18b7bc9eb","ios":"levelo://app?vid=4e9e5ffd-3898-4b5c-a7b0-01f18b7bc9eb"},"vehicle_type_id":"4","last_reported":1720285577,"current_range_meters":6000,"station_id":"ce4bhap2rcd13ifvqek0","pricing_plan_id":"cebpf4jnsgd1na2vs0mg"},{"bike_id":"c60254b2-83da-4686-8527-21902aada454","system_id":"levelo_inurba_marseille","lat":43.294162,"lon":5.386292,"is_reserved":false,"is_disabled":false,"rental_uris":{"android":"levelo://app?vid=c60254b2-83da-4686-8527-21902aada454","ios":"levelo://app?vid=c60254b2-83da-4686-8527-21902aada454"},"vehicle_type_id":"4","last_reported":1720285577,"current_range_meters":1600,"station_id":"ce4bh2h2rcd13ifvqdh0","pricing_plan_id":"cebpf4jnsgd1na2vs0mg"},{"bike_id":"5e2d18eb-2466-4ae6-9e7c-d7e975a5bb14","system_id":"levelo_inurba_marseille","lat":43.289468,"lon":5.363719,"is_reserved":false,"is_disabled":false,"rental_uris":{"android":"levelo://app?vid=5e2d18eb-2466-4ae6-9e7c-d7e975a5bb14","ios":"levelo://app?vid=5e2d18eb-2466-4ae6-9e7c-d7e975a5bb14"},"vehicle_type_id":"4","last_reported":1720285577,"current_range_meters":8800,"station_id":"ce4bhc92rcd13ifvqetg","pricing_plan_id":"cebpf4jnsgd1na2vs0mg"},{"bike_id":"a45cedfa-ec45-4bcc-8fd3-880d1ef10553","system_id":"levelo_inurba_marseille","lat":43.289468,"lon":5.363719,"is_reserved":false,"is_disabled":false,"rental_uris":{"android":"levelo://app?vid=a45cedfa-ec45-4bcc-8fd3-880d1ef10553","ios":"levelo://app?vid=a45cedfa-ec45-4bcc-8fd3-880d1ef10553"},"vehicle_type_id":"4","last_reported":1720285577,"current_range_meters":11600,"station_id":"ce4bhc92rcd13ifvqetg","pricing_plan_id":"cebpf4jnsgd1na2vs0mg"},{"bike_id":"fff95646-496e-4247-8094-503d4ea126e7","system_id":"levelo_inurba_marseille","lat":43.289468,"lon":5.363719,"is_reserved":false,"is_disabled":false,"rental_uris":{"android":"levelo://app?vid=fff95646-496e-4247-8094-503d4ea126e7","ios":"levelo://app?vid=fff95646-496e-4247-8094-503d4ea126e7"},"vehicle_type_id":"4","last_reported":1720285577,"current_range_meters":24000,"station_id":"ce4bhc92rcd13ifvqetg","pricing_plan_id":"cebpf4jnsgd1na2vs0mg"},{"bike_id":"1e55d63e-e067-4a74-8d14-375a880c85fc","system_id":"levelo_inurba_marseille","lat":43.289468,"lon":5.363719,"is_reserved":false,"is_disabled":false,"rental_uris":{"android":"levelo://app?vid=1e55d63e-e067-4a74-8d14-375a880c85fc","ios":"levelo://app?vid=1e55d63e-e067-4a74-8d14-375a880c85fc"},"vehicle_type_id":"4","last_reported":1720285577,"current_range_meters":27200,"station_id":"ce4bhc92rcd13ifvqetg","pricing_plan_id":"cebpf4jnsgd1na2vs0mg"},{"bike_id":"bb6ed252-58eb-4339-bcfc-e0e655e3bfd9","system_id":"levelo_inurba_marseille","lat":43.304296,"lon":5.397513,"is_reserved":false,"is_disabled":false,"rental_uris":{"android":"levelo://app?vid=bb6ed252-58eb-4339-bcfc-e0e655e3bfd9","ios":"levelo://app?vid=bb6ed252-58eb-4339-bcfc-e0e655e3bfd9"},"vehicle_type_id":"4","last_reported":1720285577,"current_range_meters":800,"station_id":"ce4bh092rcd13ifvqd20","pricing_plan_id":"cebpf4jnsgd1na2vs0mg"},{"bike_id":"43fe8971-617e-4812-a413-d84eaa67de5f","system_id":"levelo_inurba_marseille","lat":43.304274,"lon":5.397513,"is_reserved":false,"is_disabled":false,"rental_uris":{"android":"levelo://app?vid=43fe8971-617e-4812-a413-d84eaa67de5f","ios":"levelo://app?vid=43fe8971-617e-4812-a413-d84eaa67de5f"},"vehicle_type_id":"4","last_reported":1720285577,"current_range_meters":6000,"station_id":"ce4bh092rcd13ifvqd20","pricing_plan_id":"cebpf4jnsgd1na2vs0mg"},{"bike_id":"5ef4bf3c-24f7-489f-b8ca-d3abd527315b","system_id":"levelo_inurba_marseille","lat":43.292644,"lon":5.384257,"is_reserved":false,"is_disabled":false,"rental_uris":{"android":"levelo://app?vid=5ef4bf3c-24f7-489f-b8ca-d3abd527315b","ios":"levelo://app?vid=5ef4bf3c-24f7-489f-b8ca-d3abd527315b"},"vehicle_type_id":"4","last_reported":1720285577,"current_range_meters":9200,"station_id":"ce4bh692rcd13ifvqea0","pricing_plan_id":"cebpf4jnsgd1na2vs0mg"},{"bike_id":"e91fca35-82e5-4449-a078-78e30c19106a","system_id":"levelo_inurba_marseille","lat":43.304296,"lon":5.397513,"is_reserved":false,"is_disabled":false,"rental_uris":{"android":"levelo://app?vid=e91fca35-82e5-4449-a078-78e30c19106a","ios":"levelo://app?vid=e91fca35-82e5-4449-a078-78e30c19106a"},"vehicle_type_id":"4","last_reported":1720285577,"current_range_meters":5200,"station_id":"ce4bh092rcd13ifvqd20","pricing_plan_id":"cebpf4jnsgd1na2vs0mg"},{"bike_id":"97fc6782-e64c-4a91-bc58-22fa91481930","system_id":"levelo_inurba_marseille","lat":43.292644,"lon":5.384257,"is_reserved":false,"is_disabled":false,"rental_uris":{"android":"levelo://app?vid=97fc6782-e64c-4a91-bc58-22fa91481930","ios":"levelo://app?vid=97fc6782-e64c-4a91-bc58-22fa91481930"},"vehicle_type_id":"4","last_reported":1720285577,"current_range_meters":3200,"station_id":"ce4bh692rcd13ifvqea0","pricing_plan_id":"cebpf4jnsgd1na2vs0mg"},{"bike_id":"d6c5503d-ad13-4484-91ac-a10d518ff929","system_id":"levelo_inurba_marseille","lat":43.292642,"lon":5.384254,"is_reserved":false,"is_disabled":false,"rental_uris":{"android":"levelo://app?vid=d6c5503d-ad13-4484-91ac-a10d518ff929","ios":"levelo://app?vid=d6c5503d-ad13-4484-91ac-a10d518ff929"},"vehicle_type_id":"4","last_reported":1720285577,"current_range_meters":6800,"station_id":"ce4bh692rcd13ifvqea0","pricing_plan_id":"cebpf4jnsgd1na2vs0mg"},{"bike_id":"77fa2677-d96f-47dc-8e91-ce6ede74e49b","system_id":"levelo_inurba_marseille","lat":43.30294,"lon":5.39686,"is_reserved":false,"is_disabled":false,"rental_uris":{"android":"levelo://app?vid=77fa2677-d96f-47dc-8e91-ce6ede74e49b","ios":"levelo://app?vid=77fa2677-d96f-47dc-8e91-ce6ede74e49b"},"vehicle_type_id":"4","last_reported":1720285577,"current_range_meters":31600,"station_id":"","pricing_plan_id":"cebpf4jnsgd1na2vs0mg"},{"bike_id":"910ec981-e48d-43a5-9879-39e24b342d4a","system_id":"levelo_inurba_marseille","lat":43.289743,"lon":5.378304,"is_reserved":false,"is_disabled":false,"rental_uris":{"android":"levelo://app?vid=910ec981-e48d-43a5-9879-39e24b342d4a","ios":"levelo://app?vid=910ec981-e48d-43a5-9879-39e24b342d4a"},"vehicle_type_id":"4","last_reported":1720285577,"current_range_meters":31200,"station_id":"ce4bh9p2rcd13ifvqed0","pricing_plan_id":"cebpf4jnsgd1na2vs0mg"},{"bike_id":"e93e3b92-c05e-48c1-ba87-dda158cd881d","system_id":"levelo_inurba_marseille","lat":43.295169,"lon":5.390426,"is_reserved":false,"is_disabled":false,"rental_uris":{"android":"levelo://app?vid=e93e3b92-c05e-48c1-ba87-dda158cd881d","ios":"levelo://app?vid=e93e3b92-c05e-48c1-ba87-dda158cd881d"},"vehicle_type_id":"4","last_reported":1720285577,"current_range_meters":3600,"station_id":"ce4bh3p2rcd13ifvqdp0","pricing_plan_id":"cebpf4jnsgd1na2vs0mg"},{"bike_id":"02e6788a-ee03-4cac-afe4-e2c3ebdb5029","system_id":"levelo_inurba_marseille","lat":43.297815,"lon":5.393548,"is_reserved":false,"is_disabled":false,"rental_uris":{"android":"levelo://app?vid=02e6788a-ee03-4cac-afe4-e2c3ebdb5029","ios":"levelo://app?vid=02e6788a-ee03-4cac-afe4-e2c3ebdb5029"},"vehicle_type_id":"4","last_reported":1720285577,"current_range_meters":20400,"station_id":"chh1huq6cuj3fo74tm60","pricing_plan_id":"cebpf4jnsgd1na2vs0mg"},{"bike_id":"30cec6f4-5b8a-4628-82ec-a445000cfdb7","system_id":"levelo_inurba_marseille","lat":43.33021,"lon":5.39043,"is_reserved":false,"is_disabled":false,"rental_uris":{"android":"levelo://app?vid=30cec6f4-5b8a-4628-82ec-a445000cfdb7","ios":"levelo://app?vid=30cec6f4-5b8a-4628-82ec-a445000cfdb7"},"vehicle_type_id":"4","last_reported":1720285577,"current_range_meters":0,"station_id":"ce4bhr92rcd13ifvqhrg","pricing_plan_id":"cebpf4jnsgd1na2vs0mg"},{"bike_id":"2e875c39-de91-4625-a55d-721c7a2ef9dd","system_id":"levelo_inurba_marseille","lat":43.295169,"lon":5.390426,"is_reserved":false,"is_disabled":false,"rental_uris":{"android":"levelo://app?vid=2e875c39-de91-4625-a55d-721c7a2ef9dd","ios":"levelo://app?vid=2e875c39-de91-4625-a55d-721c7a2ef9dd"},"vehicle_type_id":"4","last_reported":1720285577,"current_range_meters":7200,"station_id":"ce4bh3p2rcd13ifvqdp0","pricing_plan_id":"cebpf4jnsgd1na2vs0mg"},{"bike_id":"589d8908-5458-4ec0-b32b-17f96c44c7a6","system_id":"levelo_inurba_marseille","lat":43.295169,"lon":5.390426,"is_reserved":false,"is_disabled":false,"rental_uris":{"android":"levelo://app?vid=589d8908-5458-4ec0-b32b-17f96c44c7a6","ios":"levelo://app?vid=589d8908-5458-4ec0-b32b-17f96c44c7a6"},"vehicle_type_id":"4","last_reported":1720285577,"current_range_meters":9200,"station_id":"ce4bh3p2rcd13ifvqdp0","pricing_plan_id":"cebpf4jnsgd1na2vs0mg"},{"bike_id":"575e7070-c38c-4583-96fb-d7ebaad7e605","system_id":"levelo_inurba_marseille","lat":43.330442,"lon":5.389148,"is_reserved":false,"is_disabled":false,"rental_uris":{"android":"levelo://app?vid=575e7070-c38c-4583-96fb-d7ebaad7e605","ios":"levelo://app?vid=575e7070-c38c-4583-96fb-d7ebaad7e605"},"vehicle_type_id":"4","last_reported":1720285577,"current_range_meters":0,"station_id":"ce4bhr92rcd13ifvqhrg","pricing_plan_id":"cebpf4jnsgd1na2vs0mg"},{"bike_id":"391c1c2f-968e-4b2e-acac-be83dd11930e","system_id":"levelo_inurba_marseille","lat":43.312609,"lon":5.401662,"is_reserved":false,"is_disabled":false,"rental_uris":{"android":"levelo://app?vid=391c1c2f-968e-4b2e-acac-be83dd11930e","ios":"levelo://app?vid=391c1c2f-968e-4b2e-acac-be83dd11930e"},"vehicle_type_id":"4","last_reported":1720285577,"current_range_meters":9200,"station_id":"ce4bh092rcd13ifvqd30","pricing_plan_id":"cebpf4jnsgd1na2vs0mg"},{"bike_id":"121cec14-dba8-4866-b290-2b78d6c8b5a9","system_id":"levelo_inurba_marseille","lat":43.288607,"lon":5.35935,"is_reserved":false,"is_disabled":false,"rental_uris":{"android":"levelo://app?vid=121cec14-dba8-4866-b290-2b78d6c8b5a9","ios":"levelo://app?vid=121cec14-dba8-4866-b290-2b78d6c8b5a9"},"vehicle_type_id":"4","last_reported":1720285577,"current_range_meters":0,"station_id":"","pricing_plan_id":"cebpf4jnsgd1na2vs0mg"},{"bike_id":"c84fd0d1-c961-4e9c-92b6-b728a32ab31a","system_id":"levelo_inurba_marseille","lat":43.28856,"lon":5.358371,"is_reserved":false,"is_disabled":false,"rental_uris":{"android":"levelo://app?vid=c84fd0d1-c961-4e9c-92b6-b728a32ab31a","ios":"levelo://app?vid=c84fd0d1-c961-4e9c-92b6-b728a32ab31a"},"vehicle_type_id":"4","last_reported":1720285577,"current_range_meters":28400,"station_id":"ce4bhb12rcd13ifvqem0","pricing_plan_id":"cebpf4jnsgd1na2vs0mg"},{"bike_id":"0b5e98a8-cc45-4d52-8270-2d09bb6a75cc","system_id":"levelo_inurba_marseille","lat":43.28856,"lon":5.358371,"is_reserved":false,"is_disabled":false,"rental_uris":{"android":"levelo://app?vid=0b5e98a8-cc45-4d52-8270-2d09bb6a75cc","ios":"levelo://app?vid=0b5e98a8-cc45-4d52-8270-2d09bb6a75cc"},"vehicle_type_id":"4","last_reported":1720285577,"current_range_meters":4400,"station_id":"ce4bhb12rcd13ifvqem0","pricing_plan_id":"cebpf4jnsgd1na2vs0mg"},{"bike_id":"3fa741ed-9eb7-4d6a-9f93-8d9d53268076","system_id":"levelo_inurba_marseille","lat":43.28856,"lon":5.358371,"is_reserved":false,"is_disabled":false,"rental_uris":{"android":"levelo://app?vid=3fa741ed-9eb7-4d6a-9f93-8d9d53268076","ios":"levelo://app?vid=3fa741ed-9eb7-4d6a-9f93-8d9d53268076"},"vehicle_type_id":"4","last_reported":1720285577,"current_range_meters":18400,"station_id":"ce4bhb12rcd13ifvqem0","pricing_plan_id":"cebpf4jnsgd1na2vs0mg"},{"bike_id":"39348dd9-86b1-4a13-8096-7a0e81d55bf0","system_id":"levelo_inurba_marseille","lat":43.28856,"lon":5.358371,"is_reserved":false,"is_disabled":false,"rental_uris":{"android":"levelo://app?vid=39348dd9-86b1-4a13-8096-7a0e81d55bf0","ios":"levelo://app?vid=39348dd9-86b1-4a13-8096-7a0e81d55bf0"},"vehicle_type_id":"4","last_reported":1720285577,"current_range_meters":26000,"station_id":"ce4bhb12rcd13ifvqem0","pricing_plan_id":"cebpf4jnsgd1na2vs0mg"},{"bike_id":"0605d7c2-1fe3-4178-a5af-1a72291b2120","system_id":"levelo_inurba_marseille","lat":43.294162,"lon":5.386292,"is_reserved":false,"is_disabled":false,"rental_uris":{"android":"levelo://app?vid=0605d7c2-1fe3-4178-a5af-1a72291b2120","ios":"levelo://app?vid=0605d7c2-1fe3-4178-a5af-1a72291b2120"},"vehicle_type_id":"4","last_reported":1720285577,"current_range_meters":17600,"station_id":"ce4bh2h2rcd13ifvqdh0","pricing_plan_id":"cebpf4jnsgd1na2vs0mg"},{"bike_id":"e61e2543-1309-45a4-b0c4-49f9de6397af","system_id":"levelo_inurba_marseille","lat":43.312609,"lon":5.401662,"is_reserved":false,"is_disabled":false,"rental_uris":{"android":"levelo://app?vid=e61e2543-1309-45a4-b0c4-49f9de6397af","ios":"levelo://app?vid=e61e2543-1309-45a4-b0c4-49f9de6397af"},"vehicle_type_id":"4","last_reported":1720285577,"current_range_meters":28000,"station_id":"ce4bh092rcd13ifvqd30","pricing_plan_id":"cebpf4jnsgd1na2vs0mg"},{"bike_id":"d202351a-7dd0-41be-b8bb-f545b53ee205","system_id":"levelo_inurba_marseille","lat":43.312609,"lon":5.401662,"is_reserved":false,"is_disabled":false,"rental_uris":{"android":"levelo://app?vid=d202351a-7dd0-41be-b8bb-f545b53ee205","ios":"levelo://app?vid=d202351a-7dd0-41be-b8bb-f545b53ee205"},"vehicle_type_id":"4","last_reported":1720285577,"current_range_meters":10400,"station_id":"ce4bh092rcd13ifvqd30","pricing_plan_id":"cebpf4jnsgd1na2vs0mg"},{"bike_id":"05abb6d9-5716-4149-a826-a9ef64610ce9","system_id":"levelo_inurba_marseille","lat":43.309371,"lon":5.401449,"is_reserved":false,"is_disabled":false,"rental_uris":{"android":"levelo://app?vid=05abb6d9-5716-4149-a826-a9ef64610ce9","ios":"levelo://app?vid=05abb6d9-5716-4149-a826-a9ef64610ce9"},"vehicle_type_id":"4","last_reported":1720285577,"current_range_meters":0,"station_id":"ce4bgvp2rcd13ifvqct0","pricing_plan_id":"cebpf4jnsgd1na2vs0mg"},{"bike_id":"88f27a2f-daa4-4dfc-b23a-0cfd244fc967","system_id":"levelo_inurba_marseille","lat":43.337443,"lon":5.374518,"is_reserved":false,"is_disabled":false,"rental_uris":{"android":"levelo://app?vid=88f27a2f-daa4-4dfc-b23a-0cfd244fc967","ios":"levelo://app?vid=88f27a2f-daa4-4dfc-b23a-0cfd244fc967"},"vehicle_type_id":"4","last_reported":1720285577,"current_range_meters":10400,"station_id":"","pricing_plan_id":"cebpf4jnsgd1na2vs0mg"},{"bike_id":"fdbfcc29-04c6-4739-ba7e-441fb2e2593e","system_id":"levelo_inurba_marseille","lat":43.337463,"lon":5.374617,"is_reserved":false,"is_disabled":false,"rental_uris":{"android":"levelo://app?vid=fdbfcc29-04c6-4739-ba7e-441fb2e2593e","ios":"levelo://app?vid=fdbfcc29-04c6-4739-ba7e-441fb2e2593e"},"vehicle_type_id":"4","last_reported":1720285577,"current_range_meters":21200,"station_id":"","pricing_plan_id":"cebpf4jnsgd1na2vs0mg"},{"bike_id":"41fcb31e-469f-4a07-8a88-fbe57c2d85f5","system_id":"levelo_inurba_marseille","lat":43.33755,"lon":5.37455,"is_reserved":false,"is_disabled":false,"rental_uris":{"android":"levelo://app?vid=41fcb31e-469f-4a07-8a88-fbe57c2d85f5","ios":"levelo://app?vid=41fcb31e-469f-4a07-8a88-fbe57c2d85f5"},"vehicle_type_id":"4","last_reported":1720285577,"current_range_meters":26800,"station_id":"","pricing_plan_id":"cebpf4jnsgd1na2vs0mg"},{"bike_id":"22664dbb-05c6-44b7-ac76-723d395f476e","system_id":"levelo_inurba_marseille","lat":43.337614,"lon":5.374291,"is_reserved":false,"is_disabled":false,"rental_uris":{"android":"levelo://app?vid=22664dbb-05c6-44b7-ac76-723d395f476e","ios":"levelo://app?vid=22664dbb-05c6-44b7-ac76-723d395f476e"},"vehicle_type_id":"4","last_reported":1720285577,"current_range_meters":29200,"station_id":"","pricing_plan_id":"cebpf4jnsgd1na2vs0mg"},{"bike_id":"f12c835b-e44e-44e6-9e0c-5ba827881b4a","system_id":"levelo_inurba_marseille","lat":43.29225,"lon":5.38766,"is_reserved":false,"is_disabled":false,"rental_uris":{"android":"levelo://app?vid=f12c835b-e44e-44e6-9e0c-5ba827881b4a","ios":"levelo://app?vid=f12c835b-e44e-44e6-9e0c-5ba827881b4a"},"vehicle_type_id":"4","last_reported":1720285577,"current_range_meters":1200,"station_id":"","pricing_plan_id":"cebpf4jnsgd1na2vs0mg"},{"bike_id":"9057ace8-6291-4414-940c-18dbdb204ea2","system_id":"levelo_inurba_marseille","lat":43.309404,"lon":5.401599,"is_reserved":false,"is_disabled":false,"rental_uris":{"android":"levelo://app?vid=9057ace8-6291-4414-940c-18dbdb204ea2","ios":"levelo://app?vid=9057ace8-6291-4414-940c-18dbdb204ea2"},"vehicle_type_id":"4","last_reported":1720285577,"current_range_meters":1200,"station_id":"ce4bgkh2rcd13ifvqbl0","pricing_plan_id":"cebpf4jnsgd1na2vs0mg"},{"bike_id":"d18fc15d-e9a7-4dbb-9aed-fc17bcc86552","system_id":"levelo_inurba_marseille","lat":43.33765,"lon":5.37415,"is_reserved":false,"is_disabled":false,"rental_uris":{"android":"levelo://app?vid=d18fc15d-e9a7-4dbb-9aed-fc17bcc86552","ios":"levelo://app?vid=d18fc15d-e9a7-4dbb-9aed-fc17bcc86552"},"vehicle_type_id":"4","last_reported":1720285577,"current_range_meters":16800,"station_id":"","pricing_plan_id":"cebpf4jnsgd1na2vs0mg"},{"bike_id":"e8043679-5e2d-45ca-af32-4c2eeb2d3b4d","system_id":"levelo_inurba_marseille","lat":43.337628,"lon":5.374333,"is_reserved":false,"is_disabled":false,"rental_uris":{"android":"levelo://app?vid=e8043679-5e2d-45ca-af32-4c2eeb2d3b4d","ios":"levelo://app?vid=e8043679-5e2d-45ca-af32-4c2eeb2d3b4d"},"vehicle_type_id":"4","last_reported":1720285577,"current_range_meters":18800,"station_id":"","pricing_plan_id":"cebpf4jnsgd1na2vs0mg"},{"bike_id":"ba77c056-6fe7-4228-884f-a9f07e3f5ccc","system_id":"levelo_inurba_marseille","lat":43.337656,"lon":5.374361,"is_reserved":false,"is_disabled":false,"rental_uris":{"android":"levelo://app?vid=ba77c056-6fe7-4228-884f-a9f07e3f5ccc","ios":"levelo://app?vid=ba77c056-6fe7-4228-884f-a9f07e3f5ccc"},"vehicle_type_id":"4","last_reported":1720285577,"current_range_meters":29600,"station_id":"ce4rr2p2rcd13i802rgg","pricing_plan_id":"cebpf4jnsgd1na2vs0mg"},{"bike_id":"ca28a750-034c-4926-945c-7b5f8a0741a9","system_id":"levelo_inurba_marseille","lat":43.337693,"lon":5.374307,"is_reserved":false,"is_disabled":false,"rental_uris":{"android":"levelo://app?vid=ca28a750-034c-4926-945c-7b5f8a0741a9","ios":"levelo://app?vid=ca28a750-034c-4926-945c-7b5f8a0741a9"},"vehicle_type_id":"4","last_reported":1720285577,"current_range_meters":30800,"station_id":"","pricing_plan_id":"cebpf4jnsgd1na2vs0mg"},{"bike_id":"8f09071b-2fdc-49ba-a50c-e060e8f9b584","system_id":"levelo_inurba_marseille","lat":43.30642,"lon":5.401031,"is_reserved":false,"is_disabled":false,"rental_uris":{"android":"levelo://app?vid=8f09071b-2fdc-49ba-a50c-e060e8f9b584","ios":"levelo://app?vid=8f09071b-2fdc-49ba-a50c-e060e8f9b584"},"vehicle_type_id":"4","last_reported":1720285577,"current_range_meters":4400,"station_id":"ce4bh112rcd13ifvqda0","pricing_plan_id":"cebpf4jnsgd1na2vs0mg"},{"bike_id":"568e51fe-3317-4e32-82a4-2bd4944c6912","system_id":"levelo_inurba_marseille","lat":43.337731,"lon":5.374309,"is_reserved":false,"is_disabled":false,"rental_uris":{"android":"levelo://app?vid=568e51fe-3317-4e32-82a4-2bd4944c6912","ios":"levelo://app?vid=568e51fe-3317-4e32-82a4-2bd4944c6912"},"vehicle_type_id":"4","last_reported":1720285577,"current_range_meters":6800,"station_id":"","pricing_plan_id":"cebpf4jnsgd1na2vs0mg"},{"bike_id":"8c82b7a5-bb5e-43c0-ba0a-a7d1f2057b99","system_id":"levelo_inurba_marseille","lat":43.301117,"lon":5.398795,"is_reserved":false,"is_disabled":false,"rental_uris":{"android":"levelo://app?vid=8c82b7a5-bb5e-43c0-ba0a-a7d1f2057b99","ios":"levelo://app?vid=8c82b7a5-bb5e-43c0-ba0a-a7d1f2057b99"},"vehicle_type_id":"4","last_reported":1720285577,"current_range_meters":20000,"station_id":"ce4bh0h2rcd13ifvqd40","pricing_plan_id":"cebpf4jnsgd1na2vs0mg"},{"bike_id":"41c4fbb9-ae64-40b5-b972-2ffc0f24bb5e","system_id":"levelo_inurba_marseille","lat":43.301117,"lon":5.398795,"is_reserved":false,"is_disabled":false,"rental_uris":{"android":"levelo://app?vid=41c4fbb9-ae64-40b5-b972-2ffc0f24bb5e","ios":"levelo://app?vid=41c4fbb9-ae64-40b5-b972-2ffc0f24bb5e"},"vehicle_type_id":"4","last_reported":1720285577,"current_range_meters":29200,"station_id":"ce4bh0h2rcd13ifvqd40","pricing_plan_id":"cebpf4jnsgd1na2vs0mg"},{"bike_id":"fb347c81-c26b-4deb-864c-16af2f7823cf","system_id":"levelo_inurba_marseille","lat":43.301117,"lon":5.398795,"is_reserved":false,"is_disabled":false,"rental_uris":{"android":"levelo://app?vid=fb347c81-c26b-4deb-864c-16af2f7823cf","ios":"levelo://app?vid=fb347c81-c26b-4deb-864c-16af2f7823cf"},"vehicle_type_id":"4","last_reported":1720285577,"current_range_meters":16400,"station_id":"ce4bh0h2rcd13ifvqd40","pricing_plan_id":"cebpf4jnsgd1na2vs0mg"},{"bike_id":"fadd004d-2fb0-478b-945b-3566b8a20fe1","system_id":"levelo_inurba_marseille","lat":43.301117,"lon":5.398795,"is_reserved":false,"is_disabled":false,"rental_uris":{"android":"levelo://app?vid=fadd004d-2fb0-478b-945b-3566b8a20fe1","ios":"levelo://app?vid=fadd004d-2fb0-478b-945b-3566b8a20fe1"},"vehicle_type_id":"4","last_reported":1720285577,"current_range_meters":24000,"station_id":"ce4bh0h2rcd13ifvqd40","pricing_plan_id":"cebpf4jnsgd1na2vs0mg"},{"bike_id":"6859b877-9ee2-4cdc-89b5-933b9e890e7e","system_id":"levelo_inurba_marseille","lat":43.301117,"lon":5.398795,"is_reserved":false,"is_disabled":false,"rental_uris":{"android":"levelo://app?vid=6859b877-9ee2-4cdc-89b5-933b9e890e7e","ios":"levelo://app?vid=6859b877-9ee2-4cdc-89b5-933b9e890e7e"},"vehicle_type_id":"4","last_reported":1720285577,"current_range_meters":30800,"station_id":"ce4bh0h2rcd13ifvqd40","pricing_plan_id":"cebpf4jnsgd1na2vs0mg"},{"bike_id":"a67dd511-29fb-412a-80cc-9edb4c6216cd","system_id":"levelo_inurba_marseille","lat":43.301117,"lon":5.398795,"is_reserved":false,"is_disabled":false,"rental_uris":{"android":"levelo://app?vid=a67dd511-29fb-412a-80cc-9edb4c6216cd","ios":"levelo://app?vid=a67dd511-29fb-412a-80cc-9edb4c6216cd"},"vehicle_type_id":"4","last_reported":1720285577,"current_range_meters":5200,"station_id":"ce4bh0h2rcd13ifvqd40","pricing_plan_id":"cebpf4jnsgd1na2vs0mg"},{"bike_id":"e39fc08f-741a-488c-a248-6137d44ab843","system_id":"levelo_inurba_marseille","lat":43.301117,"lon":5.398795,"is_reserved":false,"is_disabled":false,"rental_uris":{"android":"levelo://app?vid=e39fc08f-741a-488c-a248-6137d44ab843","ios":"levelo://app?vid=e39fc08f-741a-488c-a248-6137d44ab843"},"vehicle_type_id":"4","last_reported":1720285577,"current_range_meters":12800,"station_id":"ce4bh0h2rcd13ifvqd40","pricing_plan_id":"cebpf4jnsgd1na2vs0mg"},{"bike_id":"a5ad08da-7f6d-4294-af11-986f7a566a73","system_id":"levelo_inurba_marseille","lat":43.301117,"lon":5.398795,"is_reserved":false,"is_disabled":false,"rental_uris":{"android":"levelo://app?vid=a5ad08da-7f6d-4294-af11-986f7a566a73","ios":"levelo://app?vid=a5ad08da-7f6d-4294-af11-986f7a566a73"},"vehicle_type_id":"4","last_reported":1720285577,"current_range_meters":6400,"station_id":"ce4bh0h2rcd13ifvqd40","pricing_plan_id":"cebpf4jnsgd1na2vs0mg"},{"bike_id":"0e40af56-abb2-4d56-a05e-75e57043aeff","system_id":"levelo_inurba_marseille","lat":43.301117,"lon":5.398795,"is_reserved":false,"is_disabled":false,"rental_uris":{"android":"levelo://app?vid=0e40af56-abb2-4d56-a05e-75e57043aeff","ios":"levelo://app?vid=0e40af56-abb2-4d56-a05e-75e57043aeff"},"vehicle_type_id":"4","last_reported":1720285577,"current_range_meters":7600,"station_id":"ce4bh0h2rcd13ifvqd40","pricing_plan_id":"cebpf4jnsgd1na2vs0mg"},{"bike_id":"a5916ad7-e6fa-42b8-b964-eeb774db35cb","system_id":"levelo_inurba_marseille","lat":43.301117,"lon":5.398795,"is_reserved":false,"is_disabled":false,"rental_uris":{"android":"levelo://app?vid=a5916ad7-e6fa-42b8-b964-eeb774db35cb","ios":"levelo://app?vid=a5916ad7-e6fa-42b8-b964-eeb774db35cb"},"vehicle_type_id":"4","last_reported":1720285577,"current_range_meters":13200,"station_id":"ce4bh0h2rcd13ifvqd40","pricing_plan_id":"cebpf4jnsgd1na2vs0mg"},{"bike_id":"c37f6d69-b978-4e22-821a-1b0aef00303a","system_id":"levelo_inurba_marseille","lat":43.286591,"lon":5.363346,"is_reserved":false,"is_disabled":false,"rental_uris":{"android":"levelo://app?vid=c37f6d69-b978-4e22-821a-1b0aef00303a","ios":"levelo://app?vid=c37f6d69-b978-4e22-821a-1b0aef00303a"},"vehicle_type_id":"4","last_reported":1720285577,"current_range_meters":14000,"station_id":"ce4bhah2rcd13ifvqej0","pricing_plan_id":"cebpf4jnsgd1na2vs0mg"},{"bike_id":"01896377-c1b6-444d-ba66-5175a19a6b6f","system_id":"levelo_inurba_marseille","lat":43.286961,"lon":5.373785,"is_reserved":false,"is_disabled":false,"rental_uris":{"android":"levelo://app?vid=01896377-c1b6-444d-ba66-5175a19a6b6f","ios":"levelo://app?vid=01896377-c1b6-444d-ba66-5175a19a6b6f"},"vehicle_type_id":"4","last_reported":1720285577,"current_range_meters":16800,"station_id":"ce4bh3p2rcd13ifvqdq0","pricing_plan_id":"cebpf4jnsgd1na2vs0mg"},{"bike_id":"ed07d3aa-4c48-411c-8bb5-5a2618c9aea8","system_id":"levelo_inurba_marseille","lat":43.286961,"lon":5.373785,"is_reserved":false,"is_disabled":false,"rental_uris":{"android":"levelo://app?vid=ed07d3aa-4c48-411c-8bb5-5a2618c9aea8","ios":"levelo://app?vid=ed07d3aa-4c48-411c-8bb5-5a2618c9aea8"},"vehicle_type_id":"4","last_reported":1720285577,"current_range_meters":22000,"station_id":"ce4bh3p2rcd13ifvqdq0","pricing_plan_id":"cebpf4jnsgd1na2vs0mg"},{"bike_id":"7951753f-9e0a-402f-8da4-ad94847501c5","system_id":"levelo_inurba_marseille","lat":43.286961,"lon":5.373785,"is_reserved":false,"is_disabled":false,"rental_uris":{"android":"levelo://app?vid=7951753f-9e0a-402f-8da4-ad94847501c5","ios":"levelo://app?vid=7951753f-9e0a-402f-8da4-ad94847501c5"},"vehicle_type_id":"4","last_reported":1720285577,"current_range_meters":14400,"station_id":"ce4bh3p2rcd13ifvqdq0","pricing_plan_id":"cebpf4jnsgd1na2vs0mg"},{"bike_id":"5b31f447-0e7f-49ed-a459-02dc6ccc32c6","system_id":"levelo_inurba_marseille","lat":43.286593,"lon":5.363346,"is_reserved":false,"is_disabled":false,"rental_uris":{"android":"levelo://app?vid=5b31f447-0e7f-49ed-a459-02dc6ccc32c6","ios":"levelo://app?vid=5b31f447-0e7f-49ed-a459-02dc6ccc32c6"},"vehicle_type_id":"4","last_reported":1720285577,"current_range_meters":10400,"station_id":"ce4bhah2rcd13ifvqej0","pricing_plan_id":"cebpf4jnsgd1na2vs0mg"},{"bike_id":"ffcc3d5a-087d-465d-a81d-7109821d2a9f","system_id":"levelo_inurba_marseille","lat":43.286593,"lon":5.363346,"is_reserved":false,"is_disabled":false,"rental_uris":{"android":"levelo://app?vid=ffcc3d5a-087d-465d-a81d-7109821d2a9f","ios":"levelo://app?vid=ffcc3d5a-087d-465d-a81d-7109821d2a9f"},"vehicle_type_id":"4","last_reported":1720285577,"current_range_meters":8800,"station_id":"ce4bhah2rcd13ifvqej0","pricing_plan_id":"cebpf4jnsgd1na2vs0mg"},{"bike_id":"b2852b69-8400-4e9f-9601-c0a3f82d5f6f","system_id":"levelo_inurba_marseille","lat":43.295196,"lon":5.39397,"is_reserved":false,"is_disabled":false,"rental_uris":{"android":"levelo://app?vid=b2852b69-8400-4e9f-9601-c0a3f82d5f6f","ios":"levelo://app?vid=b2852b69-8400-4e9f-9601-c0a3f82d5f6f"},"vehicle_type_id":"4","last_reported":1720285577,"current_range_meters":20400,"station_id":"ce4bh292rcd13ifvqdf0","pricing_plan_id":"cebpf4jnsgd1na2vs0mg"},{"bike_id":"e5ccbeb2-4305-4dfe-9224-b61afc0c6f42","system_id":"levelo_inurba_marseille","lat":43.30239,"lon":5.40044,"is_reserved":false,"is_disabled":false,"rental_uris":{"android":"levelo://app?vid=e5ccbeb2-4305-4dfe-9224-b61afc0c6f42","ios":"levelo://app?vid=e5ccbeb2-4305-4dfe-9224-b61afc0c6f42"},"vehicle_type_id":"4","last_reported":1720285577,"current_range_meters":31200,"station_id":"ce4bgvh2rcd13ifvqcs0","pricing_plan_id":"cebpf4jnsgd1na2vs0mg"},{"bike_id":"56f11875-9442-419b-a778-873ee2b8d160","system_id":"levelo_inurba_marseille","lat":43.302477,"lon":5.40053,"is_reserved":false,"is_disabled":false,"rental_uris":{"android":"levelo://app?vid=56f11875-9442-419b-a778-873ee2b8d160","ios":"levelo://app?vid=56f11875-9442-419b-a778-873ee2b8d160"},"vehicle_type_id":"4","last_reported":1720285577,"current_range_meters":22000,"station_id":"ce4bgvh2rcd13ifvqcs0","pricing_plan_id":"cebpf4jnsgd1na2vs0mg"},{"bike_id":"6516f70e-6af8-447b-a524-db8515b28754","system_id":"levelo_inurba_marseille","lat":43.302759,"lon":5.400793,"is_reserved":false,"is_disabled":false,"rental_uris":{"android":"levelo://app?vid=6516f70e-6af8-447b-a524-db8515b28754","ios":"levelo://app?vid=6516f70e-6af8-447b-a524-db8515b28754"},"vehicle_type_id":"4","last_reported":1720285577,"current_range_meters":400,"station_id":"ce4bgvh2rcd13ifvqcs0","pricing_plan_id":"cebpf4jnsgd1na2vs0mg"},{"bike_id":"c53e14d0-ecc5-42d7-a63a-6a896ca12174","system_id":"levelo_inurba_marseille","lat":43.290345,"lon":5.38646,"is_reserved":false,"is_disabled":false,"rental_uris":{"android":"levelo://app?vid=c53e14d0-ecc5-42d7-a63a-6a896ca12174","ios":"levelo://app?vid=c53e14d0-ecc5-42d7-a63a-6a896ca12174"},"vehicle_type_id":"4","last_reported":1720285577,"current_range_meters":6800,"station_id":"ce4bh4p2rcd13ifvqe0g","pricing_plan_id":"cebpf4jnsgd1na2vs0mg"},{"bike_id":"5d22c8c9-fe62-4ed9-a324-1ee6cb989ac8","system_id":"levelo_inurba_marseille","lat":43.289307,"lon":5.38406,"is_reserved":false,"is_disabled":false,"rental_uris":{"android":"levelo://app?vid=5d22c8c9-fe62-4ed9-a324-1ee6cb989ac8","ios":"levelo://app?vid=5d22c8c9-fe62-4ed9-a324-1ee6cb989ac8"},"vehicle_type_id":"4","last_reported":1720285577,"current_range_meters":800,"station_id":"ce4bh612rcd13ifvqe6g","pricing_plan_id":"cebpf4jnsgd1na2vs0mg"},{"bike_id":"580f88ba-ab69-410c-9d17-a03ee59ff63d","system_id":"levelo_inurba_marseille","lat":43.290336,"lon":5.386425,"is_reserved":false,"is_disabled":false,"rental_uris":{"android":"levelo://app?vid=580f88ba-ab69-410c-9d17-a03ee59ff63d","ios":"levelo://app?vid=580f88ba-ab69-410c-9d17-a03ee59ff63d"},"vehicle_type_id":"4","last_reported":1720285577,"current_range_meters":20400,"station_id":"ce4bh4p2rcd13ifvqe0g","pricing_plan_id":"cebpf4jnsgd1na2vs0mg"},{"bike_id":"1a67dc7d-8c65-42a2-9d38-d29c22fa57c3","system_id":"levelo_inurba_marseille","lat":43.290345,"lon":5.38646,"is_reserved":false,"is_disabled":false,"rental_uris":{"android":"levelo://app?vid=1a67dc7d-8c65-42a2-9d38-d29c22fa57c3","ios":"levelo://app?vid=1a67dc7d-8c65-42a2-9d38-d29c22fa57c3"},"vehicle_type_id":"4","last_reported":1720285577,"current_range_meters":13200,"station_id":"ce4bh4p2rcd13ifvqe0g","pricing_plan_id":"cebpf4jnsgd1na2vs0mg"},{"bike_id":"3642c3c2-142c-4ac8-a7f6-2ef5ccad8519","system_id":"levelo_inurba_marseille","lat":43.302759,"lon":5.400793,"is_reserved":false,"is_disabled":false,"rental_uris":{"android":"levelo://app?vid=3642c3c2-142c-4ac8-a7f6-2ef5ccad8519","ios":"levelo://app?vid=3642c3c2-142c-4ac8-a7f6-2ef5ccad8519"},"vehicle_type_id":"4","last_reported":1720285577,"current_range_meters":13200,"station_id":"ce4bgvh2rcd13ifvqcs0","pricing_plan_id":"cebpf4jnsgd1na2vs0mg"},{"bike_id":"5e2d520e-8183-4dda-8fe0-6c687efd6b05","system_id":"levelo_inurba_marseille","lat":43.302759,"lon":5.400793,"is_reserved":false,"is_disabled":false,"rental_uris":{"android":"levelo://app?vid=5e2d520e-8183-4dda-8fe0-6c687efd6b05","ios":"levelo://app?vid=5e2d520e-8183-4dda-8fe0-6c687efd6b05"},"vehicle_type_id":"4","last_reported":1720285577,"current_range_meters":4000,"station_id":"ce4bgvh2rcd13ifvqcs0","pricing_plan_id":"cebpf4jnsgd1na2vs0mg"},{"bike_id":"1dc8a5d5-fb2b-434e-91fb-8120d62e7e2d","system_id":"levelo_inurba_marseille","lat":43.286039,"lon":5.370679,"is_reserved":false,"is_disabled":false,"rental_uris":{"android":"levelo://app?vid=1dc8a5d5-fb2b-434e-91fb-8120d62e7e2d","ios":"levelo://app?vid=1dc8a5d5-fb2b-434e-91fb-8120d62e7e2d"},"vehicle_type_id":"4","last_reported":1720285577,"current_range_meters":0,"station_id":"ce4bht12rcd13ifvqi60","pricing_plan_id":"cebpf4jnsgd1na2vs0mg"},{"bike_id":"420a87f1-2556-4702-90ca-80cafede78c7","system_id":"levelo_inurba_marseille","lat":43.316828,"lon":5.404723,"is_reserved":false,"is_disabled":false,"rental_uris":{"android":"levelo://app?vid=420a87f1-2556-4702-90ca-80cafede78c7","ios":"levelo://app?vid=420a87f1-2556-4702-90ca-80cafede78c7"},"vehicle_type_id":"4","last_reported":1720285577,"current_range_meters":4800,"station_id":"ce4bh012rcd13ifvqd00","pricing_plan_id":"cebpf4jnsgd1na2vs0mg"},{"bike_id":"b2853c7a-8c8f-42a4-926a-718fc8ca5b4e","system_id":"levelo_inurba_marseille","lat":43.316828,"lon":5.404723,"is_reserved":false,"is_disabled":false,"rental_uris":{"android":"levelo://app?vid=b2853c7a-8c8f-42a4-926a-718fc8ca5b4e","ios":"levelo://app?vid=b2853c7a-8c8f-42a4-926a-718fc8ca5b4e"},"vehicle_type_id":"4","last_reported":1720285577,"current_range_meters":22400,"station_id":"ce4bh012rcd13ifvqd00","pricing_plan_id":"cebpf4jnsgd1na2vs0mg"},{"bike_id":"b4c433a1-d63d-4ce8-a8d6-23b33d3b16b9","system_id":"levelo_inurba_marseille","lat":43.316828,"lon":5.404723,"is_reserved":false,"is_disabled":false,"rental_uris":{"android":"levelo://app?vid=b4c433a1-d63d-4ce8-a8d6-23b33d3b16b9","ios":"levelo://app?vid=b4c433a1-d63d-4ce8-a8d6-23b33d3b16b9"},"vehicle_type_id":"4","last_reported":1720285577,"current_range_meters":30000,"station_id":"ce4bh012rcd13ifvqd00","pricing_plan_id":"cebpf4jnsgd1na2vs0mg"},{"bike_id":"7a4ccaf9-fd1c-472f-b351-0e31bc680875","system_id":"levelo_inurba_marseille","lat":43.316828,"lon":5.404723,"is_reserved":false,"is_disabled":false,"rental_uris":{"android":"levelo://app?vid=7a4ccaf9-fd1c-472f-b351-0e31bc680875","ios":"levelo://app?vid=7a4ccaf9-fd1c-472f-b351-0e31bc680875"},"vehicle_type_id":"4","last_reported":1720285577,"current_range_meters":30800,"station_id":"ce4bh012rcd13ifvqd00","pricing_plan_id":"cebpf4jnsgd1na2vs0mg"},{"bike_id":"c26446ee-ef57-4d3b-a28a-8cfb0ba4557b","system_id":"levelo_inurba_marseille","lat":43.316828,"lon":5.404723,"is_reserved":false,"is_disabled":false,"rental_uris":{"android":"levelo://app?vid=c26446ee-ef57-4d3b-a28a-8cfb0ba4557b","ios":"levelo://app?vid=c26446ee-ef57-4d3b-a28a-8cfb0ba4557b"},"vehicle_type_id":"4","last_reported":1720285577,"current_range_meters":30800,"station_id":"ce4bh012rcd13ifvqd00","pricing_plan_id":"cebpf4jnsgd1na2vs0mg"},{"bike_id":"9199d01e-843b-41c9-922d-5a2ea43046f8","system_id":"levelo_inurba_marseille","lat":43.31688,"lon":5.40471,"is_reserved":false,"is_disabled":false,"rental_uris":{"android":"levelo://app?vid=9199d01e-843b-41c9-922d-5a2ea43046f8","ios":"levelo://app?vid=9199d01e-843b-41c9-922d-5a2ea43046f8"},"vehicle_type_id":"4","last_reported":1720285577,"current_range_meters":27200,"station_id":"","pricing_plan_id":"cebpf4jnsgd1na2vs0mg"},{"bike_id":"a4b429cd-64ea-419a-b53b-251f6015f4fe","system_id":"levelo_inurba_marseille","lat":43.3168,"lon":5.40475,"is_reserved":false,"is_disabled":false,"rental_uris":{"android":"levelo://app?vid=a4b429cd-64ea-419a-b53b-251f6015f4fe","ios":"levelo://app?vid=a4b429cd-64ea-419a-b53b-251f6015f4fe"},"vehicle_type_id":"4","last_reported":1720285577,"current_range_meters":2400,"station_id":"ce4bh012rcd13ifvqd00","pricing_plan_id":"cebpf4jnsgd1na2vs0mg"},{"bike_id":"a3186dbf-5df5-4240-9950-c6f17d72d7ec","system_id":"levelo_inurba_marseille","lat":43.316821,"lon":5.404737,"is_reserved":false,"is_disabled":false,"rental_uris":{"android":"levelo://app?vid=a3186dbf-5df5-4240-9950-c6f17d72d7ec","ios":"levelo://app?vid=a3186dbf-5df5-4240-9950-c6f17d72d7ec"},"vehicle_type_id":"4","last_reported":1720285577,"current_range_meters":12400,"station_id":"ce4bh012rcd13ifvqd00","pricing_plan_id":"cebpf4jnsgd1na2vs0mg"},{"bike_id":"598f5cd4-7508-4743-9241-1d180d117a1e","system_id":"levelo_inurba_marseille","lat":43.291994,"lon":5.392907,"is_reserved":false,"is_disabled":false,"rental_uris":{"android":"levelo://app?vid=598f5cd4-7508-4743-9241-1d180d117a1e","ios":"levelo://app?vid=598f5cd4-7508-4743-9241-1d180d117a1e"},"vehicle_type_id":"4","last_reported":1720285577,"current_range_meters":10800,"station_id":"ce4bh192rcd13ifvqdd0","pricing_plan_id":"cebpf4jnsgd1na2vs0mg"},{"bike_id":"fa2b181c-7ac9-4189-b5a4-f99bbdcab9cb","system_id":"levelo_inurba_marseille","lat":43.283998,"lon":5.375062,"is_reserved":false,"is_disabled":false,"rental_uris":{"android":"levelo://app?vid=fa2b181c-7ac9-4189-b5a4-f99bbdcab9cb","ios":"levelo://app?vid=fa2b181c-7ac9-4189-b5a4-f99bbdcab9cb"},"vehicle_type_id":"4","last_reported":1720285577,"current_range_meters":10400,"station_id":"ce4bh412rcd13ifvqds0","pricing_plan_id":"cebpf4jnsgd1na2vs0mg"},{"bike_id":"8f51fff9-f996-4091-bc6f-e3cbefeba83b","system_id":"levelo_inurba_marseille","lat":43.284538,"lon":5.358657,"is_reserved":false,"is_disabled":false,"rental_uris":{"android":"levelo://app?vid=8f51fff9-f996-4091-bc6f-e3cbefeba83b","ios":"levelo://app?vid=8f51fff9-f996-4091-bc6f-e3cbefeba83b"},"vehicle_type_id":"4","last_reported":1720285577,"current_range_meters":0,"station_id":"ce4bhah2rcd13ifvqei0","pricing_plan_id":"cebpf4jnsgd1na2vs0mg"},{"bike_id":"5fe72fb2-d75f-43c2-aba9-50b05cdf6b05","system_id":"levelo_inurba_marseille","lat":43.284538,"lon":5.358657,"is_reserved":false,"is_disabled":false,"rental_uris":{"android":"levelo://app?vid=5fe72fb2-d75f-43c2-aba9-50b05cdf6b05","ios":"levelo://app?vid=5fe72fb2-d75f-43c2-aba9-50b05cdf6b05"},"vehicle_type_id":"4","last_reported":1720285577,"current_range_meters":2800,"station_id":"ce4bhah2rcd13ifvqei0","pricing_plan_id":"cebpf4jnsgd1na2vs0mg"},{"bike_id":"612102ef-c2a5-4179-b53a-3626bed52d7c","system_id":"levelo_inurba_marseille","lat":43.284534,"lon":5.358662,"is_reserved":false,"is_disabled":false,"rental_uris":{"android":"levelo://app?vid=612102ef-c2a5-4179-b53a-3626bed52d7c","ios":"levelo://app?vid=612102ef-c2a5-4179-b53a-3626bed52d7c"},