{"last_updated":1701673634,"ttl":30,"version":"2.2","data":{"bikes":[{"bike_id":"549e12a1-62c9-4bbb-9a3a-a61e019544aa","system_id":"levelo_inurba_marseille","lat":43.313391,"lon":5.36706,"is_reserved":false,"is_disabled":false,"rental_uris":{"android":"levelo://app?vid=549e12a1-62c9-4bbb-9a3a-a61e019544aa","ios":"levelo://app?vid=549e12a1-62c9-4bbb-9a3a-a61e019544aa"},"vehicle_type_id":"4","last_reported":1701673634,"current_range_meters":29200,"station_id":"ce4bgr92rcd13ifvqc6g","pricing_plan_id":"free"},{"bike_id":"eda36002-8346-46e6-bd32-13474a37f9b1","system_id":"levelo_inurba_marseille","lat":43.314811,"lon":5.373104,"is_reserved":false,"is_disabled":false,"rental_uris":{"android":"levelo://app?vid=eda36002-8346-46e6-bd32-13474a37f9b1","ios":"levelo://app?vid=eda36002-8346-46e6-bd32-13474a37f9b1"},"vehicle_type_id":"4","last_reported":1701673634,"current_range_meters":21600,"station_id":"ce4bgt12rcd13ifvqcd0","pricing_plan_id":"free"},{"bike_id":"dc7c8d6f-541d-4b1a-b53a-5b1aa4991690","system_id":"levelo_inurba_marseille","lat":43.305989,"lon":5.37225,"is_reserved":false,"is_disabled":false,"rental_uris":{"android":"levelo://app?vid=dc7c8d6f-541d-4b1a-b53a-5b1aa4991690","ios":"levelo://app?vid=dc7c8d6f-541d-4b1a-b53a-5b1aa4991690"},"vehicle_type_id":"4","last_reported":1701673634,"current_range_meters":21600,"station_id":"ce4bgqh2rcd13ifvqc4g","pricing_plan_id":"free"},{"bike_id":"1fea84aa-7d31-4843-974a-304c03729fd2","system_id":"levelo_inurba_marseille","lat":43.308148,"lon":5.376653,"is_reserved":false,"is_disabled":false,"rental_uris":{"android":"levelo://app?vid=1fea84aa-7d31-4843-974a-304c03729fd2","ios":"levelo://app?vid=1fea84aa-7d31-4843-974a-304c03729fd2"},"vehicle_type_id":"4","last_reported":1701673634,"current_range_meters":2800,"station_id":"ce4bgv92rcd13ifvqcq0","pricing_plan_id":"free"},{"bike_id":"e913f328-1e31-4c22-bd87-f809ea246de4","system_id":"levelo_inurba_marseille","lat":43.317168,"lon":5.376883,"is_reserved":false,"is_disabled":false,"rental_uris":{"android":"levelo://app?vid=e913f328-1e31-4c22-bd87-f809ea246de4","ios":"levelo://app?vid=e913f328-1e31-4c22-bd87-f809ea246de4"},"vehicle_type_id":"4","last_reported":1701673634,"current_range_meters":0,"station_id":"","pricing_plan_id":"free"},{"bike_id":"1c04753e-6979-4f1e-af31-3b4feaef49b4","system_id":"levelo_inurba_marseille","lat":43.317075,"lon":5.377367,"is_reserved":false,"is_disabled":false,"rental_uris":{"android":"levelo://app?vid=1c04753e-6979-4f1e-af31-3b4feaef49b4","ios":"levelo://app?vid=1c04753e-6979-4f1e-af31-3b4feaef49b4"},"vehicle_type_id":"4","last_reported":1701673634,"current_range_meters":29600,"station_id":"ce4bgth2rcd13ifvqch0","pricing_plan_id":"free"},{"bike_id":"fb6fd937-527b-4585-9058-0dfdc6436ac8","system_id":"levelo_inurba_marseille","lat":43.31351,"lon":5.37909,"is_reserved":false,"is_disabled":false,"rental_uris":{"android":"levelo://app?vid=fb6fd937-527b-4585-9058-0dfdc6436ac8","ios":"levelo://app?vid=fb6fd937-527b-4585-9058-0dfdc6436ac8"},"vehicle_type_id":"4","last_reported":1701673634,"current_range_meters":14800,"station_id":"","pricing_plan_id":"free"},{"bike_id":"88e81807-ce37-4cf4-a39b-5a352048ec67","system_id":"levelo_inurba_marseille","lat":43.30304,"lon":5.368987,"is_reserved":false,"is_disabled":false,"rental_uris":{"android":"levelo://app?vid=88e81807-ce37-4cf4-a39b-5a352048ec67","ios":"levelo://app?vid=88e81807-ce37-4cf4-a39b-5a352048ec67"},"vehicle_type_id":"4","last_reported":1701673634,"current_range_meters":31200,"station_id":"ce4bgqh2rcd13ifvqc5g","pricing_plan_id":"free"},{"bike_id":"a1f6d0aa-3217-4853-b3e9-dea09ce837b4","system_id":"levelo_inurba_marseille","lat":43.303046,"lon":5.368981,"is_reserved":false,"is_disabled":false,"rental_uris":{"android":"levelo://app?vid=a1f6d0aa-3217-4853-b3e9-dea09ce837b4","ios":"levelo://app?vid=a1f6d0aa-3217-4853-b3e9-dea09ce837b4"},"vehicle_type_id":"4","last_reported":1701673634,"current_range_meters":28800,"station_id":"ce4bgqh2rcd13ifvqc5g","pricing_plan_id":"free"},{"bike_id":"ef154fd2-0af1-4700-9671-b49ff1dc5813","system_id":"levelo_inurba_marseille","lat":43.31534,"lon":5.3804,"is_reserved":false,"is_disabled":false,"rental_uris":{"android":"levelo://app?vid=ef154fd2-0af1-4700-9671-b49ff1dc5813","ios":"levelo://app?vid=ef154fd2-0af1-4700-9671-b49ff1dc5813"},"vehicle_type_id":"4","last_reported":1701673634,"current_range_meters":19200,"station_id":"ce4bhsp2rcd13ifvqi50","pricing_plan_id":"free"},{"bike_id":"ea5ba3a1-d0c2-4df3-b919-992e8076c933","system_id":"levelo_inurba_marseille","lat":43.304606,"lon":5.379026,"is_reserved":false,"is_disabled":false,"rental_uris":{"android":"levelo://app?vid=ea5ba3a1-d0c2-4df3-b919-992e8076c933","ios":"levelo://app?vid=ea5ba3a1-d0c2-4df3-b919-992e8076c933"},"vehicle_type_id":"4","last_reported":1701673634,"current_range_meters":12800,"station_id":"ce4bgup2rcd13ifvqcn0","pricing_plan_id":"free"},{"bike_id":"e71fd6cd-e152-4ae0-a392-904e3e718e65","system_id":"levelo_inurba_marseille","lat":43.30473,"lon":5.37906,"is_reserved":false,"is_disabled":false,"rental_uris":{"android":"levelo://app?vid=e71fd6cd-e152-4ae0-a392-904e3e718e65","ios":"levelo://app?vid=e71fd6cd-e152-4ae0-a392-904e3e718e65"},"vehicle_type_id":"4","last_reported":1701673634,"current_range_meters":27600,"station_id":"ce4bgup2rcd13ifvqcn0","pricing_plan_id":"free"},{"bike_id":"dfc74cb0-ff82-45be-9fad-66a38ab7d771","system_id":"levelo_inurba_marseille","lat":43.304606,"lon":5.379026,"is_reserved":false,"is_disabled":false,"rental_uris":{"android":"levelo://app?vid=dfc74cb0-ff82-45be-9fad-66a38ab7d771","ios":"levelo://app?vid=dfc74cb0-ff82-45be-9fad-66a38ab7d771"},"vehicle_type_id":"4","last_reported":1701673634,"current_range_meters":27200,"station_id":"ce4bgup2rcd13ifvqcn0","pricing_plan_id":"free"},{"bike_id":"80a38c3a-69dc-45b5-91a9-0a723e422bc5","system_id":"levelo_inurba_marseille","lat":43.30459,"lon":5.37907,"is_reserved":false,"is_disabled":false,"rental_uris":{"android":"levelo://app?vid=80a38c3a-69dc-45b5-91a9-0a723e422bc5","ios":"levelo://app?vid=80a38c3a-69dc-45b5-91a9-0a723e422bc5"},"vehicle_type_id":"4","last_reported":1701673634,"current_range_meters":17600,"station_id":"ce4bgup2rcd13ifvqcn0","pricing_plan_id":"free"},{"bike_id":"def01a86-45af-436e-a2f3-9badb6a6fa4c","system_id":"levelo_inurba_marseille","lat":43.304606,"lon":5.379026,"is_reserved":false,"is_disabled":false,"rental_uris":{"android":"levelo://app?vid=def01a86-45af-436e-a2f3-9badb6a6fa4c","ios":"levelo://app?vid=def01a86-45af-436e-a2f3-9badb6a6fa4c"},"vehicle_type_id":"4","last_reported":1701673634,"current_range_meters":28400,"station_id":"ce4bgup2rcd13ifvqcn0","pricing_plan_id":"free"},{"bike_id":"25662d33-57ff-4f0d-a835-0d741e8249c8","system_id":"levelo_inurba_marseille","lat":43.30452,"lon":5.37909,"is_reserved":false,"is_disabled":false,"rental_uris":{"android":"levelo://app?vid=25662d33-57ff-4f0d-a835-0d741e8249c8","ios":"levelo://app?vid=25662d33-57ff-4f0d-a835-0d741e8249c8"},"vehicle_type_id":"4","last_reported":1701673634,"current_range_meters":27600,"station_id":"ce4bgup2rcd13ifvqcn0","pricing_plan_id":"free"},{"bike_id":"2275aca5-3158-4c2c-8022-ca5d2714bc86","system_id":"levelo_inurba_marseille","lat":43.319997,"lon":5.381594,"is_reserved":false,"is_disabled":false,"rental_uris":{"android":"levelo://app?vid=2275aca5-3158-4c2c-8022-ca5d2714bc86","ios":"levelo://app?vid=2275aca5-3158-4c2c-8022-ca5d2714bc86"},"vehicle_type_id":"4","last_reported":1701673634,"current_range_meters":8400,"station_id":"ce4bhr12rcd13ifvqhpg","pricing_plan_id":"free"},{"bike_id":"aaa26a12-246b-4d79-95da-dfbdfaf67518","system_id":"levelo_inurba_marseille","lat":43.313656,"lon":5.384888,"is_reserved":false,"is_disabled":false,"rental_uris":{"android":"levelo://app?vid=aaa26a12-246b-4d79-95da-dfbdfaf67518","ios":"levelo://app?vid=aaa26a12-246b-4d79-95da-dfbdfaf67518"},"vehicle_type_id":"4","last_reported":1701673634,"current_range_meters":27600,"station_id":"ce4bgt92rcd13ifvqcf0","pricing_plan_id":"free"},{"bike_id":"9fdb7f97-586d-42d2-befd-15216ba2e422","system_id":"levelo_inurba_marseille","lat":43.31183,"lon":5.38523,"is_reserved":false,"is_disabled":false,"rental_uris":{"android":"levelo://app?vid=9fdb7f97-586d-42d2-befd-15216ba2e422","ios":"levelo://app?vid=9fdb7f97-586d-42d2-befd-15216ba2e422"},"vehicle_type_id":"4","last_reported":1701673634,"current_range_meters":0,"station_id":"","pricing_plan_id":"free"},{"bike_id":"13fdcab2-d074-418f-b35d-9d0db55b73de","system_id":"levelo_inurba_marseille","lat":43.299222,"lon":5.365554,"is_reserved":false,"is_disabled":false,"rental_uris":{"android":"levelo://app?vid=13fdcab2-d074-418f-b35d-9d0db55b73de","ios":"levelo://app?vid=13fdcab2-d074-418f-b35d-9d0db55b73de"},"vehicle_type_id":"4","last_reported":1701673634,"current_range_meters":20400,"station_id":"ce4bgm92rcd13ifvqbr0","pricing_plan_id":"free"},{"bike_id":"748d12ab-8e09-4ecd-b2d2-cbe0ea9624f6","system_id":"levelo_inurba_marseille","lat":43.298984,"lon":5.367316,"is_reserved":false,"is_disabled":false,"rental_uris":{"android":"levelo://app?vid=748d12ab-8e09-4ecd-b2d2-cbe0ea9624f6","ios":"levelo://app?vid=748d12ab-8e09-4ecd-b2d2-cbe0ea9624f6"},"vehicle_type_id":"4","last_reported":1701673634,"current_range_meters":0,"station_id":"","pricing_plan_id":"free"},{"bike_id":"71cad11d-77af-4aff-9892-72d9f2fd4bc6","system_id":"levelo_inurba_marseille","lat":43.305364,"lon":5.384119,"is_reserved":false,"is_disabled":false,"rental_uris":{"android":"levelo://app?vid=71cad11d-77af-4aff-9892-72d9f2fd4bc6","ios":"levelo://app?vid=71cad11d-77af-4aff-9892-72d9f2fd4bc6"},"vehicle_type_id":"4","last_reported":1701673634,"current_range_meters":29200,"station_id":"ce4bgg92rcd13ifvqb30","pricing_plan_id":"free"},{"bike_id":"631c0f0a-c87a-4ac2-8c86-a55effd3d60b","system_id":"levelo_inurba_marseille","lat":43.298433,"lon":5.362774,"is_reserved":false,"is_disabled":false,"rental_uris":{"android":"levelo://app?vid=631c0f0a-c87a-4ac2-8c86-a55effd3d60b","ios":"levelo://app?vid=631c0f0a-c87a-4ac2-8c86-a55effd3d60b"},"vehicle_type_id":"4","last_reported":1701673634,"current_range_meters":28000,"station_id":"ce4bgpp2rcd13ifvqc3g","pricing_plan_id":"free"},{"bike_id":"44c5eb3c-a120-47fa-9b6c-8fef0ee6966e","system_id":"levelo_inurba_marseille","lat":43.305364,"lon":5.384119,"is_reserved":false,"is_disabled":false,"rental_uris":{"android":"levelo://app?vid=44c5eb3c-a120-47fa-9b6c-8fef0ee6966e","ios":"levelo://app?vid=44c5eb3c-a120-47fa-9b6c-8fef0ee6966e"},"vehicle_type_id":"4","last_reported":1701673634,"current_range_meters":23200,"station_id":"ce4bgg92rcd13ifvqb30","pricing_plan_id":"free"},{"bike_id":"510c0c07-2d84-4bb3-b1e2-520f73f429dd","system_id":"levelo_inurba_marseille","lat":43.297794,"lon":5.370888,"is_reserved":false,"is_disabled":false,"rental_uris":{"android":"levelo://app?vid=510c0c07-2d84-4bb3-b1e2-520f73f429dd","ios":"levelo://app?vid=510c0c07-2d84-4bb3-b1e2-520f73f429dd"},"vehicle_type_id":"4","last_reported":1701673634,"current_range_meters":28000,"station_id":"ce4bgop2rcd13ifvqc1g","pricing_plan_id":"free"},{"bike_id":"3c050ed5-2190-468b-91df-7c5b5cb9deb9","system_id":"levelo_inurba_marseille","lat":43.297774,"lon":5.370875,"is_reserved":false,"is_disabled":false,"rental_uris":{"android":"levelo://app?vid=3c050ed5-2190-468b-91df-7c5b5cb9deb9","ios":"levelo://app?vid=3c050ed5-2190-468b-91df-7c5b5cb9deb9"},"vehicle_type_id":"4","last_reported":1701673634,"current_range_meters":30800,"station_id":"ce4bgop2rcd13ifvqc1g","pricing_plan_id":"free"},{"bike_id":"08a721db-bf5d-46b3-9ba3-2a9c6c13bcf6","system_id":"levelo_inurba_marseille","lat":43.328256,"lon":5.366905,"is_reserved":false,"is_disabled":false,"rental_uris":{"android":"levelo://app?vid=08a721db-bf5d-46b3-9ba3-2a9c6c13bcf6","ios":"levelo://app?vid=08a721db-bf5d-46b3-9ba3-2a9c6c13bcf6"},"vehicle_type_id":"4","last_reported":1701673634,"current_range_meters":22000,"station_id":"","pricing_plan_id":"free"},{"bike_id":"c477d28a-023f-48dc-9b5a-c3f6bad6c889","system_id":"levelo_inurba_marseille","lat":43.328371,"lon":5.366909,"is_reserved":false,"is_disabled":false,"rental_uris":{"android":"levelo://app?vid=c477d28a-023f-48dc-9b5a-c3f6bad6c889","ios":"levelo://app?vid=c477d28a-023f-48dc-9b5a-c3f6bad6c889"},"vehicle_type_id":"4","last_reported":1701673634,"current_range_meters":22400,"station_id":"ce4bhs92rcd13ifvqi0g","pricing_plan_id":"free"},{"bike_id":"8874ef37-d11b-4860-b7df-daab8952a737","system_id":"levelo_inurba_marseille","lat":43.32831,"lon":5.36682,"is_reserved":false,"is_disabled":false,"rental_uris":{"android":"levelo://app?vid=8874ef37-d11b-4860-b7df-daab8952a737","ios":"levelo://app?vid=8874ef37-d11b-4860-b7df-daab8952a737"},"vehicle_type_id":"4","last_reported":1701673634,"current_range_meters":20400,"station_id":"ce4bhs92rcd13ifvqi0g","pricing_plan_id":"free"},{"bike_id":"c6ce3b8f-2076-4eb8-b7d5-d674dca50e8e","system_id":"levelo_inurba_marseille","lat":43.32832,"lon":5.36671,"is_reserved":false,"is_disabled":false,"rental_uris":{"android":"levelo://app?vid=c6ce3b8f-2076-4eb8-b7d5-d674dca50e8e","ios":"levelo://app?vid=c6ce3b8f-2076-4eb8-b7d5-d674dca50e8e"},"vehicle_type_id":"4","last_reported":1701673634,"current_range_meters":8000,"station_id":"ce4bhs92rcd13ifvqi0g","pricing_plan_id":"free"},{"bike_id":"d0d5c39d-ba06-4d02-a3a8-e824946b5f23","system_id":"levelo_inurba_marseille","lat":43.32838,"lon":5.36688,"is_reserved":false,"is_disabled":false,"rental_uris":{"android":"levelo://app?vid=d0d5c39d-ba06-4d02-a3a8-e824946b5f23","ios":"levelo://app?vid=d0d5c39d-ba06-4d02-a3a8-e824946b5f23"},"vehicle_type_id":"4","last_reported":1701673634,"current_range_meters":29200,"station_id":"ce4bhs92rcd13ifvqi0g","pricing_plan_id":"free"},{"bike_id":"5c26bdfb-7b7c-43fb-8a01-250128a1a6f8","system_id":"levelo_inurba_marseille","lat":43.29779,"lon":5.37408,"is_reserved":false,"is_disabled":false,"rental_uris":{"android":"levelo://app?vid=5c26bdfb-7b7c-43fb-8a01-250128a1a6f8","ios":"levelo://app?vid=5c26bdfb-7b7c-43fb-8a01-250128a1a6f8"},"vehicle_type_id":"4","last_reported":1701673634,"current_range_meters":20800,"station_id":"","pricing_plan_id":"free"},{"bike_id":"24ac2175-6441-4258-a02a-5179b59b610b","system_id":"levelo_inurba_marseille","lat":43.315198,"lon":5.389282,"is_reserved":false,"is_disabled":false,"rental_uris":{"android":"levelo://app?vid=24ac2175-6441-4258-a02a-5179b59b610b","ios":"levelo://app?vid=24ac2175-6441-4258-a02a-5179b59b610b"},"vehicle_type_id":"4","last_reported":1701673634,"current_range_meters":24000,"station_id":"","pricing_plan_id":"free"},{"bike_id":"5d597ddc-1808-4b9b-82bd-5e6a70aefaca","system_id":"levelo_inurba_marseille","lat":43.329263,"lon":5.365797,"is_reserved":false,"is_disabled":false,"rental_uris":{"android":"levelo://app?vid=5d597ddc-1808-4b9b-82bd-5e6a70aefaca","ios":"levelo://app?vid=5d597ddc-1808-4b9b-82bd-5e6a70aefaca"},"vehicle_type_id":"4","last_reported":1701673634,"current_range_meters":0,"station_id":"","pricing_plan_id":"free"},{"bike_id":"eaa0e7e7-2390-47fa-909b-7b240952cbef","system_id":"levelo_inurba_marseille","lat":43.316538,"lon":5.38954,"is_reserved":false,"is_disabled":false,"rental_uris":{"android":"levelo://app?vid=eaa0e7e7-2390-47fa-909b-7b240952cbef","ios":"levelo://app?vid=eaa0e7e7-2390-47fa-909b-7b240952cbef"},"vehicle_type_id":"4","last_reported":1701673634,"current_range_meters":18000,"station_id":"","pricing_plan_id":"free"},{"bike_id":"a71c79c9-2e02-4efa-8ab0-fbd47268f50a","system_id":"levelo_inurba_marseille","lat":43.31752,"lon":5.39033,"is_reserved":false,"is_disabled":false,"rental_uris":{"android":"levelo://app?vid=a71c79c9-2e02-4efa-8ab0-fbd47268f50a","ios":"levelo://app?vid=a71c79c9-2e02-4efa-8ab0-fbd47268f50a"},"vehicle_type_id":"4","last_reported":1701673634,"current_range_meters":21200,"station_id":"ce4bhqp2rcd13ifvqhng","pricing_plan_id":"free"},{"bike_id":"2b0d5263-0cd3-4538-b5d1-28e0fa3f978c","system_id":"levelo_inurba_marseille","lat":43.298037,"lon":5.381066,"is_reserved":false,"is_disabled":false,"rental_uris":{"android":"levelo://app?vid=2b0d5263-0cd3-4538-b5d1-28e0fa3f978c","ios":"levelo://app?vid=2b0d5263-0cd3-4538-b5d1-28e0fa3f978c"},"vehicle_type_id":"4","last_reported":1701673634,"current_range_meters":800,"station_id":"ce4bgip2rcd13ifvqbb0","pricing_plan_id":"free"},{"bike_id":"8d6e3e4d-c056-4a08-8746-1cea8b0292f9","system_id":"levelo_inurba_marseille","lat":43.304278,"lon":5.388868,"is_reserved":false,"is_disabled":false,"rental_uris":{"android":"levelo://app?vid=8d6e3e4d-c056-4a08-8746-1cea8b0292f9","ios":"levelo://app?vid=8d6e3e4d-c056-4a08-8746-1cea8b0292f9"},"vehicle_type_id":"4","last_reported":1701673634,"current_range_meters":24000,"station_id":"ce4bgk12rcd13ifvqbi0","pricing_plan_id":"free"},{"bike_id":"dbb7bcc9-61f2-4970-8ac1-fc7af782a50b","system_id":"levelo_inurba_marseille","lat":43.304274,"lon":5.388873,"is_reserved":false,"is_disabled":false,"rental_uris":{"android":"levelo://app?vid=dbb7bcc9-61f2-4970-8ac1-fc7af782a50b","ios":"levelo://app?vid=dbb7bcc9-61f2-4970-8ac1-fc7af782a50b"},"vehicle_type_id":"4","last_reported":1701673634,"current_range_meters":28400,"station_id":"ce4bgk12rcd13ifvqbi0","pricing_plan_id":"free"},{"bike_id":"29851edb-e6e9-40fc-baf2-05b0aeeb5fc4","system_id":"levelo_inurba_marseille","lat":43.32367,"lon":5.388836,"is_reserved":false,"is_disabled":false,"rental_uris":{"android":"levelo://app?vid=29851edb-e6e9-40fc-baf2-05b0aeeb5fc4","ios":"levelo://app?vid=29851edb-e6e9-40fc-baf2-05b0aeeb5fc4"},"vehicle_type_id":"4","last_reported":1701673634,"current_range_meters":4400,"station_id":"ce4bhqp2rcd13ifvqhog","pricing_plan_id":"free"},{"bike_id":"0b704906-9d8d-4568-b422-11ebe3993a15","system_id":"levelo_inurba_marseille","lat":43.29601,"lon":5.381084,"is_reserved":false,"is_disabled":false,"rental_uris":{"android":"levelo://app?vid=0b704906-9d8d-4568-b422-11ebe3993a15","ios":"levelo://app?vid=0b704906-9d8d-4568-b422-11ebe3993a15"},"vehicle_type_id":"4","last_reported":1701673634,"current_range_meters":10800,"station_id":"ce4bgl12rcd13ifvqbo0","pricing_plan_id":"free"},{"bike_id":"a2e5fea2-a736-47fe-b047-a79be0bc2d46","system_id":"levelo_inurba_marseille","lat":43.292749,"lon":5.368402,"is_reserved":false,"is_disabled":false,"rental_uris":{"android":"levelo://app?vid=a2e5fea2-a736-47fe-b047-a79be0bc2d46","ios":"levelo://app?vid=a2e5fea2-a736-47fe-b047-a79be0bc2d46"},"vehicle_type_id":"4","last_reported":1701673634,"current_range_meters":27200,"station_id":"ce4bhbp2rcd13ifvqesg","pricing_plan_id":"free"},{"bike_id":"e031c48c-c8ab-4710-bbcb-82b6060cfb99","system_id":"levelo_inurba_marseille","lat":43.292749,"lon":5.368398,"is_reserved":false,"is_disabled":false,"rental_uris":{"android":"levelo://app?vid=e031c48c-c8ab-4710-bbcb-82b6060cfb99","ios":"levelo://app?vid=e031c48c-c8ab-4710-bbcb-82b6060cfb99"},"vehicle_type_id":"4","last_reported":1701673634,"current_range_meters":800,"station_id":"ce4bhbp2rcd13ifvqesg","pricing_plan_id":"free"},{"bike_id":"cf766efc-278b-43aa-90aa-61742af14248","system_id":"levelo_inurba_marseille","lat":43.305994,"lon":5.393687,"is_reserved":false,"is_disabled":false,"rental_uris":{"android":"levelo://app?vid=cf766efc-278b-43aa-90aa-61742af14248","ios":"levelo://app?vid=cf766efc-278b-43aa-90aa-61742af14248"},"vehicle_type_id":"4","last_reported":1701673634,"current_range_meters":30800,"station_id":"ce4bh0p2rcd13ifvqd80","pricing_plan_id":"free"},{"bike_id":"150805fa-cc93-4d79-b119-0ceee234543f","system_id":"levelo_inurba_marseille","lat":43.305994,"lon":5.393687,"is_reserved":false,"is_disabled":false,"rental_uris":{"android":"levelo://app?vid=150805fa-cc93-4d79-b119-0ceee234543f","ios":"levelo://app?vid=150805fa-cc93-4d79-b119-0ceee234543f"},"vehicle_type_id":"4","last_reported":1701673634,"current_range_meters":10400,"station_id":"ce4bh0p2rcd13ifvqd80","pricing_plan_id":"free"},{"bike_id":"a3b4fdbb-9833-43af-9e3e-26da29374e03","system_id":"levelo_inurba_marseille","lat":43.291675,"lon":5.371583,"is_reserved":false,"is_disabled":false,"rental_uris":{"android":"levelo://app?vid=a3b4fdbb-9833-43af-9e3e-26da29374e03","ios":"levelo://app?vid=a3b4fdbb-9833-43af-9e3e-26da29374e03"},"vehicle_type_id":"4","last_reported":1701673634,"current_range_meters":25600,"station_id":"ce4bha92rcd13ifvqeh0","pricing_plan_id":"free"},{"bike_id":"ad6288d8-3d50-4045-bfbd-30b614330d87","system_id":"levelo_inurba_marseille","lat":43.3021,"lon":5.39429,"is_reserved":false,"is_disabled":false,"rental_uris":{"android":"levelo://app?vid=ad6288d8-3d50-4045-bfbd-30b614330d87","ios":"levelo://app?vid=ad6288d8-3d50-4045-bfbd-30b614330d87"},"vehicle_type_id":"4","last_reported":1701673634,"current_range_meters":19200,"station_id":"ce4bh0p2rcd13ifvqd70","pricing_plan_id":"free"},{"bike_id":"e92c1b4e-db4a-41c9-aadf-f0fa0e8bdf95","system_id":"levelo_inurba_marseille","lat":43.294153,"lon":5.386305,"is_reserved":false,"is_disabled":false,"rental_uris":{"android":"levelo://app?vid=e92c1b4e-db4a-41c9-aadf-f0fa0e8bdf95","ios":"levelo://app?vid=e92c1b4e-db4a-41c9-aadf-f0fa0e8bdf95"},"vehicle_type_id":"4","last_reported":1701673634,"current_range_meters":26400,"station_id":"ce4bh2h2rcd13ifvqdh0","pricing_plan_id":"free"},{"bike_id":"dee7c56e-60ef-47dd-b4f6-dfa445c62a3b","system_id":"levelo_inurba_marseille","lat":43.28939,"lon":5.36407,"is_reserved":false,"is_disabled":false,"rental_uris":{"android":"levelo://app?vid=dee7c56e-60ef-47dd-b4f6-dfa445c62a3b","ios":"levelo://app?vid=dee7c56e-60ef-47dd-b4f6-dfa445c62a3b"},"vehicle_type_id":"4","last_reported":1701673634,"current_range_meters":14000,"station_id":"ce4bhc92rcd13ifvqetg","pricing_plan_id":"free"},{"bike_id":"2ab3cc07-bd0e-4cdf-a728-10546a974047","system_id":"levelo_inurba_marseille","lat":43.289468,"lon":5.363719,"is_reserved":false,"is_disabled":false,"rental_uris":{"android":"levelo://app?vid=2ab3cc07-bd0e-4cdf-a728-10546a974047","ios":"levelo://app?vid=2ab3cc07-bd0e-4cdf-a728-10546a974047"},"vehicle_type_id":"4","last_reported":1701673634,"current_range_meters":11200,"station_id":"ce4bhc92rcd13ifvqetg","pricing_plan_id":"free"},{"bike_id":"943e16e1-5642-4fbc-9409-adc459b15b96","system_id":"levelo_inurba_marseille","lat":43.290104,"lon":5.356111,"is_reserved":false,"is_disabled":false,"rental_uris":{"android":"levelo://app?vid=943e16e1-5642-4fbc-9409-adc459b15b96","ios":"levelo://app?vid=943e16e1-5642-4fbc-9409-adc459b15b96"},"vehicle_type_id":"4","last_reported":1701673634,"current_range_meters":14000,"station_id":"ce4bhb92rcd13ifvqen0","pricing_plan_id":"free"},{"bike_id":"8f2ceb78-394d-4ee6-addf-b21d4ba659db","system_id":"levelo_inurba_marseille","lat":43.302235,"lon":5.396809,"is_reserved":false,"is_disabled":false,"rental_uris":{"android":"levelo://app?vid=8f2ceb78-394d-4ee6-addf-b21d4ba659db","ios":"levelo://app?vid=8f2ceb78-394d-4ee6-addf-b21d4ba659db"},"vehicle_type_id":"4","last_reported":1701673634,"current_range_meters":0,"station_id":"","pricing_plan_id":"free"},{"bike_id":"aa715fa1-f1e2-48d8-8782-cfebcab40875","system_id":"levelo_inurba_marseille","lat":43.290995,"lon":5.381361,"is_reserved":false,"is_disabled":false,"rental_uris":{"android":"levelo://app?vid=aa715fa1-f1e2-48d8-8782-cfebcab40875","ios":"levelo://app?vid=aa715fa1-f1e2-48d8-8782-cfebcab40875"},"vehicle_type_id":"4","last_reported":1701673634,"current_range_meters":22000,"station_id":"ce4bh512rcd13ifvqe2g","pricing_plan_id":"free"},{"bike_id":"f39f2e3f-a8d6-4ad5-81f4-b10fc2f804bd","system_id":"levelo_inurba_marseille","lat":43.290995,"lon":5.381361,"is_reserved":false,"is_disabled":false,"rental_uris":{"android":"levelo://app?vid=f39f2e3f-a8d6-4ad5-81f4-b10fc2f804bd","ios":"levelo://app?vid=f39f2e3f-a8d6-4ad5-81f4-b10fc2f804bd"},"vehicle_type_id":"4","last_reported":1701673634,"current_range_meters":20000,"station_id":"ce4bh512rcd13ifvqe2g","pricing_plan_id":"free"},{"bike_id":"9f21ee60-0e70-43d0-911b-a63d565f6f6d","system_id":"levelo_inurba_marseille","lat":43.28979,"lon":5.37827,"is_reserved":false,"is_disabled":false,"rental_uris":{"android":"levelo://app?vid=9f21ee60-0e70-43d0-911b-a63d565f6f6d","ios":"levelo://app?vid=9f21ee60-0e70-43d0-911b-a63d565f6f6d"},"vehicle_type_id":"4","last_reported":1701673634,"current_range_meters":19600,"station_id":"ce4bh9p2rcd13ifvqed0","pricing_plan_id":"free"},{"bike_id":"90d50861-77c5-463f-b63a-bed1d1b5593f","system_id":"levelo_inurba_marseille","lat":43.2901,"lon":5.381269,"is_reserved":false,"is_disabled":false,"rental_uris":{"android":"levelo://app?vid=90d50861-77c5-463f-b63a-bed1d1b5593f","ios":"levelo://app?vid=90d50861-77c5-463f-b63a-bed1d1b5593f"},"vehicle_type_id":"4","last_reported":1701673634,"current_range_meters":29200,"station_id":"ce4bh4p2rcd13ifvqe1g","pricing_plan_id":"free"},{"bike_id":"94dff6b1-c359-4e63-9b5b-5f815ee3ce54","system_id":"levelo_inurba_marseille","lat":43.33743,"lon":5.3745,"is_reserved":false,"is_disabled":false,"rental_uris":{"android":"levelo://app?vid=94dff6b1-c359-4e63-9b5b-5f815ee3ce54","ios":"levelo://app?vid=94dff6b1-c359-4e63-9b5b-5f815ee3ce54"},"vehicle_type_id":"4","last_reported":1701673634,"current_range_meters":10400,"station_id":"","pricing_plan_id":"free"},{"bike_id":"dfcad1bb-e4e5-4b8b-b096-037cda7763fc","system_id":"levelo_inurba_marseille","lat":43.309371,"lon":5.401449,"is_reserved":false,"is_disabled":false,"rental_uris":{"android":"levelo://app?vid=dfcad1bb-e4e5-4b8b-b096-037cda7763fc","ios":"levelo://app?vid=dfcad1bb-e4e5-4b8b-b096-037cda7763fc"},"vehicle_type_id":"4","last_reported":1701673634,"current_range_meters":24000,"station_id":"ce4bgvp2rcd13ifvqct0","pricing_plan_id":"free"},{"bike_id":"f15e109c-b499-4874-a35c-3bf2fc1a29ca","system_id":"levelo_inurba_marseille","lat":43.290345,"lon":5.38646,"is_reserved":false,"is_disabled":false,"rental_uris":{"android":"levelo://app?vid=f15e109c-b499-4874-a35c-3bf2fc1a29ca","ios":"levelo://app?vid=f15e109c-b499-4874-a35c-3bf2fc1a29ca"},"vehicle_type_id":"4","last_reported":1701673634,"current_range_meters":24800,"station_id":"ce4bh4p2rcd13ifvqe0g","pricing_plan_id":"free"},{"bike_id":"7d05c432-0e4d-4352-aff3-d7f8dafa4760","system_id":"levelo_inurba_marseille","lat":43.290345,"lon":5.38646,"is_reserved":false,"is_disabled":false,"rental_uris":{"android":"levelo://app?vid=7d05c432-0e4d-4352-aff3-d7f8dafa4760","ios":"levelo://app?vid=7d05c432-0e4d-4352-aff3-d7f8dafa4760"},"vehicle_type_id":"4","last_reported":1701673634,"current_range_meters":20000,"station_id":"ce4bh4p2rcd13ifvqe0g","pricing_plan_id":"free"},{"bike_id":"d4e3d3fd-05b6-48c1-a535-49e9b2525d73","system_id":"levelo_inurba_marseille","lat":43.290336,"lon":5.386425,"is_reserved":false,"is_disabled":false,"rental_uris":{"android":"levelo://app?vid=d4e3d3fd-05b6-48c1-a535-49e9b2525d73","ios":"levelo://app?vid=d4e3d3fd-05b6-48c1-a535-49e9b2525d73"},"vehicle_type_id":"4","last_reported":1701673634,"current_range_meters":14000,"station_id":"ce4bh4p2rcd13ifvqe0g","pricing_plan_id":"free"},{"bike_id":"5b13ca0c-626c-4bef-8ea8-4b1867b784ac","system_id":"levelo_inurba_marseille","lat":43.287185,"lon":5.379373,"is_reserved":false,"is_disabled":false,"rental_uris":{"android":"levelo://app?vid=5b13ca0c-626c-4bef-8ea8-4b1867b784ac","ios":"levelo://app?vid=5b13ca0c-626c-4bef-8ea8-4b1867b784ac"},"vehicle_type_id":"4","last_reported":1701673634,"current_range_meters":29200,"station_id":"ce4bh9p2rcd13ifvqec0","pricing_plan_id":"free"},{"bike_id":"f8d35465-5138-48ac-8c93-08de0d00d41b","system_id":"levelo_inurba_marseille","lat":43.330981,"lon":5.397185,"is_reserved":false,"is_disabled":false,"rental_uris":{"android":"levelo://app?vid=f8d35465-5138-48ac-8c93-08de0d00d41b","ios":"levelo://app?vid=f8d35465-5138-48ac-8c93-08de0d00d41b"},"vehicle_type_id":"4","last_reported":1701673634,"current_range_meters":0,"station_id":"","pricing_plan_id":"free"},{"bike_id":"f857fd94-5c3c-43f3-8ed7-cefbe2550b2e","system_id":"levelo_inurba_marseille","lat":43.28617,"lon":5.351,"is_reserved":false,"is_disabled":false,"rental_uris":{"android":"levelo://app?vid=f857fd94-5c3c-43f3-8ed7-cefbe2550b2e","ios":"levelo://app?vid=f857fd94-5c3c-43f3-8ed7-cefbe2550b2e"},"vehicle_type_id":"4","last_reported":1701673634,"current_range_meters":26800,"station_id":"ce4bhch2rcd13ifvqeug","pricing_plan_id":"free"},{"bike_id":"52237efb-1cf8-4d3c-b293-83e00097bbca","system_id":"levelo_inurba_marseille","lat":43.285856,"lon":5.350771,"is_reserved":false,"is_disabled":false,"rental_uris":{"android":"levelo://app?vid=52237efb-1cf8-4d3c-b293-83e00097bbca","ios":"levelo://app?vid=52237efb-1cf8-4d3c-b293-83e00097bbca"},"vehicle_type_id":"4","last_reported":1701673634,"current_range_meters":26800,"station_id":"ce4bhch2rcd13ifvqeug","pricing_plan_id":"free"},{"bike_id":"91bf02ee-b469-4ffd-a3ac-0525d5290317","system_id":"levelo_inurba_marseille","lat":43.285856,"lon":5.350771,"is_reserved":false,"is_disabled":false,"rental_uris":{"android":"levelo://app?vid=91bf02ee-b469-4ffd-a3ac-0525d5290317","ios":"levelo://app?vid=91bf02ee-b469-4ffd-a3ac-0525d5290317"},"vehicle_type_id":"4","last_reported":1701673634,"current_range_meters":30400,"station_id":"ce4bhch2rcd13ifvqeug","pricing_plan_id":"free"},{"bike_id":"2569df34-3794-4af3-8ee3-7bc267de8d2d","system_id":"levelo_inurba_marseille","lat":43.285856,"lon":5.350771,"is_reserved":false,"is_disabled":false,"rental_uris":{"android":"levelo://app?vid=2569df34-3794-4af3-8ee3-7bc267de8d2d","ios":"levelo://app?vid=2569df34-3794-4af3-8ee3-7bc267de8d2d"},"vehicle_type_id":"4","last_reported":1701673634,"current_range_meters":29200,"station_id":"ce4bhch2rcd13ifvqeug","pricing_plan_id":"free"},{"bike_id":"b686b8a8-ca19-4d96-b2a7-299d4f07bc59","system_id":"levelo_inurba_marseille","lat":43.28613,"lon":5.35107,"is_reserved":false,"is_disabled":false,"rental_uris":{"android":"levelo://app?vid=b686b8a8-ca19-4d96-b2a7-299d4f07bc59","ios":"levelo://app?vid=b686b8a8-ca19-4d96-b2a7-299d4f07bc59"},"vehicle_type_id":"4","last_reported":1701673634,"current_range_meters":30800,"station_id":"ce4bhch2rcd13ifvqeug","pricing_plan_id":"free"},{"bike_id":"bddabb0b-a945-4742-b40a-c97bc46aced6","system_id":"levelo_inurba_marseille","lat":43.283998,"lon":5.375062,"is_reserved":false,"is_disabled":false,"rental_uris":{"android":"levelo://app?vid=bddabb0b-a945-4742-b40a-c97bc46aced6","ios":"levelo://app?vid=bddabb0b-a945-4742-b40a-c97bc46aced6"},"vehicle_type_id":"4","last_reported":1701673634,"current_range_meters":22800,"station_id":"ce4bh412rcd13ifvqds0","pricing_plan_id":"free"},{"bike_id":"8a07ab69-8eef-4eb8-9f41-4eb70f051de3","system_id":"levelo_inurba_marseille","lat":43.283998,"lon":5.375062,"is_reserved":false,"is_disabled":false,"rental_uris":{"android":"levelo://app?vid=8a07ab69-8eef-4eb8-9f41-4eb70f051de3","ios":"levelo://app?vid=8a07ab69-8eef-4eb8-9f41-4eb70f051de3"},"vehicle_type_id":"4","last_reported":1701673634,"current_range_meters":11600,"station_id":"ce4bh412rcd13ifvqds0","pricing_plan_id":"free"},{"bike_id":"96daf68b-a20b-4f01-92e8-ab1299fbc777","system_id":"levelo_inurba_marseille","lat":43.319179,"lon":5.407725,"is_reserved":false,"is_disabled":false,"rental_uris":{"android":"levelo://app?vid=96daf68b-a20b-4f01-92e8-ab1299fbc777","ios":"levelo://app?vid=96daf68b-a20b-4f01-92e8-ab1299fbc777"},"vehicle_type_id":"4","last_reported":1701673634,"current_range_meters":17200,"station_id":"ce4bhq12rcd13ifvqhig","pricing_plan_id":"free"},{"bike_id":"23a6e18e-5ad6-40cf-b6fb-7a4b1a6034c9","system_id":"levelo_inurba_marseille","lat":43.337431,"lon":5.391036,"is_reserved":false,"is_disabled":false,"rental_uris":{"android":"levelo://app?vid=23a6e18e-5ad6-40cf-b6fb-7a4b1a6034c9","ios":"levelo://app?vid=23a6e18e-5ad6-40cf-b6fb-7a4b1a6034c9"},"vehicle_type_id":"4","last_reported":1701673634,"current_range_meters":25200,"station_id":"","pricing_plan_id":"free"},{"bike_id":"4b021143-be23-4d8d-ac72-086548831286","system_id":"levelo_inurba_marseille","lat":43.33717,"lon":5.391857,"is_reserved":false,"is_disabled":false,"rental_uris":{"android":"levelo://app?vid=4b021143-be23-4d8d-ac72-086548831286","ios":"levelo://app?vid=4b021143-be23-4d8d-ac72-086548831286"},"vehicle_type_id":"4","last_reported":1701673634,"current_range_meters":31600,"station_id":"ce4bhr92rcd13ifvqhsg","pricing_plan_id":"free"},{"bike_id":"05afa003-da4e-4bd9-80ce-3e8360212277","system_id":"levelo_inurba_marseille","lat":43.33717,"lon":5.391857,"is_reserved":false,"is_disabled":false,"rental_uris":{"android":"levelo://app?vid=05afa003-da4e-4bd9-80ce-3e8360212277","ios":"levelo://app?vid=05afa003-da4e-4bd9-80ce-3e8360212277"},"vehicle_type_id":"4","last_reported":1701673634,"current_range_meters":20000,"station_id":"ce4bhr92rcd13ifvqhsg","pricing_plan_id":"free"},{"bike_id":"2f73a9c6-ea7c-45de-beee-438befc58a7b","system_id":"levelo_inurba_marseille","lat":43.33717,"lon":5.391857,"is_reserved":false,"is_disabled":false,"rental_uris":{"android":"levelo://app?vid=2f73a9c6-ea7c-45de-beee-438befc58a7b","ios":"levelo://app?vid=2f73a9c6-ea7c-45de-beee-438befc58a7b"},"vehicle_type_id":"4","last_reported":1701673634,"current_range_meters":16400,"station_id":"ce4bhr92rcd13ifvqhsg","pricing_plan_id":"free"},{"bike_id":"cfb58257-49bc-418d-bdb0-5dd198b2c6dd","system_id":"levelo_inurba_marseille","lat":43.284793,"lon":5.384119,"is_reserved":false,"is_disabled":false,"rental_uris":{"android":"levelo://app?vid=cfb58257-49bc-418d-bdb0-5dd198b2c6dd","ios":"levelo://app?vid=cfb58257-49bc-418d-bdb0-5dd198b2c6dd"},"vehicle_type_id":"4","last_reported":1701673634,"current_range_meters":27200,"station_id":"ce4bh512rcd13ifvqe3g","pricing_plan_id":"free"},{"bike_id":"00b71947-4eb5-49e6-8913-5b2331d45eae","system_id":"levelo_inurba_marseille","lat":43.289363,"lon":5.396322,"is_reserved":false,"is_disabled":false,"rental_uris":{"android":"levelo://app?vid=00b71947-4eb5-49e6-8913-5b2331d45eae","ios":"levelo://app?vid=00b71947-4eb5-49e6-8913-5b2331d45eae"},"vehicle_type_id":"4","last_reported":1701673634,"current_range_meters":16000,"station_id":"ce4bh3h2rcd13ifvqdn0","pricing_plan_id":"free"},{"bike_id":"489a9ac2-cf48-47ac-b063-dfc589d99161","system_id":"levelo_inurba_marseille","lat":43.283502,"lon":5.386471,"is_reserved":false,"is_disabled":false,"rental_uris":{"android":"levelo://app?vid=489a9ac2-cf48-47ac-b063-dfc589d99161","ios":"levelo://app?vid=489a9ac2-cf48-47ac-b063-dfc589d99161"},"vehicle_type_id":"4","last_reported":1701673634,"current_range_meters":9200,"station_id":"ce4bh492rcd13ifvqdvg","pricing_plan_id":"free"},{"bike_id":"1e60cd7c-2ea1-4794-9aca-b05cbb6cc2c6","system_id":"levelo_inurba_marseille","lat":43.280403,"lon":5.369467,"is_reserved":false,"is_disabled":false,"rental_uris":{"android":"levelo://app?vid=1e60cd7c-2ea1-4794-9aca-b05cbb6cc2c6","ios":"levelo://app?vid=1e60cd7c-2ea1-4794-9aca-b05cbb6cc2c6"},"vehicle_type_id":"4","last_reported":1701673634,"current_range_meters":30800,"station_id":"ce4bha12rcd13ifvqef0","pricing_plan_id":"free"},{"bike_id":"f68cfe8f-cbec-4e56-ab8c-24d7e7f78a6b","system_id":"levelo_inurba_marseille","lat":43.28039,"lon":5.369297,"is_reserved":false,"is_disabled":false,"rental_uris":{"android":"levelo://app?vid=f68cfe8f-cbec-4e56-ab8c-24d7e7f78a6b","ios":"levelo://app?vid=f68cfe8f-cbec-4e56-ab8c-24d7e7f78a6b"},"vehicle_type_id":"4","last_reported":1701673634,"current_range_meters":24000,"station_id":"ce4bha12rcd13ifvqef0","pricing_plan_id":"free"},{"bike_id":"76180550-b1a9-4375-9664-9096ead0c6d6","system_id":"levelo_inurba_marseille","lat":43.283502,"lon":5.386471,"is_reserved":false,"is_disabled":false,"rental_uris":{"android":"levelo://app?vid=76180550-b1a9-4375-9664-9096ead0c6d6","ios":"levelo://app?vid=76180550-b1a9-4375-9664-9096ead0c6d6"},"vehicle_type_id":"4","last_reported":1701673634,"current_range_meters":18400,"station_id":"ce4bh492rcd13ifvqdvg","pricing_plan_id":"free"},{"bike_id":"0da37ed4-bac2-4367-be03-b22617a8c7c7","system_id":"levelo_inurba_marseille","lat":43.325233,"lon":5.414318,"is_reserved":false,"is_disabled":false,"rental_uris":{"android":"levelo://app?vid=0da37ed4-bac2-4367-be03-b22617a8c7c7","ios":"levelo://app?vid=0da37ed4-bac2-4367-be03-b22617a8c7c7"},"vehicle_type_id":"4","last_reported":1701673634,"current_range_meters":19200,"station_id":"ce4bhq12rcd13ifvqhhg","pricing_plan_id":"free"},{"bike_id":"742536fd-f3ee-4b76-8c6c-a861d844ded8","system_id":"levelo_inurba_marseille","lat":43.325233,"lon":5.414318,"is_reserved":false,"is_disabled":false,"rental_uris":{"android":"levelo://app?vid=742536fd-f3ee-4b76-8c6c-a861d844ded8","ios":"levelo://app?vid=742536fd-f3ee-4b76-8c6c-a861d844ded8"},"vehicle_type_id":"4","last_reported":1701673634,"current_range_meters":18400,"station_id":"ce4bhq12rcd13ifvqhhg","pricing_plan_id":"free"},{"bike_id":"5a25bf69-6178-4680-ba62-eb181662b01d","system_id":"levelo_inurba_marseille","lat":43.325243,"lon":5.414326,"is_reserved":false,"is_disabled":false,"rental_uris":{"android":"levelo://app?vid=5a25bf69-6178-4680-ba62-eb181662b01d","ios":"levelo://app?vid=5a25bf69-6178-4680-ba62-eb181662b01d"},"vehicle_type_id":"4","last_reported":1701673634,"current_range_meters":27200,"station_id":"ce4bhq12rcd13ifvqhhg","pricing_plan_id":"free"},{"bike_id":"7bd2208d-341e-43cb-9d17-06f746e5d7a8","system_id":"levelo_inurba_marseille","lat":43.27611,"lon":5.36108,"is_reserved":false,"is_disabled":false,"rental_uris":{"android":"levelo://app?vid=7bd2208d-341e-43cb-9d17-06f746e5d7a8","ios":"levelo://app?vid=7bd2208d-341e-43cb-9d17-06f746e5d7a8"},"vehicle_type_id":"4","last_reported":1701673634,"current_range_meters":0,"station_id":"ce4bgj92rcd13ifvqbe0","pricing_plan_id":"free"},{"bike_id":"7f3d433b-2eae-410e-a145-36a9d71de090","system_id":"levelo_inurba_marseille","lat":43.280784,"lon":5.396622,"is_reserved":false,"is_disabled":false,"rental_uris":{"android":"levelo://app?vid=7f3d433b-2eae-410e-a145-36a9d71de090","ios":"levelo://app?vid=7f3d433b-2eae-410e-a145-36a9d71de090"},"vehicle_type_id":"4","last_reported":1701673634,"current_range_meters":14400,"station_id":"ce4bho12rcd13ifvqh2g","pricing_plan_id":"free"},{"bike_id":"8a0e7938-1d64-4254-a270-22f5c0986632","system_id":"levelo_inurba_marseille","lat":43.273609,"lon":5.362708,"is_reserved":false,"is_disabled":false,"rental_uris":{"android":"levelo://app?vid=8a0e7938-1d64-4254-a270-22f5c0986632","ios":"levelo://app?vid=8a0e7938-1d64-4254-a270-22f5c0986632"},"vehicle_type_id":"4","last_reported":1701673634,"current_range_meters":22800,"station_id":"ce4bhbh2rcd13ifvqeo0","pricing_plan_id":"free"},{"bike_id":"728fbd19-ef99-4e0a-ab51-ca3bb2c3f515","system_id":"levelo_inurba_marseille","lat":43.273609,"lon":5.362708,"is_reserved":false,"is_disabled":false,"rental_uris":{"android":"levelo://app?vid=728fbd19-ef99-4e0a-ab51-ca3bb2c3f515","ios":"levelo://app?vid=728fbd19-ef99-4e0a-ab51-ca3bb2c3f515"},"vehicle_type_id":"4","last_reported":1701673634,"current_range_meters":30400,"station_id":"ce4bhbh2rcd13ifvqeo0","pricing_plan_id":"free"},{"bike_id":"65b985ec-9b0b-4cc2-b49c-1b93f61295be","system_id":"levelo_inurba_marseille","lat":43.273609,"lon":5.362708,"is_reserved":false,"is_disabled":false,"rental_uris":{"android":"levelo://app?vid=65b985ec-9b0b-4cc2-b49c-1b93f61295be","ios":"levelo://app?vid=65b985ec-9b0b-4cc2-b49c-1b93f61295be"},"vehicle_type_id":"4","last_reported":1701673634,"current_range_meters":31600,"station_id":"ce4bhbh2rcd13ifvqeo0","pricing_plan_id":"free"},{"bike_id":"404464cd-9263-446e-9ea7-967c7fc32e65","system_id":"levelo_inurba_marseille","lat":43.275664,"lon":5.384353,"is_reserved":false,"is_disabled":false,"rental_uris":{"android":"levelo://app?vid=404464cd-9263-446e-9ea7-967c7fc32e65","ios":"levelo://app?vid=404464cd-9263-446e-9ea7-967c7fc32e65"},"vehicle_type_id":"4","last_reported":1701673634,"current_range_meters":3600,"station_id":"","pricing_plan_id":"free"},{"bike_id":"9f47b9a0-dfde-456e-a7cf-4c1441abec20","system_id":"levelo_inurba_marseille","lat":43.336134,"lon":5.410341,"is_reserved":false,"is_disabled":false,"rental_uris":{"android":"levelo://app?vid=9f47b9a0-dfde-456e-a7cf-4c1441abec20","ios":"levelo://app?vid=9f47b9a0-dfde-456e-a7cf-4c1441abec20"},"vehicle_type_id":"4","last_reported":1701673634,"current_range_meters":23600,"station_id":"ce4bhqh2rcd13ifvqhmg","pricing_plan_id":"free"},{"bike_id":"fa300878-3c11-4ba8-b26b-e1aa0541798c","system_id":"levelo_inurba_marseille","lat":43.336134,"lon":5.410341,"is_reserved":false,"is_disabled":false,"rental_uris":{"android":"levelo://app?vid=fa300878-3c11-4ba8-b26b-e1aa0541798c","ios":"levelo://app?vid=fa300878-3c11-4ba8-b26b-e1aa0541798c"},"vehicle_type_id":"4","last_reported":1701673634,"current_range_meters":20400,"station_id":"ce4bhqh2rcd13ifvqhmg","pricing_plan_id":"free"},{"bike_id":"107e4d6d-80e6-4b86-a39a-727e7c9de33f","system_id":"levelo_inurba_marseille","lat":43.276769,"lon":5.388787,"is_reserved":false,"is_disabled":false,"rental_uris":{"android":"levelo://app?vid=107e4d6d-80e6-4b86-a39a-727e7c9de33f","ios":"levelo://app?vid=107e4d6d-80e6-4b86-a39a-727e7c9de33f"},"vehicle_type_id":"4","last_reported":1701673634,"current_range_meters":18400,"station_id":"ce4bhi12rcd13ifvqfo0","pricing_plan_id":"free"},{"bike_id":"ae9af643-001e-42d9-8c47-cb12ff606b64","system_id":"levelo_inurba_marseille","lat":43.317249,"lon":5.423969,"is_reserved":false,"is_disabled":false,"rental_uris":{"android":"levelo://app?vid=ae9af643-001e-42d9-8c47-cb12ff606b64","ios":"levelo://app?vid=ae9af643-001e-42d9-8c47-cb12ff606b64"},"vehicle_type_id":"4","last_reported":1701673634,"current_range_meters":15200,"station_id":"ce4bhp92rcd13ifvqhbg","pricing_plan_id":"free"},{"bike_id":"beb4f65b-565b-471b-a5cf-67fe74ae7ee4","system_id":"levelo_inurba_marseille","lat":43.31726,"lon":5.424,"is_reserved":false,"is_disabled":false,"rental_uris":{"android":"levelo://app?vid=beb4f65b-565b-471b-a5cf-67fe74ae7ee4","ios":"levelo://app?vid=beb4f65b-565b-471b-a5cf-67fe74ae7ee4"},"vehicle_type_id":"4","last_reported":1701673634,"current_range_meters":3600,"station_id":"ce4bhp92rcd13ifvqhbg","pricing_plan_id":"free"},{"bike_id":"4c266738-4562-4ce1-aca7-b04f03b275b5","system_id":"levelo_inurba_marseille","lat":43.317121,"lon":5.423936,"is_reserved":false,"is_disabled":false,"rental_uris":{"android":"levelo://app?vid=4c266738-4562-4ce1-aca7-b04f03b275b5","ios":"levelo://app?vid=4c266738-4562-4ce1-aca7-b04f03b275b5"},"vehicle_type_id":"4","last_reported":1701673634,"current_range_meters":30000,"station_id":"ce4bhp92rcd13ifvqhbg","pricing_plan_id":"free"},{"bike_id":"ba2cdc49-316c-4fb7-ae87-5812c3ece311","system_id":"levelo_inurba_marseille","lat":43.317219,"lon":5.424061,"is_reserved":false,"is_disabled":false,"rental_uris":{"android":"levelo://app?vid=ba2cdc49-316c-4fb7-ae87-5812c3ece311","ios":"levelo://app?vid=ba2cdc49-316c-4fb7-ae87-5812c3ece311"},"vehicle_type_id":"4","last_reported":1701673634,"current_range_meters":30400,"station_id":"ce4bhp92rcd13ifvqhbg","pricing_plan_id":"free"},{"bike_id":"910fd3aa-d2e0-4553-894a-6161d41c7fcd","system_id":"levelo_inurba_marseille","lat":43.27609,"lon":5.39475,"is_reserved":false,"is_disabled":false,"rental_uris":{"android":"levelo://app?vid=910fd3aa-d2e0-4553-894a-6161d41c7fcd","ios":"levelo://app?vid=910fd3aa-d2e0-4553-894a-6161d41c7fcd"},"vehicle_type_id":"4","last_reported":1701673634,"current_range_meters":12000,"station_id":"","pricing_plan_id":"free"},{"bike_id":"17331290-a950-4b73-af16-7c6f2d193c45","system_id":"levelo_inurba_marseille","lat":43.340804,"lon":5.410219,"is_reserved":false,"is_disabled":false,"rental_uris":{"android":"levelo://app?vid=17331290-a950-4b73-af16-7c6f2d193c45","ios":"levelo://app?vid=17331290-a950-4b73-af16-7c6f2d193c45"},"vehicle_type_id":"4","last_reported":1701673634,"current_range_meters":24400,"station_id":"ce4bhqh2rcd13ifvqhlg","pricing_plan_id":"free"},{"bike_id":"68a6da79-fcec-47bb-ba2a-4d818fc0e4f8","system_id":"levelo_inurba_marseille","lat":43.340804,"lon":5.410219,"is_reserved":false,"is_disabled":false,"rental_uris":{"android":"levelo://app?vid=68a6da79-fcec-47bb-ba2a-4d818fc0e4f8","ios":"levelo://app?vid=68a6da79-fcec-47bb-ba2a-4d818fc0e4f8"},"vehicle_type_id":"4","last_reported":1701673634,"current_range_meters":27600,"station_id":"ce4bhqh2rcd13ifvqhlg","pricing_plan_id":"free"},{"bike_id":"8583a456-009f-4ce4-99a2-cd24342591d6","system_id":"levelo_inurba_marseille","lat":43.340804,"lon":5.410219,"is_reserved":false,"is_disabled":false,"rental_uris":{"android":"levelo://app?vid=8583a456-009f-4ce4-99a2-cd24342591d6","ios":"levelo://app?vid=8583a456-009f-4ce4-99a2-cd24342591d6"},"vehicle_type_id":"4","last_reported":1701673634,"current_range_meters":29200,"station_id":"ce4bhqh2rcd13ifvqhlg","pricing_plan_id":"free"},{"bike_id":"55c23f66-31a6-4882-8fa6-769301f13946","system_id":"levelo_inurba_marseille","lat":43.295523,"lon":5.422926,"is_reserved":false,"is_disabled":false,"rental_uris":{"android":"levelo://app?vid=55c23f66-31a6-4882-8fa6-769301f13946","ios":"levelo://app?vid=55c23f66-31a6-4882-8fa6-769301f13946"},"vehicle_type_id":"4","last_reported":1701673634,"current_range_meters":24000,"station_id":"ce4bhph2rcd13ifvqhdg","pricing_plan_id":"free"},{"bike_id":"952f58eb-d2ed-4a2b-a57f-4e65e872b3c7","system_id":"levelo_inurba_marseille","lat":43.272118,"lon":5.391758,"is_reserved":false,"is_disabled":false,"rental_uris":{"android":"levelo://app?vid=952f58eb-d2ed-4a2b-a57f-4e65e872b3c7","ios":"levelo://app?vid=952f58eb-d2ed-4a2b-a57f-4e65e872b3c7"},"vehicle_type_id":"4","last_reported":1701673634,"current_range_meters":11600,"station_id":"ce4bhhp2rcd13ifvqfm0","pricing_plan_id":"free"},{"bike_id":"a4406d8e-aede-4479-85c7-28eabe426895","system_id":"levelo_inurba_marseille","lat":43.278128,"lon":5.407195,"is_reserved":false,"is_disabled":false,"rental_uris":{"android":"levelo://app?vid=a4406d8e-aede-4479-85c7-28eabe426895","ios":"levelo://app?vid=a4406d8e-aede-4479-85c7-28eabe426895"},"vehicle_type_id":"4","last_reported":1701673634,"current_range_meters":21200,"station_id":"ce4bhnh2rcd13ifvqgtg","pricing_plan_id":"free"},{"bike_id":"1185dc68-5244-4a54-92d0-2f51ed9fdd84","system_id":"levelo_inurba_marseille","lat":43.278128,"lon":5.407195,"is_reserved":false,"is_disabled":false,"rental_uris":{"android":"levelo://app?vid=1185dc68-5244-4a54-92d0-2f51ed9fdd84","ios":"levelo://app?vid=1185dc68-5244-4a54-92d0-2f51ed9fdd84"},"vehicle_type_id":"4","last_reported":1701673634,"current_range_meters":12400,"station_id":"ce4bhnh2rcd13ifvqgtg","pricing_plan_id":"free"},{"bike_id":"634c0038-1a57-42f6-8bd5-08ad1be103e9","system_id":"levelo_inurba_marseille","lat":43.269319,"lon":5.389397,"is_reserved":false,"is_disabled":false,"rental_uris":{"android":"levelo://app?vid=634c0038-1a57-42f6-8bd5-08ad1be103e9","ios":"levelo://app?vid=634c0038-1a57-42f6-8bd5-08ad1be103e9"},"vehicle_type_id":"4","last_reported":1701673634,"current_range_meters":24000,"station_id":"ce4bhhh2rcd13ifvqfl0","pricing_plan_id":"free"},{"bike_id":"a789502c-81da-4b15-8b87-6ec568c248f6","system_id":"levelo_inurba_marseille","lat":43.26681,"lon":5.382694,"is_reserved":false,"is_disabled":false,"rental_uris":{"android":"levelo://app?vid=a789502c-81da-4b15-8b87-6ec568c248f6","ios":"levelo://app?vid=a789502c-81da-4b15-8b87-6ec568c248f6"},"vehicle_type_id":"4","last_reported":1701673634,"current_range_meters":30000,"station_id":"ce4bhg92rcd13ifvqf90","pricing_plan_id":"free"},{"bike_id":"2b4dd085-f8ce-47c8-816d-284d7d5f9cf8","system_id":"levelo_inurba_marseille","lat":43.26681,"lon":5.382694,"is_reserved":false,"is_disabled":false,"rental_uris":{"android":"levelo://app?vid=2b4dd085-f8ce-47c8-816d-284d7d5f9cf8","ios":"levelo://app?vid=2b4dd085-f8ce-47c8-816d-284d7d5f9cf8"},"vehicle_type_id":"4","last_reported":1701673634,"current_range_meters":29200,"station_id":"ce4bhg92rcd13ifvqf90","pricing_plan_id":"free"},{"bike_id":"cba086ce-2e3e-44ca-8159-8c49eaee25e6","system_id":"levelo_inurba_marseille","lat":43.27996,"lon":5.416624,"is_reserved":false,"is_disabled":false,"rental_uris":{"android":"levelo://app?vid=cba086ce-2e3e-44ca-8159-8c49eaee25e6","ios":"levelo://app?vid=cba086ce-2e3e-44ca-8159-8c49eaee25e6"},"vehicle_type_id":"4","last_reported":1701673634,"current_range_meters":31600,"station_id":"ce4bho12rcd13ifvqh1g","pricing_plan_id":"free"},{"bike_id":"88a69349-f117-48bd-abaa-7256593907c7","system_id":"levelo_inurba_marseille","lat":43.26569,"lon":5.39002,"is_reserved":false,"is_disabled":false,"rental_uris":{"android":"levelo://app?vid=88a69349-f117-48bd-abaa-7256593907c7","ios":"levelo://app?vid=88a69349-f117-48bd-abaa-7256593907c7"},"vehicle_type_id":"4","last_reported":1701673634,"current_range_meters":24400,"station_id":"ce4bhe12rcd13ifvqf30","pricing_plan_id":"free"},{"bike_id":"12d52202-4734-4b35-9fd8-325f2108ac85","system_id":"levelo_inurba_marseille","lat":43.26561,"lon":5.39013,"is_reserved":false,"is_disabled":false,"rental_uris":{"android":"levelo://app?vid=12d52202-4734-4b35-9fd8-325f2108ac85","ios":"levelo://app?vid=12d52202-4734-4b35-9fd8-325f2108ac85"},"vehicle_type_id":"4","last_reported":1701673634,"current_range_meters":24400,"station_id":"ce4bhe12rcd13ifvqf30","pricing_plan_id":"free"},{"bike_id":"3159c98f-9cb2-4712-b387-b3062e939bca","system_id":"levelo_inurba_marseille","lat":43.26949,"lon":5.40262,"is_reserved":false,"is_disabled":false,"rental_uris":{"android":"levelo://app?vid=3159c98f-9cb2-4712-b387-b3062e939bca","ios":"levelo://app?vid=3159c98f-9cb2-4712-b387-b3062e939bca"},"vehicle_type_id":"4","last_reported":1701673634,"current_range_meters":21200,"station_id":"cjm6bp8fraef2m0cb0m0","pricing_plan_id":"free"},{"bike_id":"43e00bda-0c8a-4657-b56b-d444332490ec","system_id":"levelo_inurba_marseille","lat":43.261782,"lon":5.374515,"is_reserved":false,"is_disabled":false,"rental_uris":{"android":"levelo://app?vid=43e00bda-0c8a-4657-b56b-d444332490ec","ios":"levelo://app?vid=43e00bda-0c8a-4657-b56b-d444332490ec"},"vehicle_type_id":"4","last_reported":1701673634,"current_range_meters":28400,"station_id":"ce4bhgp2rcd13ifvqfc0","pricing_plan_id":"free"},{"bike_id":"16ca5034-dda5-41f3-af77-a51c764d9f5b","system_id":"levelo_inurba_marseille","lat":43.261782,"lon":5.374515,"is_reserved":false,"is_disabled":false,"rental_uris":{"android":"levelo://app?vid=16ca5034-dda5-41f3-af77-a51c764d9f5b","ios":"levelo://app?vid=16ca5034-dda5-41f3-af77-a51c764d9f5b"},"vehicle_type_id":"4","last_reported":1701673634,"current_range_meters":19200,"station_id":"ce4bhgp2rcd13ifvqfc0","pricing_plan_id":"free"},{"bike_id":"b3a4a88c-d155-447c-ad55-fd92c25575ce","system_id":"levelo_inurba_marseille","lat":43.262012,"lon":5.379307,"is_reserved":false,"is_disabled":false,"rental_uris":{"android":"levelo://app?vid=b3a4a88c-d155-447c-ad55-fd92c25575ce","ios":"levelo://app?vid=b3a4a88c-d155-447c-ad55-fd92c25575ce"},"vehicle_type_id":"4","last_reported":1701673634,"current_range_meters":29600,"station_id":"ce4bhjp2rcd13ifvqg90","pricing_plan_id":"free"},{"bike_id":"3bb6943d-b5fe-4de5-88be-a93b0167c81b","system_id":"levelo_inurba_marseille","lat":43.281548,"lon":5.42643,"is_reserved":false,"is_disabled":false,"rental_uris":{"android":"levelo://app?vid=3bb6943d-b5fe-4de5-88be-a93b0167c81b","ios":"levelo://app?vid=3bb6943d-b5fe-4de5-88be-a93b0167c81b"},"vehicle_type_id":"4","last_reported":1701673634,"current_range_meters":28400,"station_id":"ce4bhnh2rcd13ifvqgug","pricing_plan_id":"free"},{"bike_id":"04769cd7-b1e0-4b8d-b801-e2002344cd46","system_id":"levelo_inurba_marseille","lat":43.281548,"lon":5.42643,"is_reserved":false,"is_disabled":false,"rental_uris":{"android":"levelo://app?vid=04769cd7-b1e0-4b8d-b801-e2002344cd46","ios":"levelo://app?vid=04769cd7-b1e0-4b8d-b801-e2002344cd46"},"vehicle_type_id":"4","last_reported":1701673634,"current_range_meters":27600,"station_id":"ce4bhnh2rcd13ifvqgug","pricing_plan_id":"free"},{"bike_id":"7a96db8f-5eb4-405b-8773-67506ad37afb","system_id":"levelo_inurba_marseille","lat":43.28149,"lon":5.42646,"is_reserved":false,"is_disabled":false,"rental_uris":{"android":"levelo://app?vid=7a96db8f-5eb4-405b-8773-67506ad37afb","ios":"levelo://app?vid=7a96db8f-5eb4-405b-8773-67506ad37afb"},"vehicle_type_id":"4","last_reported":1701673634,"current_range_meters":10000,"station_id":"ce4bhnh2rcd13ifvqgug","pricing_plan_id":"free"},{"bike_id":"0fd8254e-a95a-4dc5-963d-03782d038304","system_id":"levelo_inurba_marseille","lat":43.2815,"lon":5.42647,"is_reserved":false,"is_disabled":false,"rental_uris":{"android":"levelo://app?vid=0fd8254e-a95a-4dc5-963d-03782d038304","ios":"levelo://app?vid=0fd8254e-a95a-4dc5-963d-03782d038304"},"vehicle_type_id":"4","last_reported":1701673634,"current_range_meters":20800,"station_id":"ce4bhnh2rcd13ifvqgug","pricing_plan_id":"free"},{"bike_id":"5b3e0566-b00a-45ce-bada-6ddf6f7727ce","system_id":"levelo_inurba_marseille","lat":43.2815,"lon":5.42649,"is_reserved":false,"is_disabled":false,"rental_uris":{"android":"levelo://app?vid=5b3e0566-b00a-45ce-bada-6ddf6f7727ce","ios":"levelo://app?vid=5b3e0566-b00a-45ce-bada-6ddf6f7727ce"},"vehicle_type_id":"4","last_reported":1701673634,"current_range_meters":16800,"station_id":"ce4bhnh2rcd13ifvqgug","pricing_plan_id":"free"},{"bike_id":"74f8af55-ccdf-4cc0-85c6-e8172bf564aa","system_id":"levelo_inurba_marseille","lat":43.275028,"lon":5.424534,"is_reserved":false,"is_disabled":false,"rental_uris":{"android":"levelo://app?vid=74f8af55-ccdf-4cc0-85c6-e8172bf564aa","ios":"levelo://app?vid=74f8af55-ccdf-4cc0-85c6-e8172bf564aa"},"vehicle_type_id":"4","last_reported":1701673634,"current_range_meters":19200,"station_id":"ce4bhn92rcd13ifvqgrg","pricing_plan_id":"free"},{"bike_id":"f7bce490-38ce-426e-8a28-e1380519c898","system_id":"levelo_inurba_marseille","lat":43.275028,"lon":5.424534,"is_reserved":false,"is_disabled":false,"rental_uris":{"android":"levelo://app?vid=f7bce490-38ce-426e-8a28-e1380519c898","ios":"levelo://app?vid=f7bce490-38ce-426e-8a28-e1380519c898"},"vehicle_type_id":"4","last_reported":1701673634,"current_range_meters":22400,"station_id":"ce4bhn92rcd13ifvqgrg","pricing_plan_id":"free"},{"bike_id":"1fea76db-2e1b-4050-8d89-01ef580781b9","system_id":"levelo_inurba_marseille","lat":43.275028,"lon":5.424534,"is_reserved":false,"is_disabled":false,"rental_uris":{"android":"levelo://app?vid=1fea76db-2e1b-4050-8d89-01ef580781b9","ios":"levelo://app?vid=1fea76db-2e1b-4050-8d89-01ef580781b9"},"vehicle_type_id":"4","last_reported":1701673634,"current_range_meters":7200,"station_id":"ce4bhn92rcd13ifvqgrg","pricing_plan_id":"free"},{"bike_id":"f1a4bd6d-e695-438c-b29b-aede97329226","system_id":"levelo_inurba_marseille","lat":43.275028,"lon":5.424534,"is_reserved":false,"is_disabled":false,"rental_uris":{"android":"levelo://app?vid=f1a4bd6d-e695-438c-b29b-aede97329226","ios":"levelo://app?vid=f1a4bd6d-e695-438c-b29b-aede97329226"},"vehicle_type_id":"4","last_reported":1701673634,"current_range_meters":21200,"station_id":"ce4bhn92rcd13ifvqgrg","pricing_plan_id":"free"},{"bike_id":"d397b818-4d16-4fe1-98f5-a3e82caa7de2","system_id":"levelo_inurba_marseille","lat":43.275028,"lon":5.424534,"is_reserved":false,"is_disabled":false,"rental_uris":{"android":"levelo://app?vid=d397b818-4d16-4fe1-98f5-a3e82caa7de2","ios":"levelo://app?vid=d397b818-4d16-4fe1-98f5-a3e82caa7de2"},"vehicle_type_id":"4","last_reported":1701673634,"current_range_meters":18400,"station_id":"ce4bhn92rcd13ifvqgrg","pricing_plan_id":"free"},{"bike_id":"07d0b2fd-f0f7-482c-ab1d-d90abfaf4599","system_id":"levelo_inurba_marseille","lat":43.275028,"lon":5.424534,"is_reserved":false,"is_disabled":false,"rental_uris":{"android":"levelo://app?vid=07d0b2fd-f0f7-482c-ab1d-d90abfaf4599","ios":"levelo://app?vid=07d0b2fd-f0f7-482c-ab1d-d90abfaf4599"},"vehicle_type_id":"4","last_reported":1701673634,"current_range_meters":23600,"station_id":"ce4bhn92rcd13ifvqgrg","pricing_plan_id":"free"},{"bike_id":"0cf91f44-1c71-4055-a585-bd700e726a30","system_id":"levelo_inurba_marseille","lat":43.275028,"lon":5.424534,"is_reserved":false,"is_disabled":false,"rental_uris":{"android":"levelo://app?vid=0cf91f44-1c71-4055-a585-bd700e726a30","ios":"levelo://app?vid=0cf91f44-1c71-4055-a585-bd700e726a30"},"vehicle_type_id":"4","last_reported":1701673634,"current_range_meters":12000,"station_id":"ce4bhn92rcd13ifvqgrg","pricing_plan_id":"free"},{"bike_id":"181aadf4-f85a-4357-a2a1-52ece302f63a","system_id":"levelo_inurba_marseille","lat":43.275028,"lon":5.424534,"is_reserved":false,"is_disabled":false,"rental_uris":{"android":"levelo://app?vid=181aadf4-f85a-4357-a2a1-52ece302f63a","ios":"levelo://app?vid=181aadf4-f85a-4357-a2a1-52ece302f63a"},"vehicle_type_id":"4","last_reported":1701673634,"current_range_meters":26800,"station_id":"ce4bhn92rcd13ifvqgrg","pricing_plan_id":"free"},{"bike_id":"2896d740-c829-4769-ab23-e2aa604b10cd","system_id":"levelo_inurba_marseille","lat":43.275028,"lon":5.424534,"is_reserved":false,"is_disabled":false,"rental_uris":{"android":"levelo://app?vid=2896d740-c829-4769-ab23-e2aa604b10cd","ios":"levelo://app?vid=2896d740-c829-4769-ab23-e2aa604b10cd"},"vehicle_type_id":"4","last_reported":1701673634,"current_range_meters":29200,"station_id":"ce4bhn92rcd13ifvqgrg","pricing_plan_id":"free"},{"bike_id":"1442ffd9-954e-48a9-97d8-1c007af2e23d","system_id":"levelo_inurba_marseille","lat":43.275028,"lon":5.424534,"is_reserved":false,"is_disabled":false,"rental_uris":{"android":"levelo://app?vid=1442ffd9-954e-48a9-97d8-1c007af2e23d","ios":"levelo://app?vid=1442ffd9-954e-48a9-97d8-1c007af2e23d"},"vehicle_type_id":"4","last_reported":1701673634,"current_range_meters":11600,"station_id":"ce4bhn92rcd13ifvqgrg","pricing_plan_id":"free"},{"bike_id":"f535f8c9-e9ee-4ae0-bfac-eaa3439dbcba","system_id":"levelo_inurba_marseille","lat":43.275028,"lon":5.424534,"is_reserved":false,"is_disabled":false,"rental_uris":{"android":"levelo://app?vid=f535f8c9-e9ee-4ae0-bfac-eaa3439dbcba","ios":"levelo://app?vid=f535f8c9-e9ee-4ae0-bfac-eaa3439dbcba"},"vehicle_type_id":"4","last_reported":1701673634,"current_range_meters":24000,"station_id":"ce4bhn92rcd13ifvqgrg","pricing_plan_id":"free"},{"bike_id":"83c91b86-392e-4002-98d4-d8bee8e1dfa7","system_id":"levelo_inurba_marseille","lat":43.25578,"lon":5.38231,"is_reserved":false,"is_disabled":false,"rental_uris":{"android":"levelo://app?vid=83c91b86-392e-4002-98d4-d8bee8e1dfa7","ios":"levelo://app?vid=83c91b86-392e-4002-98d4-d8bee8e1dfa7"},"vehicle_type_id":"4","last_reported":1701673634,"current_range_meters":18000,"station_id":"ce4bhih2rcd13ifvqfs0","pricing_plan_id":"free"},{"bike_id":"9fb1a477-1319-4754-af02-b50b942fdee1","system_id":"levelo_inurba_marseille","lat":43.25823,"lon":5.39436,"is_reserved":false,"is_disabled":false,"rental_uris":{"android":"levelo://app?vid=9fb1a477-1319-4754-af02-b50b942fdee1","ios":"levelo://app?vid=9fb1a477-1319-4754-af02-b50b942fdee1"},"vehicle_type_id":"4","last_reported":1701673634,"current_range_meters":22400,"station_id":"ce4bhip2rcd13ifvqft0","pricing_plan_id":"free"},{"bike_id":"b84c7cf6-2ad8-4347-b6e8-77b2394a0e95","system_id":"levelo_inurba_marseille","lat":43.255771,"lon":5.382374,"is_reserved":false,"is_disabled":false,"rental_uris":{"android":"levelo://app?vid=b84c7cf6-2ad8-4347-b6e8-77b2394a0e95","ios":"levelo://app?vid=b84c7cf6-2ad8-4347-b6e8-77b2394a0e95"},"vehicle_type_id":"4","last_reported":1701673634,"current_range_meters":23600,"station_id":"ce4bhih2rcd13ifvqfs0","pricing_plan_id":"free"},{"bike_id":"e6fee166-d8ae-4019-abb3-6c4f3b176b93","system_id":"levelo_inurba_marseille","lat":43.270721,"lon":5.422764,"is_reserved":false,"is_disabled":false,"rental_uris":{"android":"levelo://app?vid=e6fee166-d8ae-4019-abb3-6c4f3b176b93","ios":"levelo://app?vid=e6fee166-d8ae-4019-abb3-6c4f3b176b93"},"vehicle_type_id":"4","last_reported":1701673634,"current_range_meters":31600,"station_id":"ce4bhk92rcd13ifvqgb0","pricing_plan_id":"free"},{"bike_id":"d1a80b89-338c-44e5-93ee-5ad2816e26fe","system_id":"levelo_inurba_marseille","lat":43.25942,"lon":5.40901,"is_reserved":false,"is_disabled":false,"rental_uris":{"android":"levelo://app?vid=d1a80b89-338c-44e5-93ee-5ad2816e26fe","ios":"levelo://app?vid=d1a80b89-338c-44e5-93ee-5ad2816e26fe"},"vehicle_type_id":"4","last_reported":1701673634,"current_range_meters":0,"station_id":"ce4bhm92rcd13ifvqglg","pricing_plan_id":"free"},{"bike_id":"cb118d21-1e7e-4798-bb69-af48b989b18d","system_id":"levelo_inurba_marseille","lat":43.25933,"lon":5.40913,"is_reserved":false,"is_disabled":false,"rental_uris":{"android":"levelo://app?vid=cb118d21-1e7e-4798-bb69-af48b989b18d","ios":"levelo://app?vid=cb118d21-1e7e-4798-bb69-af48b989b18d"},"vehicle_type_id":"4","last_reported":1701673634,"current_range_meters":24000,"station_id":"ce4bhm92rcd13ifvqglg","pricing_plan_id":"free"},{"bike_id":"e8e1ca85-bc08-4e64-87b5-a7fd1983faf8","system_id":"levelo_inurba_marseille","lat":43.259013,"lon":5.409301,"is_reserved":false,"is_disabled":false,"rental_uris":{"android":"levelo://app?vid=e8e1ca85-bc08-4e64-87b5-a7fd1983faf8","ios":"levelo://app?vid=e8e1ca85-bc08-4e64-87b5-a7fd1983faf8"},"vehicle_type_id":"4","last_reported":1701673634,"current_range_meters":22800,"station_id":"ce4bhm92rcd13ifvqglg","pricing_plan_id":"free"},{"bike_id":"bee61dc6-9764-4267-a768-a1fb711af849","system_id":"levelo_inurba_marseille","lat":43.259013,"lon":5.409301,"is_reserved":false,"is_disabled":false,"rental_uris":{"android":"levelo://app?vid=bee61dc6-9764-4267-a768-a1fb711af849","ios":"levelo://app?vid=bee61dc6-9764-4267-a768-a1fb711af849"},"vehicle_type_id":"4","last_reported":1701673634,"current_range_meters":19200,"station_id":"ce4bhm92rcd13ifvqglg","pricing_plan_id":"free"},{"bike_id":"0050d107-a2d5-4a6c-a474-13f7a477852a","system_id":"levelo_inurba_marseille","lat":43.250023,"lon":5.38919,"is_reserved":false,"is_disabled":false,"rental_uris":{"android":"levelo://app?vid=0050d107-a2d5-4a6c-a474-13f7a477852a","ios":"levelo://app?vid=0050d107-a2d5-4a6c-a474-13f7a477852a"},"vehicle_type_id":"4","last_reported":1701673634,"current_range_meters":27600,"station_id":"ce4bhgp2rcd13ifvqfd0","pricing_plan_id":"free"},{"bike_id":"d10a0046-453f-46e2-bcb4-5558cad0a0ca","system_id":"levelo_inurba_marseille","lat":43.250009,"lon":5.389195,"is_reserved":false,"is_disabled":false,"rental_uris":{"android":"levelo://app?vid=d10a0046-453f-46e2-bcb4-5558cad0a0ca","ios":"levelo://app?vid=d10a0046-453f-46e2-bcb4-5558cad0a0ca"},"vehicle_type_id":"4","last_reported":1701673634,"current_range_meters":30800,"station_id":"ce4bhgp2rcd13ifvqfd0","pricing_plan_id":"free"},{"bike_id":"2c92eded-66e5-4d53-98a0-b64e6c9c913c","system_id":"levelo_inurba_marseille","lat":43.25001,"lon":5.389186,"is_reserved":false,"is_disabled":false,"rental_uris":{"android":"levelo://app?vid=2c92eded-66e5-4d53-98a0-b64e6c9c913c","ios":"levelo://app?vid=2c92eded-66e5-4d53-98a0-b64e6c9c913c"},"vehicle_type_id":"4","last_reported":1701673634,"current_range_meters":10400,"station_id":"ce4bhgp2rcd13ifvqfd0","pricing_plan_id":"free"},{"bike_id":"8eebf46a-5854-4d2f-b5cf-7a3b5cc2b0dd","system_id":"levelo_inurba_marseille","lat":43.250009,"lon":5.389195,"is_reserved":false,"is_disabled":false,"rental_uris":{"android":"levelo://app?vid=8eebf46a-5854-4d2f-b5cf-7a3b5cc2b0dd","ios":"levelo://app?vid=8eebf46a-5854-4d2f-b5cf-7a3b5cc2b0dd"},"vehicle_type_id":"4","last_reported":1701673634,"current_range_meters":21200,"station_id":"ce4bhgp2rcd13ifvqfd0","pricing_plan_id":"free"},{"bike_id":"88b6a1e0-be91-4dd6-8383-ad17e0115ed3","system_id":"levelo_inurba_marseille","lat":43.250009,"lon":5.389195,"is_reserved":false,"is_disabled":false,"rental_uris":{"android":"levelo://app?vid=88b6a1e0-be91-4dd6-8383-ad17e0115ed3","ios":"levelo://app?vid=88b6a1e0-be91-4dd6-8383-ad17e0115ed3"},"vehicle_type_id":"4","last_reported":1701673634,"current_range_meters":31600,"station_id":"ce4bhgp2rcd13ifvqfd0","pricing_plan_id":"free"},{"bike_id":"38aedc53-dfc1-4cb7-ad4c-86b3d77f0b9e","system_id":"levelo_inurba_marseille","lat":43.246468,"lon":5.388942,"is_reserved":false,"is_disabled":false,"rental_uris":{"android":"levelo://app?vid=38aedc53-dfc1-4cb7-ad4c-86b3d77f0b9e","ios":"levelo://app?vid=38aedc53-dfc1-4cb7-ad4c-86b3d77f0b9e"},"vehicle_type_id":"4","last_reported":1701673634,"current_range_meters":23600,"station_id":"ce4bhg12rcd13ifvqf60","pricing_plan_id":"free"},{"bike_id":"24b667c8-feb2-4e0c-aca3-32870dc6348e","system_id":"levelo_inurba_marseille","lat":43.243884,"lon":5.370737,"is_reserved":false,"is_disabled":false,"rental_uris":{"android":"levelo://app?vid=24b667c8-feb2-4e0c-aca3-32870dc6348e","ios":"levelo://app?vid=24b667c8-feb2-4e0c-aca3-32870dc6348e"},"vehicle_type_id":"4","last_reported":1701673634,"current_range_meters":18800,"station_id":"ce4bhhh2rcd13ifvqfk0","pricing_plan_id":"free"},{"bike_id":"3929bb73-c91b-4cb6-ac05-c03534f022d4","system_id":"levelo_inurba_marseille","lat":43.245581,"lon":5.395069,"is_reserved":false,"is_disabled":false,"rental_uris":{"android":"levelo://app?vid=3929bb73-c91b-4cb6-ac05-c03534f022d4","ios":"levelo://app?vid=3929bb73-c91b-4cb6-ac05-c03534f022d4"},"vehicle_type_id":"4","last_reported":1701673634,"current_range_meters":2000,"station_id":"ce4bhlp2rcd13ifvqgjg","pricing_plan_id":"free"},{"bike_id":"80476c43-ad7f-4927-b0b5-b346b4b561a5","system_id":"levelo_inurba_marseille","lat":43.240623,"lon":5.377642,"is_reserved":false,"is_disabled":false,"rental_uris":{"android":"levelo://app?vid=80476c43-ad7f-4927-b0b5-b346b4b561a5","ios":"levelo://app?vid=80476c43-ad7f-4927-b0b5-b346b4b561a5"},"vehicle_type_id":"4","last_reported":1701673634,"current_range_meters":0,"station_id":"ce4bhnp2rcd13ifvqgvg","pricing_plan_id":"free"},{"bike_id":"ad1df43c-c7d4-41c7-bd7f-b2423d91c9c7","system_id":"levelo_inurba_marseille","lat":43.24076,"lon":5.37757,"is_reserved":false,"is_disabled":false,"rental_uris":{"android":"levelo://app?vid=ad1df43c-c7d4-41c7-bd7f-b2423d91c9c7","ios":"levelo://app?vid=ad1df43c-c7d4-41c7-bd7f-b2423d91c9c7"},"vehicle_type_id":"4","last_reported":1701673634,"current_range_meters":22400,"station_id":"ce4bhnp2rcd13ifvqgvg","pricing_plan_id":"free"},{"bike_id":"7f4c3395-b239-45e2-81ce-ae178f480b43","system_id":"levelo_inurba_marseille","lat":43.240623,"lon":5.377642,"is_reserved":false,"is_disabled":false,"rental_uris":{"android":"levelo://app?vid=7f4c3395-b239-45e2-81ce-ae178f480b43","ios":"levelo://app?vid=7f4c3395-b239-45e2-81ce-ae178f480b43"},"vehicle_type_id":"4","last_reported":1701673634,"current_range_meters":23600,"station_id":"ce4bhnp2rcd13ifvqgvg","pricing_plan_id":"free"},{"bike_id":"f9853432-08ce-4a5a-b952-4d50834ec84f","system_id":"levelo_inurba_marseille","lat":43.240749,"lon":5.377606,"is_reserved":false,"is_disabled":false,"rental_uris":{"android":"levelo://app?vid=f9853432-08ce-4a5a-b952-4d50834ec84f","ios":"levelo://app?vid=f9853432-08ce-4a5a-b952-4d50834ec84f"},"vehicle_type_id":"4","last_reported":1701673634,"current_range_meters":16400,"station_id":"ce4bhnp2rcd13ifvqgvg","pricing_plan_id":"free"},{"bike_id":"ad3dbb7f-1dcd-4383-9ed5-9ff351d5311c","system_id":"levelo_inurba_marseille","lat":43.24073,"lon":5.37755,"is_reserved":false,"is_disabled":false,"rental_uris":{"android":"levelo://app?vid=ad3dbb7f-1dcd-4383-9ed5-9ff351d5311c","ios":"levelo://app?vid=ad3dbb7f-1dcd-4383-9ed5-9ff351d5311c"},"vehicle_type_id":"4","last_reported":1701673634,"current_range_meters":14400,"station_id":"ce4bhnp2rcd13ifvqgvg","pricing_plan_id":"free"},{"bike_id":"4a7a23fd-6ac8-4b50-a7e8-e5bbecd51458","system_id":"levelo_inurba_marseille","lat":43.24073,"lon":5.37757,"is_reserved":false,"is_disabled":false,"rental_uris":{"android":"levelo://app?vid=4a7a23fd-6ac8-4b50-a7e8-e5bbecd51458","ios":"levelo://app?vid=4a7a23fd-6ac8-4b50-a7e8-e5bbecd51458"},"vehicle_type_id":"4","last_reported":1701673634,"current_range_meters":25600,"station_id":"ce4bhnp2rcd13ifvqgvg","pricing_plan_id":"free"},{"bike_id":"7a1d1051-d54f-463b-ac35-161f584e52a3","system_id":"levelo_inurba_marseille","lat":43.24073,"lon":5.37758,"is_reserved":false,"is_disabled":false,"rental_uris":{"android":"levelo://app?vid=7a1d1051-d54f-463b-ac35-161f584e52a3","ios":"levelo://app?vid=7a1d1051-d54f-463b-ac35-161f584e52a3"},"vehicle_type_id":"4","last_reported":1701673634,"current_range_meters":14400,"station_id":"ce4bhnp2rcd13ifvqgvg","pricing_plan_id":"free"},{"bike_id":"7cb0d242-ac96-484b-9c43-d6df735fc49c","system_id":"levelo_inurba_marseille","lat":43.240623,"lon":5.377642,"is_reserved":false,"is_disabled":false,"rental_uris":{"android":"levelo://app?vid=7cb0d242-ac96-484b-9c43-d6df735fc49c","ios":"levelo://app?vid=7cb0d242-ac96-484b-9c43-d6df735fc49c"},"vehicle_type_id":"4","last_reported":1701673634,"current_range_meters":20000,"station_id":"ce4bhnp2rcd13ifvqgvg","pricing_plan_id":"free"},{"bike_id":"892a8ee7-fcdb-42c5-8402-c5b3993a1045","system_id":"levelo_inurba_marseille","lat":43.24072,"lon":5.37762,"is_reserved":false,"is_disabled":false,"rental_uris":{"android":"levelo://app?vid=892a8ee7-fcdb-42c5-8402-c5b3993a1045","ios":"levelo://app?vid=892a8ee7-fcdb-42c5-8402-c5b3993a1045"},"vehicle_type_id":"4","last_reported":1701673634,"current_range_meters":16000,"station_id":"ce4bhnp2rcd13ifvqgvg","pricing_plan_id":"free"},{"bike_id":"8d6daf44-90cd-47b3-9294-361b1a179555","system_id":"levelo_inurba_marseille","lat":43.24071,"lon":5.37758,"is_reserved":false,"is_disabled":false,"rental_uris":{"android":"levelo://app?vid=8d6daf44-90cd-47b3-9294-361b1a179555","ios":"levelo://app?vid=8d6daf44-90cd-47b3-9294-361b1a179555"},"vehicle_type_id":"4","last_reported":1701673634,"current_range_meters":18800,"station_id":"ce4bhnp2rcd13ifvqgvg","pricing_plan_id":"free"},{"bike_id":"0455af46-3351-4cdf-82a9-1a0f2459bc2b","system_id":"levelo_inurba_marseille","lat":43.240623,"lon":5.377642,"is_reserved":false,"is_disabled":false,"rental_uris":{"android":"levelo://app?vid=0455af46-3351-4cdf-82a9-1a0f2459bc2b","ios":"levelo://app?vid=0455af46-3351-4cdf-82a9-1a0f2459bc2b"},"vehicle_type_id":"4","last_reported":1701673634,"current_range_meters":26400,"station_id":"ce4bhnp2rcd13ifvqgvg","pricing_plan_id":"free"},{"bike_id":"379df9b6-1116-4c95-a052-eef401dfba7d","system_id":"levelo_inurba_marseille","lat":43.240623,"lon":5.377642,"is_reserved":false,"is_disabled":false,"rental_uris":{"android":"levelo://app?vid=379df9b6-1116-4c95-a052-eef401dfba7d","ios":"levelo://app?vid=379df9b6-1116-4c95-a052-eef401dfba7d"},"vehicle_type_id":"4","last_reported":1701673634,"current_range_meters":29600,"station_id":"ce4bhnp2rcd13ifvqgvg","pricing_plan_id":"free"},{"bike_id":"53b7b289-c00c-486a-9606-0c01eda7cc63","system_id":"levelo_inurba_marseille","lat":43.240623,"lon":5.377642,"is_reserved":false,"is_disabled":false,"rental_uris":{"android":"levelo://app?vid=53b7b289-c00c-486a-9606-0c01eda7cc63","ios":"levelo://app?vid=53b7b289-c00c-486a-9606-0c01eda7cc63"},"vehicle_type_id":"4","last_reported":1701673634,"current_range_meters":28800,"station_id":"ce4bhnp2rcd13ifvqgvg","pricing_plan_id":"free"},{"bike_id":"ee8641c9-8f5e-429f-87eb-8488a31e1ac7","system_id":"levelo_inurba_marseille","lat":43.240623,"lon":5.377642,"is_reserved":false,"is_disabled":false,"rental_uris":{"android":"levelo://app?vid=ee8641c9-8f5e-429f-87eb-8488a31e1ac7","ios":"levelo://app?vid=ee8641c9-8f5e-429f-87eb-8488a31e1ac7"},"vehicle_type_id":"4","last_reported":1701673634,"current_range_meters":23600,"station_id":"ce4bhnp2rcd13ifvqgvg","pricing_plan_id":"free"},{"bike_id":"fe1f8222-da6c-4d4d-b7df-2e92be7ab4e9","system_id":"levelo_inurba_marseille","lat":43.240623,"lon":5.377642,"is_reserved":false,"is_disabled":false,"rental_uris":{"android":"levelo://app?vid=fe1f8222-da6c-4d4d-b7df-2e92be7ab4e9","ios":"levelo://app?vid=fe1f8222-da6c-4d4d-b7df-2e92be7ab4e9"},"vehicle_type_id":"4","last_reported":1701673634,"current_range_meters":2400,"station_id":"ce4bhnp2rcd13ifvqgvg","pricing_plan_id":"free"},{"bike_id":"16fb8f9e-356e-4bfa-bcad-a2fd61bcfa9a","system_id":"levelo_inurba_marseille","lat":43.240623,"lon":5.377642,"is_reserved":false,"is_disabled":false,"rental_uris":{"android":"levelo://app?vid=16fb8f9e-356e-4bfa-bcad-a2fd61bcfa9a","ios":"levelo://app?vid=16fb8f9e-356e-4bfa-bcad-a2fd61bcfa9a"},"vehicle_type_id":"4","last_reported":1701673634,"current_range_meters":15200,"station_id":"ce4bhnp2rcd13ifvqgvg","pricing_plan_id":"free"},{"bike_id":"f2af168d-9b05-43cf-8abc-8c82d60ce684","system_id":"levelo_inurba_marseille","lat":43.240623,"lon":5.377642,"is_reserved":false,"is_disabled":false,"rental_uris":{"android":"levelo://app?vid=f2af168d-9b05-43cf-8abc-8c82d60ce684","ios":"levelo://app?vid=f2af168d-9b05-43cf-8abc-8c82d60ce684"},"vehicle_type_id":"4","last_reported":1701673634,"current_range_meters":29200,"station_id":"ce4bhnp2rcd13ifvqgvg","pricing_plan_id":"free"},{"bike_id":"89c776a1-8d0c-4ef3-882d-ddd73cb5605a","system_id":"levelo_inurba_marseille","lat":43.240623,"lon":5.377642,"is_reserved":false,"is_disabled":false,"rental_uris":{"android":"levelo://app?vid=89c776a1-8d0c-4ef3-882d-ddd73cb5605a","ios":"levelo://app?vid=89c776a1-8d0c-4ef3-882d-ddd73cb5605a"},"vehicle_type_id":"4","last_reported":1701673634,"current_range_meters":13200,"station_id":"ce4bhnp2rcd13ifvqgvg","pricing_plan_id":"free"},{"bike_id":"52eae59a-fb1f-41ad-aa52-d5782c52d4c8","system_id":"levelo_inurba_marseille","lat":43.240623,"lon":5.377642,"is_reserved":false,"is_disabled":false,"rental_uris":{"android":"levelo://app?vid=52eae59a-fb1f-41ad-aa52-d5782c52d4c8","ios":"levelo://app?vid=52eae59a-fb1f-41ad-aa52-d5782c52d4c8"},"vehicle_type_id":"4","last_reported":1701673634,"current_range_meters":30000,"station_id":"ce4bhnp2rcd13ifvqgvg","pricing_plan_id":"free"},{"bike_id":"9e01ee59-41e6-425c-ae1f-3e33312fefcd","system_id":"levelo_inurba_marseille","lat":43.231923,"lon":5.355545,"is_reserved":false,"is_disabled":false,"rental_uris":{"android":"levelo://app?vid=9e01ee59-41e6-425c-ae1f-3e33312fefcd","ios":"levelo://app?vid=9e01ee59-41e6-425c-ae1f-3e33312fefcd"},"vehicle_type_id":"4","last_reported":1701673634,"current_range_meters":13200,"station_id":"ce4bhu92rcd13ifvqi70","pricing_plan_id":"free"},{"bike_id":"2b04708e-eed8-4471-916a-9fdeea01eec7","system_id":"levelo_inurba_marseille","lat":43.231923,"lon":5.355545,"is_reserved":false,"is_disabled":false,"rental_uris":{"android":"levelo://app?vid=2b04708e-eed8-4471-916a-9fdeea01eec7","ios":"levelo://app?vid=2b04708e-eed8-4471-916a-9fdeea01eec7"},"vehicle_type_id":"4","last_reported":1701673634,"current_range_meters":29600,"station_id":"ce4bhu92rcd13ifvqi70","pricing_plan_id":"free"},{"bike_id":"1dff9a6f-8f42-4c79-9ff5-6e67ab01ec87","system_id":"levelo_inurba_marseille","lat":43.231923,"lon":5.355545,"is_reserved":false,"is_disabled":false,"rental_uris":{"android":"levelo://app?vid=1dff9a6f-8f42-4c79-9ff5-6e67ab01ec87","ios":"levelo://app?vid=1dff9a6f-8f42-4c79-9ff5-6e67ab01ec87"},"vehicle_type_id":"4","last_reported":1701673634,"current_range_meters":2000,"station_id":"ce4bhu92rcd13ifvqi70","pricing_plan_id":"free"},{"bike_id":"cf3102c4-88e0-4a41-86b7-69a76932d3e6","system_id":"levelo_inurba_marseille","lat":43.231923,"lon":5.355545,"is_reserved":false,"is_disabled":false,"rental_uris":{"android":"levelo://app?vid=cf3102c4-88e0-4a41-86b7-69a76932d3e6","ios":"levelo://app?vid=cf3102c4-88e0-4a41-86b7-69a76932d3e6"},"vehicle_type_id":"4","last_reported":1701673634,"current_range_meters":31600,"station_id":"ce4bhu92rcd13ifvqi70","pricing_plan_id":"free"},{"bike_id":"87815193-0a9e-4a5a-8f22-63817bf9d429","system_id":"levelo_inurba_marseille","lat":43.231919,"lon":5.355532,"is_reserved":false,"is_disabled":false,"rental_uris":{"android":"levelo://app?vid=87815193-0a9e-4a5a-8f22-63817bf9d429","ios":"levelo://app?vid=87815193-0a9e-4a5a-8f22-63817bf9d429"},"vehicle_type_id":"4","last_reported":1701673634,"current_range_meters":30400,"station_id":"ce4bhu92rcd13ifvqi70","pricing_plan_id":"free"},{"bike_id":"6041d620-664b-4836-b597-a0e62593a032","system_id":"levelo_inurba_marseille","lat":43.231923,"lon":5.355545,"is_reserved":false,"is_disabled":false,"rental_uris":{"android":"levelo://app?vid=6041d620-664b-4836-b597-a0e62593a032","ios":"levelo://app?vid=6041d620-664b-4836-b597-a0e62593a032"},"vehicle_type_id":"4","last_reported":1701673634,"current_range_meters":26000,"station_id":"ce4bhu92rcd13ifvqi70","pricing_plan_id":"free"},{"bike_id":"a2778a75-2f32-457d-810c-ad5c32010803","system_id":"levelo_inurba_marseille","lat":43.231919,"lon":5.355532,"is_reserved":false,"is_disabled":false,"rental_uris":{"android":"levelo://app?vid=a2778a75-2f32-457d-810c-ad5c32010803","ios":"levelo://app?vid=a2778a75-2f32-457d-810c-ad5c32010803"},"vehicle_type_id":"4","last_reported":1701673634,"current_range_meters":17200,"station_id":"ce4bhu92rcd13ifvqi70","pricing_plan_id":"free"},{"bike_id":"e47e98e0-4256-4c41-ae86-e531a41b9213","system_id":"levelo_inurba_marseille","lat":43.231794,"lon":5.400052,"is_reserved":false,"is_disabled":false,"rental_uris":{"android":"levelo://app?vid=e47e98e0-4256-4c41-ae86-e531a41b9213","ios":"levelo://app?vid=e47e98e0-4256-4c41-ae86-e531a41b9213"},"vehicle_type_id":"4","last_reported":1701673634,"current_range_meters":31600,"station_id":"ce4bhn12rcd13ifvqgqg","pricing_plan_id":"free"},{"bike_id":"22bd98e3-c33f-4c44-ae2b-f96729d36f4f","system_id":"levelo_inurba_marseille","lat":43.231793,"lon":5.400044,"is_reserved":false,"is_disabled":false,"rental_uris":{"android":"levelo://app?vid=22bd98e3-c33f-4c44-ae2b-f96729d36f4f","ios":"levelo://app?vid=22bd98e3-c33f-4c44-ae2b-f96729d36f4f"},"vehicle_type_id":"4","last_reported":1701673634,"current_range_meters":31600,"station_id":"ce4bhn12rcd13ifvqgqg","pricing_plan_id":"free"},{"bike_id":"554e18bc-f6bd-448a-9d3a-a49810d0b6de","system_id":"levelo_inurba_marseille","lat":43.231794,"lon":5.400052,"is_reserved":false,"is_disabled":false,"rental_uris":{"android":"levelo://app?vid=554e18bc-f6bd-448a-9d3a-a49810d0b6de","ios":"levelo://app?vid=554e18bc-f6bd-448a-9d3a-a49810d0b6de"},"vehicle_type_id":"4","last_reported":1701673634,"current_range_meters":16000,"station_id":"ce4bhn12rcd13ifvqgqg","pricing_plan_id":"free"},{"bike_id":"ab5eae98-96ca-4718-91b7-353de917f40d","system_id":"levelo_inurba_marseille","lat":43.231793,"lon":5.400044,"is_reserved":false,"is_disabled":false,"rental_uris":{"android":"levelo://app?vid=ab5eae98-96ca-4718-91b7-353de917f40d","ios":"levelo://app?vid=ab5eae98-96ca-4718-91b7-353de917f40d"},"vehicle_type_id":"4","last_reported":1701673634,"current_range_meters":31600,"station_id":"ce4bhn12rcd13ifvqgqg","pricing_plan_id":"free"},{"bike_id":"0cf73e26-cfe4-495a-8675-6603ab968aec","system_id":"levelo_inurba_marseille","lat":43.231794,"lon":5.400052,"is_reserved":false,"is_disabled":false,"rental_uris":{"android":"levelo://app?vid=0cf73e26-cfe4-495a-8675-6603ab968aec","ios":"levelo://app?vid=0cf73e26-cfe4-495a-8675-6603ab968aec"},"vehicle_type_id":"4","last_reported":1701673634,"current_range_meters":30000,"station_id":"ce4bhn12rcd13ifvqgqg","pricing_plan_id":"free"},{"bike_id":"7119d2ec-3a1f-47f1-97aa-a12f1d72912d","system_id":"levelo_inurba_marseille","lat":43.23189,"lon":5.39986,"is_reserved":false,"is_disabled":false,"rental_uris":{"android":"levelo://app?vid=7119d2ec-3a1f-47f1-97aa-a12f1d72912d","ios":"levelo://app?vid=7119d2ec-3a1f-47f1-97aa-a12f1d72912d"},"vehicle_type_id":"4","last_reported":1701673634,"current_range_meters":28800,"station_id":"ce4bhn12rcd13ifvqgqg","pricing_plan_id":"free"},{"bike_id":"77b1a551-da7f-429a-980e-bfc6767a5958","system_id":"levelo_inurba_marseille","lat":43.231794,"lon":5.400052,"is_reserved":false,"is_disabled":false,"rental_uris":{"android":"levelo://app?vid=77b1a551-da7f-429a-980e-bfc6767a5958","ios":"levelo://app?vid=77b1a551-da7f-429a-980e-bfc6767a5958"},"vehicle_type_id":"4","last_reported":1701673634,"current_range_meters":31600,"station_id":"ce4bhn12rcd13ifvqgqg","pricing_plan_id":"free"},{"bike_id":"8f0fb87f-53e2-432d-b05f-ab1e816b61dc","system_id":"levelo_inurba_marseille","lat":43.231794,"lon":5.400052,"is_reserved":false,"is_disabled":false,"rental_uris":{"android":"levelo://app?vid=8f0fb87f-53e2-432d-b05f-ab1e816b61dc","ios":"levelo://app?vid=8f0fb87f-53e2-432d-b05f-ab1e816b61dc"},"vehicle_type_id":"4","last_reported":1701673634,"current_range_meters":31600,"station_id":"ce4bhn12rcd13ifvqgqg","pricing_plan_id":"free"},{"bike_id":"3fdd6789-d52a-4c7f-96f4-f754cbf436d6","system_id":"levelo_inurba_marseille","lat":43.23188,"lon":5.39984,"is_reserved":false,"is_disabled":false,"rental_uris":{"android":"levelo://app?vid=3fdd6789-d52a-4c7f-96f4-f754cbf436d6","ios":"levelo://app?vid=3fdd6789-d52a-4c7f-96f4-f754cbf436d6"},"vehicle_type_id":"4","last_reported":1701673634,"current_range_meters":29600,"station_id":"ce4bhn12rcd13ifvqgqg","pricing_plan_id":"free"},{"bike_id":"8bb4a4e8-9672-4d13-b6c9-9d0eb28673b3","system_id":"levelo_inurba_marseille","lat":43.231793,"lon":5.400044,"is_reserved":false,"is_disabled":false,"rental_uris":{"android":"levelo://app?vid=8bb4a4e8-9672-4d13-b6c9-9d0eb28673b3","ios":"levelo://app?vid=8bb4a4e8-9672-4d13-b6c9-9d0eb28673b3"},"vehicle_type_id":"4","last_reported":1701673634,"current_range_meters":30800,"station_id":"ce4bhn12rcd13ifvqgqg","pricing_plan_id":"free"},{"bike_id":"e44db449-6914-4cfb-bde0-4c3cbeca97c3","system_id":"levelo_inurba_marseille","lat":43.231794,"lon":5.400052,"is_reserved":false,"is_disabled":false,"rental_uris":{"android":"levelo://app?vid=e44db449-6914-4cfb-bde0-4c3cbeca97c3","ios":"levelo://app?vid=e44db449-6914-4cfb-bde0-4c3cbeca97c3"},"vehicle_type_id":"4","last_reported":1701673634,"current_range_meters":31600,"station_id":"ce4bhn12rcd13ifvqgqg","pricing_plan_id":"free"},{"bike_id":"4ee99995-f63f-4ddb-ac4b-88a5ee23324c","system_id":"levelo_inurba_marseille","lat":43.231794,"lon":5.400052,"is_reserved":false,"is_disabled":false,"rental_uris":{"android":"levelo://app?vid=4ee99995-f63f-4ddb-ac4b-88a5ee23324c","ios":"levelo://app?vid=4ee99995-f63f-4ddb-ac4b-88a5ee23324c"},"vehicle_type_id":"4","last_reported":1701673634,"current_range_meters":30400,"station_id":"ce4bhn12rcd13ifvqgqg","pricing_plan_id":"free"},{"bike_id":"457c552c-8af5-4b7b-9f6b-8c901265a623","system_id":"levelo_inurba_marseille","lat":43.23186,"lon":5.39987,"is_reserved":false,"is_disabled":false,"rental_uris":{"android":"levelo://app?vid=457c552c-8af5-4b7b-9f6b-8c901265a623","ios":"levelo://app?vid=457c552c-8af5-4b7b-9f6b-8c901265a623"},"vehicle_type_id":"4","last_reported":1701673634,"current_range_meters":25200,"station_id":"ce4bhn12rcd13ifvqgqg","pricing_plan_id":"free"},{"bike_id":"5d9be6d5-2985-432d-ac4f-8e0798b2a0ac","system_id":"levelo_inurba_marseille","lat":43.231793,"lon":5.400044,"is_reserved":false,"is_disabled":false,"rental_uris":{"android":"levelo://app?vid=5d9be6d5-2985-432d-ac4f-8e0798b2a0ac","ios":"levelo://app?vid=5d9be6d5-2985-432d-ac4f-8e0798b2a0ac"},"vehicle_type_id":"4","last_reported":1701673634,"current_range_meters":31200,"station_id":"ce4bhn12rcd13ifvqgqg","pricing_plan_id":"free"},{"bike_id":"6bd9f065-50d9-4657-9ca0-a006f413d305","system_id":"levelo_inurba_marseille","lat":43.231794,"lon":5.400052,"is_reserved":false,"is_disabled":false,"rental_uris":{"android":"levelo://app?vid=6bd9f065-50d9-4657-9ca0-a006f413d305","ios":"levelo://app?vid=6bd9f065-50d9-4657-9ca0-a006f413d305"},"vehicle_type_id":"4","last_reported":1701673634,"current_range_meters":31600,"station_id":"ce4bhn12rcd13ifvqgqg","pricing_plan_id":"free"},{"bike_id":"88cf855f-bb31-40e0-8afc-686df3c193ab","system_id":"levelo_inurba_marseille","lat":43.231794,"lon":5.400052,"is_reserved":false,"is_disabled":false,"rental_uris":{"android":"levelo://app?vid=88cf855f-bb31-40e0-8afc-686df3c193ab","ios":"levelo://app?vid=88cf855f-bb31-40e0-8afc-686df3c193ab"},"vehicle_type_id":"4","last_reported":1701673634,"current_range_meters":28800,"station_id":"ce4bhn12rcd13ifvqgqg","pricing_plan_id":"free"},{"bike_id":"8018717d-336c-48a7-9c90-84a6551a8bc7","system_id":"levelo_inurba_marseille","lat":43.231568,"lon":5.436988,"is_reserved":false,"is_disabled":false,"rental_uris":{"android":"levelo://app?vid=8018717d-336c-48a7-9c90-84a6551a8bc7","ios":"levelo://app?vid=8018717d-336c-48a7-9c90-84a6551a8bc7"},"vehicle_type_id":"4","last_reported":1701673634,"current_range_meters":6000,"station_id":"ce4bhmp2rcd13ifvqgog","pricing_plan_id":"free"},{"bike_id":"818b7971-a62f-4d0c-b4d6-ebcff5688a44","system_id":"levelo_inurba_marseille","lat":43.231562,"lon":5.436933,"is_reserved":false,"is_disabled":false,"rental_uris":{"android":"levelo://app?vid=818b7971-a62f-4d0c-b4d6-ebcff5688a44","ios":"levelo://app?vid=818b7971-a62f-4d0c-b4d6-ebcff5688a44"},"vehicle_type_id":"4","last_reported":1701673634,"current_range_meters":27600,"station_id":"ce4bhmp2rcd13ifvqgog","pricing_plan_id":"free"},{"bike_id":"9a101203-a4c3-4653-b04e-23d858664d35","system_id":"levelo_inurba_marseille","lat":43.231562,"lon":5.436933,"is_reserved":false,"is_disabled":false,"rental_uris":{"android":"levelo://app?vid=9a101203-a4c3-4653-b04e-23d858664d35","ios":"levelo://app?vid=9a101203-a4c3-4653-b04e-23d858664d35"},"vehicle_type_id":"4","last_reported":1701673634,"current_range_meters":28800,"station_id":"ce4bhmp2rcd13ifvqgog","pricing_plan_id":"free"},{"bike_id":"2e1f4911-ec15-4212-aa8f-8ade17ab151d","system_id":"levelo_inurba_marseille","lat":43.23152,"lon":5.43717,"is_reserved":false,"is_disabled":false,"rental_uris":{"android":"levelo://app?vid=2e1f4911-ec15-4212-aa8f-8ade17ab151d","ios":"levelo://app?vid=2e1f4911-ec15-4212-aa8f-8ade17ab151d"},"vehicle_type_id":"4","last_reported":1701673634,"current_range_meters":8800,"station_id":"ce4bhmp2rcd13ifvqgog","pricing_plan_id":"free"},{"bike_id":"30690881-465e-4f4e-a81a-04a1a40e4341","system_id":"levelo_inurba_marseille","lat":43.231562,"lon":5.436933,"is_reserved":false,"is_disabled":false,"rental_uris":{"android":"levelo://app?vid=30690881-465e-4f4e-a81a-04a1a40e4341","ios":"levelo://app?vid=30690881-465e-4f4e-a81a-04a1a40e4341"},"vehicle_type_id":"4","last_reported":1701673634,"current_range_meters":8800,"station_id":"ce4bhmp2rcd13ifvqgog","pricing_plan_id":"free"},{"bike_id":"31d0811f-403f-42aa-9ea6-b138ed5aedee","system_id":"levelo_inurba_marseille","lat":43.231562,"lon":5.436933,"is_reserved":false,"is_disabled":false,"rental_uris":{"android":"levelo://app?vid=31d0811f-403f-42aa-9ea6-b138ed5aedee","ios":"levelo://app?vid=31d0811f-403f-42aa-9ea6-b138ed5aedee"},"vehicle_type_id":"4","last_reported":1701673634,"current_range_meters":31600,"station_id":"ce4bhmp2rcd13ifvqgog","pricing_plan_id":"free"},{"bike_id":"b718cec7-5e66-4216-830b-20c4cb80c1f6","system_id":"levelo_inurba_marseille","lat":43.231562,"lon":5.436933,"is_reserved":false,"is_disabled":false,"rental_uris":{"android":"levelo://app?vid=b718cec7-5e66-4216-830b-20c4cb80c1f6","ios":"levelo://app?vid=b718cec7-5e66-4216-830b-20c4cb80c1f6"},"vehicle_type_id":"4","last_reported":1701673634,"current_range_meters":26800,"station_id":"ce4bhmp2rcd13ifvqgog","pricing_plan_id":"free"}]}}