{"last_updated":1747362987,"ttl":60,"version":"2.2","data":{"bikes":[{"bike_id":"be874d11-2d06-4759-83a6-05c7c2bc5f88","system_id":"levelo_inurba_marseille","lat":43.269741,"lon":5.391218,"is_reserved":false,"is_disabled":false,"rental_uris":{"android":"levelo://app?vid=be874d11-2d06-4759-83a6-05c7c2bc5f88","ios":"levelo://app?vid=be874d11-2d06-4759-83a6-05c7c2bc5f88"},"vehicle_type_id":"4","last_reported":1747362987,"current_range_meters":2800,"station_id":"","pricing_plan_id":"cebpf4jnsgd1na2vs0mg"},{"bike_id":"fe099644-59e4-438f-a009-e4740039a77d","system_id":"levelo_inurba_marseille","lat":43.30797,"lon":5.38163,"is_reserved":false,"is_disabled":false,"rental_uris":{"android":"levelo://app?vid=fe099644-59e4-438f-a009-e4740039a77d","ios":"levelo://app?vid=fe099644-59e4-438f-a009-e4740039a77d"},"vehicle_type_id":"4","last_reported":1747362987,"current_range_meters":2800,"station_id":"ce4bgt12rcd13ifvqce0","pricing_plan_id":"cebpf4jnsgd1na2vs0mg"},{"bike_id":"f9e7d873-88bb-4f94-a0d6-3fcae7d05021","system_id":"levelo_inurba_marseille","lat":43.308131,"lon":5.369575,"is_reserved":false,"is_disabled":false,"rental_uris":{"android":"levelo://app?vid=f9e7d873-88bb-4f94-a0d6-3fcae7d05021","ios":"levelo://app?vid=f9e7d873-88bb-4f94-a0d6-3fcae7d05021"},"vehicle_type_id":"4","last_reported":1747362987,"current_range_meters":3200,"station_id":"","pricing_plan_id":"cebpf4jnsgd1na2vs0mg"},{"bike_id":"d80a2f8d-56d5-42e1-b28a-e12ee9b95e87","system_id":"levelo_inurba_marseille","lat":43.298783,"lon":5.39729,"is_reserved":false,"is_disabled":false,"rental_uris":{"android":"levelo://app?vid=d80a2f8d-56d5-42e1-b28a-e12ee9b95e87","ios":"levelo://app?vid=d80a2f8d-56d5-42e1-b28a-e12ee9b95e87"},"vehicle_type_id":"4","last_reported":1747362987,"current_range_meters":3200,"station_id":"ce4bh0h2rcd13ifvqd50","pricing_plan_id":"cebpf4jnsgd1na2vs0mg"},{"bike_id":"eabf2a35-47bc-4253-8436-57e938d52069","system_id":"levelo_inurba_marseille","lat":43.301287,"lon":5.398743,"is_reserved":false,"is_disabled":false,"rental_uris":{"android":"levelo://app?vid=eabf2a35-47bc-4253-8436-57e938d52069","ios":"levelo://app?vid=eabf2a35-47bc-4253-8436-57e938d52069"},"vehicle_type_id":"4","last_reported":1747362987,"current_range_meters":3600,"station_id":"ce4bh0h2rcd13ifvqd40","pricing_plan_id":"cebpf4jnsgd1na2vs0mg"},{"bike_id":"d2449169-a451-4966-be38-c5971452e792","system_id":"levelo_inurba_marseille","lat":43.279296,"lon":5.387108,"is_reserved":false,"is_disabled":true,"rental_uris":{"android":"levelo://app?vid=d2449169-a451-4966-be38-c5971452e792","ios":"levelo://app?vid=d2449169-a451-4966-be38-c5971452e792"},"vehicle_type_id":"4","last_reported":1747362987,"current_range_meters":3600,"station_id":"","pricing_plan_id":"cebpf4jnsgd1na2vs0mg"},{"bike_id":"2a0092ec-f184-4d57-9901-cfbdc97dbe4d","system_id":"levelo_inurba_marseille","lat":43.292517,"lon":5.384417,"is_reserved":false,"is_disabled":true,"rental_uris":{"android":"levelo://app?vid=2a0092ec-f184-4d57-9901-cfbdc97dbe4d","ios":"levelo://app?vid=2a0092ec-f184-4d57-9901-cfbdc97dbe4d"},"vehicle_type_id":"4","last_reported":1747362987,"current_range_meters":4000,"station_id":"ce4bh692rcd13ifvqea0","pricing_plan_id":"cebpf4jnsgd1na2vs0mg"},{"bike_id":"9b42257b-e6cd-4717-a457-bffcbe6eb915","system_id":"levelo_inurba_marseille","lat":43.30882,"lon":5.39643,"is_reserved":false,"is_disabled":false,"rental_uris":{"android":"levelo://app?vid=9b42257b-e6cd-4717-a457-bffcbe6eb915","ios":"levelo://app?vid=9b42257b-e6cd-4717-a457-bffcbe6eb915"},"vehicle_type_id":"4","last_reported":1747362987,"current_range_meters":4000,"station_id":"ce4bh012rcd13ifvqcv0","pricing_plan_id":"cebpf4jnsgd1na2vs0mg"},{"bike_id":"ea716814-d8a0-425d-8c9d-51cf34ecd6e9","system_id":"levelo_inurba_marseille","lat":43.281029,"lon":5.378501,"is_reserved":false,"is_disabled":false,"rental_uris":{"android":"levelo://app?vid=ea716814-d8a0-425d-8c9d-51cf34ecd6e9","ios":"levelo://app?vid=ea716814-d8a0-425d-8c9d-51cf34ecd6e9"},"vehicle_type_id":"4","last_reported":1747362987,"current_range_meters":4000,"station_id":"ce4bha12rcd13ifvqee0","pricing_plan_id":"cebpf4jnsgd1na2vs0mg"},{"bike_id":"10431d85-b1b3-4226-8392-fb03cfc52222","system_id":"levelo_inurba_marseille","lat":43.28098,"lon":5.37836,"is_reserved":false,"is_disabled":false,"rental_uris":{"android":"levelo://app?vid=10431d85-b1b3-4226-8392-fb03cfc52222","ios":"levelo://app?vid=10431d85-b1b3-4226-8392-fb03cfc52222"},"vehicle_type_id":"4","last_reported":1747362987,"current_range_meters":4400,"station_id":"ce4bha12rcd13ifvqee0","pricing_plan_id":"cebpf4jnsgd1na2vs0mg"},{"bike_id":"c1ea5b26-48c4-4559-a197-4118b1e78ec2","system_id":"levelo_inurba_marseille","lat":43.306493,"lon":5.400656,"is_reserved":false,"is_disabled":false,"rental_uris":{"android":"levelo://app?vid=c1ea5b26-48c4-4559-a197-4118b1e78ec2","ios":"levelo://app?vid=c1ea5b26-48c4-4559-a197-4118b1e78ec2"},"vehicle_type_id":"4","last_reported":1747362987,"current_range_meters":4400,"station_id":"ce4bh112rcd13ifvqda0","pricing_plan_id":"cebpf4jnsgd1na2vs0mg"},{"bike_id":"bc403e1d-0106-4ec0-815d-537e8bca31b6","system_id":"levelo_inurba_marseille","lat":43.308808,"lon":5.396448,"is_reserved":false,"is_disabled":false,"rental_uris":{"android":"levelo://app?vid=bc403e1d-0106-4ec0-815d-537e8bca31b6","ios":"levelo://app?vid=bc403e1d-0106-4ec0-815d-537e8bca31b6"},"vehicle_type_id":"4","last_reported":1747362987,"current_range_meters":4400,"station_id":"ce4bh012rcd13ifvqcv0","pricing_plan_id":"cebpf4jnsgd1na2vs0mg"},{"bike_id":"8ea9feae-8777-4e64-aba7-b7454736bd17","system_id":"levelo_inurba_marseille","lat":43.29048,"lon":5.37154,"is_reserved":false,"is_disabled":true,"rental_uris":{"android":"levelo://app?vid=8ea9feae-8777-4e64-aba7-b7454736bd17","ios":"levelo://app?vid=8ea9feae-8777-4e64-aba7-b7454736bd17"},"vehicle_type_id":"4","last_reported":1747362987,"current_range_meters":4400,"station_id":"ce4bh5p2rcd13ifvqe4g","pricing_plan_id":"cebpf4jnsgd1na2vs0mg"},{"bike_id":"c1cea811-6043-458b-9433-eedc63a8029c","system_id":"levelo_inurba_marseille","lat":43.280786,"lon":5.396431,"is_reserved":false,"is_disabled":false,"rental_uris":{"android":"levelo://app?vid=c1cea811-6043-458b-9433-eedc63a8029c","ios":"levelo://app?vid=c1cea811-6043-458b-9433-eedc63a8029c"},"vehicle_type_id":"4","last_reported":1747362987,"current_range_meters":4400,"station_id":"ce4bho12rcd13ifvqh2g","pricing_plan_id":"cebpf4jnsgd1na2vs0mg"},{"bike_id":"9537eb00-238a-476b-ae79-4377262a5979","system_id":"levelo_inurba_marseille","lat":43.30935,"lon":5.40144,"is_reserved":false,"is_disabled":false,"rental_uris":{"android":"levelo://app?vid=9537eb00-238a-476b-ae79-4377262a5979","ios":"levelo://app?vid=9537eb00-238a-476b-ae79-4377262a5979"},"vehicle_type_id":"4","last_reported":1747362987,"current_range_meters":4400,"station_id":"ce4bgvp2rcd13ifvqct0","pricing_plan_id":"cebpf4jnsgd1na2vs0mg"},{"bike_id":"c98b183e-79e8-429d-a48e-f5b552cc493a","system_id":"levelo_inurba_marseille","lat":43.31325,"lon":5.39728,"is_reserved":false,"is_disabled":true,"rental_uris":{"android":"levelo://app?vid=c98b183e-79e8-429d-a48e-f5b552cc493a","ios":"levelo://app?vid=c98b183e-79e8-429d-a48e-f5b552cc493a"},"vehicle_type_id":"4","last_reported":1747362987,"current_range_meters":4800,"station_id":"ce4bgvp2rcd13ifvqcu0","pricing_plan_id":"cebpf4jnsgd1na2vs0mg"},{"bike_id":"b47ff3b2-1ab9-4945-87ab-f7d96649a5e9","system_id":"levelo_inurba_marseille","lat":43.27206,"lon":5.39203,"is_reserved":false,"is_disabled":true,"rental_uris":{"android":"levelo://app?vid=b47ff3b2-1ab9-4945-87ab-f7d96649a5e9","ios":"levelo://app?vid=b47ff3b2-1ab9-4945-87ab-f7d96649a5e9"},"vehicle_type_id":"4","last_reported":1747362987,"current_range_meters":4800,"station_id":"ce4bhhp2rcd13ifvqfm0","pricing_plan_id":"cebpf4jnsgd1na2vs0mg"},{"bike_id":"fe5d0865-672f-43bd-a0c1-4310bfdeadc9","system_id":"levelo_inurba_marseille","lat":43.25116,"lon":5.40349,"is_reserved":false,"is_disabled":false,"rental_uris":{"android":"levelo://app?vid=fe5d0865-672f-43bd-a0c1-4310bfdeadc9","ios":"levelo://app?vid=fe5d0865-672f-43bd-a0c1-4310bfdeadc9"},"vehicle_type_id":"4","last_reported":1747362987,"current_range_meters":4800,"station_id":"ce4bhlh2rcd13ifvqgig","pricing_plan_id":"cebpf4jnsgd1na2vs0mg"},{"bike_id":"fed06cf5-f5f2-4809-91f1-074e851a4497","system_id":"levelo_inurba_marseille","lat":43.2416,"lon":5.39721,"is_reserved":false,"is_disabled":false,"rental_uris":{"android":"levelo://app?vid=fed06cf5-f5f2-4809-91f1-074e851a4497","ios":"levelo://app?vid=fed06cf5-f5f2-4809-91f1-074e851a4497"},"vehicle_type_id":"4","last_reported":1747362987,"current_range_meters":4800,"station_id":"ce4bhn12rcd13ifvqgpg","pricing_plan_id":"cebpf4jnsgd1na2vs0mg"},{"bike_id":"63356c5f-5a03-4190-aec7-a27839a80d5d","system_id":"levelo_inurba_marseille","lat":43.25824,"lon":5.39439,"is_reserved":false,"is_disabled":false,"rental_uris":{"android":"levelo://app?vid=63356c5f-5a03-4190-aec7-a27839a80d5d","ios":"levelo://app?vid=63356c5f-5a03-4190-aec7-a27839a80d5d"},"vehicle_type_id":"4","last_reported":1747362987,"current_range_meters":4800,"station_id":"ce4bhip2rcd13ifvqft0","pricing_plan_id":"cebpf4jnsgd1na2vs0mg"},{"bike_id":"eb544a75-9cd1-4333-980a-695b92ed425a","system_id":"levelo_inurba_marseille","lat":43.28436,"lon":5.39176,"is_reserved":false,"is_disabled":false,"rental_uris":{"android":"levelo://app?vid=eb544a75-9cd1-4333-980a-695b92ed425a","ios":"levelo://app?vid=eb544a75-9cd1-4333-980a-695b92ed425a"},"vehicle_type_id":"4","last_reported":1747362987,"current_range_meters":5600,"station_id":"ce4bhoh2rcd13ifvqh5g","pricing_plan_id":"cebpf4jnsgd1na2vs0mg"},{"bike_id":"651bdf69-89dd-45cb-a19f-1c0b88a4db66","system_id":"levelo_inurba_marseille","lat":43.29876,"lon":5.3977,"is_reserved":false,"is_disabled":false,"rental_uris":{"android":"levelo://app?vid=651bdf69-89dd-45cb-a19f-1c0b88a4db66","ios":"levelo://app?vid=651bdf69-89dd-45cb-a19f-1c0b88a4db66"},"vehicle_type_id":"4","last_reported":1747362987,"current_range_meters":5600,"station_id":"ce4bh0h2rcd13ifvqd50","pricing_plan_id":"cebpf4jnsgd1na2vs0mg"},{"bike_id":"9fbc4b0a-22b5-475e-9fa9-fefee100a33d","system_id":"levelo_inurba_marseille","lat":43.27892,"lon":5.38014,"is_reserved":false,"is_disabled":false,"rental_uris":{"android":"levelo://app?vid=9fbc4b0a-22b5-475e-9fa9-fefee100a33d","ios":"levelo://app?vid=9fbc4b0a-22b5-475e-9fa9-fefee100a33d"},"vehicle_type_id":"4","last_reported":1747362987,"current_range_meters":5600,"station_id":"ce4bhf92rcd13ifvqf50","pricing_plan_id":"cebpf4jnsgd1na2vs0mg"},{"bike_id":"6379fadf-e6a9-4548-bd24-45ccc5153b54","system_id":"levelo_inurba_marseille","lat":43.238,"lon":5.38304,"is_reserved":false,"is_disabled":false,"rental_uris":{"android":"levelo://app?vid=6379fadf-e6a9-4548-bd24-45ccc5153b54","ios":"levelo://app?vid=6379fadf-e6a9-4548-bd24-45ccc5153b54"},"vehicle_type_id":"4","last_reported":1747362987,"current_range_meters":5600,"station_id":"","pricing_plan_id":"cebpf4jnsgd1na2vs0mg"},{"bike_id":"254e7cd6-6d75-4ac5-bb66-49723605d6cb","system_id":"levelo_inurba_marseille","lat":43.304195,"lon":5.39755,"is_reserved":false,"is_disabled":false,"rental_uris":{"android":"levelo://app?vid=254e7cd6-6d75-4ac5-bb66-49723605d6cb","ios":"levelo://app?vid=254e7cd6-6d75-4ac5-bb66-49723605d6cb"},"vehicle_type_id":"4","last_reported":1747362987,"current_range_meters":5600,"station_id":"ce4bh092rcd13ifvqd20","pricing_plan_id":"cebpf4jnsgd1na2vs0mg"},{"bike_id":"fc4950d7-0888-44f9-b6bc-bb6330e386cb","system_id":"levelo_inurba_marseille","lat":43.29594,"lon":5.3773,"is_reserved":false,"is_disabled":true,"rental_uris":{"android":"levelo://app?vid=fc4950d7-0888-44f9-b6bc-bb6330e386cb","ios":"levelo://app?vid=fc4950d7-0888-44f9-b6bc-bb6330e386cb"},"vehicle_type_id":"4","last_reported":1747362987,"current_range_meters":5600,"station_id":"ce4bgi92rcd13ifvqb90","pricing_plan_id":"cebpf4jnsgd1na2vs0mg"},{"bike_id":"f177d2e4-b664-49e7-930f-92de032ad36e","system_id":"levelo_inurba_marseille","lat":43.337444,"lon":5.374475,"is_reserved":false,"is_disabled":false,"rental_uris":{"android":"levelo://app?vid=f177d2e4-b664-49e7-930f-92de032ad36e","ios":"levelo://app?vid=f177d2e4-b664-49e7-930f-92de032ad36e"},"vehicle_type_id":"4","last_reported":1747362987,"current_range_meters":6000,"station_id":"","pricing_plan_id":"cebpf4jnsgd1na2vs0mg"},{"bike_id":"e2e2487b-8a81-4022-b36a-6aa7a6726e87","system_id":"levelo_inurba_marseille","lat":43.24168,"lon":5.39714,"is_reserved":false,"is_disabled":false,"rental_uris":{"android":"levelo://app?vid=e2e2487b-8a81-4022-b36a-6aa7a6726e87","ios":"levelo://app?vid=e2e2487b-8a81-4022-b36a-6aa7a6726e87"},"vehicle_type_id":"4","last_reported":1747362987,"current_range_meters":6000,"station_id":"ce4bhn12rcd13ifvqgpg","pricing_plan_id":"cebpf4jnsgd1na2vs0mg"},{"bike_id":"18e2ab6e-8fae-4f1f-b9c7-a4adc527cf67","system_id":"levelo_inurba_marseille","lat":43.3303,"lon":5.38004,"is_reserved":false,"is_disabled":false,"rental_uris":{"android":"levelo://app?vid=18e2ab6e-8fae-4f1f-b9c7-a4adc527cf67","ios":"levelo://app?vid=18e2ab6e-8fae-4f1f-b9c7-a4adc527cf67"},"vehicle_type_id":"4","last_reported":1747362987,"current_range_meters":6400,"station_id":"","pricing_plan_id":"cebpf4jnsgd1na2vs0mg"},{"bike_id":"b6896310-a386-4eb1-a47b-30e3cd81dc87","system_id":"levelo_inurba_marseille","lat":43.28668,"lon":5.39986,"is_reserved":false,"is_disabled":false,"rental_uris":{"android":"levelo://app?vid=b6896310-a386-4eb1-a47b-30e3cd81dc87","ios":"levelo://app?vid=b6896310-a386-4eb1-a47b-30e3cd81dc87"},"vehicle_type_id":"4","last_reported":1747362987,"current_range_meters":6400,"station_id":"","pricing_plan_id":"cebpf4jnsgd1na2vs0mg"},{"bike_id":"22368baa-c49f-4818-ad8f-92eee34f21f1","system_id":"levelo_inurba_marseille","lat":43.303763,"lon":5.424861,"is_reserved":false,"is_disabled":false,"rental_uris":{"android":"levelo://app?vid=22368baa-c49f-4818-ad8f-92eee34f21f1","ios":"levelo://app?vid=22368baa-c49f-4818-ad8f-92eee34f21f1"},"vehicle_type_id":"4","last_reported":1747362987,"current_range_meters":6800,"station_id":"ce4bhoh2rcd13ifvqh6g","pricing_plan_id":"cebpf4jnsgd1na2vs0mg"},{"bike_id":"a748a13f-85f4-4100-a5af-5f8db1d6ea1a","system_id":"levelo_inurba_marseille","lat":43.281476,"lon":5.426533,"is_reserved":false,"is_disabled":false,"rental_uris":{"android":"levelo://app?vid=a748a13f-85f4-4100-a5af-5f8db1d6ea1a","ios":"levelo://app?vid=a748a13f-85f4-4100-a5af-5f8db1d6ea1a"},"vehicle_type_id":"4","last_reported":1747362987,"current_range_meters":6800,"station_id":"ce4bhnh2rcd13ifvqgug","pricing_plan_id":"cebpf4jnsgd1na2vs0mg"},{"bike_id":"1aaa2e90-397e-4807-9247-89dacfd256d6","system_id":"levelo_inurba_marseille","lat":43.31075,"lon":5.383435,"is_reserved":false,"is_disabled":false,"rental_uris":{"android":"levelo://app?vid=1aaa2e90-397e-4807-9247-89dacfd256d6","ios":"levelo://app?vid=1aaa2e90-397e-4807-9247-89dacfd256d6"},"vehicle_type_id":"4","last_reported":1747362987,"current_range_meters":6800,"station_id":"ce4bgv92rcd13ifvqcr0","pricing_plan_id":"cebpf4jnsgd1na2vs0mg"},{"bike_id":"bddf23bc-d23c-4956-a5ea-93b78c6a38aa","system_id":"levelo_inurba_marseille","lat":43.24656,"lon":5.38152,"is_reserved":false,"is_disabled":false,"rental_uris":{"android":"levelo://app?vid=bddf23bc-d23c-4956-a5ea-93b78c6a38aa","ios":"levelo://app?vid=bddf23bc-d23c-4956-a5ea-93b78c6a38aa"},"vehicle_type_id":"4","last_reported":1747362987,"current_range_meters":6800,"station_id":"ce4bhih2rcd13ifvqfr0","pricing_plan_id":"cebpf4jnsgd1na2vs0mg"},{"bike_id":"21d6c532-18c6-48ea-b60d-7f97bfa6468b","system_id":"levelo_inurba_marseille","lat":43.30127,"lon":5.39866,"is_reserved":false,"is_disabled":false,"rental_uris":{"android":"levelo://app?vid=21d6c532-18c6-48ea-b60d-7f97bfa6468b","ios":"levelo://app?vid=21d6c532-18c6-48ea-b60d-7f97bfa6468b"},"vehicle_type_id":"4","last_reported":1747362987,"current_range_meters":6800,"station_id":"ce4bh0h2rcd13ifvqd40","pricing_plan_id":"cebpf4jnsgd1na2vs0mg"},{"bike_id":"30062e82-b6c9-48bf-ad0e-78e8aabb2070","system_id":"levelo_inurba_marseille","lat":43.217482,"lon":5.346027,"is_reserved":false,"is_disabled":false,"rental_uris":{"android":"levelo://app?vid=30062e82-b6c9-48bf-ad0e-78e8aabb2070","ios":"levelo://app?vid=30062e82-b6c9-48bf-ad0e-78e8aabb2070"},"vehicle_type_id":"4","last_reported":1747362987,"current_range_meters":7200,"station_id":"st_cvj6r9ubvosntc0bgbag","pricing_plan_id":"cebpf4jnsgd1na2vs0mg"},{"bike_id":"b7cb570d-77f5-48d9-be33-70291761d5d7","system_id":"levelo_inurba_marseille","lat":43.211952,"lon":5.350705,"is_reserved":false,"is_disabled":false,"rental_uris":{"android":"levelo://app?vid=b7cb570d-77f5-48d9-be33-70291761d5d7","ios":"levelo://app?vid=b7cb570d-77f5-48d9-be33-70291761d5d7"},"vehicle_type_id":"4","last_reported":1747362987,"current_range_meters":7200,"station_id":"st_cvj6sg6p6f1abm77japg","pricing_plan_id":"cebpf4jnsgd1na2vs0mg"},{"bike_id":"04889eb1-8603-47e6-9c32-5708766b5cfb","system_id":"levelo_inurba_marseille","lat":43.30411,"lon":5.38919,"is_reserved":false,"is_disabled":false,"rental_uris":{"android":"levelo://app?vid=04889eb1-8603-47e6-9c32-5708766b5cfb","ios":"levelo://app?vid=04889eb1-8603-47e6-9c32-5708766b5cfb"},"vehicle_type_id":"4","last_reported":1747362987,"current_range_meters":7200,"station_id":"ce4bgk12rcd13ifvqbi0","pricing_plan_id":"cebpf4jnsgd1na2vs0mg"},{"bike_id":"05e32c49-8d04-4b14-ab03-681eae6c49bd","system_id":"levelo_inurba_marseille","lat":43.29837,"lon":5.37557,"is_reserved":false,"is_disabled":false,"rental_uris":{"android":"levelo://app?vid=05e32c49-8d04-4b14-ab03-681eae6c49bd","ios":"levelo://app?vid=05e32c49-8d04-4b14-ab03-681eae6c49bd"},"vehicle_type_id":"4","last_reported":1747362987,"current_range_meters":7200,"station_id":"","pricing_plan_id":"cebpf4jnsgd1na2vs0mg"},{"bike_id":"5e6d1bee-25e7-45ea-9d39-ed170fd50d1c","system_id":"levelo_inurba_marseille","lat":43.279363,"lon":5.410409,"is_reserved":false,"is_disabled":false,"rental_uris":{"android":"levelo://app?vid=5e6d1bee-25e7-45ea-9d39-ed170fd50d1c","ios":"levelo://app?vid=5e6d1bee-25e7-45ea-9d39-ed170fd50d1c"},"vehicle_type_id":"4","last_reported":1747362987,"current_range_meters":7200,"station_id":"ce4bhnp2rcd13ifvqh0g","pricing_plan_id":"cebpf4jnsgd1na2vs0mg"},{"bike_id":"51f24509-4123-43ec-bdb9-3b2ddd52d8c5","system_id":"levelo_inurba_marseille","lat":43.30332,"lon":5.40451,"is_reserved":false,"is_disabled":false,"rental_uris":{"android":"levelo://app?vid=51f24509-4123-43ec-bdb9-3b2ddd52d8c5","ios":"levelo://app?vid=51f24509-4123-43ec-bdb9-3b2ddd52d8c5"},"vehicle_type_id":"4","last_reported":1747362987,"current_range_meters":7200,"station_id":"ce4bh012rcd13ifvqd10","pricing_plan_id":"cebpf4jnsgd1na2vs0mg"},{"bike_id":"5fdebff2-c927-4e43-81c5-6ec5122ce28c","system_id":"levelo_inurba_marseille","lat":43.28079,"lon":5.37854,"is_reserved":false,"is_disabled":false,"rental_uris":{"android":"levelo://app?vid=5fdebff2-c927-4e43-81c5-6ec5122ce28c","ios":"levelo://app?vid=5fdebff2-c927-4e43-81c5-6ec5122ce28c"},"vehicle_type_id":"4","last_reported":1747362987,"current_range_meters":7200,"station_id":"ce4bha12rcd13ifvqee0","pricing_plan_id":"cebpf4jnsgd1na2vs0mg"},{"bike_id":"c334f53f-6386-4502-b496-c0f578da1ace","system_id":"levelo_inurba_marseille","lat":43.30934,"lon":5.4016,"is_reserved":false,"is_disabled":false,"rental_uris":{"android":"levelo://app?vid=c334f53f-6386-4502-b496-c0f578da1ace","ios":"levelo://app?vid=c334f53f-6386-4502-b496-c0f578da1ace"},"vehicle_type_id":"4","last_reported":1747362987,"current_range_meters":7200,"station_id":"ce4bgvp2rcd13ifvqct0","pricing_plan_id":"cebpf4jnsgd1na2vs0mg"},{"bike_id":"7d2364c7-ffb6-4b1e-8e14-8beb924ce27d","system_id":"levelo_inurba_marseille","lat":43.309281,"lon":5.401418,"is_reserved":false,"is_disabled":false,"rental_uris":{"android":"levelo://app?vid=7d2364c7-ffb6-4b1e-8e14-8beb924ce27d","ios":"levelo://app?vid=7d2364c7-ffb6-4b1e-8e14-8beb924ce27d"},"vehicle_type_id":"4","last_reported":1747362987,"current_range_meters":7200,"station_id":"ce4bgvp2rcd13ifvqct0","pricing_plan_id":"cebpf4jnsgd1na2vs0mg"},{"bike_id":"8d46c67d-c735-4114-98b3-16c24c8fefdd","system_id":"levelo_inurba_marseille","lat":43.31707,"lon":5.40447,"is_reserved":false,"is_disabled":true,"rental_uris":{"android":"levelo://app?vid=8d46c67d-c735-4114-98b3-16c24c8fefdd","ios":"levelo://app?vid=8d46c67d-c735-4114-98b3-16c24c8fefdd"},"vehicle_type_id":"4","last_reported":1747362987,"current_range_meters":8000,"station_id":"ce4bh012rcd13ifvqd00","pricing_plan_id":"cebpf4jnsgd1na2vs0mg"},{"bike_id":"ca60411d-c6b3-4115-b5fd-d05907584d5e","system_id":"levelo_inurba_marseille","lat":43.308937,"lon":5.396403,"is_reserved":false,"is_disabled":false,"rental_uris":{"android":"levelo://app?vid=ca60411d-c6b3-4115-b5fd-d05907584d5e","ios":"levelo://app?vid=ca60411d-c6b3-4115-b5fd-d05907584d5e"},"vehicle_type_id":"4","last_reported":1747362987,"current_range_meters":8000,"station_id":"ce4bh012rcd13ifvqcv0","pricing_plan_id":"cebpf4jnsgd1na2vs0mg"},{"bike_id":"f6704a3d-d1d5-4276-8d60-0c685f34315b","system_id":"levelo_inurba_marseille","lat":43.26025,"lon":5.39427,"is_reserved":false,"is_disabled":false,"rental_uris":{"android":"levelo://app?vid=f6704a3d-d1d5-4276-8d60-0c685f34315b","ios":"levelo://app?vid=f6704a3d-d1d5-4276-8d60-0c685f34315b"},"vehicle_type_id":"4","last_reported":1747362987,"current_range_meters":8000,"station_id":"","pricing_plan_id":"cebpf4jnsgd1na2vs0mg"},{"bike_id":"aa083689-1f06-4bc8-89fd-414bef981e30","system_id":"levelo_inurba_marseille","lat":43.30665,"lon":5.40072,"is_reserved":false,"is_disabled":false,"rental_uris":{"android":"levelo://app?vid=aa083689-1f06-4bc8-89fd-414bef981e30","ios":"levelo://app?vid=aa083689-1f06-4bc8-89fd-414bef981e30"},"vehicle_type_id":"4","last_reported":1747362987,"current_range_meters":8000,"station_id":"ce4bh112rcd13ifvqda0","pricing_plan_id":"cebpf4jnsgd1na2vs0mg"},{"bike_id":"d8f87953-dab1-49d4-8113-ffc824ef3cdc","system_id":"levelo_inurba_marseille","lat":43.308033,"lon":5.381522,"is_reserved":false,"is_disabled":false,"rental_uris":{"android":"levelo://app?vid=d8f87953-dab1-49d4-8113-ffc824ef3cdc","ios":"levelo://app?vid=d8f87953-dab1-49d4-8113-ffc824ef3cdc"},"vehicle_type_id":"4","last_reported":1747362987,"current_range_meters":8000,"station_id":"ce4bgt12rcd13ifvqce0","pricing_plan_id":"cebpf4jnsgd1na2vs0mg"},{"bike_id":"563f7fd1-20e2-4752-bc27-030d36cdf7ad","system_id":"levelo_inurba_marseille","lat":43.3056,"lon":5.37265,"is_reserved":false,"is_disabled":false,"rental_uris":{"android":"levelo://app?vid=563f7fd1-20e2-4752-bc27-030d36cdf7ad","ios":"levelo://app?vid=563f7fd1-20e2-4752-bc27-030d36cdf7ad"},"vehicle_type_id":"4","last_reported":1747362987,"current_range_meters":8000,"station_id":"","pricing_plan_id":"cebpf4jnsgd1na2vs0mg"},{"bike_id":"9732b575-01d1-4009-b29b-d5b89fec12e6","system_id":"levelo_inurba_marseille","lat":43.32984,"lon":5.43851,"is_reserved":false,"is_disabled":false,"rental_uris":{"android":"levelo://app?vid=9732b575-01d1-4009-b29b-d5b89fec12e6","ios":"levelo://app?vid=9732b575-01d1-4009-b29b-d5b89fec12e6"},"vehicle_type_id":"4","last_reported":1747362987,"current_range_meters":8000,"station_id":"","pricing_plan_id":"cebpf4jnsgd1na2vs0mg"},{"bike_id":"38a3b32b-5fec-4261-9ad6-676ce6c58781","system_id":"levelo_inurba_marseille","lat":43.28348,"lon":5.381041,"is_reserved":false,"is_disabled":false,"rental_uris":{"android":"levelo://app?vid=38a3b32b-5fec-4261-9ad6-676ce6c58781","ios":"levelo://app?vid=38a3b32b-5fec-4261-9ad6-676ce6c58781"},"vehicle_type_id":"4","last_reported":1747362987,"current_range_meters":8000,"station_id":"ce4bh412rcd13ifvqdr0","pricing_plan_id":"cebpf4jnsgd1na2vs0mg"},{"bike_id":"2aae0152-357c-4f1c-9e4f-5af4b8852b8b","system_id":"levelo_inurba_marseille","lat":43.288418,"lon":5.393178,"is_reserved":false,"is_disabled":false,"rental_uris":{"android":"levelo://app?vid=2aae0152-357c-4f1c-9e4f-5af4b8852b8b","ios":"levelo://app?vid=2aae0152-357c-4f1c-9e4f-5af4b8852b8b"},"vehicle_type_id":"4","last_reported":1747362987,"current_range_meters":8000,"station_id":"ce4bh2p2rcd13ifvqdi0","pricing_plan_id":"cebpf4jnsgd1na2vs0mg"},{"bike_id":"6d66089c-38d2-414d-8480-ce23854be4ce","system_id":"levelo_inurba_marseille","lat":43.288527,"lon":5.358539,"is_reserved":false,"is_disabled":false,"rental_uris":{"android":"levelo://app?vid=6d66089c-38d2-414d-8480-ce23854be4ce","ios":"levelo://app?vid=6d66089c-38d2-414d-8480-ce23854be4ce"},"vehicle_type_id":"4","last_reported":1747362987,"current_range_meters":8400,"station_id":"ce4bhb12rcd13ifvqem0","pricing_plan_id":"cebpf4jnsgd1na2vs0mg"},{"bike_id":"fd368a2c-24ee-4354-aec6-35cb06319654","system_id":"levelo_inurba_marseille","lat":43.32348,"lon":5.38908,"is_reserved":false,"is_disabled":false,"rental_uris":{"android":"levelo://app?vid=fd368a2c-24ee-4354-aec6-35cb06319654","ios":"levelo://app?vid=fd368a2c-24ee-4354-aec6-35cb06319654"},"vehicle_type_id":"4","last_reported":1747362987,"current_range_meters":8400,"station_id":"ce4bhqp2rcd13ifvqhog","pricing_plan_id":"cebpf4jnsgd1na2vs0mg"},{"bike_id":"ab35fab0-eec1-4ad7-b829-9f54175780c6","system_id":"levelo_inurba_marseille","lat":43.28934,"lon":5.36653,"is_reserved":false,"is_disabled":true,"rental_uris":{"android":"levelo://app?vid=ab35fab0-eec1-4ad7-b829-9f54175780c6","ios":"levelo://app?vid=ab35fab0-eec1-4ad7-b829-9f54175780c6"},"vehicle_type_id":"4","last_reported":1747362987,"current_range_meters":8400,"station_id":"ce4bhap2rcd13ifvqek0","pricing_plan_id":"cebpf4jnsgd1na2vs0mg"},{"bike_id":"614a6166-1760-4980-853c-86035facd777","system_id":"levelo_inurba_marseille","lat":43.332135,"lon":5.380029,"is_reserved":false,"is_disabled":false,"rental_uris":{"android":"levelo://app?vid=614a6166-1760-4980-853c-86035facd777","ios":"levelo://app?vid=614a6166-1760-4980-853c-86035facd777"},"vehicle_type_id":"4","last_reported":1747362987,"current_range_meters":8400,"station_id":"","pricing_plan_id":"cebpf4jnsgd1na2vs0mg"},{"bike_id":"9ea91f75-93c9-4b84-9e97-5262b4bcb5ae","system_id":"levelo_inurba_marseille","lat":43.23141,"lon":5.43733,"is_reserved":false,"is_disabled":false,"rental_uris":{"android":"levelo://app?vid=9ea91f75-93c9-4b84-9e97-5262b4bcb5ae","ios":"levelo://app?vid=9ea91f75-93c9-4b84-9e97-5262b4bcb5ae"},"vehicle_type_id":"4","last_reported":1747362987,"current_range_meters":8400,"station_id":"ce4bhmp2rcd13ifvqgog","pricing_plan_id":"cebpf4jnsgd1na2vs0mg"},{"bike_id":"2d868c7d-1773-4908-befa-cd0aaed09d96","system_id":"levelo_inurba_marseille","lat":43.32316,"lon":5.38982,"is_reserved":false,"is_disabled":false,"rental_uris":{"android":"levelo://app?vid=2d868c7d-1773-4908-befa-cd0aaed09d96","ios":"levelo://app?vid=2d868c7d-1773-4908-befa-cd0aaed09d96"},"vehicle_type_id":"4","last_reported":1747362987,"current_range_meters":8400,"station_id":"","pricing_plan_id":"cebpf4jnsgd1na2vs0mg"},{"bike_id":"87bc2b84-3165-427e-af54-92da1fcc5ec5","system_id":"levelo_inurba_marseille","lat":43.308788,"lon":5.396352,"is_reserved":false,"is_disabled":false,"rental_uris":{"android":"levelo://app?vid=87bc2b84-3165-427e-af54-92da1fcc5ec5","ios":"levelo://app?vid=87bc2b84-3165-427e-af54-92da1fcc5ec5"},"vehicle_type_id":"4","last_reported":1747362987,"current_range_meters":8400,"station_id":"ce4bh012rcd13ifvqcv0","pricing_plan_id":"cebpf4jnsgd1na2vs0mg"},{"bike_id":"40ab6c83-31c1-49f5-a421-e056e87e9982","system_id":"levelo_inurba_marseille","lat":43.30419,"lon":5.39769,"is_reserved":false,"is_disabled":false,"rental_uris":{"android":"levelo://app?vid=40ab6c83-31c1-49f5-a421-e056e87e9982","ios":"levelo://app?vid=40ab6c83-31c1-49f5-a421-e056e87e9982"},"vehicle_type_id":"4","last_reported":1747362987,"current_range_meters":8400,"station_id":"ce4bh092rcd13ifvqd20","pricing_plan_id":"cebpf4jnsgd1na2vs0mg"},{"bike_id":"39e99e57-d2aa-4bcc-b275-e65d73c63c65","system_id":"levelo_inurba_marseille","lat":43.297853,"lon":5.393551,"is_reserved":false,"is_disabled":false,"rental_uris":{"android":"levelo://app?vid=39e99e57-d2aa-4bcc-b275-e65d73c63c65","ios":"levelo://app?vid=39e99e57-d2aa-4bcc-b275-e65d73c63c65"},"vehicle_type_id":"4","last_reported":1747362987,"current_range_meters":8400,"station_id":"chh1huq6cuj3fo74tm60","pricing_plan_id":"cebpf4jnsgd1na2vs0mg"},{"bike_id":"229fc86b-c3de-4654-ab69-296f4715cb2f","system_id":"levelo_inurba_marseille","lat":43.24074,"lon":5.377605,"is_reserved":false,"is_disabled":false,"rental_uris":{"android":"levelo://app?vid=229fc86b-c3de-4654-ab69-296f4715cb2f","ios":"levelo://app?vid=229fc86b-c3de-4654-ab69-296f4715cb2f"},"vehicle_type_id":"4","last_reported":1747362987,"current_range_meters":8400,"station_id":"ce4bhnp2rcd13ifvqgvg","pricing_plan_id":"cebpf4jnsgd1na2vs0mg"},{"bike_id":"fde603f4-dad8-44cf-8bf2-2f190df64707","system_id":"levelo_inurba_marseille","lat":43.28441,"lon":5.39174,"is_reserved":false,"is_disabled":false,"rental_uris":{"android":"levelo://app?vid=fde603f4-dad8-44cf-8bf2-2f190df64707","ios":"levelo://app?vid=fde603f4-dad8-44cf-8bf2-2f190df64707"},"vehicle_type_id":"4","last_reported":1747362987,"current_range_meters":8400,"station_id":"ce4bhoh2rcd13ifvqh5g","pricing_plan_id":"cebpf4jnsgd1na2vs0mg"},{"bike_id":"561549a2-798d-4052-830a-279630f71645","system_id":"levelo_inurba_marseille","lat":43.284242,"lon":5.355283,"is_reserved":false,"is_disabled":false,"rental_uris":{"android":"levelo://app?vid=561549a2-798d-4052-830a-279630f71645","ios":"levelo://app?vid=561549a2-798d-4052-830a-279630f71645"},"vehicle_type_id":"4","last_reported":1747362987,"current_range_meters":8400,"station_id":"","pricing_plan_id":"cebpf4jnsgd1na2vs0mg"},{"bike_id":"d82bb45b-4460-4710-a034-27bc4844a2be","system_id":"levelo_inurba_marseille","lat":43.25873,"lon":5.39894,"is_reserved":false,"is_disabled":false,"rental_uris":{"android":"levelo://app?vid=d82bb45b-4460-4710-a034-27bc4844a2be","ios":"levelo://app?vid=d82bb45b-4460-4710-a034-27bc4844a2be"},"vehicle_type_id":"4","last_reported":1747362987,"current_range_meters":8400,"station_id":"ce4bhl92rcd13ifvqghg","pricing_plan_id":"cebpf4jnsgd1na2vs0mg"},{"bike_id":"226fac81-bea8-4bc6-bb83-d6b8fd20efc1","system_id":"levelo_inurba_marseille","lat":43.312262,"lon":5.458993,"is_reserved":false,"is_disabled":false,"rental_uris":{"android":"levelo://app?vid=226fac81-bea8-4bc6-bb83-d6b8fd20efc1","ios":"levelo://app?vid=226fac81-bea8-4bc6-bb83-d6b8fd20efc1"},"vehicle_type_id":"4","last_reported":1747362987,"current_range_meters":8400,"station_id":"","pricing_plan_id":"cebpf4jnsgd1na2vs0mg"},{"bike_id":"b79a285d-c8f5-444f-8fe8-9016a444cdd9","system_id":"levelo_inurba_marseille","lat":43.2898,"lon":5.35615,"is_reserved":false,"is_disabled":true,"rental_uris":{"android":"levelo://app?vid=b79a285d-c8f5-444f-8fe8-9016a444cdd9","ios":"levelo://app?vid=b79a285d-c8f5-444f-8fe8-9016a444cdd9"},"vehicle_type_id":"4","last_reported":1747362987,"current_range_meters":8400,"station_id":"ce4bhb92rcd13ifvqen0","pricing_plan_id":"cebpf4jnsgd1na2vs0mg"},{"bike_id":"dd8c95a3-e969-408f-8089-0e719bc7e6db","system_id":"levelo_inurba_marseille","lat":43.231402,"lon":5.437111,"is_reserved":false,"is_disabled":false,"rental_uris":{"android":"levelo://app?vid=dd8c95a3-e969-408f-8089-0e719bc7e6db","ios":"levelo://app?vid=dd8c95a3-e969-408f-8089-0e719bc7e6db"},"vehicle_type_id":"4","last_reported":1747362987,"current_range_meters":8400,"station_id":"ce4bhmp2rcd13ifvqgog","pricing_plan_id":"cebpf4jnsgd1na2vs0mg"},{"bike_id":"cdc17061-5a6f-437b-a2d6-ebac9cb6a45e","system_id":"levelo_inurba_marseille","lat":43.323349,"lon":5.40616,"is_reserved":false,"is_disabled":false,"rental_uris":{"android":"levelo://app?vid=cdc17061-5a6f-437b-a2d6-ebac9cb6a45e","ios":"levelo://app?vid=cdc17061-5a6f-437b-a2d6-ebac9cb6a45e"},"vehicle_type_id":"4","last_reported":1747362987,"current_range_meters":8400,"station_id":"ce4bhq92rcd13ifvqhjg","pricing_plan_id":"cebpf4jnsgd1na2vs0mg"},{"bike_id":"b131f0d5-6905-4fcb-b71c-3159b3f40acd","system_id":"levelo_inurba_marseille","lat":43.288493,"lon":5.358385,"is_reserved":false,"is_disabled":true,"rental_uris":{"android":"levelo://app?vid=b131f0d5-6905-4fcb-b71c-3159b3f40acd","ios":"levelo://app?vid=b131f0d5-6905-4fcb-b71c-3159b3f40acd"},"vehicle_type_id":"4","last_reported":1747362987,"current_range_meters":8400,"station_id":"ce4bhb12rcd13ifvqem0","pricing_plan_id":"cebpf4jnsgd1na2vs0mg"},{"bike_id":"b2d49357-e00f-4afd-8409-93894b7274fa","system_id":"levelo_inurba_marseille","lat":43.321068,"lon":5.367762,"is_reserved":false,"is_disabled":false,"rental_uris":{"android":"levelo://app?vid=b2d49357-e00f-4afd-8409-93894b7274fa","ios":"levelo://app?vid=b2d49357-e00f-4afd-8409-93894b7274fa"},"vehicle_type_id":"4","last_reported":1747362987,"current_range_meters":8800,"station_id":"ce4bhrh2rcd13ifvqhug","pricing_plan_id":"cebpf4jnsgd1na2vs0mg"},{"bike_id":"d47aa709-16cd-4003-b5f2-52a3f9556c58","system_id":"levelo_inurba_marseille","lat":43.32338,"lon":5.40627,"is_reserved":false,"is_disabled":false,"rental_uris":{"android":"levelo://app?vid=d47aa709-16cd-4003-b5f2-52a3f9556c58","ios":"levelo://app?vid=d47aa709-16cd-4003-b5f2-52a3f9556c58"},"vehicle_type_id":"4","last_reported":1747362987,"current_range_meters":8800,"station_id":"ce4bhq92rcd13ifvqhjg","pricing_plan_id":"cebpf4jnsgd1na2vs0mg"},{"bike_id":"7589aa3c-663d-4b9a-82a9-c7c89bfde8f2","system_id":"levelo_inurba_marseille","lat":43.28406,"lon":5.37514,"is_reserved":false,"is_disabled":false,"rental_uris":{"android":"levelo://app?vid=7589aa3c-663d-4b9a-82a9-c7c89bfde8f2","ios":"levelo://app?vid=7589aa3c-663d-4b9a-82a9-c7c89bfde8f2"},"vehicle_type_id":"4","last_reported":1747362987,"current_range_meters":8800,"station_id":"ce4bh412rcd13ifvqds0","pricing_plan_id":"cebpf4jnsgd1na2vs0mg"},{"bike_id":"d0e083fd-9bb5-4dce-be7c-8f89f30be34c","system_id":"levelo_inurba_marseille","lat":43.30382,"lon":5.42481,"is_reserved":false,"is_disabled":false,"rental_uris":{"android":"levelo://app?vid=d0e083fd-9bb5-4dce-be7c-8f89f30be34c","ios":"levelo://app?vid=d0e083fd-9bb5-4dce-be7c-8f89f30be34c"},"vehicle_type_id":"4","last_reported":1747362987,"current_range_meters":8800,"station_id":"ce4bhoh2rcd13ifvqh6g","pricing_plan_id":"cebpf4jnsgd1na2vs0mg"},{"bike_id":"4e716133-12bd-48ef-8462-cdade112f10c","system_id":"levelo_inurba_marseille","lat":43.271312,"lon":5.400203,"is_reserved":false,"is_disabled":false,"rental_uris":{"android":"levelo://app?vid=4e716133-12bd-48ef-8462-cdade112f10c","ios":"levelo://app?vid=4e716133-12bd-48ef-8462-cdade112f10c"},"vehicle_type_id":"4","last_reported":1747362987,"current_range_meters":8800,"station_id":"","pricing_plan_id":"cebpf4jnsgd1na2vs0mg"},{"bike_id":"0077f398-56b6-43bb-8eeb-9798d08de05c","system_id":"levelo_inurba_marseille","lat":43.30911,"lon":5.37288,"is_reserved":false,"is_disabled":false,"rental_uris":{"android":"levelo://app?vid=0077f398-56b6-43bb-8eeb-9798d08de05c","ios":"levelo://app?vid=0077f398-56b6-43bb-8eeb-9798d08de05c"},"vehicle_type_id":"4","last_reported":1747362987,"current_range_meters":8800,"station_id":"","pricing_plan_id":"cebpf4jnsgd1na2vs0mg"},{"bike_id":"972493ab-7433-4023-ac54-9cb8a520d5ef","system_id":"levelo_inurba_marseille","lat":43.29631,"lon":5.406037,"is_reserved":false,"is_disabled":false,"rental_uris":{"android":"levelo://app?vid=972493ab-7433-4023-ac54-9cb8a520d5ef","ios":"levelo://app?vid=972493ab-7433-4023-ac54-9cb8a520d5ef"},"vehicle_type_id":"4","last_reported":1747362987,"current_range_meters":9200,"station_id":"ce4bh0h2rcd13ifvqd60","pricing_plan_id":"cebpf4jnsgd1na2vs0mg"},{"bike_id":"f768f02c-a770-46ed-b9fb-ed1e435a3c0f","system_id":"levelo_inurba_marseille","lat":43.329451,"lon":5.390074,"is_reserved":false,"is_disabled":false,"rental_uris":{"android":"levelo://app?vid=f768f02c-a770-46ed-b9fb-ed1e435a3c0f","ios":"levelo://app?vid=f768f02c-a770-46ed-b9fb-ed1e435a3c0f"},"vehicle_type_id":"4","last_reported":1747362987,"current_range_meters":9200,"station_id":"","pricing_plan_id":"cebpf4jnsgd1na2vs0mg"},{"bike_id":"7f4fc273-1360-4a47-aa6f-29da663bd116","system_id":"levelo_inurba_marseille","lat":43.248936,"lon":5.394114,"is_reserved":false,"is_disabled":false,"rental_uris":{"android":"levelo://app?vid=7f4fc273-1360-4a47-aa6f-29da663bd116","ios":"levelo://app?vid=7f4fc273-1360-4a47-aa6f-29da663bd116"},"vehicle_type_id":"4","last_reported":1747362987,"current_range_meters":9200,"station_id":"","pricing_plan_id":"cebpf4jnsgd1na2vs0mg"},{"bike_id":"4640dc2a-4b4a-4d2b-8eaf-c45eed80b673","system_id":"levelo_inurba_marseille","lat":43.289415,"lon":5.39619,"is_reserved":false,"is_disabled":false,"rental_uris":{"android":"levelo://app?vid=4640dc2a-4b4a-4d2b-8eaf-c45eed80b673","ios":"levelo://app?vid=4640dc2a-4b4a-4d2b-8eaf-c45eed80b673"},"vehicle_type_id":"4","last_reported":1747362987,"current_range_meters":9200,"station_id":"ce4bh3h2rcd13ifvqdn0","pricing_plan_id":"cebpf4jnsgd1na2vs0mg"},{"bike_id":"a4254f33-dfdc-4beb-9ee4-21271a8a3aac","system_id":"levelo_inurba_marseille","lat":43.304096,"lon":5.412808,"is_reserved":false,"is_disabled":true,"rental_uris":{"android":"levelo://app?vid=a4254f33-dfdc-4beb-9ee4-21271a8a3aac","ios":"levelo://app?vid=a4254f33-dfdc-4beb-9ee4-21271a8a3aac"},"vehicle_type_id":"4","last_reported":1747362987,"current_range_meters":9200,"station_id":"ce4bhop2rcd13ifvqh8g","pricing_plan_id":"cebpf4jnsgd1na2vs0mg"},{"bike_id":"c93872f9-af6d-4d76-a1fc-804b47931d2f","system_id":"levelo_inurba_marseille","lat":43.28073,"lon":5.39641,"is_reserved":false,"is_disabled":false,"rental_uris":{"android":"levelo://app?vid=c93872f9-af6d-4d76-a1fc-804b47931d2f","ios":"levelo://app?vid=c93872f9-af6d-4d76-a1fc-804b47931d2f"},"vehicle_type_id":"4","last_reported":1747362987,"current_range_meters":9200,"station_id":"ce4bho12rcd13ifvqh2g","pricing_plan_id":"cebpf4jnsgd1na2vs0mg"},{"bike_id":"f8708533-c882-424d-919c-8da02599e742","system_id":"levelo_inurba_marseille","lat":43.323589,"lon":5.389145,"is_reserved":false,"is_disabled":false,"rental_uris":{"android":"levelo://app?vid=f8708533-c882-424d-919c-8da02599e742","ios":"levelo://app?vid=f8708533-c882-424d-919c-8da02599e742"},"vehicle_type_id":"4","last_reported":1747362987,"current_range_meters":9600,"station_id":"ce4bhqp2rcd13ifvqhog","pricing_plan_id":"cebpf4jnsgd1na2vs0mg"},{"bike_id":"69395ec3-f2c3-497b-ba6e-ea857b4662d1","system_id":"levelo_inurba_marseille","lat":43.241776,"lon":5.397274,"is_reserved":false,"is_disabled":false,"rental_uris":{"android":"levelo://app?vid=69395ec3-f2c3-497b-ba6e-ea857b4662d1","ios":"levelo://app?vid=69395ec3-f2c3-497b-ba6e-ea857b4662d1"},"vehicle_type_id":"4","last_reported":1747362987,"current_range_meters":9600,"station_id":"ce4bhn12rcd13ifvqgpg","pricing_plan_id":"cebpf4jnsgd1na2vs0mg"},{"bike_id":"004ba9d4-1164-43b7-b212-a33f62c5b053","system_id":"levelo_inurba_marseille","lat":43.262294,"lon":5.404531,"is_reserved":false,"is_disabled":false,"rental_uris":{"android":"levelo://app?vid=004ba9d4-1164-43b7-b212-a33f62c5b053","ios":"levelo://app?vid=004ba9d4-1164-43b7-b212-a33f62c5b053"},"vehicle_type_id":"4","last_reported":1747362987,"current_range_meters":9600,"station_id":"ce4bhmh2rcd13ifvqgmg","pricing_plan_id":"cebpf4jnsgd1na2vs0mg"},{"bike_id":"ba8fb352-1c04-4045-bcb3-375b5491f432","system_id":"levelo_inurba_marseille","lat":43.28064,"lon":5.39677,"is_reserved":false,"is_disabled":false,"rental_uris":{"android":"levelo://app?vid=ba8fb352-1c04-4045-bcb3-375b5491f432","ios":"levelo://app?vid=ba8fb352-1c04-4045-bcb3-375b5491f432"},"vehicle_type_id":"4","last_reported":1747362987,"current_range_meters":9600,"station_id":"ce4bho12rcd13ifvqh2g","pricing_plan_id":"cebpf4jnsgd1na2vs0mg"},{"bike_id":"15577d04-3e2b-4f99-afaa-ef9ba2ad9697","system_id":"levelo_inurba_marseille","lat":43.25828,"lon":5.39425,"is_reserved":false,"is_disabled":false,"rental_uris":{"android":"levelo://app?vid=15577d04-3e2b-4f99-afaa-ef9ba2ad9697","ios":"levelo://app?vid=15577d04-3e2b-4f99-afaa-ef9ba2ad9697"},"vehicle_type_id":"4","last_reported":1747362987,"current_range_meters":9600,"station_id":"ce4bhip2rcd13ifvqft0","pricing_plan_id":"cebpf4jnsgd1na2vs0mg"},{"bike_id":"0a2c8b94-8737-4074-8da5-a615979a85ea","system_id":"levelo_inurba_marseille","lat":43.278154,"lon":5.407261,"is_reserved":false,"is_disabled":false,"rental_uris":{"android":"levelo://app?vid=0a2c8b94-8737-4074-8da5-a615979a85ea","ios":"levelo://app?vid=0a2c8b94-8737-4074-8da5-a615979a85ea"},"vehicle_type_id":"4","last_reported":1747362987,"current_range_meters":9600,"station_id":"ce4bhnh2rcd13ifvqgtg","pricing_plan_id":"cebpf4jnsgd1na2vs0mg"},{"bike_id":"f3a72af1-1864-4f80-b643-9506010f65f6","system_id":"levelo_inurba_marseille","lat":43.2871,"lon":5.37397,"is_reserved":false,"is_disabled":false,"rental_uris":{"android":"levelo://app?vid=f3a72af1-1864-4f80-b643-9506010f65f6","ios":"levelo://app?vid=f3a72af1-1864-4f80-b643-9506010f65f6"},"vehicle_type_id":"4","last_reported":1747362987,"current_range_meters":9600,"station_id":"ce4bh3p2rcd13ifvqdq0","pricing_plan_id":"cebpf4jnsgd1na2vs0mg"},{"bike_id":"502ae137-9adc-44c5-b255-4d39394af312","system_id":"levelo_inurba_marseille","lat":43.287013,"lon":5.399706,"is_reserved":false,"is_disabled":false,"rental_uris":{"android":"levelo://app?vid=502ae137-9adc-44c5-b255-4d39394af312","ios":"levelo://app?vid=502ae137-9adc-44c5-b255-4d39394af312"},"vehicle_type_id":"4","last_reported":1747362987,"current_range_meters":9600,"station_id":"ce4bho92rcd13ifvqh3g","pricing_plan_id":"cebpf4jnsgd1na2vs0mg"},{"bike_id":"0a746833-682c-445b-b7b5-7221a9b34c61","system_id":"levelo_inurba_marseille","lat":43.305902,"lon":5.372705,"is_reserved":false,"is_disabled":false,"rental_uris":{"android":"levelo://app?vid=0a746833-682c-445b-b7b5-7221a9b34c61","ios":"levelo://app?vid=0a746833-682c-445b-b7b5-7221a9b34c61"},"vehicle_type_id":"4","last_reported":1747362987,"current_range_meters":9600,"station_id":"ce4bgqh2rcd13ifvqc4g","pricing_plan_id":"cebpf4jnsgd1na2vs0mg"},{"bike_id":"0db5f8ec-4da2-4021-b8ac-4ed9f21bf3ed","system_id":"levelo_inurba_marseille","lat":43.30927,"lon":5.401473,"is_reserved":false,"is_disabled":false,"rental_uris":{"android":"levelo://app?vid=0db5f8ec-4da2-4021-b8ac-4ed9f21bf3ed","ios":"levelo://app?vid=0db5f8ec-4da2-4021-b8ac-4ed9f21bf3ed"},"vehicle_type_id":"4","last_reported":1747362987,"current_range_meters":9600,"station_id":"ce4bgvp2rcd13ifvqct0","pricing_plan_id":"cebpf4jnsgd1na2vs0mg"},{"bike_id":"e2e8437d-242f-4cda-8001-7a4b1ad489f2","system_id":"levelo_inurba_marseille","lat":43.27489,"lon":5.42466,"is_reserved":false,"is_disabled":false,"rental_uris":{"android":"levelo://app?vid=e2e8437d-242f-4cda-8001-7a4b1ad489f2","ios":"levelo://app?vid=e2e8437d-242f-4cda-8001-7a4b1ad489f2"},"vehicle_type_id":"4","last_reported":1747362987,"current_range_meters":9600,"station_id":"ce4bhn92rcd13ifvqgrg","pricing_plan_id":"cebpf4jnsgd1na2vs0mg"},{"bike_id":"ab4e5a85-0ffe-4a65-9b04-ab3547a82031","system_id":"levelo_inurba_marseille","lat":43.241798,"lon":5.397314,"is_reserved":false,"is_disabled":false,"rental_uris":{"android":"levelo://app?vid=ab4e5a85-0ffe-4a65-9b04-ab3547a82031","ios":"levelo://app?vid=ab4e5a85-0ffe-4a65-9b04-ab3547a82031"},"vehicle_type_id":"4","last_reported":1747362987,"current_range_meters":10000,"station_id":"ce4bhn12rcd13ifvqgpg","pricing_plan_id":"cebpf4jnsgd1na2vs0mg"},{"bike_id":"baaf7988-4492-448e-a326-3fd1a246917b","system_id":"levelo_inurba_marseille","lat":43.30928,"lon":5.40155,"is_reserved":false,"is_disabled":false,"rental_uris":{"android":"levelo://app?vid=baaf7988-4492-448e-a326-3fd1a246917b","ios":"levelo://app?vid=baaf7988-4492-448e-a326-3fd1a246917b"},"vehicle_type_id":"4","last_reported":1747362987,"current_range_meters":10000,"station_id":"ce4bgvp2rcd13ifvqct0","pricing_plan_id":"cebpf4jnsgd1na2vs0mg"},{"bike_id":"31bedb95-5fc4-4b24-91b1-10c9cd7506c0","system_id":"levelo_inurba_marseille","lat":43.25826,"lon":5.39419,"is_reserved":false,"is_disabled":false,"rental_uris":{"android":"levelo://app?vid=31bedb95-5fc4-4b24-91b1-10c9cd7506c0","ios":"levelo://app?vid=31bedb95-5fc4-4b24-91b1-10c9cd7506c0"},"vehicle_type_id":"4","last_reported":1747362987,"current_range_meters":10000,"station_id":"ce4bhip2rcd13ifvqft0","pricing_plan_id":"cebpf4jnsgd1na2vs0mg"},{"bike_id":"01638126-3c79-4aa8-b344-42085231ebd4","system_id":"levelo_inurba_marseille","lat":43.34161,"lon":5.40906,"is_reserved":false,"is_disabled":false,"rental_uris":{"android":"levelo://app?vid=01638126-3c79-4aa8-b344-42085231ebd4","ios":"levelo://app?vid=01638126-3c79-4aa8-b344-42085231ebd4"},"vehicle_type_id":"4","last_reported":1747362987,"current_range_meters":10000,"station_id":"ce4bhqh2rcd13ifvqhlg","pricing_plan_id":"cebpf4jnsgd1na2vs0mg"},{"bike_id":"04539c87-76eb-4b45-a743-515c3df3ab81","system_id":"levelo_inurba_marseille","lat":43.28337,"lon":5.38103,"is_reserved":false,"is_disabled":false,"rental_uris":{"android":"levelo://app?vid=04539c87-76eb-4b45-a743-515c3df3ab81","ios":"levelo://app?vid=04539c87-76eb-4b45-a743-515c3df3ab81"},"vehicle_type_id":"4","last_reported":1747362987,"current_range_meters":10000,"station_id":"ce4bh412rcd13ifvqdr0","pricing_plan_id":"cebpf4jnsgd1na2vs0mg"},{"bike_id":"238d7f52-41a9-4d4e-836b-955a6b2dfec8","system_id":"levelo_inurba_marseille","lat":43.281589,"lon":5.426325,"is_reserved":false,"is_disabled":false,"rental_uris":{"android":"levelo://app?vid=238d7f52-41a9-4d4e-836b-955a6b2dfec8","ios":"levelo://app?vid=238d7f52-41a9-4d4e-836b-955a6b2dfec8"},"vehicle_type_id":"4","last_reported":1747362987,"current_range_meters":10000,"station_id":"ce4bhnh2rcd13ifvqgug","pricing_plan_id":"cebpf4jnsgd1na2vs0mg"},{"bike_id":"e88cbd11-af4e-4765-a683-722a5c39965c","system_id":"levelo_inurba_marseille","lat":43.283453,"lon":5.381099,"is_reserved":false,"is_disabled":false,"rental_uris":{"android":"levelo://app?vid=e88cbd11-af4e-4765-a683-722a5c39965c","ios":"levelo://app?vid=e88cbd11-af4e-4765-a683-722a5c39965c"},"vehicle_type_id":"4","last_reported":1747362987,"current_range_meters":10000,"station_id":"ce4bh412rcd13ifvqdr0","pricing_plan_id":"cebpf4jnsgd1na2vs0mg"},{"bike_id":"bae798e7-633e-435d-a723-56b6d5503baf","system_id":"levelo_inurba_marseille","lat":43.296037,"lon":5.377203,"is_reserved":false,"is_disabled":true,"rental_uris":{"android":"levelo://app?vid=bae798e7-633e-435d-a723-56b6d5503baf","ios":"levelo://app?vid=bae798e7-633e-435d-a723-56b6d5503baf"},"vehicle_type_id":"4","last_reported":1747362987,"current_range_meters":10000,"station_id":"ce4bgi92rcd13ifvqb90","pricing_plan_id":"cebpf4jnsgd1na2vs0mg"},{"bike_id":"695ee1bf-f908-43ef-b5f9-177f0297b131","system_id":"levelo_inurba_marseille","lat":43.29272,"lon":5.3684,"is_reserved":false,"is_disabled":true,"rental_uris":{"android":"levelo://app?vid=695ee1bf-f908-43ef-b5f9-177f0297b131","ios":"levelo://app?vid=695ee1bf-f908-43ef-b5f9-177f0297b131"},"vehicle_type_id":"4","last_reported":1747362987,"current_range_meters":10800,"station_id":"ce4bhbp2rcd13ifvqesg","pricing_plan_id":"cebpf4jnsgd1na2vs0mg"},{"bike_id":"bd3e560c-5b08-4cd6-bcf6-7477897c3a0d","system_id":"levelo_inurba_marseille","lat":43.32481,"lon":5.36568,"is_reserved":false,"is_disabled":true,"rental_uris":{"android":"levelo://app?vid=bd3e560c-5b08-4cd6-bcf6-7477897c3a0d","ios":"levelo://app?vid=bd3e560c-5b08-4cd6-bcf6-7477897c3a0d"},"vehicle_type_id":"4","last_reported":1747362987,"current_range_meters":10800,"station_id":"ce4bhs12rcd13ifvqhvg","pricing_plan_id":"cebpf4jnsgd1na2vs0mg"},{"bike_id":"e64e4484-2db6-41f4-beb8-e0c0ae1263cd","system_id":"levelo_inurba_marseille","lat":43.285209,"lon":5.430316,"is_reserved":false,"is_disabled":false,"rental_uris":{"android":"levelo://app?vid=e64e4484-2db6-41f4-beb8-e0c0ae1263cd","ios":"levelo://app?vid=e64e4484-2db6-41f4-beb8-e0c0ae1263cd"},"vehicle_type_id":"4","last_reported":1747362987,"current_range_meters":10800,"station_id":"","pricing_plan_id":"cebpf4jnsgd1na2vs0mg"},{"bike_id":"419fd523-3f13-4ce0-b66c-77e0fec9f9af","system_id":"levelo_inurba_marseille","lat":43.308802,"lon":5.396347,"is_reserved":false,"is_disabled":false,"rental_uris":{"android":"levelo://app?vid=419fd523-3f13-4ce0-b66c-77e0fec9f9af","ios":"levelo://app?vid=419fd523-3f13-4ce0-b66c-77e0fec9f9af"},"vehicle_type_id":"4","last_reported":1747362987,"current_range_meters":10800,"station_id":"ce4bh012rcd13ifvqcv0","pricing_plan_id":"cebpf4jnsgd1na2vs0mg"},{"bike_id":"947a60c4-d49a-4d6a-89d8-6b9a9ad0e616","system_id":"levelo_inurba_marseille","lat":43.288601,"lon":5.393221,"is_reserved":false,"is_disabled":true,"rental_uris":{"android":"levelo://app?vid=947a60c4-d49a-4d6a-89d8-6b9a9ad0e616","ios":"levelo://app?vid=947a60c4-d49a-4d6a-89d8-6b9a9ad0e616"},"vehicle_type_id":"4","last_reported":1747362987,"current_range_meters":10800,"station_id":"ce4bh2p2rcd13ifvqdi0","pricing_plan_id":"cebpf4jnsgd1na2vs0mg"},{"bike_id":"f59a5dc9-fa70-4166-b2da-6492441f0daf","system_id":"levelo_inurba_marseille","lat":43.309355,"lon":5.401468,"is_reserved":false,"is_disabled":false,"rental_uris":{"android":"levelo://app?vid=f59a5dc9-fa70-4166-b2da-6492441f0daf","ios":"levelo://app?vid=f59a5dc9-fa70-4166-b2da-6492441f0daf"},"vehicle_type_id":"4","last_reported":1747362987,"current_range_meters":10800,"station_id":"ce4bgvp2rcd13ifvqct0","pricing_plan_id":"cebpf4jnsgd1na2vs0mg"},{"bike_id":"f8e4732a-2ecf-431c-8f66-abc7aabb8aa1","system_id":"levelo_inurba_marseille","lat":43.32947,"lon":5.39007,"is_reserved":false,"is_disabled":false,"rental_uris":{"android":"levelo://app?vid=f8e4732a-2ecf-431c-8f66-abc7aabb8aa1","ios":"levelo://app?vid=f8e4732a-2ecf-431c-8f66-abc7aabb8aa1"},"vehicle_type_id":"4","last_reported":1747362987,"current_range_meters":10800,"station_id":"","pricing_plan_id":"cebpf4jnsgd1na2vs0mg"},{"bike_id":"f2296022-863e-4d67-b293-a8f5a5e9dfb7","system_id":"levelo_inurba_marseille","lat":43.32347,"lon":5.40617,"is_reserved":false,"is_disabled":false,"rental_uris":{"android":"levelo://app?vid=f2296022-863e-4d67-b293-a8f5a5e9dfb7","ios":"levelo://app?vid=f2296022-863e-4d67-b293-a8f5a5e9dfb7"},"vehicle_type_id":"4","last_reported":1747362987,"current_range_meters":10800,"station_id":"ce4bhq92rcd13ifvqhjg","pricing_plan_id":"cebpf4jnsgd1na2vs0mg"},{"bike_id":"86f6a583-8115-47db-928c-9eea2b5263ea","system_id":"levelo_inurba_marseille","lat":43.281693,"lon":5.426371,"is_reserved":false,"is_disabled":false,"rental_uris":{"android":"levelo://app?vid=86f6a583-8115-47db-928c-9eea2b5263ea","ios":"levelo://app?vid=86f6a583-8115-47db-928c-9eea2b5263ea"},"vehicle_type_id":"4","last_reported":1747362987,"current_range_meters":10800,"station_id":"ce4bhnh2rcd13ifvqgug","pricing_plan_id":"cebpf4jnsgd1na2vs0mg"},{"bike_id":"8ae19a14-17a7-4943-a3f2-92683c4d9a25","system_id":"levelo_inurba_marseille","lat":43.28667,"lon":5.36346,"is_reserved":false,"is_disabled":false,"rental_uris":{"android":"levelo://app?vid=8ae19a14-17a7-4943-a3f2-92683c4d9a25","ios":"levelo://app?vid=8ae19a14-17a7-4943-a3f2-92683c4d9a25"},"vehicle_type_id":"4","last_reported":1747362987,"current_range_meters":11200,"station_id":"ce4bhah2rcd13ifvqej0","pricing_plan_id":"cebpf4jnsgd1na2vs0mg"},{"bike_id":"d3e2639b-7c24-412b-b298-8de52b944a1a","system_id":"levelo_inurba_marseille","lat":43.279405,"lon":5.410459,"is_reserved":false,"is_disabled":false,"rental_uris":{"android":"levelo://app?vid=d3e2639b-7c24-412b-b298-8de52b944a1a","ios":"levelo://app?vid=d3e2639b-7c24-412b-b298-8de52b944a1a"},"vehicle_type_id":"4","last_reported":1747362987,"current_range_meters":11200,"station_id":"ce4bhnp2rcd13ifvqh0g","pricing_plan_id":"cebpf4jnsgd1na2vs0mg"},{"bike_id":"102ba7d0-c8d3-4ada-a300-823c56b04f6d","system_id":"levelo_inurba_marseille","lat":43.28845,"lon":5.39315,"is_reserved":false,"is_disabled":false,"rental_uris":{"android":"levelo://app?vid=102ba7d0-c8d3-4ada-a300-823c56b04f6d","ios":"levelo://app?vid=102ba7d0-c8d3-4ada-a300-823c56b04f6d"},"vehicle_type_id":"4","last_reported":1747362987,"current_range_meters":11200,"station_id":"ce4bh2p2rcd13ifvqdi0","pricing_plan_id":"cebpf4jnsgd1na2vs0mg"},{"bike_id":"ca45ddcd-6a0e-4b93-a7a2-262f4ee54cf8","system_id":"levelo_inurba_marseille","lat":43.284206,"lon":5.375143,"is_reserved":false,"is_disabled":false,"rental_uris":{"android":"levelo://app?vid=ca45ddcd-6a0e-4b93-a7a2-262f4ee54cf8","ios":"levelo://app?vid=ca45ddcd-6a0e-4b93-a7a2-262f4ee54cf8"},"vehicle_type_id":"4","last_reported":1747362987,"current_range_meters":11200,"station_id":"ce4bh412rcd13ifvqds0","pricing_plan_id":"cebpf4jnsgd1na2vs0mg"},{"bike_id":"fee57ca9-32ee-4370-941b-c1edf28c6665","system_id":"levelo_inurba_marseille","lat":43.257179,"lon":5.411119,"is_reserved":false,"is_disabled":true,"rental_uris":{"android":"levelo://app?vid=fee57ca9-32ee-4370-941b-c1edf28c6665","ios":"levelo://app?vid=fee57ca9-32ee-4370-941b-c1edf28c6665"},"vehicle_type_id":"4","last_reported":1747362987,"current_range_meters":11200,"station_id":"ce4bhkp2rcd13ifvqgd0","pricing_plan_id":"cebpf4jnsgd1na2vs0mg"},{"bike_id":"237cae25-7a61-4f02-b20f-f00c1bedf897","system_id":"levelo_inurba_marseille","lat":43.27837,"lon":5.40724,"is_reserved":false,"is_disabled":false,"rental_uris":{"android":"levelo://app?vid=237cae25-7a61-4f02-b20f-f00c1bedf897","ios":"levelo://app?vid=237cae25-7a61-4f02-b20f-f00c1bedf897"},"vehicle_type_id":"4","last_reported":1747362987,"current_range_meters":11200,"station_id":"ce4bhnh2rcd13ifvqgtg","pricing_plan_id":"cebpf4jnsgd1na2vs0mg"},{"bike_id":"5e9c256c-5924-429a-8881-15754df58b57","system_id":"levelo_inurba_marseille","lat":43.28401,"lon":5.37543,"is_reserved":false,"is_disabled":false,"rental_uris":{"android":"levelo://app?vid=5e9c256c-5924-429a-8881-15754df58b57","ios":"levelo://app?vid=5e9c256c-5924-429a-8881-15754df58b57"},"vehicle_type_id":"4","last_reported":1747362987,"current_range_meters":11200,"station_id":"ce4bh412rcd13ifvqds0","pricing_plan_id":"cebpf4jnsgd1na2vs0mg"},{"bike_id":"e2c1c43f-fcb7-45da-b7de-c301dbee091a","system_id":"levelo_inurba_marseille","lat":43.311606,"lon":5.387339,"is_reserved":false,"is_disabled":false,"rental_uris":{"android":"levelo://app?vid=e2c1c43f-fcb7-45da-b7de-c301dbee091a","ios":"levelo://app?vid=e2c1c43f-fcb7-45da-b7de-c301dbee091a"},"vehicle_type_id":"4","last_reported":1747362987,"current_range_meters":11600,"station_id":"ce4bgv12rcd13ifvqcp0","pricing_plan_id":"cebpf4jnsgd1na2vs0mg"},{"bike_id":"c84a0417-89cc-4faa-9354-122740b51444","system_id":"levelo_inurba_marseille","lat":43.281093,"lon":5.378378,"is_reserved":false,"is_disabled":false,"rental_uris":{"android":"levelo://app?vid=c84a0417-89cc-4faa-9354-122740b51444","ios":"levelo://app?vid=c84a0417-89cc-4faa-9354-122740b51444"},"vehicle_type_id":"4","last_reported":1747362987,"current_range_meters":11600,"station_id":"ce4bha12rcd13ifvqee0","pricing_plan_id":"cebpf4jnsgd1na2vs0mg"},{"bike_id":"027f72d8-88c3-409a-9f83-3afde0954f18","system_id":"levelo_inurba_marseille","lat":43.30249,"lon":5.397075,"is_reserved":false,"is_disabled":false,"rental_uris":{"android":"levelo://app?vid=027f72d8-88c3-409a-9f83-3afde0954f18","ios":"levelo://app?vid=027f72d8-88c3-409a-9f83-3afde0954f18"},"vehicle_type_id":"4","last_reported":1747362987,"current_range_meters":11600,"station_id":"","pricing_plan_id":"cebpf4jnsgd1na2vs0mg"},{"bike_id":"33455283-49e5-4099-bfe7-352c0548a88b","system_id":"levelo_inurba_marseille","lat":43.26555,"lon":5.39019,"is_reserved":false,"is_disabled":false,"rental_uris":{"android":"levelo://app?vid=33455283-49e5-4099-bfe7-352c0548a88b","ios":"levelo://app?vid=33455283-49e5-4099-bfe7-352c0548a88b"},"vehicle_type_id":"4","last_reported":1747362987,"current_range_meters":11600,"station_id":"ce4bhe12rcd13ifvqf30","pricing_plan_id":"cebpf4jnsgd1na2vs0mg"},{"bike_id":"a15f8fdb-454f-46a9-bc40-186f54d4cbe9","system_id":"levelo_inurba_marseille","lat":43.283449,"lon":5.381009,"is_reserved":false,"is_disabled":false,"rental_uris":{"android":"levelo://app?vid=a15f8fdb-454f-46a9-bc40-186f54d4cbe9","ios":"levelo://app?vid=a15f8fdb-454f-46a9-bc40-186f54d4cbe9"},"vehicle_type_id":"4","last_reported":1747362987,"current_range_meters":11600,"station_id":"ce4bh412rcd13ifvqdr0","pricing_plan_id":"cebpf4jnsgd1na2vs0mg"},{"bike_id":"5879f203-1394-47e0-9f75-7c405ac331f5","system_id":"levelo_inurba_marseille","lat":43.323658,"lon":5.388851,"is_reserved":false,"is_disabled":false,"rental_uris":{"android":"levelo://app?vid=5879f203-1394-47e0-9f75-7c405ac331f5","ios":"levelo://app?vid=5879f203-1394-47e0-9f75-7c405ac331f5"},"vehicle_type_id":"4","last_reported":1747362987,"current_range_meters":11600,"station_id":"ce4bhqp2rcd13ifvqhog","pricing_plan_id":"cebpf4jnsgd1na2vs0mg"},{"bike_id":"794cd42f-3547-42be-b98c-dbbbf9bfccfa","system_id":"levelo_inurba_marseille","lat":43.31082,"lon":5.42444,"is_reserved":false,"is_disabled":false,"rental_uris":{"android":"levelo://app?vid=794cd42f-3547-42be-b98c-dbbbf9bfccfa","ios":"levelo://app?vid=794cd42f-3547-42be-b98c-dbbbf9bfccfa"},"vehicle_type_id":"4","last_reported":1747362987,"current_range_meters":12000,"station_id":"ce4bhp92rcd13ifvqhag","pricing_plan_id":"cebpf4jnsgd1na2vs0mg"},{"bike_id":"46a3e2c1-f297-4f25-9c99-f961a1accd8c","system_id":"levelo_inurba_marseille","lat":43.331365,"lon":5.391318,"is_reserved":false,"is_disabled":false,"rental_uris":{"android":"levelo://app?vid=46a3e2c1-f297-4f25-9c99-f961a1accd8c","ios":"levelo://app?vid=46a3e2c1-f297-4f25-9c99-f961a1accd8c"},"vehicle_type_id":"4","last_reported":1747362987,"current_range_meters":12000,"station_id":"","pricing_plan_id":"cebpf4jnsgd1na2vs0mg"},{"bike_id":"36c15da9-72ef-4d74-8da9-d5f01d0436f0","system_id":"levelo_inurba_marseille","lat":43.31073,"lon":5.3834,"is_reserved":false,"is_disabled":false,"rental_uris":{"android":"levelo://app?vid=36c15da9-72ef-4d74-8da9-d5f01d0436f0","ios":"levelo://app?vid=36c15da9-72ef-4d74-8da9-d5f01d0436f0"},"vehicle_type_id":"4","last_reported":1747362987,"current_range_meters":12000,"station_id":"ce4bgv92rcd13ifvqcr0","pricing_plan_id":"cebpf4jnsgd1na2vs0mg"},{"bike_id":"9ddfeeff-43a1-46c2-bb2e-57596e41838f","system_id":"levelo_inurba_marseille","lat":43.32324,"lon":5.40618,"is_reserved":false,"is_disabled":false,"rental_uris":{"android":"levelo://app?vid=9ddfeeff-43a1-46c2-bb2e-57596e41838f","ios":"levelo://app?vid=9ddfeeff-43a1-46c2-bb2e-57596e41838f"},"vehicle_type_id":"4","last_reported":1747362987,"current_range_meters":12000,"station_id":"ce4bhq92rcd13ifvqhjg","pricing_plan_id":"cebpf4jnsgd1na2vs0mg"},{"bike_id":"31869b99-0b0b-42a6-86ca-41bf6b86bbcf","system_id":"levelo_inurba_marseille","lat":43.30801,"lon":5.38165,"is_reserved":false,"is_disabled":false,"rental_uris":{"android":"levelo://app?vid=31869b99-0b0b-42a6-86ca-41bf6b86bbcf","ios":"levelo://app?vid=31869b99-0b0b-42a6-86ca-41bf6b86bbcf"},"vehicle_type_id":"4","last_reported":1747362987,"current_range_meters":12000,"station_id":"ce4bgt12rcd13ifvqce0","pricing_plan_id":"cebpf4jnsgd1na2vs0mg"},{"bike_id":"9c15c27f-fcd9-46c8-8f2a-d98c46ce8a5c","system_id":"levelo_inurba_marseille","lat":43.287005,"lon":5.39982,"is_reserved":false,"is_disabled":false,"rental_uris":{"android":"levelo://app?vid=9c15c27f-fcd9-46c8-8f2a-d98c46ce8a5c","ios":"levelo://app?vid=9c15c27f-fcd9-46c8-8f2a-d98c46ce8a5c"},"vehicle_type_id":"4","last_reported":1747362987,"current_range_meters":12000,"station_id":"ce4bho92rcd13ifvqh3g","pricing_plan_id":"cebpf4jnsgd1na2vs0mg"},{"bike_id":"f86bff49-f428-42a7-96af-ace44757dd4a","system_id":"levelo_inurba_marseille","lat":43.337713,"lon":5.374659,"is_reserved":false,"is_disabled":false,"rental_uris":{"android":"levelo://app?vid=f86bff49-f428-42a7-96af-ace44757dd4a","ios":"levelo://app?vid=f86bff49-f428-42a7-96af-ace44757dd4a"},"vehicle_type_id":"4","last_reported":1747362987,"current_range_meters":12000,"station_id":"","pricing_plan_id":"cebpf4jnsgd1na2vs0mg"},{"bike_id":"bc7cb02a-3bbc-4a14-8946-f8a7e8400647","system_id":"levelo_inurba_marseille","lat":43.313234,"lon":5.397136,"is_reserved":false,"is_disabled":false,"rental_uris":{"android":"levelo://app?vid=bc7cb02a-3bbc-4a14-8946-f8a7e8400647","ios":"levelo://app?vid=bc7cb02a-3bbc-4a14-8946-f8a7e8400647"},"vehicle_type_id":"4","last_reported":1747362987,"current_range_meters":12000,"station_id":"ce4bgvp2rcd13ifvqcu0","pricing_plan_id":"cebpf4jnsgd1na2vs0mg"},{"bike_id":"c0b9fd4f-e181-46ce-b0bf-f5119973334f","system_id":"levelo_inurba_marseille","lat":43.33771,"lon":5.37424,"is_reserved":false,"is_disabled":false,"rental_uris":{"android":"levelo://app?vid=c0b9fd4f-e181-46ce-b0bf-f5119973334f","ios":"levelo://app?vid=c0b9fd4f-e181-46ce-b0bf-f5119973334f"},"vehicle_type_id":"4","last_reported":1747362987,"current_range_meters":12000,"station_id":"","pricing_plan_id":"cebpf4jnsgd1na2vs0mg"},{"bike_id":"84e661be-7aee-41c2-88b8-b181c61b3046","system_id":"levelo_inurba_marseille","lat":43.32646,"lon":5.41004,"is_reserved":false,"is_disabled":false,"rental_uris":{"android":"levelo://app?vid=84e661be-7aee-41c2-88b8-b181c61b3046","ios":"levelo://app?vid=84e661be-7aee-41c2-88b8-b181c61b3046"},"vehicle_type_id":"4","last_reported":1747362987,"current_range_meters":12400,"station_id":"ce4bhpp2rcd13ifvqhgg","pricing_plan_id":"cebpf4jnsgd1na2vs0mg"},{"bike_id":"1f40b1c8-404d-4fd1-bb32-88fb923bca3f","system_id":"levelo_inurba_marseille","lat":43.297866,"lon":5.393462,"is_reserved":false,"is_disabled":false,"rental_uris":{"android":"levelo://app?vid=1f40b1c8-404d-4fd1-bb32-88fb923bca3f","ios":"levelo://app?vid=1f40b1c8-404d-4fd1-bb32-88fb923bca3f"},"vehicle_type_id":"4","last_reported":1747362987,"current_range_meters":12400,"station_id":"chh1huq6cuj3fo74tm60","pricing_plan_id":"cebpf4jnsgd1na2vs0mg"},{"bike_id":"979ea68a-f75c-4dbb-ab4d-632ab323d0a7","system_id":"levelo_inurba_marseille","lat":43.28479,"lon":5.38569,"is_reserved":false,"is_disabled":false,"rental_uris":{"android":"levelo://app?vid=979ea68a-f75c-4dbb-ab4d-632ab323d0a7","ios":"levelo://app?vid=979ea68a-f75c-4dbb-ab4d-632ab323d0a7"},"vehicle_type_id":"4","last_reported":1747362987,"current_range_meters":12400,"station_id":"ce4bh8p2rcd13ifvqeb0","pricing_plan_id":"cebpf4jnsgd1na2vs0mg"},{"bike_id":"a47c17a4-dff5-4a09-b71d-f2a0a7a70749","system_id":"levelo_inurba_marseille","lat":43.31079,"lon":5.37791,"is_reserved":false,"is_disabled":false,"rental_uris":{"android":"levelo://app?vid=a47c17a4-dff5-4a09-b71d-f2a0a7a70749","ios":"levelo://app?vid=a47c17a4-dff5-4a09-b71d-f2a0a7a70749"},"vehicle_type_id":"4","last_reported":1747362987,"current_range_meters":12400,"station_id":"ce4bgt92rcd13ifvqcg0","pricing_plan_id":"cebpf4jnsgd1na2vs0mg"},{"bike_id":"c1fd6ccf-6a05-4dd5-8978-7b6e9911b7d4","system_id":"levelo_inurba_marseille","lat":43.28639,"lon":5.36382,"is_reserved":false,"is_disabled":false,"rental_uris":{"android":"levelo://app?vid=c1fd6ccf-6a05-4dd5-8978-7b6e9911b7d4","ios":"levelo://app?vid=c1fd6ccf-6a05-4dd5-8978-7b6e9911b7d4"},"vehicle_type_id":"4","last_reported":1747362987,"current_range_meters":12800,"station_id":"ce4bhah2rcd13ifvqej0","pricing_plan_id":"cebpf4jnsgd1na2vs0mg"},{"bike_id":"fb9f99d3-3602-46e5-9bb8-30be40fa9d14","system_id":"levelo_inurba_marseille","lat":43.297888,"lon":5.393467,"is_reserved":false,"is_disabled":false,"rental_uris":{"android":"levelo://app?vid=fb9f99d3-3602-46e5-9bb8-30be40fa9d14","ios":"levelo://app?vid=fb9f99d3-3602-46e5-9bb8-30be40fa9d14"},"vehicle_type_id":"4","last_reported":1747362987,"current_range_meters":12800,"station_id":"chh1huq6cuj3fo74tm60","pricing_plan_id":"cebpf4jnsgd1na2vs0mg"},{"bike_id":"39c7c348-baf3-417a-8df3-30f456f5c866","system_id":"levelo_inurba_marseille","lat":43.321033,"lon":5.367699,"is_reserved":false,"is_disabled":false,"rental_uris":{"android":"levelo://app?vid=39c7c348-baf3-417a-8df3-30f456f5c866","ios":"levelo://app?vid=39c7c348-baf3-417a-8df3-30f456f5c866"},"vehicle_type_id":"4","last_reported":1747362987,"current_range_meters":12800,"station_id":"ce4bhrh2rcd13ifvqhug","pricing_plan_id":"cebpf4jnsgd1na2vs0mg"},{"bike_id":"a488853e-8708-42f9-a9f1-40f4dc62e03d","system_id":"levelo_inurba_marseille","lat":43.30544,"lon":5.373135,"is_reserved":false,"is_disabled":false,"rental_uris":{"android":"levelo://app?vid=a488853e-8708-42f9-a9f1-40f4dc62e03d","ios":"levelo://app?vid=a488853e-8708-42f9-a9f1-40f4dc62e03d"},"vehicle_type_id":"4","last_reported":1747362987,"current_range_meters":12800,"station_id":"","pricing_plan_id":"cebpf4jnsgd1na2vs0mg"},{"bike_id":"1bb78060-a6e9-4acd-89d4-b46f06f7121b","system_id":"levelo_inurba_marseille","lat":43.303244,"lon":5.404424,"is_reserved":false,"is_disabled":false,"rental_uris":{"android":"levelo://app?vid=1bb78060-a6e9-4acd-89d4-b46f06f7121b","ios":"levelo://app?vid=1bb78060-a6e9-4acd-89d4-b46f06f7121b"},"vehicle_type_id":"4","last_reported":1747362987,"current_range_meters":12800,"station_id":"ce4bh012rcd13ifvqd10","pricing_plan_id":"cebpf4jnsgd1na2vs0mg"},{"bike_id":"c6f9916f-9a60-4386-abb3-ae8859f58c65","system_id":"levelo_inurba_marseille","lat":43.23149,"lon":5.43718,"is_reserved":false,"is_disabled":false,"rental_uris":{"android":"levelo://app?vid=c6f9916f-9a60-4386-abb3-ae8859f58c65","ios":"levelo://app?vid=c6f9916f-9a60-4386-abb3-ae8859f58c65"},"vehicle_type_id":"4","last_reported":1747362987,"current_range_meters":13600,"station_id":"ce4bhmp2rcd13ifvqgog","pricing_plan_id":"cebpf4jnsgd1na2vs0mg"},{"bike_id":"8b87950a-104b-4287-b003-aa1baaa1f514","system_id":"levelo_inurba_marseille","lat":43.27905,"lon":5.395865,"is_reserved":false,"is_disabled":false,"rental_uris":{"android":"levelo://app?vid=8b87950a-104b-4287-b003-aa1baaa1f514","ios":"levelo://app?vid=8b87950a-104b-4287-b003-aa1baaa1f514"},"vehicle_type_id":"4","last_reported":1747362987,"current_range_meters":13600,"station_id":"ce4bhf92rcd13ifvqf40","pricing_plan_id":"cebpf4jnsgd1na2vs0mg"},{"bike_id":"0616fca5-17bc-40fd-90cd-c6fb1d29640d","system_id":"levelo_inurba_marseille","lat":43.2897,"lon":5.378396,"is_reserved":false,"is_disabled":true,"rental_uris":{"android":"levelo://app?vid=0616fca5-17bc-40fd-90cd-c6fb1d29640d","ios":"levelo://app?vid=0616fca5-17bc-40fd-90cd-c6fb1d29640d"},"vehicle_type_id":"4","last_reported":1747362987,"current_range_meters":13600,"station_id":"ce4bh9p2rcd13ifvqed0","pricing_plan_id":"cebpf4jnsgd1na2vs0mg"},{"bike_id":"90a589df-396f-4eb9-b996-293e703df0ee","system_id":"levelo_inurba_marseille","lat":43.27954,"lon":5.38699,"is_reserved":false,"is_disabled":false,"rental_uris":{"android":"levelo://app?vid=90a589df-396f-4eb9-b996-293e703df0ee","ios":"levelo://app?vid=90a589df-396f-4eb9-b996-293e703df0ee"},"vehicle_type_id":"4","last_reported":1747362987,"current_range_meters":13600,"station_id":"ce4bhg12rcd13ifvqf80","pricing_plan_id":"cebpf4jnsgd1na2vs0mg"},{"bike_id":"85c4eb73-6cc0-4bd5-9a95-c36477d064db","system_id":"levelo_inurba_marseille","lat":43.31322,"lon":5.396939,"is_reserved":false,"is_disabled":false,"rental_uris":{"android":"levelo://app?vid=85c4eb73-6cc0-4bd5-9a95-c36477d064db","ios":"levelo://app?vid=85c4eb73-6cc0-4bd5-9a95-c36477d064db"},"vehicle_type_id":"4","last_reported":1747362987,"current_range_meters":13600,"station_id":"ce4bgvp2rcd13ifvqcu0","pricing_plan_id":"cebpf4jnsgd1na2vs0mg"},{"bike_id":"61e930c8-b55a-4554-80fc-5c355a0ea446","system_id":"levelo_inurba_marseille","lat":43.307776,"lon":5.376556,"is_reserved":false,"is_disabled":false,"rental_uris":{"android":"levelo://app?vid=61e930c8-b55a-4554-80fc-5c355a0ea446","ios":"levelo://app?vid=61e930c8-b55a-4554-80fc-5c355a0ea446"},"vehicle_type_id":"4","last_reported":1747362987,"current_range_meters":13600,"station_id":"ce4bgv92rcd13ifvqcq0","pricing_plan_id":"cebpf4jnsgd1na2vs0mg"},{"bike_id":"6d886103-344e-431a-ac80-7f62879d2f7c","system_id":"levelo_inurba_marseille","lat":43.22927,"lon":5.35377,"is_reserved":false,"is_disabled":false,"rental_uris":{"android":"levelo://app?vid=6d886103-344e-431a-ac80-7f62879d2f7c","ios":"levelo://app?vid=6d886103-344e-431a-ac80-7f62879d2f7c"},"vehicle_type_id":"4","last_reported":1747362987,"current_range_meters":14000,"station_id":"cpo3532slgdg3j2ikp40","pricing_plan_id":"cebpf4jnsgd1na2vs0mg"},{"bike_id":"893d59b2-1894-42ba-b17c-0aaa787c4475","system_id":"levelo_inurba_marseille","lat":43.30931,"lon":5.40165,"is_reserved":false,"is_disabled":false,"rental_uris":{"android":"levelo://app?vid=893d59b2-1894-42ba-b17c-0aaa787c4475","ios":"levelo://app?vid=893d59b2-1894-42ba-b17c-0aaa787c4475"},"vehicle_type_id":"4","last_reported":1747362987,"current_range_meters":14000,"station_id":"ce4bgvp2rcd13ifvqct0","pricing_plan_id":"cebpf4jnsgd1na2vs0mg"},{"bike_id":"831b9292-6775-490e-851e-418e706a5942","system_id":"levelo_inurba_marseille","lat":43.323391,"lon":5.406236,"is_reserved":false,"is_disabled":false,"rental_uris":{"android":"levelo://app?vid=831b9292-6775-490e-851e-418e706a5942","ios":"levelo://app?vid=831b9292-6775-490e-851e-418e706a5942"},"vehicle_type_id":"4","last_reported":1747362987,"current_range_meters":14000,"station_id":"ce4bhq92rcd13ifvqhjg","pricing_plan_id":"cebpf4jnsgd1na2vs0mg"},{"bike_id":"1227d93c-90d7-43ee-8d39-a97fd6afb5cb","system_id":"levelo_inurba_marseille","lat":43.287127,"lon":5.399921,"is_reserved":false,"is_disabled":false,"rental_uris":{"android":"levelo://app?vid=1227d93c-90d7-43ee-8d39-a97fd6afb5cb","ios":"levelo://app?vid=1227d93c-90d7-43ee-8d39-a97fd6afb5cb"},"vehicle_type_id":"4","last_reported":1747362987,"current_range_meters":14400,"station_id":"ce4bho92rcd13ifvqh3g","pricing_plan_id":"cebpf4jnsgd1na2vs0mg"},{"bike_id":"26173702-3864-4b5e-ab78-221b845e135f","system_id":"levelo_inurba_marseille","lat":43.28693,"lon":5.39988,"is_reserved":false,"is_disabled":false,"rental_uris":{"android":"levelo://app?vid=26173702-3864-4b5e-ab78-221b845e135f","ios":"levelo://app?vid=26173702-3864-4b5e-ab78-221b845e135f"},"vehicle_type_id":"4","last_reported":1747362987,"current_range_meters":14400,"station_id":"ce4bho92rcd13ifvqh3g","pricing_plan_id":"cebpf4jnsgd1na2vs0mg"},{"bike_id":"dd36139e-82a4-4d24-8679-5ef9e1ab4735","system_id":"levelo_inurba_marseille","lat":43.294433,"lon":5.397455,"is_reserved":false,"is_disabled":false,"rental_uris":{"android":"levelo://app?vid=dd36139e-82a4-4d24-8679-5ef9e1ab4735","ios":"levelo://app?vid=dd36139e-82a4-4d24-8679-5ef9e1ab4735"},"vehicle_type_id":"4","last_reported":1747362987,"current_range_meters":14400,"station_id":"ce4bh3h2rcd13ifvqdo0","pricing_plan_id":"cebpf4jnsgd1na2vs0mg"},{"bike_id":"437dbd83-7e8c-4e2c-a553-a68b49b1d0cd","system_id":"levelo_inurba_marseille","lat":43.28353,"lon":5.38122,"is_reserved":false,"is_disabled":false,"rental_uris":{"android":"levelo://app?vid=437dbd83-7e8c-4e2c-a553-a68b49b1d0cd","ios":"levelo://app?vid=437dbd83-7e8c-4e2c-a553-a68b49b1d0cd"},"vehicle_type_id":"4","last_reported":1747362987,"current_range_meters":14800,"station_id":"ce4bh412rcd13ifvqdr0","pricing_plan_id":"cebpf4jnsgd1na2vs0mg"},{"bike_id":"aa239ba2-f01b-46df-8666-407c5e49459b","system_id":"levelo_inurba_marseille","lat":43.309374,"lon":5.401624,"is_reserved":false,"is_disabled":false,"rental_uris":{"android":"levelo://app?vid=aa239ba2-f01b-46df-8666-407c5e49459b","ios":"levelo://app?vid=aa239ba2-f01b-46df-8666-407c5e49459b"},"vehicle_type_id":"4","last_reported":1747362987,"current_range_meters":14800,"station_id":"ce4bgvp2rcd13ifvqct0","pricing_plan_id":"cebpf4jnsgd1na2vs0mg"},{"bike_id":"03965549-f847-4165-8711-24a33d1f0f6c","system_id":"levelo_inurba_marseille","lat":43.295368,"lon":5.385504,"is_reserved":false,"is_disabled":true,"rental_uris":{"android":"levelo://app?vid=03965549-f847-4165-8711-24a33d1f0f6c","ios":"levelo://app?vid=03965549-f847-4165-8711-24a33d1f0f6c"},"vehicle_type_id":"4","last_reported":1747362987,"current_range_meters":14800,"station_id":"ce4bgih2rcd13ifvqba0","pricing_plan_id":"cebpf4jnsgd1na2vs0mg"},{"bike_id":"e37cba0f-a0e5-4e0b-9be5-4bc94f79aefd","system_id":"levelo_inurba_marseille","lat":43.307815,"lon":5.376509,"is_reserved":false,"is_disabled":false,"rental_uris":{"android":"levelo://app?vid=e37cba0f-a0e5-4e0b-9be5-4bc94f79aefd","ios":"levelo://app?vid=e37cba0f-a0e5-4e0b-9be5-4bc94f79aefd"},"vehicle_type_id":"4","last_reported":1747362987,"current_range_meters":14800,"station_id":"ce4bgv92rcd13ifvqcq0","pricing_plan_id":"cebpf4jnsgd1na2vs0mg"},{"bike_id":"2a56cf36-d3fb-4a41-8ebc-23f0abc6d7f1","system_id":"levelo_inurba_marseille","lat":43.211958,"lon":5.350725,"is_reserved":false,"is_disabled":false,"rental_uris":{"android":"levelo://app?vid=2a56cf36-d3fb-4a41-8ebc-23f0abc6d7f1","ios":"levelo://app?vid=2a56cf36-d3fb-4a41-8ebc-23f0abc6d7f1"},"vehicle_type_id":"4","last_reported":1747362987,"current_range_meters":14800,"station_id":"st_cvj6sg6p6f1abm77japg","pricing_plan_id":"cebpf4jnsgd1na2vs0mg"},{"bike_id":"9c69e55b-3827-4551-aa71-02fc928cda04","system_id":"levelo_inurba_marseille","lat":43.32367,"lon":5.38886,"is_reserved":false,"is_disabled":false,"rental_uris":{"android":"levelo://app?vid=9c69e55b-3827-4551-aa71-02fc928cda04","ios":"levelo://app?vid=9c69e55b-3827-4551-aa71-02fc928cda04"},"vehicle_type_id":"4","last_reported":1747362987,"current_range_meters":15200,"station_id":"ce4bhqp2rcd13ifvqhog","pricing_plan_id":"cebpf4jnsgd1na2vs0mg"},{"bike_id":"44ebde39-7f60-4c3c-863a-d4d42bcfc78c","system_id":"levelo_inurba_marseille","lat":43.30428,"lon":5.397522,"is_reserved":false,"is_disabled":false,"rental_uris":{"android":"levelo://app?vid=44ebde39-7f60-4c3c-863a-d4d42bcfc78c","ios":"levelo://app?vid=44ebde39-7f60-4c3c-863a-d4d42bcfc78c"},"vehicle_type_id":"4","last_reported":1747362987,"current_range_meters":15200,"station_id":"ce4bh092rcd13ifvqd20","pricing_plan_id":"cebpf4jnsgd1na2vs0mg"},{"bike_id":"94ea2574-ec23-443e-b69b-9835573644e2","system_id":"levelo_inurba_marseille","lat":43.297842,"lon":5.393595,"is_reserved":false,"is_disabled":false,"rental_uris":{"android":"levelo://app?vid=94ea2574-ec23-443e-b69b-9835573644e2","ios":"levelo://app?vid=94ea2574-ec23-443e-b69b-9835573644e2"},"vehicle_type_id":"4","last_reported":1747362987,"current_range_meters":15200,"station_id":"chh1huq6cuj3fo74tm60","pricing_plan_id":"cebpf4jnsgd1na2vs0mg"},{"bike_id":"4aca4fe4-9e8e-4107-a175-ba21c9581ed1","system_id":"levelo_inurba_marseille","lat":43.30889,"lon":5.39629,"is_reserved":false,"is_disabled":false,"rental_uris":{"android":"levelo://app?vid=4aca4fe4-9e8e-4107-a175-ba21c9581ed1","ios":"levelo://app?vid=4aca4fe4-9e8e-4107-a175-ba21c9581ed1"},"vehicle_type_id":"4","last_reported":1747362987,"current_range_meters":15200,"station_id":"ce4bh012rcd13ifvqcv0","pricing_plan_id":"cebpf4jnsgd1na2vs0mg"},{"bike_id":"64f09dd2-74c9-4c9a-92a1-29a47107cc15","system_id":"levelo_inurba_marseille","lat":43.2874,"lon":5.36067,"is_reserved":false,"is_disabled":false,"rental_uris":{"android":"levelo://app?vid=64f09dd2-74c9-4c9a-92a1-29a47107cc15","ios":"levelo://app?vid=64f09dd2-74c9-4c9a-92a1-29a47107cc15"},"vehicle_type_id":"4","last_reported":1747362987,"current_range_meters":15200,"station_id":"cki0cbj6b192h4jlfktg","pricing_plan_id":"cebpf4jnsgd1na2vs0mg"},{"bike_id":"9d7b4be4-63c3-4607-b754-6e8c8e5de68e","system_id":"levelo_inurba_marseille","lat":43.30841,"lon":5.38135,"is_reserved":false,"is_disabled":false,"rental_uris":{"android":"levelo://app?vid=9d7b4be4-63c3-4607-b754-6e8c8e5de68e","ios":"levelo://app?vid=9d7b4be4-63c3-4607-b754-6e8c8e5de68e"},"vehicle_type_id":"4","last_reported":1747362987,"current_range_meters":15200,"station_id":"ce4bgt12rcd13ifvqce0","pricing_plan_id":"cebpf4jnsgd1na2vs0mg"},{"bike_id":"004deaad-71d8-428c-b44b-9070f09291d4","system_id":"levelo_inurba_marseille","lat":43.318301,"lon":5.372674,"is_reserved":false,"is_disabled":false,"rental_uris":{"android":"levelo://app?vid=004deaad-71d8-428c-b44b-9070f09291d4","ios":"levelo://app?vid=004deaad-71d8-428c-b44b-9070f09291d4"},"vehicle_type_id":"4","last_reported":1747362987,"current_range_meters":15200,"station_id":"","pricing_plan_id":"cebpf4jnsgd1na2vs0mg"},{"bike_id":"52afdb0b-c34a-48f7-a12e-bf0f417fa0ba","system_id":"levelo_inurba_marseille","lat":43.285695,"lon":5.394964,"is_reserved":false,"is_disabled":false,"rental_uris":{"android":"levelo://app?vid=52afdb0b-c34a-48f7-a12e-bf0f417fa0ba","ios":"levelo://app?vid=52afdb0b-c34a-48f7-a12e-bf0f417fa0ba"},"vehicle_type_id":"4","last_reported":1747362987,"current_range_meters":15200,"station_id":"ce4bh292rcd13ifvqdg0","pricing_plan_id":"cebpf4jnsgd1na2vs0mg"},{"bike_id":"ce2feaf1-e146-4e8e-9a03-52795dbc0cc6","system_id":"levelo_inurba_marseille","lat":43.313281,"lon":5.396959,"is_reserved":false,"is_disabled":false,"rental_uris":{"android":"levelo://app?vid=ce2feaf1-e146-4e8e-9a03-52795dbc0cc6","ios":"levelo://app?vid=ce2feaf1-e146-4e8e-9a03-52795dbc0cc6"},"vehicle_type_id":"4","last_reported":1747362987,"current_range_meters":16000,"station_id":"ce4bgvp2rcd13ifvqcu0","pricing_plan_id":"cebpf4jnsgd1na2vs0mg"},{"bike_id":"4b203683-b233-4af5-a708-ee8d049ad375","system_id":"levelo_inurba_marseille","lat":43.306431,"lon":5.400772,"is_reserved":false,"is_disabled":false,"rental_uris":{"android":"levelo://app?vid=4b203683-b233-4af5-a708-ee8d049ad375","ios":"levelo://app?vid=4b203683-b233-4af5-a708-ee8d049ad375"},"vehicle_type_id":"4","last_reported":1747362987,"current_range_meters":16000,"station_id":"ce4bh112rcd13ifvqda0","pricing_plan_id":"cebpf4jnsgd1na2vs0mg"},{"bike_id":"0169bc23-990e-472c-97a8-5c40cdd80d48","system_id":"levelo_inurba_marseille","lat":43.23014,"lon":5.40206,"is_reserved":false,"is_disabled":false,"rental_uris":{"android":"levelo://app?vid=0169bc23-990e-472c-97a8-5c40cdd80d48","ios":"levelo://app?vid=0169bc23-990e-472c-97a8-5c40cdd80d48"},"vehicle_type_id":"4","last_reported":1747362987,"current_range_meters":16000,"station_id":"","pricing_plan_id":"cebpf4jnsgd1na2vs0mg"},{"bike_id":"5bf777c9-e29c-4707-862b-c20447962b1e","system_id":"levelo_inurba_marseille","lat":43.25117,"lon":5.40329,"is_reserved":false,"is_disabled":false,"rental_uris":{"android":"levelo://app?vid=5bf777c9-e29c-4707-862b-c20447962b1e","ios":"levelo://app?vid=5bf777c9-e29c-4707-862b-c20447962b1e"},"vehicle_type_id":"4","last_reported":1747362987,"current_range_meters":16000,"station_id":"ce4bhlh2rcd13ifvqgig","pricing_plan_id":"cebpf4jnsgd1na2vs0mg"},{"bike_id":"1594da4d-fa0b-4757-93aa-d987fd61979a","system_id":"levelo_inurba_marseille","lat":43.265581,"lon":5.373019,"is_reserved":false,"is_disabled":true,"rental_uris":{"android":"levelo://app?vid=1594da4d-fa0b-4757-93aa-d987fd61979a","ios":"levelo://app?vid=1594da4d-fa0b-4757-93aa-d987fd61979a"},"vehicle_type_id":"4","last_reported":1747362987,"current_range_meters":16000,"station_id":"ce4bhg12rcd13ifvqf70","pricing_plan_id":"cebpf4jnsgd1na2vs0mg"},{"bike_id":"e5f8dd14-221e-443c-95a3-da91fe7401ee","system_id":"levelo_inurba_marseille","lat":43.289414,"lon":5.366299,"is_reserved":false,"is_disabled":true,"rental_uris":{"android":"levelo://app?vid=e5f8dd14-221e-443c-95a3-da91fe7401ee","ios":"levelo://app?vid=e5f8dd14-221e-443c-95a3-da91fe7401ee"},"vehicle_type_id":"4","last_reported":1747362987,"current_range_meters":16000,"station_id":"ce4bhap2rcd13ifvqek0","pricing_plan_id":"cebpf4jnsgd1na2vs0mg"},{"bike_id":"225d88a7-bbb1-45c7-845f-1fd1816815a2","system_id":"levelo_inurba_marseille","lat":43.346859,"lon":5.345493,"is_reserved":false,"is_disabled":false,"rental_uris":{"android":"levelo://app?vid=225d88a7-bbb1-45c7-845f-1fd1816815a2","ios":"levelo://app?vid=225d88a7-bbb1-45c7-845f-1fd1816815a2"},"vehicle_type_id":"4","last_reported":1747362987,"current_range_meters":16400,"station_id":"","pricing_plan_id":"cebpf4jnsgd1na2vs0mg"},{"bike_id":"1ec2108b-39d0-4cd0-9356-6ed8a57a94b8","system_id":"levelo_inurba_marseille","lat":43.285654,"lon":5.394959,"is_reserved":false,"is_disabled":false,"rental_uris":{"android":"levelo://app?vid=1ec2108b-39d0-4cd0-9356-6ed8a57a94b8","ios":"levelo://app?vid=1ec2108b-39d0-4cd0-9356-6ed8a57a94b8"},"vehicle_type_id":"4","last_reported":1747362987,"current_range_meters":16400,"station_id":"ce4bh292rcd13ifvqdg0","pricing_plan_id":"cebpf4jnsgd1na2vs0mg"},{"bike_id":"8b22e7f7-efdf-4a4c-afa0-eaaa76a17d66","system_id":"levelo_inurba_marseille","lat":43.29236,"lon":5.40912,"is_reserved":false,"is_disabled":false,"rental_uris":{"android":"levelo://app?vid=8b22e7f7-efdf-4a4c-afa0-eaaa76a17d66","ios":"levelo://app?vid=8b22e7f7-efdf-4a4c-afa0-eaaa76a17d66"},"vehicle_type_id":"4","last_reported":1747362987,"current_range_meters":16400,"station_id":"ce4bh192rcd13ifvqdc0","pricing_plan_id":"cebpf4jnsgd1na2vs0mg"},{"bike_id":"633fcb2a-b0f6-4e02-85b4-46be01c09780","system_id":"levelo_inurba_marseille","lat":43.30216,"lon":5.39466,"is_reserved":false,"is_disabled":false,"rental_uris":{"android":"levelo://app?vid=633fcb2a-b0f6-4e02-85b4-46be01c09780","ios":"levelo://app?vid=633fcb2a-b0f6-4e02-85b4-46be01c09780"},"vehicle_type_id":"4","last_reported":1747362987,"current_range_meters":16400,"station_id":"ce4bh0p2rcd13ifvqd70","pricing_plan_id":"cebpf4jnsgd1na2vs0mg"},{"bike_id":"c18f41fc-b1cf-4e06-8262-8743e71bd6fc","system_id":"levelo_inurba_marseille","lat":43.307846,"lon":5.376512,"is_reserved":false,"is_disabled":false,"rental_uris":{"android":"levelo://app?vid=c18f41fc-b1cf-4e06-8262-8743e71bd6fc","ios":"levelo://app?vid=c18f41fc-b1cf-4e06-8262-8743e71bd6fc"},"vehicle_type_id":"4","last_reported":1747362987,"current_range_meters":16400,"station_id":"ce4bgv92rcd13ifvqcq0","pricing_plan_id":"cebpf4jnsgd1na2vs0mg"},{"bike_id":"14c75fad-f012-41d2-b4a9-1138f8ca169b","system_id":"levelo_inurba_marseille","lat":43.308763,"lon":5.396311,"is_reserved":false,"is_disabled":false,"rental_uris":{"android":"levelo://app?vid=14c75fad-f012-41d2-b4a9-1138f8ca169b","ios":"levelo://app?vid=14c75fad-f012-41d2-b4a9-1138f8ca169b"},"vehicle_type_id":"4","last_reported":1747362987,"current_range_meters":16400,"station_id":"ce4bh012rcd13ifvqcv0","pricing_plan_id":"cebpf4jnsgd1na2vs0mg"},{"bike_id":"b80de7a0-16b1-4437-a5dc-bb085beb2687","system_id":"levelo_inurba_marseille","lat":43.316829,"lon":5.404755,"is_reserved":false,"is_disabled":false,"rental_uris":{"android":"levelo://app?vid=b80de7a0-16b1-4437-a5dc-bb085beb2687","ios":"levelo://app?vid=b80de7a0-16b1-4437-a5dc-bb085beb2687"},"vehicle_type_id":"4","last_reported":1747362987,"current_range_meters":16400,"station_id":"ce4bh012rcd13ifvqd00","pricing_plan_id":"cebpf4jnsgd1na2vs0mg"},{"bike_id":"f495968d-d982-4514-ab98-db984cf03219","system_id":"levelo_inurba_marseille","lat":43.314123,"lon":5.383343,"is_reserved":false,"is_disabled":false,"rental_uris":{"android":"levelo://app?vid=f495968d-d982-4514-ab98-db984cf03219","ios":"levelo://app?vid=f495968d-d982-4514-ab98-db984cf03219"},"vehicle_type_id":"4","last_reported":1747362987,"current_range_meters":16800,"station_id":"","pricing_plan_id":"cebpf4jnsgd1na2vs0mg"},{"bike_id":"1c034ea3-212c-4d7a-86f6-31c895bd347f","system_id":"levelo_inurba_marseille","lat":43.290408,"lon":5.399709,"is_reserved":false,"is_disabled":true,"rental_uris":{"android":"levelo://app?vid=1c034ea3-212c-4d7a-86f6-31c895bd347f","ios":"levelo://app?vid=1c034ea3-212c-4d7a-86f6-31c895bd347f"},"vehicle_type_id":"4","last_reported":1747362987,"current_range_meters":16800,"station_id":"ce4bh392rcd13ifvqdm0","pricing_plan_id":"cebpf4jnsgd1na2vs0mg"},{"bike_id":"54a1a73b-9f7a-414c-a48f-eeace73bd9b0","system_id":"levelo_inurba_marseille","lat":43.22499,"lon":5.34804,"is_reserved":false,"is_disabled":false,"rental_uris":{"android":"levelo://app?vid=54a1a73b-9f7a-414c-a48f-eeace73bd9b0","ios":"levelo://app?vid=54a1a73b-9f7a-414c-a48f-eeace73bd9b0"},"vehicle_type_id":"4","last_reported":1747362987,"current_range_meters":16800,"station_id":"st_cvj5dfep6f1abm77gieg","pricing_plan_id":"cebpf4jnsgd1na2vs0mg"},{"bike_id":"97debd90-929f-4fac-82c1-32872a77ce7a","system_id":"levelo_inurba_marseille","lat":43.291928,"lon":5.393367,"is_reserved":false,"is_disabled":false,"rental_uris":{"android":"levelo://app?vid=97debd90-929f-4fac-82c1-32872a77ce7a","ios":"levelo://app?vid=97debd90-929f-4fac-82c1-32872a77ce7a"},"vehicle_type_id":"4","last_reported":1747362987,"current_range_meters":16800,"station_id":"ce4bh192rcd13ifvqdd0","pricing_plan_id":"cebpf4jnsgd1na2vs0mg"},{"bike_id":"aa53c5b9-c9b8-4906-989e-6e49a1f5abe6","system_id":"levelo_inurba_marseille","lat":43.22922,"lon":5.35394,"is_reserved":false,"is_disabled":false,"rental_uris":{"android":"levelo://app?vid=aa53c5b9-c9b8-4906-989e-6e49a1f5abe6","ios":"levelo://app?vid=aa53c5b9-c9b8-4906-989e-6e49a1f5abe6"},"vehicle_type_id":"4","last_reported":1747362987,"current_range_meters":16800,"station_id":"cpo3532slgdg3j2ikp40","pricing_plan_id":"cebpf4jnsgd1na2vs0mg"},{"bike_id":"7c3446e5-155a-4a63-b3e0-e0de57e85f93","system_id":"levelo_inurba_marseille","lat":43.28556,"lon":5.39499,"is_reserved":false,"is_disabled":false,"rental_uris":{"android":"levelo://app?vid=7c3446e5-155a-4a63-b3e0-e0de57e85f93","ios":"levelo://app?vid=7c3446e5-155a-4a63-b3e0-e0de57e85f93"},"vehicle_type_id":"4","last_reported":1747362987,"current_range_meters":16800,"station_id":"ce4bh292rcd13ifvqdg0","pricing_plan_id":"cebpf4jnsgd1na2vs0mg"},{"bike_id":"6dbb2691-6afd-44a6-adc8-96cdcc1e512d","system_id":"levelo_inurba_marseille","lat":43.229351,"lon":5.353809,"is_reserved":false,"is_disabled":false,"rental_uris":{"android":"levelo://app?vid=6dbb2691-6afd-44a6-adc8-96cdcc1e512d","ios":"levelo://app?vid=6dbb2691-6afd-44a6-adc8-96cdcc1e512d"},"vehicle_type_id":"4","last_reported":1747362987,"current_range_meters":16800,"station_id":"cpo3532slgdg3j2ikp40","pricing_plan_id":"cebpf4jnsgd1na2vs0mg"},{"bike_id":"cbf0f435-cd84-49d9-a6e7-e2ce025bb7cc","system_id":"levelo_inurba_marseille","lat":43.25092,"lon":5.40388,"is_reserved":false,"is_disabled":true,"rental_uris":{"android":"levelo://app?vid=cbf0f435-cd84-49d9-a6e7-e2ce025bb7cc","ios":"levelo://app?vid=cbf0f435-cd84-49d9-a6e7-e2ce025bb7cc"},"vehicle_type_id":"4","last_reported":1747362987,"current_range_meters":16800,"station_id":"ce4bhlh2rcd13ifvqgig","pricing_plan_id":"cebpf4jnsgd1na2vs0mg"},{"bike_id":"b8f48a03-1b3c-4f41-b74c-2b637af725d5","system_id":"levelo_inurba_marseille","lat":43.304103,"lon":5.397564,"is_reserved":false,"is_disabled":true,"rental_uris":{"android":"levelo://app?vid=b8f48a03-1b3c-4f41-b74c-2b637af725d5","ios":"levelo://app?vid=b8f48a03-1b3c-4f41-b74c-2b637af725d5"},"vehicle_type_id":"4","last_reported":1747362987,"current_range_meters":16800,"station_id":"ce4bh092rcd13ifvqd20","pricing_plan_id":"cebpf4jnsgd1na2vs0mg"},{"bike_id":"85347e80-d8a6-4cd4-bb7e-3a7838fe1632","system_id":"levelo_inurba_marseille","lat":43.309,"lon":5.396115,"is_reserved":false,"is_disabled":false,"rental_uris":{"android":"levelo://app?vid=85347e80-d8a6-4cd4-bb7e-3a7838fe1632","ios":"levelo://app?vid=85347e80-d8a6-4cd4-bb7e-3a7838fe1632"},"vehicle_type_id":"4","last_reported":1747362987,"current_range_meters":16800,"station_id":"ce4bh012rcd13ifvqcv0","pricing_plan_id":"cebpf4jnsgd1na2vs0mg"},{"bike_id":"0b9d952e-88bb-4174-9217-60bd3036303f","system_id":"levelo_inurba_marseille","lat":43.294395,"lon":5.397564,"is_reserved":false,"is_disabled":false,"rental_uris":{"android":"levelo://app?vid=0b9d952e-88bb-4174-9217-60bd3036303f","ios":"levelo://app?vid=0b9d952e-88bb-4174-9217-60bd3036303f"},"vehicle_type_id":"4","last_reported":1747362987,"current_range_meters":17200,"station_id":"ce4bh3h2rcd13ifvqdo0","pricing_plan_id":"cebpf4jnsgd1na2vs0mg"},{"bike_id":"ea95e8ec-562b-49e7-a15b-4eca8febff1e","system_id":"levelo_inurba_marseille","lat":43.2784,"lon":5.39218,"is_reserved":false,"is_disabled":false,"rental_uris":{"android":"levelo://app?vid=ea95e8ec-562b-49e7-a15b-4eca8febff1e","ios":"levelo://app?vid=ea95e8ec-562b-49e7-a15b-4eca8febff1e"},"vehicle_type_id":"4","last_reported":1747362987,"current_range_meters":17200,"station_id":"ce4bhjp2rcd13ifvqga0","pricing_plan_id":"cebpf4jnsgd1na2vs0mg"},{"bike_id":"f6205ad3-e68f-4455-a06e-4a30dd56d15c","system_id":"levelo_inurba_marseille","lat":43.31365,"lon":5.38496,"is_reserved":false,"is_disabled":true,"rental_uris":{"android":"levelo://app?vid=f6205ad3-e68f-4455-a06e-4a30dd56d15c","ios":"levelo://app?vid=f6205ad3-e68f-4455-a06e-4a30dd56d15c"},"vehicle_type_id":"4","last_reported":1747362987,"current_range_meters":17200,"station_id":"ce4bgt92rcd13ifvqcf0","pricing_plan_id":"cebpf4jnsgd1na2vs0mg"},{"bike_id":"54c80718-1468-47f9-9877-bc44f5940722","system_id":"levelo_inurba_marseille","lat":43.211925,"lon":5.350709,"is_reserved":false,"is_disabled":false,"rental_uris":{"android":"levelo://app?vid=54c80718-1468-47f9-9877-bc44f5940722","ios":"levelo://app?vid=54c80718-1468-47f9-9877-bc44f5940722"},"vehicle_type_id":"4","last_reported":1747362987,"current_range_meters":17200,"station_id":"st_cvj6sg6p6f1abm77japg","pricing_plan_id":"cebpf4jnsgd1na2vs0mg"},{"bike_id":"19929c35-3d44-4d44-bda1-6fe1c0a15ee8","system_id":"levelo_inurba_marseille","lat":43.29418,"lon":5.39765,"is_reserved":false,"is_disabled":false,"rental_uris":{"android":"levelo://app?vid=19929c35-3d44-4d44-bda1-6fe1c0a15ee8","ios":"levelo://app?vid=19929c35-3d44-4d44-bda1-6fe1c0a15ee8"},"vehicle_type_id":"4","last_reported":1747362987,"current_range_meters":17200,"station_id":"ce4bh3h2rcd13ifvqdo0","pricing_plan_id":"cebpf4jnsgd1na2vs0mg"},{"bike_id":"dd3875fd-a980-4cdf-b8f1-c4ed17d99bf6","system_id":"levelo_inurba_marseille","lat":43.288474,"lon":5.358606,"is_reserved":false,"is_disabled":false,"rental_uris":{"android":"levelo://app?vid=dd3875fd-a980-4cdf-b8f1-c4ed17d99bf6","ios":"levelo://app?vid=dd3875fd-a980-4cdf-b8f1-c4ed17d99bf6"},"vehicle_type_id":"4","last_reported":1747362987,"current_range_meters":17200,"station_id":"ce4bhb12rcd13ifvqem0","pricing_plan_id":"cebpf4jnsgd1na2vs0mg"},{"bike_id":"b6c35f26-ca0c-44c2-8600-47ae8c2662b5","system_id":"levelo_inurba_marseille","lat":43.279199,"lon":5.395826,"is_reserved":false,"is_disabled":false,"rental_uris":{"android":"levelo://app?vid=b6c35f26-ca0c-44c2-8600-47ae8c2662b5","ios":"levelo://app?vid=b6c35f26-ca0c-44c2-8600-47ae8c2662b5"},"vehicle_type_id":"4","last_reported":1747362987,"current_range_meters":17200,"station_id":"ce4bhf92rcd13ifvqf40","pricing_plan_id":"cebpf4jnsgd1na2vs0mg"},{"bike_id":"da66c5e5-6e35-4104-b407-ba7ff49a5057","system_id":"levelo_inurba_marseille","lat":43.23201,"lon":5.39967,"is_reserved":false,"is_disabled":false,"rental_uris":{"android":"levelo://app?vid=da66c5e5-6e35-4104-b407-ba7ff49a5057","ios":"levelo://app?vid=da66c5e5-6e35-4104-b407-ba7ff49a5057"},"vehicle_type_id":"4","last_reported":1747362987,"current_range_meters":17200,"station_id":"ce4bhn12rcd13ifvqgqg","pricing_plan_id":"cebpf4jnsgd1na2vs0mg"},{"bike_id":"384b8789-33d5-4c25-a055-f51e5139cca5","system_id":"levelo_inurba_marseille","lat":43.286603,"lon":5.36359,"is_reserved":false,"is_disabled":false,"rental_uris":{"android":"levelo://app?vid=384b8789-33d5-4c25-a055-f51e5139cca5","ios":"levelo://app?vid=384b8789-33d5-4c25-a055-f51e5139cca5"},"vehicle_type_id":"4","last_reported":1747362987,"current_range_meters":17200,"station_id":"ce4bhah2rcd13ifvqej0","pricing_plan_id":"cebpf4jnsgd1na2vs0mg"},{"bike_id":"6c7969ab-9050-4f84-a654-b37d09112a11","system_id":"levelo_inurba_marseille","lat":43.28467,"lon":5.39172,"is_reserved":false,"is_disabled":false,"rental_uris":{"android":"levelo://app?vid=6c7969ab-9050-4f84-a654-b37d09112a11","ios":"levelo://app?vid=6c7969ab-9050-4f84-a654-b37d09112a11"},"vehicle_type_id":"4","last_reported":1747362987,"current_range_meters":17600,"station_id":"ce4bhoh2rcd13ifvqh5g","pricing_plan_id":"cebpf4jnsgd1na2vs0mg"},{"bike_id":"6a3c0500-1d12-4f89-970c-349c965c6535","system_id":"levelo_inurba_marseille","lat":43.28649,"lon":5.36375,"is_reserved":false,"is_disabled":false,"rental_uris":{"android":"levelo://app?vid=6a3c0500-1d12-4f89-970c-349c965c6535","ios":"levelo://app?vid=6a3c0500-1d12-4f89-970c-349c965c6535"},"vehicle_type_id":"4","last_reported":1747362987,"current_range_meters":17600,"station_id":"ce4bhah2rcd13ifvqej0","pricing_plan_id":"cebpf4jnsgd1na2vs0mg"},{"bike_id":"ac56aaa2-0391-48c7-aba5-1bd5f748a027","system_id":"levelo_inurba_marseille","lat":43.295546,"lon":5.422897,"is_reserved":false,"is_disabled":false,"rental_uris":{"android":"levelo://app?vid=ac56aaa2-0391-48c7-aba5-1bd5f748a027","ios":"levelo://app?vid=ac56aaa2-0391-48c7-aba5-1bd5f748a027"},"vehicle_type_id":"4","last_reported":1747362987,"current_range_meters":17600,"station_id":"ce4bhph2rcd13ifvqhdg","pricing_plan_id":"cebpf4jnsgd1na2vs0mg"},{"bike_id":"e4dcc3d5-4c95-467b-9d7a-5c6a26d477b8","system_id":"levelo_inurba_marseille","lat":43.313256,"lon":5.396865,"is_reserved":false,"is_disabled":false,"rental_uris":{"android":"levelo://app?vid=e4dcc3d5-4c95-467b-9d7a-5c6a26d477b8","ios":"levelo://app?vid=e4dcc3d5-4c95-467b-9d7a-5c6a26d477b8"},"vehicle_type_id":"4","last_reported":1747362987,"current_range_meters":17600,"station_id":"ce4bgvp2rcd13ifvqcu0","pricing_plan_id":"cebpf4jnsgd1na2vs0mg"},{"bike_id":"414cf753-9f7e-48d6-b04e-4fabc33e5ac2","system_id":"levelo_inurba_marseille","lat":43.305346,"lon":5.384386,"is_reserved":false,"is_disabled":true,"rental_uris":{"android":"levelo://app?vid=414cf753-9f7e-48d6-b04e-4fabc33e5ac2","ios":"levelo://app?vid=414cf753-9f7e-48d6-b04e-4fabc33e5ac2"},"vehicle_type_id":"4","last_reported":1747362987,"current_range_meters":17600,"station_id":"ce4bgg92rcd13ifvqb30","pricing_plan_id":"cebpf4jnsgd1na2vs0mg"},{"bike_id":"8046a22c-46e2-4ec2-a1f4-2b471798e210","system_id":"levelo_inurba_marseille","lat":43.251048,"lon":5.40337,"is_reserved":false,"is_disabled":false,"rental_uris":{"android":"levelo://app?vid=8046a22c-46e2-4ec2-a1f4-2b471798e210","ios":"levelo://app?vid=8046a22c-46e2-4ec2-a1f4-2b471798e210"},"vehicle_type_id":"4","last_reported":1747362987,"current_range_meters":17600,"station_id":"ce4bhlh2rcd13ifvqgig","pricing_plan_id":"cebpf4jnsgd1na2vs0mg"},{"bike_id":"293e0bba-9890-4228-a94a-bfd1f37ee8aa","system_id":"levelo_inurba_marseille","lat":43.30149,"lon":5.3809,"is_reserved":false,"is_disabled":false,"rental_uris":{"android":"levelo://app?vid=293e0bba-9890-4228-a94a-bfd1f37ee8aa","ios":"levelo://app?vid=293e0bba-9890-4228-a94a-bfd1f37ee8aa"},"vehicle_type_id":"4","last_reported":1747362987,"current_range_meters":18000,"station_id":"ce4bgjp2rcd13ifvqbh0","pricing_plan_id":"cebpf4jnsgd1na2vs0mg"},{"bike_id":"e8cf510a-205e-4cc0-9d7c-c6d408232a5d","system_id":"levelo_inurba_marseille","lat":43.239627,"lon":5.366363,"is_reserved":false,"is_disabled":false,"rental_uris":{"android":"levelo://app?vid=e8cf510a-205e-4cc0-9d7c-c6d408232a5d","ios":"levelo://app?vid=e8cf510a-205e-4cc0-9d7c-c6d408232a5d"},"vehicle_type_id":"4","last_reported":1747362987,"current_range_meters":18000,"station_id":"ce4bhi12rcd13ifvqfp0","pricing_plan_id":"cebpf4jnsgd1na2vs0mg"},{"bike_id":"1904aac7-c1fd-40d7-a04b-0296c3b79556","system_id":"levelo_inurba_marseille","lat":43.28087,"lon":5.3786,"is_reserved":false,"is_disabled":false,"rental_uris":{"android":"levelo://app?vid=1904aac7-c1fd-40d7-a04b-0296c3b79556","ios":"levelo://app?vid=1904aac7-c1fd-40d7-a04b-0296c3b79556"},"vehicle_type_id":"4","last_reported":1747362987,"current_range_meters":18000,"station_id":"ce4bha12rcd13ifvqee0","pricing_plan_id":"cebpf4jnsgd1na2vs0mg"},{"bike_id":"9f5be7ce-18ce-4f3c-a52f-3a25f07f62b8","system_id":"levelo_inurba_marseille","lat":43.287292,"lon":5.360925,"is_reserved":false,"is_disabled":false,"rental_uris":{"android":"levelo://app?vid=9f5be7ce-18ce-4f3c-a52f-3a25f07f62b8","ios":"levelo://app?vid=9f5be7ce-18ce-4f3c-a52f-3a25f07f62b8"},"vehicle_type_id":"4","last_reported":1747362987,"current_range_meters":18000,"station_id":"cki0cbj6b192h4jlfktg","pricing_plan_id":"cebpf4jnsgd1na2vs0mg"},{"bike_id":"962bb4b7-2028-445d-b199-4a3520b0bc25","system_id":"levelo_inurba_marseille","lat":43.303998,"lon":5.397714,"is_reserved":false,"is_disabled":false,"rental_uris":{"android":"levelo://app?vid=962bb4b7-2028-445d-b199-4a3520b0bc25","ios":"levelo://app?vid=962bb4b7-2028-445d-b199-4a3520b0bc25"},"vehicle_type_id":"4","last_reported":1747362987,"current_range_meters":18000,"station_id":"ce4bh092rcd13ifvqd20","pricing_plan_id":"cebpf4jnsgd1na2vs0mg"},{"bike_id":"dbc12823-8428-4fdf-9cdf-6bc4f4bc55e0","system_id":"levelo_inurba_marseille","lat":43.30429,"lon":5.39757,"is_reserved":false,"is_disabled":false,"rental_uris":{"android":"levelo://app?vid=dbc12823-8428-4fdf-9cdf-6bc4f4bc55e0","ios":"levelo://app?vid=dbc12823-8428-4fdf-9cdf-6bc4f4bc55e0"},"vehicle_type_id":"4","last_reported":1747362987,"current_range_meters":18000,"station_id":"ce4bh092rcd13ifvqd20","pricing_plan_id":"cebpf4jnsgd1na2vs0mg"},{"bike_id":"5652591d-51c5-4a58-9a1c-2cdb471c6539","system_id":"levelo_inurba_marseille","lat":43.304411,"lon":5.388936,"is_reserved":false,"is_disabled":false,"rental_uris":{"android":"levelo://app?vid=5652591d-51c5-4a58-9a1c-2cdb471c6539","ios":"levelo://app?vid=5652591d-51c5-4a58-9a1c-2cdb471c6539"},"vehicle_type_id":"4","last_reported":1747362987,"current_range_meters":18000,"station_id":"ce4bgk12rcd13ifvqbi0","pricing_plan_id":"cebpf4jnsgd1na2vs0mg"},{"bike_id":"852ea9ac-6507-488a-87c5-b27d54b34b2e","system_id":"levelo_inurba_marseille","lat":43.28149,"lon":5.426436,"is_reserved":false,"is_disabled":false,"rental_uris":{"android":"levelo://app?vid=852ea9ac-6507-488a-87c5-b27d54b34b2e","ios":"levelo://app?vid=852ea9ac-6507-488a-87c5-b27d54b34b2e"},"vehicle_type_id":"4","last_reported":1747362987,"current_range_meters":18800,"station_id":"ce4bhnh2rcd13ifvqgug","pricing_plan_id":"cebpf4jnsgd1na2vs0mg"},{"bike_id":"eba9eff7-5697-4a77-b4ce-93f47f9fd3a9","system_id":"levelo_inurba_marseille","lat":43.262205,"lon":5.404605,"is_reserved":false,"is_disabled":false,"rental_uris":{"android":"levelo://app?vid=eba9eff7-5697-4a77-b4ce-93f47f9fd3a9","ios":"levelo://app?vid=eba9eff7-5697-4a77-b4ce-93f47f9fd3a9"},"vehicle_type_id":"4","last_reported":1747362987,"current_range_meters":18800,"station_id":"ce4bhmh2rcd13ifvqgmg","pricing_plan_id":"cebpf4jnsgd1na2vs0mg"},{"bike_id":"0b024457-9163-476e-8e28-42011b1ade8c","system_id":"levelo_inurba_marseille","lat":43.326563,"lon":5.40989,"is_reserved":false,"is_disabled":false,"rental_uris":{"android":"levelo://app?vid=0b024457-9163-476e-8e28-42011b1ade8c","ios":"levelo://app?vid=0b024457-9163-476e-8e28-42011b1ade8c"},"vehicle_type_id":"4","last_reported":1747362987,"current_range_meters":18800,"station_id":"ce4bhpp2rcd13ifvqhgg","pricing_plan_id":"cebpf4jnsgd1na2vs0mg"},{"bike_id":"54b6cc67-0c9d-4b65-954d-cdb836f0a3ae","system_id":"levelo_inurba_marseille","lat":43.313274,"lon":5.396926,"is_reserved":false,"is_disabled":false,"rental_uris":{"android":"levelo://app?vid=54b6cc67-0c9d-4b65-954d-cdb836f0a3ae","ios":"levelo://app?vid=54b6cc67-0c9d-4b65-954d-cdb836f0a3ae"},"vehicle_type_id":"4","last_reported":1747362987,"current_range_meters":18800,"station_id":"ce4bgvp2rcd13ifvqcu0","pricing_plan_id":"cebpf4jnsgd1na2vs0mg"},{"bike_id":"d854ef9e-7846-4ce1-8a0b-020b8f8fc3d4","system_id":"levelo_inurba_marseille","lat":43.310718,"lon":5.383523,"is_reserved":false,"is_disabled":false,"rental_uris":{"android":"levelo://app?vid=d854ef9e-7846-4ce1-8a0b-020b8f8fc3d4","ios":"levelo://app?vid=d854ef9e-7846-4ce1-8a0b-020b8f8fc3d4"},"vehicle_type_id":"4","last_reported":1747362987,"current_range_meters":18800,"station_id":"ce4bgv92rcd13ifvqcr0","pricing_plan_id":"cebpf4jnsgd1na2vs0mg"},{"bike_id":"61f7c650-f1c2-4a45-9d42-3ba6320a1a99","system_id":"levelo_inurba_marseille","lat":43.279203,"lon":5.39576,"is_reserved":false,"is_disabled":true,"rental_uris":{"android":"levelo://app?vid=61f7c650-f1c2-4a45-9d42-3ba6320a1a99","ios":"levelo://app?vid=61f7c650-f1c2-4a45-9d42-3ba6320a1a99"},"vehicle_type_id":"4","last_reported":1747362987,"current_range_meters":19200,"station_id":"ce4bhf92rcd13ifvqf40","pricing_plan_id":"cebpf4jnsgd1na2vs0mg"},{"bike_id":"007f087c-c3f7-4b0d-bcc0-1d9d45e1ec16","system_id":"levelo_inurba_marseille","lat":43.23582,"lon":5.40362,"is_reserved":false,"is_disabled":false,"rental_uris":{"android":"levelo://app?vid=007f087c-c3f7-4b0d-bcc0-1d9d45e1ec16","ios":"levelo://app?vid=007f087c-c3f7-4b0d-bcc0-1d9d45e1ec16"},"vehicle_type_id":"4","last_reported":1747362987,"current_range_meters":19200,"station_id":"","pricing_plan_id":"cebpf4jnsgd1na2vs0mg"},{"bike_id":"8d722355-96cb-403c-b6c6-81f5208deb33","system_id":"levelo_inurba_marseille","lat":43.285735,"lon":5.394942,"is_reserved":false,"is_disabled":false,"rental_uris":{"android":"levelo://app?vid=8d722355-96cb-403c-b6c6-81f5208deb33","ios":"levelo://app?vid=8d722355-96cb-403c-b6c6-81f5208deb33"},