{"last_updated":1736496764,"ttl":60,"version":"2.2","data":{"bikes":[{"bike_id":"6ba3023b-e160-451a-a11e-7a2f288a6f7b","system_id":"levelo_inurba_marseille","lat":43.30281,"lon":5.37698,"is_reserved":false,"is_disabled":false,"rental_uris":{"android":"levelo://app?vid=6ba3023b-e160-451a-a11e-7a2f288a6f7b","ios":"levelo://app?vid=6ba3023b-e160-451a-a11e-7a2f288a6f7b"},"vehicle_type_id":"4","last_reported":1736496764,"current_range_meters":6000,"station_id":"ce4bguh2rcd13ifvqcj0","pricing_plan_id":"cebpf4jnsgd1na2vs0mg"},{"bike_id":"b1d526b2-fd99-49c8-9834-2443cece1e71","system_id":"levelo_inurba_marseille","lat":43.32549,"lon":5.41457,"is_reserved":false,"is_disabled":false,"rental_uris":{"android":"levelo://app?vid=b1d526b2-fd99-49c8-9834-2443cece1e71","ios":"levelo://app?vid=b1d526b2-fd99-49c8-9834-2443cece1e71"},"vehicle_type_id":"4","last_reported":1736496764,"current_range_meters":20000,"station_id":"ce4bhq12rcd13ifvqhhg","pricing_plan_id":"cebpf4jnsgd1na2vs0mg"},{"bike_id":"08c3061d-9748-41a9-a3ad-a860e966d4d9","system_id":"levelo_inurba_marseille","lat":43.33601,"lon":5.40997,"is_reserved":false,"is_disabled":true,"rental_uris":{"android":"levelo://app?vid=08c3061d-9748-41a9-a3ad-a860e966d4d9","ios":"levelo://app?vid=08c3061d-9748-41a9-a3ad-a860e966d4d9"},"vehicle_type_id":"4","last_reported":1736496764,"current_range_meters":38800,"station_id":"ce4bhqh2rcd13ifvqhmg","pricing_plan_id":"cebpf4jnsgd1na2vs0mg"},{"bike_id":"b53c3124-7959-4680-a5ae-1578651ce1ae","system_id":"levelo_inurba_marseille","lat":43.321063,"lon":5.367703,"is_reserved":false,"is_disabled":true,"rental_uris":{"android":"levelo://app?vid=b53c3124-7959-4680-a5ae-1578651ce1ae","ios":"levelo://app?vid=b53c3124-7959-4680-a5ae-1578651ce1ae"},"vehicle_type_id":"4","last_reported":1736496764,"current_range_meters":38800,"station_id":"ce4bhrh2rcd13ifvqhug","pricing_plan_id":"cebpf4jnsgd1na2vs0mg"},{"bike_id":"87c59741-1f05-4e3d-8c14-38f01f8816a9","system_id":"levelo_inurba_marseille","lat":43.23194,"lon":5.35549,"is_reserved":false,"is_disabled":false,"rental_uris":{"android":"levelo://app?vid=87c59741-1f05-4e3d-8c14-38f01f8816a9","ios":"levelo://app?vid=87c59741-1f05-4e3d-8c14-38f01f8816a9"},"vehicle_type_id":"4","last_reported":1736496764,"current_range_meters":11200,"station_id":"ce4bhu92rcd13ifvqi70","pricing_plan_id":"cebpf4jnsgd1na2vs0mg"},{"bike_id":"22613087-86e1-49a8-9f93-924f14b3bf2b","system_id":"levelo_inurba_marseille","lat":43.32048,"lon":5.41554,"is_reserved":false,"is_disabled":false,"rental_uris":{"android":"levelo://app?vid=22613087-86e1-49a8-9f93-924f14b3bf2b","ios":"levelo://app?vid=22613087-86e1-49a8-9f93-924f14b3bf2b"},"vehicle_type_id":"4","last_reported":1736496764,"current_range_meters":35200,"station_id":"ce4bhq92rcd13ifvqhkg","pricing_plan_id":"cebpf4jnsgd1na2vs0mg"},{"bike_id":"495e27a0-c1c8-4354-9e13-0520accd293e","system_id":"levelo_inurba_marseille","lat":43.30887,"lon":5.39651,"is_reserved":false,"is_disabled":false,"rental_uris":{"android":"levelo://app?vid=495e27a0-c1c8-4354-9e13-0520accd293e","ios":"levelo://app?vid=495e27a0-c1c8-4354-9e13-0520accd293e"},"vehicle_type_id":"4","last_reported":1736496764,"current_range_meters":19600,"station_id":"ce4bh012rcd13ifvqcv0","pricing_plan_id":"cebpf4jnsgd1na2vs0mg"},{"bike_id":"6369c140-3323-465a-a3e4-b9f4b2637437","system_id":"levelo_inurba_marseille","lat":43.25916,"lon":5.40892,"is_reserved":false,"is_disabled":false,"rental_uris":{"android":"levelo://app?vid=6369c140-3323-465a-a3e4-b9f4b2637437","ios":"levelo://app?vid=6369c140-3323-465a-a3e4-b9f4b2637437"},"vehicle_type_id":"4","last_reported":1736496764,"current_range_meters":30800,"station_id":"ce4bhm92rcd13ifvqglg","pricing_plan_id":"cebpf4jnsgd1na2vs0mg"},{"bike_id":"afb718d5-7872-4a14-a7c2-32d8aa426d2d","system_id":"levelo_inurba_marseille","lat":43.29043,"lon":5.39945,"is_reserved":false,"is_disabled":false,"rental_uris":{"android":"levelo://app?vid=afb718d5-7872-4a14-a7c2-32d8aa426d2d","ios":"levelo://app?vid=afb718d5-7872-4a14-a7c2-32d8aa426d2d"},"vehicle_type_id":"4","last_reported":1736496764,"current_range_meters":36000,"station_id":"ce4bh392rcd13ifvqdm0","pricing_plan_id":"cebpf4jnsgd1na2vs0mg"},{"bike_id":"6727a1a4-fd3a-4415-a389-697df82e67ba","system_id":"levelo_inurba_marseille","lat":43.27977,"lon":5.41677,"is_reserved":false,"is_disabled":true,"rental_uris":{"android":"levelo://app?vid=6727a1a4-fd3a-4415-a389-697df82e67ba","ios":"levelo://app?vid=6727a1a4-fd3a-4415-a389-697df82e67ba"},"vehicle_type_id":"4","last_reported":1736496764,"current_range_meters":24800,"station_id":"ce4bho12rcd13ifvqh1g","pricing_plan_id":"cebpf4jnsgd1na2vs0mg"},{"bike_id":"cc31367b-3625-4ae2-9534-f66aae460308","system_id":"levelo_inurba_marseille","lat":43.24076,"lon":5.37745,"is_reserved":false,"is_disabled":false,"rental_uris":{"android":"levelo://app?vid=cc31367b-3625-4ae2-9534-f66aae460308","ios":"levelo://app?vid=cc31367b-3625-4ae2-9534-f66aae460308"},"vehicle_type_id":"4","last_reported":1736496764,"current_range_meters":5600,"station_id":"ce4bhnp2rcd13ifvqgvg","pricing_plan_id":"cebpf4jnsgd1na2vs0mg"},{"bike_id":"7df73f52-8199-4a3f-b0e9-424d028349bf","system_id":"levelo_inurba_marseille","lat":43.3137,"lon":5.36726,"is_reserved":false,"is_disabled":false,"rental_uris":{"android":"levelo://app?vid=7df73f52-8199-4a3f-b0e9-424d028349bf","ios":"levelo://app?vid=7df73f52-8199-4a3f-b0e9-424d028349bf"},"vehicle_type_id":"4","last_reported":1736496764,"current_range_meters":39200,"station_id":"ce4bgr92rcd13ifvqc6g","pricing_plan_id":"cebpf4jnsgd1na2vs0mg"},{"bike_id":"dd421c88-cc90-4449-ac55-3429c9341691","system_id":"levelo_inurba_marseille","lat":43.28697,"lon":5.39984,"is_reserved":false,"is_disabled":false,"rental_uris":{"android":"levelo://app?vid=dd421c88-cc90-4449-ac55-3429c9341691","ios":"levelo://app?vid=dd421c88-cc90-4449-ac55-3429c9341691"},"vehicle_type_id":"4","last_reported":1736496764,"current_range_meters":25600,"station_id":"ce4bho92rcd13ifvqh3g","pricing_plan_id":"cebpf4jnsgd1na2vs0mg"},{"bike_id":"0545e156-ef09-4ac6-ad67-04baadd28fa9","system_id":"levelo_inurba_marseille","lat":43.2908,"lon":5.37174,"is_reserved":false,"is_disabled":false,"rental_uris":{"android":"levelo://app?vid=0545e156-ef09-4ac6-ad67-04baadd28fa9","ios":"levelo://app?vid=0545e156-ef09-4ac6-ad67-04baadd28fa9"},"vehicle_type_id":"4","last_reported":1736496764,"current_range_meters":20000,"station_id":"ce4bh5p2rcd13ifvqe4g","pricing_plan_id":"cebpf4jnsgd1na2vs0mg"},{"bike_id":"ece82557-6569-4215-9027-5b44a37fe52e","system_id":"levelo_inurba_marseille","lat":43.29069,"lon":5.37961,"is_reserved":false,"is_disabled":true,"rental_uris":{"android":"levelo://app?vid=ece82557-6569-4215-9027-5b44a37fe52e","ios":"levelo://app?vid=ece82557-6569-4215-9027-5b44a37fe52e"},"vehicle_type_id":"4","last_reported":1736496764,"current_range_meters":0,"station_id":"","pricing_plan_id":"cebpf4jnsgd1na2vs0mg"},{"bike_id":"6130d0da-5762-4067-85fd-57e700bd6018","system_id":"levelo_inurba_marseille","lat":43.31892,"lon":5.40719,"is_reserved":false,"is_disabled":false,"rental_uris":{"android":"levelo://app?vid=6130d0da-5762-4067-85fd-57e700bd6018","ios":"levelo://app?vid=6130d0da-5762-4067-85fd-57e700bd6018"},"vehicle_type_id":"4","last_reported":1736496764,"current_range_meters":30400,"station_id":"ce4bhq12rcd13ifvqhig","pricing_plan_id":"cebpf4jnsgd1na2vs0mg"},{"bike_id":"977d354c-6379-4f84-914f-6ff8717c00ed","system_id":"levelo_inurba_marseille","lat":43.29598,"lon":5.38103,"is_reserved":false,"is_disabled":false,"rental_uris":{"android":"levelo://app?vid=977d354c-6379-4f84-914f-6ff8717c00ed","ios":"levelo://app?vid=977d354c-6379-4f84-914f-6ff8717c00ed"},"vehicle_type_id":"4","last_reported":1736496764,"current_range_meters":33200,"station_id":"ce4bgl12rcd13ifvqbo0","pricing_plan_id":"cebpf4jnsgd1na2vs0mg"},{"bike_id":"c360d990-dcc5-4611-9114-4b1e79e3aa74","system_id":"levelo_inurba_marseille","lat":43.30554,"lon":5.36507,"is_reserved":false,"is_disabled":false,"rental_uris":{"android":"levelo://app?vid=c360d990-dcc5-4611-9114-4b1e79e3aa74","ios":"levelo://app?vid=c360d990-dcc5-4611-9114-4b1e79e3aa74"},"vehicle_type_id":"4","last_reported":1736496764,"current_range_meters":37600,"station_id":"ce4bgs12rcd13ifvqcag","pricing_plan_id":"cebpf4jnsgd1na2vs0mg"},{"bike_id":"0cf38007-2c23-4b91-914b-33859bf6f7a7","system_id":"levelo_inurba_marseille","lat":43.27417,"lon":5.39415,"is_reserved":false,"is_disabled":false,"rental_uris":{"android":"levelo://app?vid=0cf38007-2c23-4b91-914b-33859bf6f7a7","ios":"levelo://app?vid=0cf38007-2c23-4b91-914b-33859bf6f7a7"},"vehicle_type_id":"4","last_reported":1736496764,"current_range_meters":36400,"station_id":"ce4bhdp2rcd13ifvqf20","pricing_plan_id":"cebpf4jnsgd1na2vs0mg"},{"bike_id":"fc0017d1-a5c2-49f3-b71e-f11ac03acfc8","system_id":"levelo_inurba_marseille","lat":43.3087,"lon":5.39632,"is_reserved":false,"is_disabled":false,"rental_uris":{"android":"levelo://app?vid=fc0017d1-a5c2-49f3-b71e-f11ac03acfc8","ios":"levelo://app?vid=fc0017d1-a5c2-49f3-b71e-f11ac03acfc8"},"vehicle_type_id":"4","last_reported":1736496764,"current_range_meters":6400,"station_id":"ce4bh012rcd13ifvqcv0","pricing_plan_id":"cebpf4jnsgd1na2vs0mg"},{"bike_id":"04745ce5-c863-4d05-a4b1-70a293af40c0","system_id":"levelo_inurba_marseille","lat":43.30823,"lon":5.3742,"is_reserved":false,"is_disabled":false,"rental_uris":{"android":"levelo://app?vid=04745ce5-c863-4d05-a4b1-70a293af40c0","ios":"levelo://app?vid=04745ce5-c863-4d05-a4b1-70a293af40c0"},"vehicle_type_id":"4","last_reported":1736496764,"current_range_meters":10800,"station_id":"","pricing_plan_id":"cebpf4jnsgd1na2vs0mg"},{"bike_id":"b5d13eb4-41de-422c-9a48-b438cf019f5b","system_id":"levelo_inurba_marseille","lat":43.30779,"lon":5.39207,"is_reserved":false,"is_disabled":true,"rental_uris":{"android":"levelo://app?vid=b5d13eb4-41de-422c-9a48-b438cf019f5b","ios":"levelo://app?vid=b5d13eb4-41de-422c-9a48-b438cf019f5b"},"vehicle_type_id":"4","last_reported":1736496764,"current_range_meters":1600,"station_id":"","pricing_plan_id":"cebpf4jnsgd1na2vs0mg"},{"bike_id":"004c2ac5-7f25-4e48-8a80-9a02537f6ba6","system_id":"levelo_inurba_marseille","lat":43.32109,"lon":5.36761,"is_reserved":false,"is_disabled":false,"rental_uris":{"android":"levelo://app?vid=004c2ac5-7f25-4e48-8a80-9a02537f6ba6","ios":"levelo://app?vid=004c2ac5-7f25-4e48-8a80-9a02537f6ba6"},"vehicle_type_id":"4","last_reported":1736496764,"current_range_meters":36400,"station_id":"ce4bhrh2rcd13ifvqhug","pricing_plan_id":"cebpf4jnsgd1na2vs0mg"},{"bike_id":"1d7eed34-26a7-4525-a746-95fc01d85a12","system_id":"levelo_inurba_marseille","lat":43.26943,"lon":5.38642,"is_reserved":false,"is_disabled":false,"rental_uris":{"android":"levelo://app?vid=1d7eed34-26a7-4525-a746-95fc01d85a12","ios":"levelo://app?vid=1d7eed34-26a7-4525-a746-95fc01d85a12"},"vehicle_type_id":"4","last_reported":1736496764,"current_range_meters":38000,"station_id":"ce4bhh92rcd13ifvqfh0","pricing_plan_id":"cebpf4jnsgd1na2vs0mg"},{"bike_id":"49d154ab-b066-4a04-b00a-22a27742a39e","system_id":"levelo_inurba_marseille","lat":43.24168,"lon":5.39743,"is_reserved":false,"is_disabled":false,"rental_uris":{"android":"levelo://app?vid=49d154ab-b066-4a04-b00a-22a27742a39e","ios":"levelo://app?vid=49d154ab-b066-4a04-b00a-22a27742a39e"},"vehicle_type_id":"4","last_reported":1736496764,"current_range_meters":39200,"station_id":"ce4bhn12rcd13ifvqgpg","pricing_plan_id":"cebpf4jnsgd1na2vs0mg"},{"bike_id":"45e218f0-88fd-424a-ab4e-c7a9e1cd4ae7","system_id":"levelo_inurba_marseille","lat":43.286553,"lon":5.36331,"is_reserved":false,"is_disabled":false,"rental_uris":{"android":"levelo://app?vid=45e218f0-88fd-424a-ab4e-c7a9e1cd4ae7","ios":"levelo://app?vid=45e218f0-88fd-424a-ab4e-c7a9e1cd4ae7"},"vehicle_type_id":"4","last_reported":1736496764,"current_range_meters":30400,"station_id":"ce4bhah2rcd13ifvqej0","pricing_plan_id":"cebpf4jnsgd1na2vs0mg"},{"bike_id":"533bc63a-db50-4c62-9b68-283781947748","system_id":"levelo_inurba_marseille","lat":43.28458,"lon":5.359,"is_reserved":false,"is_disabled":false,"rental_uris":{"android":"levelo://app?vid=533bc63a-db50-4c62-9b68-283781947748","ios":"levelo://app?vid=533bc63a-db50-4c62-9b68-283781947748"},"vehicle_type_id":"4","last_reported":1736496764,"current_range_meters":4800,"station_id":"ce4bhah2rcd13ifvqei0","pricing_plan_id":"cebpf4jnsgd1na2vs0mg"},{"bike_id":"8a0df70f-3b60-4510-bdf9-1eb41a2abb80","system_id":"levelo_inurba_marseille","lat":43.33613,"lon":5.41,"is_reserved":false,"is_disabled":false,"rental_uris":{"android":"levelo://app?vid=8a0df70f-3b60-4510-bdf9-1eb41a2abb80","ios":"levelo://app?vid=8a0df70f-3b60-4510-bdf9-1eb41a2abb80"},"vehicle_type_id":"4","last_reported":1736496764,"current_range_meters":38000,"station_id":"ce4bhqh2rcd13ifvqhmg","pricing_plan_id":"cebpf4jnsgd1na2vs0mg"},{"bike_id":"dff344b0-dfb0-4b54-8781-d1e2a440f582","system_id":"levelo_inurba_marseille","lat":43.33613,"lon":5.40984,"is_reserved":false,"is_disabled":false,"rental_uris":{"android":"levelo://app?vid=dff344b0-dfb0-4b54-8781-d1e2a440f582","ios":"levelo://app?vid=dff344b0-dfb0-4b54-8781-d1e2a440f582"},"vehicle_type_id":"4","last_reported":1736496764,"current_range_meters":25600,"station_id":"ce4bhqh2rcd13ifvqhmg","pricing_plan_id":"cebpf4jnsgd1na2vs0mg"},{"bike_id":"e1d410c6-22be-4056-903b-af42d8b54faa","system_id":"levelo_inurba_marseille","lat":43.24998,"lon":5.38921,"is_reserved":false,"is_disabled":false,"rental_uris":{"android":"levelo://app?vid=e1d410c6-22be-4056-903b-af42d8b54faa","ios":"levelo://app?vid=e1d410c6-22be-4056-903b-af42d8b54faa"},"vehicle_type_id":"4","last_reported":1736496764,"current_range_meters":26000,"station_id":"ce4bhgp2rcd13ifvqfd0","pricing_plan_id":"cebpf4jnsgd1na2vs0mg"},{"bike_id":"a05149ba-2329-47dd-8d6f-ddf95775e6c7","system_id":"levelo_inurba_marseille","lat":43.29195,"lon":5.35795,"is_reserved":false,"is_disabled":true,"rental_uris":{"android":"levelo://app?vid=a05149ba-2329-47dd-8d6f-ddf95775e6c7","ios":"levelo://app?vid=a05149ba-2329-47dd-8d6f-ddf95775e6c7"},"vehicle_type_id":"4","last_reported":1736496764,"current_range_meters":38000,"station_id":"ce4bhb12rcd13ifvqel0","pricing_plan_id":"cebpf4jnsgd1na2vs0mg"},{"bike_id":"01eb461a-cee0-4c1b-a46e-5caeaa77ac9a","system_id":"levelo_inurba_marseille","lat":43.27983,"lon":5.41669,"is_reserved":false,"is_disabled":true,"rental_uris":{"android":"levelo://app?vid=01eb461a-cee0-4c1b-a46e-5caeaa77ac9a","ios":"levelo://app?vid=01eb461a-cee0-4c1b-a46e-5caeaa77ac9a"},"vehicle_type_id":"4","last_reported":1736496764,"current_range_meters":36800,"station_id":"ce4bho12rcd13ifvqh1g","pricing_plan_id":"cebpf4jnsgd1na2vs0mg"},{"bike_id":"678ecc6a-68b8-4782-ab6d-14117fed5936","system_id":"levelo_inurba_marseille","lat":43.28675,"lon":5.38683,"is_reserved":false,"is_disabled":false,"rental_uris":{"android":"levelo://app?vid=678ecc6a-68b8-4782-ab6d-14117fed5936","ios":"levelo://app?vid=678ecc6a-68b8-4782-ab6d-14117fed5936"},"vehicle_type_id":"4","last_reported":1736496764,"current_range_meters":18800,"station_id":"ce4bgn92rcd13ifvqbvg","pricing_plan_id":"cebpf4jnsgd1na2vs0mg"},{"bike_id":"9d5535df-7edb-47f9-ac14-54793dd626e0","system_id":"levelo_inurba_marseille","lat":43.22937,"lon":5.35367,"is_reserved":false,"is_disabled":false,"rental_uris":{"android":"levelo://app?vid=9d5535df-7edb-47f9-ac14-54793dd626e0","ios":"levelo://app?vid=9d5535df-7edb-47f9-ac14-54793dd626e0"},"vehicle_type_id":"4","last_reported":1736496764,"current_range_meters":25600,"station_id":"cpo3532slgdg3j2ikp40","pricing_plan_id":"cebpf4jnsgd1na2vs0mg"},{"bike_id":"0617fde0-97c2-4716-8570-25581d6a6543","system_id":"levelo_inurba_marseille","lat":43.27492,"lon":5.42461,"is_reserved":false,"is_disabled":false,"rental_uris":{"android":"levelo://app?vid=0617fde0-97c2-4716-8570-25581d6a6543","ios":"levelo://app?vid=0617fde0-97c2-4716-8570-25581d6a6543"},"vehicle_type_id":"4","last_reported":1736496764,"current_range_meters":38800,"station_id":"ce4bhn92rcd13ifvqgrg","pricing_plan_id":"cebpf4jnsgd1na2vs0mg"},{"bike_id":"02ffdc5e-6136-429f-9f96-83cfa7660711","system_id":"levelo_inurba_marseille","lat":43.29179,"lon":5.35818,"is_reserved":false,"is_disabled":false,"rental_uris":{"android":"levelo://app?vid=02ffdc5e-6136-429f-9f96-83cfa7660711","ios":"levelo://app?vid=02ffdc5e-6136-429f-9f96-83cfa7660711"},"vehicle_type_id":"4","last_reported":1736496764,"current_range_meters":14400,"station_id":"ce4bhb12rcd13ifvqel0","pricing_plan_id":"cebpf4jnsgd1na2vs0mg"},{"bike_id":"4be089f8-ecbd-4211-9beb-7e89f10524a8","system_id":"levelo_inurba_marseille","lat":43.297846,"lon":5.381098,"is_reserved":false,"is_disabled":false,"rental_uris":{"android":"levelo://app?vid=4be089f8-ecbd-4211-9beb-7e89f10524a8","ios":"levelo://app?vid=4be089f8-ecbd-4211-9beb-7e89f10524a8"},"vehicle_type_id":"4","last_reported":1736496764,"current_range_meters":8000,"station_id":"ce4bgip2rcd13ifvqbb0","pricing_plan_id":"cebpf4jnsgd1na2vs0mg"},{"bike_id":"d8bac2ef-8be8-4228-a077-ac9ccb738de3","system_id":"levelo_inurba_marseille","lat":43.30594,"lon":5.3936,"is_reserved":false,"is_disabled":false,"rental_uris":{"android":"levelo://app?vid=d8bac2ef-8be8-4228-a077-ac9ccb738de3","ios":"levelo://app?vid=d8bac2ef-8be8-4228-a077-ac9ccb738de3"},"vehicle_type_id":"4","last_reported":1736496764,"current_range_meters":35600,"station_id":"ce4bh0p2rcd13ifvqd80","pricing_plan_id":"cebpf4jnsgd1na2vs0mg"},{"bike_id":"584a1406-b996-4bcf-9561-a734ba7423ac","system_id":"levelo_inurba_marseille","lat":43.30597,"lon":5.39343,"is_reserved":false,"is_disabled":false,"rental_uris":{"android":"levelo://app?vid=584a1406-b996-4bcf-9561-a734ba7423ac","ios":"levelo://app?vid=584a1406-b996-4bcf-9561-a734ba7423ac"},"vehicle_type_id":"4","last_reported":1736496764,"current_range_meters":23200,"station_id":"ce4bh0p2rcd13ifvqd80","pricing_plan_id":"cebpf4jnsgd1na2vs0mg"},{"bike_id":"c6b699bc-7dbc-4db9-bcd4-adcc1854b939","system_id":"levelo_inurba_marseille","lat":43.30535,"lon":5.36716,"is_reserved":false,"is_disabled":false,"rental_uris":{"android":"levelo://app?vid=c6b699bc-7dbc-4db9-bcd4-adcc1854b939","ios":"levelo://app?vid=c6b699bc-7dbc-4db9-bcd4-adcc1854b939"},"vehicle_type_id":"4","last_reported":1736496764,"current_range_meters":35600,"station_id":"ce4bgrp2rcd13ifvqc9g","pricing_plan_id":"cebpf4jnsgd1na2vs0mg"},{"bike_id":"dbe4d7d2-95f9-4a28-b000-f9ac7c3f52eb","system_id":"levelo_inurba_marseille","lat":43.29185,"lon":5.39321,"is_reserved":false,"is_disabled":true,"rental_uris":{"android":"levelo://app?vid=dbe4d7d2-95f9-4a28-b000-f9ac7c3f52eb","ios":"levelo://app?vid=dbe4d7d2-95f9-4a28-b000-f9ac7c3f52eb"},"vehicle_type_id":"4","last_reported":1736496764,"current_range_meters":0,"station_id":"ce4bh192rcd13ifvqdd0","pricing_plan_id":"cebpf4jnsgd1na2vs0mg"},{"bike_id":"799d8d22-6ee9-471c-a20a-092b0fe3473f","system_id":"levelo_inurba_marseille","lat":43.2904,"lon":5.39959,"is_reserved":false,"is_disabled":false,"rental_uris":{"android":"levelo://app?vid=799d8d22-6ee9-471c-a20a-092b0fe3473f","ios":"levelo://app?vid=799d8d22-6ee9-471c-a20a-092b0fe3473f"},"vehicle_type_id":"4","last_reported":1736496764,"current_range_meters":26800,"station_id":"ce4bh392rcd13ifvqdm0","pricing_plan_id":"cebpf4jnsgd1na2vs0mg"},{"bike_id":"2dc66654-3021-43ef-bbb3-3e8b62333eb6","system_id":"levelo_inurba_marseille","lat":43.296,"lon":5.40623,"is_reserved":false,"is_disabled":true,"rental_uris":{"android":"levelo://app?vid=2dc66654-3021-43ef-bbb3-3e8b62333eb6","ios":"levelo://app?vid=2dc66654-3021-43ef-bbb3-3e8b62333eb6"},"vehicle_type_id":"4","last_reported":1736496764,"current_range_meters":0,"station_id":"","pricing_plan_id":"cebpf4jnsgd1na2vs0mg"},{"bike_id":"ba934327-f06a-4136-9118-297313cf32de","system_id":"levelo_inurba_marseille","lat":43.30521,"lon":5.39884,"is_reserved":false,"is_disabled":false,"rental_uris":{"android":"levelo://app?vid=ba934327-f06a-4136-9118-297313cf32de","ios":"levelo://app?vid=ba934327-f06a-4136-9118-297313cf32de"},"vehicle_type_id":"4","last_reported":1736496764,"current_range_meters":22800,"station_id":"","pricing_plan_id":"cebpf4jnsgd1na2vs0mg"},{"bike_id":"89e50c5b-d589-4e92-acc7-729a00809e13","system_id":"levelo_inurba_marseille","lat":43.30132,"lon":5.37417,"is_reserved":false,"is_disabled":false,"rental_uris":{"android":"levelo://app?vid=89e50c5b-d589-4e92-acc7-729a00809e13","ios":"levelo://app?vid=89e50c5b-d589-4e92-acc7-729a00809e13"},"vehicle_type_id":"4","last_reported":1736496764,"current_range_meters":28400,"station_id":"ce4bgs92rcd13ifvqcc0","pricing_plan_id":"cebpf4jnsgd1na2vs0mg"},{"bike_id":"159aaf1c-63cd-4e19-9746-2cd772ea40a2","system_id":"levelo_inurba_marseille","lat":43.29914,"lon":5.3747,"is_reserved":false,"is_disabled":false,"rental_uris":{"android":"levelo://app?vid=159aaf1c-63cd-4e19-9746-2cd772ea40a2","ios":"levelo://app?vid=159aaf1c-63cd-4e19-9746-2cd772ea40a2"},"vehicle_type_id":"4","last_reported":1736496764,"current_range_meters":33200,"station_id":"ce4bgjh2rcd13ifvqbg0","pricing_plan_id":"cebpf4jnsgd1na2vs0mg"},{"bike_id":"6d907632-b7a4-409f-98d5-031bae93ab87","system_id":"levelo_inurba_marseille","lat":43.239566,"lon":5.366349,"is_reserved":false,"is_disabled":false,"rental_uris":{"android":"levelo://app?vid=6d907632-b7a4-409f-98d5-031bae93ab87","ios":"levelo://app?vid=6d907632-b7a4-409f-98d5-031bae93ab87"},"vehicle_type_id":"4","last_reported":1736496764,"current_range_meters":8400,"station_id":"ce4bhi12rcd13ifvqfp0","pricing_plan_id":"cebpf4jnsgd1na2vs0mg"},{"bike_id":"168d3300-3ab5-4f6d-8373-dfdf5d1f123f","system_id":"levelo_inurba_marseille","lat":43.2893,"lon":5.3641,"is_reserved":false,"is_disabled":true,"rental_uris":{"android":"levelo://app?vid=168d3300-3ab5-4f6d-8373-dfdf5d1f123f","ios":"levelo://app?vid=168d3300-3ab5-4f6d-8373-dfdf5d1f123f"},"vehicle_type_id":"4","last_reported":1736496764,"current_range_meters":17200,"station_id":"ce4bhc92rcd13ifvqetg","pricing_plan_id":"cebpf4jnsgd1na2vs0mg"},{"bike_id":"a83eb06c-df38-42e7-91d1-36fdbc816855","system_id":"levelo_inurba_marseille","lat":43.30488,"lon":5.37907,"is_reserved":false,"is_disabled":false,"rental_uris":{"android":"levelo://app?vid=a83eb06c-df38-42e7-91d1-36fdbc816855","ios":"levelo://app?vid=a83eb06c-df38-42e7-91d1-36fdbc816855"},"vehicle_type_id":"4","last_reported":1736496764,"current_range_meters":35600,"station_id":"ce4bgup2rcd13ifvqcn0","pricing_plan_id":"cebpf4jnsgd1na2vs0mg"},{"bike_id":"723ecdfd-ec11-4544-a21b-4b0b18fff10c","system_id":"levelo_inurba_marseille","lat":43.24073,"lon":5.37752,"is_reserved":false,"is_disabled":false,"rental_uris":{"android":"levelo://app?vid=723ecdfd-ec11-4544-a21b-4b0b18fff10c","ios":"levelo://app?vid=723ecdfd-ec11-4544-a21b-4b0b18fff10c"},"vehicle_type_id":"4","last_reported":1736496764,"current_range_meters":30400,"station_id":"ce4bhnp2rcd13ifvqgvg","pricing_plan_id":"cebpf4jnsgd1na2vs0mg"},{"bike_id":"1c4af67f-8fa5-48f1-8a74-50fb1828db9d","system_id":"levelo_inurba_marseille","lat":43.24159,"lon":5.39708,"is_reserved":false,"is_disabled":false,"rental_uris":{"android":"levelo://app?vid=1c4af67f-8fa5-48f1-8a74-50fb1828db9d","ios":"levelo://app?vid=1c4af67f-8fa5-48f1-8a74-50fb1828db9d"},"vehicle_type_id":"4","last_reported":1736496764,"current_range_meters":34800,"station_id":"ce4bhn12rcd13ifvqgpg","pricing_plan_id":"cebpf4jnsgd1na2vs0mg"},{"bike_id":"b7349972-0b13-497f-91f6-6865ff7be1ea","system_id":"levelo_inurba_marseille","lat":43.28471,"lon":5.38427,"is_reserved":false,"is_disabled":true,"rental_uris":{"android":"levelo://app?vid=b7349972-0b13-497f-91f6-6865ff7be1ea","ios":"levelo://app?vid=b7349972-0b13-497f-91f6-6865ff7be1ea"},"vehicle_type_id":"4","last_reported":1736496764,"current_range_meters":36800,"station_id":"ce4bh512rcd13ifvqe3g","pricing_plan_id":"cebpf4jnsgd1na2vs0mg"},{"bike_id":"dafa00c8-aa63-4e9a-b090-bc223ab75b71","system_id":"levelo_inurba_marseille","lat":43.25923,"lon":5.40918,"is_reserved":false,"is_disabled":false,"rental_uris":{"android":"levelo://app?vid=dafa00c8-aa63-4e9a-b090-bc223ab75b71","ios":"levelo://app?vid=dafa00c8-aa63-4e9a-b090-bc223ab75b71"},"vehicle_type_id":"4","last_reported":1736496764,"current_range_meters":9200,"station_id":"ce4bhm92rcd13ifvqglg","pricing_plan_id":"cebpf4jnsgd1na2vs0mg"},{"bike_id":"530a0c23-abb9-4f85-9e84-b5f6f2cd2fb6","system_id":"levelo_inurba_marseille","lat":43.24067,"lon":5.37758,"is_reserved":false,"is_disabled":false,"rental_uris":{"android":"levelo://app?vid=530a0c23-abb9-4f85-9e84-b5f6f2cd2fb6","ios":"levelo://app?vid=530a0c23-abb9-4f85-9e84-b5f6f2cd2fb6"},"vehicle_type_id":"4","last_reported":1736496764,"current_range_meters":12400,"station_id":"ce4bhnp2rcd13ifvqgvg","pricing_plan_id":"cebpf4jnsgd1na2vs0mg"},{"bike_id":"db464d9c-bb44-42ac-bd09-4c22fe8aeaae","system_id":"levelo_inurba_marseille","lat":43.28935,"lon":5.3639,"is_reserved":false,"is_disabled":false,"rental_uris":{"android":"levelo://app?vid=db464d9c-bb44-42ac-bd09-4c22fe8aeaae","ios":"levelo://app?vid=db464d9c-bb44-42ac-bd09-4c22fe8aeaae"},"vehicle_type_id":"4","last_reported":1736496764,"current_range_meters":8400,"station_id":"ce4bhc92rcd13ifvqetg","pricing_plan_id":"cebpf4jnsgd1na2vs0mg"},{"bike_id":"26d838ae-5da1-4f74-b5ee-25f099428486","system_id":"levelo_inurba_marseille","lat":43.23185,"lon":5.39981,"is_reserved":false,"is_disabled":false,"rental_uris":{"android":"levelo://app?vid=26d838ae-5da1-4f74-b5ee-25f099428486","ios":"levelo://app?vid=26d838ae-5da1-4f74-b5ee-25f099428486"},"vehicle_type_id":"4","last_reported":1736496764,"current_range_meters":39200,"station_id":"ce4bhn12rcd13ifvqgqg","pricing_plan_id":"cebpf4jnsgd1na2vs0mg"},{"bike_id":"1b4587cd-457c-43a2-92e0-249106938ab1","system_id":"levelo_inurba_marseille","lat":43.26197,"lon":5.37922,"is_reserved":false,"is_disabled":false,"rental_uris":{"android":"levelo://app?vid=1b4587cd-457c-43a2-92e0-249106938ab1","ios":"levelo://app?vid=1b4587cd-457c-43a2-92e0-249106938ab1"},"vehicle_type_id":"4","last_reported":1736496764,"current_range_meters":26000,"station_id":"ce4bhjp2rcd13ifvqg90","pricing_plan_id":"cebpf4jnsgd1na2vs0mg"},{"bike_id":"c6f45082-4f52-43c4-af86-c1fa309fdcc4","system_id":"levelo_inurba_marseille","lat":43.28712,"lon":5.37953,"is_reserved":false,"is_disabled":false,"rental_uris":{"android":"levelo://app?vid=c6f45082-4f52-43c4-af86-c1fa309fdcc4","ios":"levelo://app?vid=c6f45082-4f52-43c4-af86-c1fa309fdcc4"},"vehicle_type_id":"4","last_reported":1736496764,"current_range_meters":38000,"station_id":"ce4bh9p2rcd13ifvqec0","pricing_plan_id":"cebpf4jnsgd1na2vs0mg"},{"bike_id":"2b69ae68-a872-4b80-8916-5b42a92893c8","system_id":"levelo_inurba_marseille","lat":43.29024,"lon":5.37553,"is_reserved":false,"is_disabled":true,"rental_uris":{"android":"levelo://app?vid=2b69ae68-a872-4b80-8916-5b42a92893c8","ios":"levelo://app?vid=2b69ae68-a872-4b80-8916-5b42a92893c8"},"vehicle_type_id":"4","last_reported":1736496764,"current_range_meters":37600,"station_id":"ce4bh692rcd13ifvqe90","pricing_plan_id":"cebpf4jnsgd1na2vs0mg"},{"bike_id":"426ee80e-06b0-4d0f-86a5-ea8ad64aaa11","system_id":"levelo_inurba_marseille","lat":43.2892,"lon":5.43794,"is_reserved":false,"is_disabled":false,"rental_uris":{"android":"levelo://app?vid=426ee80e-06b0-4d0f-86a5-ea8ad64aaa11","ios":"levelo://app?vid=426ee80e-06b0-4d0f-86a5-ea8ad64aaa11"},"vehicle_type_id":"4","last_reported":1736496764,"current_range_meters":22800,"station_id":"","pricing_plan_id":"cebpf4jnsgd1na2vs0mg"},{"bike_id":"d3d06299-8188-4708-962a-74ee86887ea9","system_id":"levelo_inurba_marseille","lat":43.2985,"lon":5.3628,"is_reserved":false,"is_disabled":false,"rental_uris":{"android":"levelo://app?vid=d3d06299-8188-4708-962a-74ee86887ea9","ios":"levelo://app?vid=d3d06299-8188-4708-962a-74ee86887ea9"},"vehicle_type_id":"4","last_reported":1736496764,"current_range_meters":38800,"station_id":"ce4bgpp2rcd13ifvqc3g","pricing_plan_id":"cebpf4jnsgd1na2vs0mg"},{"bike_id":"dd09464b-fe43-4093-9a53-c76c5a13fb7a","system_id":"levelo_inurba_marseille","lat":43.30945,"lon":5.39029,"is_reserved":false,"is_disabled":false,"rental_uris":{"android":"levelo://app?vid=dd09464b-fe43-4093-9a53-c76c5a13fb7a","ios":"levelo://app?vid=dd09464b-fe43-4093-9a53-c76c5a13fb7a"},"vehicle_type_id":"4","last_reported":1736496764,"current_range_meters":11200,"station_id":"ce4bgup2rcd13ifvqco0","pricing_plan_id":"cebpf4jnsgd1na2vs0mg"},{"bike_id":"f5ca1267-8796-4e04-ae34-eb0613d65667","system_id":"levelo_inurba_marseille","lat":43.29597,"lon":5.37726,"is_reserved":false,"is_disabled":true,"rental_uris":{"android":"levelo://app?vid=f5ca1267-8796-4e04-ae34-eb0613d65667","ios":"levelo://app?vid=f5ca1267-8796-4e04-ae34-eb0613d65667"},"vehicle_type_id":"4","last_reported":1736496764,"current_range_meters":16000,"station_id":"ce4bgi92rcd13ifvqb90","pricing_plan_id":"cebpf4jnsgd1na2vs0mg"},{"bike_id":"d0f76416-28d4-47d3-8578-496ee2780c97","system_id":"levelo_inurba_marseille","lat":43.30936,"lon":5.39059,"is_reserved":false,"is_disabled":false,"rental_uris":{"android":"levelo://app?vid=d0f76416-28d4-47d3-8578-496ee2780c97","ios":"levelo://app?vid=d0f76416-28d4-47d3-8578-496ee2780c97"},"vehicle_type_id":"4","last_reported":1736496764,"current_range_meters":10800,"station_id":"ce4bgup2rcd13ifvqco0","pricing_plan_id":"cebpf4jnsgd1na2vs0mg"},{"bike_id":"168a3c87-cfb4-4c6f-9bdb-cc436a31976f","system_id":"levelo_inurba_marseille","lat":43.27954,"lon":5.38697,"is_reserved":false,"is_disabled":false,"rental_uris":{"android":"levelo://app?vid=168a3c87-cfb4-4c6f-9bdb-cc436a31976f","ios":"levelo://app?vid=168a3c87-cfb4-4c6f-9bdb-cc436a31976f"},"vehicle_type_id":"4","last_reported":1736496764,"current_range_meters":38800,"station_id":"ce4bhg12rcd13ifvqf80","pricing_plan_id":"cebpf4jnsgd1na2vs0mg"},{"bike_id":"3bdfcce7-7876-47ca-903e-7ecd52c14ace","system_id":"levelo_inurba_marseille","lat":43.29034,"lon":5.39961,"is_reserved":false,"is_disabled":false,"rental_uris":{"android":"levelo://app?vid=3bdfcce7-7876-47ca-903e-7ecd52c14ace","ios":"levelo://app?vid=3bdfcce7-7876-47ca-903e-7ecd52c14ace"},"vehicle_type_id":"4","last_reported":1736496764,"current_range_meters":38800,"station_id":"ce4bh392rcd13ifvqdm0","pricing_plan_id":"cebpf4jnsgd1na2vs0mg"},{"bike_id":"0224d198-8f68-449e-af8f-320da499ea5f","system_id":"levelo_inurba_marseille","lat":43.30947,"lon":5.39029,"is_reserved":false,"is_disabled":false,"rental_uris":{"android":"levelo://app?vid=0224d198-8f68-449e-af8f-320da499ea5f","ios":"levelo://app?vid=0224d198-8f68-449e-af8f-320da499ea5f"},"vehicle_type_id":"4","last_reported":1736496764,"current_range_meters":3600,"station_id":"ce4bgup2rcd13ifvqco0","pricing_plan_id":"cebpf4jnsgd1na2vs0mg"},{"bike_id":"4272e674-6d62-4687-a51a-9db1aaa238e6","system_id":"levelo_inurba_marseille","lat":43.28363,"lon":5.38628,"is_reserved":false,"is_disabled":false,"rental_uris":{"android":"levelo://app?vid=4272e674-6d62-4687-a51a-9db1aaa238e6","ios":"levelo://app?vid=4272e674-6d62-4687-a51a-9db1aaa238e6"},"vehicle_type_id":"4","last_reported":1736496764,"current_range_meters":12400,"station_id":"ce4bh492rcd13ifvqdvg","pricing_plan_id":"cebpf4jnsgd1na2vs0mg"},{"bike_id":"4b38882c-ba9d-4741-88fd-5a0cd2a690f7","system_id":"levelo_inurba_marseille","lat":43.28446,"lon":5.39188,"is_reserved":false,"is_disabled":true,"rental_uris":{"android":"levelo://app?vid=4b38882c-ba9d-4741-88fd-5a0cd2a690f7","ios":"levelo://app?vid=4b38882c-ba9d-4741-88fd-5a0cd2a690f7"},"vehicle_type_id":"4","last_reported":1736496764,"current_range_meters":9200,"station_id":"ce4bhoh2rcd13ifvqh5g","pricing_plan_id":"cebpf4jnsgd1na2vs0mg"},{"bike_id":"a8c7ad2f-4ead-4783-9594-954940a5e54a","system_id":"levelo_inurba_marseille","lat":43.30472,"lon":5.37894,"is_reserved":false,"is_disabled":false,"rental_uris":{"android":"levelo://app?vid=a8c7ad2f-4ead-4783-9594-954940a5e54a","ios":"levelo://app?vid=a8c7ad2f-4ead-4783-9594-954940a5e54a"},"vehicle_type_id":"4","last_reported":1736496764,"current_range_meters":28400,"station_id":"ce4bgup2rcd13ifvqcn0","pricing_plan_id":"cebpf4jnsgd1na2vs0mg"},{"bike_id":"e51b2d29-f6fd-4ba7-80e0-f85ab68cc69e","system_id":"levelo_inurba_marseille","lat":43.27073,"lon":5.42304,"is_reserved":false,"is_disabled":false,"rental_uris":{"android":"levelo://app?vid=e51b2d29-f6fd-4ba7-80e0-f85ab68cc69e","ios":"levelo://app?vid=e51b2d29-f6fd-4ba7-80e0-f85ab68cc69e"},"vehicle_type_id":"4","last_reported":1736496764,"current_range_meters":39200,"station_id":"ce4bhk92rcd13ifvqgb0","pricing_plan_id":"cebpf4jnsgd1na2vs0mg"},{"bike_id":"c603c76e-af9c-449d-bf09-0700cc0eea19","system_id":"levelo_inurba_marseille","lat":43.29566,"lon":5.39966,"is_reserved":false,"is_disabled":true,"rental_uris":{"android":"levelo://app?vid=c603c76e-af9c-449d-bf09-0700cc0eea19","ios":"levelo://app?vid=c603c76e-af9c-449d-bf09-0700cc0eea19"},"vehicle_type_id":"4","last_reported":1736496764,"current_range_meters":30800,"station_id":"ce4bh312rcd13ifvqdj0","pricing_plan_id":"cebpf4jnsgd1na2vs0mg"},{"bike_id":"60cef3e6-efb8-4af9-bda0-2b05ca770c04","system_id":"levelo_inurba_marseille","lat":43.30592,"lon":5.39352,"is_reserved":false,"is_disabled":false,"rental_uris":{"android":"levelo://app?vid=60cef3e6-efb8-4af9-bda0-2b05ca770c04","ios":"levelo://app?vid=60cef3e6-efb8-4af9-bda0-2b05ca770c04"},"vehicle_type_id":"4","last_reported":1736496764,"current_range_meters":39200,"station_id":"ce4bh0p2rcd13ifvqd80","pricing_plan_id":"cebpf4jnsgd1na2vs0mg"},{"bike_id":"2c9f87a8-522f-432b-ba2f-20b0bd1c694f","system_id":"levelo_inurba_marseille","lat":43.309057,"lon":5.368558,"is_reserved":false,"is_disabled":false,"rental_uris":{"android":"levelo://app?vid=2c9f87a8-522f-432b-ba2f-20b0bd1c694f","ios":"levelo://app?vid=2c9f87a8-522f-432b-ba2f-20b0bd1c694f"},"vehicle_type_id":"4","last_reported":1736496764,"current_range_meters":39200,"station_id":"ce4bgn92rcd13ifvqbvg","pricing_plan_id":"cebpf4jnsgd1na2vs0mg"},{"bike_id":"e318d08d-f558-4db8-aac3-636bd0473228","system_id":"levelo_inurba_marseille","lat":43.27321,"lon":5.39073,"is_reserved":false,"is_disabled":false,"rental_uris":{"android":"levelo://app?vid=e318d08d-f558-4db8-aac3-636bd0473228","ios":"levelo://app?vid=e318d08d-f558-4db8-aac3-636bd0473228"},"vehicle_type_id":"4","last_reported":1736496764,"current_range_meters":19200,"station_id":"ce4bhgp2rcd13ifvqfe0","pricing_plan_id":"cebpf4jnsgd1na2vs0mg"},{"bike_id":"d1dfdd5b-7c77-4eb7-b4b4-c8880890dbb4","system_id":"levelo_inurba_marseille","lat":43.33604,"lon":5.4101,"is_reserved":false,"is_disabled":false,"rental_uris":{"android":"levelo://app?vid=d1dfdd5b-7c77-4eb7-b4b4-c8880890dbb4","ios":"levelo://app?vid=d1dfdd5b-7c77-4eb7-b4b4-c8880890dbb4"},"vehicle_type_id":"4","last_reported":1736496764,"current_range_meters":19600,"station_id":"ce4bhqh2rcd13ifvqhmg","pricing_plan_id":"cebpf4jnsgd1na2vs0mg"},{"bike_id":"40d56fd5-44d8-437a-8241-71ee621b0f70","system_id":"levelo_inurba_marseille","lat":43.31527,"lon":5.38025,"is_reserved":false,"is_disabled":false,"rental_uris":{"android":"levelo://app?vid=40d56fd5-44d8-437a-8241-71ee621b0f70","ios":"levelo://app?vid=40d56fd5-44d8-437a-8241-71ee621b0f70"},"vehicle_type_id":"4","last_reported":1736496764,"current_range_meters":39200,"station_id":"ce4bhsp2rcd13ifvqi50","pricing_plan_id":"cebpf4jnsgd1na2vs0mg"},{"bike_id":"6d0e52d5-171f-4142-95ad-661bb82f8fd1","system_id":"levelo_inurba_marseille","lat":43.26558,"lon":5.37288,"is_reserved":false,"is_disabled":false,"rental_uris":{"android":"levelo://app?vid=6d0e52d5-171f-4142-95ad-661bb82f8fd1","ios":"levelo://app?vid=6d0e52d5-171f-4142-95ad-661bb82f8fd1"},"vehicle_type_id":"4","last_reported":1736496764,"current_range_meters":30000,"station_id":"ce4bhg12rcd13ifvqf70","pricing_plan_id":"cebpf4jnsgd1na2vs0mg"},{"bike_id":"ab8c3cac-e770-43bf-af7c-a639635f95f0","system_id":"levelo_inurba_marseille","lat":43.24074,"lon":5.37767,"is_reserved":false,"is_disabled":false,"rental_uris":{"android":"levelo://app?vid=ab8c3cac-e770-43bf-af7c-a639635f95f0","ios":"levelo://app?vid=ab8c3cac-e770-43bf-af7c-a639635f95f0"},"vehicle_type_id":"4","last_reported":1736496764,"current_range_meters":6800,"station_id":"ce4bhnp2rcd13ifvqgvg","pricing_plan_id":"cebpf4jnsgd1na2vs0mg"},{"bike_id":"d3e3137c-b817-431e-b9e2-d48abf244e86","system_id":"levelo_inurba_marseille","lat":43.24069,"lon":5.37758,"is_reserved":false,"is_disabled":false,"rental_uris":{"android":"levelo://app?vid=d3e3137c-b817-431e-b9e2-d48abf244e86","ios":"levelo://app?vid=d3e3137c-b817-431e-b9e2-d48abf244e86"},"vehicle_type_id":"4","last_reported":1736496764,"current_range_meters":38800,"station_id":"ce4bhnp2rcd13ifvqgvg","pricing_plan_id":"cebpf4jnsgd1na2vs0mg"},{"bike_id":"6c16b955-c13c-49a6-a5bb-29559922d02c","system_id":"levelo_inurba_marseille","lat":43.23957,"lon":5.36627,"is_reserved":false,"is_disabled":false,"rental_uris":{"android":"levelo://app?vid=6c16b955-c13c-49a6-a5bb-29559922d02c","ios":"levelo://app?vid=6c16b955-c13c-49a6-a5bb-29559922d02c"},"vehicle_type_id":"4","last_reported":1736496764,"current_range_meters":26000,"station_id":"ce4bhi12rcd13ifvqfp0","pricing_plan_id":"cebpf4jnsgd1na2vs0mg"},{"bike_id":"e5b661c0-5639-40a4-90a1-dcef1f99f698","system_id":"levelo_inurba_marseille","lat":43.30461,"lon":5.37891,"is_reserved":false,"is_disabled":false,"rental_uris":{"android":"levelo://app?vid=e5b661c0-5639-40a4-90a1-dcef1f99f698","ios":"levelo://app?vid=e5b661c0-5639-40a4-90a1-dcef1f99f698"},"vehicle_type_id":"4","last_reported":1736496764,"current_range_meters":34800,"station_id":"ce4bgup2rcd13ifvqcn0","pricing_plan_id":"cebpf4jnsgd1na2vs0mg"},{"bike_id":"94052e9b-49c4-459c-9316-e8473b330b5b","system_id":"levelo_inurba_marseille","lat":43.29878,"lon":5.38908,"is_reserved":false,"is_disabled":true,"rental_uris":{"android":"levelo://app?vid=94052e9b-49c4-459c-9316-e8473b330b5b","ios":"levelo://app?vid=94052e9b-49c4-459c-9316-e8473b330b5b"},"vehicle_type_id":"4","last_reported":1736496764,"current_range_meters":38800,"station_id":"ce4bh392rcd13ifvqdl0","pricing_plan_id":"cebpf4jnsgd1na2vs0mg"},{"bike_id":"dd95b172-24fd-4056-9bb1-1ba37d74b460","system_id":"levelo_inurba_marseille","lat":43.255827,"lon":5.382313,"is_reserved":false,"is_disabled":false,"rental_uris":{"android":"levelo://app?vid=dd95b172-24fd-4056-9bb1-1ba37d74b460","ios":"levelo://app?vid=dd95b172-24fd-4056-9bb1-1ba37d74b460"},"vehicle_type_id":"4","last_reported":1736496764,"current_range_meters":16800,"station_id":"ce4bhih2rcd13ifvqfs0","pricing_plan_id":"cebpf4jnsgd1na2vs0mg"},{"bike_id":"12323eec-1433-4883-aa92-3c35327b329a","system_id":"levelo_inurba_marseille","lat":43.2469,"lon":5.38117,"is_reserved":false,"is_disabled":false,"rental_uris":{"android":"levelo://app?vid=12323eec-1433-4883-aa92-3c35327b329a","ios":"levelo://app?vid=12323eec-1433-4883-aa92-3c35327b329a"},"vehicle_type_id":"4","last_reported":1736496764,"current_range_meters":38800,"station_id":"ce4bhih2rcd13ifvqfr0","pricing_plan_id":"cebpf4jnsgd1na2vs0mg"},{"bike_id":"1310b0a7-2d92-48eb-8ea3-50e68c13d411","system_id":"levelo_inurba_marseille","lat":43.30277,"lon":5.37704,"is_reserved":false,"is_disabled":false,"rental_uris":{"android":"levelo://app?vid=1310b0a7-2d92-48eb-8ea3-50e68c13d411","ios":"levelo://app?vid=1310b0a7-2d92-48eb-8ea3-50e68c13d411"},"vehicle_type_id":"4","last_reported":1736496764,"current_range_meters":30800,"station_id":"ce4bguh2rcd13ifvqcj0","pricing_plan_id":"cebpf4jnsgd1na2vs0mg"},{"bike_id":"be3ae253-6974-4f4d-853e-db7f7747be20","system_id":"levelo_inurba_marseille","lat":43.25313,"lon":5.40216,"is_reserved":false,"is_disabled":false,"rental_uris":{"android":"levelo://app?vid=be3ae253-6974-4f4d-853e-db7f7747be20","ios":"levelo://app?vid=be3ae253-6974-4f4d-853e-db7f7747be20"},"vehicle_type_id":"4","last_reported":1736496764,"current_range_meters":6400,"station_id":"","pricing_plan_id":"cebpf4jnsgd1na2vs0mg"},{"bike_id":"7437d4a8-be52-4a7e-ae40-a6077fad1b67","system_id":"levelo_inurba_marseille","lat":43.26489,"lon":5.39565,"is_reserved":false,"is_disabled":false,"rental_uris":{"android":"levelo://app?vid=7437d4a8-be52-4a7e-ae40-a6077fad1b67","ios":"levelo://app?vid=7437d4a8-be52-4a7e-ae40-a6077fad1b67"},"vehicle_type_id":"4","last_reported":1736496764,"current_range_meters":39200,"station_id":"ce4bhi12rcd13ifvqfq0","pricing_plan_id":"cebpf4jnsgd1na2vs0mg"},{"bike_id":"a5590201-951a-4aa2-bb1e-08dba774e466","system_id":"levelo_inurba_marseille","lat":43.25826,"lon":5.39446,"is_reserved":false,"is_disabled":false,"rental_uris":{"android":"levelo://app?vid=a5590201-951a-4aa2-bb1e-08dba774e466","ios":"levelo://app?vid=a5590201-951a-4aa2-bb1e-08dba774e466"},"vehicle_type_id":"4","last_reported":1736496764,"current_range_meters":38800,"station_id":"ce4bhip2rcd13ifvqft0","pricing_plan_id":"cebpf4jnsgd1na2vs0mg"},{"bike_id":"c6c08f57-1b2b-4d53-aabf-26763484169b","system_id":"levelo_inurba_marseille","lat":43.265601,"lon":5.390183,"is_reserved":false,"is_disabled":true,"rental_uris":{"android":"levelo://app?vid=c6c08f57-1b2b-4d53-aabf-26763484169b","ios":"levelo://app?vid=c6c08f57-1b2b-4d53-aabf-26763484169b"},"vehicle_type_id":"4","last_reported":1736496764,"current_range_meters":0,"station_id":"ce4bhe12rcd13ifvqf30","pricing_plan_id":"cebpf4jnsgd1na2vs0mg"},{"bike_id":"4128a329-9f92-4942-845a-f8bcda68ed73","system_id":"levelo_inurba_marseille","lat":43.301453,"lon":5.380923,"is_reserved":false,"is_disabled":false,"rental_uris":{"android":"levelo://app?vid=4128a329-9f92-4942-845a-f8bcda68ed73","ios":"levelo://app?vid=4128a329-9f92-4942-845a-f8bcda68ed73"},"vehicle_type_id":"4","last_reported":1736496764,"current_range_meters":32800,"station_id":"ce4bgjp2rcd13ifvqbh0","pricing_plan_id":"cebpf4jnsgd1na2vs0mg"},{"bike_id":"ad64b3e1-d612-44ad-a1b7-774c6e91dd3d","system_id":"levelo_inurba_marseille","lat":43.29534,"lon":5.38538,"is_reserved":false,"is_disabled":false,"rental_uris":{"android":"levelo://app?vid=ad64b3e1-d612-44ad-a1b7-774c6e91dd3d","ios":"levelo://app?vid=ad64b3e1-d612-44ad-a1b7-774c6e91dd3d"},"vehicle_type_id":"4","last_reported":1736496764,"current_range_meters":7200,"station_id":"ce4bgih2rcd13ifvqba0","pricing_plan_id":"cebpf4jnsgd1na2vs0mg"},{"bike_id":"dbd5d091-8ed1-45ba-b2ae-cdff1391734d","system_id":"levelo_inurba_marseille","lat":43.28436,"lon":5.39182,"is_reserved":false,"is_disabled":false,"rental_uris":{"android":"levelo://app?vid=dbd5d091-8ed1-45ba-b2ae-cdff1391734d","ios":"levelo://app?vid=dbd5d091-8ed1-45ba-b2ae-cdff1391734d"},"vehicle_type_id":"4","last_reported":1736496764,"current_range_meters":38800,"station_id":"ce4bhoh2rcd13ifvqh5g","pricing_plan_id":"cebpf4jnsgd1na2vs0mg"},{"bike_id":"db2bb327-84ca-49b3-a980-9c69d6ef41a2","system_id":"levelo_inurba_marseille","lat":43.23191,"lon":5.35559,"is_reserved":false,"is_disabled":false,"rental_uris":{"android":"levelo://app?vid=db2bb327-84ca-49b3-a980-9c69d6ef41a2","ios":"levelo://app?vid=db2bb327-84ca-49b3-a980-9c69d6ef41a2"},"vehicle_type_id":"4","last_reported":1736496764,"current_range_meters":38400,"station_id":"ce4bhu92rcd13ifvqi70","pricing_plan_id":"cebpf4jnsgd1na2vs0mg"},{"bike_id":"b1cd05bd-cc6d-452b-8b8c-f24ee7fb627f","system_id":"levelo_inurba_marseille","lat":43.25828,"lon":5.39427,"is_reserved":false,"is_disabled":false,"rental_uris":{"android":"levelo://app?vid=b1cd05bd-cc6d-452b-8b8c-f24ee7fb627f","ios":"levelo://app?vid=b1cd05bd-cc6d-452b-8b8c-f24ee7fb627f"},"vehicle_type_id":"4","last_reported":1736496764,"current_range_meters":37600,"station_id":"ce4bhip2rcd13ifvqft0","pricing_plan_id":"cebpf4jnsgd1na2vs0mg"},{"bike_id":"0efc64bf-284f-4e33-b1df-0d37f1b904ea","system_id":"levelo_inurba_marseille","lat":43.336043,"lon":5.410298,"is_reserved":false,"is_disabled":false,"rental_uris":{"android":"levelo://app?vid=0efc64bf-284f-4e33-b1df-0d37f1b904ea","ios":"levelo://app?vid=0efc64bf-284f-4e33-b1df-0d37f1b904ea"},"vehicle_type_id":"4","last_reported":1736496764,"current_range_meters":38800,"station_id":"ce4bhqh2rcd13ifvqhmg","pricing_plan_id":"cebpf4jnsgd1na2vs0mg"},{"bike_id":"9d27d288-9638-4ffa-a41f-98c9e72676c0","system_id":"levelo_inurba_marseille","lat":43.23185,"lon":5.35561,"is_reserved":false,"is_disabled":false,"rental_uris":{"android":"levelo://app?vid=9d27d288-9638-4ffa-a41f-98c9e72676c0","ios":"levelo://app?vid=9d27d288-9638-4ffa-a41f-98c9e72676c0"},"vehicle_type_id":"4","last_reported":1736496764,"current_range_meters":9200,"station_id":"ce4bhu92rcd13ifvqi70","pricing_plan_id":"cebpf4jnsgd1na2vs0mg"},{"bike_id":"5aee579e-4d1a-4cdd-b13b-286ee35e83d9","system_id":"levelo_inurba_marseille","lat":43.25923,"lon":5.40911,"is_reserved":false,"is_disabled":false,"rental_uris":{"android":"levelo://app?vid=5aee579e-4d1a-4cdd-b13b-286ee35e83d9","ios":"levelo://app?vid=5aee579e-4d1a-4cdd-b13b-286ee35e83d9"},"vehicle_type_id":"4","last_reported":1736496764,"current_range_meters":36800,"station_id":"ce4bhm92rcd13ifvqglg","pricing_plan_id":"cebpf4jnsgd1na2vs0mg"},{"bike_id":"d7c65588-4135-45ba-a72e-ee6776949c5a","system_id":"levelo_inurba_marseille","lat":43.29971,"lon":5.38491,"is_reserved":false,"is_disabled":true,"rental_uris":{"android":"levelo://app?vid=d7c65588-4135-45ba-a72e-ee6776949c5a","ios":"levelo://app?vid=d7c65588-4135-45ba-a72e-ee6776949c5a"},"vehicle_type_id":"4","last_reported":1736496764,"current_range_meters":27600,"station_id":"ce4bgj92rcd13ifvqbd0","pricing_plan_id":"cebpf4jnsgd1na2vs0mg"},{"bike_id":"fb45c6e7-ff45-4403-8cff-232e4a53204c","system_id":"levelo_inurba_marseille","lat":43.29278,"lon":5.40118,"is_reserved":false,"is_disabled":false,"rental_uris":{"android":"levelo://app?vid=fb45c6e7-ff45-4403-8cff-232e4a53204c","ios":"levelo://app?vid=fb45c6e7-ff45-4403-8cff-232e4a53204c"},"vehicle_type_id":"4","last_reported":1736496764,"current_range_meters":19600,"station_id":"ce4bh312rcd13ifvqdk0","pricing_plan_id":"cebpf4jnsgd1na2vs0mg"},{"bike_id":"b24a073e-63c1-461d-aa08-46f6e3daf579","system_id":"levelo_inurba_marseille","lat":43.24808,"lon":5.37458,"is_reserved":false,"is_disabled":false,"rental_uris":{"android":"levelo://app?vid=b24a073e-63c1-461d-aa08-46f6e3daf579","ios":"levelo://app?vid=b24a073e-63c1-461d-aa08-46f6e3daf579"},"vehicle_type_id":"4","last_reported":1736496764,"current_range_meters":34000,"station_id":"ce4bhgh2rcd13ifvqfb0","pricing_plan_id":"cebpf4jnsgd1na2vs0mg"},{"bike_id":"a023b9e2-2413-4b3d-a218-b9727e7097b5","system_id":"levelo_inurba_marseille","lat":43.292991,"lon":5.374633,"is_reserved":false,"is_disabled":true,"rental_uris":{"android":"levelo://app?vid=a023b9e2-2413-4b3d-a218-b9727e7097b5","ios":"levelo://app?vid=a023b9e2-2413-4b3d-a218-b9727e7097b5"},"vehicle_type_id":"4","last_reported":1736496764,"current_range_meters":26000,"station_id":"ce4bgi12rcd13ifvqb70","pricing_plan_id":"cebpf4jnsgd1na2vs0mg"},{"bike_id":"2c56569d-ff0b-4284-ba64-74611e7006a4","system_id":"levelo_inurba_marseille","lat":43.24996,"lon":5.3893,"is_reserved":false,"is_disabled":false,"rental_uris":{"android":"levelo://app?vid=2c56569d-ff0b-4284-ba64-74611e7006a4","ios":"levelo://app?vid=2c56569d-ff0b-4284-ba64-74611e7006a4"},"vehicle_type_id":"4","last_reported":1736496764,"current_range_meters":20400,"station_id":"ce4bhgp2rcd13ifvqfd0","pricing_plan_id":"cebpf4jnsgd1na2vs0mg"},{"bike_id":"acc80463-ea4a-43a5-a627-1d743de3348f","system_id":"levelo_inurba_marseille","lat":43.30603,"lon":5.39355,"is_reserved":false,"is_disabled":false,"rental_uris":{"android":"levelo://app?vid=acc80463-ea4a-43a5-a627-1d743de3348f","ios":"levelo://app?vid=acc80463-ea4a-43a5-a627-1d743de3348f"},"vehicle_type_id":"4","last_reported":1736496764,"current_range_meters":27200,"station_id":"ce4bh0p2rcd13ifvqd80","pricing_plan_id":"cebpf4jnsgd1na2vs0mg"},{"bike_id":"6db24be0-87cf-4437-9d32-a18bcf76ec30","system_id":"levelo_inurba_marseille","lat":43.28721,"lon":5.37934,"is_reserved":false,"is_disabled":false,"rental_uris":{"android":"levelo://app?vid=6db24be0-87cf-4437-9d32-a18bcf76ec30","ios":"levelo://app?vid=6db24be0-87cf-4437-9d32-a18bcf76ec30"},"vehicle_type_id":"4","last_reported":1736496764,"current_range_meters":16800,"station_id":"ce4bh9p2rcd13ifvqec0","pricing_plan_id":"cebpf4jnsgd1na2vs0mg"},{"bike_id":"45916835-983b-455c-9865-3f21f46b155f","system_id":"levelo_inurba_marseille","lat":43.31355,"lon":5.38482,"is_reserved":false,"is_disabled":false,"rental_uris":{"android":"levelo://app?vid=45916835-983b-455c-9865-3f21f46b155f","ios":"levelo://app?vid=45916835-983b-455c-9865-3f21f46b155f"},"vehicle_type_id":"4","last_reported":1736496764,"current_range_meters":29600,"station_id":"ce4bgt92rcd13ifvqcf0","pricing_plan_id":"cebpf4jnsgd1na2vs0mg"},{"bike_id":"9ed1c0a7-5035-4dde-954f-378a0451f32a","system_id":"levelo_inurba_marseille","lat":43.23962,"lon":5.36628,"is_reserved":false,"is_disabled":true,"rental_uris":{"android":"levelo://app?vid=9ed1c0a7-5035-4dde-954f-378a0451f32a","ios":"levelo://app?vid=9ed1c0a7-5035-4dde-954f-378a0451f32a"},"vehicle_type_id":"4","last_reported":1736496764,"current_range_meters":1600,"station_id":"ce4bhi12rcd13ifvqfp0","pricing_plan_id":"cebpf4jnsgd1na2vs0mg"},{"bike_id":"5e52071d-7890-4e3f-bbd9-fed138027d4b","system_id":"levelo_inurba_marseille","lat":43.29873,"lon":5.3891,"is_reserved":false,"is_disabled":true,"rental_uris":{"android":"levelo://app?vid=5e52071d-7890-4e3f-bbd9-fed138027d4b","ios":"levelo://app?vid=5e52071d-7890-4e3f-bbd9-fed138027d4b"},"vehicle_type_id":"4","last_reported":1736496764,"current_range_meters":38400,"station_id":"ce4bh392rcd13ifvqdl0","pricing_plan_id":"cebpf4jnsgd1na2vs0mg"},{"bike_id":"0a153024-f69a-4c58-8fc8-2506f6a399c0","system_id":"levelo_inurba_marseille","lat":43.2408,"lon":5.37752,"is_reserved":false,"is_disabled":false,"rental_uris":{"android":"levelo://app?vid=0a153024-f69a-4c58-8fc8-2506f6a399c0","ios":"levelo://app?vid=0a153024-f69a-4c58-8fc8-2506f6a399c0"},"vehicle_type_id":"4","last_reported":1736496764,"current_range_meters":3600,"station_id":"ce4bhnp2rcd13ifvqgvg","pricing_plan_id":"cebpf4jnsgd1na2vs0mg"},{"bike_id":"1f04e43e-ad27-41d8-af08-5001240149b3","system_id":"levelo_inurba_marseille","lat":43.30198,"lon":5.39465,"is_reserved":false,"is_disabled":true,"rental_uris":{"android":"levelo://app?vid=1f04e43e-ad27-41d8-af08-5001240149b3","ios":"levelo://app?vid=1f04e43e-ad27-41d8-af08-5001240149b3"},"vehicle_type_id":"4","last_reported":1736496764,"current_range_meters":400,"station_id":"ce4bh0p2rcd13ifvqd70","pricing_plan_id":"cebpf4jnsgd1na2vs0mg"},{"bike_id":"185e258a-94ee-4bc0-a518-8b2443039ff9","system_id":"levelo_inurba_marseille","lat":43.32545,"lon":5.41461,"is_reserved":false,"is_disabled":false,"rental_uris":{"android":"levelo://app?vid=185e258a-94ee-4bc0-a518-8b2443039ff9","ios":"levelo://app?vid=185e258a-94ee-4bc0-a518-8b2443039ff9"},"vehicle_type_id":"4","last_reported":1736496764,"current_range_meters":8400,"station_id":"ce4bhq12rcd13ifvqhhg","pricing_plan_id":"cebpf4jnsgd1na2vs0mg"},{"bike_id":"86b31217-0fff-477f-ad51-62a89cd7c0dd","system_id":"levelo_inurba_marseille","lat":43.24069,"lon":5.3775,"is_reserved":false,"is_disabled":false,"rental_uris":{"android":"levelo://app?vid=86b31217-0fff-477f-ad51-62a89cd7c0dd","ios":"levelo://app?vid=86b31217-0fff-477f-ad51-62a89cd7c0dd"},"vehicle_type_id":"4","last_reported":1736496764,"current_range_meters":9600,"station_id":"ce4bhnp2rcd13ifvqgvg","pricing_plan_id":"cebpf4jnsgd1na2vs0mg"},{"bike_id":"ae31c4ca-fc83-4247-81f3-602310c21da3","system_id":"levelo_inurba_marseille","lat":43.28609,"lon":5.37059,"is_reserved":false,"is_disabled":false,"rental_uris":{"android":"levelo://app?vid=ae31c4ca-fc83-4247-81f3-602310c21da3","ios":"levelo://app?vid=ae31c4ca-fc83-4247-81f3-602310c21da3"},"vehicle_type_id":"4","last_reported":1736496764,"current_range_meters":22400,"station_id":"ce4bht12rcd13ifvqi60","pricing_plan_id":"cebpf4jnsgd1na2vs0mg"},{"bike_id":"42f80fe0-86fa-4580-b212-cc05dc66ee8c","system_id":"levelo_inurba_marseille","lat":43.33601,"lon":5.41013,"is_reserved":false,"is_disabled":false,"rental_uris":{"android":"levelo://app?vid=42f80fe0-86fa-4580-b212-cc05dc66ee8c","ios":"levelo://app?vid=42f80fe0-86fa-4580-b212-cc05dc66ee8c"},"vehicle_type_id":"4","last_reported":1736496764,"current_range_meters":24800,"station_id":"ce4bhqh2rcd13ifvqhmg","pricing_plan_id":"cebpf4jnsgd1na2vs0mg"},{"bike_id":"44b07927-b2e4-4cc3-97dc-96a3158e8234","system_id":"levelo_inurba_marseille","lat":43.29215,"lon":5.36077,"is_reserved":false,"is_disabled":false,"rental_uris":{"android":"levelo://app?vid=44b07927-b2e4-4cc3-97dc-96a3158e8234","ios":"levelo://app?vid=44b07927-b2e4-4cc3-97dc-96a3158e8234"},"vehicle_type_id":"4","last_reported":1736496764,"current_range_meters":33200,"station_id":"ce4bhbh2rcd13ifvqeqg","pricing_plan_id":"cebpf4jnsgd1na2vs0mg"},{"bike_id":"62a46132-e4b6-4443-b911-decf42c04838","system_id":"levelo_inurba_marseille","lat":43.290169,"lon":5.386299,"is_reserved":false,"is_disabled":true,"rental_uris":{"android":"levelo://app?vid=62a46132-e4b6-4443-b911-decf42c04838","ios":"levelo://app?vid=62a46132-e4b6-4443-b911-decf42c04838"},"vehicle_type_id":"4","last_reported":1736496764,"current_range_meters":36000,"station_id":"ce4bh4p2rcd13ifvqe0g","pricing_plan_id":"cebpf4jnsgd1na2vs0mg"},{"bike_id":"7a0a8a69-615c-43f3-a001-073b74f4a57b","system_id":"levelo_inurba_marseille","lat":43.255738,"lon":5.38234,"is_reserved":false,"is_disabled":false,"rental_uris":{"android":"levelo://app?vid=7a0a8a69-615c-43f3-a001-073b74f4a57b","ios":"levelo://app?vid=7a0a8a69-615c-43f3-a001-073b74f4a57b"},"vehicle_type_id":"4","last_reported":1736496764,"current_range_meters":27600,"station_id":"ce4bhih2rcd13ifvqfs0","pricing_plan_id":"cebpf4jnsgd1na2vs0mg"},{"bike_id":"04b99ebe-7927-40e6-9554-a7aa6d8ff5da","system_id":"levelo_inurba_marseille","lat":43.33017,"lon":5.39035,"is_reserved":false,"is_disabled":false,"rental_uris":{"android":"levelo://app?vid=04b99ebe-7927-40e6-9554-a7aa6d8ff5da","ios":"levelo://app?vid=04b99ebe-7927-40e6-9554-a7aa6d8ff5da"},"vehicle_type_id":"4","last_reported":1736496764,"current_range_meters":37600,"station_id":"ce4bhr92rcd13ifvqhrg","pricing_plan_id":"cebpf4jnsgd1na2vs0mg"},{"bike_id":"284e1831-9922-4f3c-809c-0f802c9ef2e6","system_id":"levelo_inurba_marseille","lat":43.29557,"lon":5.42285,"is_reserved":false,"is_disabled":false,"rental_uris":{"android":"levelo://app?vid=284e1831-9922-4f3c-809c-0f802c9ef2e6","ios":"levelo://app?vid=284e1831-9922-4f3c-809c-0f802c9ef2e6"},"vehicle_type_id":"4","last_reported":1736496764,"current_range_meters":16000,"station_id":"ce4bhph2rcd13ifvqhdg","pricing_plan_id":"cebpf4jnsgd1na2vs0mg"},{"bike_id":"ad744619-fbc5-4026-9541-81b1adebd4d3","system_id":"levelo_inurba_marseille","lat":43.26038,"lon":5.37546,"is_reserved":false,"is_disabled":true,"rental_uris":{"android":"levelo://app?vid=ad744619-fbc5-4026-9541-81b1adebd4d3","ios":"levelo://app?vid=ad744619-fbc5-4026-9541-81b1adebd4d3"},"vehicle_type_id":"4","last_reported":1736496764,"current_range_meters":38000,"station_id":"ce4bhgh2rcd13ifvqfa0","pricing_plan_id":"cebpf4jnsgd1na2vs0mg"},{"bike_id":"2b68127b-8c99-46f9-b65f-98bf288dc9b7","system_id":"levelo_inurba_marseille","lat":43.25585,"lon":5.38223,"is_reserved":false,"is_disabled":false,"rental_uris":{"android":"levelo://app?vid=2b68127b-8c99-46f9-b65f-98bf288dc9b7","ios":"levelo://app?vid=2b68127b-8c99-46f9-b65f-98bf288dc9b7"},"vehicle_type_id":"4","last_reported":1736496764,"current_range_meters":7200,"station_id":"ce4bhih2rcd13ifvqfs0","pricing_plan_id":"cebpf4jnsgd1na2vs0mg"},{"bike_id":"8dab9b90-c2e8-427f-9aec-8a3c6b8b8e5c","system_id":"levelo_inurba_marseille","lat":43.29045,"lon":5.39951,"is_reserved":false,"is_disabled":false,"rental_uris":{"android":"levelo://app?vid=8dab9b90-c2e8-427f-9aec-8a3c6b8b8e5c","ios":"levelo://app?vid=8dab9b90-c2e8-427f-9aec-8a3c6b8b8e5c"},"vehicle_type_id":"4","last_reported":1736496764,"current_range_meters":25600,"station_id":"ce4bh392rcd13ifvqdm0","pricing_plan_id":"cebpf4jnsgd1na2vs0mg"},{"bike_id":"cc12d510-f328-473b-b3ff-bd3e7e98aca8","system_id":"levelo_inurba_marseille","lat":43.28572,"lon":5.39491,"is_reserved":false,"is_disabled":false,"rental_uris":{"android":"levelo://app?vid=cc12d510-f328-473b-b3ff-bd3e7e98aca8","ios":"levelo://app?vid=cc12d510-f328-473b-b3ff-bd3e7e98aca8"},"vehicle_type_id":"4","last_reported":1736496764,"current_range_meters":32000,"station_id":"ce4bh292rcd13ifvqdg0","pricing_plan_id":"cebpf4jnsgd1na2vs0mg"},{"bike_id":"8e393cb8-13c9-426f-9945-40fb35f8392b","system_id":"levelo_inurba_marseille","lat":43.32537,"lon":5.41444,"is_reserved":false,"is_disabled":false,"rental_uris":{"android":"levelo://app?vid=8e393cb8-13c9-426f-9945-40fb35f8392b","ios":"levelo://app?vid=8e393cb8-13c9-426f-9945-40fb35f8392b"},"vehicle_type_id":"4","last_reported":1736496764,"current_range_meters":10800,"station_id":"ce4bhq12rcd13ifvqhhg","pricing_plan_id":"cebpf4jnsgd1na2vs0mg"},{"bike_id":"afa2f74c-aedb-47b2-97a5-134023fc4e7f","system_id":"levelo_inurba_marseille","lat":43.26048,"lon":5.39399,"is_reserved":false,"is_disabled":true,"rental_uris":{"android":"levelo://app?vid=afa2f74c-aedb-47b2-97a5-134023fc4e7f","ios":"levelo://app?vid=afa2f74c-aedb-47b2-97a5-134023fc4e7f"},"vehicle_type_id":"4","last_reported":1736496764,"current_range_meters":38000,"station_id":"ce4bhh92rcd13ifvqfj0","pricing_plan_id":"cebpf4jnsgd1na2vs0mg"},{"bike_id":"09758ab2-87d2-4511-bbf5-77efd8530345","system_id":"levelo_inurba_marseille","lat":43.28933,"lon":5.36391,"is_reserved":false,"is_disabled":false,"rental_uris":{"android":"levelo://app?vid=09758ab2-87d2-4511-bbf5-77efd8530345","ios":"levelo://app?vid=09758ab2-87d2-4511-bbf5-77efd8530345"},"vehicle_type_id":"4","last_reported":1736496764,"current_range_meters":6400,"station_id":"ce4bhc92rcd13ifvqetg","pricing_plan_id":"cebpf4jnsgd1na2vs0mg"},{"bike_id":"1f7c24e0-30c8-4d5e-bd6d-3ccad9954a8a","system_id":"levelo_inurba_marseille","lat":43.27809,"lon":5.40716,"is_reserved":false,"is_disabled":false,"rental_uris":{"android":"levelo://app?vid=1f7c24e0-30c8-4d5e-bd6d-3ccad9954a8a","ios":"levelo://app?vid=1f7c24e0-30c8-4d5e-bd6d-3ccad9954a8a"},"vehicle_type_id":"4","last_reported":1736496764,"current_range_meters":26800,"station_id":"ce4bhnh2rcd13ifvqgtg","pricing_plan_id":"cebpf4jnsgd1na2vs0mg"},{"bike_id":"1d04601f-61f4-4c54-b9f6-01fcfddc4c1c","system_id":"levelo_inurba_marseille","lat":43.28152,"lon":5.42661,"is_reserved":false,"is_disabled":false,"rental_uris":{"android":"levelo://app?vid=1d04601f-61f4-4c54-b9f6-01fcfddc4c1c","ios":"levelo://app?vid=1d04601f-61f4-4c54-b9f6-01fcfddc4c1c"},"vehicle_type_id":"4","last_reported":1736496764,"current_range_meters":30400,"station_id":"ce4bhnh2rcd13ifvqgug","pricing_plan_id":"cebpf4jnsgd1na2vs0mg"},{"bike_id":"c56c6211-abc5-418e-afed-c2428f450b2d","system_id":"levelo_inurba_marseille","lat":43.28716,"lon":5.37915,"is_reserved":false,"is_disabled":false,"rental_uris":{"android":"levelo://app?vid=c56c6211-abc5-418e-afed-c2428f450b2d","ios":"levelo://app?vid=c56c6211-abc5-418e-afed-c2428f450b2d"},"vehicle_type_id":"4","last_reported":1736496764,"current_range_meters":31200,"station_id":"ce4bh9p2rcd13ifvqec0","pricing_plan_id":"cebpf4jnsgd1na2vs0mg"},{"bike_id":"78ccac9a-f5e4-490f-841f-cd6ed2c22949","system_id":"levelo_inurba_marseille","lat":43.32535,"lon":5.41436,"is_reserved":false,"is_disabled":false,"rental_uris":{"android":"levelo://app?vid=78ccac9a-f5e4-490f-841f-cd6ed2c22949","ios":"levelo://app?vid=78ccac9a-f5e4-490f-841f-cd6ed2c22949"},"vehicle_type_id":"4","last_reported":1736496764,"current_range_meters":39200,"station_id":"ce4bhq12rcd13ifvqhhg","pricing_plan_id":"cebpf4jnsgd1na2vs0mg"},{"bike_id":"285c5ba4-19e9-4cfa-99ed-77581e9fbda4","system_id":"levelo_inurba_marseille","lat":43.26493,"lon":5.39543,"is_reserved":false,"is_disabled":false,"rental_uris":{"android":"levelo://app?vid=285c5ba4-19e9-4cfa-99ed-77581e9fbda4","ios":"levelo://app?vid=285c5ba4-19e9-4cfa-99ed-77581e9fbda4"},"vehicle_type_id":"4","last_reported":1736496764,"current_range_meters":28400,"station_id":"ce4bhi12rcd13ifvqfq0","pricing_plan_id":"cebpf4jnsgd1na2vs0mg"},{"bike_id":"0a3a480b-d940-45ba-8394-4f2c0f4c9174","system_id":"levelo_inurba_marseille","lat":43.28364,"lon":5.38634,"is_reserved":false,"is_disabled":false,"rental_uris":{"android":"levelo://app?vid=0a3a480b-d940-45ba-8394-4f2c0f4c9174","ios":"levelo://app?vid=0a3a480b-d940-45ba-8394-4f2c0f4c9174"},"vehicle_type_id":"4","last_reported":1736496764,"current_range_meters":38800,"station_id":"ce4bh492rcd13ifvqdvg","pricing_plan_id":"cebpf4jnsgd1na2vs0mg"},{"bike_id":"780493d4-89a9-4cb8-8c11-206c98688626","system_id":"levelo_inurba_marseille","lat":43.24057,"lon":5.37755,"is_reserved":false,"is_disabled":false,"rental_uris":{"android":"levelo://app?vid=780493d4-89a9-4cb8-8c11-206c98688626","ios":"levelo://app?vid=780493d4-89a9-4cb8-8c11-206c98688626"},"vehicle_type_id":"4","last_reported":1736496764,"current_range_meters":38800,"station_id":"ce4bhnp2rcd13ifvqgvg","pricing_plan_id":"cebpf4jnsgd1na2vs0mg"},{"bike_id":"9196395b-caa3-4c4e-b20e-5e513ffaa848","system_id":"levelo_inurba_marseille","lat":43.30142,"lon":5.37419,"is_reserved":false,"is_disabled":false,"rental_uris":{"android":"levelo://app?vid=9196395b-caa3-4c4e-b20e-5e513ffaa848","ios":"levelo://app?vid=9196395b-caa3-4c4e-b20e-5e513ffaa848"},"vehicle_type_id":"4","last_reported":1736496764,"current_range_meters":39200,"station_id":"ce4bgs92rcd13ifvqcc0","pricing_plan_id":"cebpf4jnsgd1na2vs0mg"},{"bike_id":"5900bca9-7a17-4753-b91d-33adc9c94c3b","system_id":"levelo_inurba_marseille","lat":43.28947,"lon":5.36396,"is_reserved":false,"is_disabled":false,"rental_uris":{"android":"levelo://app?vid=5900bca9-7a17-4753-b91d-33adc9c94c3b","ios":"levelo://app?vid=5900bca9-7a17-4753-b91d-33adc9c94c3b"},"vehicle_type_id":"4","last_reported":1736496764,"current_range_meters":28800,"station_id":"ce4bhc92rcd13ifvqetg","pricing_plan_id":"cebpf4jnsgd1na2vs0mg"},{"bike_id":"127b6a36-b0a6-44f1-8fd9-e3ebf727897c","system_id":"levelo_inurba_marseille","lat":43.27494,"lon":5.42461,"is_reserved":false,"is_disabled":false,"rental_uris":{"android":"levelo://app?vid=127b6a36-b0a6-44f1-8fd9-e3ebf727897c","ios":"levelo://app?vid=127b6a36-b0a6-44f1-8fd9-e3ebf727897c"},"vehicle_type_id":"4","last_reported":1736496764,"current_range_meters":23200,"station_id":"ce4bhn92rcd13ifvqgrg","pricing_plan_id":"cebpf4jnsgd1na2vs0mg"},{"bike_id":"7e225827-041a-42b6-bee9-05b9aaf89e59","system_id":"levelo_inurba_marseille","lat":43.325443,"lon":5.4143,"is_reserved":false,"is_disabled":true,"rental_uris":{"android":"levelo://app?vid=7e225827-041a-42b6-bee9-05b9aaf89e59","ios":"levelo://app?vid=7e225827-041a-42b6-bee9-05b9aaf89e59"},"vehicle_type_id":"4","last_reported":1736496764,"current_range_meters":33200,"station_id":"ce4bhq12rcd13ifvqhhg","pricing_plan_id":"cebpf4jnsgd1na2vs0mg"},{"bike_id":"dab217a0-b2df-4ca9-a812-c80195b1fbf4","system_id":"levelo_inurba_marseille","lat":43.31373,"lon":5.3672,"is_reserved":false,"is_disabled":false,"rental_uris":{"android":"levelo://app?vid=dab217a0-b2df-4ca9-a812-c80195b1fbf4","ios":"levelo://app?vid=dab217a0-b2df-4ca9-a812-c80195b1fbf4"},"vehicle_type_id":"4","last_reported":1736496764,"current_range_meters":17200,"station_id":"ce4bgr92rcd13ifvqc6g","pricing_plan_id":"cebpf4jnsgd1na2vs0mg"},{"bike_id":"d4b9ec52-492e-41b6-8dae-be3aec56cf81","system_id":"levelo_inurba_marseille","lat":43.2861,"lon":5.35108,"is_reserved":false,"is_disabled":false,"rental_uris":{"android":"levelo://app?vid=d4b9ec52-492e-41b6-8dae-be3aec56cf81","ios":"levelo://app?vid=d4b9ec52-492e-41b6-8dae-be3aec56cf81"},"vehicle_type_id":"4","last_reported":1736496764,"current_range_meters":10800,"station_id":"ce4bhch2rcd13ifvqeug","pricing_plan_id":"cebpf4jnsgd1na2vs0mg"},{"bike_id":"b2e78f1f-1bf9-4d0c-8e18-5898740e3abc","system_id":"levelo_inurba_marseille","lat":43.29049,"lon":5.39942,"is_reserved":false,"is_disabled":false,"rental_uris":{"android":"levelo://app?vid=b2e78f1f-1bf9-4d0c-8e18-5898740e3abc","ios":"levelo://app?vid=b2e78f1f-1bf9-4d0c-8e18-5898740e3abc"},"vehicle_type_id":"4","last_reported":1736496764,"current_range_meters":38800,"station_id":"ce4bh392rcd13ifvqdm0","pricing_plan_id":"cebpf4jnsgd1na2vs0mg"},{"bike_id":"37d8e1ef-d932-49d7-b893-49542cf44d13","system_id":"levelo_inurba_marseille","lat":43.32345,"lon":5.40629,"is_reserved":false,"is_disabled":true,"rental_uris":{"android":"levelo://app?vid=37d8e1ef-d932-49d7-b893-49542cf44d13","ios":"levelo://app?vid=37d8e1ef-d932-49d7-b893-49542cf44d13"},"vehicle_type_id":"4","last_reported":1736496764,"current_range_meters":0,"station_id":"ce4bhq92rcd13ifvqhjg","pricing_plan_id":"cebpf4jnsgd1na2vs0mg"},{"bike_id":"458c3d58-e6a5-4d1a-8df2-05d9cb3e0072","system_id":"levelo_inurba_marseille","lat":43.25562,"lon":5.38226,"is_reserved":false,"is_disabled":false,"rental_uris":{"android":"levelo://app?vid=458c3d58-e6a5-4d1a-8df2-05d9cb3e0072","ios":"levelo://app?vid=458c3d58-e6a5-4d1a-8df2-05d9cb3e0072"},"vehicle_type_id":"4","last_reported":1736496764,"current_range_meters":17200,"station_id":"ce4bhih2rcd13ifvqfs0","pricing_plan_id":"cebpf4jnsgd1na2vs0mg"},{"bike_id":"10f7d31a-ef8d-4e8a-acbf-8aa9a8c72143","system_id":"levelo_inurba_marseille","lat":43.243929,"lon":5.370504,"is_reserved":false,"is_disabled":false,"rental_uris":{"android":"levelo://app?vid=10f7d31a-ef8d-4e8a-acbf-8aa9a8c72143","ios":"levelo://app?vid=10f7d31a-ef8d-4e8a-acbf-8aa9a8c72143"},"vehicle_type_id":"4","last_reported":1736496764,"current_range_meters":24400,"station_id":"ce4bhhh2rcd13ifvqfk0","pricing_plan_id":"cebpf4jnsgd1na2vs0mg"},{"bike_id":"f9cd1d2e-4a14-47a1-9434-3309ee30502b","system_id":"levelo_inurba_marseille","lat":43.28491,"lon":5.38587,"is_reserved":false,"is_disabled":false,"rental_uris":{"android":"levelo://app?vid=f9cd1d2e-4a14-47a1-9434-3309ee30502b","ios":"levelo://app?vid=f9cd1d2e-4a14-47a1-9434-3309ee30502b"},"vehicle_type_id":"4","last_reported":1736496764,"current_range_meters":28400,"station_id":"ce4bh8p2rcd13ifvqeb0","pricing_plan_id":"cebpf4jnsgd1na2vs0mg"},{"bike_id":"650f6cf1-c5f0-47eb-991e-3a946602ff2a","system_id":"levelo_inurba_marseille","lat":43.272082,"lon":5.391783,"is_reserved":false,"is_disabled":false,"rental_uris":{"android":"levelo://app?vid=650f6cf1-c5f0-47eb-991e-3a946602ff2a","ios":"levelo://app?vid=650f6cf1-c5f0-47eb-991e-3a946602ff2a"},"vehicle_type_id":"4","last_reported":1736496764,"current_range_meters":27600,"station_id":"ce4bhih2rcd13ifvqfr0","pricing_plan_id":"cebpf4jnsgd1na2vs0mg"},{"bike_id":"78a3ee78-2010-49df-abaa-a86bb6f3597a","system_id":"levelo_inurba_marseille","lat":43.28343,"lon":5.38118,"is_reserved":false,"is_disabled":false,"rental_uris":{"android":"levelo://app?vid=78a3ee78-2010-49df-abaa-a86bb6f3597a","ios":"levelo://app?vid=78a3ee78-2010-49df-abaa-a86bb6f3597a"},"vehicle_type_id":"4","last_reported":1736496764,"current_range_meters":22400,"station_id":"ce4bh412rcd13ifvqdr0","pricing_plan_id":"cebpf4jnsgd1na2vs0mg"},{"bike_id":"a2b8733f-18d3-4c7f-a699-4ad1eee082fe","system_id":"levelo_inurba_marseille","lat":43.31712,"lon":5.42403,"is_reserved":false,"is_disabled":false,"rental_uris":{"android":"levelo://app?vid=a2b8733f-18d3-4c7f-a699-4ad1eee082fe","ios":"levelo://app?vid=a2b8733f-18d3-4c7f-a699-4ad1eee082fe"},"vehicle_type_id":"4","last_reported":1736496764,"current_range_meters":38800,"station_id":"ce4bhp92rcd13ifvqhbg","pricing_plan_id":"cebpf4jnsgd1na2vs0mg"},{"bike_id":"5dec9a86-4547-4207-8ebf-1361e0e301a5","system_id":"levelo_inurba_marseille","lat":43.27494,"lon":5.42449,"is_reserved":false,"is_disabled":false,"rental_uris":{"android":"levelo://app?vid=5dec9a86-4547-4207-8ebf-1361e0e301a5","ios":"levelo://app?vid=5dec9a86-4547-4207-8ebf-1361e0e301a5"},"vehicle_type_id":"4","last_reported":1736496764,"current_range_meters":5600,"station_id":"ce4bhn92rcd13ifvqgrg","pricing_plan_id":"cebpf4jnsgd1na2vs0mg"},{"bike_id":"c0206d3b-e2e9-423c-9056-fc2381d7e8b1","system_id":"levelo_inurba_marseille","lat":43.29579,"lon":5.38108,"is_reserved":false,"is_disabled":true,"rental_uris":{"android":"levelo://app?vid=c0206d3b-e2e9-423c-9056-fc2381d7e8b1","ios":"levelo://app?vid=c0206d3b-e2e9-423c-9056-fc2381d7e8b1"},"vehicle_type_id":"4","last_reported":1736496764,"current_range_meters":27200,"station_id":"ce4bgl12rcd13ifvqbo0","pricing_plan_id":"cebpf4jnsgd1na2vs0mg"},{"bike_id":"972bb94f-4946-45b8-9f8f-d0eaa257ba59","system_id":"levelo_inurba_marseille","lat":43.3031,"lon":5.36905,"is_reserved":false,"is_disabled":false,"rental_uris":{"android":"levelo://app?vid=972bb94f-4946-45b8-9f8f-d0eaa257ba59","ios":"levelo://app?vid=972bb94f-4946-45b8-9f8f-d0eaa257ba59"},"vehicle_type_id":"4","last_reported":1736496764,"current_range_meters":38000,"station_id":"ce4bgqh2rcd13ifvqc5g","pricing_plan_id":"cebpf4jnsgd1na2vs0mg"},{"bike_id":"4b9552e7-7313-44cc-ba72-6ebb3cfea997","system_id":"levelo_inurba_marseille","lat":43.26052,"lon":5.39401,"is_reserved":false,"is_disabled":false,"rental_uris":{"android":"levelo://app?vid=4b9552e7-7313-44cc-ba72-6ebb3cfea997","ios":"levelo://app?vid=4b9552e7-7313-44cc-ba72-6ebb3cfea997"},"vehicle_type_id":"4","last_reported":1736496764,"current_range_meters":38800,"station_id":"ce4bhh92rcd13ifvqfj0","pricing_plan_id":"cebpf4jnsgd1na2vs0mg"},{"bike_id":"c150f8af-fc8f-4eb5-ac98-0b06dadf4ce0","system_id":"levelo_inurba_marseille","lat":43.25572,"lon":5.38228,"is_reserved":false,"is_disabled":false,"rental_uris":{"android":"levelo://app?vid=c150f8af-fc8f-4eb5-ac98-0b06dadf4ce0","ios":"levelo://app?vid=c150f8af-fc8f-4eb5-ac98-0b06dadf4ce0"},"vehicle_type_id":"4","last_reported":1736496764,"current_range_meters":34800,"station_id":"ce4bhih2rcd13ifvqfs0","pricing_plan_id":"cebpf4jnsgd1na2vs0mg"},{"bike_id":"4ecf9090-955c-4c92-b31c-722d2da74edd","system_id":"levelo_inurba_marseille","lat":43.29295,"lon":5.37462,"is_reserved":false,"is_disabled":false,"rental_uris":{"android":"levelo://app?vid=4ecf9090-955c-4c92-b31c-722d2da74edd","ios":"levelo://app?vid=4ecf9090-955c-4c92-b31c-722d2da74edd"},"vehicle_type_id":"4","last_reported":1736496764,"current_range_meters":38000,"station_id":"ce4bgi12rcd13ifvqb70","pricing_plan_id":"cebpf4jnsgd1na2vs0mg"},{"bike_id":"ff45e7b0-f7ac-4438-a41c-45b74df8aef7","system_id":"levelo_inurba_marseille","lat":43.28844,"lon":5.3933,"is_reserved":false,"is_disabled":false,"rental_uris":{"android":"levelo://app?vid=ff45e7b0-f7ac-4438-a41c-45b74df8aef7","ios":"levelo://app?vid=ff45e7b0-f7ac-4438-a41c-45b74df8aef7"},"vehicle_type_id":"4","last_reported":1736496764,"current_range_meters":22400,"station_id":"ce4bh2p2rcd13ifvqdi0","pricing_plan_id":"cebpf4jnsgd1na2vs0mg"},{"bike_id":"80e6d864-209b-44fb-bebb-aeae347160a6","system_id":"levelo_inurba_marseille","lat":43.24055,"lon":5.37769,"is_reserved":false,"is_disabled":false,"rental_uris":{"android":"levelo://app?vid=80e6d864-209b-44fb-bebb-aeae347160a6","ios":"levelo://app?vid=80e6d864-209b-44fb-bebb-aeae347160a6"},"vehicle_type_id":"4","last_reported":1736496764,"current_range_meters":24400,"station_id":"ce4bhnp2rcd13ifvqgvg","pricing_plan_id":"cebpf4jnsgd1na2vs0mg"},{"bike_id":"e4a4e065-0de4-4b4a-a84c-e7ac4a96d30b","system_id":"levelo_inurba_marseille","lat":43.267968,"lon":5.394246,"is_reserved":false,"is_disabled":false,"rental_uris":{"android":"levelo://app?vid=e4a4e065-0de4-4b4a-a84c-e7ac4a96d30b","ios":"levelo://app?vid=e4a4e065-0de4-4b4a-a84c-e7ac4a96d30b"},"vehicle_type_id":"4","last_reported":1736496764,"current_range_meters":19600,"station_id":"ce4bhh12rcd13ifvqfg0","pricing_plan_id":"cebpf4jnsgd1na2vs0mg"},{"bike_id":"1a2f0ab1-f66c-49a5-8317-c823c5c59ec8","system_id":"levelo_inurba_marseille","lat":43.28265,"lon":5.35083,"is_reserved":false,"is_disabled":false,"rental_uris":{"android":"levelo://app?vid=1a2f0ab1-f66c-49a5-8317-c823c5c59ec8","ios":"levelo://app?vid=1a2f0ab1-f66c-49a5-8317-c823c5c59ec8"},"vehicle_type_id":"4","last_reported":1736496764,"current_range_meters":38800,"station_id":"ce4bhbp2rcd13ifvqerg","pricing_plan_id":"cebpf4jnsgd1na2vs0mg"},{"bike_id":"60ce1b70-e47d-4caf-abee-52e7d5bfe299","system_id":"levelo_inurba_marseille","lat":43.246463,"lon":5.388858,"is_reserved":false,"is_disabled":false,"rental_uris":{"android":"levelo://app?vid=60ce1b70-e47d-4caf-abee-52e7d5bfe299","ios":"levelo://app?vid=60ce1b70-e47d-4caf-abee-52e7d5bfe299"},"vehicle_type_id":"4","last_reported":1736496764,"current_range_meters":36000,"station_id":"ce4bhg12rcd13ifvqf60","pricing_plan_id":"cebpf4jnsgd1na2vs0mg"},{"bike_id":"7627c0f8-e30b-4018-a991-3dd21750fc78","system_id":"levelo_inurba_marseille","lat":43.28715,"lon":5.37944,"is_reserved":false,"is_disabled":true,"rental_uris":{"android":"levelo://app?vid=7627c0f8-e30b-4018-a991-3dd21750fc78","ios":"levelo://app?vid=7627c0f8-e30b-4018-a991-3dd21750fc78"},"vehicle_type_id":"4","last_reported":1736496764,"current_range_meters":38400,"station_id":"ce4bh9p2rcd13ifvqec0","pricing_plan_id":"cebpf4jnsgd1na2vs0mg"},{"bike_id":"bf34816d-cef3-45df-a814-b99e8dc67c6d","system_id":"levelo_inurba_marseille","lat":43.23189,"lon":5.39944,"is_reserved":false,"is_disabled":false,"rental_uris":{"android":"levelo://app?vid=bf34816d-cef3-45df-a814-b99e8dc67c6d","ios":"levelo://app?vid=bf34816d-cef3-45df-a814-b99e8dc67c6d"},"vehicle_type_id":"4","last_reported":1736496764,"current_range_meters":38800,"station_id":"ce4bhn12rcd13ifvqgqg","pricing_plan_id":"cebpf4jnsgd1na2vs0mg"},{"bike_id":"408554f9-e938-4c8d-b712-51774be7b111","system_id":"levelo_inurba_marseille","lat":43.30545,"lon":5.36521,"is_reserved":false,"is_disabled":false,"rental_uris":{"android":"levelo://app?vid=408554f9-e938-4c8d-b712-51774be7b111","ios":"levelo://app?vid=408554f9-e938-4c8d-b712-51774be7b111"},"vehicle_type_id":"4","last_reported":1736496764,"current_range_meters":38800,"station_id":"ce4bgs12rcd13ifvqcag","pricing_plan_id":"cebpf4jnsgd1na2vs0mg"},{"bike_id":"5f1bae12-dbe3-41c1-8e37-b040409b4bba","system_id":"levelo_inurba_marseille","lat":43.301537,"lon":5.387795,"is_reserved":false,"is_disabled":false,"rental_uris":{"android":"levelo://app?vid=5f1bae12-dbe3-41c1-8e37-b040409b4bba","ios":"levelo://app?vid=5f1bae12-dbe3-41c1-8e37-b040409b4bba"},"vehicle_type_id":"4","last_reported":1736496764,"current_range_meters":14400,"station_id":"ce4bhoh2rcd13ifvqh6g","pricing_plan_id":"cebpf4jnsgd1na2vs0mg"},{"bike_id":"43ca53ad-1361-4182-ad24-d29d94056868","system_id":"levelo_inurba_marseille","lat":43.27504,"lon":5.42468,"is_reserved":false,"is_disabled":false,"rental_uris":{"android":"levelo://app?vid=43ca53ad-1361-4182-ad24-d29d94056868","ios":"levelo://app?vid=43ca53ad-1361-4182-ad24-d29d94056868"},"vehicle_type_id":"4","last_reported":1736496764,"current_range_meters":10800,"station_id":"ce4bhn92rcd13ifvqgrg","pricing_plan_id":"cebpf4jnsgd1na2vs0mg"},{"bike_id":"48998462-e2fe-4046-8dbf-a3db091ad704","system_id":"levelo_inurba_marseille","lat":43.25571,"lon":5.38235,"is_reserved":false,"is_disabled":true,"rental_uris":{"android":"levelo://app?vid=48998462-e2fe-4046-8dbf-a3db091ad704","ios":"levelo://app?vid=48998462-e2fe-4046-8dbf-a3db091ad704"},"vehicle_type_id":"4","last_reported":1736496764,"current_range_meters":24400,"station_id":"ce4bhih2rcd13ifvqfs0","pricing_plan_id":"cebpf4jnsgd1na2vs0mg"},{"bike_id":"cad4a6a5-5208-47dd-a17d-ca38efa63f22","system_id":"levelo_inurba_marseille","lat":43.3106,"lon":5.38338,"is_reserved":false,"is_disabled":true,"rental_uris":{"android":"levelo://app?vid=cad4a6a5-5208-47dd-a17d-ca38efa63f22","ios":"levelo://app?vid=cad4a6a5-5208-47dd-a17d-ca38efa63f22"},"vehicle_type_id":"4","last_reported":1736496764,"current_range_meters":27200,"station_id":"ce4bgv92rcd13ifvqcr0","pricing_plan_id":"cebpf4jnsgd1na2vs0mg"},{"bike_id":"59680959-993e-49d5-827b-d5b17bfefc71","system_id":"levelo_inurba_marseille","lat":43.27836,"lon":5.39188,"is_reserved":false,"is_disabled":true,"rental_uris":{"android":"levelo://app?vid=59680959-993e-49d5-827b-d5b17bfefc71","ios":"levelo://app?vid=59680959-993e-49d5-827b-d5b17bfefc71"},"vehicle_type_id":"4","last_reported":1736496764,"current_range_meters":0,"station_id":"ce4bhjp2rcd13ifvqga0","pricing_plan_id":"cebpf4jnsgd1na2vs0mg"},{"bike_id":"7666c1b3-9780-48bd-be23-de5cae67e9ee","system_id":"levelo_inurba_marseille","lat":43.28147,"lon":5.42651,"is_reserved":false,"is_disabled":false,"rental_uris":{"android":"levelo://app?vid=7666c1b3-9780-48bd-be23-de5cae67e9ee","ios":"levelo://app?vid=7666c1b3-9780-48bd-be23-de5cae67e9ee"},"vehicle_type_id":"4","last_reported":1736496764,"current_range_meters":33200,"station_id":"ce4bhnh2rcd13ifvqgug","pricing_plan_id":"cebpf4jnsgd1na2vs0mg"},{"bike_id":"fc1057d4-90a1-4917-8219-50abd6b84da3","system_id":"levelo_inurba_marseille","lat":43.32099,"lon":5.36778,"is_reserved":false,"is_disabled":false,"rental_uris":{"android":"levelo://app?vid=fc1057d4-90a1-4917-8219-50abd6b84da3","ios":"levelo://app?vid=fc1057d4-90a1-4917-8219-50abd6b84da3"},"vehicle_type_id":"4","last_reported":1736496764,"current_range_meters":24000,"station_id":"ce4bhrh2rcd13ifvqhug","pricing_plan_id":"cebpf4jnsgd1na2vs0mg"},{"bike_id":"274740d2-3955-447e-a35e-de2ea722b14c","system_id":"levelo_inurba_marseille","lat":43.25718,"lon":5.41115,"is_reserved":false,"is_disabled":false,"rental_uris":{"android":"levelo://app?vid=274740d2-3955-447e-a35e-de2ea722b14c","ios":"levelo://app?vid=274740d2-3955-447e-a35e-de2ea722b14c"},"vehicle_type_id":"4","last_reported":1736496764,"current_range_meters":20000,"station_id":"ce4bhkp2rcd13ifvqgd0","pricing_plan_id":"cebpf4jnsgd1na2vs0mg"},{"bike_id":"aa637afa-5dab-4e4f-a5b1-a846e41a59b6","system_id":"levelo_inurba_marseille","lat":43.2406,"lon":5.37764,"is_reserved":false,"is_disabled":true,"rental_uris":{"android":"levelo://app?vid=aa637afa-5dab-4e4f-a5b1-a846e41a59b6","ios":"levelo://app?vid=aa637afa-5dab-4e4f-a5b1-a846e41a59b6"},"vehicle_type_id":"4","last_reported":1736496764,"current_range_meters":39200,"station_id":"ce4bhnp2rcd13ifvqgvg","pricing_plan_id":"cebpf4jnsgd1na2vs0mg"},{"bike_id":"7606fbbb-9d18-407e-be5f-454c60e1e61c","system_id":"levelo_inurba_marseille","lat":43.30584,"lon":5.39375,"is_reserved":false,"is_disabled":false,"rental_uris":{"android":"levelo://app?vid=7606fbbb-9d18-407e-be5f-454c60e1e61c","ios":"levelo://app?vid=7606fbbb-9d18-407e-be5f-454c60e1e61c"},"vehicle_type_id":"4","last_reported":1736496764,"current_range_meters":30000,"station_id":"ce4bh0p2rcd13ifvqd80","pricing_plan_id":"cebpf4jnsgd1na2vs0mg"},{"bike_id":"7475f743-fa68-4b23-ab37-60e01b01184f","system_id":"levelo_inurba_marseille","lat":43.320979,"lon":5.367851,"is_reserved":false,"is_disabled":false,"rental_uris":{"android":"levelo://app?vid=7475f743-fa68-4b23-ab37-60e01b01184f","ios":"levelo://app?vid=7475f743-fa68-4b23-ab37-60e01b01184f"},"vehicle_type_id":"4","last_reported":1736496764,"current_range_meters":32800,"station_id":"ce4bhrh2rcd13ifvqhug","pricing_plan_id":"cebpf4jnsgd1na2vs0mg"},{"bike_id":"e0a4dae8-888a-40c8-b265-39af7fe412bd","system_id":"levelo_inurba_marseille","lat":43.26684,"lon":5.38272,"is_reserved":false,"is_disabled":false,"rental_uris":{"android":"levelo://app?vid=e0a4dae8-888a-40c8-b265-39af7fe412bd","ios":"levelo://app?vid=e0a4dae8-888a-40c8-b265-39af7fe412bd"},"vehicle_type_id":"4","last_reported":1736496764,"current_range_meters":37600,"station_id":"ce4bhg92rcd13ifvqf90","pricing_plan_id":"cebpf4jnsgd1na2vs0mg"},{"bike_id":"5cf29208-2372-494a-8ba6-49dc999fdb5d","system_id":"levelo_inurba_marseille","lat":43.28456,"lon":5.358949,"is_reserved":false,"is_disabled":false,"rental_uris":{"android":"levelo://app?vid=5cf29208-2372-494a-8ba6-49dc999fdb5d","ios":"levelo://app?vid=5cf29208-2372-494a-8ba6-49dc999fdb5d"},"vehicle_type_id":"4","last_reported":1736496764,"current_range_meters":38400,"station_id":"ce4bhah2rcd13ifvqei0","pricing_plan_id":"cebpf4jnsgd1na2vs0mg"},{"bike_id":"4e415297-1651-4007-b5da-4923f3ed2b98","system_id":"levelo_inurba_marseille","lat":43.30142,"lon":5.38072,"is_reserved":false,"is_disabled":false,"rental_uris":{"android":"levelo://app?vid=4e415297-1651-4007-b5da-4923f3ed2b98","ios":"levelo://app?vid=4e415297-1651-4007-b5da-4923f3ed2b98"},"vehicle_type_id":"4","last_reported":1736496764,"current_range_meters":24400,"station_id":"ce4bgjp2rcd13ifvqbh0","pricing_plan_id":"cebpf4jnsgd1na2vs0mg"},{"bike_id":"61e1295e-9529-4860-960e-d514e6dca355","system_id":"levelo_inurba_marseille","lat":43.29031,"lon":5.39953,"is_reserved":false,"is_disabled":false,"rental_uris":{"android":"levelo://app?vid=61e1295e-9529-4860-960e-d514e6dca355","ios":"levelo://app?vid=61e1295e-9529-4860-960e-d514e6dca355"},"vehicle_type_id":"4","last_reported":1736496764,"current_range_meters":34800,"station_id":"ce4bh392rcd13ifvqdm0","pricing_plan_id":"cebpf4jnsgd1na2vs0mg"},{"bike_id":"9a317132-64ac-46cf-a22f-3828debffdf3","system_id":"levelo_inurba_marseille","lat":43.33595,"lon":5.41052,"is_reserved":false,"is_disabled":false,"rental_uris":{"android":"levelo://app?vid=9a317132-64ac-46cf-a22f-3828debffdf3","ios":"levelo://app?vid=9a317132-64ac-46cf-a22f-3828debffdf3"},"vehicle_type_id":"4","last_reported":1736496764,"current_range_meters":38800,"station_id":"ce4bhqh2rcd13ifvqhmg","pricing_plan_id":"cebpf4jnsgd1na2vs0mg"},{"bike_id":"3d97d3e0-d45c-47c2-9a56-3b2182dc5b15","system_id":"levelo_inurba_marseille","lat":43.27947,"lon":5.38691,"is_reserved":false,"is_disabled":true,"rental_uris":{"android":"levelo://app?vid=3d97d3e0-d45c-47c2-9a56-3b2182dc5b15","ios":"levelo://app?vid=3d97d3e0-d45c-47c2-9a56-3b2182dc5b15"},"vehicle_type_id":"4","last_reported":1736496764,"current_range_meters":0,"station_id":"","pricing_plan_id":"cebpf4jnsgd1na2vs0mg"},{"bike_id":"c917a299-72e2-4ca0-85ea-c83ac620306b","system_id":"levelo_inurba_marseille","lat":43.29597,"lon":5.38105,"is_reserved":false,"is_disabled":false,"rental_uris":{"android":"levelo://app?vid=c917a299-72e2-4ca0-85ea-c83ac620306b","ios":"levelo://app?vid=c917a299-72e2-4ca0-85ea-c83ac620306b"},"vehicle_type_id":"4","last_reported":1736496764,"current_range_meters":38000,"station_id":"ce4bgl12rcd13ifvqbo0","pricing_plan_id":"cebpf4jnsgd1na2vs0mg"},{"bike_id":"8741d6b7-0e35-4f57-9567-4b3718dffc5b","system_id":"levelo_inurba_marseille","lat":43.30467,"lon":5.37902,"is_reserved":false,"is_disabled":false,"rental_uris":{"android":"levelo://app?vid=8741d6b7-0e35-4f57-9567-4b3718dffc5b","ios":"levelo://app?vid=8741d6b7-0e35-4f57-9567-4b3718dffc5b"},"vehicle_type_id":"4","last_reported":1736496764,"current_range_meters":24000,"station_id":"ce4bgup2rcd13ifvqcn0","pricing_plan_id":"cebpf4jnsgd1na2vs0mg"},{"bike_id":"87ce24d1-2898-442b-8045-27ec953b3ea6","system_id":"levelo_inurba_marseille","lat":43.33605,"lon":5.40999,"is_reserved":false,"is_disabled":false,"rental_uris":{"android":"levelo://app?vid=87ce24d1-2898-442b-8045-27ec953b3ea6","ios":"levelo://app?vid=87ce24d1-2898-442b-8045-27ec953b3ea6"},"vehicle_type_id":"4","last_reported":1736496764,"current_range_meters":38800,"station_id":"ce4bhqh2rcd13ifvqhmg","pricing_plan_id":"cebpf4jnsgd1na2vs0mg"},{"bike_id":"2eb264c8-1e8d-4f17-a831-3cda07857865","system_id":"levelo_inurba_marseille","lat":43.32116,"lon":5.36776,"is_reserved":false,"is_disabled":false,"rental_uris":{"android":"levelo://app?vid=2eb264c8-1e8d-4f17-a831-3cda07857865","ios":"levelo://app?vid=2eb264c8-1e8d-4f17-a831-3cda07857865"},"vehicle_type_id":"4","last_reported":1736496764,"current_range_meters":35600,"station_id":"ce4bhrh2rcd13ifvqhug","pricing_plan_id":"cebpf4jnsgd1na2vs0mg"},{"bike_id":"01c271f5-76bb-43c9-9ffa-59f26cb0ed1e","system_id":"levelo_inurba_marseille","lat":43.28933,"lon":5.364,"is_reserved":false,"is_disabled":false,"rental_uris":{"android":"levelo://app?vid=01c271f5-76bb-43c9-9ffa-59f26cb0ed1e","ios":"levelo://app?vid=01c271f5-76bb-43c9-9ffa-59f26cb0ed1e"},"vehicle_type_id":"4","last_reported":1736496764,"current_range_meters":38800,"station_id":"ce4bhc92rcd13ifvqetg","pricing_plan_id":"cebpf4jnsgd1na2vs0mg"},{"bike_id":"1e2223a2-c032-49e7-8dbf-982df86a0520","system_id":"levelo_inurba_marseille","lat":43.22927,"lon":5.35361,"is_reserved":false,"is_disabled":false,"rental_uris":{"android":"levelo://app?vid=1e2223a2-c032-49e7-8dbf-982df86a0520","ios":"levelo://app?vid=1e2223a2-c032-49e7-8dbf-982df86a0520"},"vehicle_type_id":"4","last_reported":1736496764,"current_range_meters":33200,"station_id":"cpo3532slgdg3j2ikp40","pricing_plan_id":"cebpf4jnsgd1na2vs0mg"},{"bike_id":"f920a182-5bd9-422b-bcc0-4b51952d7506","system_id":"levelo_inurba_marseille","lat":43.289354,"lon":5.39634,"is_reserved":false,"is_disabled":false,"rental_uris":{"android":"levelo://app?vid=f920a182-5bd9-422b-bcc0-4b51952d7506","ios":"levelo://app?vid=f920a182-5bd9-422b-bcc0-4b51952d7506"},"vehicle_type_id":"4","last_reported":1736496764,"current_range_meters":36000,"station_id":"ce4bh3h2rcd13ifvqdn0","pricing_plan_id":"cebpf4jnsgd1na2vs0mg"},{"bike_id":"cf7f636e-a9e8-41fd-b283-8c98dee565ae","system_id":"levelo_inurba_marseille","lat":43.29551,"lon":5.42289,"is_reserved":false,"is_disabled":false,"rental_uris":{"android":"levelo://app?vid=cf7f636e-a9e8-41fd-b283-8c98dee565ae","ios":"levelo://app?vid=cf7f636e-a9e8-41fd-b283-8c98dee565ae"},"vehicle_type_id":"4","last_reported":1736496764,"current_range_meters":38400,"station_id":"ce4bhph2rcd13ifvqhdg","pricing_plan_id":"cebpf4jnsgd1na2vs0mg"},{"bike_id":"adc9ee76-73c1-4526-9736-bc9e2a6c22fc","system_id":"levelo_inurba_marseille","lat":43.30181,"lon":5.36613,"is_reserved":false,"is_disabled":false,"rental_uris":{"android":"levelo://app?vid=adc9ee76-73c1-4526-9736-bc9e2a6c22fc","ios":"levelo://app?vid=adc9ee76-73c1-4526-9736-bc9e2a6c22fc"},"vehicle_type_id":"4","last_reported":1736496764,"current_range_meters":32000,"station_id":"ce4bgrh2rcd13ifvqc8g","pricing_plan_id":"cebpf4jnsgd1na2vs0mg"},{"bike_id":"be8a233f-ad85-41b2-af03-bfa1e3033438","system_id":"levelo_inurba_marseille","lat":43.23181,"lon":5.35549,"is_reserved":false,"is_disabled":false,"rental_uris":{"android":"levelo://app?vid=be8a233f-ad85-41b2-af03-bfa1e3033438","ios":"levelo://app?vid=be8a233f-ad85-41b2-af03-bfa1e3033438"},"vehicle_type_id":"4","last_reported":1736496764,"current_range_meters":25200,"station_id":"ce4bhu92rcd13ifvqi70","pricing_plan_id":"cebpf4jnsgd1na2vs0mg"},{"bike_id":"b124ca2f-2fd0-4c56-960f-1b8a90949c3b","system_id":"levelo_inurba_marseille","lat":43.295337,"lon":5.374962,"is_reserved":false,"is_disabled":true,"rental_uris":{"android":"levelo://app?vid=b124ca2f-2fd0-4c56-960f-1b8a90949c3b","ios":"levelo://app?vid=b124ca2f-2fd0-4c56-960f-1b8a90949c3b"},"vehicle_type_id":"4","last_reported":1736496764,"current_range_meters":26000,"station_id":"ce4bgkp2rcd13ifvqbmg","pricing_plan_id":"cebpf4jnsgd1na2vs0mg"},{"bike_id":"a5c84767-38ef-4593-a7e2-fed8a99d1ef2","system_id":"levelo_inurba_marseille","lat":43.3048,"lon":5.37914,"is_reserved":false,"is_disabled":false,"rental_uris":{"android":"levelo://app?vid=a5c84767-38ef-4593-a7e2-fed8a99d1ef2","ios":"levelo://app?vid=a5c84767-38ef-4593-a7e2-fed8a99d1ef2"},"vehicle_type_id":"4","last_reported":1736496764,"current_range_meters":22000,"station_id":"ce4bgup2rcd13ifvqcn0","pricing_plan_id":"cebpf4jnsgd1na2vs0mg"},{"bike_id":"093d9ce3-4d12-4d1d-bdcc-8d78ef369464","system_id":"levelo_inurba_marseille","lat":43.30391,"lon":5.37084,"is_reserved":false,"is_disabled":false,"rental_uris":{"android":"levelo://app?vid=093d9ce3-4d12-4d1d-bdcc-8d78ef369464","ios":"levelo://app?vid=093d9ce3-4d12-4d1d-bdcc-8d78ef369464"},"vehicle_type_id":"4","last_reported":1736496764,"current_range_meters":17600,"station_id":"","pricing_plan_id":"cebpf4jnsgd1na2vs0mg"},{"bike_id":"c0a0cb19-3248-41f0-a116-62b720afa3ab","system_id":"levelo_inurba_marseille","lat":43.30535,"lon":5.38425,"is_reserved":false,"is_disabled":false,"rental_uris":{"android":"levelo://app?vid=c0a0cb19-3248-41f0-a116-62b720afa3ab","ios":"levelo://app?vid=c0a0cb19-3248-41f0-a116-62b720afa3ab"},"vehicle_type_id":"4","last_reported":1736496764,"current_range_meters":32400,"station_id":"ce4bgg92rcd13ifvqb30","pricing_plan_id":"cebpf4jnsgd1na2vs0mg"},{"bike_id":"4aad0410-bd95-44cd-abd3-4e2ef7290f2c","system_id":"levelo_inurba_marseille","lat":43.254976,"lon":5.376559,"is_reserved":false,"is_disabled":false,"rental_uris":{"android":"levelo://app?vid=4aad0410-bd95-44cd-abd3-4e2ef7290f2c","ios":"levelo://app?vid=4aad0410-bd95-44cd-abd3-4e2ef7290f2c"},"vehicle_type_id":"4","last_reported":1736496764,"current_range_meters":38800,"station_id":"ce4bhh12rcd13ifvqff0","pricing_plan_id":"cebpf4jnsgd1na2vs0mg"},{"bike_id":"5d3bf06a-a6f7-4641-af93-d780e27467b6","system_id":"levelo_inurba_marseille","lat":43.30793,"lon":5.38142,"is_reserved":false,"is_disabled":true,"rental_uris":{"android":"levelo://app?vid=5d3bf06a-a6f7-4641-af93-d780e27467b6","ios":"levelo://app?vid=5d3bf06a-a6f7-4641-af93-d780e27467b6"},"vehicle_type_id":"4","last_reported":1736496764,"current_range_meters":32800,"station_id":"ce4bgt12rcd13ifvqce0","pricing_plan_id":"cebpf4jnsgd1na2vs0mg"},{"bike_id":"fac115c5-eae4-4d2d-b7a8-8f3f10719aed","system_id":"levelo_inurba_marseille","lat":43.244986,"lon":5.372699,"is_reserved":false,"is_disabled":false,"rental_uris":{"android":"levelo://app?vid=fac115c5-eae4-4d2d-b7a8-8f3f10719aed","ios":"levelo://app?vid=fac115c5-eae4-4d2d-b7a8-8f3f10719aed"},"vehicle_type_id":"4","last_reported":1736496764,"current_range_meters":18800,"station_id":"ce4bhi12rcd13ifvqfp0","pricing_plan_id":"cebpf4jnsgd1na2vs0mg"},{"bike_id":"7863d40f-5fee-4d3d-ba6f-99d8c77e1e5e","system_id":"levelo_inurba_marseille","lat":43.27492,"lon":5.4245,"is_reserved":false,"is_disabled":false,"rental_uris":{"android":"levelo://app?vid=7863d40f-5fee-4d3d-ba6f-99d8c77e1e5e","ios":"levelo://app?vid=7863d40f-5fee-4d3d-ba6f-99d8c77e1e5e"},"vehicle_type_id":"4","last_reported":1736496764,"current_range_meters":13600,"station_id":"ce4bhn92rcd13ifvqgrg","pricing_plan_id":"cebpf4jnsgd1na2vs0mg"},{"bike_id":"1179aa34-7cab-4bd9-80b2-0668ba6ccbd7","system_id":"levelo_inurba_marseille","lat":43.26498,"lon":5.39538,"is_reserved":false,"is_disabled":false,"rental_uris":{"android":"levelo://app?vid=1179aa34-7cab-4bd9-80b2-0668ba6ccbd7","ios":"levelo://app?vid=1179aa34-7cab-4bd9-80b2-0668ba6ccbd7"},"vehicle_type_id":"4","last_reported":1736496764,"current_range_meters":32000,"station_id":"ce4bhi12rcd13ifvqfq0","pricing_plan_id":"cebpf4jnsgd1na2vs0mg"},{"bike_id":"fd1791cc-d513-46aa-86f5-45066a889da9","system_id":"levelo_inurba_marseille","lat":43.31709,"lon":5.42399,"is_reserved":false,"is_disabled":false,"rental_uris":{"android":"levelo://app?vid=fd1791cc-d513-46aa-86f5-45066a889da9","ios":"levelo://app?vid=fd1791cc-d513-46aa-86f5-45066a889da9"},"vehicle_type_id":"4","last_reported":1736496764,"current_range_meters":36000,"station_id":"ce4bhp92rcd13ifvqhbg","pricing_plan_id":"cebpf4jnsgd1na2vs0mg"},{"bike_id":"ce2cca2d-f10c-4078-a6c6-e3331fe38940","system_id":"levelo_inurba_marseille","lat":43.30138,"lon":5.38788,"is_reserved":false,"is_disabled":true,"rental_uris":{"android":"levelo://app?vid=ce2cca2d-f10c-4078-a6c6-e3331fe38940","ios":"levelo://app?vid=ce2cca2d-f10c-4078-a6c6-e3331fe38940"},"vehicle_type_id":"4","last_reported":1736496764,"current_range_meters":38400,"station_id":"ce4bghh2rcd13ifvqb60","pricing_plan_id":"cebpf4jnsgd1na2vs0mg"},{"bike_id":"2118f603-61e8-4314-829f-9caed67936e0","system_id":"levelo_inurba_marseille","lat":43.30908,"lon":5.39664,"is_reserved":false,"is_disabled":false,"rental_uris":{"android":"levelo://app?vid=2118f603-61e8-4314-829f-9caed67936e0","ios":"levelo://app?vid=2118f603-61e8-4314-829f-9caed67936e0"},"vehicle_type_id":"4","last_reported":1736496764,"current_range_meters":8400,"station_id":"ce4bh012rcd13ifvqcv0","pricing_plan_id":"cebpf4jnsgd1na2vs0mg"},{"bike_id":"fc9288ed-9da0-4c7f-9aba-d64070cdbf51","system_id":"levelo_inurba_marseille","lat":43.23143,"lon":5.43726,"is_reserved":false,"is_disabled":false,"rental_uris":{"android":"levelo://app?vid=fc9288ed-9da0-4c7f-9aba-d64070cdbf51","ios":"levelo://app?vid=fc9288ed-9da0-4c7f-9aba-d64070cdbf51"},"vehicle_type_id":"4","last_reported":1736496764,"current_range_meters":38000,"station_id":"ce4bhmp2rcd13ifvqgog","pricing_plan_id":"cebpf4jnsgd1na2vs0mg"},{"bike_id":"8a6f4d7f-46c0-49d2-bc52-16be49ce98d5","system_id":"levelo_inurba_marseille","lat":43.26944,"lon":5.38638,"is_reserved":false,"is_disabled":false,"rental_uris":{"android":"levelo://app?vid=8a6f4d7f-46c0-49d2-bc52-16be49ce98d5","ios":"levelo://app?vid=8a6f4d7f-46c0-49d2-bc52-16be49ce98d5"},"vehicle_type_id":"4","last_reported":1736496764,"current_range_meters":22400,"station_id":"ce4bhh92rcd13ifvqfh0","pricing_plan_id":"cebpf4jnsgd1na2vs0mg"},{"bike_id":"ad28bd53-1c8c-44ea-9a1c-1e5a5b2498fe","system_id":"levelo_inurba_marseille","lat":43.24165,"lon":5.36403,"is_reserved":false,"is_disabled":false,"rental_uris":{"android":"levelo://app?vid=ad28bd53-1c8c-44ea-9a1c-1e5a5b2498fe","ios":"levelo://app?vid=ad28bd53-1c8c-44ea-9a1c-1e5a5b2498fe"},"vehicle_type_id":"4","last_reported":1736496764,"current_range_meters":10800,"station_id":"cpo36qri1sfpv3e86is0","pricing_plan_id":"cebpf4jnsgd1na2vs0mg"},{"bike_id":"61259996-42e3-4d4b-8955-47353d549a2f","system_id":"levelo_inurba_marseille","lat":43.30889,"lon":5.39652,"is_reserved":false,"is_disabled":true,"rental_uris":{"android":"levelo://app?vid=61259996-42e3-4d4b-8955-47353d549a2f","ios":"levelo://app?vid=61259996-42e3-4d4b-8955-47353d549a2f"},"vehicle_type_id":"4","last_reported":1736496764,"current_range_meters":1200,"station_id":"ce4bh012rcd13ifvqcv0","pricing_plan_id":"cebpf4jnsgd1na2vs0mg"},{"bike_id":"ed5f8f9c-24db-4495-ba73-b7cea4b154a2","system_id":"levelo_inurba_marseille","lat":43.24076,"lon":5.37754,"is_reserved":false,"is_disabled":false,"rental_uris":{"android":"levelo://app?vid=ed5f8f9c-24db-4495-ba73-b7cea4b154a2","ios":"levelo://app?vid=ed5f8f9c-24db-4495-ba73-b7cea4b154a2"},"vehicle_type_id":"4","last_reported":1736496764,"current_range_meters":38800,"station_id":"ce4bhnp2rcd13ifvqgvg","pricing_plan_id":"cebpf4jnsgd1na2vs0mg"},{"bike_id":"a9f9bb4f-d2d0-4aab-9ccc-a53de62b2651","system_id":"levelo_inurba_marseille","lat":43.29968,"lon":5.37172,"is_reserved":false,"is_disabled":false,"rental_uris":{"android":"levelo://app?vid=a9f9bb4f-d2d0-4aab-9ccc-a53de62b2651","ios":"levelo://app?vid=a9f9bb4f-d2d0-4aab-9ccc-a53de62b2651"},"vehicle_type_id":"4","last_reported":1736496764,"current_range_meters":39200,"station_id":"ce4bgr92rcd13ifvqc7g","pricing_plan_id":"cebpf4jnsgd1na2vs0mg"},{"bike_id":"06bc23f9-1449-4ecb-8815-1bd5e784d3da","system_id":"levelo_inurba_marseille","lat":43.3015,"lon":5.38083,"is_reserved":false,"is_disabled":false,"rental_uris":{"android":"levelo://app?vid=06bc23f9-1449-4ecb-8815-1bd5e784d3da","ios":"levelo://app?vid=06bc23f9-1449-4ecb-8815-1bd5e784d3da"},"vehicle_type_id":"4","last_reported":1736496764,"current_range_meters":38800,"station_id":"ce4bgjp2rcd13ifvqbh0","pricing_plan_id":"cebpf4jnsgd1na2vs0mg"},{"bike_id":"e3dc1723-c304-42fb-b1ea-ebc3611aa765","system_id":"levelo_inurba_marseille","lat":43.25933,"lon":5.40902,"is_reserved":false,"is_disabled":false,"rental_uris":{"android":"levelo://app?vid=e3dc1723-c304-42fb-b1ea-ebc3611aa765","ios":"levelo://app?vid=e3dc1723-c304-42fb-b1ea-ebc3611aa765"},"vehicle_type_id":"4","last_reported":1736496764,"current_range_meters":38800,"station_id":"ce4bhm92rcd13ifvqglg","pricing_plan_id":"cebpf4jnsgd1na2vs0mg"},{"bike_id":"8a00e315-7b27-4cb8-9e03-2d35731a8850","system_id":"levelo_inurba_marseille","lat":43.26932,"lon":5.38627,"is_reserved":false,"is_disabled":false,"rental_uris":{"android":"levelo://app?vid=8a00e315-7b27-4cb8-9e03-2d35731a8850","ios":"levelo://app?vid=8a00e315-7b27-4cb8-9e03-2d35731a8850"},"vehicle_type_id":"4","last_reported":1736496764,"current_range_meters":34000,"station_id":"ce4bhh92rcd13ifvqfh0","pricing_plan_id":"cebpf4jnsgd1na2vs0mg"},{"bike_id":"7cc324a9-304a-4a9d-933c-9a915149f8fc","system_id":"levelo_inurba_marseille","lat":43.26692,"lon":5.38278,"is_reserved":false,"is_disabled":true,"rental_uris":{"android":"levelo://app?vid=7cc324a9-304a-4a9d-933c-9a915149f8fc","ios":"levelo://app?vid=7cc324a9-304a-4a9d-933c-9a915149f8fc"},"vehicle_type_id":"4","last_reported":1736496764,"current_range_meters":38400,"station_id":"ce4bhg92rcd13ifvqf90","pricing_plan_id":"cebpf4jnsgd1na2vs0mg"},{"bike_id":"d0b6ff55-db5f-4cee-96e9-7ad0b40415e3","system_id":"levelo_inurba_marseille","lat":43.27677,"lon":5.38888,"is_reserved":false,"is_disabled":true,"rental_uris":{"android":"levelo://app?vid=d0b6ff55-db5f-4cee-96e9-7ad0b40415e3","ios":"levelo://app?vid=d0b6ff55-db5f-4cee-96e9-7ad0b40415e3"},"vehicle_type_id":"4","last_reported":1736496764,"current_range_meters":38800,"station_id":"ce4bhi12rcd13ifvqfo0","pricing_plan_id":"cebpf4jnsgd1na2vs0mg"},{"bike_id":"b27783f3-71c1-475e-869b-00c7daae61c4","system_id":"levelo_inurba_marseille","lat":43.30589,"lon":5.39349,"is_reserved":false,"is_disabled":false,"rental_uris":{"android":"levelo://app?vid=b27783f3-71c1-475e-869b-00c7daae61c4","ios":"levelo://app?vid=b27783f3-71c1-475e-869b-00c7daae61c4"},"vehicle_type_id":"4","last_reported":1736496764,"current_range_meters":8800,"station_id":"ce4bh0p2rcd13ifvqd80","pricing_plan_id":"cebpf4jnsgd1na2vs0mg"},{"bike_id":"b8acbba0-a715-4ced-a2aa-0517db10ac9d","system_id":"levelo_inurba_marseille","lat":43.229342,"lon":5.353635,"is_reserved":false,"is_disabled":false,"rental_uris":{"android":"levelo://app?vid=b8acbba0-a715-4ced-a2aa-0517db10ac9d","ios":"levelo://app?vid=b8acbba0-a715-4ced-a2aa-0517db10ac9d"},"vehicle_type_id":"4","last_reported":1736496764,"current_range_meters":8400,"station_id":"cpo3532slgdg3j2ikp40","pricing_plan_id":"cebpf4jnsgd1na2vs0mg"},{"bike_id":"84e1d660-1144-467b-8a93-ba412418d3a7","system_id":"levelo_inurba_marseille","lat":43.3059,"lon":5.37234,"is_reserved":false,"is_disabled":false,"rental_uris":{"android":"levelo://app?vid=84e1d660-1144-467b-8a93-ba412418d3a7","ios":"levelo://app?vid=84e1d660-1144-467b-8a93-ba412418d3a7"},"vehicle_type_id":"4","last_reported":1736496764,"current_range_meters":6000,"station_id":"ce4bgqh2rcd13ifvqc4g","pricing_plan_id":"cebpf4jnsgd1na2vs0mg"},{"bike_id":"5a173ea0-4611-4766-882b-d81deb475ed2","system_id":"levelo_inurba_marseille","lat":43.24065,"lon":5.37778,"is_reserved":false,"is_disabled":false,"rental_uris":{"android":"levelo://app?vid=5a173ea0-4611-4766-882b-d81deb475ed2","ios":"levelo://app?vid=5a173ea0-4611-4766-882b-d81deb475ed2"},"vehicle_type_id":"4","last_reported":1736496764,"current_range_meters":39200,"station_id":"ce4bhnp2rcd13ifvqgvg","pricing_plan_id":"cebpf4jnsgd1na2vs0mg"},{"bike_id":"6c961443-c9f1-4472-88ca-50d68b66f75b","system_id":"levelo_inurba_marseille","lat":43.26683,"lon":5.38276,"is_reserved":false,"is_disabled":false,"rental_uris":{"android":"levelo://app?vid=6c961443-c9f1-4472-88ca-50d68b66f75b","ios":"levelo://app?vid=6c961443-c9f1-4472-88ca-50d68b66f75b"},"vehicle_type_id":"4","last_reported":1736496764,"current_range_meters":36000,"station_id":"ce4bhg92rcd13ifvqf90","pricing_plan_id":"cebpf4jnsgd1na2vs0mg"},{"bike_id":"62f87a94-556e-4521-8c9a-cb113eefc874","system_id":"levelo_inurba_marseille","lat":43.289221,"lon":5.383959,"is_reserved":false,"is_disabled":true,"rental_uris":{"android":"levelo://app?vid=62f87a94-556e-4521-8c9a-cb113eefc874","ios":"levelo://app?vid=62f87a94-556e-4521-8c9a-cb113eefc874"},"vehicle_type_id":"4","last_reported":1736496764,"current_range_meters":2800,"station_id":"ce4bh612rcd13ifvqe6g","pricing_plan_id":"cebpf4jnsgd1na2vs0mg"},{"bike_id":"ad113f76-a766-497a-90be-d1902352af36","system_id":"levelo_inurba_marseille","lat":43.32118,"lon":5.36763,"is_reserved":false,"is_disabled":false,"rental_uris":{"android":"levelo://app?vid=ad113f76-a766-497a-90be-d1902352af36","ios":"levelo://app?vid=ad113f76-a766-497a-90be-d1902352af36"},"vehicle_type_id":"4","last_reported":1736496764,"current_range_meters":38800,"station_id":"ce4bhrh2rcd13ifvqhug","pricing_plan_id":"cebpf4jnsgd1na2vs0mg"},{"bike_id":"b5b938e3-6de4-48b2-b2c2-47f7643eb6da","system_id":"levelo_inurba_marseille","lat":43.3153,"lon":5.38034,"is_reserved":false,"is_disabled":false,"rental_uris":{"android":"levelo://app?vid=b5b938e3-6de4-48b2-b2c2-47f7643eb6da","ios":"levelo://app?vid=b5b938e3-6de4-48b2-b2c2-47f7643eb6da"},"vehicle_type_id":"4","last_reported":1736496764,"current_range_meters":12800,"station_id":"ce4bhsp2rcd13ifvqi50","pricing_plan_id":"cebpf4jnsgd1na2vs0mg"},