{"last_updated":1762873887,"ttl":60,"version":"2.2","data":{"bikes":[{"bike_id":"d7db12ce-11cc-4c98-8751-ac59baa5d7aa","system_id":"levelo_inurba_marseille","lat":43.337444,"lon":5.374475,"is_reserved":false,"is_disabled":false,"rental_uris":{"android":"levelo://app?vid=d7db12ce-11cc-4c98-8751-ac59baa5d7aa","ios":"levelo://app?vid=d7db12ce-11cc-4c98-8751-ac59baa5d7aa"},"vehicle_type_id":"4","last_reported":1762873887,"current_range_meters":0,"station_id":"","pricing_plan_id":"cebpf4jnsgd1na2vs0mg"},{"bike_id":"a6a87b5f-c427-4839-924c-5086c52bf68e","system_id":"levelo_inurba_marseille","lat":43.295223,"lon":5.419974,"is_reserved":false,"is_disabled":false,"rental_uris":{"android":"levelo://app?vid=a6a87b5f-c427-4839-924c-5086c52bf68e","ios":"levelo://app?vid=a6a87b5f-c427-4839-924c-5086c52bf68e"},"vehicle_type_id":"4","last_reported":1762873887,"current_range_meters":2800,"station_id":"st_d3md5207bmas73dh9klg","pricing_plan_id":"cebpf4jnsgd1na2vs0mg"},{"bike_id":"748d4d38-2b2d-4d35-81ff-b4d28299f0a2","system_id":"levelo_inurba_marseille","lat":43.265526,"lon":5.372838,"is_reserved":false,"is_disabled":false,"rental_uris":{"android":"levelo://app?vid=748d4d38-2b2d-4d35-81ff-b4d28299f0a2","ios":"levelo://app?vid=748d4d38-2b2d-4d35-81ff-b4d28299f0a2"},"vehicle_type_id":"4","last_reported":1762873887,"current_range_meters":2800,"station_id":"ce4bhg12rcd13ifvqf70","pricing_plan_id":"cebpf4jnsgd1na2vs0mg"},{"bike_id":"444db809-a4a9-4afc-baee-b2c80fbcc7a0","system_id":"levelo_inurba_marseille","lat":43.28488,"lon":5.38419,"is_reserved":false,"is_disabled":false,"rental_uris":{"android":"levelo://app?vid=444db809-a4a9-4afc-baee-b2c80fbcc7a0","ios":"levelo://app?vid=444db809-a4a9-4afc-baee-b2c80fbcc7a0"},"vehicle_type_id":"4","last_reported":1762873887,"current_range_meters":2800,"station_id":"ce4bh512rcd13ifvqe3g","pricing_plan_id":"cebpf4jnsgd1na2vs0mg"},{"bike_id":"3ac55e8f-0d41-4491-bdbd-48cc94f76f54","system_id":"levelo_inurba_marseille","lat":43.21201,"lon":5.35091,"is_reserved":false,"is_disabled":true,"rental_uris":{"android":"levelo://app?vid=3ac55e8f-0d41-4491-bdbd-48cc94f76f54","ios":"levelo://app?vid=3ac55e8f-0d41-4491-bdbd-48cc94f76f54"},"vehicle_type_id":"4","last_reported":1762873887,"current_range_meters":2800,"station_id":"st_cvj6sg6p6f1abm77japg","pricing_plan_id":"cebpf4jnsgd1na2vs0mg"},{"bike_id":"73e2caab-dd9a-49c5-8985-70796d0ba39e","system_id":"levelo_inurba_marseille","lat":43.32044,"lon":5.41548,"is_reserved":false,"is_disabled":false,"rental_uris":{"android":"levelo://app?vid=73e2caab-dd9a-49c5-8985-70796d0ba39e","ios":"levelo://app?vid=73e2caab-dd9a-49c5-8985-70796d0ba39e"},"vehicle_type_id":"4","last_reported":1762873887,"current_range_meters":2800,"station_id":"ce4bhq92rcd13ifvqhkg","pricing_plan_id":"cebpf4jnsgd1na2vs0mg"},{"bike_id":"4f4dd4cc-d36b-4f6e-ae5f-5a5c1b7c4999","system_id":"levelo_inurba_marseille","lat":43.326695,"lon":5.409883,"is_reserved":false,"is_disabled":false,"rental_uris":{"android":"levelo://app?vid=4f4dd4cc-d36b-4f6e-ae5f-5a5c1b7c4999","ios":"levelo://app?vid=4f4dd4cc-d36b-4f6e-ae5f-5a5c1b7c4999"},"vehicle_type_id":"4","last_reported":1762873887,"current_range_meters":3200,"station_id":"ce4bhpp2rcd13ifvqhgg","pricing_plan_id":"cebpf4jnsgd1na2vs0mg"},{"bike_id":"cef2d7c0-aae7-4207-9d44-e95b52da380c","system_id":"levelo_inurba_marseille","lat":43.231519,"lon":5.437112,"is_reserved":false,"is_disabled":false,"rental_uris":{"android":"levelo://app?vid=cef2d7c0-aae7-4207-9d44-e95b52da380c","ios":"levelo://app?vid=cef2d7c0-aae7-4207-9d44-e95b52da380c"},"vehicle_type_id":"4","last_reported":1762873887,"current_range_meters":3200,"station_id":"ce4bhmp2rcd13ifvqgog","pricing_plan_id":"cebpf4jnsgd1na2vs0mg"},{"bike_id":"ac0be0b0-60a9-4cb7-bd08-19b488685017","system_id":"levelo_inurba_marseille","lat":43.25734,"lon":5.41912,"is_reserved":false,"is_disabled":false,"rental_uris":{"android":"levelo://app?vid=ac0be0b0-60a9-4cb7-bd08-19b488685017","ios":"levelo://app?vid=ac0be0b0-60a9-4cb7-bd08-19b488685017"},"vehicle_type_id":"4","last_reported":1762873887,"current_range_meters":3200,"station_id":"","pricing_plan_id":"cebpf4jnsgd1na2vs0mg"},{"bike_id":"e033a0d7-8d5d-4c5a-9532-bf329f007370","system_id":"levelo_inurba_marseille","lat":43.24811,"lon":5.37456,"is_reserved":false,"is_disabled":false,"rental_uris":{"android":"levelo://app?vid=e033a0d7-8d5d-4c5a-9532-bf329f007370","ios":"levelo://app?vid=e033a0d7-8d5d-4c5a-9532-bf329f007370"},"vehicle_type_id":"4","last_reported":1762873887,"current_range_meters":3600,"station_id":"ce4bhgh2rcd13ifvqfb0","pricing_plan_id":"cebpf4jnsgd1na2vs0mg"},{"bike_id":"a7e0e980-eff3-4a3f-b22b-b658162fe152","system_id":"levelo_inurba_marseille","lat":43.28127,"lon":5.40139,"is_reserved":false,"is_disabled":false,"rental_uris":{"android":"levelo://app?vid=a7e0e980-eff3-4a3f-b22b-b658162fe152","ios":"levelo://app?vid=a7e0e980-eff3-4a3f-b22b-b658162fe152"},"vehicle_type_id":"4","last_reported":1762873887,"current_range_meters":3600,"station_id":"","pricing_plan_id":"cebpf4jnsgd1na2vs0mg"},{"bike_id":"cb755174-03c1-435d-9ead-9059e7621d77","system_id":"levelo_inurba_marseille","lat":43.30736,"lon":5.42431,"is_reserved":false,"is_disabled":false,"rental_uris":{"android":"levelo://app?vid=cb755174-03c1-435d-9ead-9059e7621d77","ios":"levelo://app?vid=cb755174-03c1-435d-9ead-9059e7621d77"},"vehicle_type_id":"4","last_reported":1762873887,"current_range_meters":3600,"station_id":"st_cvj6ca6bvosntc0bfgr0","pricing_plan_id":"cebpf4jnsgd1na2vs0mg"},{"bike_id":"56afe168-4d8c-4d36-b92a-105b46a41244","system_id":"levelo_inurba_marseille","lat":43.30887,"lon":5.39656,"is_reserved":false,"is_disabled":false,"rental_uris":{"android":"levelo://app?vid=56afe168-4d8c-4d36-b92a-105b46a41244","ios":"levelo://app?vid=56afe168-4d8c-4d36-b92a-105b46a41244"},"vehicle_type_id":"4","last_reported":1762873887,"current_range_meters":3600,"station_id":"ce4bh012rcd13ifvqcv0","pricing_plan_id":"cebpf4jnsgd1na2vs0mg"},{"bike_id":"3093c077-3381-4adf-a9e4-42634b6a2640","system_id":"levelo_inurba_marseille","lat":43.2481,"lon":5.37462,"is_reserved":false,"is_disabled":false,"rental_uris":{"android":"levelo://app?vid=3093c077-3381-4adf-a9e4-42634b6a2640","ios":"levelo://app?vid=3093c077-3381-4adf-a9e4-42634b6a2640"},"vehicle_type_id":"4","last_reported":1762873887,"current_range_meters":3600,"station_id":"ce4bhgh2rcd13ifvqfb0","pricing_plan_id":"cebpf4jnsgd1na2vs0mg"},{"bike_id":"e8881b2d-64bd-4be8-ac42-595c8055299b","system_id":"levelo_inurba_marseille","lat":43.29261,"lon":5.38439,"is_reserved":false,"is_disabled":false,"rental_uris":{"android":"levelo://app?vid=e8881b2d-64bd-4be8-ac42-595c8055299b","ios":"levelo://app?vid=e8881b2d-64bd-4be8-ac42-595c8055299b"},"vehicle_type_id":"4","last_reported":1762873887,"current_range_meters":3600,"station_id":"ce4bh692rcd13ifvqea0","pricing_plan_id":"cebpf4jnsgd1na2vs0mg"},{"bike_id":"89c69d07-efb8-4106-96f9-82b4b73867d0","system_id":"levelo_inurba_marseille","lat":43.29022,"lon":5.38628,"is_reserved":false,"is_disabled":false,"rental_uris":{"android":"levelo://app?vid=89c69d07-efb8-4106-96f9-82b4b73867d0","ios":"levelo://app?vid=89c69d07-efb8-4106-96f9-82b4b73867d0"},"vehicle_type_id":"4","last_reported":1762873887,"current_range_meters":3600,"station_id":"ce4bh4p2rcd13ifvqe0g","pricing_plan_id":"cebpf4jnsgd1na2vs0mg"},{"bike_id":"2aa8b7c8-3401-4675-822f-459a8f967ff5","system_id":"levelo_inurba_marseille","lat":43.29936,"lon":5.36537,"is_reserved":false,"is_disabled":false,"rental_uris":{"android":"levelo://app?vid=2aa8b7c8-3401-4675-822f-459a8f967ff5","ios":"levelo://app?vid=2aa8b7c8-3401-4675-822f-459a8f967ff5"},"vehicle_type_id":"4","last_reported":1762873887,"current_range_meters":3600,"station_id":"ce4bgm92rcd13ifvqbr0","pricing_plan_id":"cebpf4jnsgd1na2vs0mg"},{"bike_id":"ad1c8150-f69d-4cc2-bcbf-e328de393a66","system_id":"levelo_inurba_marseille","lat":43.339399,"lon":5.415114,"is_reserved":false,"is_disabled":false,"rental_uris":{"android":"levelo://app?vid=ad1c8150-f69d-4cc2-bcbf-e328de393a66","ios":"levelo://app?vid=ad1c8150-f69d-4cc2-bcbf-e328de393a66"},"vehicle_type_id":"4","last_reported":1762873887,"current_range_meters":3600,"station_id":"","pricing_plan_id":"cebpf4jnsgd1na2vs0mg"},{"bike_id":"52f3481f-f63b-49be-9d54-9e7b6ba147a6","system_id":"levelo_inurba_marseille","lat":43.23967,"lon":5.36631,"is_reserved":false,"is_disabled":false,"rental_uris":{"android":"levelo://app?vid=52f3481f-f63b-49be-9d54-9e7b6ba147a6","ios":"levelo://app?vid=52f3481f-f63b-49be-9d54-9e7b6ba147a6"},"vehicle_type_id":"4","last_reported":1762873887,"current_range_meters":4000,"station_id":"ce4bhi12rcd13ifvqfp0","pricing_plan_id":"cebpf4jnsgd1na2vs0mg"},{"bike_id":"abb4e363-e180-461d-9d08-72a742729127","system_id":"levelo_inurba_marseille","lat":43.27998,"lon":5.40005,"is_reserved":false,"is_disabled":false,"rental_uris":{"android":"levelo://app?vid=abb4e363-e180-461d-9d08-72a742729127","ios":"levelo://app?vid=abb4e363-e180-461d-9d08-72a742729127"},"vehicle_type_id":"4","last_reported":1762873887,"current_range_meters":4000,"station_id":"ce4bho92rcd13ifvqh4g","pricing_plan_id":"cebpf4jnsgd1na2vs0mg"},{"bike_id":"005cb029-7662-4a0e-b27c-100ba918751c","system_id":"levelo_inurba_marseille","lat":43.23053,"lon":5.35509,"is_reserved":false,"is_disabled":false,"rental_uris":{"android":"levelo://app?vid=005cb029-7662-4a0e-b27c-100ba918751c","ios":"levelo://app?vid=005cb029-7662-4a0e-b27c-100ba918751c"},"vehicle_type_id":"4","last_reported":1762873887,"current_range_meters":4000,"station_id":"cpo3342slgdg3j2ifvpg","pricing_plan_id":"cebpf4jnsgd1na2vs0mg"},{"bike_id":"e775ae69-fb6e-4ba8-a0c8-b9d0df371e75","system_id":"levelo_inurba_marseille","lat":43.295379,"lon":5.39165,"is_reserved":false,"is_disabled":false,"rental_uris":{"android":"levelo://app?vid=e775ae69-fb6e-4ba8-a0c8-b9d0df371e75","ios":"levelo://app?vid=e775ae69-fb6e-4ba8-a0c8-b9d0df371e75"},"vehicle_type_id":"4","last_reported":1762873887,"current_range_meters":4000,"station_id":"ce4bh3p2rcd13ifvqdp0","pricing_plan_id":"cebpf4jnsgd1na2vs0mg"},{"bike_id":"57e87501-6bbf-4e2e-acfc-c38da1e892e6","system_id":"levelo_inurba_marseille","lat":43.31365,"lon":5.38501,"is_reserved":false,"is_disabled":false,"rental_uris":{"android":"levelo://app?vid=57e87501-6bbf-4e2e-acfc-c38da1e892e6","ios":"levelo://app?vid=57e87501-6bbf-4e2e-acfc-c38da1e892e6"},"vehicle_type_id":"4","last_reported":1762873887,"current_range_meters":4400,"station_id":"ce4bgt92rcd13ifvqcf0","pricing_plan_id":"cebpf4jnsgd1na2vs0mg"},{"bike_id":"0b9fcb0c-f09c-4344-90e5-8f0323043aaa","system_id":"levelo_inurba_marseille","lat":43.28617,"lon":5.35105,"is_reserved":false,"is_disabled":false,"rental_uris":{"android":"levelo://app?vid=0b9fcb0c-f09c-4344-90e5-8f0323043aaa","ios":"levelo://app?vid=0b9fcb0c-f09c-4344-90e5-8f0323043aaa"},"vehicle_type_id":"4","last_reported":1762873887,"current_range_meters":4400,"station_id":"ce4bhch2rcd13ifvqeug","pricing_plan_id":"cebpf4jnsgd1na2vs0mg"},{"bike_id":"a8c29ceb-851b-481e-9d2a-96b7bdf540dc","system_id":"levelo_inurba_marseille","lat":43.25086,"lon":5.39521,"is_reserved":false,"is_disabled":false,"rental_uris":{"android":"levelo://app?vid=a8c29ceb-851b-481e-9d2a-96b7bdf540dc","ios":"levelo://app?vid=a8c29ceb-851b-481e-9d2a-96b7bdf540dc"},"vehicle_type_id":"4","last_reported":1762873887,"current_range_meters":4400,"station_id":"ce4bhm12rcd13ifvqgkg","pricing_plan_id":"cebpf4jnsgd1na2vs0mg"},{"bike_id":"657f7aee-2b5a-403a-af71-970d01e8b870","system_id":"levelo_inurba_marseille","lat":43.29776,"lon":5.38102,"is_reserved":false,"is_disabled":false,"rental_uris":{"android":"levelo://app?vid=657f7aee-2b5a-403a-af71-970d01e8b870","ios":"levelo://app?vid=657f7aee-2b5a-403a-af71-970d01e8b870"},"vehicle_type_id":"4","last_reported":1762873887,"current_range_meters":4400,"station_id":"ce4bgip2rcd13ifvqbb0","pricing_plan_id":"cebpf4jnsgd1na2vs0mg"},{"bike_id":"41d82c36-a24c-466b-894a-dc447edaeab5","system_id":"levelo_inurba_marseille","lat":43.290324,"lon":5.399701,"is_reserved":false,"is_disabled":false,"rental_uris":{"android":"levelo://app?vid=41d82c36-a24c-466b-894a-dc447edaeab5","ios":"levelo://app?vid=41d82c36-a24c-466b-894a-dc447edaeab5"},"vehicle_type_id":"4","last_reported":1762873887,"current_range_meters":4400,"station_id":"ce4bh392rcd13ifvqdm0","pricing_plan_id":"cebpf4jnsgd1na2vs0mg"},{"bike_id":"9268250f-7db0-4f50-b716-06d61eb35535","system_id":"levelo_inurba_marseille","lat":43.28629,"lon":5.35092,"is_reserved":false,"is_disabled":false,"rental_uris":{"android":"levelo://app?vid=9268250f-7db0-4f50-b716-06d61eb35535","ios":"levelo://app?vid=9268250f-7db0-4f50-b716-06d61eb35535"},"vehicle_type_id":"4","last_reported":1762873887,"current_range_meters":4800,"station_id":"ce4bhch2rcd13ifvqeug","pricing_plan_id":"cebpf4jnsgd1na2vs0mg"},{"bike_id":"66c56a12-668f-455f-804a-e0cab0c52bb0","system_id":"levelo_inurba_marseille","lat":43.24778,"lon":5.37562,"is_reserved":false,"is_disabled":false,"rental_uris":{"android":"levelo://app?vid=66c56a12-668f-455f-804a-e0cab0c52bb0","ios":"levelo://app?vid=66c56a12-668f-455f-804a-e0cab0c52bb0"},"vehicle_type_id":"4","last_reported":1762873887,"current_range_meters":4800,"station_id":"ce4bhgh2rcd13ifvqfb0","pricing_plan_id":"cebpf4jnsgd1na2vs0mg"},{"bike_id":"3b230b9e-8abc-44c7-aac1-e3d9d8211b2f","system_id":"levelo_inurba_marseille","lat":43.29577,"lon":5.37518,"is_reserved":false,"is_disabled":false,"rental_uris":{"android":"levelo://app?vid=3b230b9e-8abc-44c7-aac1-e3d9d8211b2f","ios":"levelo://app?vid=3b230b9e-8abc-44c7-aac1-e3d9d8211b2f"},"vehicle_type_id":"4","last_reported":1762873887,"current_range_meters":4800,"station_id":"ce4bgh92rcd13ifvqb50","pricing_plan_id":"cebpf4jnsgd1na2vs0mg"},{"bike_id":"bbba1d32-530d-4274-9cab-41477f50b6cd","system_id":"levelo_inurba_marseille","lat":43.26037,"lon":5.37547,"is_reserved":false,"is_disabled":false,"rental_uris":{"android":"levelo://app?vid=bbba1d32-530d-4274-9cab-41477f50b6cd","ios":"levelo://app?vid=bbba1d32-530d-4274-9cab-41477f50b6cd"},"vehicle_type_id":"4","last_reported":1762873887,"current_range_meters":4800,"station_id":"ce4bhgh2rcd13ifvqfa0","pricing_plan_id":"cebpf4jnsgd1na2vs0mg"},{"bike_id":"c5825832-7f9b-4e11-b683-3da1dea323be","system_id":"levelo_inurba_marseille","lat":43.26214,"lon":5.37442,"is_reserved":false,"is_disabled":false,"rental_uris":{"android":"levelo://app?vid=c5825832-7f9b-4e11-b683-3da1dea323be","ios":"levelo://app?vid=c5825832-7f9b-4e11-b683-3da1dea323be"},"vehicle_type_id":"4","last_reported":1762873887,"current_range_meters":4800,"station_id":"ce4bhgp2rcd13ifvqfc0","pricing_plan_id":"cebpf4jnsgd1na2vs0mg"},{"bike_id":"7f27490a-2d4f-43f9-810d-e24c945d94e1","system_id":"levelo_inurba_marseille","lat":43.30146,"lon":5.37422,"is_reserved":false,"is_disabled":false,"rental_uris":{"android":"levelo://app?vid=7f27490a-2d4f-43f9-810d-e24c945d94e1","ios":"levelo://app?vid=7f27490a-2d4f-43f9-810d-e24c945d94e1"},"vehicle_type_id":"4","last_reported":1762873887,"current_range_meters":5600,"station_id":"ce4bgs92rcd13ifvqcc0","pricing_plan_id":"cebpf4jnsgd1na2vs0mg"},{"bike_id":"ffc9512f-00c2-49f3-b42f-6157fb6d2998","system_id":"levelo_inurba_marseille","lat":43.29004,"lon":5.3562,"is_reserved":false,"is_disabled":false,"rental_uris":{"android":"levelo://app?vid=ffc9512f-00c2-49f3-b42f-6157fb6d2998","ios":"levelo://app?vid=ffc9512f-00c2-49f3-b42f-6157fb6d2998"},"vehicle_type_id":"4","last_reported":1762873887,"current_range_meters":5600,"station_id":"ce4bhb92rcd13ifvqen0","pricing_plan_id":"cebpf4jnsgd1na2vs0mg"},{"bike_id":"87e4a9e7-578f-43b2-8919-0dac83c7f3a0","system_id":"levelo_inurba_marseille","lat":43.30537,"lon":5.36717,"is_reserved":false,"is_disabled":false,"rental_uris":{"android":"levelo://app?vid=87e4a9e7-578f-43b2-8919-0dac83c7f3a0","ios":"levelo://app?vid=87e4a9e7-578f-43b2-8919-0dac83c7f3a0"},"vehicle_type_id":"4","last_reported":1762873887,"current_range_meters":5600,"station_id":"ce4bgrp2rcd13ifvqc9g","pricing_plan_id":"cebpf4jnsgd1na2vs0mg"},{"bike_id":"d711fd67-c44e-400e-a980-039b6203fe2d","system_id":"levelo_inurba_marseille","lat":43.27947,"lon":5.4105,"is_reserved":false,"is_disabled":false,"rental_uris":{"android":"levelo://app?vid=d711fd67-c44e-400e-a980-039b6203fe2d","ios":"levelo://app?vid=d711fd67-c44e-400e-a980-039b6203fe2d"},"vehicle_type_id":"4","last_reported":1762873887,"current_range_meters":5600,"station_id":"ce4bhnp2rcd13ifvqh0g","pricing_plan_id":"cebpf4jnsgd1na2vs0mg"},{"bike_id":"57a26d6a-ab2c-4687-ac41-30aa422e681a","system_id":"levelo_inurba_marseille","lat":43.28281,"lon":5.35073,"is_reserved":false,"is_disabled":true,"rental_uris":{"android":"levelo://app?vid=57a26d6a-ab2c-4687-ac41-30aa422e681a","ios":"levelo://app?vid=57a26d6a-ab2c-4687-ac41-30aa422e681a"},"vehicle_type_id":"4","last_reported":1762873887,"current_range_meters":5600,"station_id":"ce4bhbp2rcd13ifvqerg","pricing_plan_id":"cebpf4jnsgd1na2vs0mg"},{"bike_id":"e47465b0-e352-43b9-9e55-aaff987f6028","system_id":"levelo_inurba_marseille","lat":43.27943,"lon":5.41048,"is_reserved":false,"is_disabled":false,"rental_uris":{"android":"levelo://app?vid=e47465b0-e352-43b9-9e55-aaff987f6028","ios":"levelo://app?vid=e47465b0-e352-43b9-9e55-aaff987f6028"},"vehicle_type_id":"4","last_reported":1762873887,"current_range_meters":5600,"station_id":"ce4bhnp2rcd13ifvqh0g","pricing_plan_id":"cebpf4jnsgd1na2vs0mg"},{"bike_id":"b9a27458-dcdf-4d59-bf97-cbf31da728e5","system_id":"levelo_inurba_marseille","lat":43.30597,"lon":5.37225,"is_reserved":false,"is_disabled":false,"rental_uris":{"android":"levelo://app?vid=b9a27458-dcdf-4d59-bf97-cbf31da728e5","ios":"levelo://app?vid=b9a27458-dcdf-4d59-bf97-cbf31da728e5"},"vehicle_type_id":"4","last_reported":1762873887,"current_range_meters":5600,"station_id":"ce4bgqh2rcd13ifvqc4g","pricing_plan_id":"cebpf4jnsgd1na2vs0mg"},{"bike_id":"d2d2393f-870c-4b30-8f45-79d9d7226c0e","system_id":"levelo_inurba_marseille","lat":43.30932,"lon":5.40145,"is_reserved":false,"is_disabled":false,"rental_uris":{"android":"levelo://app?vid=d2d2393f-870c-4b30-8f45-79d9d7226c0e","ios":"levelo://app?vid=d2d2393f-870c-4b30-8f45-79d9d7226c0e"},"vehicle_type_id":"4","last_reported":1762873887,"current_range_meters":6000,"station_id":"ce4bgvp2rcd13ifvqct0","pricing_plan_id":"cebpf4jnsgd1na2vs0mg"},{"bike_id":"0568fcc1-fe1e-45f3-97b8-b53d46a03490","system_id":"levelo_inurba_marseille","lat":43.25524,"lon":5.37654,"is_reserved":false,"is_disabled":false,"rental_uris":{"android":"levelo://app?vid=0568fcc1-fe1e-45f3-97b8-b53d46a03490","ios":"levelo://app?vid=0568fcc1-fe1e-45f3-97b8-b53d46a03490"},"vehicle_type_id":"4","last_reported":1762873887,"current_range_meters":6400,"station_id":"ce4bhh12rcd13ifvqff0","pricing_plan_id":"cebpf4jnsgd1na2vs0mg"},{"bike_id":"9544b275-d46c-4caf-a109-da9b2b69b33b","system_id":"levelo_inurba_marseille","lat":43.24393,"lon":5.37057,"is_reserved":false,"is_disabled":false,"rental_uris":{"android":"levelo://app?vid=9544b275-d46c-4caf-a109-da9b2b69b33b","ios":"levelo://app?vid=9544b275-d46c-4caf-a109-da9b2b69b33b"},"vehicle_type_id":"4","last_reported":1762873887,"current_range_meters":6400,"station_id":"ce4bgi92rcd13ifvqb90","pricing_plan_id":"cebpf4jnsgd1na2vs0mg"},{"bike_id":"59279097-6ccc-4377-8f7d-b5492ffa550f","system_id":"levelo_inurba_marseille","lat":43.273781,"lon":5.362612,"is_reserved":false,"is_disabled":false,"rental_uris":{"android":"levelo://app?vid=59279097-6ccc-4377-8f7d-b5492ffa550f","ios":"levelo://app?vid=59279097-6ccc-4377-8f7d-b5492ffa550f"},"vehicle_type_id":"4","last_reported":1762873887,"current_range_meters":6400,"station_id":"st_cvj5dfep6f1abm77gieg","pricing_plan_id":"cebpf4jnsgd1na2vs0mg"},{"bike_id":"e788921d-0fcf-46b4-b5d3-97e0e128f3fb","system_id":"levelo_inurba_marseille","lat":43.254931,"lon":5.376506,"is_reserved":false,"is_disabled":false,"rental_uris":{"android":"levelo://app?vid=e788921d-0fcf-46b4-b5d3-97e0e128f3fb","ios":"levelo://app?vid=e788921d-0fcf-46b4-b5d3-97e0e128f3fb"},"vehicle_type_id":"4","last_reported":1762873887,"current_range_meters":6400,"station_id":"ce4bhh12rcd13ifvqff0","pricing_plan_id":"cebpf4jnsgd1na2vs0mg"},{"bike_id":"c0600dc5-5887-40d7-9597-81eca1ae980b","system_id":"levelo_inurba_marseille","lat":43.225311,"lon":5.348335,"is_reserved":false,"is_disabled":false,"rental_uris":{"android":"levelo://app?vid=c0600dc5-5887-40d7-9597-81eca1ae980b","ios":"levelo://app?vid=c0600dc5-5887-40d7-9597-81eca1ae980b"},"vehicle_type_id":"4","last_reported":1762873887,"current_range_meters":6400,"station_id":"","pricing_plan_id":"cebpf4jnsgd1na2vs0mg"},{"bike_id":"a612f07d-72e2-4d25-9036-00890a201b37","system_id":"levelo_inurba_marseille","lat":43.287868,"lon":5.366086,"is_reserved":false,"is_disabled":false,"rental_uris":{"android":"levelo://app?vid=a612f07d-72e2-4d25-9036-00890a201b37","ios":"levelo://app?vid=a612f07d-72e2-4d25-9036-00890a201b37"},"vehicle_type_id":"4","last_reported":1762873887,"current_range_meters":6400,"station_id":"ce4bhah2rcd13ifvqej0","pricing_plan_id":"cebpf4jnsgd1na2vs0mg"},{"bike_id":"32b33266-3880-46fa-8244-96c8dc710346","system_id":"levelo_inurba_marseille","lat":43.28724,"lon":5.36097,"is_reserved":false,"is_disabled":false,"rental_uris":{"android":"levelo://app?vid=32b33266-3880-46fa-8244-96c8dc710346","ios":"levelo://app?vid=32b33266-3880-46fa-8244-96c8dc710346"},"vehicle_type_id":"4","last_reported":1762873887,"current_range_meters":6400,"station_id":"cki0cbj6b192h4jlfktg","pricing_plan_id":"cebpf4jnsgd1na2vs0mg"},{"bike_id":"c25cc6ed-92f3-4de2-b79a-e5ce3fbff389","system_id":"levelo_inurba_marseille","lat":43.2558,"lon":5.38232,"is_reserved":false,"is_disabled":false,"rental_uris":{"android":"levelo://app?vid=c25cc6ed-92f3-4de2-b79a-e5ce3fbff389","ios":"levelo://app?vid=c25cc6ed-92f3-4de2-b79a-e5ce3fbff389"},"vehicle_type_id":"4","last_reported":1762873887,"current_range_meters":6400,"station_id":"ce4bhih2rcd13ifvqfs0","pricing_plan_id":"cebpf4jnsgd1na2vs0mg"},{"bike_id":"1f5a8b7a-4f85-432e-8a2e-1320e8301faa","system_id":"levelo_inurba_marseille","lat":43.33145,"lon":5.37719,"is_reserved":false,"is_disabled":false,"rental_uris":{"android":"levelo://app?vid=1f5a8b7a-4f85-432e-8a2e-1320e8301faa","ios":"levelo://app?vid=1f5a8b7a-4f85-432e-8a2e-1320e8301faa"},"vehicle_type_id":"4","last_reported":1762873887,"current_range_meters":6400,"station_id":"st_d46cu089ee8s73dldbu0","pricing_plan_id":"cebpf4jnsgd1na2vs0mg"},{"bike_id":"4b7b323a-1c58-401d-ab91-8b7f7b5e165a","system_id":"levelo_inurba_marseille","lat":43.28257,"lon":5.3507,"is_reserved":false,"is_disabled":false,"rental_uris":{"android":"levelo://app?vid=4b7b323a-1c58-401d-ab91-8b7f7b5e165a","ios":"levelo://app?vid=4b7b323a-1c58-401d-ab91-8b7f7b5e165a"},"vehicle_type_id":"4","last_reported":1762873887,"current_range_meters":6400,"station_id":"ce4bhbp2rcd13ifvqerg","pricing_plan_id":"cebpf4jnsgd1na2vs0mg"},{"bike_id":"4dae0e47-21e0-481f-b91d-b1f88b44826a","system_id":"levelo_inurba_marseille","lat":43.26199,"lon":5.37455,"is_reserved":false,"is_disabled":false,"rental_uris":{"android":"levelo://app?vid=4dae0e47-21e0-481f-b91d-b1f88b44826a","ios":"levelo://app?vid=4dae0e47-21e0-481f-b91d-b1f88b44826a"},"vehicle_type_id":"4","last_reported":1762873887,"current_range_meters":6400,"station_id":"ce4bhgp2rcd13ifvqfc0","pricing_plan_id":"cebpf4jnsgd1na2vs0mg"},{"bike_id":"702a69dc-54b2-42cb-a5d3-d745c226e7f6","system_id":"levelo_inurba_marseille","lat":43.30216,"lon":5.39483,"is_reserved":false,"is_disabled":false,"rental_uris":{"android":"levelo://app?vid=702a69dc-54b2-42cb-a5d3-d745c226e7f6","ios":"levelo://app?vid=702a69dc-54b2-42cb-a5d3-d745c226e7f6"},"vehicle_type_id":"4","last_reported":1762873887,"current_range_meters":6400,"station_id":"ce4bh0p2rcd13ifvqd70","pricing_plan_id":"cebpf4jnsgd1na2vs0mg"},{"bike_id":"355d0a72-63a4-43ac-addc-15604eb0aa69","system_id":"levelo_inurba_marseille","lat":43.29923,"lon":5.36395,"is_reserved":false,"is_disabled":false,"rental_uris":{"android":"levelo://app?vid=355d0a72-63a4-43ac-addc-15604eb0aa69","ios":"levelo://app?vid=355d0a72-63a4-43ac-addc-15604eb0aa69"},"vehicle_type_id":"4","last_reported":1762873887,"current_range_meters":6400,"station_id":"","pricing_plan_id":"cebpf4jnsgd1na2vs0mg"},{"bike_id":"31d0ef70-9826-414c-a45d-2bfd872631b0","system_id":"levelo_inurba_marseille","lat":43.24068,"lon":5.37768,"is_reserved":false,"is_disabled":false,"rental_uris":{"android":"levelo://app?vid=31d0ef70-9826-414c-a45d-2bfd872631b0","ios":"levelo://app?vid=31d0ef70-9826-414c-a45d-2bfd872631b0"},"vehicle_type_id":"4","last_reported":1762873887,"current_range_meters":6800,"station_id":"ce4bhnp2rcd13ifvqgvg","pricing_plan_id":"cebpf4jnsgd1na2vs0mg"},{"bike_id":"42e6ed27-2352-4ac9-ae38-bb72fcbc728d","system_id":"levelo_inurba_marseille","lat":43.30422,"lon":5.41285,"is_reserved":false,"is_disabled":false,"rental_uris":{"android":"levelo://app?vid=42e6ed27-2352-4ac9-ae38-bb72fcbc728d","ios":"levelo://app?vid=42e6ed27-2352-4ac9-ae38-bb72fcbc728d"},"vehicle_type_id":"4","last_reported":1762873887,"current_range_meters":6800,"station_id":"ce4bhop2rcd13ifvqh8g","pricing_plan_id":"cebpf4jnsgd1na2vs0mg"},{"bike_id":"023321f7-ba35-44aa-910f-e6775d50c5f8","system_id":"levelo_inurba_marseille","lat":43.29532,"lon":5.38548,"is_reserved":false,"is_disabled":false,"rental_uris":{"android":"levelo://app?vid=023321f7-ba35-44aa-910f-e6775d50c5f8","ios":"levelo://app?vid=023321f7-ba35-44aa-910f-e6775d50c5f8"},"vehicle_type_id":"4","last_reported":1762873887,"current_range_meters":6800,"station_id":"ce4bgih2rcd13ifvqba0","pricing_plan_id":"cebpf4jnsgd1na2vs0mg"},{"bike_id":"da28118a-ac10-4ae1-8354-aa013d9b1b59","system_id":"levelo_inurba_marseille","lat":43.26215,"lon":5.3744,"is_reserved":false,"is_disabled":false,"rental_uris":{"android":"levelo://app?vid=da28118a-ac10-4ae1-8354-aa013d9b1b59","ios":"levelo://app?vid=da28118a-ac10-4ae1-8354-aa013d9b1b59"},"vehicle_type_id":"4","last_reported":1762873887,"current_range_meters":6800,"station_id":"ce4bhgp2rcd13ifvqfc0","pricing_plan_id":"cebpf4jnsgd1na2vs0mg"},{"bike_id":"9ade1fe7-d83f-4045-9bd3-74892e77626e","system_id":"levelo_inurba_marseille","lat":43.240816,"lon":5.377272,"is_reserved":false,"is_disabled":true,"rental_uris":{"android":"levelo://app?vid=9ade1fe7-d83f-4045-9bd3-74892e77626e","ios":"levelo://app?vid=9ade1fe7-d83f-4045-9bd3-74892e77626e"},"vehicle_type_id":"4","last_reported":1762873887,"current_range_meters":6800,"station_id":"ce4bhnp2rcd13ifvqgvg","pricing_plan_id":"cebpf4jnsgd1na2vs0mg"},{"bike_id":"ab8c3c26-7f2c-44cb-819f-81becbcc3d6c","system_id":"levelo_inurba_marseille","lat":43.304202,"lon":5.397342,"is_reserved":false,"is_disabled":true,"rental_uris":{"android":"levelo://app?vid=ab8c3c26-7f2c-44cb-819f-81becbcc3d6c","ios":"levelo://app?vid=ab8c3c26-7f2c-44cb-819f-81becbcc3d6c"},"vehicle_type_id":"4","last_reported":1762873887,"current_range_meters":6800,"station_id":"ce4bh092rcd13ifvqd20","pricing_plan_id":"cebpf4jnsgd1na2vs0mg"},{"bike_id":"bfce8ebe-2be0-41ac-819c-eac83a3db105","system_id":"levelo_inurba_marseille","lat":43.290411,"lon":5.37542,"is_reserved":false,"is_disabled":false,"rental_uris":{"android":"levelo://app?vid=bfce8ebe-2be0-41ac-819c-eac83a3db105","ios":"levelo://app?vid=bfce8ebe-2be0-41ac-819c-eac83a3db105"},"vehicle_type_id":"4","last_reported":1762873887,"current_range_meters":6800,"station_id":"ce4bh692rcd13ifvqe90","pricing_plan_id":"cebpf4jnsgd1na2vs0mg"},{"bike_id":"225a47a6-cfe5-40fb-a5e1-1984516e2f93","system_id":"levelo_inurba_marseille","lat":43.30325,"lon":5.4043,"is_reserved":false,"is_disabled":false,"rental_uris":{"android":"levelo://app?vid=225a47a6-cfe5-40fb-a5e1-1984516e2f93","ios":"levelo://app?vid=225a47a6-cfe5-40fb-a5e1-1984516e2f93"},"vehicle_type_id":"4","last_reported":1762873887,"current_range_meters":6800,"station_id":"ce4bh012rcd13ifvqd10","pricing_plan_id":"cebpf4jnsgd1na2vs0mg"},{"bike_id":"4d435189-645b-48b0-9927-fb064755cc5f","system_id":"levelo_inurba_marseille","lat":43.30215,"lon":5.39482,"is_reserved":false,"is_disabled":false,"rental_uris":{"android":"levelo://app?vid=4d435189-645b-48b0-9927-fb064755cc5f","ios":"levelo://app?vid=4d435189-645b-48b0-9927-fb064755cc5f"},"vehicle_type_id":"4","last_reported":1762873887,"current_range_meters":6800,"station_id":"ce4bh0p2rcd13ifvqd70","pricing_plan_id":"cebpf4jnsgd1na2vs0mg"},{"bike_id":"cc73260f-df21-4bd8-9cf8-273b44b263a2","system_id":"levelo_inurba_marseille","lat":43.29087,"lon":5.38125,"is_reserved":false,"is_disabled":false,"rental_uris":{"android":"levelo://app?vid=cc73260f-df21-4bd8-9cf8-273b44b263a2","ios":"levelo://app?vid=cc73260f-df21-4bd8-9cf8-273b44b263a2"},"vehicle_type_id":"4","last_reported":1762873887,"current_range_meters":6800,"station_id":"ce4bh512rcd13ifvqe2g","pricing_plan_id":"cebpf4jnsgd1na2vs0mg"},{"bike_id":"9f9dfa14-744c-4e18-b161-769384239f36","system_id":"levelo_inurba_marseille","lat":43.29037,"lon":5.39963,"is_reserved":false,"is_disabled":false,"rental_uris":{"android":"levelo://app?vid=9f9dfa14-744c-4e18-b161-769384239f36","ios":"levelo://app?vid=9f9dfa14-744c-4e18-b161-769384239f36"},"vehicle_type_id":"4","last_reported":1762873887,"current_range_meters":7200,"station_id":"ce4bh392rcd13ifvqdm0","pricing_plan_id":"cebpf4jnsgd1na2vs0mg"},{"bike_id":"285edc02-c40d-4315-906b-2d38b29ac259","system_id":"levelo_inurba_marseille","lat":43.33779,"lon":5.37473,"is_reserved":false,"is_disabled":false,"rental_uris":{"android":"levelo://app?vid=285edc02-c40d-4315-906b-2d38b29ac259","ios":"levelo://app?vid=285edc02-c40d-4315-906b-2d38b29ac259"},"vehicle_type_id":"4","last_reported":1762873887,"current_range_meters":7200,"station_id":"","pricing_plan_id":"cebpf4jnsgd1na2vs0mg"},{"bike_id":"f1bf712e-22ef-4ea0-8556-3b0dbbd7164d","system_id":"levelo_inurba_marseille","lat":43.29907,"lon":5.38154,"is_reserved":false,"is_disabled":false,"rental_uris":{"android":"levelo://app?vid=f1bf712e-22ef-4ea0-8556-3b0dbbd7164d","ios":"levelo://app?vid=f1bf712e-22ef-4ea0-8556-3b0dbbd7164d"},"vehicle_type_id":"4","last_reported":1762873887,"current_range_meters":7200,"station_id":"ce4bgj12rcd13ifvqbc0","pricing_plan_id":"cebpf4jnsgd1na2vs0mg"},{"bike_id":"532d4a9f-f883-4dc9-b19d-450c2250cf2e","system_id":"levelo_inurba_marseille","lat":43.29593,"lon":5.3773,"is_reserved":false,"is_disabled":true,"rental_uris":{"android":"levelo://app?vid=532d4a9f-f883-4dc9-b19d-450c2250cf2e","ios":"levelo://app?vid=532d4a9f-f883-4dc9-b19d-450c2250cf2e"},"vehicle_type_id":"4","last_reported":1762873887,"current_range_meters":7200,"station_id":"ce4bgi92rcd13ifvqb90","pricing_plan_id":"cebpf4jnsgd1na2vs0mg"},{"bike_id":"b6026ba5-b813-4ddf-87a0-d25310f18496","system_id":"levelo_inurba_marseille","lat":43.22933,"lon":5.35389,"is_reserved":false,"is_disabled":false,"rental_uris":{"android":"levelo://app?vid=b6026ba5-b813-4ddf-87a0-d25310f18496","ios":"levelo://app?vid=b6026ba5-b813-4ddf-87a0-d25310f18496"},"vehicle_type_id":"4","last_reported":1762873887,"current_range_meters":7200,"station_id":"cpo3532slgdg3j2ikp40","pricing_plan_id":"cebpf4jnsgd1na2vs0mg"},{"bike_id":"a153bb7a-facf-4d89-8fb0-01e6272ba505","system_id":"levelo_inurba_marseille","lat":43.27,"lon":5.38811,"is_reserved":false,"is_disabled":false,"rental_uris":{"android":"levelo://app?vid=a153bb7a-facf-4d89-8fb0-01e6272ba505","ios":"levelo://app?vid=a153bb7a-facf-4d89-8fb0-01e6272ba505"},"vehicle_type_id":"4","last_reported":1762873887,"current_range_meters":7200,"station_id":"","pricing_plan_id":"cebpf4jnsgd1na2vs0mg"},{"bike_id":"4dba09d3-835d-4313-a6d8-3da20a1325dd","system_id":"levelo_inurba_marseille","lat":43.29905,"lon":5.4368,"is_reserved":false,"is_disabled":false,"rental_uris":{"android":"levelo://app?vid=4dba09d3-835d-4313-a6d8-3da20a1325dd","ios":"levelo://app?vid=4dba09d3-835d-4313-a6d8-3da20a1325dd"},"vehicle_type_id":"4","last_reported":1762873887,"current_range_meters":7200,"station_id":"ce4bhpp2rcd13ifvqhfg","pricing_plan_id":"cebpf4jnsgd1na2vs0mg"},{"bike_id":"c620c9fc-398f-4dca-8fdd-2b652311235d","system_id":"levelo_inurba_marseille","lat":43.21193,"lon":5.35079,"is_reserved":false,"is_disabled":true,"rental_uris":{"android":"levelo://app?vid=c620c9fc-398f-4dca-8fdd-2b652311235d","ios":"levelo://app?vid=c620c9fc-398f-4dca-8fdd-2b652311235d"},"vehicle_type_id":"4","last_reported":1762873887,"current_range_meters":7200,"station_id":"st_cvj6sg6p6f1abm77japg","pricing_plan_id":"cebpf4jnsgd1na2vs0mg"},{"bike_id":"939012e1-2df4-4fee-933c-4c283ffb8f90","system_id":"levelo_inurba_marseille","lat":43.29192,"lon":5.35816,"is_reserved":false,"is_disabled":false,"rental_uris":{"android":"levelo://app?vid=939012e1-2df4-4fee-933c-4c283ffb8f90","ios":"levelo://app?vid=939012e1-2df4-4fee-933c-4c283ffb8f90"},"vehicle_type_id":"4","last_reported":1762873887,"current_range_meters":7200,"station_id":"ce4bhb12rcd13ifvqel0","pricing_plan_id":"cebpf4jnsgd1na2vs0mg"},{"bike_id":"d315980f-e55c-4a2b-8743-e45ce3622e8d","system_id":"levelo_inurba_marseille","lat":43.28493,"lon":5.48404,"is_reserved":false,"is_disabled":false,"rental_uris":{"android":"levelo://app?vid=d315980f-e55c-4a2b-8743-e45ce3622e8d","ios":"levelo://app?vid=d315980f-e55c-4a2b-8743-e45ce3622e8d"},"vehicle_type_id":"4","last_reported":1762873887,"current_range_meters":7200,"station_id":"st_d3svhcjqgbts73a3dn0g","pricing_plan_id":"cebpf4jnsgd1na2vs0mg"},{"bike_id":"dd65c95c-d224-406d-a58e-b606c4466aca","system_id":"levelo_inurba_marseille","lat":43.28412,"lon":5.37513,"is_reserved":false,"is_disabled":false,"rental_uris":{"android":"levelo://app?vid=dd65c95c-d224-406d-a58e-b606c4466aca","ios":"levelo://app?vid=dd65c95c-d224-406d-a58e-b606c4466aca"},"vehicle_type_id":"4","last_reported":1762873887,"current_range_meters":7200,"station_id":"ce4bh412rcd13ifvqds0","pricing_plan_id":"cebpf4jnsgd1na2vs0mg"},{"bike_id":"99f555dd-b87a-4899-bc4d-afec626c1e28","system_id":"levelo_inurba_marseille","lat":43.28478,"lon":5.48402,"is_reserved":false,"is_disabled":false,"rental_uris":{"android":"levelo://app?vid=99f555dd-b87a-4899-bc4d-afec626c1e28","ios":"levelo://app?vid=99f555dd-b87a-4899-bc4d-afec626c1e28"},"vehicle_type_id":"4","last_reported":1762873887,"current_range_meters":7200,"station_id":"","pricing_plan_id":"cebpf4jnsgd1na2vs0mg"},{"bike_id":"2a755a73-4fe6-40ca-ac8f-8b50945c19d2","system_id":"levelo_inurba_marseille","lat":43.29002,"lon":5.35613,"is_reserved":false,"is_disabled":false,"rental_uris":{"android":"levelo://app?vid=2a755a73-4fe6-40ca-ac8f-8b50945c19d2","ios":"levelo://app?vid=2a755a73-4fe6-40ca-ac8f-8b50945c19d2"},"vehicle_type_id":"4","last_reported":1762873887,"current_range_meters":8000,"station_id":"ce4bhb92rcd13ifvqen0","pricing_plan_id":"cebpf4jnsgd1na2vs0mg"},{"bike_id":"64a20e40-a6fd-48eb-a2d5-705239f93aec","system_id":"levelo_inurba_marseille","lat":43.21197,"lon":5.35079,"is_reserved":false,"is_disabled":false,"rental_uris":{"android":"levelo://app?vid=64a20e40-a6fd-48eb-a2d5-705239f93aec","ios":"levelo://app?vid=64a20e40-a6fd-48eb-a2d5-705239f93aec"},"vehicle_type_id":"4","last_reported":1762873887,"current_range_meters":8000,"station_id":"st_cvj6sg6p6f1abm77japg","pricing_plan_id":"cebpf4jnsgd1na2vs0mg"},{"bike_id":"65811392-51d5-46da-bc7e-5133910965c0","system_id":"levelo_inurba_marseille","lat":43.25582,"lon":5.38237,"is_reserved":false,"is_disabled":false,"rental_uris":{"android":"levelo://app?vid=65811392-51d5-46da-bc7e-5133910965c0","ios":"levelo://app?vid=65811392-51d5-46da-bc7e-5133910965c0"},"vehicle_type_id":"4","last_reported":1762873887,"current_range_meters":8000,"station_id":"ce4bhih2rcd13ifvqfs0","pricing_plan_id":"cebpf4jnsgd1na2vs0mg"},{"bike_id":"bb74d258-466d-432f-8dd5-86d205c78000","system_id":"levelo_inurba_marseille","lat":43.28631,"lon":5.35101,"is_reserved":false,"is_disabled":false,"rental_uris":{"android":"levelo://app?vid=bb74d258-466d-432f-8dd5-86d205c78000","ios":"levelo://app?vid=bb74d258-466d-432f-8dd5-86d205c78000"},"vehicle_type_id":"4","last_reported":1762873887,"current_range_meters":8000,"station_id":"ce4bhch2rcd13ifvqeug","pricing_plan_id":"cebpf4jnsgd1na2vs0mg"},{"bike_id":"1d80f4dd-2352-4315-81af-42c042c7fe37","system_id":"levelo_inurba_marseille","lat":43.28855,"lon":5.39342,"is_reserved":false,"is_disabled":true,"rental_uris":{"android":"levelo://app?vid=1d80f4dd-2352-4315-81af-42c042c7fe37","ios":"levelo://app?vid=1d80f4dd-2352-4315-81af-42c042c7fe37"},"vehicle_type_id":"4","last_reported":1762873887,"current_range_meters":8000,"station_id":"ce4bh2p2rcd13ifvqdi0","pricing_plan_id":"cebpf4jnsgd1na2vs0mg"},{"bike_id":"52f454c9-f31a-4bc1-b56a-61da074115c9","system_id":"levelo_inurba_marseille","lat":43.2842,"lon":5.37511,"is_reserved":false,"is_disabled":false,"rental_uris":{"android":"levelo://app?vid=52f454c9-f31a-4bc1-b56a-61da074115c9","ios":"levelo://app?vid=52f454c9-f31a-4bc1-b56a-61da074115c9"},"vehicle_type_id":"4","last_reported":1762873887,"current_range_meters":8000,"station_id":"ce4bh412rcd13ifvqds0","pricing_plan_id":"cebpf4jnsgd1na2vs0mg"},{"bike_id":"eeaff790-5c88-42a3-88f5-0c21d3f34b31","system_id":"levelo_inurba_marseille","lat":43.28262,"lon":5.35073,"is_reserved":false,"is_disabled":false,"rental_uris":{"android":"levelo://app?vid=eeaff790-5c88-42a3-88f5-0c21d3f34b31","ios":"levelo://app?vid=eeaff790-5c88-42a3-88f5-0c21d3f34b31"},"vehicle_type_id":"4","last_reported":1762873887,"current_range_meters":8000,"station_id":"ce4bhbp2rcd13ifvqerg","pricing_plan_id":"cebpf4jnsgd1na2vs0mg"},{"bike_id":"d89d845b-e507-4d17-b9a1-fa3a748f1213","system_id":"levelo_inurba_marseille","lat":43.279999,"lon":5.400224,"is_reserved":false,"is_disabled":false,"rental_uris":{"android":"levelo://app?vid=d89d845b-e507-4d17-b9a1-fa3a748f1213","ios":"levelo://app?vid=d89d845b-e507-4d17-b9a1-fa3a748f1213"},"vehicle_type_id":"4","last_reported":1762873887,"current_range_meters":8000,"station_id":"ce4bho92rcd13ifvqh4g","pricing_plan_id":"cebpf4jnsgd1na2vs0mg"},{"bike_id":"b2be4fa2-44ee-40dc-acc7-1755c74f1c5d","system_id":"levelo_inurba_marseille","lat":43.29746,"lon":5.41104,"is_reserved":false,"is_disabled":false,"rental_uris":{"android":"levelo://app?vid=b2be4fa2-44ee-40dc-acc7-1755c74f1c5d","ios":"levelo://app?vid=b2be4fa2-44ee-40dc-acc7-1755c74f1c5d"},"vehicle_type_id":"4","last_reported":1762873887,"current_range_meters":8000,"station_id":"","pricing_plan_id":"cebpf4jnsgd1na2vs0mg"},{"bike_id":"a73255c7-2daa-446a-aead-6fff6e5319d7","system_id":"levelo_inurba_marseille","lat":43.29269,"lon":5.36851,"is_reserved":false,"is_disabled":false,"rental_uris":{"android":"levelo://app?vid=a73255c7-2daa-446a-aead-6fff6e5319d7","ios":"levelo://app?vid=a73255c7-2daa-446a-aead-6fff6e5319d7"},"vehicle_type_id":"4","last_reported":1762873887,"current_range_meters":8000,"station_id":"ce4bhbp2rcd13ifvqesg","pricing_plan_id":"cebpf4jnsgd1na2vs0mg"},{"bike_id":"d22b494c-ea62-4a33-9366-48e696cd0950","system_id":"levelo_inurba_marseille","lat":43.29001,"lon":5.35605,"is_reserved":false,"is_disabled":false,"rental_uris":{"android":"levelo://app?vid=d22b494c-ea62-4a33-9366-48e696cd0950","ios":"levelo://app?vid=d22b494c-ea62-4a33-9366-48e696cd0950"},"vehicle_type_id":"4","last_reported":1762873887,"current_range_meters":8000,"station_id":"ce4bhb92rcd13ifvqen0","pricing_plan_id":"cebpf4jnsgd1na2vs0mg"},{"bike_id":"0cbf564c-38ed-4156-b597-457de6a405c5","system_id":"levelo_inurba_marseille","lat":43.273748,"lon":5.362559,"is_reserved":false,"is_disabled":false,"rental_uris":{"android":"levelo://app?vid=0cbf564c-38ed-4156-b597-457de6a405c5","ios":"levelo://app?vid=0cbf564c-38ed-4156-b597-457de6a405c5"},"vehicle_type_id":"4","last_reported":1762873887,"current_range_meters":8000,"station_id":"ce4bhbh2rcd13ifvqeo0","pricing_plan_id":"cebpf4jnsgd1na2vs0mg"},{"bike_id":"349b2ad9-adea-4dd9-9ac9-fffb121b5424","system_id":"levelo_inurba_marseille","lat":43.29892,"lon":5.37537,"is_reserved":false,"is_disabled":false,"rental_uris":{"android":"levelo://app?vid=349b2ad9-adea-4dd9-9ac9-fffb121b5424","ios":"levelo://app?vid=349b2ad9-adea-4dd9-9ac9-fffb121b5424"},"vehicle_type_id":"4","last_reported":1762873887,"current_range_meters":8400,"station_id":"","pricing_plan_id":"cebpf4jnsgd1na2vs0mg"},{"bike_id":"2e33db1f-8f56-4a2f-9861-bfd4cb7bbf50","system_id":"levelo_inurba_marseille","lat":43.28856,"lon":5.35857,"is_reserved":false,"is_disabled":false,"rental_uris":{"android":"levelo://app?vid=2e33db1f-8f56-4a2f-9861-bfd4cb7bbf50","ios":"levelo://app?vid=2e33db1f-8f56-4a2f-9861-bfd4cb7bbf50"},"vehicle_type_id":"4","last_reported":1762873887,"current_range_meters":8400,"station_id":"ce4bhb12rcd13ifvqem0","pricing_plan_id":"cebpf4jnsgd1na2vs0mg"},{"bike_id":"70a32fd1-3bfb-438b-8b1e-f105b709b762","system_id":"levelo_inurba_marseille","lat":43.28611,"lon":5.35105,"is_reserved":false,"is_disabled":false,"rental_uris":{"android":"levelo://app?vid=70a32fd1-3bfb-438b-8b1e-f105b709b762","ios":"levelo://app?vid=70a32fd1-3bfb-438b-8b1e-f105b709b762"},"vehicle_type_id":"4","last_reported":1762873887,"current_range_meters":8400,"station_id":"ce4bhch2rcd13ifvqeug","pricing_plan_id":"cebpf4jnsgd1na2vs0mg"},{"bike_id":"c0f9fd85-43f7-4dad-9679-7593581a1294","system_id":"levelo_inurba_marseille","lat":43.2321,"lon":5.35557,"is_reserved":false,"is_disabled":false,"rental_uris":{"android":"levelo://app?vid=c0f9fd85-43f7-4dad-9679-7593581a1294","ios":"levelo://app?vid=c0f9fd85-43f7-4dad-9679-7593581a1294"},"vehicle_type_id":"4","last_reported":1762873887,"current_range_meters":8400,"station_id":"ce4bhu92rcd13ifvqi70","pricing_plan_id":"cebpf4jnsgd1na2vs0mg"},{"bike_id":"c366bc24-2036-4c5b-aee2-0160ee0be124","system_id":"levelo_inurba_marseille","lat":43.29006,"lon":5.35605,"is_reserved":false,"is_disabled":false,"rental_uris":{"android":"levelo://app?vid=c366bc24-2036-4c5b-aee2-0160ee0be124","ios":"levelo://app?vid=c366bc24-2036-4c5b-aee2-0160ee0be124"},"vehicle_type_id":"4","last_reported":1762873887,"current_range_meters":8400,"station_id":"ce4bhb92rcd13ifvqen0","pricing_plan_id":"cebpf4jnsgd1na2vs0mg"},{"bike_id":"88c73795-aba4-4e42-9dd4-be7914b96bba","system_id":"levelo_inurba_marseille","lat":43.29748,"lon":5.42787,"is_reserved":false,"is_disabled":false,"rental_uris":{"android":"levelo://app?vid=88c73795-aba4-4e42-9dd4-be7914b96bba","ios":"levelo://app?vid=88c73795-aba4-4e42-9dd4-be7914b96bba"},"vehicle_type_id":"4","last_reported":1762873887,"current_range_meters":8400,"station_id":"st_d3md5207bmas73dh9klg","pricing_plan_id":"cebpf4jnsgd1na2vs0mg"},{"bike_id":"1648104b-81bc-4751-ace2-e97e844cd43d","system_id":"levelo_inurba_marseille","lat":43.284821,"lon":5.483922,"is_reserved":false,"is_disabled":false,"rental_uris":{"android":"levelo://app?vid=1648104b-81bc-4751-ace2-e97e844cd43d","ios":"levelo://app?vid=1648104b-81bc-4751-ace2-e97e844cd43d"},"vehicle_type_id":"4","last_reported":1762873887,"current_range_meters":8400,"station_id":"st_d3svhcjqgbts73a3dn0g","pricing_plan_id":"cebpf4jnsgd1na2vs0mg"},{"bike_id":"fd6f79c9-7b2b-44d9-8c54-6cd069c0dc16","system_id":"levelo_inurba_marseille","lat":43.29621,"lon":5.37153,"is_reserved":false,"is_disabled":false,"rental_uris":{"android":"levelo://app?vid=fd6f79c9-7b2b-44d9-8c54-6cd069c0dc16","ios":"levelo://app?vid=fd6f79c9-7b2b-44d9-8c54-6cd069c0dc16"},"vehicle_type_id":"4","last_reported":1762873887,"current_range_meters":8800,"station_id":"ce4bgnh2rcd13ifvqc0g","pricing_plan_id":"cebpf4jnsgd1na2vs0mg"},{"bike_id":"bcddd725-ec41-4c06-a09d-1a831241a088","system_id":"levelo_inurba_marseille","lat":43.29299,"lon":5.371748,"is_reserved":false,"is_disabled":false,"rental_uris":{"android":"levelo://app?vid=bcddd725-ec41-4c06-a09d-1a831241a088","ios":"levelo://app?vid=bcddd725-ec41-4c06-a09d-1a831241a088"},"vehicle_type_id":"4","last_reported":1762873887,"current_range_meters":8800,"station_id":"ce4bgh92rcd13ifvqb40","pricing_plan_id":"cebpf4jnsgd1na2vs0mg"},{"bike_id":"aef4b542-8f89-444a-bf6c-205c18b5a7ab","system_id":"levelo_inurba_marseille","lat":43.22935,"lon":5.35395,"is_reserved":false,"is_disabled":false,"rental_uris":{"android":"levelo://app?vid=aef4b542-8f89-444a-bf6c-205c18b5a7ab","ios":"levelo://app?vid=aef4b542-8f89-444a-bf6c-205c18b5a7ab"},"vehicle_type_id":"4","last_reported":1762873887,"current_range_meters":8800,"station_id":"cpo3532slgdg3j2ikp40","pricing_plan_id":"cebpf4jnsgd1na2vs0mg"},{"bike_id":"5cc8ec17-08a2-446a-a81e-4fafa298d050","system_id":"levelo_inurba_marseille","lat":43.31726,"lon":5.42416,"is_reserved":false,"is_disabled":false,"rental_uris":{"android":"levelo://app?vid=5cc8ec17-08a2-446a-a81e-4fafa298d050","ios":"levelo://app?vid=5cc8ec17-08a2-446a-a81e-4fafa298d050"},"vehicle_type_id":"4","last_reported":1762873887,"current_range_meters":8800,"station_id":"ce4bhp92rcd13ifvqhbg","pricing_plan_id":"cebpf4jnsgd1na2vs0mg"},{"bike_id":"b5ad0ac1-433a-4249-935c-b6bfee96e391","system_id":"levelo_inurba_marseille","lat":43.29582,"lon":5.36746,"is_reserved":false,"is_disabled":false,"rental_uris":{"android":"levelo://app?vid=b5ad0ac1-433a-4249-935c-b6bfee96e391","ios":"levelo://app?vid=b5ad0ac1-433a-4249-935c-b6bfee96e391"},"vehicle_type_id":"4","last_reported":1762873887,"current_range_meters":8800,"station_id":"ce4bgph2rcd13ifvqc2g","pricing_plan_id":"cebpf4jnsgd1na2vs0mg"},{"bike_id":"a6bdf21f-a1d2-4def-a11f-b6f07d15f833","system_id":"levelo_inurba_marseille","lat":43.3007,"lon":5.383,"is_reserved":false,"is_disabled":false,"rental_uris":{"android":"levelo://app?vid=a6bdf21f-a1d2-4def-a11f-b6f07d15f833","ios":"levelo://app?vid=a6bdf21f-a1d2-4def-a11f-b6f07d15f833"},"vehicle_type_id":"4","last_reported":1762873887,"current_range_meters":8800,"station_id":"","pricing_plan_id":"cebpf4jnsgd1na2vs0mg"},{"bike_id":"e0467342-2ee8-4c36-aeb9-27d25d94ead5","system_id":"levelo_inurba_marseille","lat":43.28148,"lon":5.42641,"is_reserved":false,"is_disabled":true,"rental_uris":{"android":"levelo://app?vid=e0467342-2ee8-4c36-aeb9-27d25d94ead5","ios":"levelo://app?vid=e0467342-2ee8-4c36-aeb9-27d25d94ead5"},"vehicle_type_id":"4","last_reported":1762873887,"current_range_meters":8800,"station_id":"ce4bhnh2rcd13ifvqgug","pricing_plan_id":"cebpf4jnsgd1na2vs0mg"},{"bike_id":"8d1a6869-d255-402c-be6e-5cd04f09e28f","system_id":"levelo_inurba_marseille","lat":43.26546,"lon":5.37289,"is_reserved":false,"is_disabled":false,"rental_uris":{"android":"levelo://app?vid=8d1a6869-d255-402c-be6e-5cd04f09e28f","ios":"levelo://app?vid=8d1a6869-d255-402c-be6e-5cd04f09e28f"},"vehicle_type_id":"4","last_reported":1762873887,"current_range_meters":8800,"station_id":"ce4bhg12rcd13ifvqf70","pricing_plan_id":"cebpf4jnsgd1na2vs0mg"},{"bike_id":"3376260c-d345-4b42-b7bf-f91c61533055","system_id":"levelo_inurba_marseille","lat":43.30164,"lon":5.38759,"is_reserved":false,"is_disabled":false,"rental_uris":{"android":"levelo://app?vid=3376260c-d345-4b42-b7bf-f91c61533055","ios":"levelo://app?vid=3376260c-d345-4b42-b7bf-f91c61533055"},"vehicle_type_id":"4","last_reported":1762873887,"current_range_meters":9200,"station_id":"ce4bghh2rcd13ifvqb60","pricing_plan_id":"cebpf4jnsgd1na2vs0mg"},{"bike_id":"f066d755-48c6-4021-acf4-05f41d218b63","system_id":"levelo_inurba_marseille","lat":43.28028,"lon":5.3696,"is_reserved":false,"is_disabled":false,"rental_uris":{"android":"levelo://app?vid=f066d755-48c6-4021-acf4-05f41d218b63","ios":"levelo://app?vid=f066d755-48c6-4021-acf4-05f41d218b63"},"vehicle_type_id":"4","last_reported":1762873887,"current_range_meters":9200,"station_id":"ce4bha12rcd13ifvqef0","pricing_plan_id":"cebpf4jnsgd1na2vs0mg"},{"bike_id":"6e6913ab-5565-44c2-bf61-26805575b411","system_id":"levelo_inurba_marseille","lat":43.298165,"lon":5.440667,"is_reserved":false,"is_disabled":false,"rental_uris":{"android":"levelo://app?vid=6e6913ab-5565-44c2-bf61-26805575b411","ios":"levelo://app?vid=6e6913ab-5565-44c2-bf61-26805575b411"},"vehicle_type_id":"4","last_reported":1762873887,"current_range_meters":9200,"station_id":"st_d3jp68qikq2c7381ktn0","pricing_plan_id":"cebpf4jnsgd1na2vs0mg"},{"bike_id":"835aecc0-0286-48be-abfd-4eeed9501dba","system_id":"levelo_inurba_marseille","lat":43.28336,"lon":5.38105,"is_reserved":false,"is_disabled":false,"rental_uris":{"android":"levelo://app?vid=835aecc0-0286-48be-abfd-4eeed9501dba","ios":"levelo://app?vid=835aecc0-0286-48be-abfd-4eeed9501dba"},"vehicle_type_id":"4","last_reported":1762873887,"current_range_meters":9200,"station_id":"ce4bh412rcd13ifvqdr0","pricing_plan_id":"cebpf4jnsgd1na2vs0mg"},{"bike_id":"467bc953-8a2f-4240-85d9-38898a7e5ff0","system_id":"levelo_inurba_marseille","lat":43.292748,"lon":5.368468,"is_reserved":false,"is_disabled":false,"rental_uris":{"android":"levelo://app?vid=467bc953-8a2f-4240-85d9-38898a7e5ff0","ios":"levelo://app?vid=467bc953-8a2f-4240-85d9-38898a7e5ff0"},"vehicle_type_id":"4","last_reported":1762873887,"current_range_meters":9200,"station_id":"ce4bhbp2rcd13ifvqesg","pricing_plan_id":"cebpf4jnsgd1na2vs0mg"},{"bike_id":"c2bf8461-b7c1-4f54-b8f9-c989230238e4","system_id":"levelo_inurba_marseille","lat":43.30638,"lon":5.4009,"is_reserved":false,"is_disabled":false,"rental_uris":{"android":"levelo://app?vid=c2bf8461-b7c1-4f54-b8f9-c989230238e4","ios":"levelo://app?vid=c2bf8461-b7c1-4f54-b8f9-c989230238e4"},"vehicle_type_id":"4","last_reported":1762873887,"current_range_meters":9200,"station_id":"ce4bh112rcd13ifvqda0","pricing_plan_id":"cebpf4jnsgd1na2vs0mg"},{"bike_id":"0a0d87ee-447f-48c7-a9cd-e00ba4e992a2","system_id":"levelo_inurba_marseille","lat":43.28867,"lon":5.42516,"is_reserved":false,"is_disabled":false,"rental_uris":{"android":"levelo://app?vid=0a0d87ee-447f-48c7-a9cd-e00ba4e992a2","ios":"levelo://app?vid=0a0d87ee-447f-48c7-a9cd-e00ba4e992a2"},"vehicle_type_id":"4","last_reported":1762873887,"current_range_meters":9200,"station_id":"st_d3b462108ojc7389ooeg","pricing_plan_id":"cebpf4jnsgd1na2vs0mg"},{"bike_id":"03ae444b-04fc-46ae-b5b9-78db31f42338","system_id":"levelo_inurba_marseille","lat":43.23062,"lon":5.35471,"is_reserved":false,"is_disabled":false,"rental_uris":{"android":"levelo://app?vid=03ae444b-04fc-46ae-b5b9-78db31f42338","ios":"levelo://app?vid=03ae444b-04fc-46ae-b5b9-78db31f42338"},"vehicle_type_id":"4","last_reported":1762873887,"current_range_meters":9200,"station_id":"cpo3342slgdg3j2ifvpg","pricing_plan_id":"cebpf4jnsgd1na2vs0mg"},{"bike_id":"d14a3070-960e-421d-b5dc-419b8cc88005","system_id":"levelo_inurba_marseille","lat":43.31588,"lon":5.37647,"is_reserved":false,"is_disabled":false,"rental_uris":{"android":"levelo://app?vid=d14a3070-960e-421d-b5dc-419b8cc88005","ios":"levelo://app?vid=d14a3070-960e-421d-b5dc-419b8cc88005"},"vehicle_type_id":"4","last_reported":1762873887,"current_range_meters":9200,"station_id":"","pricing_plan_id":"cebpf4jnsgd1na2vs0mg"},{"bike_id":"f95f3f73-3fb7-4719-9721-184007335752","system_id":"levelo_inurba_marseille","lat":43.27973,"lon":5.411735,"is_reserved":false,"is_disabled":false,"rental_uris":{"android":"levelo://app?vid=f95f3f73-3fb7-4719-9721-184007335752","ios":"levelo://app?vid=f95f3f73-3fb7-4719-9721-184007335752"},"vehicle_type_id":"4","last_reported":1762873887,"current_range_meters":9600,"station_id":"","pricing_plan_id":"cebpf4jnsgd1na2vs0mg"},{"bike_id":"2b8a8278-b86e-4a5e-b028-0da02dc2f410","system_id":"levelo_inurba_marseille","lat":43.295331,"lon":5.390765,"is_reserved":false,"is_disabled":false,"rental_uris":{"android":"levelo://app?vid=2b8a8278-b86e-4a5e-b028-0da02dc2f410","ios":"levelo://app?vid=2b8a8278-b86e-4a5e-b028-0da02dc2f410"},"vehicle_type_id":"4","last_reported":1762873887,"current_range_meters":9600,"station_id":"ce4bh3p2rcd13ifvqdp0","pricing_plan_id":"cebpf4jnsgd1na2vs0mg"},{"bike_id":"2dcc1fec-b797-4f7e-aaf4-d9a260546437","system_id":"levelo_inurba_marseille","lat":43.31216,"lon":5.36841,"is_reserved":false,"is_disabled":false,"rental_uris":{"android":"levelo://app?vid=2dcc1fec-b797-4f7e-aaf4-d9a260546437","ios":"levelo://app?vid=2dcc1fec-b797-4f7e-aaf4-d9a260546437"},"vehicle_type_id":"4","last_reported":1762873887,"current_range_meters":9600,"station_id":"ce4bgl92rcd13ifvqbq0","pricing_plan_id":"cebpf4jnsgd1na2vs0mg"},{"bike_id":"b3949ddc-f4d2-4aea-86c0-229f1a9bb97a","system_id":"levelo_inurba_marseille","lat":43.282703,"lon":5.350662,"is_reserved":false,"is_disabled":false,"rental_uris":{"android":"levelo://app?vid=b3949ddc-f4d2-4aea-86c0-229f1a9bb97a","ios":"levelo://app?vid=b3949ddc-f4d2-4aea-86c0-229f1a9bb97a"},"vehicle_type_id":"4","last_reported":1762873887,"current_range_meters":9600,"station_id":"ce4bhbh2rcd13ifvqeo0","pricing_plan_id":"cebpf4jnsgd1na2vs0mg"},{"bike_id":"f0c14180-cc9a-427d-aaa7-922ce0d0908d","system_id":"levelo_inurba_marseille","lat":43.225308,"lon":5.348364,"is_reserved":false,"is_disabled":false,"rental_uris":{"android":"levelo://app?vid=f0c14180-cc9a-427d-aaa7-922ce0d0908d","ios":"levelo://app?vid=f0c14180-cc9a-427d-aaa7-922ce0d0908d"},"vehicle_type_id":"4","last_reported":1762873887,"current_range_meters":9600,"station_id":"","pricing_plan_id":"cebpf4jnsgd1na2vs0mg"},{"bike_id":"4b75f4f1-28cd-4ac7-9b5c-b069daf52b29","system_id":"levelo_inurba_marseille","lat":43.31813,"lon":5.37437,"is_reserved":false,"is_disabled":false,"rental_uris":{"android":"levelo://app?vid=4b75f4f1-28cd-4ac7-9b5c-b069daf52b29","ios":"levelo://app?vid=4b75f4f1-28cd-4ac7-9b5c-b069daf52b29"},"vehicle_type_id":"4","last_reported":1762873887,"current_range_meters":10000,"station_id":"","pricing_plan_id":"cebpf4jnsgd1na2vs0mg"},{"bike_id":"ff087dac-12f7-44c4-80e9-1f707a8f5fdd","system_id":"levelo_inurba_marseille","lat":43.25509,"lon":5.37684,"is_reserved":false,"is_disabled":false,"rental_uris":{"android":"levelo://app?vid=ff087dac-12f7-44c4-80e9-1f707a8f5fdd","ios":"levelo://app?vid=ff087dac-12f7-44c4-80e9-1f707a8f5fdd"},"vehicle_type_id":"4","last_reported":1762873887,"current_range_meters":10000,"station_id":"ce4bhh12rcd13ifvqff0","pricing_plan_id":"cebpf4jnsgd1na2vs0mg"},{"bike_id":"0b1b0eb1-4ff5-4b3e-bbb5-288db2f0421c","system_id":"levelo_inurba_marseille","lat":43.316807,"lon":5.404769,"is_reserved":false,"is_disabled":false,"rental_uris":{"android":"levelo://app?vid=0b1b0eb1-4ff5-4b3e-bbb5-288db2f0421c","ios":"levelo://app?vid=0b1b0eb1-4ff5-4b3e-bbb5-288db2f0421c"},"vehicle_type_id":"4","last_reported":1762873887,"current_range_meters":10000,"station_id":"ce4bh012rcd13ifvqd00","pricing_plan_id":"cebpf4jnsgd1na2vs0mg"},{"bike_id":"1327ee0a-d688-447e-8481-7815da4b57df","system_id":"levelo_inurba_marseille","lat":43.2893,"lon":5.36398,"is_reserved":false,"is_disabled":false,"rental_uris":{"android":"levelo://app?vid=1327ee0a-d688-447e-8481-7815da4b57df","ios":"levelo://app?vid=1327ee0a-d688-447e-8481-7815da4b57df"},"vehicle_type_id":"4","last_reported":1762873887,"current_range_meters":10000,"station_id":"ce4bhc92rcd13ifvqetg","pricing_plan_id":"cebpf4jnsgd1na2vs0mg"},{"bike_id":"644346eb-4995-40d4-839d-eb78cbb8a283","system_id":"levelo_inurba_marseille","lat":43.24995,"lon":5.38933,"is_reserved":false,"is_disabled":false,"rental_uris":{"android":"levelo://app?vid=644346eb-4995-40d4-839d-eb78cbb8a283","ios":"levelo://app?vid=644346eb-4995-40d4-839d-eb78cbb8a283"},"vehicle_type_id":"4","last_reported":1762873887,"current_range_meters":10000,"station_id":"ce4bhgp2rcd13ifvqfd0","pricing_plan_id":"cebpf4jnsgd1na2vs0mg"},{"bike_id":"f2e32977-633d-4518-9d19-80a52d971bbc","system_id":"levelo_inurba_marseille","lat":43.29258,"lon":5.38447,"is_reserved":false,"is_disabled":false,"rental_uris":{"android":"levelo://app?vid=f2e32977-633d-4518-9d19-80a52d971bbc","ios":"levelo://app?vid=f2e32977-633d-4518-9d19-80a52d971bbc"},"vehicle_type_id":"4","last_reported":1762873887,"current_range_meters":10000,"station_id":"ce4bh692rcd13ifvqea0","pricing_plan_id":"cebpf4jnsgd1na2vs0mg"},{"bike_id":"8f88193f-cc69-4057-b408-0596a698b4bb","system_id":"levelo_inurba_marseille","lat":43.29003,"lon":5.35613,"is_reserved":false,"is_disabled":false,"rental_uris":{"android":"levelo://app?vid=8f88193f-cc69-4057-b408-0596a698b4bb","ios":"levelo://app?vid=8f88193f-cc69-4057-b408-0596a698b4bb"},"vehicle_type_id":"4","last_reported":1762873887,"current_range_meters":10800,"station_id":"ce4bhb92rcd13ifvqen0","pricing_plan_id":"cebpf4jnsgd1na2vs0mg"},{"bike_id":"5369ca34-7723-43dc-a1d0-03c4269b2e4a","system_id":"levelo_inurba_marseille","lat":43.31273,"lon":5.37795,"is_reserved":false,"is_disabled":false,"rental_uris":{"android":"levelo://app?vid=5369ca34-7723-43dc-a1d0-03c4269b2e4a","ios":"levelo://app?vid=5369ca34-7723-43dc-a1d0-03c4269b2e4a"},"vehicle_type_id":"4","last_reported":1762873887,"current_range_meters":10800,"station_id":"","pricing_plan_id":"cebpf4jnsgd1na2vs0mg"},{"bike_id":"64b63aef-7c8c-48e6-8d97-7db7ee139095","system_id":"levelo_inurba_marseille","lat":43.21194,"lon":5.35074,"is_reserved":false,"is_disabled":false,"rental_uris":{"android":"levelo://app?vid=64b63aef-7c8c-48e6-8d97-7db7ee139095","ios":"levelo://app?vid=64b63aef-7c8c-48e6-8d97-7db7ee139095"},"vehicle_type_id":"4","last_reported":1762873887,"current_range_meters":10800,"station_id":"st_cvj6sg6p6f1abm77japg","pricing_plan_id":"cebpf4jnsgd1na2vs0mg"},{"bike_id":"69aff1d4-05e6-4619-92db-0e4a943e4f45","system_id":"levelo_inurba_marseille","lat":43.304626,"lon":5.379088,"is_reserved":false,"is_disabled":true,"rental_uris":{"android":"levelo://app?vid=69aff1d4-05e6-4619-92db-0e4a943e4f45","ios":"levelo://app?vid=69aff1d4-05e6-4619-92db-0e4a943e4f45"},"vehicle_type_id":"4","last_reported":1762873887,"current_range_meters":10800,"station_id":"ce4bgup2rcd13ifvqcn0","pricing_plan_id":"cebpf4jnsgd1na2vs0mg"},{"bike_id":"38060efd-ed0d-4fc8-a558-2a407ef2a801","system_id":"levelo_inurba_marseille","lat":43.31725,"lon":5.43721,"is_reserved":false,"is_disabled":false,"rental_uris":{"android":"levelo://app?vid=38060efd-ed0d-4fc8-a558-2a407ef2a801","ios":"levelo://app?vid=38060efd-ed0d-4fc8-a558-2a407ef2a801"},"vehicle_type_id":"4","last_reported":1762873887,"current_range_meters":10800,"station_id":"ce4bhp92rcd13ifvqhcg","pricing_plan_id":"cebpf4jnsgd1na2vs0mg"},{"bike_id":"5acfb4f2-ec5e-450f-9319-769d75ee38b3","system_id":"levelo_inurba_marseille","lat":43.28484,"lon":5.48386,"is_reserved":false,"is_disabled":false,"rental_uris":{"android":"levelo://app?vid=5acfb4f2-ec5e-450f-9319-769d75ee38b3","ios":"levelo://app?vid=5acfb4f2-ec5e-450f-9319-769d75ee38b3"},"vehicle_type_id":"4","last_reported":1762873887,"current_range_meters":10800,"station_id":"st_d3svhcjqgbts73a3dn0g","pricing_plan_id":"cebpf4jnsgd1na2vs0mg"},{"bike_id":"5bb896f2-dec6-4193-88dc-e86ff5a402fd","system_id":"levelo_inurba_marseille","lat":43.29821,"lon":5.44064,"is_reserved":false,"is_disabled":false,"rental_uris":{"android":"levelo://app?vid=5bb896f2-dec6-4193-88dc-e86ff5a402fd","ios":"levelo://app?vid=5bb896f2-dec6-4193-88dc-e86ff5a402fd"},"vehicle_type_id":"4","last_reported":1762873887,"current_range_meters":10800,"station_id":"st_d3jp68qikq2c7381ktn0","pricing_plan_id":"cebpf4jnsgd1na2vs0mg"},{"bike_id":"4fd02ddc-7819-4b59-840b-cf1a336d346c","system_id":"levelo_inurba_marseille","lat":43.30143,"lon":5.38077,"is_reserved":false,"is_disabled":false,"rental_uris":{"android":"levelo://app?vid=4fd02ddc-7819-4b59-840b-cf1a336d346c","ios":"levelo://app?vid=4fd02ddc-7819-4b59-840b-cf1a336d346c"},"vehicle_type_id":"4","last_reported":1762873887,"current_range_meters":10800,"station_id":"ce4bgjp2rcd13ifvqbh0","pricing_plan_id":"cebpf4jnsgd1na2vs0mg"},{"bike_id":"2191e035-f3c9-401f-b6d0-6e81dd47f18b","system_id":"levelo_inurba_marseille","lat":43.3122,"lon":5.36829,"is_reserved":false,"is_disabled":false,"rental_uris":{"android":"levelo://app?vid=2191e035-f3c9-401f-b6d0-6e81dd47f18b","ios":"levelo://app?vid=2191e035-f3c9-401f-b6d0-6e81dd47f18b"},"vehicle_type_id":"4","last_reported":1762873887,"current_range_meters":10800,"station_id":"ce4bgl92rcd13ifvqbq0","pricing_plan_id":"cebpf4jnsgd1na2vs0mg"},{"bike_id":"84061442-104d-4501-b11a-5e9fb0b8015f","system_id":"levelo_inurba_marseille","lat":43.281548,"lon":5.426394,"is_reserved":false,"is_disabled":false,"rental_uris":{"android":"levelo://app?vid=84061442-104d-4501-b11a-5e9fb0b8015f","ios":"levelo://app?vid=84061442-104d-4501-b11a-5e9fb0b8015f"},"vehicle_type_id":"4","last_reported":1762873887,"current_range_meters":11200,"station_id":"ce4bhnh2rcd13ifvqgug","pricing_plan_id":"cebpf4jnsgd1na2vs0mg"},{"bike_id":"2bc271e0-957b-4bef-9c8d-52641b140c18","system_id":"levelo_inurba_marseille","lat":43.231976,"lon":5.3555,"is_reserved":false,"is_disabled":false,"rental_uris":{"android":"levelo://app?vid=2bc271e0-957b-4bef-9c8d-52641b140c18","ios":"levelo://app?vid=2bc271e0-957b-4bef-9c8d-52641b140c18"},"vehicle_type_id":"4","last_reported":1762873887,"current_range_meters":11200,"station_id":"ce4bhu92rcd13ifvqi70","pricing_plan_id":"cebpf4jnsgd1na2vs0mg"},{"bike_id":"38c922e6-37cd-47dc-af88-f07475112c2a","system_id":"levelo_inurba_marseille","lat":43.32133,"lon":5.38843,"is_reserved":false,"is_disabled":false,"rental_uris":{"android":"levelo://app?vid=38c922e6-37cd-47dc-af88-f07475112c2a","ios":"levelo://app?vid=38c922e6-37cd-47dc-af88-f07475112c2a"},"vehicle_type_id":"4","last_reported":1762873887,"current_range_meters":11200,"station_id":"","pricing_plan_id":"cebpf4jnsgd1na2vs0mg"},{"bike_id":"bcd03af1-0a6f-420f-8cd8-e76f739ecf22","system_id":"levelo_inurba_marseille","lat":43.25559,"lon":5.38238,"is_reserved":false,"is_disabled":false,"rental_uris":{"android":"levelo://app?vid=bcd03af1-0a6f-420f-8cd8-e76f739ecf22","ios":"levelo://app?vid=bcd03af1-0a6f-420f-8cd8-e76f739ecf22"},"vehicle_type_id":"4","last_reported":1762873887,"current_range_meters":11200,"station_id":"ce4bhih2rcd13ifvqfs0","pricing_plan_id":"cebpf4jnsgd1na2vs0mg"},{"bike_id":"fbb31ab6-1bf7-4c37-a46a-9871fc904eae","system_id":"levelo_inurba_marseille","lat":43.31354,"lon":5.36714,"is_reserved":false,"is_disabled":false,"rental_uris":{"android":"levelo://app?vid=fbb31ab6-1bf7-4c37-a46a-9871fc904eae","ios":"levelo://app?vid=fbb31ab6-1bf7-4c37-a46a-9871fc904eae"},"vehicle_type_id":"4","last_reported":1762873887,"current_range_meters":11200,"station_id":"ce4bgr92rcd13ifvqc6g","pricing_plan_id":"cebpf4jnsgd1na2vs0mg"},{"bike_id":"a08765e5-c52c-45c9-9cd5-bf6d0b8a23dd","system_id":"levelo_inurba_marseille","lat":43.33121,"lon":5.3775,"is_reserved":false,"is_disabled":false,"rental_uris":{"android":"levelo://app?vid=a08765e5-c52c-45c9-9cd5-bf6d0b8a23dd","ios":"levelo://app?vid=a08765e5-c52c-45c9-9cd5-bf6d0b8a23dd"},"vehicle_type_id":"4","last_reported":1762873887,"current_range_meters":11200,"station_id":"st_d46cu089ee8s73dldbu0","pricing_plan_id":"cebpf4jnsgd1na2vs0mg"},{"bike_id":"c5972d04-4f2a-4646-ae90-eb007a82fe19","system_id":"levelo_inurba_marseille","lat":43.23051,"lon":5.35499,"is_reserved":false,"is_disabled":false,"rental_uris":{"android":"levelo://app?vid=c5972d04-4f2a-4646-ae90-eb007a82fe19","ios":"levelo://app?vid=c5972d04-4f2a-4646-ae90-eb007a82fe19"},"vehicle_type_id":"4","last_reported":1762873887,"current_range_meters":11200,"station_id":"cpo3342slgdg3j2ifvpg","pricing_plan_id":"cebpf4jnsgd1na2vs0mg"},{"bike_id":"24420db0-dafa-4218-b09f-0630995c5109","system_id":"levelo_inurba_marseille","lat":43.23962,"lon":5.36634,"is_reserved":false,"is_disabled":false,"rental_uris":{"android":"levelo://app?vid=24420db0-dafa-4218-b09f-0630995c5109","ios":"levelo://app?vid=24420db0-dafa-4218-b09f-0630995c5109"},"vehicle_type_id":"4","last_reported":1762873887,"current_range_meters":11200,"station_id":"ce4bhi12rcd13ifvqfp0","pricing_plan_id":"cebpf4jnsgd1na2vs0mg"},{"bike_id":"bcec3f19-205d-4d8d-af41-1729aa329635","system_id":"levelo_inurba_marseille","lat":43.2794,"lon":5.41036,"is_reserved":false,"is_disabled":false,"rental_uris":{"android":"levelo://app?vid=bcec3f19-205d-4d8d-af41-1729aa329635","ios":"levelo://app?vid=bcec3f19-205d-4d8d-af41-1729aa329635"},"vehicle_type_id":"4","last_reported":1762873887,"current_range_meters":11200,"station_id":"ce4bhnp2rcd13ifvqh0g","pricing_plan_id":"cebpf4jnsgd1na2vs0mg"},{"bike_id":"5568b924-dcc8-40a1-9f3c-f9198ee80ea0","system_id":"levelo_inurba_marseille","lat":43.3123,"lon":5.3685,"is_reserved":false,"is_disabled":false,"rental_uris":{"android":"levelo://app?vid=5568b924-dcc8-40a1-9f3c-f9198ee80ea0","ios":"levelo://app?vid=5568b924-dcc8-40a1-9f3c-f9198ee80ea0"},"vehicle_type_id":"4","last_reported":1762873887,"current_range_meters":11600,"station_id":"ce4bgl92rcd13ifvqbq0","pricing_plan_id":"cebpf4jnsgd1na2vs0mg"},{"bike_id":"3f43ddf2-eaea-4286-b4a1-f4a9b3a604a0","system_id":"levelo_inurba_marseille","lat":43.29977,"lon":5.371947,"is_reserved":false,"is_disabled":false,"rental_uris":{"android":"levelo://app?vid=3f43ddf2-eaea-4286-b4a1-f4a9b3a604a0","ios":"levelo://app?vid=3f43ddf2-eaea-4286-b4a1-f4a9b3a604a0"},"vehicle_type_id":"4","last_reported":1762873887,"current_range_meters":11600,"station_id":"ce4bgr92rcd13ifvqc7g","pricing_plan_id":"cebpf4jnsgd1na2vs0mg"},{"bike_id":"fd8fe60f-b89f-40fa-8afe-1fb06c83c7ff","system_id":"levelo_inurba_marseille","lat":43.24162,"lon":5.36403,"is_reserved":false,"is_disabled":false,"rental_uris":{"android":"levelo://app?vid=fd8fe60f-b89f-40fa-8afe-1fb06c83c7ff","ios":"levelo://app?vid=fd8fe60f-b89f-40fa-8afe-1fb06c83c7ff"},"vehicle_type_id":"4","last_reported":1762873887,"current_range_meters":11600,"station_id":"cpo36qri1sfpv3e86is0","pricing_plan_id":"cebpf4jnsgd1na2vs0mg"},{"bike_id":"18d16ddf-aa2e-4a35-86fe-b52941b57276","system_id":"levelo_inurba_marseille","lat":43.2887,"lon":5.42508,"is_reserved":false,"is_disabled":false,"rental_uris":{"android":"levelo://app?vid=18d16ddf-aa2e-4a35-86fe-b52941b57276","ios":"levelo://app?vid=18d16ddf-aa2e-4a35-86fe-b52941b57276"},"vehicle_type_id":"4","last_reported":1762873887,"current_range_meters":11600,"station_id":"st_d3b462108ojc7389ooeg","pricing_plan_id":"cebpf4jnsgd1na2vs0mg"},{"bike_id":"81551e02-46f3-48f4-b923-e3461058a79d","system_id":"levelo_inurba_marseille","lat":43.26931,"lon":5.389158,"is_reserved":false,"is_disabled":false,"rental_uris":{"android":"levelo://app?vid=81551e02-46f3-48f4-b923-e3461058a79d","ios":"levelo://app?vid=81551e02-46f3-48f4-b923-e3461058a79d"},"vehicle_type_id":"4","last_reported":1762873887,"current_range_meters":11600,"station_id":"ce4bhhh2rcd13ifvqfl0","pricing_plan_id":"cebpf4jnsgd1na2vs0mg"},{"bike_id":"d54952de-c2c9-4463-b55a-b35b39e9463c","system_id":"levelo_inurba_marseille","lat":43.29815,"lon":5.44091,"is_reserved":false,"is_disabled":false,"rental_uris":{"android":"levelo://app?vid=d54952de-c2c9-4463-b55a-b35b39e9463c","ios":"levelo://app?vid=d54952de-c2c9-4463-b55a-b35b39e9463c"},"vehicle_type_id":"4","last_reported":1762873887,"current_range_meters":11600,"station_id":"st_d3jp68qikq2c7381ktn0","pricing_plan_id":"cebpf4jnsgd1na2vs0mg"},{"bike_id":"550aeaae-b88d-4ae2-8447-b5b171fa56a3","system_id":"levelo_inurba_marseille","lat":43.23154,"lon":5.43709,"is_reserved":false,"is_disabled":false,"rental_uris":{"android":"levelo://app?vid=550aeaae-b88d-4ae2-8447-b5b171fa56a3","ios":"levelo://app?vid=550aeaae-b88d-4ae2-8447-b5b171fa56a3"},"vehicle_type_id":"4","last_reported":1762873887,"current_range_meters":11600,"station_id":"ce4bhmp2rcd13ifvqgog","pricing_plan_id":"cebpf4jnsgd1na2vs0mg"},{"bike_id":"7958b458-fa5e-4cb2-9d83-db874f82e48d","system_id":"levelo_inurba_marseille","lat":43.28268,"lon":5.350574,"is_reserved":false,"is_disabled":false,"rental_uris":{"android":"levelo://app?vid=7958b458-fa5e-4cb2-9d83-db874f82e48d","ios":"levelo://app?vid=7958b458-fa5e-4cb2-9d83-db874f82e48d"},"vehicle_type_id":"4","last_reported":1762873887,"current_range_meters":11600,"station_id":"","pricing_plan_id":"cebpf4jnsgd1na2vs0mg"},{"bike_id":"82b35d51-0c35-417c-8a61-22fe88f04d62","system_id":"levelo_inurba_marseille","lat":43.29856,"lon":5.36291,"is_reserved":false,"is_disabled":false,"rental_uris":{"android":"levelo://app?vid=82b35d51-0c35-417c-8a61-22fe88f04d62","ios":"levelo://app?vid=82b35d51-0c35-417c-8a61-22fe88f04d62"},"vehicle_type_id":"4","last_reported":1762873887,"current_range_meters":12000,"station_id":"ce4bgpp2rcd13ifvqc3g","pricing_plan_id":"cebpf4jnsgd1na2vs0mg"},{"bike_id":"9c8de878-a552-47a8-a472-fa4d73579668","system_id":"levelo_inurba_marseille","lat":43.29977,"lon":5.3718,"is_reserved":false,"is_disabled":false,"rental_uris":{"android":"levelo://app?vid=9c8de878-a552-47a8-a472-fa4d73579668","ios":"levelo://app?vid=9c8de878-a552-47a8-a472-fa4d73579668"},"vehicle_type_id":"4","last_reported":1762873887,"current_range_meters":12000,"station_id":"ce4bgr92rcd13ifvqc7g","pricing_plan_id":"cebpf4jnsgd1na2vs0mg"},{"bike_id":"1b5be03e-768e-46f0-b152-16af9f81cff1","system_id":"levelo_inurba_marseille","lat":43.309322,"lon":5.401366,"is_reserved":false,"is_disabled":true,"rental_uris":{"android":"levelo://app?vid=1b5be03e-768e-46f0-b152-16af9f81cff1","ios":"levelo://app?vid=1b5be03e-768e-46f0-b152-16af9f81cff1"},"vehicle_type_id":"4","last_reported":1762873887,"current_range_meters":12000,"station_id":"","pricing_plan_id":"cebpf4jnsgd1na2vs0mg"},{"bike_id":"c0fea017-2183-4bea-8e99-5ce3eb72b868","system_id":"levelo_inurba_marseille","lat":43.3173,"lon":5.37745,"is_reserved":false,"is_disabled":false,"rental_uris":{"android":"levelo://app?vid=c0fea017-2183-4bea-8e99-5ce3eb72b868","ios":"levelo://app?vid=c0fea017-2183-4bea-8e99-5ce3eb72b868"},"vehicle_type_id":"4","last_reported":1762873887,"current_range_meters":12000,"station_id":"ce4bgth2rcd13ifvqch0","pricing_plan_id":"cebpf4jnsgd1na2vs0mg"},{"bike_id":"02b1907e-1afa-46ae-9c00-7d1129cf2388","system_id":"levelo_inurba_marseille","lat":43.28425,"lon":5.34997,"is_reserved":false,"is_disabled":false,"rental_uris":{"android":"levelo://app?vid=02b1907e-1afa-46ae-9c00-7d1129cf2388","ios":"levelo://app?vid=02b1907e-1afa-46ae-9c00-7d1129cf2388"},"vehicle_type_id":"4","last_reported":1762873887,"current_range_meters":12000,"station_id":"ce4bhbh2rcd13ifvqepg","pricing_plan_id":"cebpf4jnsgd1na2vs0mg"},{"bike_id":"e3d0320c-e35f-416b-ad43-5ce549ac2b39","system_id":"levelo_inurba_marseille","lat":43.266167,"lon":5.372616,"is_reserved":false,"is_disabled":false,"rental_uris":{"android":"levelo://app?vid=e3d0320c-e35f-416b-ad43-5ce549ac2b39","ios":"levelo://app?vid=e3d0320c-e35f-416b-ad43-5ce549ac2b39"},"vehicle_type_id":"4","last_reported":1762873887,"current_range_meters":12000,"station_id":"","pricing_plan_id":"cebpf4jnsgd1na2vs0mg"},{"bike_id":"665f9f98-14b4-416e-b979-aa2c50a164e7","system_id":"levelo_inurba_marseille","lat":43.262026,"lon":5.374589,"is_reserved":false,"is_disabled":false,"rental_uris":{"android":"levelo://app?vid=665f9f98-14b4-416e-b979-aa2c50a164e7","ios":"levelo://app?vid=665f9f98-14b4-416e-b979-aa2c50a164e7"},"vehicle_type_id":"4","last_reported":1762873887,"current_range_meters":12000,"station_id":"ce4bhgp2rcd13ifvqfc0","pricing_plan_id":"cebpf4jnsgd1na2vs0mg"},{"bike_id":"13595fed-0a26-46a8-817d-45f72365c60a","system_id":"levelo_inurba_marseille","lat":43.24181,"lon":5.39732,"is_reserved":false,"is_disabled":false,"rental_uris":{"android":"levelo://app?vid=13595fed-0a26-46a8-817d-45f72365c60a","ios":"levelo://app?vid=13595fed-0a26-46a8-817d-45f72365c60a"},"vehicle_type_id":"4","last_reported":1762873887,"current_range_meters":12000,"station_id":"ce4bhn12rcd13ifvqgpg","pricing_plan_id":"cebpf4jnsgd1na2vs0mg"},{"bike_id":"71a961e6-e0d3-4ba5-a7f0-41e06706bcd2","system_id":"levelo_inurba_marseille","lat":43.21195,"lon":5.35064,"is_reserved":false,"is_disabled":false,"rental_uris":{"android":"levelo://app?vid=71a961e6-e0d3-4ba5-a7f0-41e06706bcd2","ios":"levelo://app?vid=71a961e6-e0d3-4ba5-a7f0-41e06706bcd2"},"vehicle_type_id":"4","last_reported":1762873887,"current_range_meters":12000,"station_id":"st_cvj6sg6p6f1abm77japg","pricing_plan_id":"cebpf4jnsgd1na2vs0mg"},{"bike_id":"34f42f83-d891-4975-9f4e-7d653a2d1ff6","system_id":"levelo_inurba_marseille","lat":43.262111,"lon":5.374411,"is_reserved":false,"is_disabled":false,"rental_uris":{"android":"levelo://app?vid=34f42f83-d891-4975-9f4e-7d653a2d1ff6","ios":"levelo://app?vid=34f42f83-d891-4975-9f4e-7d653a2d1ff6"},"vehicle_type_id":"4","last_reported":1762873887,"current_range_meters":12400,"station_id":"ce4bhgp2rcd13ifvqfc0","pricing_plan_id":"cebpf4jnsgd1na2vs0mg"},{"bike_id":"3871ebcf-4a28-4b22-beb9-9220e15dd9fe","system_id":"levelo_inurba_marseille","lat":43.28475,"lon":5.48394,"is_reserved":false,"is_disabled":false,"rental_uris":{"android":"levelo://app?vid=3871ebcf-4a28-4b22-beb9-9220e15dd9fe","ios":"levelo://app?vid=3871ebcf-4a28-4b22-beb9-9220e15dd9fe"},"vehicle_type_id":"4","last_reported":1762873887,"current_range_meters":12400,"station_id":"st_d3svhcjqgbts73a3dn0g","pricing_plan_id":"cebpf4jnsgd1na2vs0mg"},{"bike_id":"c5ae1272-03bc-4857-a38d-08a602ef2b15","system_id":"levelo_inurba_marseille","lat":43.30293,"lon":5.36891,"is_reserved":false,"is_disabled":false,"rental_uris":{"android":"levelo://app?vid=c5ae1272-03bc-4857-a38d-08a602ef2b15","ios":"levelo://app?vid=c5ae1272-03bc-4857-a38d-08a602ef2b15"},"vehicle_type_id":"4","last_reported":1762873887,"current_range_meters":12400,"station_id":"ce4bgqh2rcd13ifvqc5g","pricing_plan_id":"cebpf4jnsgd1na2vs0mg"},{"bike_id":"f5b607f4-c9a3-4dc5-9122-2ceec7a70065","system_id":"levelo_inurba_marseille","lat":43.22933,"lon":5.35377,"is_reserved":false,"is_disabled":false,"rental_uris":{"android":"levelo://app?vid=f5b607f4-c9a3-4dc5-9122-2ceec7a70065","ios":"levelo://app?vid=f5b607f4-c9a3-4dc5-9122-2ceec7a70065"},"vehicle_type_id":"4","last_reported":1762873887,"current_range_meters":12400,"station_id":"cpo3532slgdg3j2ikp40","pricing_plan_id":"cebpf4jnsgd1na2vs0mg"},{"bike_id":"3be9a261-27db-46f1-80ec-1609473dd6a3","system_id":"levelo_inurba_marseille","lat":43.21196,"lon":5.35076,"is_reserved":false,"is_disabled":false,"rental_uris":{"android":"levelo://app?vid=3be9a261-27db-46f1-80ec-1609473dd6a3","ios":"levelo://app?vid=3be9a261-27db-46f1-80ec-1609473dd6a3"},"vehicle_type_id":"4","last_reported":1762873887,"current_range_meters":12800,"station_id":"st_cvj6sg6p6f1abm77japg","pricing_plan_id":"cebpf4jnsgd1na2vs0mg"},{"bike_id":"81a9cf00-05dc-42aa-8c1f-1ef13a836f71","system_id":"levelo_inurba_marseille","lat":43.30596,"lon":5.3722,"is_reserved":false,"is_disabled":false,"rental_uris":{"android":"levelo://app?vid=81a9cf00-05dc-42aa-8c1f-1ef13a836f71","ios":"levelo://app?vid=81a9cf00-05dc-42aa-8c1f-1ef13a836f71"},"vehicle_type_id":"4","last_reported":1762873887,"current_range_meters":12800,"station_id":"ce4bgqh2rcd13ifvqc4g","pricing_plan_id":"cebpf4jnsgd1na2vs0mg"},{"bike_id":"4a392cd4-0e9e-4acc-9ed4-f14baadd93d7","system_id":"levelo_inurba_marseille","lat":43.32076,"lon":5.36842,"is_reserved":false,"is_disabled":false,"rental_uris":{"android":"levelo://app?vid=4a392cd4-0e9e-4acc-9ed4-f14baadd93d7","ios":"levelo://app?vid=4a392cd4-0e9e-4acc-9ed4-f14baadd93d7"},"vehicle_type_id":"4","last_reported":1762873887,"current_range_meters":12800,"station_id":"","pricing_plan_id":"cebpf4jnsgd1na2vs0mg"},{"bike_id":"6d907c5d-2e75-4ced-a8da-79c602a0a448","system_id":"levelo_inurba_marseille","lat":43.25496,"lon":5.37654,"is_reserved":false,"is_disabled":false,"rental_uris":{"android":"levelo://app?vid=6d907c5d-2e75-4ced-a8da-79c602a0a448","ios":"levelo://app?vid=6d907c5d-2e75-4ced-a8da-79c602a0a448"},"vehicle_type_id":"4","last_reported":1762873887,"current_range_meters":12800,"station_id":"ce4bhh12rcd13ifvqff0","pricing_plan_id":"cebpf4jnsgd1na2vs0mg"},{"bike_id":"1152c84a-a055-4f29-9b92-843214c87d0f","system_id":"levelo_inurba_marseille","lat":43.22561,"lon":5.41629,"is_reserved":false,"is_disabled":false,"rental_uris":{"android":"levelo://app?vid=1152c84a-a055-4f29-9b92-843214c87d0f","ios":"levelo://app?vid=1152c84a-a055-4f29-9b92-843214c87d0f"},"vehicle_type_id":"4","last_reported":1762873887,"current_range_meters":12800,"station_id":"st_d2o4gvlbi1j2169b742g","pricing_plan_id":"cebpf4jnsgd1na2vs0mg"},{"bike_id":"172a1479-a5a8-4a14-96d6-945fbc77b377","system_id":"levelo_inurba_marseille","lat":43.32004,"lon":5.38128,"is_reserved":false,"is_disabled":false,"rental_uris":{"android":"levelo://app?vid=172a1479-a5a8-4a14-96d6-945fbc77b377","ios":"levelo://app?vid=172a1479-a5a8-4a14-96d6-945fbc77b377"},"vehicle_type_id":"4","last_reported":1762873887,"current_range_meters":12800,"station_id":"ce4bhr12rcd13ifvqhpg","pricing_plan_id":"cebpf4jnsgd1na2vs0mg"},{"bike_id":"f0aea920-30bf-4416-8f7d-25ef9071af36","system_id":"levelo_inurba_marseille","lat":43.255815,"lon":5.382275,"is_reserved":false,"is_disabled":false,"rental_uris":{"android":"levelo://app?vid=f0aea920-30bf-4416-8f7d-25ef9071af36","ios":"levelo://app?vid=f0aea920-30bf-4416-8f7d-25ef9071af36"},"vehicle_type_id":"4","last_reported":1762873887,"current_range_meters":12800,"station_id":"ce4bhh92rcd13ifvqfi0","pricing_plan_id":"cebpf4jnsgd1na2vs0mg"},{"bike_id":"722f7e0f-46d9-4be9-997c-6a53c83a7527","system_id":"levelo_inurba_marseille","lat":43.28046,"lon":5.36954,"is_reserved":false,"is_disabled":true,"rental_uris":{"android":"levelo://app?vid=722f7e0f-46d9-4be9-997c-6a53c83a7527","ios":"levelo://app?vid=722f7e0f-46d9-4be9-997c-6a53c83a7527"},"vehicle_type_id":"4","last_reported":1762873887,"current_range_meters":12800,"station_id":"ce4bha12rcd13ifvqef0","pricing_plan_id":"cebpf4jnsgd1na2vs0mg"},{"bike_id":"dc9399a6-68ac-4bce-a28c-89dbbb7d0681","system_id":"levelo_inurba_marseille","lat":43.28788,"lon":5.40844,"is_reserved":false,"is_disabled":true,"rental_uris":{"android":"levelo://app?vid=dc9399a6-68ac-4bce-a28c-89dbbb7d0681","ios":"levelo://app?vid=dc9399a6-68ac-4bce-a28c-89dbbb7d0681"},"vehicle_type_id":"4","last_reported":1762873887,"current_range_meters":12800,"station_id":"","pricing_plan_id":"cebpf4jnsgd1na2vs0mg"},{"bike_id":"8573e18d-4ba1-4145-a66c-08d0ce7830e5","system_id":"levelo_inurba_marseille","lat":43.24997,"lon":5.38939,"is_reserved":false,"is_disabled":false,"rental_uris":{"android":"levelo://app?vid=8573e18d-4ba1-4145-a66c-08d0ce7830e5","ios":"levelo://app?vid=8573e18d-4ba1-4145-a66c-08d0ce7830e5"},"vehicle_type_id":"4","last_reported":1762873887,"current_range_meters":13600,"station_id":"ce4bhgp2rcd13ifvqfd0","pricing_plan_id":"cebpf4jnsgd1na2vs0mg"},{"bike_id":"0c89ecfd-d0db-41d5-9c29-a93af32cd13c","system_id":"levelo_inurba_marseille","lat":43.22938,"lon":5.35372,"is_reserved":false,"is_disabled":false,"rental_uris":{"android":"levelo://app?vid=0c89ecfd-d0db-41d5-9c29-a93af32cd13c","ios":"levelo://app?vid=0c89ecfd-d0db-41d5-9c29-a93af32cd13c"},"vehicle_type_id":"4","last_reported":1762873887,"current_range_meters":13600,"station_id":"cpo3532slgdg3j2ikp40","pricing_plan_id":"cebpf4jnsgd1na2vs0mg"},{"bike_id":"ac571466-1dc3-4aea-b277-4afec8514b82","system_id":"levelo_inurba_marseille","lat":43.27946,"lon":5.41041,"is_reserved":false,"is_disabled":false,"rental_uris":{"android":"levelo://app?vid=ac571466-1dc3-4aea-b277-4afec8514b82","ios":"levelo://app?vid=ac571466-1dc3-4aea-b277-4afec8514b82"},"vehicle_type_id":"4","last_reported":1762873887,"current_range_meters":13600,"station_id":"ce4bhnp2rcd13ifvqh0g","pricing_plan_id":"cebpf4jnsgd1na2vs0mg"},{"bike_id":"65a510cf-d7ea-42a3-9d33-2904ab1bba08","system_id":"levelo_inurba_marseille","lat":43.26954,"lon":5.38629,"is_reserved":false,"is_disabled":false,"rental_uris":{"android":"levelo://app?vid=65a510cf-d7ea-42a3-9d33-2904ab1bba08","ios":"levelo://app?vid=65a510cf-d7ea-42a3-9d33-2904ab1bba08"},"vehicle_type_id":"4","last_reported":1762873887,"current_range_meters":13600,"station_id":"ce4bhh92rcd13ifvqfh0","pricing_plan_id":"cebpf4jnsgd1na2vs0mg"},{"bike_id":"0ae8fc08-a8ec-4beb-a5e7-117cdcd50f6a","system_id":"levelo_inurba_marseille","lat":43.28903,"lon":5.36384,"is_reserved":false,"is_disabled":false,"rental_uris":{"android":"levelo://app?vid=0ae8fc08-a8ec-4beb-a5e7-117cdcd50f6a","ios":"levelo://app?vid=0ae8fc08-a8ec-4beb-a5e7-117cdcd50f6a"},"vehicle_type_id":"4","last_reported":1762873887,"current_range_meters":13600,"station_id":"ce4bhc92rcd13ifvqetg","pricing_plan_id":"cebpf4jnsgd1na2vs0mg"},{"bike_id":"6ce87e69-c601-4964-9393-0af79f2da7ac","system_id":"levelo_inurba_marseille","lat":43.22534,"lon":5.34837,"is_reserved":false,"is_disabled":false,"rental_uris":{"android":"levelo://app?vid=6ce87e69-c601-4964-9393-0af79f2da7ac","ios":"levelo://app?vid=6ce87e69-c601-4964-9393-0af79f2da7ac"},"vehicle_type_id":"4","last_reported":1762873887,"current_range_meters":14000,"station_id":"","pricing_plan_id":"cebpf4jnsgd1na2vs0mg"},{"bike_id":"5d79d3d2-8302-4150-97d5-df980714ace1","system_id":"levelo_inurba_marseille","lat":43.23188,"lon":5.35558,"is_reserved":false,"is_disabled":false,"rental_uris":{"android":"levelo://app?vid=5d79d3d2-8302-4150-97d5-df980714ace1","ios":"levelo://app?vid=5d79d3d2-8302-4150-97d5-df980714ace1"},"vehicle_type_id":"4","last_reported":1762873887,"current_range_meters":14000,"station_id":"ce4bhu92rcd13ifvqi70","pricing_plan_id":"cebpf4jnsgd1na2vs0mg"},{"bike_id":"7840ddce-9a02-42d5-9858-46364a019b08","system_id":"levelo_inurba_marseille","lat":43.28617,"lon":5.35101,"is_reserved":false,"is_disabled":false,"rental_uris":{"android":"levelo://app?vid=7840ddce-9a02-42d5-9858-46364a019b08","ios":"levelo://app?vid=7840ddce-9a02-42d5-9858-46364a019b08"},"vehicle_type_id":"4","last_reported":1762873887,"current_range_meters":14000,"station_id":"ce4bhch2rcd13ifvqeug","pricing_plan_id":"cebpf4jnsgd1na2vs0mg"},{"bike_id":"b8770465-330e-44f7-9788-9d4ec97d7445","system_id":"levelo_inurba_marseille","lat":43.28485,"lon":5.38417,"is_reserved":false,"is_disabled":false,"rental_uris":{"android":"levelo://app?vid=b8770465-330e-44f7-9788-9d4ec97d7445","ios":"levelo://app?vid=b8770465-330e-44f7-9788-9d4ec97d7445"},"vehicle_type_id":"4","last_reported":1762873887,"current_range_meters":14400,"station_id":"ce4bh512rcd13ifvqe3g","pricing_plan_id":"cebpf4jnsgd1na2vs0mg"},{"bike_id":"126d67b3-a321-4943-ad9f-706f438301ae","system_id":"levelo_inurba_marseille","lat":43.24808,"lon":5.37459,"is_reserved":false,"is_disabled":false,"rental_uris":{"android":"levelo://app?vid=126d67b3-a321-4943-ad9f-706f438301ae","ios":"levelo://app?vid=126d67b3-a321-4943-ad9f-706f438301ae"},"vehicle_type_id":"4","last_reported":1762873887,"current_range_meters":14400,"station_id":"ce4bhgh2rcd13ifvqfb0","pricing_plan_id":"cebpf4jnsgd1na2vs0mg"},{"bike_id":"75ce18be-1aa9-446e-ad2d-d6dc89da0eea","system_id":"levelo_inurba_marseille","lat":43.30955,"lon":5.3904,"is_reserved":false,"is_disabled":false,"rental_uris":{"android":"levelo://app?vid=75ce18be-1aa9-446e-ad2d-d6dc89da0eea","ios":"levelo://app?vid=75ce18be-1aa9-446e-ad2d-d6dc89da0eea"},"vehicle_type_id":"4","last_reported":1762873887,"current_range_meters":14400,"station_id":"ce4bgup2rcd13ifvqco0","pricing_plan_id":"cebpf4jnsgd1na2vs0mg"},{"bike_id":"28e36cd3-4665-4002-a55e-04a45eaa3992","system_id":"levelo_inurba_marseille","lat":43.33165,"lon":5.37694,"is_reserved":false,"is_disabled":false,"rental_uris":{"android":"levelo://app?vid=28e36cd3-4665-4002-a55e-04a45eaa3992","ios":"levelo://app?vid=28e36cd3-4665-4002-a55e-04a45eaa3992"},"vehicle_type_id":"4","last_reported":1762873887,"current_range_meters":14400,"station_id":"st_d46cu089ee8s73dldbu0","pricing_plan_id":"cebpf4jnsgd1na2vs0mg"},{"bike_id":"51d50941-c414-4170-9417-f85c16066be0","system_id":"levelo_inurba_marseille","lat":43.24807,"lon":5.3746,"is_reserved":false,"is_disabled":false,"rental_uris":{"android":"levelo://app?vid=51d50941-c414-4170-9417-f85c16066be0","ios":"levelo://app?vid=51d50941-c414-4170-9417-f85c16066be0"},"vehicle_type_id":"4","last_reported":1762873887,"current_range_meters":14400,"station_id":"ce4bhgh2rcd13ifvqfb0","pricing_plan_id":"cebpf4jnsgd1na2vs0mg"},{"bike_id":"b259621f-2fe6-4b30-92e0-2292fee32f1f","system_id":"levelo_inurba_marseille","lat":43.280443,"lon":5.369485,"is_reserved":false,"is_disabled":true,"rental_uris":{"android":"levelo://app?vid=b259621f-2fe6-4b30-92e0-2292fee32f1f","ios":"levelo://app?vid=b259621f-2fe6-4b30-92e0-2292fee32f1f"},"vehicle_type_id":"4","last_reported":1762873887,"current_range_meters":14400,"station_id":"ce4bha12rcd13ifvqef0","pricing_plan_id":"cebpf4jnsgd1na2vs0mg"},{"bike_id":"ebe6be58-f4e1-43a4-918a-89cf0638ec6b","system_id":"levelo_inurba_marseille","lat":43.28614,"lon":5.35127,"is_reserved":false,"is_disabled":false,"rental_uris":{"android":"levelo://app?vid=ebe6be58-f4e1-43a4-918a-89cf0638ec6b","ios":"levelo://app?vid=ebe6be58-f4e1-43a4-918a-89cf0638ec6b"},"vehicle_type_id":"4","last_reported":1762873887,"current_range_meters":14400,"station_id":"ce4bhch2rcd13ifvqeug","pricing_plan_id":"cebpf4jnsgd1na2vs0mg"},{"bike_id":"54136a75-1b65-49e2-bf0a-c8c60db77a9e","system_id":"levelo_inurba_marseille","lat":43.28858,"lon":5.35841,"is_reserved":false,"is_disabled":false,"rental_uris":{"android":"levelo://app?vid=54136a75-1b65-49e2-bf0a-c8c60db77a9e","ios":"levelo://app?vid=54136a75-1b65-49e2-bf0a-c8c60db77a9e"},"vehicle_type_id":"4","last_reported":1762873887,"current_range_meters":14800,"station_id":"ce4bhb12rcd13ifvqem0","pricing_plan_id":"cebpf4jnsgd1na2vs0mg"},{"bike_id":"44adcb76-c006-4072-ae0e-292678f5813f","system_id":"levelo_inurba_marseille","lat":43.28417,"lon":5.34993,"is_reserved":false,"is_disabled":false,"rental_uris":{"android":"levelo://app?vid=44adcb76-c006-4072-ae0e-292678f5813f","ios":"levelo://app?vid=44adcb76-c006-4072-ae0e-292678f5813f"},"vehicle_type_id":"4","last_reported":1762873887,"current_range_meters":14800,"station_id":"ce4bhbh2rcd13ifvqepg","pricing_plan_id":"cebpf4jnsgd1na2vs0mg"},{"bike_id":"43b69953-d2e0-40f0-b708-655bc251ff3a","system_id":"levelo_inurba_marseille","lat":43.31887,"lon":5.40735,"is_reserved":false,"is_disabled":false,"rental_uris":{"android":"levelo://app?vid=43b69953-d2e0-40f0-b708-655bc251ff3a","ios":"levelo://app?vid=43b69953-d2e0-40f0-b708-655bc251ff3a"},"vehicle_type_id":"4","last_reported":1762873887,"current_range_meters":14800,"station_id":"ce4bhq12rcd13ifvqhig","pricing_plan_id":"cebpf4jnsgd1na2vs0mg"},{"bike_id":"2ee5ad5a-d514-4b06-beb7-bf0dafd642af","system_id":"levelo_inurba_marseille","lat":43.25575,"lon":5.3824,"is_reserved":false,"is_disabled":false,"rental_uris":{"android":"levelo://app?vid=2ee5ad5a-d514-4b06-beb7-bf0dafd642af","ios":"levelo://app?vid=2ee5ad5a-d514-4b06-beb7-bf0dafd642af"},"vehicle_type_id":"4","last_reported":1762873887,"current_range_meters":14800,"station_id":"ce4bhih2rcd13ifvqfs0","pricing_plan_id":"cebpf4jnsgd1na2vs0mg"},{"bike_id":"84aade2c-4b39-4bce-814f-cfa3d6ed46f7","system_id":"levelo_inurba_marseille","lat":43.28472,"lon":5.48389,"is_reserved":false,"is_disabled":false,"rental_uris":{"android":"levelo://app?vid=84aade2c-4b39-4bce-814f-cfa3d6ed46f7","ios":"levelo://app?vid=84aade2c-4b39-4bce-814f-cfa3d6ed46f7"},"vehicle_type_id":"4","last_reported":1762873887,"current_range_meters":14800,"station_id":"st_d3svhcjqgbts73a3dn0g","pricing_plan_id":"cebpf4jnsgd1na2vs0mg"},{"bike_id":"a4e84654-6e02-4c98-aaef-324a3bfbe931","system_id":"levelo_inurba_marseille","lat":43.2958,"lon":5.3674,"is_reserved":false,"is_disabled":false,"rental_uris":{"android":"levelo://app?vid=a4e84654-6e02-4c98-aaef-324a3bfbe931","ios":"levelo://app?vid=a4e84654-6e02-4c98-aaef-324a3bfbe931"},"vehicle_type_id":"4","last_reported":1762873887,"current_range_meters":14800,"station_id":"ce4bgph2rcd13ifvqc2g","pricing_plan_id":"cebpf4jnsgd1na2vs0mg"},{"bike_id":"22263b18-96a3-4e09-8bb1-bc9451c0bf5c","system_id":"levelo_inurba_marseille","lat":43.30438,"lon":5.38893,"is_reserved":false,"is_disabled":false,"rental_uris":{"android":"levelo://app?vid=22263b18-96a3-4e09-8bb1-bc9451c0bf5c","ios":"levelo://app?vid=22263b18-96a3-4e09-8bb1-bc9451c0bf5c"},"vehicle_type_id":"4","last_reported":1762873887,"current_range_meters":14800,"station_id":"ce4bgk12rcd13ifvqbi0","pricing_plan_id":"cebpf4jnsgd1na2vs0mg"},{"bike_id":"499dd8c6-54f5-4c2f-831e-905d0a986da6","system_id":"levelo_inurba_marseille","lat":43.28625,"lon":5.35102,"is_reserved":false,"is_disabled":false,"rental_uris":{"android":"levelo://app?vid=499dd8c6-54f5-4c2f-831e-905d0a986da6","ios":"levelo://app?vid=499dd8c6-54f5-4c2f-831e-905d0a986da6"},"vehicle_type_id":"4","last_reported":1762873887,"current_range_meters":14800,"station_id":"ce4bhch2rcd13ifvqeug","pricing_plan_id":"cebpf4jnsgd1na2vs0mg"},{"bike_id":"e50ba666-35be-4e22-b917-5d68b230e158","system_id":"levelo_inurba_marseille","lat":43.25866,"lon":5.3991,"is_reserved":false,"is_disabled":false,"rental_uris":{"android":"levelo://app?vid=e50ba666-35be-4e22-b917-5d68b230e158","ios":"levelo://app?vid=e50ba666-35be-4e22-b917-5d68b230e158"},"vehicle_type_id":"4","last_reported":1762873887,"current_range_meters":14800,"station_id":"ce4bhl92rcd13ifvqghg","pricing_plan_id":"cebpf4jnsgd1na2vs0mg"},{"bike_id":"3675fcb9-4257-4c23-936c-1064c6107c79","system_id":"levelo_inurba_marseille","lat":43.288696,"lon":5.42517,"is_reserved":false,"is_disabled":false,"rental_uris":{"android":"levelo://app?vid=3675fcb9-4257-4c23-936c-1064c6107c79","ios":"levelo://app?vid=3675fcb9-4257-4c23-936c-1064c6107c79"},"vehicle_type_id":"4","last_reported":1762873887,"current_range_meters":14800,"station_id":"st_d3b462108ojc7389ooeg","pricing_plan_id":"cebpf4jnsgd1na2vs0mg"},{"bike_id":"e13b78db-2231-48a0-b9e0-a153f32a43f4","system_id":"levelo_inurba_marseille","lat":43.23053,"lon":5.354968,"is_reserved":false,"is_disabled":false,"rental_uris":{"android":"levelo://app?vid=e13b78db-2231-48a0-b9e0-a153f32a43f4","ios":"levelo://app?vid=e13b78db-2231-48a0-b9e0-a153f32a43f4"},"vehicle_type_id":"4","last_reported":1762873887,"current_range_meters":15200,"station_id":"cpo3342slgdg3j2ifvpg","pricing_plan_id":"cebpf4jnsgd1na2vs0mg"},{"bike_id":"dd8cf694-3d35-43e7-826a-e7ed4317dcfa","system_id":"levelo_inurba_marseille","lat":43.25092,"lon":5.39515,"is_reserved":false,"is_disabled":false,"rental_uris":{"android":"levelo://app?vid=dd8cf694-3d35-43e7-826a-e7ed4317dcfa","ios":"levelo://app?vid=dd8cf694-3d35-43e7-826a-e7ed4317dcfa"},"vehicle_type_id":"4","last_reported":1762873887,"current_range_meters":15200,"station_id":"ce4bhm12rcd13ifvqgkg","pricing_plan_id":"cebpf4jnsgd1na2vs0mg"},{"bike_id":"e0aa869f-d340-4881-8d15-419296130676","system_id":"levelo_inurba_marseille","lat":43.30144,"lon":5.38098,"is_reserved":false,"is_disabled":false,"rental_uris":{"android":"levelo://app?vid=e0aa869f-d340-4881-8d15-419296130676","ios":"levelo://app?vid=e0aa869f-d340-4881-8d15-419296130676"},"vehicle_type_id":"4","last_reported":1762873887,"current_range_meters":15200,"station_id":"ce4bgjp2rcd13ifvqbh0","pricing_plan_id":"cebpf4jnsgd1na2vs0mg"},{"bike_id":"6b8d0534-92c3-46bb-bbf4-257a16725b75","system_id":"levelo_inurba_marseille","lat":43.28716,"lon":5.36078,"is_reserved":false,"is_disabled":false,"rental_uris":{"android":"levelo://app?vid=6b8d0534-92c3-46bb-bbf4-257a16725b75","ios":"levelo://app?vid=6b8d0534-92c3-46bb-bbf4-257a16725b75"},"vehicle_type_id":"4","last_reported":1762873887,"current_range_meters":15200,"station_id":"cki0cbj6b192h4jlfktg","pricing_plan_id":"cebpf4jnsgd1na2vs0mg"},{"bike_id":"505686e9-6192-4c28-8c7d-e5156e291317","system_id":"levelo_inurba_marseille","lat":43.23058,"lon":5.35491,"is_reserved":false,"is_disabled":false,"rental_uris":{"android":"levelo://app?vid=505686e9-6192-4c28-8c7d-e5156e291317","ios":"levelo://app?vid=505686e9-6192-4c28-8c7d-e5156e291317"},"vehicle_type_id":"4","last_reported":1762873887,"current_range_meters":15200,"station_id":"cpo3342slgdg3j2ifvpg","pricing_plan_id":"cebpf4jnsgd1na2vs0mg"},{"bike_id":"6ef2fd46-2be6-4985-9b87-bea5227b9d85","system_id":"levelo_inurba_marseille","lat":43.24822,"lon":5.37487,"is_reserved":false,"is_disabled":false,"rental_uris":{"android":"levelo://app?vid=6ef2fd46-2be6-4985-9b87-bea5227b9d85","ios":"levelo://app?vid=6ef2fd46-2be6-4985-9b87-bea5227b9d85"},"vehicle_type_id":"4","last_reported":1762873887,"current_range_meters":15200,"station_id":"ce4bhgh2rcd13ifvqfb0","pricing_plan_id":"cebpf4jnsgd1na2vs0mg"},{"bike_id":"f09b69fd-4220-4b51-8365-9a85828617f1","system_id":"levelo_inurba_marseille","lat":43.330268,"lon":5.390397,"is_reserved":false,"is_disabled":false,"rental_uris":{"android":"levelo://app?vid=f09b69fd-4220-4b51-8365-9a85828617f1","ios":"levelo://app?vid=f09b69fd-4220-4b51-8365-9a85828617f1"},"vehicle_type_id":"4","last_reported":1762873887,"current_range_meters":16000,"station_id":"ce4bhr92rcd13ifvqhrg","pricing_plan_id":"cebpf4jnsgd1na2vs0mg"},{"bike_id":"a37fe00d-8545-47d5-bf0c-5d283945a81f","system_id":"levelo_inurba_marseille","lat":43.30549,"lon":5.36556,"is_reserved":false,"is_disabled":false,"rental_uris":{"android":"levelo://app?vid=a37fe00d-8545-47d5-bf0c-5d283945a81f","ios":"levelo://app?vid=a37fe00d-8545-47d5-bf0c-5d283945a81f"},"vehicle_type_id":"4","last_reported":1762873887,"current_range_meters":16000,"station_id":"ce4bgs12rcd13ifvqcag","pricing_plan_id":"cebpf4jnsgd1na2vs0mg"},{"bike_id":"a71af2c6-eee7-48a9-92f7-3cb05032a645","system_id":"levelo_inurba_marseille","lat":43.242037,"lon":5.36573,"is_reserved":false,"is_disabled":false,"rental_uris":{"android":"levelo://app?vid=a71af2c6-eee7-48a9-92f7-3cb05032a645","ios":"levelo://app?vid=a71af2c6-eee7-48a9-92f7-3cb05032a645"},"vehicle_type_id":"4","last_reported":1762873887,"current_range_meters":16000,"station_id":"","pricing_plan_id":"cebpf4jnsgd1na2vs0mg"},{"bike_id":"c47023ab-2905-4a00-af93-ffd0b768cdc9","system_id":"levelo_inurba_marseille","lat":43.28857,"lon":5.42537,"is_reserved":false,"is_disabled":false,"rental_uris":{"android":"levelo://app?vid=c47023ab-2905-4a00-af93-ffd0b768cdc9","ios":"levelo://app?vid=c47023ab-2905-4a00-af93-ffd0b768cdc9"},"vehicle_type_id":"4","last_reported":1762873887,"current_range_meters":16000,"station_id":"st_d3b462108ojc7389ooeg","pricing_plan_id":"cebpf4jnsgd1na2vs0mg"},{"bike_id":"5fc7723c-7ca8-4d64-a051-eb916e0d3b97","system_id":"levelo_inurba_marseille","lat":43.28424,"lon":5.34978,"is_reserved":false,"is_disabled":false,"rental_uris":{"android":"levelo://app?vid=5fc7723c-7ca8-4d64-a051-eb916e0d3b97","ios":"levelo://app?vid=5fc7723c-7ca8-4d64-a051-eb916e0d3b97"},"vehicle_type_id":"4","last_reported":1762873887,"current_range_meters":16000,"station_id":"ce4bhbh2rcd13ifvqepg","pricing_plan_id":"cebpf4jnsgd1na2vs0mg"},{"bike_id":"10832612-bd6d-4d64-947f-699f60d0c3eb","system_id":"levelo_inurba_marseille","lat":43.297665,"lon":5.388979,"is_reserved":false,"is_disabled":false,"rental_uris":{"android":"levelo://app?vid=10832612-bd6d-4d64-947f-699f60d0c3eb","ios":"levelo://app?vid=10832612-bd6d-4d64-947f-699f60d0c3eb"},"vehicle_type_id":"4","last_reported":1762873887,"current_range_meters":16000,"station_id":"","pricing_plan_id":"cebpf4jnsgd1na2vs0mg"},{"bike_id":"8cc01210-81b4-4f09-a0df-d3b7dd94afb7","system_id":"levelo_inurba_marseille","lat":43.24652,"lon":5.38907,"is_reserved":false,"is_disabled":false,"rental_uris":{"android":"levelo://app?vid=8cc01210-81b4-4f09-a0df-d3b7dd94afb7","ios":"levelo://app?vid=8cc01210-81b4-4f09-a0df-d3b7dd94afb7"},"vehicle_type_id":"4","last_reported":1762873887,"current_range_meters":16000,"station_id":"ce4bhg12rcd13ifvqf60","pricing_plan_id":"cebpf4jnsgd1na2vs0mg"},{"bike_id":"14c4c79d-54a2-43ff-b01b-d18f58077d1e","system_id":"levelo_inurba_marseille","lat":43.285971,"lon":5.350212,"is_reserved":false,"is_disabled":false,"rental_uris":{"android":"levelo://app?vid=14c4c79d-54a2-43ff-b01b-d18f58077d1e","ios":"levelo://app?vid=14c4c79d-54a2-43ff-b01b-d18f58077d1e"},"vehicle_type_id":"4","last_reported":1762873887,"current_range_meters":16400,"station_id":"","pricing_plan_id":"cebpf4jnsgd1na2vs0mg"},{"bike_id":"b1eae50a-8d67-4cb1-864f-83a94e017e67","system_id":"levelo_inurba_marseille","lat":43.32662,"lon":5.40992,"is_reserved":false,"is_disabled":false,"rental_uris":{"android":"levelo://app?vid=b1eae50a-8d67-4cb1-864f-83a94e017e67","ios":"levelo://app?vid=b1eae50a-8d67-4cb1-864f-83a94e017e67"},"vehicle_type_id":"4","last_reported":1762873887,"current_range_meters":16400,"station_id":"ce4bhpp2rcd13ifvqhgg","pricing_plan_id":"cebpf4jnsgd1na2vs0mg"},{"bike_id":"32162483-923a-4e23-8738-bf029245f9f0","system_id":"levelo_inurba_marseille","lat":43.28477,"lon":5.38432,"is_reserved":false,"is_disabled":true,"rental_uris":{"android":"levelo://app?vid=32162483-923a-4e23-8738-bf029245f9f0","ios":"levelo://app?vid=32162483-923a-4e23-8738-bf029245f9f0"},"vehicle_type_id":"4","last_reported":1762873887,"current_range_meters":16400,"station_id":"ce4bh512rcd13ifvqe3g","pricing_plan_id":"cebpf4jnsgd1na2vs0mg"},{"bike_id":"cb9baa6e-b883-4d76-9615-9c7c0dba7027","system_id":"levelo_inurba_marseille","lat":43.24806,"lon":5.37455,"is_reserved":false,"is_disabled":false,"rental_uris":{"android":"levelo://app?vid=cb9baa6e-b883-4d76-9615-9c7c0dba7027","ios":"levelo://app?vid=cb9baa6e-b883-4d76-9615-9c7c0dba7027"},"vehicle_type_id":"4","last_reported":1762873887,"current_range_meters":16400,"station_id":"ce4bhgh2rcd13ifvqfb0","pricing_plan_id":"cebpf4jnsgd1na2vs0mg"},{"bike_id":"50b661f0-112f-4780-95bd-167a8c61a238","system_id":"levelo_inurba_marseille","lat":43.21197,"lon":5.35075,"is_reserved":false,"is_disabled":true,"rental_uris":{"android":"levelo://app?vid=50b661f0-112f-4780-95bd-167a8c61a238","ios":"levelo://app?vid=50b661f0-112f-4780-95bd-167a8c61a238"},"vehicle_type_id":"4","last_reported":1762873887,"current_range_meters":16400,"station_id":"st_cvj6sg6p6f1abm77japg","pricing_plan_id":"cebpf4jnsgd1na2vs0mg"},{"bike_id":"0f92b5ce-7211-4fcb-9e5d-9ec61368a1eb","system_id":"levelo_inurba_marseille","lat":43.27384,"lon":5.3624,"is_reserved":false,"is_disabled":false,"rental_uris":{"android":"levelo://app?vid=0f92b5ce-7211-4fcb-9e5d-9ec61368a1eb","ios":"levelo://app?vid=0f92b5ce-7211-4fcb-9e5d-9ec61368a1eb"},"vehicle_type_id":"4","last_reported":1762873887,"current_range_meters":16800,"station_id":"ce4bhbh2rcd13ifvqeo0","pricing_plan_id":"cebpf4jnsgd1na2vs0mg"},{"bike_id":"9bb65c7f-04d9-4fd4-9a78-47705e560370","system_id":"levelo_inurba_marseille","lat":43.26553,"lon":5.37288,"is_reserved":false,"is_disabled":false,"rental_uris":{"android":"levelo://app?vid=9bb65c7f-04d9-4fd4-9a78-47705e560370","ios":"levelo://app?vid=9bb65c7f-04d9-4fd4-9a78-47705e560370"},"vehicle_type_id":"4","last_reported":1762873887,"current_range_meters":16800,"station_id":"ce4bhg12rcd13ifvqf70","pricing_plan_id":"cebpf4jnsgd1na2vs0mg"},{"bike_id":"e5072903-b867-4d8e-a478-9934ce296bde","system_id":"levelo_inurba_marseille","lat":43.29131,"lon":5.39057,"is_reserved":false,"is_disabled":false,"rental_uris":{"android":"levelo://app?vid=e5072903-b867-4d8e-a478-9934ce296bde","ios":"levelo://app?vid=e5072903-b867-4d8e-a478-9934ce296bde"},"vehicle_type_id":"4","last_reported":1762873887,"current_range_meters":16800,"station_id":"","pricing_plan_id":"cebpf4jnsgd1na2vs0mg"},{"bike_id":"a6f48bb0-7fdc-4813-b6f0-6282d559bc3a","system_id":"levelo_inurba_marseille","lat":43.29976,"lon":5.37178,"is_reserved":false,"is_disabled":false,"rental_uris":{"android":"levelo://app?vid=a6f48bb0-7fdc-4813-b6f0-6282d559bc3a","ios":"levelo://app?vid=a6f48bb0-7fdc-4813-b6f0-6282d559bc3a"},"vehicle_type_id":"4","last_reported":1762873887,"current_range_meters":16800,"station_id":"ce4bgr92rcd13ifvqc7g","pricing_plan_id":"cebpf4jnsgd1na2vs0mg"},{"bike_id":"90b7b1ac-129d-4f5e-9e36-1417be0b1559","system_id":"levelo_inurba_marseille","lat":43.303719,"lon":5.424845,"is_reserved":false,"is_disabled":true,"rental_uris":{"android":"levelo://app?vid=90b7b1ac-129d-4f5e-9e36-1417be0b1559","ios":"levelo://app?vid=90b7b1ac-129d-4f5e-9e36-1417be0b1559"},"vehicle_type_id":"4","last_reported":1762873887,"current_range_meters":16800,"station_id":"ce4bhoh2rcd13ifvqh6g","pricing_plan_id":"cebpf4jnsgd1na2vs0mg"},{"bike_id":"138acbc8-a44a-45ec-9d4e-f41258a8778e","system_id":"levelo_inurba_marseille","lat":43.29821,"lon":5.4411,"is_reserved":false,"is_disabled":false,"rental_uris":{"android":"levelo://app?vid=138acbc8-a44a-45ec-9d4e-f41258a8778e","ios":"levelo://app?vid=138acbc8-a44a-45ec-9d4e-f41258a8778e"},"vehicle_type_id":"4","last_reported":1762873887,"current_range_meters":16800,"station_id":"","pricing_plan_id":"cebpf4jnsgd1na2vs0mg"},{"bike_id":"98577f46-f463-4300-8c89-815ab2f220a2","system_id":"levelo_inurba_marseille","lat":43.25515,"lon":5.37659,"is_reserved":false,"is_disabled":false,"rental_uris":{"android":"levelo://app?vid=98577f46-f463-4300-8c89-815ab2f220a2","ios":"levelo://app?vid=98577f46-f463-4300-8c89-815ab2f220a2"},