{"last_updated":1717880807,"ttl":30,"version":"2.2","data":{"bikes":[{"bike_id":"5b04f21c-dea7-4334-a081-588e180d3fcc","system_id":"levelo_inurba_marseille","lat":43.31341,"lon":5.367098,"is_reserved":false,"is_disabled":false,"rental_uris":{"android":"levelo://app?vid=5b04f21c-dea7-4334-a081-588e180d3fcc","ios":"levelo://app?vid=5b04f21c-dea7-4334-a081-588e180d3fcc"},"vehicle_type_id":"4","last_reported":1717880807,"current_range_meters":11200,"station_id":"ce4bgr92rcd13ifvqc6g","pricing_plan_id":"cebpf4jnsgd1na2vs0mg"},{"bike_id":"30d4a389-6167-4cec-86f8-19904d9f78e8","system_id":"levelo_inurba_marseille","lat":43.312239,"lon":5.368562,"is_reserved":false,"is_disabled":false,"rental_uris":{"android":"levelo://app?vid=30d4a389-6167-4cec-86f8-19904d9f78e8","ios":"levelo://app?vid=30d4a389-6167-4cec-86f8-19904d9f78e8"},"vehicle_type_id":"4","last_reported":1717880807,"current_range_meters":7200,"station_id":"ce4bgl92rcd13ifvqbq0","pricing_plan_id":"cebpf4jnsgd1na2vs0mg"},{"bike_id":"39333329-c3ce-4f61-af03-4d07de3496f9","system_id":"levelo_inurba_marseille","lat":43.312239,"lon":5.368562,"is_reserved":false,"is_disabled":false,"rental_uris":{"android":"levelo://app?vid=39333329-c3ce-4f61-af03-4d07de3496f9","ios":"levelo://app?vid=39333329-c3ce-4f61-af03-4d07de3496f9"},"vehicle_type_id":"4","last_reported":1717880807,"current_range_meters":0,"station_id":"ce4bgl92rcd13ifvqbq0","pricing_plan_id":"cebpf4jnsgd1na2vs0mg"},{"bike_id":"4e8e848f-0263-471a-a5a5-99ae7742516e","system_id":"levelo_inurba_marseille","lat":43.309076,"lon":5.368465,"is_reserved":false,"is_disabled":false,"rental_uris":{"android":"levelo://app?vid=4e8e848f-0263-471a-a5a5-99ae7742516e","ios":"levelo://app?vid=4e8e848f-0263-471a-a5a5-99ae7742516e"},"vehicle_type_id":"4","last_reported":1717880807,"current_range_meters":0,"station_id":"ce4bgn92rcd13ifvqbvg","pricing_plan_id":"cebpf4jnsgd1na2vs0mg"},{"bike_id":"837171fa-435b-49fa-a405-e7e40acfd23c","system_id":"levelo_inurba_marseille","lat":43.309076,"lon":5.368465,"is_reserved":false,"is_disabled":false,"rental_uris":{"android":"levelo://app?vid=837171fa-435b-49fa-a405-e7e40acfd23c","ios":"levelo://app?vid=837171fa-435b-49fa-a405-e7e40acfd23c"},"vehicle_type_id":"4","last_reported":1717880807,"current_range_meters":26000,"station_id":"ce4bgn92rcd13ifvqbvg","pricing_plan_id":"cebpf4jnsgd1na2vs0mg"},{"bike_id":"7494b97a-91ed-489e-8e2a-4e1232eaaf20","system_id":"levelo_inurba_marseille","lat":43.31489,"lon":5.37306,"is_reserved":false,"is_disabled":false,"rental_uris":{"android":"levelo://app?vid=7494b97a-91ed-489e-8e2a-4e1232eaaf20","ios":"levelo://app?vid=7494b97a-91ed-489e-8e2a-4e1232eaaf20"},"vehicle_type_id":"4","last_reported":1717880807,"current_range_meters":0,"station_id":"ce4bgt12rcd13ifvqcd0","pricing_plan_id":"cebpf4jnsgd1na2vs0mg"},{"bike_id":"f8f7a9da-8a21-4c99-9b56-e0b9079c6d64","system_id":"levelo_inurba_marseille","lat":43.31489,"lon":5.37311,"is_reserved":false,"is_disabled":false,"rental_uris":{"android":"levelo://app?vid=f8f7a9da-8a21-4c99-9b56-e0b9079c6d64","ios":"levelo://app?vid=f8f7a9da-8a21-4c99-9b56-e0b9079c6d64"},"vehicle_type_id":"4","last_reported":1717880807,"current_range_meters":0,"station_id":"ce4bgt12rcd13ifvqcd0","pricing_plan_id":"cebpf4jnsgd1na2vs0mg"},{"bike_id":"61004e94-da7c-42d1-b874-0f0e43de137f","system_id":"levelo_inurba_marseille","lat":43.314811,"lon":5.373104,"is_reserved":false,"is_disabled":false,"rental_uris":{"android":"levelo://app?vid=61004e94-da7c-42d1-b874-0f0e43de137f","ios":"levelo://app?vid=61004e94-da7c-42d1-b874-0f0e43de137f"},"vehicle_type_id":"4","last_reported":1717880807,"current_range_meters":30800,"station_id":"ce4bgt12rcd13ifvqcd0","pricing_plan_id":"cebpf4jnsgd1na2vs0mg"},{"bike_id":"0accee6a-8ce4-40b2-bbba-63792a3ee971","system_id":"levelo_inurba_marseille","lat":43.309034,"lon":5.371783,"is_reserved":false,"is_disabled":false,"rental_uris":{"android":"levelo://app?vid=0accee6a-8ce4-40b2-bbba-63792a3ee971","ios":"levelo://app?vid=0accee6a-8ce4-40b2-bbba-63792a3ee971"},"vehicle_type_id":"4","last_reported":1717880807,"current_range_meters":4000,"station_id":"ce4bguh2rcd13ifvqckg","pricing_plan_id":"cebpf4jnsgd1na2vs0mg"},{"bike_id":"a419ebe9-534d-4969-b265-9b3ed1c02d24","system_id":"levelo_inurba_marseille","lat":43.309039,"lon":5.371797,"is_reserved":false,"is_disabled":false,"rental_uris":{"android":"levelo://app?vid=a419ebe9-534d-4969-b265-9b3ed1c02d24","ios":"levelo://app?vid=a419ebe9-534d-4969-b265-9b3ed1c02d24"},"vehicle_type_id":"4","last_reported":1717880807,"current_range_meters":10800,"station_id":"ce4bguh2rcd13ifvqckg","pricing_plan_id":"cebpf4jnsgd1na2vs0mg"},{"bike_id":"d27bbcaa-374b-47bf-93db-37d73d84c434","system_id":"levelo_inurba_marseille","lat":43.309034,"lon":5.371783,"is_reserved":false,"is_disabled":false,"rental_uris":{"android":"levelo://app?vid=d27bbcaa-374b-47bf-93db-37d73d84c434","ios":"levelo://app?vid=d27bbcaa-374b-47bf-93db-37d73d84c434"},"vehicle_type_id":"4","last_reported":1717880807,"current_range_meters":23200,"station_id":"ce4bguh2rcd13ifvqckg","pricing_plan_id":"cebpf4jnsgd1na2vs0mg"},{"bike_id":"99cca21e-b043-485f-ae2f-ff9ceb2b503f","system_id":"levelo_inurba_marseille","lat":43.309034,"lon":5.371783,"is_reserved":false,"is_disabled":false,"rental_uris":{"android":"levelo://app?vid=99cca21e-b043-485f-ae2f-ff9ceb2b503f","ios":"levelo://app?vid=99cca21e-b043-485f-ae2f-ff9ceb2b503f"},"vehicle_type_id":"4","last_reported":1717880807,"current_range_meters":6400,"station_id":"ce4bguh2rcd13ifvqckg","pricing_plan_id":"cebpf4jnsgd1na2vs0mg"},{"bike_id":"cbe51f12-6c31-45cc-a18a-cbc7d6340fa0","system_id":"levelo_inurba_marseille","lat":43.309034,"lon":5.371783,"is_reserved":false,"is_disabled":false,"rental_uris":{"android":"levelo://app?vid=cbe51f12-6c31-45cc-a18a-cbc7d6340fa0","ios":"levelo://app?vid=cbe51f12-6c31-45cc-a18a-cbc7d6340fa0"},"vehicle_type_id":"4","last_reported":1717880807,"current_range_meters":31200,"station_id":"ce4bguh2rcd13ifvqckg","pricing_plan_id":"cebpf4jnsgd1na2vs0mg"},{"bike_id":"53295028-3f58-42d0-84d8-686ed73f20d0","system_id":"levelo_inurba_marseille","lat":43.316395,"lon":5.373997,"is_reserved":false,"is_disabled":false,"rental_uris":{"android":"levelo://app?vid=53295028-3f58-42d0-84d8-686ed73f20d0","ios":"levelo://app?vid=53295028-3f58-42d0-84d8-686ed73f20d0"},"vehicle_type_id":"4","last_reported":1717880807,"current_range_meters":6400,"station_id":"","pricing_plan_id":"cebpf4jnsgd1na2vs0mg"},{"bike_id":"6711a720-4be1-4766-9812-54d9f67bc267","system_id":"levelo_inurba_marseille","lat":43.31825,"lon":5.37352,"is_reserved":false,"is_disabled":false,"rental_uris":{"android":"levelo://app?vid=6711a720-4be1-4766-9812-54d9f67bc267","ios":"levelo://app?vid=6711a720-4be1-4766-9812-54d9f67bc267"},"vehicle_type_id":"4","last_reported":1717880807,"current_range_meters":10000,"station_id":"","pricing_plan_id":"cebpf4jnsgd1na2vs0mg"},{"bike_id":"0eb0f1ba-8188-4e46-bc3f-901916d306f4","system_id":"levelo_inurba_marseille","lat":43.305368,"lon":5.367343,"is_reserved":false,"is_disabled":false,"rental_uris":{"android":"levelo://app?vid=0eb0f1ba-8188-4e46-bc3f-901916d306f4","ios":"levelo://app?vid=0eb0f1ba-8188-4e46-bc3f-901916d306f4"},"vehicle_type_id":"4","last_reported":1717880807,"current_range_meters":12400,"station_id":"ce4bgrp2rcd13ifvqc9g","pricing_plan_id":"cebpf4jnsgd1na2vs0mg"},{"bike_id":"c796d728-db02-45d3-84c3-4baa99b2168e","system_id":"levelo_inurba_marseille","lat":43.305714,"lon":5.365633,"is_reserved":false,"is_disabled":false,"rental_uris":{"android":"levelo://app?vid=c796d728-db02-45d3-84c3-4baa99b2168e","ios":"levelo://app?vid=c796d728-db02-45d3-84c3-4baa99b2168e"},"vehicle_type_id":"4","last_reported":1717880807,"current_range_meters":11200,"station_id":"ce4bgs12rcd13ifvqcag","pricing_plan_id":"cebpf4jnsgd1na2vs0mg"},{"bike_id":"6346f381-fec9-4271-aa61-8d45a76bfe42","system_id":"levelo_inurba_marseille","lat":43.309894,"lon":5.376664,"is_reserved":false,"is_disabled":false,"rental_uris":{"android":"levelo://app?vid=6346f381-fec9-4271-aa61-8d45a76bfe42","ios":"levelo://app?vid=6346f381-fec9-4271-aa61-8d45a76bfe42"},"vehicle_type_id":"4","last_reported":1717880807,"current_range_meters":23200,"station_id":"","pricing_plan_id":"cebpf4jnsgd1na2vs0mg"},{"bike_id":"22326b56-d63a-4382-9be5-562802a6198a","system_id":"levelo_inurba_marseille","lat":43.305989,"lon":5.37225,"is_reserved":false,"is_disabled":false,"rental_uris":{"android":"levelo://app?vid=22326b56-d63a-4382-9be5-562802a6198a","ios":"levelo://app?vid=22326b56-d63a-4382-9be5-562802a6198a"},"vehicle_type_id":"4","last_reported":1717880807,"current_range_meters":6400,"station_id":"ce4bgqh2rcd13ifvqc4g","pricing_plan_id":"cebpf4jnsgd1na2vs0mg"},{"bike_id":"e7f8bb5e-b052-4630-887b-c8d0b3ea2b15","system_id":"levelo_inurba_marseille","lat":43.311242,"lon":5.377824,"is_reserved":false,"is_disabled":false,"rental_uris":{"android":"levelo://app?vid=e7f8bb5e-b052-4630-887b-c8d0b3ea2b15","ios":"levelo://app?vid=e7f8bb5e-b052-4630-887b-c8d0b3ea2b15"},"vehicle_type_id":"4","last_reported":1717880807,"current_range_meters":12800,"station_id":"ce4bgt92rcd13ifvqcg0","pricing_plan_id":"cebpf4jnsgd1na2vs0mg"},{"bike_id":"22ea6cc8-8dee-43af-b8f7-d176e05a5225","system_id":"levelo_inurba_marseille","lat":43.307945,"lon":5.376487,"is_reserved":false,"is_disabled":false,"rental_uris":{"android":"levelo://app?vid=22ea6cc8-8dee-43af-b8f7-d176e05a5225","ios":"levelo://app?vid=22ea6cc8-8dee-43af-b8f7-d176e05a5225"},"vehicle_type_id":"4","last_reported":1717880807,"current_range_meters":4800,"station_id":"ce4bgv92rcd13ifvqcq0","pricing_plan_id":"cebpf4jnsgd1na2vs0mg"},{"bike_id":"13c08414-1a5d-4a2b-b579-6f3a817c5a71","system_id":"levelo_inurba_marseille","lat":43.307945,"lon":5.376487,"is_reserved":false,"is_disabled":false,"rental_uris":{"android":"levelo://app?vid=13c08414-1a5d-4a2b-b579-6f3a817c5a71","ios":"levelo://app?vid=13c08414-1a5d-4a2b-b579-6f3a817c5a71"},"vehicle_type_id":"4","last_reported":1717880807,"current_range_meters":28400,"station_id":"ce4bgv92rcd13ifvqcq0","pricing_plan_id":"cebpf4jnsgd1na2vs0mg"},{"bike_id":"0c61342f-6260-4363-b6e0-863b5762381c","system_id":"levelo_inurba_marseille","lat":43.317075,"lon":5.377367,"is_reserved":false,"is_disabled":false,"rental_uris":{"android":"levelo://app?vid=0c61342f-6260-4363-b6e0-863b5762381c","ios":"levelo://app?vid=0c61342f-6260-4363-b6e0-863b5762381c"},"vehicle_type_id":"4","last_reported":1717880807,"current_range_meters":30800,"station_id":"ce4bgth2rcd13ifvqch0","pricing_plan_id":"cebpf4jnsgd1na2vs0mg"},{"bike_id":"6e931ab9-ec43-4d05-b2d6-5b959bb6cfe3","system_id":"levelo_inurba_marseille","lat":43.317075,"lon":5.377367,"is_reserved":false,"is_disabled":false,"rental_uris":{"android":"levelo://app?vid=6e931ab9-ec43-4d05-b2d6-5b959bb6cfe3","ios":"levelo://app?vid=6e931ab9-ec43-4d05-b2d6-5b959bb6cfe3"},"vehicle_type_id":"4","last_reported":1717880807,"current_range_meters":28800,"station_id":"ce4bgth2rcd13ifvqch0","pricing_plan_id":"cebpf4jnsgd1na2vs0mg"},{"bike_id":"ab25984f-22d7-4679-87b0-6b22b62e7063","system_id":"levelo_inurba_marseille","lat":43.317075,"lon":5.377367,"is_reserved":false,"is_disabled":false,"rental_uris":{"android":"levelo://app?vid=ab25984f-22d7-4679-87b0-6b22b62e7063","ios":"levelo://app?vid=ab25984f-22d7-4679-87b0-6b22b62e7063"},"vehicle_type_id":"4","last_reported":1717880807,"current_range_meters":3200,"station_id":"ce4bgth2rcd13ifvqch0","pricing_plan_id":"cebpf4jnsgd1na2vs0mg"},{"bike_id":"6ecb2e58-2d09-4b99-9ed3-a264554fa0f5","system_id":"levelo_inurba_marseille","lat":43.317075,"lon":5.377367,"is_reserved":false,"is_disabled":false,"rental_uris":{"android":"levelo://app?vid=6ecb2e58-2d09-4b99-9ed3-a264554fa0f5","ios":"levelo://app?vid=6ecb2e58-2d09-4b99-9ed3-a264554fa0f5"},"vehicle_type_id":"4","last_reported":1717880807,"current_range_meters":22800,"station_id":"ce4bgth2rcd13ifvqch0","pricing_plan_id":"cebpf4jnsgd1na2vs0mg"},{"bike_id":"6c8f5ed3-3e6e-4091-8e29-6e506d046dc7","system_id":"levelo_inurba_marseille","lat":43.317075,"lon":5.377367,"is_reserved":false,"is_disabled":false,"rental_uris":{"android":"levelo://app?vid=6c8f5ed3-3e6e-4091-8e29-6e506d046dc7","ios":"levelo://app?vid=6c8f5ed3-3e6e-4091-8e29-6e506d046dc7"},"vehicle_type_id":"4","last_reported":1717880807,"current_range_meters":5600,"station_id":"ce4bgth2rcd13ifvqch0","pricing_plan_id":"cebpf4jnsgd1na2vs0mg"},{"bike_id":"54d6b5cc-1ba7-4553-b141-9780e55c2a85","system_id":"levelo_inurba_marseille","lat":43.31704,"lon":5.37744,"is_reserved":false,"is_disabled":false,"rental_uris":{"android":"levelo://app?vid=54d6b5cc-1ba7-4553-b141-9780e55c2a85","ios":"levelo://app?vid=54d6b5cc-1ba7-4553-b141-9780e55c2a85"},"vehicle_type_id":"4","last_reported":1717880807,"current_range_meters":2400,"station_id":"ce4bgth2rcd13ifvqch0","pricing_plan_id":"cebpf4jnsgd1na2vs0mg"},{"bike_id":"a4b67492-c156-40ea-a44f-e3d3a952ee7d","system_id":"levelo_inurba_marseille","lat":43.317075,"lon":5.377367,"is_reserved":false,"is_disabled":false,"rental_uris":{"android":"levelo://app?vid=a4b67492-c156-40ea-a44f-e3d3a952ee7d","ios":"levelo://app?vid=a4b67492-c156-40ea-a44f-e3d3a952ee7d"},"vehicle_type_id":"4","last_reported":1717880807,"current_range_meters":10400,"station_id":"ce4bgth2rcd13ifvqch0","pricing_plan_id":"cebpf4jnsgd1na2vs0mg"},{"bike_id":"256dad3a-3e5b-4203-aeca-c6f7447c13b6","system_id":"levelo_inurba_marseille","lat":43.317075,"lon":5.377367,"is_reserved":false,"is_disabled":false,"rental_uris":{"android":"levelo://app?vid=256dad3a-3e5b-4203-aeca-c6f7447c13b6","ios":"levelo://app?vid=256dad3a-3e5b-4203-aeca-c6f7447c13b6"},"vehicle_type_id":"4","last_reported":1717880807,"current_range_meters":0,"station_id":"ce4bgth2rcd13ifvqch0","pricing_plan_id":"cebpf4jnsgd1na2vs0mg"},{"bike_id":"58b38e07-4d17-4627-9519-f3fde94358a1","system_id":"levelo_inurba_marseille","lat":43.301939,"lon":5.366286,"is_reserved":false,"is_disabled":false,"rental_uris":{"android":"levelo://app?vid=58b38e07-4d17-4627-9519-f3fde94358a1","ios":"levelo://app?vid=58b38e07-4d17-4627-9519-f3fde94358a1"},"vehicle_type_id":"4","last_reported":1717880807,"current_range_meters":17200,"station_id":"ce4bgrh2rcd13ifvqc8g","pricing_plan_id":"cebpf4jnsgd1na2vs0mg"},{"bike_id":"e514073c-dee8-4291-b067-f1f88a92302a","system_id":"levelo_inurba_marseille","lat":43.315289,"lon":5.380349,"is_reserved":false,"is_disabled":false,"rental_uris":{"android":"levelo://app?vid=e514073c-dee8-4291-b067-f1f88a92302a","ios":"levelo://app?vid=e514073c-dee8-4291-b067-f1f88a92302a"},"vehicle_type_id":"4","last_reported":1717880807,"current_range_meters":13200,"station_id":"ce4bhsp2rcd13ifvqi50","pricing_plan_id":"cebpf4jnsgd1na2vs0mg"},{"bike_id":"de2e5b30-5289-48b8-ab29-27e37b732924","system_id":"levelo_inurba_marseille","lat":43.315352,"lon":5.380409,"is_reserved":false,"is_disabled":false,"rental_uris":{"android":"levelo://app?vid=de2e5b30-5289-48b8-ab29-27e37b732924","ios":"levelo://app?vid=de2e5b30-5289-48b8-ab29-27e37b732924"},"vehicle_type_id":"4","last_reported":1717880807,"current_range_meters":8000,"station_id":"ce4bhsp2rcd13ifvqi50","pricing_plan_id":"cebpf4jnsgd1na2vs0mg"},{"bike_id":"7dfdb917-d721-4ab0-b825-050c09694fce","system_id":"levelo_inurba_marseille","lat":43.3149,"lon":5.38083,"is_reserved":false,"is_disabled":false,"rental_uris":{"android":"levelo://app?vid=7dfdb917-d721-4ab0-b825-050c09694fce","ios":"levelo://app?vid=7dfdb917-d721-4ab0-b825-050c09694fce"},"vehicle_type_id":"4","last_reported":1717880807,"current_range_meters":6800,"station_id":"","pricing_plan_id":"cebpf4jnsgd1na2vs0mg"},{"bike_id":"550fbbe4-e69f-476a-b44f-61d0e35a2f2b","system_id":"levelo_inurba_marseille","lat":43.301939,"lon":5.366286,"is_reserved":false,"is_disabled":false,"rental_uris":{"android":"levelo://app?vid=550fbbe4-e69f-476a-b44f-61d0e35a2f2b","ios":"levelo://app?vid=550fbbe4-e69f-476a-b44f-61d0e35a2f2b"},"vehicle_type_id":"4","last_reported":1717880807,"current_range_meters":5200,"station_id":"ce4bgrh2rcd13ifvqc8g","pricing_plan_id":"cebpf4jnsgd1na2vs0mg"},{"bike_id":"42afcd6c-bae9-4577-8961-d70303681f9c","system_id":"levelo_inurba_marseille","lat":43.301939,"lon":5.366286,"is_reserved":false,"is_disabled":false,"rental_uris":{"android":"levelo://app?vid=42afcd6c-bae9-4577-8961-d70303681f9c","ios":"levelo://app?vid=42afcd6c-bae9-4577-8961-d70303681f9c"},"vehicle_type_id":"4","last_reported":1717880807,"current_range_meters":29600,"station_id":"ce4bgrh2rcd13ifvqc8g","pricing_plan_id":"cebpf4jnsgd1na2vs0mg"},{"bike_id":"a56be7d2-262c-4edf-91f6-2ad1b4b2e0c2","system_id":"levelo_inurba_marseille","lat":43.301939,"lon":5.366286,"is_reserved":false,"is_disabled":false,"rental_uris":{"android":"levelo://app?vid=a56be7d2-262c-4edf-91f6-2ad1b4b2e0c2","ios":"levelo://app?vid=a56be7d2-262c-4edf-91f6-2ad1b4b2e0c2"},"vehicle_type_id":"4","last_reported":1717880807,"current_range_meters":26400,"station_id":"ce4bgrh2rcd13ifvqc8g","pricing_plan_id":"cebpf4jnsgd1na2vs0mg"},{"bike_id":"81be69a3-b87b-4a02-b145-489c7a4414e5","system_id":"levelo_inurba_marseille","lat":43.301939,"lon":5.366286,"is_reserved":false,"is_disabled":false,"rental_uris":{"android":"levelo://app?vid=81be69a3-b87b-4a02-b145-489c7a4414e5","ios":"levelo://app?vid=81be69a3-b87b-4a02-b145-489c7a4414e5"},"vehicle_type_id":"4","last_reported":1717880807,"current_range_meters":10800,"station_id":"ce4bgrh2rcd13ifvqc8g","pricing_plan_id":"cebpf4jnsgd1na2vs0mg"},{"bike_id":"580dad80-fe1a-408b-bc44-efc0b72c4a21","system_id":"levelo_inurba_marseille","lat":43.308012,"lon":5.381511,"is_reserved":false,"is_disabled":false,"rental_uris":{"android":"levelo://app?vid=580dad80-fe1a-408b-bc44-efc0b72c4a21","ios":"levelo://app?vid=580dad80-fe1a-408b-bc44-efc0b72c4a21"},"vehicle_type_id":"4","last_reported":1717880807,"current_range_meters":0,"station_id":"ce4bgt12rcd13ifvqce0","pricing_plan_id":"cebpf4jnsgd1na2vs0mg"},{"bike_id":"09a30e31-8185-43ac-9f6f-4c61f7d4d0f7","system_id":"levelo_inurba_marseille","lat":43.308012,"lon":5.381511,"is_reserved":false,"is_disabled":false,"rental_uris":{"android":"levelo://app?vid=09a30e31-8185-43ac-9f6f-4c61f7d4d0f7","ios":"levelo://app?vid=09a30e31-8185-43ac-9f6f-4c61f7d4d0f7"},"vehicle_type_id":"4","last_reported":1717880807,"current_range_meters":24000,"station_id":"ce4bgt12rcd13ifvqce0","pricing_plan_id":"cebpf4jnsgd1na2vs0mg"},{"bike_id":"676ac870-d484-4f1d-8a9c-cedd4bffc179","system_id":"levelo_inurba_marseille","lat":43.308012,"lon":5.381511,"is_reserved":false,"is_disabled":false,"rental_uris":{"android":"levelo://app?vid=676ac870-d484-4f1d-8a9c-cedd4bffc179","ios":"levelo://app?vid=676ac870-d484-4f1d-8a9c-cedd4bffc179"},"vehicle_type_id":"4","last_reported":1717880807,"current_range_meters":26000,"station_id":"ce4bgt12rcd13ifvqce0","pricing_plan_id":"cebpf4jnsgd1na2vs0mg"},{"bike_id":"cb0f0316-4e91-4d7e-aa84-ace84b8d380a","system_id":"levelo_inurba_marseille","lat":43.324771,"lon":5.36557,"is_reserved":false,"is_disabled":false,"rental_uris":{"android":"levelo://app?vid=cb0f0316-4e91-4d7e-aa84-ace84b8d380a","ios":"levelo://app?vid=cb0f0316-4e91-4d7e-aa84-ace84b8d380a"},"vehicle_type_id":"4","last_reported":1717880807,"current_range_meters":0,"station_id":"ce4bhs12rcd13ifvqhvg","pricing_plan_id":"cebpf4jnsgd1na2vs0mg"},{"bike_id":"e5b3e335-5052-4a18-b5b4-7804f8b94750","system_id":"levelo_inurba_marseille","lat":43.324771,"lon":5.36557,"is_reserved":false,"is_disabled":false,"rental_uris":{"android":"levelo://app?vid=e5b3e335-5052-4a18-b5b4-7804f8b94750","ios":"levelo://app?vid=e5b3e335-5052-4a18-b5b4-7804f8b94750"},"vehicle_type_id":"4","last_reported":1717880807,"current_range_meters":22400,"station_id":"ce4bhs12rcd13ifvqhvg","pricing_plan_id":"cebpf4jnsgd1na2vs0mg"},{"bike_id":"fd421efc-e4c5-45d0-a59c-b68aca91f23c","system_id":"levelo_inurba_marseille","lat":43.324771,"lon":5.36557,"is_reserved":false,"is_disabled":false,"rental_uris":{"android":"levelo://app?vid=fd421efc-e4c5-45d0-a59c-b68aca91f23c","ios":"levelo://app?vid=fd421efc-e4c5-45d0-a59c-b68aca91f23c"},"vehicle_type_id":"4","last_reported":1717880807,"current_range_meters":20400,"station_id":"ce4bhs12rcd13ifvqhvg","pricing_plan_id":"cebpf4jnsgd1na2vs0mg"},{"bike_id":"4a3e58ae-2f47-49e2-9f3e-12df9fbcbd9d","system_id":"levelo_inurba_marseille","lat":43.324771,"lon":5.36557,"is_reserved":false,"is_disabled":false,"rental_uris":{"android":"levelo://app?vid=4a3e58ae-2f47-49e2-9f3e-12df9fbcbd9d","ios":"levelo://app?vid=4a3e58ae-2f47-49e2-9f3e-12df9fbcbd9d"},"vehicle_type_id":"4","last_reported":1717880807,"current_range_meters":14800,"station_id":"ce4bhs12rcd13ifvqhvg","pricing_plan_id":"cebpf4jnsgd1na2vs0mg"},{"bike_id":"dbce3cd2-982f-4a43-9317-093ab3f09d5d","system_id":"levelo_inurba_marseille","lat":43.324771,"lon":5.36557,"is_reserved":false,"is_disabled":false,"rental_uris":{"android":"levelo://app?vid=dbce3cd2-982f-4a43-9317-093ab3f09d5d","ios":"levelo://app?vid=dbce3cd2-982f-4a43-9317-093ab3f09d5d"},"vehicle_type_id":"4","last_reported":1717880807,"current_range_meters":0,"station_id":"ce4bhs12rcd13ifvqhvg","pricing_plan_id":"cebpf4jnsgd1na2vs0mg"},{"bike_id":"148c4574-6b24-4578-896a-ade2aaac741d","system_id":"levelo_inurba_marseille","lat":43.324771,"lon":5.36557,"is_reserved":false,"is_disabled":false,"rental_uris":{"android":"levelo://app?vid=148c4574-6b24-4578-896a-ade2aaac741d","ios":"levelo://app?vid=148c4574-6b24-4578-896a-ade2aaac741d"},"vehicle_type_id":"4","last_reported":1717880807,"current_range_meters":1600,"station_id":"ce4bhs12rcd13ifvqhvg","pricing_plan_id":"cebpf4jnsgd1na2vs0mg"},{"bike_id":"3c9fe599-11ef-4904-ac9f-222bc966a693","system_id":"levelo_inurba_marseille","lat":43.30859,"lon":5.38261,"is_reserved":false,"is_disabled":false,"rental_uris":{"android":"levelo://app?vid=3c9fe599-11ef-4904-ac9f-222bc966a693","ios":"levelo://app?vid=3c9fe599-11ef-4904-ac9f-222bc966a693"},"vehicle_type_id":"4","last_reported":1717880807,"current_range_meters":3200,"station_id":"","pricing_plan_id":"cebpf4jnsgd1na2vs0mg"},{"bike_id":"f64dd03c-abf7-4f1c-b13c-beea30d81a95","system_id":"levelo_inurba_marseille","lat":43.324771,"lon":5.36557,"is_reserved":false,"is_disabled":false,"rental_uris":{"android":"levelo://app?vid=f64dd03c-abf7-4f1c-b13c-beea30d81a95","ios":"levelo://app?vid=f64dd03c-abf7-4f1c-b13c-beea30d81a95"},"vehicle_type_id":"4","last_reported":1717880807,"current_range_meters":2800,"station_id":"ce4bhs12rcd13ifvqhvg","pricing_plan_id":"cebpf4jnsgd1na2vs0mg"},{"bike_id":"10b285a9-6b4e-4ab9-8471-de8b8b9f7794","system_id":"levelo_inurba_marseille","lat":43.324771,"lon":5.36557,"is_reserved":false,"is_disabled":false,"rental_uris":{"android":"levelo://app?vid=10b285a9-6b4e-4ab9-8471-de8b8b9f7794","ios":"levelo://app?vid=10b285a9-6b4e-4ab9-8471-de8b8b9f7794"},"vehicle_type_id":"4","last_reported":1717880807,"current_range_meters":4800,"station_id":"ce4bhs12rcd13ifvqhvg","pricing_plan_id":"cebpf4jnsgd1na2vs0mg"},{"bike_id":"e959b4e2-14bd-444b-9252-b91203044025","system_id":"levelo_inurba_marseille","lat":43.324771,"lon":5.36557,"is_reserved":false,"is_disabled":false,"rental_uris":{"android":"levelo://app?vid=e959b4e2-14bd-444b-9252-b91203044025","ios":"levelo://app?vid=e959b4e2-14bd-444b-9252-b91203044025"},"vehicle_type_id":"4","last_reported":1717880807,"current_range_meters":14800,"station_id":"ce4bhs12rcd13ifvqhvg","pricing_plan_id":"cebpf4jnsgd1na2vs0mg"},{"bike_id":"54a8775a-8616-469d-b707-3e2e8a538c4f","system_id":"levelo_inurba_marseille","lat":43.324771,"lon":5.36557,"is_reserved":false,"is_disabled":false,"rental_uris":{"android":"levelo://app?vid=54a8775a-8616-469d-b707-3e2e8a538c4f","ios":"levelo://app?vid=54a8775a-8616-469d-b707-3e2e8a538c4f"},"vehicle_type_id":"4","last_reported":1717880807,"current_range_meters":13200,"station_id":"ce4bhs12rcd13ifvqhvg","pricing_plan_id":"cebpf4jnsgd1na2vs0mg"},{"bike_id":"4af403c3-8c84-4493-83d1-df600b3b67d0","system_id":"levelo_inurba_marseille","lat":43.310804,"lon":5.38359,"is_reserved":false,"is_disabled":false,"rental_uris":{"android":"levelo://app?vid=4af403c3-8c84-4493-83d1-df600b3b67d0","ios":"levelo://app?vid=4af403c3-8c84-4493-83d1-df600b3b67d0"},"vehicle_type_id":"4","last_reported":1717880807,"current_range_meters":5600,"station_id":"ce4bgv92rcd13ifvqcr0","pricing_plan_id":"cebpf4jnsgd1na2vs0mg"},{"bike_id":"f156c547-04bd-4e87-a80e-e9864fc64e00","system_id":"levelo_inurba_marseille","lat":43.302784,"lon":5.377158,"is_reserved":false,"is_disabled":false,"rental_uris":{"android":"levelo://app?vid=f156c547-04bd-4e87-a80e-e9864fc64e00","ios":"levelo://app?vid=f156c547-04bd-4e87-a80e-e9864fc64e00"},"vehicle_type_id":"4","last_reported":1717880807,"current_range_meters":12800,"station_id":"ce4bguh2rcd13ifvqcj0","pricing_plan_id":"cebpf4jnsgd1na2vs0mg"},{"bike_id":"886c8414-1265-4d68-bd32-1c7fa47a135e","system_id":"levelo_inurba_marseille","lat":43.302784,"lon":5.377158,"is_reserved":false,"is_disabled":false,"rental_uris":{"android":"levelo://app?vid=886c8414-1265-4d68-bd32-1c7fa47a135e","ios":"levelo://app?vid=886c8414-1265-4d68-bd32-1c7fa47a135e"},"vehicle_type_id":"4","last_reported":1717880807,"current_range_meters":0,"station_id":"ce4bguh2rcd13ifvqcj0","pricing_plan_id":"cebpf4jnsgd1na2vs0mg"},{"bike_id":"47ca239a-8bd5-478f-bde0-9f771e8720ab","system_id":"levelo_inurba_marseille","lat":43.302784,"lon":5.377158,"is_reserved":false,"is_disabled":false,"rental_uris":{"android":"levelo://app?vid=47ca239a-8bd5-478f-bde0-9f771e8720ab","ios":"levelo://app?vid=47ca239a-8bd5-478f-bde0-9f771e8720ab"},"vehicle_type_id":"4","last_reported":1717880807,"current_range_meters":13200,"station_id":"ce4bguh2rcd13ifvqcj0","pricing_plan_id":"cebpf4jnsgd1na2vs0mg"},{"bike_id":"8fd9107b-d77d-4b41-bade-8709f7ca622d","system_id":"levelo_inurba_marseille","lat":43.319931,"lon":5.381493,"is_reserved":false,"is_disabled":false,"rental_uris":{"android":"levelo://app?vid=8fd9107b-d77d-4b41-bade-8709f7ca622d","ios":"levelo://app?vid=8fd9107b-d77d-4b41-bade-8709f7ca622d"},"vehicle_type_id":"4","last_reported":1717880807,"current_range_meters":3200,"station_id":"ce4bhr12rcd13ifvqhpg","pricing_plan_id":"cebpf4jnsgd1na2vs0mg"},{"bike_id":"699c1570-326e-425c-bcac-af01ccfc73c6","system_id":"levelo_inurba_marseille","lat":43.32001,"lon":5.38153,"is_reserved":false,"is_disabled":false,"rental_uris":{"android":"levelo://app?vid=699c1570-326e-425c-bcac-af01ccfc73c6","ios":"levelo://app?vid=699c1570-326e-425c-bcac-af01ccfc73c6"},"vehicle_type_id":"4","last_reported":1717880807,"current_range_meters":3600,"station_id":"ce4bhr12rcd13ifvqhpg","pricing_plan_id":"cebpf4jnsgd1na2vs0mg"},{"bike_id":"32282d20-42db-478e-8606-80b7a9958972","system_id":"levelo_inurba_marseille","lat":43.319935,"lon":5.381699,"is_reserved":false,"is_disabled":false,"rental_uris":{"android":"levelo://app?vid=32282d20-42db-478e-8606-80b7a9958972","ios":"levelo://app?vid=32282d20-42db-478e-8606-80b7a9958972"},"vehicle_type_id":"4","last_reported":1717880807,"current_range_meters":24800,"station_id":"ce4bhr12rcd13ifvqhpg","pricing_plan_id":"cebpf4jnsgd1na2vs0mg"},{"bike_id":"bf243b62-a0ef-439b-9ce3-8c2b3dd5ff21","system_id":"levelo_inurba_marseille","lat":43.319947,"lon":5.381647,"is_reserved":false,"is_disabled":false,"rental_uris":{"android":"levelo://app?vid=bf243b62-a0ef-439b-9ce3-8c2b3dd5ff21","ios":"levelo://app?vid=bf243b62-a0ef-439b-9ce3-8c2b3dd5ff21"},"vehicle_type_id":"4","last_reported":1717880807,"current_range_meters":19600,"station_id":"ce4bhr12rcd13ifvqhpg","pricing_plan_id":"cebpf4jnsgd1na2vs0mg"},{"bike_id":"0ac44479-581d-4f24-ba56-e78d0e0d75b5","system_id":"levelo_inurba_marseille","lat":43.313571,"lon":5.384829,"is_reserved":false,"is_disabled":false,"rental_uris":{"android":"levelo://app?vid=0ac44479-581d-4f24-ba56-e78d0e0d75b5","ios":"levelo://app?vid=0ac44479-581d-4f24-ba56-e78d0e0d75b5"},"vehicle_type_id":"4","last_reported":1717880807,"current_range_meters":5600,"station_id":"ce4bgt92rcd13ifvqcf0","pricing_plan_id":"cebpf4jnsgd1na2vs0mg"},{"bike_id":"9d78ba44-2bc7-4146-b43b-c3fa24bd0ba3","system_id":"levelo_inurba_marseille","lat":43.313571,"lon":5.384829,"is_reserved":false,"is_disabled":false,"rental_uris":{"android":"levelo://app?vid=9d78ba44-2bc7-4146-b43b-c3fa24bd0ba3","ios":"levelo://app?vid=9d78ba44-2bc7-4146-b43b-c3fa24bd0ba3"},"vehicle_type_id":"4","last_reported":1717880807,"current_range_meters":20400,"station_id":"ce4bgt92rcd13ifvqcf0","pricing_plan_id":"cebpf4jnsgd1na2vs0mg"},{"bike_id":"ee386813-7236-4df1-ad10-04b4c03a5410","system_id":"levelo_inurba_marseille","lat":43.313571,"lon":5.384829,"is_reserved":false,"is_disabled":false,"rental_uris":{"android":"levelo://app?vid=ee386813-7236-4df1-ad10-04b4c03a5410","ios":"levelo://app?vid=ee386813-7236-4df1-ad10-04b4c03a5410"},"vehicle_type_id":"4","last_reported":1717880807,"current_range_meters":2000,"station_id":"ce4bgt92rcd13ifvqcf0","pricing_plan_id":"cebpf4jnsgd1na2vs0mg"},{"bike_id":"e4da903a-10d0-4f05-a558-bacf3ecc4fe2","system_id":"levelo_inurba_marseille","lat":43.313571,"lon":5.384829,"is_reserved":false,"is_disabled":false,"rental_uris":{"android":"levelo://app?vid=e4da903a-10d0-4f05-a558-bacf3ecc4fe2","ios":"levelo://app?vid=e4da903a-10d0-4f05-a558-bacf3ecc4fe2"},"vehicle_type_id":"4","last_reported":1717880807,"current_range_meters":24400,"station_id":"ce4bgt92rcd13ifvqcf0","pricing_plan_id":"cebpf4jnsgd1na2vs0mg"},{"bike_id":"87268f71-18eb-45ef-8ab8-2ca643aa9c81","system_id":"levelo_inurba_marseille","lat":43.313649,"lon":5.384916,"is_reserved":false,"is_disabled":false,"rental_uris":{"android":"levelo://app?vid=87268f71-18eb-45ef-8ab8-2ca643aa9c81","ios":"levelo://app?vid=87268f71-18eb-45ef-8ab8-2ca643aa9c81"},"vehicle_type_id":"4","last_reported":1717880807,"current_range_meters":0,"station_id":"","pricing_plan_id":"cebpf4jnsgd1na2vs0mg"},{"bike_id":"3987f533-7b81-483d-81bb-d418c0d5383b","system_id":"levelo_inurba_marseille","lat":43.313571,"lon":5.384829,"is_reserved":false,"is_disabled":false,"rental_uris":{"android":"levelo://app?vid=3987f533-7b81-483d-81bb-d418c0d5383b","ios":"levelo://app?vid=3987f533-7b81-483d-81bb-d418c0d5383b"},"vehicle_type_id":"4","last_reported":1717880807,"current_range_meters":6000,"station_id":"ce4bgt92rcd13ifvqcf0","pricing_plan_id":"cebpf4jnsgd1na2vs0mg"},{"bike_id":"ddb32276-d673-429c-a89f-538b6b8a4220","system_id":"levelo_inurba_marseille","lat":43.313571,"lon":5.384829,"is_reserved":false,"is_disabled":false,"rental_uris":{"android":"levelo://app?vid=ddb32276-d673-429c-a89f-538b6b8a4220","ios":"levelo://app?vid=ddb32276-d673-429c-a89f-538b6b8a4220"},"vehicle_type_id":"4","last_reported":1717880807,"current_range_meters":14400,"station_id":"ce4bgt92rcd13ifvqcf0","pricing_plan_id":"cebpf4jnsgd1na2vs0mg"},{"bike_id":"94724807-1ff1-46bc-8e63-7a21ae6f98b5","system_id":"levelo_inurba_marseille","lat":43.313571,"lon":5.384829,"is_reserved":false,"is_disabled":false,"rental_uris":{"android":"levelo://app?vid=94724807-1ff1-46bc-8e63-7a21ae6f98b5","ios":"levelo://app?vid=94724807-1ff1-46bc-8e63-7a21ae6f98b5"},"vehicle_type_id":"4","last_reported":1717880807,"current_range_meters":0,"station_id":"ce4bgt92rcd13ifvqcf0","pricing_plan_id":"cebpf4jnsgd1na2vs0mg"},{"bike_id":"85da479e-7578-4dfe-9bf4-7d0a6fc810f4","system_id":"levelo_inurba_marseille","lat":43.313571,"lon":5.384829,"is_reserved":false,"is_disabled":false,"rental_uris":{"android":"levelo://app?vid=85da479e-7578-4dfe-9bf4-7d0a6fc810f4","ios":"levelo://app?vid=85da479e-7578-4dfe-9bf4-7d0a6fc810f4"},"vehicle_type_id":"4","last_reported":1717880807,"current_range_meters":18400,"station_id":"ce4bgt92rcd13ifvqcf0","pricing_plan_id":"cebpf4jnsgd1na2vs0mg"},{"bike_id":"6e088eae-6fab-47e5-9aa3-207450f110e4","system_id":"levelo_inurba_marseille","lat":43.31369,"lon":5.385,"is_reserved":false,"is_disabled":false,"rental_uris":{"android":"levelo://app?vid=6e088eae-6fab-47e5-9aa3-207450f110e4","ios":"levelo://app?vid=6e088eae-6fab-47e5-9aa3-207450f110e4"},"vehicle_type_id":"4","last_reported":1717880807,"current_range_meters":6400,"station_id":"ce4bgt92rcd13ifvqcf0","pricing_plan_id":"cebpf4jnsgd1na2vs0mg"},{"bike_id":"7dd8fd37-52ea-4b00-be9a-517dc5e1d54f","system_id":"levelo_inurba_marseille","lat":43.313571,"lon":5.384829,"is_reserved":false,"is_disabled":false,"rental_uris":{"android":"levelo://app?vid=7dd8fd37-52ea-4b00-be9a-517dc5e1d54f","ios":"levelo://app?vid=7dd8fd37-52ea-4b00-be9a-517dc5e1d54f"},"vehicle_type_id":"4","last_reported":1717880807,"current_range_meters":21600,"station_id":"ce4bgt92rcd13ifvqcf0","pricing_plan_id":"cebpf4jnsgd1na2vs0mg"},{"bike_id":"98cc794a-0793-41a4-92bd-b1bc235beac0","system_id":"levelo_inurba_marseille","lat":43.313571,"lon":5.384829,"is_reserved":false,"is_disabled":false,"rental_uris":{"android":"levelo://app?vid=98cc794a-0793-41a4-92bd-b1bc235beac0","ios":"levelo://app?vid=98cc794a-0793-41a4-92bd-b1bc235beac0"},"vehicle_type_id":"4","last_reported":1717880807,"current_range_meters":19200,"station_id":"ce4bgt92rcd13ifvqcf0","pricing_plan_id":"cebpf4jnsgd1na2vs0mg"},{"bike_id":"e4cf45a0-afba-46d3-8f5d-9965003008d5","system_id":"levelo_inurba_marseille","lat":43.299724,"lon":5.371829,"is_reserved":false,"is_disabled":false,"rental_uris":{"android":"levelo://app?vid=e4cf45a0-afba-46d3-8f5d-9965003008d5","ios":"levelo://app?vid=e4cf45a0-afba-46d3-8f5d-9965003008d5"},"vehicle_type_id":"4","last_reported":1717880807,"current_range_meters":6800,"station_id":"ce4bgr92rcd13ifvqc7g","pricing_plan_id":"cebpf4jnsgd1na2vs0mg"},{"bike_id":"f1eba7a8-6f58-4d54-ac15-fe2ff18b1551","system_id":"levelo_inurba_marseille","lat":43.313571,"lon":5.384829,"is_reserved":false,"is_disabled":false,"rental_uris":{"android":"levelo://app?vid=f1eba7a8-6f58-4d54-ac15-fe2ff18b1551","ios":"levelo://app?vid=f1eba7a8-6f58-4d54-ac15-fe2ff18b1551"},"vehicle_type_id":"4","last_reported":1717880807,"current_range_meters":10800,"station_id":"ce4bgt92rcd13ifvqcf0","pricing_plan_id":"cebpf4jnsgd1na2vs0mg"},{"bike_id":"02e2e6bf-d618-4870-ab08-771d68f0bfe8","system_id":"levelo_inurba_marseille","lat":43.299222,"lon":5.365554,"is_reserved":false,"is_disabled":false,"rental_uris":{"android":"levelo://app?vid=02e2e6bf-d618-4870-ab08-771d68f0bfe8","ios":"levelo://app?vid=02e2e6bf-d618-4870-ab08-771d68f0bfe8"},"vehicle_type_id":"4","last_reported":1717880807,"current_range_meters":22800,"station_id":"ce4bgm92rcd13ifvqbr0","pricing_plan_id":"cebpf4jnsgd1na2vs0mg"},{"bike_id":"3373f815-9ff8-40dc-90ae-2214d50c5804","system_id":"levelo_inurba_marseille","lat":43.299724,"lon":5.371829,"is_reserved":false,"is_disabled":false,"rental_uris":{"android":"levelo://app?vid=3373f815-9ff8-40dc-90ae-2214d50c5804","ios":"levelo://app?vid=3373f815-9ff8-40dc-90ae-2214d50c5804"},"vehicle_type_id":"4","last_reported":1717880807,"current_range_meters":26400,"station_id":"ce4bgr92rcd13ifvqc7g","pricing_plan_id":"cebpf4jnsgd1na2vs0mg"},{"bike_id":"d7fede97-6737-417e-8c43-a9b616299699","system_id":"levelo_inurba_marseille","lat":43.29935,"lon":5.36548,"is_reserved":false,"is_disabled":false,"rental_uris":{"android":"levelo://app?vid=d7fede97-6737-417e-8c43-a9b616299699","ios":"levelo://app?vid=d7fede97-6737-417e-8c43-a9b616299699"},"vehicle_type_id":"4","last_reported":1717880807,"current_range_meters":7200,"station_id":"ce4bgm92rcd13ifvqbr0","pricing_plan_id":"cebpf4jnsgd1na2vs0mg"},{"bike_id":"9c79f064-c260-4375-80d2-16042137fc11","system_id":"levelo_inurba_marseille","lat":43.299222,"lon":5.365554,"is_reserved":false,"is_disabled":false,"rental_uris":{"android":"levelo://app?vid=9c79f064-c260-4375-80d2-16042137fc11","ios":"levelo://app?vid=9c79f064-c260-4375-80d2-16042137fc11"},"vehicle_type_id":"4","last_reported":1717880807,"current_range_meters":18800,"station_id":"ce4bgm92rcd13ifvqbr0","pricing_plan_id":"cebpf4jnsgd1na2vs0mg"},{"bike_id":"47cd6034-109e-4586-9666-1fa257b57b55","system_id":"levelo_inurba_marseille","lat":43.299724,"lon":5.371829,"is_reserved":false,"is_disabled":false,"rental_uris":{"android":"levelo://app?vid=47cd6034-109e-4586-9666-1fa257b57b55","ios":"levelo://app?vid=47cd6034-109e-4586-9666-1fa257b57b55"},"vehicle_type_id":"4","last_reported":1717880807,"current_range_meters":2000,"station_id":"ce4bgr92rcd13ifvqc7g","pricing_plan_id":"cebpf4jnsgd1na2vs0mg"},{"bike_id":"2b56b41d-b426-4593-83d0-d5a66983a538","system_id":"levelo_inurba_marseille","lat":43.298433,"lon":5.362774,"is_reserved":false,"is_disabled":false,"rental_uris":{"android":"levelo://app?vid=2b56b41d-b426-4593-83d0-d5a66983a538","ios":"levelo://app?vid=2b56b41d-b426-4593-83d0-d5a66983a538"},"vehicle_type_id":"4","last_reported":1717880807,"current_range_meters":5600,"station_id":"ce4bgpp2rcd13ifvqc3g","pricing_plan_id":"cebpf4jnsgd1na2vs0mg"},{"bike_id":"703e435a-97fc-4684-86e4-b48b3d7dffb8","system_id":"levelo_inurba_marseille","lat":43.311722,"lon":5.387247,"is_reserved":false,"is_disabled":false,"rental_uris":{"android":"levelo://app?vid=703e435a-97fc-4684-86e4-b48b3d7dffb8","ios":"levelo://app?vid=703e435a-97fc-4684-86e4-b48b3d7dffb8"},"vehicle_type_id":"4","last_reported":1717880807,"current_range_meters":13600,"station_id":"ce4bgv12rcd13ifvqcp0","pricing_plan_id":"cebpf4jnsgd1na2vs0mg"},{"bike_id":"04253ef3-c5f3-445a-be79-5fd0d12f167c","system_id":"levelo_inurba_marseille","lat":43.31174,"lon":5.38709,"is_reserved":false,"is_disabled":false,"rental_uris":{"android":"levelo://app?vid=04253ef3-c5f3-445a-be79-5fd0d12f167c","ios":"levelo://app?vid=04253ef3-c5f3-445a-be79-5fd0d12f167c"},"vehicle_type_id":"4","last_reported":1717880807,"current_range_meters":0,"station_id":"ce4bgv12rcd13ifvqcp0","pricing_plan_id":"cebpf4jnsgd1na2vs0mg"},{"bike_id":"ee1d7e04-f996-4245-a90d-d3ec078b9ddf","system_id":"levelo_inurba_marseille","lat":43.31168,"lon":5.38713,"is_reserved":false,"is_disabled":false,"rental_uris":{"android":"levelo://app?vid=ee1d7e04-f996-4245-a90d-d3ec078b9ddf","ios":"levelo://app?vid=ee1d7e04-f996-4245-a90d-d3ec078b9ddf"},"vehicle_type_id":"4","last_reported":1717880807,"current_range_meters":0,"station_id":"ce4bgv12rcd13ifvqcp0","pricing_plan_id":"cebpf4jnsgd1na2vs0mg"},{"bike_id":"1ead03ff-f67f-4984-bcd2-6539707c776f","system_id":"levelo_inurba_marseille","lat":43.31168,"lon":5.3872,"is_reserved":false,"is_disabled":false,"rental_uris":{"android":"levelo://app?vid=1ead03ff-f67f-4984-bcd2-6539707c776f","ios":"levelo://app?vid=1ead03ff-f67f-4984-bcd2-6539707c776f"},"vehicle_type_id":"4","last_reported":1717880807,"current_range_meters":8400,"station_id":"ce4bgv12rcd13ifvqcp0","pricing_plan_id":"cebpf4jnsgd1na2vs0mg"},{"bike_id":"b8c408f8-e9a0-41a9-9474-e163a3061482","system_id":"levelo_inurba_marseille","lat":43.311722,"lon":5.387247,"is_reserved":false,"is_disabled":false,"rental_uris":{"android":"levelo://app?vid=b8c408f8-e9a0-41a9-9474-e163a3061482","ios":"levelo://app?vid=b8c408f8-e9a0-41a9-9474-e163a3061482"},"vehicle_type_id":"4","last_reported":1717880807,"current_range_meters":7200,"station_id":"ce4bgv12rcd13ifvqcp0","pricing_plan_id":"cebpf4jnsgd1na2vs0mg"},{"bike_id":"345d5e59-d649-4e11-9eb4-bc73b29601a7","system_id":"levelo_inurba_marseille","lat":43.299045,"lon":5.374723,"is_reserved":false,"is_disabled":false,"rental_uris":{"android":"levelo://app?vid=345d5e59-d649-4e11-9eb4-bc73b29601a7","ios":"levelo://app?vid=345d5e59-d649-4e11-9eb4-bc73b29601a7"},"vehicle_type_id":"4","last_reported":1717880807,"current_range_meters":14800,"station_id":"ce4bgjh2rcd13ifvqbg0","pricing_plan_id":"cebpf4jnsgd1na2vs0mg"},{"bike_id":"756aacca-ee80-4464-8917-44336db51529","system_id":"levelo_inurba_marseille","lat":43.311722,"lon":5.387247,"is_reserved":false,"is_disabled":false,"rental_uris":{"android":"levelo://app?vid=756aacca-ee80-4464-8917-44336db51529","ios":"levelo://app?vid=756aacca-ee80-4464-8917-44336db51529"},"vehicle_type_id":"4","last_reported":1717880807,"current_range_meters":8000,"station_id":"ce4bgv12rcd13ifvqcp0","pricing_plan_id":"cebpf4jnsgd1na2vs0mg"},{"bike_id":"1abadf72-c813-4fef-a906-8a3f58cd799a","system_id":"levelo_inurba_marseille","lat":43.322872,"lon":5.382756,"is_reserved":false,"is_disabled":false,"rental_uris":{"android":"levelo://app?vid=1abadf72-c813-4fef-a906-8a3f58cd799a","ios":"levelo://app?vid=1abadf72-c813-4fef-a906-8a3f58cd799a"},"vehicle_type_id":"4","last_reported":1717880807,"current_range_meters":7600,"station_id":"ce4bhr12rcd13ifvqhqg","pricing_plan_id":"cebpf4jnsgd1na2vs0mg"},{"bike_id":"19b4e966-3a53-4b14-a367-12619add5c13","system_id":"levelo_inurba_marseille","lat":43.297163,"lon":5.365866,"is_reserved":false,"is_disabled":false,"rental_uris":{"android":"levelo://app?vid=19b4e966-3a53-4b14-a367-12619add5c13","ios":"levelo://app?vid=19b4e966-3a53-4b14-a367-12619add5c13"},"vehicle_type_id":"4","last_reported":1717880807,"current_range_meters":23600,"station_id":"ce4bgn12rcd13ifvqbt0","pricing_plan_id":"cebpf4jnsgd1na2vs0mg"},{"bike_id":"5802d9c1-29ee-4067-88c2-4e3d3c208a69","system_id":"levelo_inurba_marseille","lat":43.297163,"lon":5.365866,"is_reserved":false,"is_disabled":false,"rental_uris":{"android":"levelo://app?vid=5802d9c1-29ee-4067-88c2-4e3d3c208a69","ios":"levelo://app?vid=5802d9c1-29ee-4067-88c2-4e3d3c208a69"},"vehicle_type_id":"4","last_reported":1717880807,"current_range_meters":20000,"station_id":"ce4bgn12rcd13ifvqbt0","pricing_plan_id":"cebpf4jnsgd1na2vs0mg"},{"bike_id":"4bc44de0-0e1d-4591-8b1f-264f27662667","system_id":"levelo_inurba_marseille","lat":43.297163,"lon":5.365866,"is_reserved":false,"is_disabled":false,"rental_uris":{"android":"levelo://app?vid=4bc44de0-0e1d-4591-8b1f-264f27662667","ios":"levelo://app?vid=4bc44de0-0e1d-4591-8b1f-264f27662667"},"vehicle_type_id":"4","last_reported":1717880807,"current_range_meters":10400,"station_id":"ce4bgn12rcd13ifvqbt0","pricing_plan_id":"cebpf4jnsgd1na2vs0mg"},{"bike_id":"1d514566-03ec-482b-aea4-ca0291afe046","system_id":"levelo_inurba_marseille","lat":43.297163,"lon":5.365866,"is_reserved":false,"is_disabled":false,"rental_uris":{"android":"levelo://app?vid=1d514566-03ec-482b-aea4-ca0291afe046","ios":"levelo://app?vid=1d514566-03ec-482b-aea4-ca0291afe046"},"vehicle_type_id":"4","last_reported":1717880807,"current_range_meters":28400,"station_id":"ce4bgn12rcd13ifvqbt0","pricing_plan_id":"cebpf4jnsgd1na2vs0mg"},{"bike_id":"c95f2622-2774-4551-83ee-632a3ce0bc50","system_id":"levelo_inurba_marseille","lat":43.297163,"lon":5.365866,"is_reserved":false,"is_disabled":false,"rental_uris":{"android":"levelo://app?vid=c95f2622-2774-4551-83ee-632a3ce0bc50","ios":"levelo://app?vid=c95f2622-2774-4551-83ee-632a3ce0bc50"},"vehicle_type_id":"4","last_reported":1717880807,"current_range_meters":11600,"station_id":"ce4bgn12rcd13ifvqbt0","pricing_plan_id":"cebpf4jnsgd1na2vs0mg"},{"bike_id":"50f70f5e-c667-4ba4-b131-3583f511ae6a","system_id":"levelo_inurba_marseille","lat":43.297163,"lon":5.365866,"is_reserved":false,"is_disabled":false,"rental_uris":{"android":"levelo://app?vid=50f70f5e-c667-4ba4-b131-3583f511ae6a","ios":"levelo://app?vid=50f70f5e-c667-4ba4-b131-3583f511ae6a"},"vehicle_type_id":"4","last_reported":1717880807,"current_range_meters":9600,"station_id":"ce4bgn12rcd13ifvqbt0","pricing_plan_id":"cebpf4jnsgd1na2vs0mg"},{"bike_id":"19622625-ad82-46e7-a167-21d9ed457017","system_id":"levelo_inurba_marseille","lat":43.2968,"lon":5.37291,"is_reserved":false,"is_disabled":false,"rental_uris":{"android":"levelo://app?vid=19622625-ad82-46e7-a167-21d9ed457017","ios":"levelo://app?vid=19622625-ad82-46e7-a167-21d9ed457017"},"vehicle_type_id":"4","last_reported":1717880807,"current_range_meters":26400,"station_id":"ce4bgk12rcd13ifvqbj0","pricing_plan_id":"cebpf4jnsgd1na2vs0mg"},{"bike_id":"3cb7f3af-0ad9-4443-9620-9c161fed81d6","system_id":"levelo_inurba_marseille","lat":43.2968,"lon":5.37291,"is_reserved":false,"is_disabled":false,"rental_uris":{"android":"levelo://app?vid=3cb7f3af-0ad9-4443-9620-9c161fed81d6","ios":"levelo://app?vid=3cb7f3af-0ad9-4443-9620-9c161fed81d6"},"vehicle_type_id":"4","last_reported":1717880807,"current_range_meters":8400,"station_id":"ce4bgk12rcd13ifvqbj0","pricing_plan_id":"cebpf4jnsgd1na2vs0mg"},{"bike_id":"ffb2680d-a7a8-4c7f-819e-08b119f1dabe","system_id":"levelo_inurba_marseille","lat":43.296131,"lon":5.370791,"is_reserved":false,"is_disabled":false,"rental_uris":{"android":"levelo://app?vid=ffb2680d-a7a8-4c7f-819e-08b119f1dabe","ios":"levelo://app?vid=ffb2680d-a7a8-4c7f-819e-08b119f1dabe"},"vehicle_type_id":"4","last_reported":1717880807,"current_range_meters":16400,"station_id":"ce4bgnh2rcd13ifvqc0g","pricing_plan_id":"cebpf4jnsgd1na2vs0mg"},{"bike_id":"56f75fed-c8f8-415c-8205-f6dc69e2f69a","system_id":"levelo_inurba_marseille","lat":43.296129,"lon":5.370777,"is_reserved":false,"is_disabled":false,"rental_uris":{"android":"levelo://app?vid=56f75fed-c8f8-415c-8205-f6dc69e2f69a","ios":"levelo://app?vid=56f75fed-c8f8-415c-8205-f6dc69e2f69a"},"vehicle_type_id":"4","last_reported":1717880807,"current_range_meters":15200,"station_id":"ce4bgnh2rcd13ifvqc0g","pricing_plan_id":"cebpf4jnsgd1na2vs0mg"},{"bike_id":"fc8dc237-929d-459c-a856-96256ba6a7d3","system_id":"levelo_inurba_marseille","lat":43.29733,"lon":5.37688,"is_reserved":false,"is_disabled":false,"rental_uris":{"android":"levelo://app?vid=fc8dc237-929d-459c-a856-96256ba6a7d3","ios":"levelo://app?vid=fc8dc237-929d-459c-a856-96256ba6a7d3"},"vehicle_type_id":"4","last_reported":1717880807,"current_range_meters":25200,"station_id":"ce4bgkh2rcd13ifvqbl0","pricing_plan_id":"cebpf4jnsgd1na2vs0mg"},{"bike_id":"981a43b2-94d9-42e8-879e-9df7e32a12eb","system_id":"levelo_inurba_marseille","lat":43.299028,"lon":5.381509,"is_reserved":false,"is_disabled":false,"rental_uris":{"android":"levelo://app?vid=981a43b2-94d9-42e8-879e-9df7e32a12eb","ios":"levelo://app?vid=981a43b2-94d9-42e8-879e-9df7e32a12eb"},"vehicle_type_id":"4","last_reported":1717880807,"current_range_meters":27200,"station_id":"ce4bgj12rcd13ifvqbc0","pricing_plan_id":"cebpf4jnsgd1na2vs0mg"},{"bike_id":"9c332058-3e8a-473e-9a7b-579d93616687","system_id":"levelo_inurba_marseille","lat":43.296921,"lon":5.376579,"is_reserved":false,"is_disabled":false,"rental_uris":{"android":"levelo://app?vid=9c332058-3e8a-473e-9a7b-579d93616687","ios":"levelo://app?vid=9c332058-3e8a-473e-9a7b-579d93616687"},"vehicle_type_id":"4","last_reported":1717880807,"current_range_meters":800,"station_id":"ce4bgkh2rcd13ifvqbl0","pricing_plan_id":"cebpf4jnsgd1na2vs0mg"},{"bike_id":"dd9a0990-c130-4cee-bba2-29ad4b36d2a7","system_id":"levelo_inurba_marseille","lat":43.309268,"lon":5.390097,"is_reserved":false,"is_disabled":false,"rental_uris":{"android":"levelo://app?vid=dd9a0990-c130-4cee-bba2-29ad4b36d2a7","ios":"levelo://app?vid=dd9a0990-c130-4cee-bba2-29ad4b36d2a7"},"vehicle_type_id":"4","last_reported":1717880807,"current_range_meters":0,"station_id":"ce4bgup2rcd13ifvqco0","pricing_plan_id":"cebpf4jnsgd1na2vs0mg"},{"bike_id":"6a4b1da8-e98a-4dd8-9831-8b8ea5feec91","system_id":"levelo_inurba_marseille","lat":43.296935,"lon":5.376544,"is_reserved":false,"is_disabled":false,"rental_uris":{"android":"levelo://app?vid=6a4b1da8-e98a-4dd8-9831-8b8ea5feec91","ios":"levelo://app?vid=6a4b1da8-e98a-4dd8-9831-8b8ea5feec91"},"vehicle_type_id":"4","last_reported":1717880807,"current_range_meters":18800,"station_id":"ce4bgkh2rcd13ifvqbl0","pricing_plan_id":"cebpf4jnsgd1na2vs0mg"},{"bike_id":"1d9fc3b1-1bd8-493a-bcb2-b71334c81afc","system_id":"levelo_inurba_marseille","lat":43.296935,"lon":5.376544,"is_reserved":false,"is_disabled":false,"rental_uris":{"android":"levelo://app?vid=1d9fc3b1-1bd8-493a-bcb2-b71334c81afc","ios":"levelo://app?vid=1d9fc3b1-1bd8-493a-bcb2-b71334c81afc"},"vehicle_type_id":"4","last_reported":1717880807,"current_range_meters":400,"station_id":"ce4bgkh2rcd13ifvqbl0","pricing_plan_id":"cebpf4jnsgd1na2vs0mg"},{"bike_id":"c4a3dad0-8c92-4a93-89d6-c411d58be663","system_id":"levelo_inurba_marseille","lat":43.30952,"lon":5.39026,"is_reserved":false,"is_disabled":false,"rental_uris":{"android":"levelo://app?vid=c4a3dad0-8c92-4a93-89d6-c411d58be663","ios":"levelo://app?vid=c4a3dad0-8c92-4a93-89d6-c411d58be663"},"vehicle_type_id":"4","last_reported":1717880807,"current_range_meters":4000,"station_id":"ce4bgup2rcd13ifvqco0","pricing_plan_id":"cebpf4jnsgd1na2vs0mg"},{"bike_id":"23dc1774-00c4-445e-8f55-8a463e883c72","system_id":"levelo_inurba_marseille","lat":43.309576,"lon":5.390296,"is_reserved":false,"is_disabled":false,"rental_uris":{"android":"levelo://app?vid=23dc1774-00c4-445e-8f55-8a463e883c72","ios":"levelo://app?vid=23dc1774-00c4-445e-8f55-8a463e883c72"},"vehicle_type_id":"4","last_reported":1717880807,"current_range_meters":0,"station_id":"ce4bgup2rcd13ifvqco0","pricing_plan_id":"cebpf4jnsgd1na2vs0mg"},{"bike_id":"a5c46a01-1bc8-41c6-b6e2-337d2a2fed9b","system_id":"levelo_inurba_marseille","lat":43.3095,"lon":5.3903,"is_reserved":false,"is_disabled":false,"rental_uris":{"android":"levelo://app?vid=a5c46a01-1bc8-41c6-b6e2-337d2a2fed9b","ios":"levelo://app?vid=a5c46a01-1bc8-41c6-b6e2-337d2a2fed9b"},"vehicle_type_id":"4","last_reported":1717880807,"current_range_meters":17200,"station_id":"ce4bgup2rcd13ifvqco0","pricing_plan_id":"cebpf4jnsgd1na2vs0mg"},{"bike_id":"75a638f4-539e-4fb4-a26d-e2545176f268","system_id":"levelo_inurba_marseille","lat":43.3095,"lon":5.39034,"is_reserved":false,"is_disabled":false,"rental_uris":{"android":"levelo://app?vid=75a638f4-539e-4fb4-a26d-e2545176f268","ios":"levelo://app?vid=75a638f4-539e-4fb4-a26d-e2545176f268"},"vehicle_type_id":"4","last_reported":1717880807,"current_range_meters":5600,"station_id":"ce4bgup2rcd13ifvqco0","pricing_plan_id":"cebpf4jnsgd1na2vs0mg"},{"bike_id":"70452f03-f37c-420b-877b-12fc0075f536","system_id":"levelo_inurba_marseille","lat":43.309619,"lon":5.390377,"is_reserved":false,"is_disabled":false,"rental_uris":{"android":"levelo://app?vid=70452f03-f37c-420b-877b-12fc0075f536","ios":"levelo://app?vid=70452f03-f37c-420b-877b-12fc0075f536"},"vehicle_type_id":"4","last_reported":1717880807,"current_range_meters":0,"station_id":"ce4bgup2rcd13ifvqco0","pricing_plan_id":"cebpf4jnsgd1na2vs0mg"},{"bike_id":"187ef9f4-70ed-4e97-83b6-41ddbf87741f","system_id":"levelo_inurba_marseille","lat":43.30955,"lon":5.39044,"is_reserved":false,"is_disabled":false,"rental_uris":{"android":"levelo://app?vid=187ef9f4-70ed-4e97-83b6-41ddbf87741f","ios":"levelo://app?vid=187ef9f4-70ed-4e97-83b6-41ddbf87741f"},"vehicle_type_id":"4","last_reported":1717880807,"current_range_meters":0,"station_id":"ce4bgup2rcd13ifvqco0","pricing_plan_id":"cebpf4jnsgd1na2vs0mg"},{"bike_id":"b0441c58-7ec1-4355-91fb-2ff3ede79da6","system_id":"levelo_inurba_marseille","lat":43.3095,"lon":5.39043,"is_reserved":false,"is_disabled":false,"rental_uris":{"android":"levelo://app?vid=b0441c58-7ec1-4355-91fb-2ff3ede79da6","ios":"levelo://app?vid=b0441c58-7ec1-4355-91fb-2ff3ede79da6"},"vehicle_type_id":"4","last_reported":1717880807,"current_range_meters":0,"station_id":"ce4bgup2rcd13ifvqco0","pricing_plan_id":"cebpf4jnsgd1na2vs0mg"},{"bike_id":"74a6fd0d-a1d0-493e-b9a1-60e519600ac6","system_id":"levelo_inurba_marseille","lat":43.317557,"lon":5.390173,"is_reserved":false,"is_disabled":false,"rental_uris":{"android":"levelo://app?vid=74a6fd0d-a1d0-493e-b9a1-60e519600ac6","ios":"levelo://app?vid=74a6fd0d-a1d0-493e-b9a1-60e519600ac6"},"vehicle_type_id":"4","last_reported":1717880807,"current_range_meters":20400,"station_id":"ce4bhqp2rcd13ifvqhng","pricing_plan_id":"cebpf4jnsgd1na2vs0mg"},{"bike_id":"4885f072-ee37-4259-99c0-df2729bdad4a","system_id":"levelo_inurba_marseille","lat":43.31758,"lon":5.39012,"is_reserved":false,"is_disabled":false,"rental_uris":{"android":"levelo://app?vid=4885f072-ee37-4259-99c0-df2729bdad4a","ios":"levelo://app?vid=4885f072-ee37-4259-99c0-df2729bdad4a"},"vehicle_type_id":"4","last_reported":1717880807,"current_range_meters":27200,"station_id":"ce4bhqp2rcd13ifvqhng","pricing_plan_id":"cebpf4jnsgd1na2vs0mg"},{"bike_id":"8c738c00-411d-4826-ba3b-2fd99798a504","system_id":"levelo_inurba_marseille","lat":43.31759,"lon":5.39015,"is_reserved":false,"is_disabled":false,"rental_uris":{"android":"levelo://app?vid=8c738c00-411d-4826-ba3b-2fd99798a504","ios":"levelo://app?vid=8c738c00-411d-4826-ba3b-2fd99798a504"},"vehicle_type_id":"4","last_reported":1717880807,"current_range_meters":2800,"station_id":"ce4bhqp2rcd13ifvqhng","pricing_plan_id":"cebpf4jnsgd1na2vs0mg"},{"bike_id":"c98498a6-9018-446e-95c4-b4244a42278d","system_id":"levelo_inurba_marseille","lat":43.317554,"lon":5.390212,"is_reserved":false,"is_disabled":false,"rental_uris":{"android":"levelo://app?vid=c98498a6-9018-446e-95c4-b4244a42278d","ios":"levelo://app?vid=c98498a6-9018-446e-95c4-b4244a42278d"},"vehicle_type_id":"4","last_reported":1717880807,"current_range_meters":1200,"station_id":"ce4bhqp2rcd13ifvqhng","pricing_plan_id":"cebpf4jnsgd1na2vs0mg"},{"bike_id":"69d3e882-b77b-451e-8114-dc1163041a47","system_id":"levelo_inurba_marseille","lat":43.298037,"lon":5.381066,"is_reserved":false,"is_disabled":false,"rental_uris":{"android":"levelo://app?vid=69d3e882-b77b-451e-8114-dc1163041a47","ios":"levelo://app?vid=69d3e882-b77b-451e-8114-dc1163041a47"},"vehicle_type_id":"4","last_reported":1717880807,"current_range_meters":6400,"station_id":"ce4bgip2rcd13ifvqbb0","pricing_plan_id":"cebpf4jnsgd1na2vs0mg"},{"bike_id":"f881465d-17ee-4a94-acb6-63e30dedcfb7","system_id":"levelo_inurba_marseille","lat":43.298037,"lon":5.381066,"is_reserved":false,"is_disabled":false,"rental_uris":{"android":"levelo://app?vid=f881465d-17ee-4a94-acb6-63e30dedcfb7","ios":"levelo://app?vid=f881465d-17ee-4a94-acb6-63e30dedcfb7"},"vehicle_type_id":"4","last_reported":1717880807,"current_range_meters":14400,"station_id":"ce4bgip2rcd13ifvqbb0","pricing_plan_id":"cebpf4jnsgd1na2vs0mg"},{"bike_id":"a018f74c-c11f-4117-a25a-f7e4e671f7a1","system_id":"levelo_inurba_marseille","lat":43.304274,"lon":5.388873,"is_reserved":false,"is_disabled":false,"rental_uris":{"android":"levelo://app?vid=a018f74c-c11f-4117-a25a-f7e4e671f7a1","ios":"levelo://app?vid=a018f74c-c11f-4117-a25a-f7e4e671f7a1"},"vehicle_type_id":"4","last_reported":1717880807,"current_range_meters":6800,"station_id":"ce4bgk12rcd13ifvqbi0","pricing_plan_id":"cebpf4jnsgd1na2vs0mg"},{"bike_id":"a81852f1-569c-455d-b675-afd1d607011c","system_id":"levelo_inurba_marseille","lat":43.304278,"lon":5.388868,"is_reserved":false,"is_disabled":false,"rental_uris":{"android":"levelo://app?vid=a81852f1-569c-455d-b675-afd1d607011c","ios":"levelo://app?vid=a81852f1-569c-455d-b675-afd1d607011c"},"vehicle_type_id":"4","last_reported":1717880807,"current_range_meters":19200,"station_id":"ce4bgk12rcd13ifvqbi0","pricing_plan_id":"cebpf4jnsgd1na2vs0mg"},{"bike_id":"159ce331-c698-4773-bbbe-504c01d55813","system_id":"levelo_inurba_marseille","lat":43.296277,"lon":5.377108,"is_reserved":false,"is_disabled":false,"rental_uris":{"android":"levelo://app?vid=159ce331-c698-4773-bbbe-504c01d55813","ios":"levelo://app?vid=159ce331-c698-4773-bbbe-504c01d55813"},"vehicle_type_id":"4","last_reported":1717880807,"current_range_meters":18400,"station_id":"ce4bgi92rcd13ifvqb90","pricing_plan_id":"cebpf4jnsgd1na2vs0mg"},{"bike_id":"7ad16d7f-781c-42f0-8ca3-90921d28a240","system_id":"levelo_inurba_marseille","lat":43.304274,"lon":5.388873,"is_reserved":false,"is_disabled":false,"rental_uris":{"android":"levelo://app?vid=7ad16d7f-781c-42f0-8ca3-90921d28a240","ios":"levelo://app?vid=7ad16d7f-781c-42f0-8ca3-90921d28a240"},"vehicle_type_id":"4","last_reported":1717880807,"current_range_meters":31600,"station_id":"ce4bgk12rcd13ifvqbi0","pricing_plan_id":"cebpf4jnsgd1na2vs0mg"},{"bike_id":"fdbf6c84-e05d-42e6-9897-1c0a46993814","system_id":"levelo_inurba_marseille","lat":43.29606,"lon":5.37717,"is_reserved":false,"is_disabled":false,"rental_uris":{"android":"levelo://app?vid=fdbf6c84-e05d-42e6-9897-1c0a46993814","ios":"levelo://app?vid=fdbf6c84-e05d-42e6-9897-1c0a46993814"},"vehicle_type_id":"4","last_reported":1717880807,"current_range_meters":23200,"station_id":"ce4bgi92rcd13ifvqb90","pricing_plan_id":"cebpf4jnsgd1na2vs0mg"},{"bike_id":"d738024b-9e6c-43c4-8944-75e38d142fb1","system_id":"levelo_inurba_marseille","lat":43.29591,"lon":5.377,"is_reserved":false,"is_disabled":false,"rental_uris":{"android":"levelo://app?vid=d738024b-9e6c-43c4-8944-75e38d142fb1","ios":"levelo://app?vid=d738024b-9e6c-43c4-8944-75e38d142fb1"},"vehicle_type_id":"4","last_reported":1717880807,"current_range_meters":2800,"station_id":"ce4bgi92rcd13ifvqb90","pricing_plan_id":"cebpf4jnsgd1na2vs0mg"},{"bike_id":"a70540dd-c3b6-4527-a0e5-23917392f8a2","system_id":"levelo_inurba_marseille","lat":43.295279,"lon":5.375048,"is_reserved":false,"is_disabled":false,"rental_uris":{"android":"levelo://app?vid=a70540dd-c3b6-4527-a0e5-23917392f8a2","ios":"levelo://app?vid=a70540dd-c3b6-4527-a0e5-23917392f8a2"},"vehicle_type_id":"4","last_reported":1717880807,"current_range_meters":0,"station_id":"ce4bgkp2rcd13ifvqbmg","pricing_plan_id":"cebpf4jnsgd1na2vs0mg"},{"bike_id":"824b927e-630b-4e89-9228-0162f0a03f55","system_id":"levelo_inurba_marseille","lat":43.32367,"lon":5.388836,"is_reserved":false,"is_disabled":false,"rental_uris":{"android":"levelo://app?vid=824b927e-630b-4e89-9228-0162f0a03f55","ios":"levelo://app?vid=824b927e-630b-4e89-9228-0162f0a03f55"},"vehicle_type_id":"4","last_reported":1717880807,"current_range_meters":0,"station_id":"ce4bhqp2rcd13ifvqhog","pricing_plan_id":"cebpf4jnsgd1na2vs0mg"},{"bike_id":"e11fb071-b472-4a87-9eda-f576e22efddb","system_id":"levelo_inurba_marseille","lat":43.32367,"lon":5.388836,"is_reserved":false,"is_disabled":false,"rental_uris":{"android":"levelo://app?vid=e11fb071-b472-4a87-9eda-f576e22efddb","ios":"levelo://app?vid=e11fb071-b472-4a87-9eda-f576e22efddb"},"vehicle_type_id":"4","last_reported":1717880807,"current_range_meters":0,"station_id":"ce4bhqp2rcd13ifvqhog","pricing_plan_id":"cebpf4jnsgd1na2vs0mg"},{"bike_id":"98434ad6-fd85-4d46-91e9-769ae90f4f5e","system_id":"levelo_inurba_marseille","lat":43.32367,"lon":5.388836,"is_reserved":false,"is_disabled":false,"rental_uris":{"android":"levelo://app?vid=98434ad6-fd85-4d46-91e9-769ae90f4f5e","ios":"levelo://app?vid=98434ad6-fd85-4d46-91e9-769ae90f4f5e"},"vehicle_type_id":"4","last_reported":1717880807,"current_range_meters":8000,"station_id":"ce4bhqp2rcd13ifvqhog","pricing_plan_id":"cebpf4jnsgd1na2vs0mg"},{"bike_id":"be853ef1-b1fa-4600-a66a-435f0875b7cd","system_id":"levelo_inurba_marseille","lat":43.32367,"lon":5.388836,"is_reserved":false,"is_disabled":false,"rental_uris":{"android":"levelo://app?vid=be853ef1-b1fa-4600-a66a-435f0875b7cd","ios":"levelo://app?vid=be853ef1-b1fa-4600-a66a-435f0875b7cd"},"vehicle_type_id":"4","last_reported":1717880807,"current_range_meters":0,"station_id":"ce4bhqp2rcd13ifvqhog","pricing_plan_id":"cebpf4jnsgd1na2vs0mg"},{"bike_id":"166fe2ac-5dee-44f1-96c0-df1044eb53f1","system_id":"levelo_inurba_marseille","lat":43.32367,"lon":5.388836,"is_reserved":false,"is_disabled":false,"rental_uris":{"android":"levelo://app?vid=166fe2ac-5dee-44f1-96c0-df1044eb53f1","ios":"levelo://app?vid=166fe2ac-5dee-44f1-96c0-df1044eb53f1"},"vehicle_type_id":"4","last_reported":1717880807,"current_range_meters":22400,"station_id":"ce4bhqp2rcd13ifvqhog","pricing_plan_id":"cebpf4jnsgd1na2vs0mg"},{"bike_id":"5784f939-aa60-40c7-9743-75650f1319df","system_id":"levelo_inurba_marseille","lat":43.29602,"lon":5.381084,"is_reserved":false,"is_disabled":false,"rental_uris":{"android":"levelo://app?vid=5784f939-aa60-40c7-9743-75650f1319df","ios":"levelo://app?vid=5784f939-aa60-40c7-9743-75650f1319df"},"vehicle_type_id":"4","last_reported":1717880807,"current_range_meters":0,"station_id":"ce4bgl12rcd13ifvqbo0","pricing_plan_id":"cebpf4jnsgd1na2vs0mg"},{"bike_id":"b15980b7-3d69-452e-8dc1-a9c62ffed279","system_id":"levelo_inurba_marseille","lat":43.29602,"lon":5.381084,"is_reserved":false,"is_disabled":false,"rental_uris":{"android":"levelo://app?vid=b15980b7-3d69-452e-8dc1-a9c62ffed279","ios":"levelo://app?vid=b15980b7-3d69-452e-8dc1-a9c62ffed279"},"vehicle_type_id":"4","last_reported":1717880807,"current_range_meters":8000,"station_id":"ce4bgl12rcd13ifvqbo0","pricing_plan_id":"cebpf4jnsgd1na2vs0mg"},{"bike_id":"4ab186b6-d5b6-46d5-9e6a-a2652b717f4e","system_id":"levelo_inurba_marseille","lat":43.29601,"lon":5.381084,"is_reserved":false,"is_disabled":false,"rental_uris":{"android":"levelo://app?vid=4ab186b6-d5b6-46d5-9e6a-a2652b717f4e","ios":"levelo://app?vid=4ab186b6-d5b6-46d5-9e6a-a2652b717f4e"},"vehicle_type_id":"4","last_reported":1717880807,"current_range_meters":16400,"station_id":"ce4bgl12rcd13ifvqbo0","pricing_plan_id":"cebpf4jnsgd1na2vs0mg"},{"bike_id":"4a78ee2c-7fea-4681-8b1b-85a90661d952","system_id":"levelo_inurba_marseille","lat":43.29304,"lon":5.37179,"is_reserved":false,"is_disabled":false,"rental_uris":{"android":"levelo://app?vid=4a78ee2c-7fea-4681-8b1b-85a90661d952","ios":"levelo://app?vid=4a78ee2c-7fea-4681-8b1b-85a90661d952"},"vehicle_type_id":"4","last_reported":1717880807,"current_range_meters":14000,"station_id":"ce4bgh92rcd13ifvqb40","pricing_plan_id":"cebpf4jnsgd1na2vs0mg"},{"bike_id":"5f8572f2-2b87-4aba-b075-e30a8b1c0430","system_id":"levelo_inurba_marseille","lat":43.29239,"lon":5.36546,"is_reserved":false,"is_disabled":false,"rental_uris":{"android":"levelo://app?vid=5f8572f2-2b87-4aba-b075-e30a8b1c0430","ios":"levelo://app?vid=5f8572f2-2b87-4aba-b075-e30a8b1c0430"},"vehicle_type_id":"4","last_reported":1717880807,"current_range_meters":0,"station_id":"","pricing_plan_id":"cebpf4jnsgd1na2vs0mg"},{"bike_id":"311afb0e-b86d-42c5-a8be-e4ccb24b60b7","system_id":"levelo_inurba_marseille","lat":43.2936,"lon":5.37835,"is_reserved":false,"is_disabled":false,"rental_uris":{"android":"levelo://app?vid=311afb0e-b86d-42c5-a8be-e4ccb24b60b7","ios":"levelo://app?vid=311afb0e-b86d-42c5-a8be-e4ccb24b60b7"},"vehicle_type_id":"4","last_reported":1717880807,"current_range_meters":3600,"station_id":"ce4bgjh2rcd13ifvqbf0","pricing_plan_id":"cebpf4jnsgd1na2vs0mg"},{"bike_id":"33a5921f-ba8b-4c97-9f8c-84224a242797","system_id":"levelo_inurba_marseille","lat":43.293061,"lon":5.37461,"is_reserved":false,"is_disabled":false,"rental_uris":{"android":"levelo://app?vid=33a5921f-ba8b-4c97-9f8c-84224a242797","ios":"levelo://app?vid=33a5921f-ba8b-4c97-9f8c-84224a242797"},"vehicle_type_id":"4","last_reported":1717880807,"current_range_meters":0,"station_id":"ce4bgi12rcd13ifvqb70","pricing_plan_id":"cebpf4jnsgd1na2vs0mg"},{"bike_id":"5a7d2361-abdc-42da-83b5-353896a842d8","system_id":"levelo_inurba_marseille","lat":43.29302,"lon":5.37448,"is_reserved":false,"is_disabled":false,"rental_uris":{"android":"levelo://app?vid=5a7d2361-abdc-42da-83b5-353896a842d8","ios":"levelo://app?vid=5a7d2361-abdc-42da-83b5-353896a842d8"},"vehicle_type_id":"4","last_reported":1717880807,"current_range_meters":0,"station_id":"ce4bgi12rcd13ifvqb70","pricing_plan_id":"cebpf4jnsgd1na2vs0mg"},{"bike_id":"f90761b4-153a-4929-966f-8fb89d186924","system_id":"levelo_inurba_marseille","lat":43.293713,"lon":5.377353,"is_reserved":false,"is_disabled":false,"rental_uris":{"android":"levelo://app?vid=f90761b4-153a-4929-966f-8fb89d186924","ios":"levelo://app?vid=f90761b4-153a-4929-966f-8fb89d186924"},"vehicle_type_id":"4","last_reported":1717880807,"current_range_meters":6000,"station_id":"","pricing_plan_id":"cebpf4jnsgd1na2vs0mg"},{"bike_id":"cb83171e-9eb2-47e0-840a-07c2007f9191","system_id":"levelo_inurba_marseille","lat":43.30586,"lon":5.39354,"is_reserved":false,"is_disabled":false,"rental_uris":{"android":"levelo://app?vid=cb83171e-9eb2-47e0-840a-07c2007f9191","ios":"levelo://app?vid=cb83171e-9eb2-47e0-840a-07c2007f9191"},"vehicle_type_id":"4","last_reported":1717880807,"current_range_meters":4400,"station_id":"ce4bh0p2rcd13ifvqd80","pricing_plan_id":"cebpf4jnsgd1na2vs0mg"},{"bike_id":"cffd1e88-f6ce-4efc-88c7-e9303ced5a3d","system_id":"levelo_inurba_marseille","lat":43.305994,"lon":5.393687,"is_reserved":false,"is_disabled":false,"rental_uris":{"android":"levelo://app?vid=cffd1e88-f6ce-4efc-88c7-e9303ced5a3d","ios":"levelo://app?vid=cffd1e88-f6ce-4efc-88c7-e9303ced5a3d"},"vehicle_type_id":"4","last_reported":1717880807,"current_range_meters":23600,"station_id":"ce4bh0p2rcd13ifvqd80","pricing_plan_id":"cebpf4jnsgd1na2vs0mg"},{"bike_id":"969afd1a-fc19-4cb2-81fd-d6f930324b40","system_id":"levelo_inurba_marseille","lat":43.29287,"lon":5.3745,"is_reserved":false,"is_disabled":false,"rental_uris":{"android":"levelo://app?vid=969afd1a-fc19-4cb2-81fd-d6f930324b40","ios":"levelo://app?vid=969afd1a-fc19-4cb2-81fd-d6f930324b40"},"vehicle_type_id":"4","last_reported":1717880807,"current_range_meters":0,"station_id":"ce4bgi12rcd13ifvqb70","pricing_plan_id":"cebpf4jnsgd1na2vs0mg"},{"bike_id":"f85025de-4363-4594-a253-dfa36bbe77ec","system_id":"levelo_inurba_marseille","lat":43.303002,"lon":5.392142,"is_reserved":false,"is_disabled":false,"rental_uris":{"android":"levelo://app?vid=f85025de-4363-4594-a253-dfa36bbe77ec","ios":"levelo://app?vid=f85025de-4363-4594-a253-dfa36bbe77ec"},"vehicle_type_id":"4","last_reported":1717880807,"current_range_meters":400,"station_id":"ce4bgkh2rcd13ifvqbk0","pricing_plan_id":"cebpf4jnsgd1na2vs0mg"},{"bike_id":"6c3c61c1-f851-4f5a-97cb-f8043ae6753c","system_id":"levelo_inurba_marseille","lat":43.2936,"lon":5.37835,"is_reserved":false,"is_disabled":false,"rental_uris":{"android":"levelo://app?vid=6c3c61c1-f851-4f5a-97cb-f8043ae6753c","ios":"levelo://app?vid=6c3c61c1-f851-4f5a-97cb-f8043ae6753c"},"vehicle_type_id":"4","last_reported":1717880807,"current_range_meters":0,"station_id":"ce4bgjh2rcd13ifvqbf0","pricing_plan_id":"cebpf4jnsgd1na2vs0mg"},{"bike_id":"83be3261-064a-4299-a6eb-03f88a3f8971","system_id":"levelo_inurba_marseille","lat":43.2936,"lon":5.37835,"is_reserved":false,"is_disabled":false,"rental_uris":{"android":"levelo://app?vid=83be3261-064a-4299-a6eb-03f88a3f8971","ios":"levelo://app?vid=83be3261-064a-4299-a6eb-03f88a3f8971"},"vehicle_type_id":"4","last_reported":1717880807,"current_range_meters":0,"station_id":"ce4bgjh2rcd13ifvqbf0","pricing_plan_id":"cebpf4jnsgd1na2vs0mg"},{"bike_id":"4edd7792-f776-44c1-a54e-ff7b3a5b389c","system_id":"levelo_inurba_marseille","lat":43.30085,"lon":5.390856,"is_reserved":false,"is_disabled":false,"rental_uris":{"android":"levelo://app?vid=4edd7792-f776-44c1-a54e-ff7b3a5b389c","ios":"levelo://app?vid=4edd7792-f776-44c1-a54e-ff7b3a5b389c"},"vehicle_type_id":"4","last_reported":1717880807,"current_range_meters":6400,"station_id":"ce4bh192rcd13ifvqdb0","pricing_plan_id":"cebpf4jnsgd1na2vs0mg"},{"bike_id":"2dbcef42-389b-40be-8582-e560b2e98b90","system_id":"levelo_inurba_marseille","lat":43.30085,"lon":5.390856,"is_reserved":false,"is_disabled":false,"rental_uris":{"android":"levelo://app?vid=2dbcef42-389b-40be-8582-e560b2e98b90","ios":"levelo://app?vid=2dbcef42-389b-40be-8582-e560b2e98b90"},"vehicle_type_id":"4","last_reported":1717880807,"current_range_meters":0,"station_id":"ce4bh192rcd13ifvqdb0","pricing_plan_id":"cebpf4jnsgd1na2vs0mg"},{"bike_id":"019ecfb2-64a9-48e8-8b19-7d10b9ef1e10","system_id":"levelo_inurba_marseille","lat":43.29215,"lon":5.36056,"is_reserved":false,"is_disabled":false,"rental_uris":{"android":"levelo://app?vid=019ecfb2-64a9-48e8-8b19-7d10b9ef1e10","ios":"levelo://app?vid=019ecfb2-64a9-48e8-8b19-7d10b9ef1e10"},"vehicle_type_id":"4","last_reported":1717880807,"current_range_meters":30400,"station_id":"ce4bhbh2rcd13ifvqeqg","pricing_plan_id":"cebpf4jnsgd1na2vs0mg"},{"bike_id":"40b07339-c081-4834-8a79-3266dc8d4631","system_id":"levelo_inurba_marseille","lat":43.291671,"lon":5.371575,"is_reserved":false,"is_disabled":false,"rental_uris":{"android":"levelo://app?vid=40b07339-c081-4834-8a79-3266dc8d4631","ios":"levelo://app?vid=40b07339-c081-4834-8a79-3266dc8d4631"},"vehicle_type_id":"4","last_reported":1717880807,"current_range_meters":6400,"station_id":"ce4bha92rcd13ifvqeh0","pricing_plan_id":"cebpf4jnsgd1na2vs0mg"},{"bike_id":"882cf5eb-7b80-4c10-aad0-a68333c196e4","system_id":"levelo_inurba_marseille","lat":43.291675,"lon":5.371583,"is_reserved":false,"is_disabled":false,"rental_uris":{"android":"levelo://app?vid=882cf5eb-7b80-4c10-aad0-a68333c196e4","ios":"levelo://app?vid=882cf5eb-7b80-4c10-aad0-a68333c196e4"},"vehicle_type_id":"4","last_reported":1717880807,"current_range_meters":0,"station_id":"ce4bha92rcd13ifvqeh0","pricing_plan_id":"cebpf4jnsgd1na2vs0mg"},{"bike_id":"8d4a1220-ff78-4bc5-b6d2-b48a055753c2","system_id":"levelo_inurba_marseille","lat":43.298764,"lon":5.388973,"is_reserved":false,"is_disabled":false,"rental_uris":{"android":"levelo://app?vid=8d4a1220-ff78-4bc5-b6d2-b48a055753c2","ios":"levelo://app?vid=8d4a1220-ff78-4bc5-b6d2-b48a055753c2"},"vehicle_type_id":"4","last_reported":1717880807,"current_range_meters":20400,"station_id":"ce4bh392rcd13ifvqdl0","pricing_plan_id":"cebpf4jnsgd1na2vs0mg"},{"bike_id":"f7873235-93ca-45f9-895a-62ccc295bca4","system_id":"levelo_inurba_marseille","lat":43.309047,"lon":5.396551,"is_reserved":false,"is_disabled":false,"rental_uris":{"android":"levelo://app?vid=f7873235-93ca-45f9-895a-62ccc295bca4","ios":"levelo://app?vid=f7873235-93ca-45f9-895a-62ccc295bca4"},"vehicle_type_id":"4","last_reported":1717880807,"current_range_meters":4000,"station_id":"ce4bh012rcd13ifvqcv0","pricing_plan_id":"cebpf4jnsgd1na2vs0mg"},{"bike_id":"1bb48003-6bd0-49fc-aa89-cef8e707c5c9","system_id":"levelo_inurba_marseille","lat":43.261782,"lon":5.374515,"is_reserved":false,"is_disabled":false,"rental_uris":{"android":"levelo://app?vid=1bb48003-6bd0-49fc-aa89-cef8e707c5c9","ios":"levelo://app?vid=1bb48003-6bd0-49fc-aa89-cef8e707c5c9"},"vehicle_type_id":"4","last_reported":1717880807,"current_range_meters":5200,"station_id":"ce4bhgp2rcd13ifvqfc0","pricing_plan_id":"cebpf4jnsgd1na2vs0mg"},{"bike_id":"93da5ebf-75ca-4dd6-8d3a-142d3428d949","system_id":"levelo_inurba_marseille","lat":43.309047,"lon":5.396551,"is_reserved":false,"is_disabled":false,"rental_uris":{"android":"levelo://app?vid=93da5ebf-75ca-4dd6-8d3a-142d3428d949","ios":"levelo://app?vid=93da5ebf-75ca-4dd6-8d3a-142d3428d949"},"vehicle_type_id":"4","last_reported":1717880807,"current_range_meters":0,"station_id":"ce4bh012rcd13ifvqcv0","pricing_plan_id":"cebpf4jnsgd1na2vs0mg"},{"bike_id":"c9f481b3-1c52-44a0-b626-d59cc6162e3f","system_id":"levelo_inurba_marseille","lat":43.309038,"lon":5.396546,"is_reserved":false,"is_disabled":false,"rental_uris":{"android":"levelo://app?vid=c9f481b3-1c52-44a0-b626-d59cc6162e3f","ios":"levelo://app?vid=c9f481b3-1c52-44a0-b626-d59cc6162e3f"},"vehicle_type_id":"4","last_reported":1717880807,"current_range_meters":28800,"station_id":"ce4bh012rcd13ifvqcv0","pricing_plan_id":"cebpf4jnsgd1na2vs0mg"},{"bike_id":"cb37ee9c-5971-49c1-a5a4-350dbb9a5887","system_id":"levelo_inurba_marseille","lat":43.292005,"lon":5.357875,"is_reserved":false,"is_disabled":false,"rental_uris":{"android":"levelo://app?vid=cb37ee9c-5971-49c1-a5a4-350dbb9a5887","ios":"levelo://app?vid=cb37ee9c-5971-49c1-a5a4-350dbb9a5887"},"vehicle_type_id":"4","last_reported":1717880807,"current_range_meters":0,"station_id":"ce4bhb12rcd13ifvqel0","pricing_plan_id":"cebpf4jnsgd1na2vs0mg"},{"bike_id":"08ad4755-617d-4bef-86f2-7cbae46239d6","system_id":"levelo_inurba_marseille","lat":43.29529,"lon":5.385581,"is_reserved":false,"is_disabled":false,"rental_uris":{"android":"levelo://app?vid=08ad4755-617d-4bef-86f2-7cbae46239d6","ios":"levelo://app?vid=08ad4755-617d-4bef-86f2-7cbae46239d6"},"vehicle_type_id":"4","last_reported":1717880807,"current_range_meters":18000,"station_id":"ce4bgih2rcd13ifvqba0","pricing_plan_id":"cebpf4jnsgd1na2vs0mg"},{"bike_id":"10e9b47f-e28f-421b-adff-dcb4ee7f7e04","system_id":"levelo_inurba_marseille","lat":43.29531,"lon":5.385055,"is_reserved":false,"is_disabled":false,"rental_uris":{"android":"levelo://app?vid=10e9b47f-e28f-421b-adff-dcb4ee7f7e04","ios":"levelo://app?vid=10e9b47f-e28f-421b-adff-dcb4ee7f7e04"},"vehicle_type_id":"4","last_reported":1717880807,"current_range_meters":0,"station_id":"ce4bgih2rcd13ifvqba0","pricing_plan_id":"cebpf4jnsgd1na2vs0mg"},{"bike_id":"329157dd-05e1-45c8-8ed5-dad132123357","system_id":"levelo_inurba_marseille","lat":43.309038,"lon":5.396546,"is_reserved":false,"is_disabled":false,"rental_uris":{"android":"levelo://app?vid=329157dd-05e1-45c8-8ed5-dad132123357","ios":"levelo://app?vid=329157dd-05e1-45c8-8ed5-dad132123357"},"vehicle_type_id":"4","last_reported":1717880807,"current_range_meters":16400,"station_id":"ce4bh012rcd13ifvqcv0","pricing_plan_id":"cebpf4jnsgd1na2vs0mg"},{"bike_id":"caeb2aec-5fa1-4524-91b4-1914a68d8f86","system_id":"levelo_inurba_marseille","lat":43.29529,"lon":5.385581,"is_reserved":false,"is_disabled":false,"rental_uris":{"android":"levelo://app?vid=caeb2aec-5fa1-4524-91b4-1914a68d8f86","ios":"levelo://app?vid=caeb2aec-5fa1-4524-91b4-1914a68d8f86"},"vehicle_type_id":"4","last_reported":1717880807,"current_range_meters":31600,"station_id":"ce4bgih2rcd13ifvqba0","pricing_plan_id":"cebpf4jnsgd1na2vs0mg"},{"bike_id":"7c9d954b-a7e3-421b-a2c3-c6c9393a909c","system_id":"levelo_inurba_marseille","lat":43.29529,"lon":5.385581,"is_reserved":false,"is_disabled":false,"rental_uris":{"android":"levelo://app?vid=7c9d954b-a7e3-421b-a2c3-c6c9393a909c","ios":"levelo://app?vid=7c9d954b-a7e3-421b-a2c3-c6c9393a909c"},"vehicle_type_id":"4","last_reported":1717880807,"current_range_meters":31600,"station_id":"ce4bgih2rcd13ifvqba0","pricing_plan_id":"cebpf4jnsgd1na2vs0mg"},{"bike_id":"3e914d15-68dc-4b10-b98d-9d3f7aff04ca","system_id":"levelo_inurba_marseille","lat":43.29529,"lon":5.385581,"is_reserved":false,"is_disabled":false,"rental_uris":{"android":"levelo://app?vid=3e914d15-68dc-4b10-b98d-9d3f7aff04ca","ios":"levelo://app?vid=3e914d15-68dc-4b10-b98d-9d3f7aff04ca"},"vehicle_type_id":"4","last_reported":1717880807,"current_range_meters":10000,"station_id":"ce4bgih2rcd13ifvqba0","pricing_plan_id":"cebpf4jnsgd1na2vs0mg"},{"bike_id":"c95cba3f-777d-483e-8be9-7b0ab81dd661","system_id":"levelo_inurba_marseille","lat":43.29529,"lon":5.385581,"is_reserved":false,"is_disabled":false,"rental_uris":{"android":"levelo://app?vid=c95cba3f-777d-483e-8be9-7b0ab81dd661","ios":"levelo://app?vid=c95cba3f-777d-483e-8be9-7b0ab81dd661"},"vehicle_type_id":"4","last_reported":1717880807,"current_range_meters":25600,"station_id":"ce4bgih2rcd13ifvqba0","pricing_plan_id":"cebpf4jnsgd1na2vs0mg"},{"bike_id":"4e0bcdb5-5b4c-416e-b31f-08c4197fcc15","system_id":"levelo_inurba_marseille","lat":43.29529,"lon":5.385581,"is_reserved":false,"is_disabled":false,"rental_uris":{"android":"levelo://app?vid=4e0bcdb5-5b4c-416e-b31f-08c4197fcc15","ios":"levelo://app?vid=4e0bcdb5-5b4c-416e-b31f-08c4197fcc15"},"vehicle_type_id":"4","last_reported":1717880807,"current_range_meters":31200,"station_id":"ce4bgih2rcd13ifvqba0","pricing_plan_id":"cebpf4jnsgd1na2vs0mg"},{"bike_id":"686676a4-1dc3-46b9-820d-51f90fe36212","system_id":"levelo_inurba_marseille","lat":43.29529,"lon":5.385581,"is_reserved":false,"is_disabled":false,"rental_uris":{"android":"levelo://app?vid=686676a4-1dc3-46b9-820d-51f90fe36212","ios":"levelo://app?vid=686676a4-1dc3-46b9-820d-51f90fe36212"},"vehicle_type_id":"4","last_reported":1717880807,"current_range_meters":22000,"station_id":"ce4bgih2rcd13ifvqba0","pricing_plan_id":"cebpf4jnsgd1na2vs0mg"},{"bike_id":"b772e723-4415-41c2-b4b7-a11072527c61","system_id":"levelo_inurba_marseille","lat":43.29529,"lon":5.385581,"is_reserved":false,"is_disabled":false,"rental_uris":{"android":"levelo://app?vid=b772e723-4415-41c2-b4b7-a11072527c61","ios":"levelo://app?vid=b772e723-4415-41c2-b4b7-a11072527c61"},"vehicle_type_id":"4","last_reported":1717880807,"current_range_meters":24400,"station_id":"ce4bgih2rcd13ifvqba0","pricing_plan_id":"cebpf4jnsgd1na2vs0mg"},{"bike_id":"2f7df4aa-6c40-41ea-9a72-98e7111fa39b","system_id":"levelo_inurba_marseille","lat":43.29529,"lon":5.385581,"is_reserved":false,"is_disabled":false,"rental_uris":{"android":"levelo://app?vid=2f7df4aa-6c40-41ea-9a72-98e7111fa39b","ios":"levelo://app?vid=2f7df4aa-6c40-41ea-9a72-98e7111fa39b"},"vehicle_type_id":"4","last_reported":1717880807,"current_range_meters":28400,"station_id":"ce4bgih2rcd13ifvqba0","pricing_plan_id":"cebpf4jnsgd1na2vs0mg"},{"bike_id":"c07ccc7c-8a73-43a7-a398-cdf2f1596291","system_id":"levelo_inurba_marseille","lat":43.29529,"lon":5.385581,"is_reserved":false,"is_disabled":false,"rental_uris":{"android":"levelo://app?vid=c07ccc7c-8a73-43a7-a398-cdf2f1596291","ios":"levelo://app?vid=c07ccc7c-8a73-43a7-a398-cdf2f1596291"},"vehicle_type_id":"4","last_reported":1717880807,"current_range_meters":31200,"station_id":"ce4bgih2rcd13ifvqba0","pricing_plan_id":"cebpf4jnsgd1na2vs0mg"},{"bike_id":"7e353c88-34e9-4683-8c1b-cb10917f3589","system_id":"levelo_inurba_marseille","lat":43.29529,"lon":5.385581,"is_reserved":false,"is_disabled":false,"rental_uris":{"android":"levelo://app?vid=7e353c88-34e9-4683-8c1b-cb10917f3589","ios":"levelo://app?vid=7e353c88-34e9-4683-8c1b-cb10917f3589"},"vehicle_type_id":"4","last_reported":1717880807,"current_range_meters":26800,"station_id":"ce4bgih2rcd13ifvqba0","pricing_plan_id":"cebpf4jnsgd1na2vs0mg"},{"bike_id":"4ca18410-c0cc-46da-8432-aaad009d2350","system_id":"levelo_inurba_marseille","lat":43.29529,"lon":5.385581,"is_reserved":false,"is_disabled":false,"rental_uris":{"android":"levelo://app?vid=4ca18410-c0cc-46da-8432-aaad009d2350","ios":"levelo://app?vid=4ca18410-c0cc-46da-8432-aaad009d2350"},"vehicle_type_id":"4","last_reported":1717880807,"current_range_meters":3600,"station_id":"ce4bgih2rcd13ifvqba0","pricing_plan_id":"cebpf4jnsgd1na2vs0mg"},{"bike_id":"8b54451c-9ab1-4ba4-b482-cf8ce1d6b045","system_id":"levelo_inurba_marseille","lat":43.29529,"lon":5.385581,"is_reserved":false,"is_disabled":false,"rental_uris":{"android":"levelo://app?vid=8b54451c-9ab1-4ba4-b482-cf8ce1d6b045","ios":"levelo://app?vid=8b54451c-9ab1-4ba4-b482-cf8ce1d6b045"},"vehicle_type_id":"4","last_reported":1717880807,"current_range_meters":800,"station_id":"ce4bgih2rcd13ifvqba0","pricing_plan_id":"cebpf4jnsgd1na2vs0mg"},{"bike_id":"a512dca3-8ab5-4bce-b69a-047d2b56c4c9","system_id":"levelo_inurba_marseille","lat":43.29059,"lon":5.37158,"is_reserved":false,"is_disabled":false,"rental_uris":{"android":"levelo://app?vid=a512dca3-8ab5-4bce-b69a-047d2b56c4c9","ios":"levelo://app?vid=a512dca3-8ab5-4bce-b69a-047d2b56c4c9"},"vehicle_type_id":"4","last_reported":1717880807,"current_range_meters":0,"station_id":"ce4bh5p2rcd13ifvqe4g","pricing_plan_id":"cebpf4jnsgd1na2vs0mg"},{"bike_id":"3c77dc55-363a-4bbd-854d-7ff1dd472601","system_id":"levelo_inurba_marseille","lat":43.305364,"lon":5.384119,"is_reserved":false,"is_disabled":false,"rental_uris":{"android":"levelo://app?vid=3c77dc55-363a-4bbd-854d-7ff1dd472601","ios":"levelo://app?vid=3c77dc55-363a-4bbd-854d-7ff1dd472601"},"vehicle_type_id":"4","last_reported":1717880807,"current_range_meters":11600,"station_id":"ce4bgg92rcd13ifvqb30","pricing_plan_id":"cebpf4jnsgd1na2vs0mg"},{"bike_id":"7a474708-8904-4b94-a209-d4d0bdd8b473","system_id":"levelo_inurba_marseille","lat":43.30154,"lon":5.39391,"is_reserved":false,"is_disabled":false,"rental_uris":{"android":"levelo://app?vid=7a474708-8904-4b94-a209-d4d0bdd8b473","ios":"levelo://app?vid=7a474708-8904-4b94-a209-d4d0bdd8b473"},"vehicle_type_id":"4","last_reported":1717880807,"current_range_meters":20800,"station_id":"","pricing_plan_id":"cebpf4jnsgd1na2vs0mg"},{"bike_id":"8bd38e02-900e-45d9-941d-8df3f0d7bbe7","system_id":"levelo_inurba_marseille","lat":43.289184,"lon":5.366408,"is_reserved":false,"is_disabled":false,"rental_uris":{"android":"levelo://app?vid=8bd38e02-900e-45d9-941d-8df3f0d7bbe7","ios":"levelo://app?vid=8bd38e02-900e-45d9-941d-8df3f0d7bbe7"},"vehicle_type_id":"4","last_reported":1717880807,"current_range_meters":18000,"station_id":"ce4bhap2rcd13ifvqek0","pricing_plan_id":"cebpf4jnsgd1na2vs0mg"},{"bike_id":"39094164-d8b7-4a74-83c8-f0b18b94cd91","system_id":"levelo_inurba_marseille","lat":43.29249,"lon":5.38268,"is_reserved":false,"is_disabled":false,"rental_uris":{"android":"levelo://app?vid=39094164-d8b7-4a74-83c8-f0b18b94cd91","ios":"levelo://app?vid=39094164-d8b7-4a74-83c8-f0b18b94cd91"},"vehicle_type_id":"4","last_reported":1717880807,"current_range_meters":0,"station_id":"","pricing_plan_id":"cebpf4jnsgd1na2vs0mg"},{"bike_id":"006f055f-b37a-4529-8c7b-cb10c9d5be05","system_id":"levelo_inurba_marseille","lat":43.290319,"lon":5.375732,"is_reserved":false,"is_disabled":false,"rental_uris":{"android":"levelo://app?vid=006f055f-b37a-4529-8c7b-cb10c9d5be05","ios":"levelo://app?vid=006f055f-b37a-4529-8c7b-cb10c9d5be05"},"vehicle_type_id":"4","last_reported":1717880807,"current_range_meters":0,"station_id":"ce4bh692rcd13ifvqe90","pricing_plan_id":"cebpf4jnsgd1na2vs0mg"},{"bike_id":"0c5a2649-c959-4bc2-9ad5-647301315672","system_id":"levelo_inurba_marseille","lat":43.29417,"lon":5.38625,"is_reserved":false,"is_disabled":false,"rental_uris":{"android":"levelo://app?vid=0c5a2649-c959-4bc2-9ad5-647301315672","ios":"levelo://app?vid=0c5a2649-c959-4bc2-9ad5-647301315672"},"vehicle_type_id":"4","last_reported":1717880807,"current_range_meters":0,"station_id":"ce4bh2h2rcd13ifvqdh0","pricing_plan_id":"cebpf4jnsgd1na2vs0mg"},{"bike_id":"b907ff0c-2491-4d7c-8978-c49fdbd4291b","system_id":"levelo_inurba_marseille","lat":43.29418,"lon":5.38629,"is_reserved":false,"is_disabled":false,"rental_uris":{"android":"levelo://app?vid=b907ff0c-2491-4d7c-8978-c49fdbd4291b","ios":"levelo://app?vid=b907ff0c-2491-4d7c-8978-c49fdbd4291b"},"vehicle_type_id":"4","last_reported":1717880807,"current_range_meters":0,"station_id":"ce4bh2h2rcd13ifvqdh0","pricing_plan_id":"cebpf4jnsgd1na2vs0mg"},{"bike_id":"6c6af162-96c2-4140-9e15-469bce7e7a6d","system_id":"levelo_inurba_marseille","lat":43.289184,"lon":5.366408,"is_reserved":false,"is_disabled":false,"rental_uris":{"android":"levelo://app?vid=6c6af162-96c2-4140-9e15-469bce7e7a6d","ios":"levelo://app?vid=6c6af162-96c2-4140-9e15-469bce7e7a6d"},"vehicle_type_id":"4","last_reported":1717880807,"current_range_meters":19600,"station_id":"ce4bhap2rcd13ifvqek0","pricing_plan_id":"cebpf4jnsgd1na2vs0mg"},{"bike_id":"dfd26978-bb58-4aa4-b573-4ff1fa5ada08","system_id":"levelo_inurba_marseille","lat":43.336148,"lon":5.410349,"is_reserved":false,"is_disabled":false,"rental_uris":{"android":"levelo://app?vid=dfd26978-bb58-4aa4-b573-4ff1fa5ada08","ios":"levelo://app?vid=dfd26978-bb58-4aa4-b573-4ff1fa5ada08"},"vehicle_type_id":"4","last_reported":1717880807,"current_range_meters":20800,"station_id":"ce4bhqh2rcd13ifvqhmg","pricing_plan_id":"cebpf4jnsgd1na2vs0mg"},{"bike_id":"ff93c49d-9b21-4242-a702-1b133396ccf1","system_id":"levelo_inurba_marseille","lat":43.289184,"lon":5.366408,"is_reserved":false,"is_disabled":false,"rental_uris":{"android":"levelo://app?vid=ff93c49d-9b21-4242-a702-1b133396ccf1","ios":"levelo://app?vid=ff93c49d-9b21-4242-a702-1b133396ccf1"},"vehicle_type_id":"4","last_reported":1717880807,"current_range_meters":4800,"station_id":"ce4bhap2rcd13ifvqek0","pricing_plan_id":"cebpf4jnsgd1na2vs0mg"},{"bike_id":"2eed37f3-46f2-4d37-a4c3-bd9933f3b350","system_id":"levelo_inurba_marseille","lat":43.289184,"lon":5.366408,"is_reserved":false,"is_disabled":false,"rental_uris":{"android":"levelo://app?vid=2eed37f3-46f2-4d37-a4c3-bd9933f3b350","ios":"levelo://app?vid=2eed37f3-46f2-4d37-a4c3-bd9933f3b350"},"vehicle_type_id":"4","last_reported":1717880807,"current_range_meters":27600,"station_id":"ce4bhap2rcd13ifvqek0","pricing_plan_id":"cebpf4jnsgd1na2vs0mg"},{"bike_id":"ae7baf97-9d91-4413-b09f-06caa02001a1","system_id":"levelo_inurba_marseille","lat":43.33717,"lon":5.391857,"is_reserved":false,"is_disabled":false,"rental_uris":{"android":"levelo://app?vid=ae7baf97-9d91-4413-b09f-06caa02001a1","ios":"levelo://app?vid=ae7baf97-9d91-4413-b09f-06caa02001a1"},"vehicle_type_id":"4","last_reported":1717880807,"current_range_meters":2400,"station_id":"ce4bhr92rcd13ifvqhsg","pricing_plan_id":"cebpf4jnsgd1na2vs0mg"},{"bike_id":"3588c8e6-da9f-4063-8df1-e3779900c98a","system_id":"levelo_inurba_marseille","lat":43.289468,"lon":5.363719,"is_reserved":false,"is_disabled":false,"rental_uris":{"android":"levelo://app?vid=3588c8e6-da9f-4063-8df1-e3779900c98a","ios":"levelo://app?vid=3588c8e6-da9f-4063-8df1-e3779900c98a"},"vehicle_type_id":"4","last_reported":1717880807,"current_range_meters":0,"station_id":"ce4bhc92rcd13ifvqetg","pricing_plan_id":"cebpf4jnsgd1na2vs0mg"},{"bike_id":"f8b19835-9cb3-40f0-a589-aeb1cbcd2773","system_id":"levelo_inurba_marseille","lat":43.292644,"lon":5.384257,"is_reserved":false,"is_disabled":false,"rental_uris":{"android":"levelo://app?vid=f8b19835-9cb3-40f0-a589-aeb1cbcd2773","ios":"levelo://app?vid=f8b19835-9cb3-40f0-a589-aeb1cbcd2773"},"vehicle_type_id":"4","last_reported":1717880807,"current_range_meters":18800,"station_id":"ce4bh692rcd13ifvqea0","pricing_plan_id":"cebpf4jnsgd1na2vs0mg"},{"bike_id":"5dafd871-0047-4a9a-87a9-cbbc294a84bc","system_id":"levelo_inurba_marseille","lat":43.292644,"lon":5.384257,"is_reserved":false,"is_disabled":false,"rental_uris":{"android":"levelo://app?vid=5dafd871-0047-4a9a-87a9-cbbc294a84bc","ios":"levelo://app?vid=5dafd871-0047-4a9a-87a9-cbbc294a84bc"},"vehicle_type_id":"4","last_reported":1717880807,"current_range_meters":800,"station_id":"ce4bh692rcd13ifvqea0","pricing_plan_id":"cebpf4jnsgd1na2vs0mg"},{"bike_id":"c9fbc03a-ec71-4580-a4e8-f5b92d52e4b2","system_id":"levelo_inurba_marseille","lat":43.292644,"lon":5.384257,"is_reserved":false,"is_disabled":false,"rental_uris":{"android":"levelo://app?vid=c9fbc03a-ec71-4580-a4e8-f5b92d52e4b2","ios":"levelo://app?vid=c9fbc03a-ec71-4580-a4e8-f5b92d52e4b2"},"vehicle_type_id":"4","last_reported":1717880807,"current_range_meters":0,"station_id":"ce4bh692rcd13ifvqea0","pricing_plan_id":"cebpf4jnsgd1na2vs0mg"},{"bike_id":"bd173e16-46ca-4ebc-8ff8-5ed4207679b8","system_id":"levelo_inurba_marseille","lat":43.292644,"lon":5.384257,"is_reserved":false,"is_disabled":false,"rental_uris":{"android":"levelo://app?vid=bd173e16-46ca-4ebc-8ff8-5ed4207679b8","ios":"levelo://app?vid=bd173e16-46ca-4ebc-8ff8-5ed4207679b8"},"vehicle_type_id":"4","last_reported":1717880807,"current_range_meters":5600,"station_id":"ce4bh692rcd13ifvqea0","pricing_plan_id":"cebpf4jnsgd1na2vs0mg"},{"bike_id":"58b16913-6d18-4246-94ee-5c4fa8376375","system_id":"levelo_inurba_marseille","lat":43.29262,"lon":5.38434,"is_reserved":false,"is_disabled":false,"rental_uris":{"android":"levelo://app?vid=58b16913-6d18-4246-94ee-5c4fa8376375","ios":"levelo://app?vid=58b16913-6d18-4246-94ee-5c4fa8376375"},"vehicle_type_id":"4","last_reported":1717880807,"current_range_meters":22400,"station_id":"ce4bh692rcd13ifvqea0","pricing_plan_id":"cebpf4jnsgd1na2vs0mg"},{"bike_id":"f84c4653-ab88-47d5-886c-791067e92601","system_id":"levelo_inurba_marseille","lat":43.292644,"lon":5.384257,"is_reserved":false,"is_disabled":false,"rental_uris":{"android":"levelo://app?vid=f84c4653-ab88-47d5-886c-791067e92601","ios":"levelo://app?vid=f84c4653-ab88-47d5-886c-791067e92601"},"vehicle_type_id":"4","last_reported":1717880807,"current_range_meters":19600,"station_id":"ce4bh692rcd13ifvqea0","pricing_plan_id":"cebpf4jnsgd1na2vs0mg"},{"bike_id":"7c823ada-6b5b-432a-ae09-3bc3b707ac86","system_id":"levelo_inurba_marseille","lat":43.292644,"lon":5.384257,"is_reserved":false,"is_disabled":false,"rental_uris":{"android":"levelo://app?vid=7c823ada-6b5b-432a-ae09-3bc3b707ac86","ios":"levelo://app?vid=7c823ada-6b5b-432a-ae09-3bc3b707ac86"},"vehicle_type_id":"4","last_reported":1717880807,"current_range_meters":7200,"station_id":"ce4bh692rcd13ifvqea0","pricing_plan_id":"cebpf4jnsgd1na2vs0mg"},{"bike_id":"5764106c-7c0e-4cde-b30f-2e051552ff32","system_id":"levelo_inurba_marseille","lat":43.292644,"lon":5.384257,"is_reserved":false,"is_disabled":false,"rental_uris":{"android":"levelo://app?vid=5764106c-7c0e-4cde-b30f-2e051552ff32","ios":"levelo://app?vid=5764106c-7c0e-4cde-b30f-2e051552ff32"},"vehicle_type_id":"4","last_reported":1717880807,"current_range_meters":13200,"station_id":"ce4bh692rcd13ifvqea0","pricing_plan_id":"cebpf4jnsgd1na2vs0mg"},{"bike_id":"cf198b15-8843-4958-aec3-7452b41f3443","system_id":"levelo_inurba_marseille","lat":43.292644,"lon":5.384257,"is_reserved":false,"is_disabled":false,"rental_uris":{"android":"levelo://app?vid=cf198b15-8843-4958-aec3-7452b41f3443","ios":"levelo://app?vid=cf198b15-8843-4958-aec3-7452b41f3443"},"vehicle_type_id":"4","last_reported":1717880807,"current_range_meters":22400,"station_id":"ce4bh692rcd13ifvqea0","pricing_plan_id":"cebpf4jnsgd1na2vs0mg"},{"bike_id":"447d7841-723f-461c-a963-90e3175c33f8","system_id":"levelo_inurba_marseille","lat":43.29262,"lon":5.38439,"is_reserved":false,"is_disabled":false,"rental_uris":{"android":"levelo://app?vid=447d7841-723f-461c-a963-90e3175c33f8","ios":"levelo://app?vid=447d7841-723f-461c-a963-90e3175c33f8"},"vehicle_type_id":"4","last_reported":1717880807,"current_range_meters":0,"station_id":"ce4bh692rcd13ifvqea0","pricing_plan_id":"cebpf4jnsgd1na2vs0mg"},{"bike_id":"c9fcf562-cc35-4c27-b328-63f278a63506","system_id":"levelo_inurba_marseille","lat":43.292644,"lon":5.384257,"is_reserved":false,"is_disabled":false,"rental_uris":{"android":"levelo://app?vid=c9fcf562-cc35-4c27-b328-63f278a63506","ios":"levelo://app?vid=c9fcf562-cc35-4c27-b328-63f278a63506"},"vehicle_type_id":"4","last_reported":1717880807,"current_range_meters":11600,"station_id":"ce4bh692rcd13ifvqea0","pricing_plan_id":"cebpf4jnsgd1na2vs0mg"},{"bike_id":"5095bfef-89ca-46de-adcf-6dd2e5a52a45","system_id":"levelo_inurba_marseille","lat":43.292663,"lon":5.384499,"is_reserved":false,"is_disabled":false,"rental_uris":{"android":"levelo://app?vid=5095bfef-89ca-46de-adcf-6dd2e5a52a45","ios":"levelo://app?vid=5095bfef-89ca-46de-adcf-6dd2e5a52a45"},"vehicle_type_id":"4","last_reported":1717880807,"current_range_meters":10400,"station_id":"ce4bh692rcd13ifvqea0","pricing_plan_id":"cebpf4jnsgd1na2vs0mg"},{"bike_id":"dd4e2739-71aa-40b9-a245-6818a684205b","system_id":"levelo_inurba_marseille","lat":43.29258,"lon":5.38435,"is_reserved":false,"is_disabled":false,"rental_uris":{"android":"levelo://app?vid=dd4e2739-71aa-40b9-a245-6818a684205b","ios":"levelo://app?vid=dd4e2739-71aa-40b9-a245-6818a684205b"},"vehicle_type_id":"4","last_reported":1717880807,"current_range_meters":20000,"station_id":"ce4bh692rcd13ifvqea0","pricing_plan_id":"cebpf4jnsgd1na2vs0mg"},{"bike_id":"ed77bc39-0bdd-4438-89b1-80a6efeadc4b","system_id":"levelo_inurba_marseille","lat":43.29257,"lon":5.38435,"is_reserved":false,"is_disabled":false,"rental_uris":{"android":"levelo://app?vid=ed77bc39-0bdd-4438-89b1-80a6efeadc4b","ios":"levelo://app?vid=ed77bc39-0bdd-4438-89b1-80a6efeadc4b"},"vehicle_type_id":"4","last_reported":1717880807,"current_range_meters":14000,"station_id":"ce4bh692rcd13ifvqea0","pricing_plan_id":"cebpf4jnsgd1na2vs0mg"},{"bike_id":"2831ab7b-7d58-437f-9df6-7d95bbee0f67","system_id":"levelo_inurba_marseille","lat":43.292642,"lon":5.384254,"is_reserved":false,"is_disabled":false,"rental_uris":{"android":"levelo://app?vid=2831ab7b-7d58-437f-9df6-7d95bbee0f67","ios":"levelo://app?vid=2831ab7b-7d58-437f-9df6-7d95bbee0f67"},"vehicle_type_id":"4","last_reported":1717880807,"current_range_meters":9600,"station_id":"ce4bh692rcd13ifvqea0","pricing_plan_id":"cebpf4jnsgd1na2vs0mg"},{"bike_id":"d44b93e5-1bb6-4c53-ba91-b02e98869f2e","system_id":"levelo_inurba_marseille","lat":43.29262,"lon":5.38449,"is_reserved":false,"is_disabled":false,"rental_uris":{"android":"levelo://app?vid=d44b93e5-1bb6-4c53-ba91-b02e98869f2e","ios":"levelo://app?vid=d44b93e5-1bb6-4c53-ba91-b02e98869f2e"},"vehicle_type_id":"4","last_reported":1717880807,"current_range_meters":0,"station_id":"ce4bh692rcd13ifvqea0","pricing_plan_id":"cebpf4jnsgd1na2vs0mg"},{"bike_id":"ddf95aba-7798-47a6-bfbe-2d7ccba72b22","system_id":"levelo_inurba_marseille","lat":43.292644,"lon":5.384257,"is_reserved":false,"is_disabled":false,"rental_uris":{"android":"levelo://app?vid=ddf95aba-7798-47a6-bfbe-2d7ccba72b22","ios":"levelo://app?vid=ddf95aba-7798-47a6-bfbe-2d7ccba72b22"},"vehicle_type_id":"4","last_reported":1717880807,"current_range_meters":23200,"station_id":"ce4bh692rcd13ifvqea0","pricing_plan_id":"cebpf4jnsgd1na2vs0mg"},{"bike_id":"f171ad44-c856-438a-8f9d-8a1de1e85696","system_id":"levelo_inurba_marseille","lat":43.29255,"lon":5.38434,"is_reserved":false,"is_disabled":false,"rental_uris":{"android":"levelo://app?vid=f171ad44-c856-438a-8f9d-8a1de1e85696","ios":"levelo://app?vid=f171ad44-c856-438a-8f9d-8a1de1e85696"},"vehicle_type_id":"4","last_reported":1717880807,"current_range_meters":0,"station_id":"ce4bh692rcd13ifvqea0","pricing_plan_id":"cebpf4jnsgd1na2vs0mg"},{"bike_id":"1ff14c81-dd1b-4460-9b73-9e89b2e1c6d8","system_id":"levelo_inurba_marseille","lat":43.29262,"lon":5.38451,"is_reserved":false,"is_disabled":false,"rental_uris":{"android":"levelo://app?vid=1ff14c81-dd1b-4460-9b73-9e89b2e1c6d8","ios":"levelo://app?vid=1ff14c81-dd1b-4460-9b73-9e89b2e1c6d8"},"vehicle_type_id":"4","last_reported":1717880807,"current_range_meters":0,"station_id":"ce4bh692rcd13ifvqea0","pricing_plan_id":"cebpf4jnsgd1na2vs0mg"},{"bike_id":"d4a421be-77b3-4f2d-8d57-b56837810ab5","system_id":"levelo_inurba_marseille","lat":43.29257,"lon":5.38441,"is_reserved":false,"is_disabled":false,"rental_uris":{"android":"levelo://app?vid=d4a421be-77b3-4f2d-8d57-b56837810ab5","ios":"levelo://app?vid=d4a421be-77b3-4f2d-8d57-b56837810ab5"},"vehicle_type_id":"4","last_reported":1717880807,"current_range_meters":10400,"station_id":"ce4bh692rcd13ifvqea0","pricing_plan_id":"cebpf4jnsgd1na2vs0mg"},{"bike_id":"d211e1d9-5e51-41c9-84f5-5d89cea046dd","system_id":"levelo_inurba_marseille","lat":43.292642,"lon":5.384254,"is_reserved":false,"is_disabled":false,"rental_uris":{"android":"levelo://app?vid=d211e1d9-5e51-41c9-84f5-5d89cea046dd","ios":"levelo://app?vid=d211e1d9-5e51-41c9-84f5-5d89cea046dd"},"vehicle_type_id":"4","last_reported":1717880807,"current_range_meters":9600,"station_id":"ce4bh692rcd13ifvqea0","pricing_plan_id":"cebpf4jnsgd1na2vs0mg"},{"bike_id":"16d3cdf3-e0b5-4625-bdf1-b2e009dadc17","system_id":"levelo_inurba_marseille","lat":43.29258,"lon":5.38446,"is_reserved":false,"is_disabled":false,"rental_uris":{"android":"levelo://app?vid=16d3cdf3-e0b5-4625-bdf1-b2e009dadc17","ios":"levelo://app?vid=16d3cdf3-e0b5-4625-bdf1-b2e009dadc17"},"vehicle_type_id":"4","last_reported":1717880807,"current_range_meters":0,"station_id":"ce4bh692rcd13ifvqea0","pricing_plan_id":"cebpf4jnsgd1na2vs0mg"},{"bike_id":"283d672e-ed0e-49f0-82f3-48a55c05d553","system_id":"levelo_inurba_marseille","lat":43.29257,"lon":5.38444,"is_reserved":false,"is_disabled":false,"rental_uris":{"android":"levelo://app?vid=283d672e-ed0e-49f0-82f3-48a55c05d553","ios":"levelo://app?vid=283d672e-ed0e-49f0-82f3-48a55c05d553"},"vehicle_type_id":"4","last_reported":1717880807,"current_range_meters":19200,"station_id":"ce4bh692rcd13ifvqea0","pricing_plan_id":"cebpf4jnsgd1na2vs0mg"},{"bike_id":"289c307e-08ed-43d3-a11d-cf2db7e23aca","system_id":"levelo_inurba_marseille","lat":43.292644,"lon":5.384257,"is_reserved":false,"is_disabled":false,"rental_uris":{"android":"levelo://app?vid=289c307e-08ed-43d3-a11d-cf2db7e23aca","ios":"levelo://app?vid=289c307e-08ed-43d3-a11d-cf2db7e23aca"},"vehicle_type_id":"4","last_reported":1717880807,"current_range_meters":4400,"station_id":"ce4bh692rcd13ifvqea0","pricing_plan_id":"cebpf4jnsgd1na2vs0mg"},{"bike_id":"d0e3c7c8-bead-4a8e-be30-860fa1ff36a7","system_id":"levelo_inurba_marseille","lat":43.292644,"lon":5.384257,"is_reserved":false,"is_disabled":false,"rental_uris":{"android":"levelo://app?vid=d0e3c7c8-bead-4a8e-be30-860fa1ff36a7","ios":"levelo://app?vid=d0e3c7c8-bead-4a8e-be30-860fa1ff36a7"},"vehicle_type_id":"4","last_reported":1717880807,"current_range_meters":14000,"station_id":"ce4bh692rcd13ifvqea0","pricing_plan_id":"cebpf4jnsgd1na2vs0mg"},{"bike_id":"710e0152-a15f-4e9a-ad24-31cb02186362","system_id":"levelo_inurba_marseille","lat":43.29255,"lon":5.38441,"is_reserved":false,"is_disabled":false,"rental_uris":{"android":"levelo://app?vid=710e0152-a15f-4e9a-ad24-31cb02186362","ios":"levelo://app?vid=710e0152-a15f-4e9a-ad24-31cb02186362"},"vehicle_type_id":"4","last_reported":1717880807,"current_range_meters":0,"station_id":"ce4bh692rcd13ifvqea0","pricing_plan_id":"cebpf4jnsgd1na2vs0mg"},{"bike_id":"f9e0bdb1-61d8-42c1-82a4-7657924ad4fd","system_id":"levelo_inurba_marseille","lat":43.292559,"lon":5.384451,"is_reserved":false,"is_disabled":false,"rental_uris":{"android":"levelo://app?vid=f9e0bdb1-61d8-42c1-82a4-7657924ad4fd","ios":"levelo://app?vid=f9e0bdb1-61d8-42c1-82a4-7657924ad4fd"},"vehicle_type_id":"4","last_reported":1717880807,"current_range_meters":0,"station_id":"ce4bh692rcd13ifvqea0","pricing_plan_id":"cebpf4jnsgd1na2vs0mg"},{"bike_id":"09e771a8-150b-46ee-a5f8-b7279bf8e93c","system_id":"levelo_inurba_marseille","lat":43.29253,"lon":5.38442,"is_reserved":false,"is_disabled":false,"rental_uris":{"android":"levelo://app?vid=09e771a8-150b-46ee-a5f8-b7279bf8e93c","ios":"levelo://app?vid=09e771a8-150b-46ee-a5f8-b7279bf8e93c"},"vehicle_type_id":"4","last_reported":1717880807,"current_range_meters":18800,"station_id":"ce4bh692rcd13ifvqea0","pricing_plan_id":"cebpf4jnsgd1na2vs0mg"},{"bike_id":"eab740ec-7182-45d0-a92b-c49166ed95b2","system_id":"levelo_inurba_marseille","lat":43.290103,"lon":5.356114,"is_reserved":false,"is_disabled":false,"rental_uris":{"android":"levelo://app?vid=eab740ec-7182-45d0-a92b-c49166ed95b2","ios":"levelo://app?vid=eab740ec-7182-45d0-a92b-c49166ed95b2"},"vehicle_type_id":"4","last_reported":1717880807,"current_range_meters":11600,"station_id":"ce4bhb92rcd13ifvqen0","pricing_plan_id":"cebpf4jnsgd1na2vs0mg"},{"bike_id":"5d36963d-0445-4c7c-85ae-b41efa2b6c17","system_id":"levelo_inurba_marseille","lat":43.290104,"lon":5.356111,"is_reserved":false,"is_disabled":false,"rental_uris":{"android":"levelo://app?vid=5d36963d-0445-4c7c-85ae-b41efa2b6c17","ios":"levelo://app?vid=5d36963d-0445-4c7c-85ae-b41efa2b6c17"},"vehicle_type_id":"4","last_reported":1717880807,"current_range_meters":23600,"station_id":"ce4bhb92rcd13ifvqen0","pricing_plan_id":"cebpf4jnsgd1na2vs0mg"},{"bike_id":"638bbcf8-8dad-47c0-8642-91bc4f8b9ee7","system_id":"levelo_inurba_marseille","lat":43.29102,"lon":5.3814,"is_reserved":false,"is_disabled":false,"rental_uris":{"android":"levelo://app?vid=638bbcf8-8dad-47c0-8642-91bc4f8b9ee7","ios":"levelo://app?vid=638bbcf8-8dad-47c0-8642-91bc4f8b9ee7"},"vehicle_type_id":"4","last_reported":1717880807,"current_range_meters":0,"station_id":"ce4bh512rcd13ifvqe2g","pricing_plan_id":"cebpf4jnsgd1na2vs0mg"},{"bike_id":"4923310e-1de6-4ad5-a1b4-10b9d6c601ff","system_id":"levelo_inurba_marseille","lat":43.290995,"lon":5.381361,"is_reserved":false,"is_disabled":false,"rental_uris":{"android":"levelo://app?vid=4923310e-1de6-4ad5-a1b4-10b9d6c601ff","ios":"levelo://app?vid=4923310e-1de6-4ad5-a1b4-10b9d6c601ff"},"vehicle_type_id":"4","last_reported":1717880807,"current_range_meters":18000,"station_id":"ce4bh512rcd13ifvqe2g","pricing_plan_id":"cebpf4jnsgd1na2vs0mg"},{"bike_id":"139579dc-5acc-4d62-9a60-31cdf80d0011","system_id":"levelo_inurba_marseille","lat":43.29786,"lon":5.39338,"is_reserved":false,"is_disabled":false,"rental_uris":{"android":"levelo://app?vid=139579dc-5acc-4d62-9a60-31cdf80d0011","ios":"levelo://app?vid=139579dc-5acc-4d62-9a60-31cdf80d0011"},"vehicle_type_id":"4","last_reported":1717880807,"current_range_meters":19600,"station_id":"chh1huq6cuj3fo74tm60","pricing_plan_id":"cebpf4jnsgd1na2vs0mg"},{"bike_id":"98b569c8-0657-41ac-8067-2c4527c5655b","system_id":"levelo_inurba_marseille","lat":43.29785,"lon":5.39343,"is_reserved":false,"is_disabled":false,"rental_uris":{"android":"levelo://app?vid=98b569c8-0657-41ac-8067-2c4527c5655b","ios":"levelo://app?vid=98b569c8-0657-41ac-8067-2c4527c5655b"},"vehicle_type_id":"4","last_reported":1717880807,"current_range_meters":31200,"station_id":"chh1huq6cuj3fo74tm60","pricing_plan_id":"cebpf4jnsgd1na2vs0mg"},{"bike_id":"3f78c673-bf0c-4259-8873-df6bd1200370","system_id":"levelo_inurba_marseille","lat":43.297815,"lon":5.393548,"is_reserved":false,"is_disabled":false,"rental_uris":{"android":"levelo://app?vid=3f78c673-bf0c-4259-8873-df6bd1200370","ios":"levelo://app?vid=3f78c673-bf0c-4259-8873-df6bd1200370"},"vehicle_type_id":"4","last_reported":1717880807,"current_range_meters":10800,"station_id":"chh1huq6cuj3fo74tm60","pricing_plan_id":"cebpf4jnsgd1na2vs0mg"},