{"last_updated":1717700830,"ttl":30,"version":"2.2","data":{"bikes":[{"bike_id":"aa0a3189-6ea8-456b-975f-f94e38aebec0","system_id":"levelo_inurba_marseille","lat":43.313391,"lon":5.36706,"is_reserved":false,"is_disabled":false,"rental_uris":{"android":"levelo://app?vid=aa0a3189-6ea8-456b-975f-f94e38aebec0","ios":"levelo://app?vid=aa0a3189-6ea8-456b-975f-f94e38aebec0"},"vehicle_type_id":"4","last_reported":1717700830,"current_range_meters":22000,"station_id":"ce4bgr92rcd13ifvqc6g","pricing_plan_id":"cebpf4jnsgd1na2vs0mg"},{"bike_id":"1901925a-3f45-486e-8651-c24aa735ea3d","system_id":"levelo_inurba_marseille","lat":43.312239,"lon":5.368562,"is_reserved":false,"is_disabled":false,"rental_uris":{"android":"levelo://app?vid=1901925a-3f45-486e-8651-c24aa735ea3d","ios":"levelo://app?vid=1901925a-3f45-486e-8651-c24aa735ea3d"},"vehicle_type_id":"4","last_reported":1717700830,"current_range_meters":18000,"station_id":"ce4bgl92rcd13ifvqbq0","pricing_plan_id":"cebpf4jnsgd1na2vs0mg"},{"bike_id":"3a1cb0d4-fd39-4808-9da4-ddcc34044a1f","system_id":"levelo_inurba_marseille","lat":43.312239,"lon":5.368562,"is_reserved":false,"is_disabled":false,"rental_uris":{"android":"levelo://app?vid=3a1cb0d4-fd39-4808-9da4-ddcc34044a1f","ios":"levelo://app?vid=3a1cb0d4-fd39-4808-9da4-ddcc34044a1f"},"vehicle_type_id":"4","last_reported":1717700830,"current_range_meters":5600,"station_id":"ce4bgl92rcd13ifvqbq0","pricing_plan_id":"cebpf4jnsgd1na2vs0mg"},{"bike_id":"08dcd4f1-4351-4dbe-b1fb-3b7a19976b5d","system_id":"levelo_inurba_marseille","lat":43.31222,"lon":5.36862,"is_reserved":false,"is_disabled":false,"rental_uris":{"android":"levelo://app?vid=08dcd4f1-4351-4dbe-b1fb-3b7a19976b5d","ios":"levelo://app?vid=08dcd4f1-4351-4dbe-b1fb-3b7a19976b5d"},"vehicle_type_id":"4","last_reported":1717700830,"current_range_meters":0,"station_id":"ce4bgl92rcd13ifvqbq0","pricing_plan_id":"cebpf4jnsgd1na2vs0mg"},{"bike_id":"7b82f630-34f1-4fb9-a73b-f1ff42158d42","system_id":"levelo_inurba_marseille","lat":43.312239,"lon":5.368562,"is_reserved":false,"is_disabled":false,"rental_uris":{"android":"levelo://app?vid=7b82f630-34f1-4fb9-a73b-f1ff42158d42","ios":"levelo://app?vid=7b82f630-34f1-4fb9-a73b-f1ff42158d42"},"vehicle_type_id":"4","last_reported":1717700830,"current_range_meters":18400,"station_id":"ce4bgl92rcd13ifvqbq0","pricing_plan_id":"cebpf4jnsgd1na2vs0mg"},{"bike_id":"bf426a04-1523-485f-967c-64e75727788a","system_id":"levelo_inurba_marseille","lat":43.312239,"lon":5.368562,"is_reserved":false,"is_disabled":false,"rental_uris":{"android":"levelo://app?vid=bf426a04-1523-485f-967c-64e75727788a","ios":"levelo://app?vid=bf426a04-1523-485f-967c-64e75727788a"},"vehicle_type_id":"4","last_reported":1717700830,"current_range_meters":1200,"station_id":"ce4bgl92rcd13ifvqbq0","pricing_plan_id":"cebpf4jnsgd1na2vs0mg"},{"bike_id":"eacfe4d5-35c7-44c9-94fd-9fe2c41a2087","system_id":"levelo_inurba_marseille","lat":43.312239,"lon":5.368562,"is_reserved":false,"is_disabled":false,"rental_uris":{"android":"levelo://app?vid=eacfe4d5-35c7-44c9-94fd-9fe2c41a2087","ios":"levelo://app?vid=eacfe4d5-35c7-44c9-94fd-9fe2c41a2087"},"vehicle_type_id":"4","last_reported":1717700830,"current_range_meters":1200,"station_id":"ce4bgl92rcd13ifvqbq0","pricing_plan_id":"cebpf4jnsgd1na2vs0mg"},{"bike_id":"5cb1e7a9-9acb-4e72-94be-9b13b8fcb8ce","system_id":"levelo_inurba_marseille","lat":43.30911,"lon":5.3685,"is_reserved":false,"is_disabled":false,"rental_uris":{"android":"levelo://app?vid=5cb1e7a9-9acb-4e72-94be-9b13b8fcb8ce","ios":"levelo://app?vid=5cb1e7a9-9acb-4e72-94be-9b13b8fcb8ce"},"vehicle_type_id":"4","last_reported":1717700830,"current_range_meters":0,"station_id":"ce4bgn92rcd13ifvqbvg","pricing_plan_id":"cebpf4jnsgd1na2vs0mg"},{"bike_id":"2322eb69-0f22-4705-9b12-7b8d69273a3d","system_id":"levelo_inurba_marseille","lat":43.309034,"lon":5.371783,"is_reserved":false,"is_disabled":false,"rental_uris":{"android":"levelo://app?vid=2322eb69-0f22-4705-9b12-7b8d69273a3d","ios":"levelo://app?vid=2322eb69-0f22-4705-9b12-7b8d69273a3d"},"vehicle_type_id":"4","last_reported":1717700830,"current_range_meters":5600,"station_id":"ce4bguh2rcd13ifvqckg","pricing_plan_id":"cebpf4jnsgd1na2vs0mg"},{"bike_id":"ed544dfc-9bc5-4257-8fa5-70056dcf4095","system_id":"levelo_inurba_marseille","lat":43.309034,"lon":5.371783,"is_reserved":false,"is_disabled":false,"rental_uris":{"android":"levelo://app?vid=ed544dfc-9bc5-4257-8fa5-70056dcf4095","ios":"levelo://app?vid=ed544dfc-9bc5-4257-8fa5-70056dcf4095"},"vehicle_type_id":"4","last_reported":1717700830,"current_range_meters":3200,"station_id":"ce4bguh2rcd13ifvqckg","pricing_plan_id":"cebpf4jnsgd1na2vs0mg"},{"bike_id":"4f44f57e-647c-4ccb-84f0-40db4c15c347","system_id":"levelo_inurba_marseille","lat":43.309034,"lon":5.371783,"is_reserved":false,"is_disabled":false,"rental_uris":{"android":"levelo://app?vid=4f44f57e-647c-4ccb-84f0-40db4c15c347","ios":"levelo://app?vid=4f44f57e-647c-4ccb-84f0-40db4c15c347"},"vehicle_type_id":"4","last_reported":1717700830,"current_range_meters":400,"station_id":"ce4bguh2rcd13ifvqckg","pricing_plan_id":"cebpf4jnsgd1na2vs0mg"},{"bike_id":"ee7383d4-fdd8-46f9-ad27-c5193471fa6d","system_id":"levelo_inurba_marseille","lat":43.3158,"lon":5.37483,"is_reserved":false,"is_disabled":false,"rental_uris":{"android":"levelo://app?vid=ee7383d4-fdd8-46f9-ad27-c5193471fa6d","ios":"levelo://app?vid=ee7383d4-fdd8-46f9-ad27-c5193471fa6d"},"vehicle_type_id":"4","last_reported":1717700830,"current_range_meters":2000,"station_id":"","pricing_plan_id":"cebpf4jnsgd1na2vs0mg"},{"bike_id":"4644ecbc-72a0-4f12-874d-c401402bcba9","system_id":"levelo_inurba_marseille","lat":43.30537,"lon":5.367345,"is_reserved":false,"is_disabled":false,"rental_uris":{"android":"levelo://app?vid=4644ecbc-72a0-4f12-874d-c401402bcba9","ios":"levelo://app?vid=4644ecbc-72a0-4f12-874d-c401402bcba9"},"vehicle_type_id":"4","last_reported":1717700830,"current_range_meters":18400,"station_id":"ce4bgrp2rcd13ifvqc9g","pricing_plan_id":"cebpf4jnsgd1na2vs0mg"},{"bike_id":"bfe33d00-22be-4fcb-b412-bf8809def526","system_id":"levelo_inurba_marseille","lat":43.31978,"lon":5.3714,"is_reserved":false,"is_disabled":false,"rental_uris":{"android":"levelo://app?vid=bfe33d00-22be-4fcb-b412-bf8809def526","ios":"levelo://app?vid=bfe33d00-22be-4fcb-b412-bf8809def526"},"vehicle_type_id":"4","last_reported":1717700830,"current_range_meters":26400,"station_id":"","pricing_plan_id":"cebpf4jnsgd1na2vs0mg"},{"bike_id":"a36f3f6a-119c-425e-a5ca-cc65ffcc549a","system_id":"levelo_inurba_marseille","lat":43.311125,"lon":5.377624,"is_reserved":false,"is_disabled":false,"rental_uris":{"android":"levelo://app?vid=a36f3f6a-119c-425e-a5ca-cc65ffcc549a","ios":"levelo://app?vid=a36f3f6a-119c-425e-a5ca-cc65ffcc549a"},"vehicle_type_id":"4","last_reported":1717700830,"current_range_meters":3600,"station_id":"ce4bgt92rcd13ifvqcg0","pricing_plan_id":"cebpf4jnsgd1na2vs0mg"},{"bike_id":"42637619-5ecb-4ff9-b9a4-c9ffee0ddb39","system_id":"levelo_inurba_marseille","lat":43.311131,"lon":5.377651,"is_reserved":false,"is_disabled":false,"rental_uris":{"android":"levelo://app?vid=42637619-5ecb-4ff9-b9a4-c9ffee0ddb39","ios":"levelo://app?vid=42637619-5ecb-4ff9-b9a4-c9ffee0ddb39"},"vehicle_type_id":"4","last_reported":1717700830,"current_range_meters":20800,"station_id":"ce4bgt92rcd13ifvqcg0","pricing_plan_id":"cebpf4jnsgd1na2vs0mg"},{"bike_id":"a55dcf54-f142-49b8-94d8-096ee2efe5be","system_id":"levelo_inurba_marseille","lat":43.311131,"lon":5.377651,"is_reserved":false,"is_disabled":false,"rental_uris":{"android":"levelo://app?vid=a55dcf54-f142-49b8-94d8-096ee2efe5be","ios":"levelo://app?vid=a55dcf54-f142-49b8-94d8-096ee2efe5be"},"vehicle_type_id":"4","last_reported":1717700830,"current_range_meters":7200,"station_id":"ce4bgt92rcd13ifvqcg0","pricing_plan_id":"cebpf4jnsgd1na2vs0mg"},{"bike_id":"ce3b2175-d495-4cb0-b91e-94565d2958c3","system_id":"levelo_inurba_marseille","lat":43.307945,"lon":5.376487,"is_reserved":false,"is_disabled":false,"rental_uris":{"android":"levelo://app?vid=ce3b2175-d495-4cb0-b91e-94565d2958c3","ios":"levelo://app?vid=ce3b2175-d495-4cb0-b91e-94565d2958c3"},"vehicle_type_id":"4","last_reported":1717700830,"current_range_meters":8000,"station_id":"ce4bgv92rcd13ifvqcq0","pricing_plan_id":"cebpf4jnsgd1na2vs0mg"},{"bike_id":"44b30ba2-ddd1-482e-b714-015beedb725f","system_id":"levelo_inurba_marseille","lat":43.3078,"lon":5.37655,"is_reserved":false,"is_disabled":false,"rental_uris":{"android":"levelo://app?vid=44b30ba2-ddd1-482e-b714-015beedb725f","ios":"levelo://app?vid=44b30ba2-ddd1-482e-b714-015beedb725f"},"vehicle_type_id":"4","last_reported":1717700830,"current_range_meters":0,"station_id":"ce4bgv92rcd13ifvqcq0","pricing_plan_id":"cebpf4jnsgd1na2vs0mg"},{"bike_id":"9bbe2646-2dd3-4cf1-9652-1519201dfc55","system_id":"levelo_inurba_marseille","lat":43.307945,"lon":5.376487,"is_reserved":false,"is_disabled":false,"rental_uris":{"android":"levelo://app?vid=9bbe2646-2dd3-4cf1-9652-1519201dfc55","ios":"levelo://app?vid=9bbe2646-2dd3-4cf1-9652-1519201dfc55"},"vehicle_type_id":"4","last_reported":1717700830,"current_range_meters":20800,"station_id":"ce4bgv92rcd13ifvqcq0","pricing_plan_id":"cebpf4jnsgd1na2vs0mg"},{"bike_id":"5ace5af3-d2de-453e-bc81-c8704d8d2d9f","system_id":"levelo_inurba_marseille","lat":43.307945,"lon":5.376487,"is_reserved":false,"is_disabled":false,"rental_uris":{"android":"levelo://app?vid=5ace5af3-d2de-453e-bc81-c8704d8d2d9f","ios":"levelo://app?vid=5ace5af3-d2de-453e-bc81-c8704d8d2d9f"},"vehicle_type_id":"4","last_reported":1717700830,"current_range_meters":22000,"station_id":"ce4bgv92rcd13ifvqcq0","pricing_plan_id":"cebpf4jnsgd1na2vs0mg"},{"bike_id":"be483621-27d3-46c8-8014-8b9c0c2aeb6f","system_id":"levelo_inurba_marseille","lat":43.30561,"lon":5.37418,"is_reserved":false,"is_disabled":false,"rental_uris":{"android":"levelo://app?vid=be483621-27d3-46c8-8014-8b9c0c2aeb6f","ios":"levelo://app?vid=be483621-27d3-46c8-8014-8b9c0c2aeb6f"},"vehicle_type_id":"4","last_reported":1717700830,"current_range_meters":17200,"station_id":"","pricing_plan_id":"cebpf4jnsgd1na2vs0mg"},{"bike_id":"1f0342ed-1515-4165-b911-e772def20479","system_id":"levelo_inurba_marseille","lat":43.30304,"lon":5.368987,"is_reserved":false,"is_disabled":false,"rental_uris":{"android":"levelo://app?vid=1f0342ed-1515-4165-b911-e772def20479","ios":"levelo://app?vid=1f0342ed-1515-4165-b911-e772def20479"},"vehicle_type_id":"4","last_reported":1717700830,"current_range_meters":0,"station_id":"ce4bgqh2rcd13ifvqc5g","pricing_plan_id":"cebpf4jnsgd1na2vs0mg"},{"bike_id":"5ed5ebfa-7b41-4038-9f58-b8890bc72318","system_id":"levelo_inurba_marseille","lat":43.303046,"lon":5.368981,"is_reserved":false,"is_disabled":false,"rental_uris":{"android":"levelo://app?vid=5ed5ebfa-7b41-4038-9f58-b8890bc72318","ios":"levelo://app?vid=5ed5ebfa-7b41-4038-9f58-b8890bc72318"},"vehicle_type_id":"4","last_reported":1717700830,"current_range_meters":6000,"station_id":"ce4bgqh2rcd13ifvqc5g","pricing_plan_id":"cebpf4jnsgd1na2vs0mg"},{"bike_id":"5c14b58f-a25d-4f3b-8ee3-cda18a9a4ca0","system_id":"levelo_inurba_marseille","lat":43.301939,"lon":5.366286,"is_reserved":false,"is_disabled":false,"rental_uris":{"android":"levelo://app?vid=5c14b58f-a25d-4f3b-8ee3-cda18a9a4ca0","ios":"levelo://app?vid=5c14b58f-a25d-4f3b-8ee3-cda18a9a4ca0"},"vehicle_type_id":"4","last_reported":1717700830,"current_range_meters":22400,"station_id":"ce4bgrh2rcd13ifvqc8g","pricing_plan_id":"cebpf4jnsgd1na2vs0mg"},{"bike_id":"6fdac0e4-8739-4d48-977c-5934be5c4295","system_id":"levelo_inurba_marseille","lat":43.308012,"lon":5.381511,"is_reserved":false,"is_disabled":false,"rental_uris":{"android":"levelo://app?vid=6fdac0e4-8739-4d48-977c-5934be5c4295","ios":"levelo://app?vid=6fdac0e4-8739-4d48-977c-5934be5c4295"},"vehicle_type_id":"4","last_reported":1717700830,"current_range_meters":1600,"station_id":"ce4bgt12rcd13ifvqce0","pricing_plan_id":"cebpf4jnsgd1na2vs0mg"},{"bike_id":"44909558-9a5c-41b5-858f-7d4cc8905f6a","system_id":"levelo_inurba_marseille","lat":43.324771,"lon":5.36557,"is_reserved":false,"is_disabled":false,"rental_uris":{"android":"levelo://app?vid=44909558-9a5c-41b5-858f-7d4cc8905f6a","ios":"levelo://app?vid=44909558-9a5c-41b5-858f-7d4cc8905f6a"},"vehicle_type_id":"4","last_reported":1717700830,"current_range_meters":400,"station_id":"ce4bhs12rcd13ifvqhvg","pricing_plan_id":"cebpf4jnsgd1na2vs0mg"},{"bike_id":"65ad21de-f647-490e-a53c-6bb3b2339424","system_id":"levelo_inurba_marseille","lat":43.324771,"lon":5.36557,"is_reserved":false,"is_disabled":false,"rental_uris":{"android":"levelo://app?vid=65ad21de-f647-490e-a53c-6bb3b2339424","ios":"levelo://app?vid=65ad21de-f647-490e-a53c-6bb3b2339424"},"vehicle_type_id":"4","last_reported":1717700830,"current_range_meters":0,"station_id":"ce4bhs12rcd13ifvqhvg","pricing_plan_id":"cebpf4jnsgd1na2vs0mg"},{"bike_id":"76961473-f1a9-4dff-8508-a15273fee973","system_id":"levelo_inurba_marseille","lat":43.310804,"lon":5.38359,"is_reserved":false,"is_disabled":false,"rental_uris":{"android":"levelo://app?vid=76961473-f1a9-4dff-8508-a15273fee973","ios":"levelo://app?vid=76961473-f1a9-4dff-8508-a15273fee973"},"vehicle_type_id":"4","last_reported":1717700830,"current_range_meters":0,"station_id":"ce4bgv92rcd13ifvqcr0","pricing_plan_id":"cebpf4jnsgd1na2vs0mg"},{"bike_id":"aa2c3c04-bd62-4a85-b200-24eb1acd8ff8","system_id":"levelo_inurba_marseille","lat":43.302784,"lon":5.377158,"is_reserved":false,"is_disabled":false,"rental_uris":{"android":"levelo://app?vid=aa2c3c04-bd62-4a85-b200-24eb1acd8ff8","ios":"levelo://app?vid=aa2c3c04-bd62-4a85-b200-24eb1acd8ff8"},"vehicle_type_id":"4","last_reported":1717700830,"current_range_meters":15600,"station_id":"ce4bguh2rcd13ifvqcj0","pricing_plan_id":"cebpf4jnsgd1na2vs0mg"},{"bike_id":"cb0a5826-f280-401d-975d-79ffb6fcaeeb","system_id":"levelo_inurba_marseille","lat":43.302784,"lon":5.377158,"is_reserved":false,"is_disabled":false,"rental_uris":{"android":"levelo://app?vid=cb0a5826-f280-401d-975d-79ffb6fcaeeb","ios":"levelo://app?vid=cb0a5826-f280-401d-975d-79ffb6fcaeeb"},"vehicle_type_id":"4","last_reported":1717700830,"current_range_meters":28800,"station_id":"ce4bguh2rcd13ifvqcj0","pricing_plan_id":"cebpf4jnsgd1na2vs0mg"},{"bike_id":"ce342985-6360-47f4-a50e-ca756d667b26","system_id":"levelo_inurba_marseille","lat":43.307364,"lon":5.382315,"is_reserved":false,"is_disabled":false,"rental_uris":{"android":"levelo://app?vid=ce342985-6360-47f4-a50e-ca756d667b26","ios":"levelo://app?vid=ce342985-6360-47f4-a50e-ca756d667b26"},"vehicle_type_id":"4","last_reported":1717700830,"current_range_meters":17200,"station_id":"","pricing_plan_id":"cebpf4jnsgd1na2vs0mg"},{"bike_id":"705f383d-8f17-43c4-8276-19de0151307f","system_id":"levelo_inurba_marseille","lat":43.302784,"lon":5.377158,"is_reserved":false,"is_disabled":false,"rental_uris":{"android":"levelo://app?vid=705f383d-8f17-43c4-8276-19de0151307f","ios":"levelo://app?vid=705f383d-8f17-43c4-8276-19de0151307f"},"vehicle_type_id":"4","last_reported":1717700830,"current_range_meters":6400,"station_id":"ce4bguh2rcd13ifvqcj0","pricing_plan_id":"cebpf4jnsgd1na2vs0mg"},{"bike_id":"3d24971d-47a4-4dc3-a909-8e90c37bdbe2","system_id":"levelo_inurba_marseille","lat":43.319935,"lon":5.381699,"is_reserved":false,"is_disabled":false,"rental_uris":{"android":"levelo://app?vid=3d24971d-47a4-4dc3-a909-8e90c37bdbe2","ios":"levelo://app?vid=3d24971d-47a4-4dc3-a909-8e90c37bdbe2"},"vehicle_type_id":"4","last_reported":1717700830,"current_range_meters":0,"station_id":"ce4bhr12rcd13ifvqhpg","pricing_plan_id":"cebpf4jnsgd1na2vs0mg"},{"bike_id":"fc610334-13dd-4be0-b018-29fad57d43fd","system_id":"levelo_inurba_marseille","lat":43.31995,"lon":5.38154,"is_reserved":false,"is_disabled":false,"rental_uris":{"android":"levelo://app?vid=fc610334-13dd-4be0-b018-29fad57d43fd","ios":"levelo://app?vid=fc610334-13dd-4be0-b018-29fad57d43fd"},"vehicle_type_id":"4","last_reported":1717700830,"current_range_meters":0,"station_id":"ce4bhr12rcd13ifvqhpg","pricing_plan_id":"cebpf4jnsgd1na2vs0mg"},{"bike_id":"31f0ed2b-3977-425f-90e9-c0d82f0c3433","system_id":"levelo_inurba_marseille","lat":43.319935,"lon":5.381699,"is_reserved":false,"is_disabled":false,"rental_uris":{"android":"levelo://app?vid=31f0ed2b-3977-425f-90e9-c0d82f0c3433","ios":"levelo://app?vid=31f0ed2b-3977-425f-90e9-c0d82f0c3433"},"vehicle_type_id":"4","last_reported":1717700830,"current_range_meters":16400,"station_id":"ce4bhr12rcd13ifvqhpg","pricing_plan_id":"cebpf4jnsgd1na2vs0mg"},{"bike_id":"0848dcff-23b4-4efb-88f8-11b72a57e153","system_id":"levelo_inurba_marseille","lat":43.319935,"lon":5.381699,"is_reserved":false,"is_disabled":false,"rental_uris":{"android":"levelo://app?vid=0848dcff-23b4-4efb-88f8-11b72a57e153","ios":"levelo://app?vid=0848dcff-23b4-4efb-88f8-11b72a57e153"},"vehicle_type_id":"4","last_reported":1717700830,"current_range_meters":8400,"station_id":"ce4bhr12rcd13ifvqhpg","pricing_plan_id":"cebpf4jnsgd1na2vs0mg"},{"bike_id":"3c25b725-16e7-47e2-8053-ffd319515850","system_id":"levelo_inurba_marseille","lat":43.319935,"lon":5.381699,"is_reserved":false,"is_disabled":false,"rental_uris":{"android":"levelo://app?vid=3c25b725-16e7-47e2-8053-ffd319515850","ios":"levelo://app?vid=3c25b725-16e7-47e2-8053-ffd319515850"},"vehicle_type_id":"4","last_reported":1717700830,"current_range_meters":14400,"station_id":"ce4bhr12rcd13ifvqhpg","pricing_plan_id":"cebpf4jnsgd1na2vs0mg"},{"bike_id":"ea55f068-be11-4fd9-9446-8418ce713c13","system_id":"levelo_inurba_marseille","lat":43.319935,"lon":5.381699,"is_reserved":false,"is_disabled":false,"rental_uris":{"android":"levelo://app?vid=ea55f068-be11-4fd9-9446-8418ce713c13","ios":"levelo://app?vid=ea55f068-be11-4fd9-9446-8418ce713c13"},"vehicle_type_id":"4","last_reported":1717700830,"current_range_meters":4800,"station_id":"ce4bhr12rcd13ifvqhpg","pricing_plan_id":"cebpf4jnsgd1na2vs0mg"},{"bike_id":"8f447597-cfa2-49b2-a791-04777bad3c85","system_id":"levelo_inurba_marseille","lat":43.31362,"lon":5.38495,"is_reserved":false,"is_disabled":false,"rental_uris":{"android":"levelo://app?vid=8f447597-cfa2-49b2-a791-04777bad3c85","ios":"levelo://app?vid=8f447597-cfa2-49b2-a791-04777bad3c85"},"vehicle_type_id":"4","last_reported":1717700830,"current_range_meters":0,"station_id":"ce4bgt92rcd13ifvqcf0","pricing_plan_id":"cebpf4jnsgd1na2vs0mg"},{"bike_id":"294693c1-cba8-4278-8b1b-7d85e7ebac18","system_id":"levelo_inurba_marseille","lat":43.31368,"lon":5.38497,"is_reserved":false,"is_disabled":false,"rental_uris":{"android":"levelo://app?vid=294693c1-cba8-4278-8b1b-7d85e7ebac18","ios":"levelo://app?vid=294693c1-cba8-4278-8b1b-7d85e7ebac18"},"vehicle_type_id":"4","last_reported":1717700830,"current_range_meters":0,"station_id":"ce4bgt92rcd13ifvqcf0","pricing_plan_id":"cebpf4jnsgd1na2vs0mg"},{"bike_id":"e34baa4c-1f39-4b42-b3de-f50a71be8ee2","system_id":"levelo_inurba_marseille","lat":43.29944,"lon":5.36558,"is_reserved":false,"is_disabled":false,"rental_uris":{"android":"levelo://app?vid=e34baa4c-1f39-4b42-b3de-f50a71be8ee2","ios":"levelo://app?vid=e34baa4c-1f39-4b42-b3de-f50a71be8ee2"},"vehicle_type_id":"4","last_reported":1717700830,"current_range_meters":5600,"station_id":"ce4bgm92rcd13ifvqbr0","pricing_plan_id":"cebpf4jnsgd1na2vs0mg"},{"bike_id":"52055aa0-d5d1-4bc2-ab1b-218913f1289f","system_id":"levelo_inurba_marseille","lat":43.29942,"lon":5.36567,"is_reserved":false,"is_disabled":false,"rental_uris":{"android":"levelo://app?vid=52055aa0-d5d1-4bc2-ab1b-218913f1289f","ios":"levelo://app?vid=52055aa0-d5d1-4bc2-ab1b-218913f1289f"},"vehicle_type_id":"4","last_reported":1717700830,"current_range_meters":26400,"station_id":"ce4bgm92rcd13ifvqbr0","pricing_plan_id":"cebpf4jnsgd1na2vs0mg"},{"bike_id":"f399c97b-c67c-407e-bf71-21c3c3a2ac8e","system_id":"levelo_inurba_marseille","lat":43.299222,"lon":5.365554,"is_reserved":false,"is_disabled":false,"rental_uris":{"android":"levelo://app?vid=f399c97b-c67c-407e-bf71-21c3c3a2ac8e","ios":"levelo://app?vid=f399c97b-c67c-407e-bf71-21c3c3a2ac8e"},"vehicle_type_id":"4","last_reported":1717700830,"current_range_meters":29200,"station_id":"ce4bgm92rcd13ifvqbr0","pricing_plan_id":"cebpf4jnsgd1na2vs0mg"},{"bike_id":"106f4a70-6c62-4483-8265-fdd3024de74d","system_id":"levelo_inurba_marseille","lat":43.299222,"lon":5.365554,"is_reserved":false,"is_disabled":false,"rental_uris":{"android":"levelo://app?vid=106f4a70-6c62-4483-8265-fdd3024de74d","ios":"levelo://app?vid=106f4a70-6c62-4483-8265-fdd3024de74d"},"vehicle_type_id":"4","last_reported":1717700830,"current_range_meters":0,"station_id":"ce4bgm92rcd13ifvqbr0","pricing_plan_id":"cebpf4jnsgd1na2vs0mg"},{"bike_id":"af391370-bb97-4e90-adfd-6ae3ab600a0f","system_id":"levelo_inurba_marseille","lat":43.29852,"lon":5.36285,"is_reserved":false,"is_disabled":false,"rental_uris":{"android":"levelo://app?vid=af391370-bb97-4e90-adfd-6ae3ab600a0f","ios":"levelo://app?vid=af391370-bb97-4e90-adfd-6ae3ab600a0f"},"vehicle_type_id":"4","last_reported":1717700830,"current_range_meters":31200,"station_id":"ce4bgpp2rcd13ifvqc3g","pricing_plan_id":"cebpf4jnsgd1na2vs0mg"},{"bike_id":"2511323b-2761-4172-ad8b-fd67da3828a8","system_id":"levelo_inurba_marseille","lat":43.298433,"lon":5.362774,"is_reserved":false,"is_disabled":false,"rental_uris":{"android":"levelo://app?vid=2511323b-2761-4172-ad8b-fd67da3828a8","ios":"levelo://app?vid=2511323b-2761-4172-ad8b-fd67da3828a8"},"vehicle_type_id":"4","last_reported":1717700830,"current_range_meters":25200,"station_id":"ce4bgpp2rcd13ifvqc3g","pricing_plan_id":"cebpf4jnsgd1na2vs0mg"},{"bike_id":"0c9ea29d-1ffe-4bb8-a0ed-ff4f0490afe7","system_id":"levelo_inurba_marseille","lat":43.298433,"lon":5.362774,"is_reserved":false,"is_disabled":false,"rental_uris":{"android":"levelo://app?vid=0c9ea29d-1ffe-4bb8-a0ed-ff4f0490afe7","ios":"levelo://app?vid=0c9ea29d-1ffe-4bb8-a0ed-ff4f0490afe7"},"vehicle_type_id":"4","last_reported":1717700830,"current_range_meters":5600,"station_id":"ce4bgpp2rcd13ifvqc3g","pricing_plan_id":"cebpf4jnsgd1na2vs0mg"},{"bike_id":"692c0cd8-2f04-4485-b448-5dc7f77786d8","system_id":"levelo_inurba_marseille","lat":43.299243,"lon":5.374807,"is_reserved":false,"is_disabled":false,"rental_uris":{"android":"levelo://app?vid=692c0cd8-2f04-4485-b448-5dc7f77786d8","ios":"levelo://app?vid=692c0cd8-2f04-4485-b448-5dc7f77786d8"},"vehicle_type_id":"4","last_reported":1717700830,"current_range_meters":3600,"station_id":"ce4bgjh2rcd13ifvqbg0","pricing_plan_id":"cebpf4jnsgd1na2vs0mg"},{"bike_id":"d05070e6-69d1-4259-a68e-d422b88c22d7","system_id":"levelo_inurba_marseille","lat":43.322872,"lon":5.382756,"is_reserved":false,"is_disabled":false,"rental_uris":{"android":"levelo://app?vid=d05070e6-69d1-4259-a68e-d422b88c22d7","ios":"levelo://app?vid=d05070e6-69d1-4259-a68e-d422b88c22d7"},"vehicle_type_id":"4","last_reported":1717700830,"current_range_meters":25600,"station_id":"ce4bhr12rcd13ifvqhqg","pricing_plan_id":"cebpf4jnsgd1na2vs0mg"},{"bike_id":"5976f5f3-c901-439f-8d9e-7563c070b285","system_id":"levelo_inurba_marseille","lat":43.31172,"lon":5.38722,"is_reserved":false,"is_disabled":false,"rental_uris":{"android":"levelo://app?vid=5976f5f3-c901-439f-8d9e-7563c070b285","ios":"levelo://app?vid=5976f5f3-c901-439f-8d9e-7563c070b285"},"vehicle_type_id":"4","last_reported":1717700830,"current_range_meters":0,"station_id":"ce4bgv12rcd13ifvqcp0","pricing_plan_id":"cebpf4jnsgd1na2vs0mg"},{"bike_id":"ee1604b4-d009-4b0c-a753-584b58847e9a","system_id":"levelo_inurba_marseille","lat":43.322872,"lon":5.382756,"is_reserved":false,"is_disabled":false,"rental_uris":{"android":"levelo://app?vid=ee1604b4-d009-4b0c-a753-584b58847e9a","ios":"levelo://app?vid=ee1604b4-d009-4b0c-a753-584b58847e9a"},"vehicle_type_id":"4","last_reported":1717700830,"current_range_meters":10000,"station_id":"ce4bhr12rcd13ifvqhqg","pricing_plan_id":"cebpf4jnsgd1na2vs0mg"},{"bike_id":"0ae77652-e2c1-4014-b2b2-911393a203b3","system_id":"levelo_inurba_marseille","lat":43.322872,"lon":5.382756,"is_reserved":false,"is_disabled":false,"rental_uris":{"android":"levelo://app?vid=0ae77652-e2c1-4014-b2b2-911393a203b3","ios":"levelo://app?vid=0ae77652-e2c1-4014-b2b2-911393a203b3"},"vehicle_type_id":"4","last_reported":1717700830,"current_range_meters":12000,"station_id":"ce4bhr12rcd13ifvqhqg","pricing_plan_id":"cebpf4jnsgd1na2vs0mg"},{"bike_id":"fbac4e32-df3e-47a6-906f-f55b105eb4c7","system_id":"levelo_inurba_marseille","lat":43.32286,"lon":5.38269,"is_reserved":false,"is_disabled":false,"rental_uris":{"android":"levelo://app?vid=fbac4e32-df3e-47a6-906f-f55b105eb4c7","ios":"levelo://app?vid=fbac4e32-df3e-47a6-906f-f55b105eb4c7"},"vehicle_type_id":"4","last_reported":1717700830,"current_range_meters":0,"station_id":"ce4bhr12rcd13ifvqhqg","pricing_plan_id":"cebpf4jnsgd1na2vs0mg"},{"bike_id":"491ac8bd-89a4-4aa1-8d8a-708e6fdf50e8","system_id":"levelo_inurba_marseille","lat":43.322872,"lon":5.382756,"is_reserved":false,"is_disabled":false,"rental_uris":{"android":"levelo://app?vid=491ac8bd-89a4-4aa1-8d8a-708e6fdf50e8","ios":"levelo://app?vid=491ac8bd-89a4-4aa1-8d8a-708e6fdf50e8"},"vehicle_type_id":"4","last_reported":1717700830,"current_range_meters":16000,"station_id":"ce4bhr12rcd13ifvqhqg","pricing_plan_id":"cebpf4jnsgd1na2vs0mg"},{"bike_id":"e26d70f7-c70c-4cf6-9e3c-5c7c1da10ce3","system_id":"levelo_inurba_marseille","lat":43.322872,"lon":5.382756,"is_reserved":false,"is_disabled":false,"rental_uris":{"android":"levelo://app?vid=e26d70f7-c70c-4cf6-9e3c-5c7c1da10ce3","ios":"levelo://app?vid=e26d70f7-c70c-4cf6-9e3c-5c7c1da10ce3"},"vehicle_type_id":"4","last_reported":1717700830,"current_range_meters":22000,"station_id":"ce4bhr12rcd13ifvqhqg","pricing_plan_id":"cebpf4jnsgd1na2vs0mg"},{"bike_id":"b9838a4b-5a6f-4426-b39a-af58c9322d21","system_id":"levelo_inurba_marseille","lat":43.322872,"lon":5.382756,"is_reserved":false,"is_disabled":false,"rental_uris":{"android":"levelo://app?vid=b9838a4b-5a6f-4426-b39a-af58c9322d21","ios":"levelo://app?vid=b9838a4b-5a6f-4426-b39a-af58c9322d21"},"vehicle_type_id":"4","last_reported":1717700830,"current_range_meters":9200,"station_id":"ce4bhr12rcd13ifvqhqg","pricing_plan_id":"cebpf4jnsgd1na2vs0mg"},{"bike_id":"5ed747c0-f360-48f3-9169-3f31e5dfa1d7","system_id":"levelo_inurba_marseille","lat":43.29718,"lon":5.36615,"is_reserved":false,"is_disabled":false,"rental_uris":{"android":"levelo://app?vid=5ed747c0-f360-48f3-9169-3f31e5dfa1d7","ios":"levelo://app?vid=5ed747c0-f360-48f3-9169-3f31e5dfa1d7"},"vehicle_type_id":"4","last_reported":1717700830,"current_range_meters":31200,"station_id":"ce4bgn12rcd13ifvqbt0","pricing_plan_id":"cebpf4jnsgd1na2vs0mg"},{"bike_id":"03479ab0-6246-4089-80d8-20680b96e1f1","system_id":"levelo_inurba_marseille","lat":43.297163,"lon":5.365866,"is_reserved":false,"is_disabled":false,"rental_uris":{"android":"levelo://app?vid=03479ab0-6246-4089-80d8-20680b96e1f1","ios":"levelo://app?vid=03479ab0-6246-4089-80d8-20680b96e1f1"},"vehicle_type_id":"4","last_reported":1717700830,"current_range_meters":4800,"station_id":"ce4bgn12rcd13ifvqbt0","pricing_plan_id":"cebpf4jnsgd1na2vs0mg"},{"bike_id":"33b67a3d-345f-4ca9-a4da-0300a7600c62","system_id":"levelo_inurba_marseille","lat":43.29714,"lon":5.36608,"is_reserved":false,"is_disabled":false,"rental_uris":{"android":"levelo://app?vid=33b67a3d-345f-4ca9-a4da-0300a7600c62","ios":"levelo://app?vid=33b67a3d-345f-4ca9-a4da-0300a7600c62"},"vehicle_type_id":"4","last_reported":1717700830,"current_range_meters":31200,"station_id":"ce4bgn12rcd13ifvqbt0","pricing_plan_id":"cebpf4jnsgd1na2vs0mg"},{"bike_id":"ef7477fc-6df2-4435-9607-7b11a849f13d","system_id":"levelo_inurba_marseille","lat":43.297163,"lon":5.365866,"is_reserved":false,"is_disabled":false,"rental_uris":{"android":"levelo://app?vid=ef7477fc-6df2-4435-9607-7b11a849f13d","ios":"levelo://app?vid=ef7477fc-6df2-4435-9607-7b11a849f13d"},"vehicle_type_id":"4","last_reported":1717700830,"current_range_meters":5600,"station_id":"ce4bgn12rcd13ifvqbt0","pricing_plan_id":"cebpf4jnsgd1na2vs0mg"},{"bike_id":"10b6482c-8657-4f7a-8acd-097cb91402bb","system_id":"levelo_inurba_marseille","lat":43.2968,"lon":5.37291,"is_reserved":false,"is_disabled":false,"rental_uris":{"android":"levelo://app?vid=10b6482c-8657-4f7a-8acd-097cb91402bb","ios":"levelo://app?vid=10b6482c-8657-4f7a-8acd-097cb91402bb"},"vehicle_type_id":"4","last_reported":1717700830,"current_range_meters":26800,"station_id":"ce4bgk12rcd13ifvqbj0","pricing_plan_id":"cebpf4jnsgd1na2vs0mg"},{"bike_id":"0ce47508-ddda-4a2d-bf26-bd59ba974675","system_id":"levelo_inurba_marseille","lat":43.299748,"lon":5.380828,"is_reserved":false,"is_disabled":false,"rental_uris":{"android":"levelo://app?vid=0ce47508-ddda-4a2d-bf26-bd59ba974675","ios":"levelo://app?vid=0ce47508-ddda-4a2d-bf26-bd59ba974675"},"vehicle_type_id":"4","last_reported":1717700830,"current_range_meters":6800,"station_id":"","pricing_plan_id":"cebpf4jnsgd1na2vs0mg"},{"bike_id":"68bd63a2-3900-4134-82e9-6c90616362f9","system_id":"levelo_inurba_marseille","lat":43.2968,"lon":5.37291,"is_reserved":false,"is_disabled":false,"rental_uris":{"android":"levelo://app?vid=68bd63a2-3900-4134-82e9-6c90616362f9","ios":"levelo://app?vid=68bd63a2-3900-4134-82e9-6c90616362f9"},"vehicle_type_id":"4","last_reported":1717700830,"current_range_meters":8400,"station_id":"ce4bgk12rcd13ifvqbj0","pricing_plan_id":"cebpf4jnsgd1na2vs0mg"},{"bike_id":"54d92b6b-a888-41c5-809e-d46522939e03","system_id":"levelo_inurba_marseille","lat":43.296129,"lon":5.370777,"is_reserved":false,"is_disabled":false,"rental_uris":{"android":"levelo://app?vid=54d92b6b-a888-41c5-809e-d46522939e03","ios":"levelo://app?vid=54d92b6b-a888-41c5-809e-d46522939e03"},"vehicle_type_id":"4","last_reported":1717700830,"current_range_meters":3200,"station_id":"ce4bgnh2rcd13ifvqc0g","pricing_plan_id":"cebpf4jnsgd1na2vs0mg"},{"bike_id":"9b57311f-5275-48f1-9483-7437c6c89dc0","system_id":"levelo_inurba_marseille","lat":43.296131,"lon":5.370791,"is_reserved":false,"is_disabled":false,"rental_uris":{"android":"levelo://app?vid=9b57311f-5275-48f1-9483-7437c6c89dc0","ios":"levelo://app?vid=9b57311f-5275-48f1-9483-7437c6c89dc0"},"vehicle_type_id":"4","last_reported":1717700830,"current_range_meters":400,"station_id":"ce4bgnh2rcd13ifvqc0g","pricing_plan_id":"cebpf4jnsgd1na2vs0mg"},{"bike_id":"3864725a-c98c-4bfb-bfc0-f6945edd0405","system_id":"levelo_inurba_marseille","lat":43.29573,"lon":5.367355,"is_reserved":false,"is_disabled":false,"rental_uris":{"android":"levelo://app?vid=3864725a-c98c-4bfb-bfc0-f6945edd0405","ios":"levelo://app?vid=3864725a-c98c-4bfb-bfc0-f6945edd0405"},"vehicle_type_id":"4","last_reported":1717700830,"current_range_meters":26800,"station_id":"ce4bgph2rcd13ifvqc2g","pricing_plan_id":"cebpf4jnsgd1na2vs0mg"},{"bike_id":"8dbba66b-b0f9-44dd-9d90-92ac6f2cddab","system_id":"levelo_inurba_marseille","lat":43.29573,"lon":5.367355,"is_reserved":false,"is_disabled":false,"rental_uris":{"android":"levelo://app?vid=8dbba66b-b0f9-44dd-9d90-92ac6f2cddab","ios":"levelo://app?vid=8dbba66b-b0f9-44dd-9d90-92ac6f2cddab"},"vehicle_type_id":"4","last_reported":1717700830,"current_range_meters":20400,"station_id":"ce4bgph2rcd13ifvqc2g","pricing_plan_id":"cebpf4jnsgd1na2vs0mg"},{"bike_id":"4cefcc2d-23b3-43b6-978e-0cd0d8550a26","system_id":"levelo_inurba_marseille","lat":43.29578,"lon":5.36739,"is_reserved":false,"is_disabled":false,"rental_uris":{"android":"levelo://app?vid=4cefcc2d-23b3-43b6-978e-0cd0d8550a26","ios":"levelo://app?vid=4cefcc2d-23b3-43b6-978e-0cd0d8550a26"},"vehicle_type_id":"4","last_reported":1717700830,"current_range_meters":0,"station_id":"ce4bgph2rcd13ifvqc2g","pricing_plan_id":"cebpf4jnsgd1na2vs0mg"},{"bike_id":"0630808b-b6d9-4138-8f3d-e0a6375eb3c1","system_id":"levelo_inurba_marseille","lat":43.32174,"lon":5.38669,"is_reserved":false,"is_disabled":false,"rental_uris":{"android":"levelo://app?vid=0630808b-b6d9-4138-8f3d-e0a6375eb3c1","ios":"levelo://app?vid=0630808b-b6d9-4138-8f3d-e0a6375eb3c1"},"vehicle_type_id":"4","last_reported":1717700830,"current_range_meters":6800,"station_id":"","pricing_plan_id":"cebpf4jnsgd1na2vs0mg"},{"bike_id":"c8752b24-85c6-493b-9054-bc561259de07","system_id":"levelo_inurba_marseille","lat":43.296935,"lon":5.376544,"is_reserved":false,"is_disabled":false,"rental_uris":{"android":"levelo://app?vid=c8752b24-85c6-493b-9054-bc561259de07","ios":"levelo://app?vid=c8752b24-85c6-493b-9054-bc561259de07"},"vehicle_type_id":"4","last_reported":1717700830,"current_range_meters":22000,"station_id":"ce4bgkh2rcd13ifvqbl0","pricing_plan_id":"cebpf4jnsgd1na2vs0mg"},{"bike_id":"4e647587-ca6b-4d78-9522-c879fe9a4202","system_id":"levelo_inurba_marseille","lat":43.309459,"lon":5.390265,"is_reserved":false,"is_disabled":false,"rental_uris":{"android":"levelo://app?vid=4e647587-ca6b-4d78-9522-c879fe9a4202","ios":"levelo://app?vid=4e647587-ca6b-4d78-9522-c879fe9a4202"},"vehicle_type_id":"4","last_reported":1717700830,"current_range_meters":0,"station_id":"ce4bgi12rcd13ifvqb70","pricing_plan_id":"cebpf4jnsgd1na2vs0mg"},{"bike_id":"2a406b64-0bfb-474a-9b4a-858b3388125a","system_id":"levelo_inurba_marseille","lat":43.296921,"lon":5.376579,"is_reserved":false,"is_disabled":false,"rental_uris":{"android":"levelo://app?vid=2a406b64-0bfb-474a-9b4a-858b3388125a","ios":"levelo://app?vid=2a406b64-0bfb-474a-9b4a-858b3388125a"},"vehicle_type_id":"4","last_reported":1717700830,"current_range_meters":0,"station_id":"ce4bgkh2rcd13ifvqbl0","pricing_plan_id":"cebpf4jnsgd1na2vs0mg"},{"bike_id":"0c7b9fe1-1b35-471a-99a7-ec82edaa8d3c","system_id":"levelo_inurba_marseille","lat":43.30949,"lon":5.39033,"is_reserved":false,"is_disabled":false,"rental_uris":{"android":"levelo://app?vid=0c7b9fe1-1b35-471a-99a7-ec82edaa8d3c","ios":"levelo://app?vid=0c7b9fe1-1b35-471a-99a7-ec82edaa8d3c"},"vehicle_type_id":"4","last_reported":1717700830,"current_range_meters":1200,"station_id":"ce4bgup2rcd13ifvqco0","pricing_plan_id":"cebpf4jnsgd1na2vs0mg"},{"bike_id":"23a5dbe9-abce-4c4c-91a8-ff65705580cd","system_id":"levelo_inurba_marseille","lat":43.309589,"lon":5.390258,"is_reserved":false,"is_disabled":false,"rental_uris":{"android":"levelo://app?vid=23a5dbe9-abce-4c4c-91a8-ff65705580cd","ios":"levelo://app?vid=23a5dbe9-abce-4c4c-91a8-ff65705580cd"},"vehicle_type_id":"4","last_reported":1717700830,"current_range_meters":23200,"station_id":"ce4bgup2rcd13ifvqco0","pricing_plan_id":"cebpf4jnsgd1na2vs0mg"},{"bike_id":"1b986117-3fe5-433b-8a3b-0af27119ef85","system_id":"levelo_inurba_marseille","lat":43.30972,"lon":5.39041,"is_reserved":false,"is_disabled":false,"rental_uris":{"android":"levelo://app?vid=1b986117-3fe5-433b-8a3b-0af27119ef85","ios":"levelo://app?vid=1b986117-3fe5-433b-8a3b-0af27119ef85"},"vehicle_type_id":"4","last_reported":1717700830,"current_range_meters":4400,"station_id":"ce4bgup2rcd13ifvqco0","pricing_plan_id":"cebpf4jnsgd1na2vs0mg"},{"bike_id":"134d6d7a-91bb-4daa-bafe-e762c54bb4dd","system_id":"levelo_inurba_marseille","lat":43.309473,"lon":5.39038,"is_reserved":false,"is_disabled":false,"rental_uris":{"android":"levelo://app?vid=134d6d7a-91bb-4daa-bafe-e762c54bb4dd","ios":"levelo://app?vid=134d6d7a-91bb-4daa-bafe-e762c54bb4dd"},"vehicle_type_id":"4","last_reported":1717700830,"current_range_meters":3600,"station_id":"ce4bgup2rcd13ifvqco0","pricing_plan_id":"cebpf4jnsgd1na2vs0mg"},{"bike_id":"0292b781-ac3a-44bc-af20-a210f6ff22fa","system_id":"levelo_inurba_marseille","lat":43.30955,"lon":5.39041,"is_reserved":false,"is_disabled":false,"rental_uris":{"android":"levelo://app?vid=0292b781-ac3a-44bc-af20-a210f6ff22fa","ios":"levelo://app?vid=0292b781-ac3a-44bc-af20-a210f6ff22fa"},"vehicle_type_id":"4","last_reported":1717700830,"current_range_meters":4000,"station_id":"ce4bgup2rcd13ifvqco0","pricing_plan_id":"cebpf4jnsgd1na2vs0mg"},{"bike_id":"83e3d3ec-06c0-4c04-88ff-6bb16ae88331","system_id":"levelo_inurba_marseille","lat":43.30943,"lon":5.39038,"is_reserved":false,"is_disabled":false,"rental_uris":{"android":"levelo://app?vid=83e3d3ec-06c0-4c04-88ff-6bb16ae88331","ios":"levelo://app?vid=83e3d3ec-06c0-4c04-88ff-6bb16ae88331"},"vehicle_type_id":"4","last_reported":1717700830,"current_range_meters":18400,"station_id":"ce4bgup2rcd13ifvqco0","pricing_plan_id":"cebpf4jnsgd1na2vs0mg"},{"bike_id":"60695a05-5a54-47dd-b561-aa9f0316be7b","system_id":"levelo_inurba_marseille","lat":43.309455,"lon":5.39041,"is_reserved":false,"is_disabled":false,"rental_uris":{"android":"levelo://app?vid=60695a05-5a54-47dd-b561-aa9f0316be7b","ios":"levelo://app?vid=60695a05-5a54-47dd-b561-aa9f0316be7b"},"vehicle_type_id":"4","last_reported":1717700830,"current_range_meters":5200,"station_id":"ce4bgup2rcd13ifvqco0","pricing_plan_id":"cebpf4jnsgd1na2vs0mg"},{"bike_id":"12ef160c-8ab0-4c6a-8694-185a0a01cdea","system_id":"levelo_inurba_marseille","lat":43.317557,"lon":5.390173,"is_reserved":false,"is_disabled":false,"rental_uris":{"android":"levelo://app?vid=12ef160c-8ab0-4c6a-8694-185a0a01cdea","ios":"levelo://app?vid=12ef160c-8ab0-4c6a-8694-185a0a01cdea"},"vehicle_type_id":"4","last_reported":1717700830,"current_range_meters":3600,"station_id":"ce4bhqp2rcd13ifvqhng","pricing_plan_id":"cebpf4jnsgd1na2vs0mg"},{"bike_id":"5b07175b-c8c5-4edb-901d-d8f002f476e0","system_id":"levelo_inurba_marseille","lat":43.317557,"lon":5.390173,"is_reserved":false,"is_disabled":false,"rental_uris":{"android":"levelo://app?vid=5b07175b-c8c5-4edb-901d-d8f002f476e0","ios":"levelo://app?vid=5b07175b-c8c5-4edb-901d-d8f002f476e0"},"vehicle_type_id":"4","last_reported":1717700830,"current_range_meters":23600,"station_id":"ce4bhqp2rcd13ifvqhng","pricing_plan_id":"cebpf4jnsgd1na2vs0mg"},{"bike_id":"27b5a94b-0bd4-408b-accc-51f3818c5d6b","system_id":"levelo_inurba_marseille","lat":43.317557,"lon":5.390173,"is_reserved":false,"is_disabled":false,"rental_uris":{"android":"levelo://app?vid=27b5a94b-0bd4-408b-accc-51f3818c5d6b","ios":"levelo://app?vid=27b5a94b-0bd4-408b-accc-51f3818c5d6b"},"vehicle_type_id":"4","last_reported":1717700830,"current_range_meters":29600,"station_id":"ce4bhqp2rcd13ifvqhng","pricing_plan_id":"cebpf4jnsgd1na2vs0mg"},{"bike_id":"6e49b86f-e63d-4798-aca5-b2e7625effeb","system_id":"levelo_inurba_marseille","lat":43.295748,"lon":5.37522,"is_reserved":false,"is_disabled":false,"rental_uris":{"android":"levelo://app?vid=6e49b86f-e63d-4798-aca5-b2e7625effeb","ios":"levelo://app?vid=6e49b86f-e63d-4798-aca5-b2e7625effeb"},"vehicle_type_id":"4","last_reported":1717700830,"current_range_meters":3600,"station_id":"ce4bgh92rcd13ifvqb50","pricing_plan_id":"cebpf4jnsgd1na2vs0mg"},{"bike_id":"8f8a3451-a350-4a83-bc0b-f913c6219dae","system_id":"levelo_inurba_marseille","lat":43.295748,"lon":5.37522,"is_reserved":false,"is_disabled":false,"rental_uris":{"android":"levelo://app?vid=8f8a3451-a350-4a83-bc0b-f913c6219dae","ios":"levelo://app?vid=8f8a3451-a350-4a83-bc0b-f913c6219dae"},"vehicle_type_id":"4","last_reported":1717700830,"current_range_meters":0,"station_id":"ce4bgh92rcd13ifvqb50","pricing_plan_id":"cebpf4jnsgd1na2vs0mg"},{"bike_id":"e6db4a67-fcc5-4736-8553-9223114c4276","system_id":"levelo_inurba_marseille","lat":43.304362,"lon":5.389023,"is_reserved":false,"is_disabled":false,"rental_uris":{"android":"levelo://app?vid=e6db4a67-fcc5-4736-8553-9223114c4276","ios":"levelo://app?vid=e6db4a67-fcc5-4736-8553-9223114c4276"},"vehicle_type_id":"4","last_reported":1717700830,"current_range_meters":17600,"station_id":"ce4bgk12rcd13ifvqbi0","pricing_plan_id":"cebpf4jnsgd1na2vs0mg"},{"bike_id":"e07a7f84-bc7e-4c0b-a831-a7c078fc7e8e","system_id":"levelo_inurba_marseille","lat":43.29478,"lon":5.36301,"is_reserved":false,"is_disabled":false,"rental_uris":{"android":"levelo://app?vid=e07a7f84-bc7e-4c0b-a831-a7c078fc7e8e","ios":"levelo://app?vid=e07a7f84-bc7e-4c0b-a831-a7c078fc7e8e"},"vehicle_type_id":"4","last_reported":1717700830,"current_range_meters":13200,"station_id":"","pricing_plan_id":"cebpf4jnsgd1na2vs0mg"},{"bike_id":"3f89caa4-14ba-48c9-8401-eb0380c3d814","system_id":"levelo_inurba_marseille","lat":43.299786,"lon":5.384842,"is_reserved":false,"is_disabled":false,"rental_uris":{"android":"levelo://app?vid=3f89caa4-14ba-48c9-8401-eb0380c3d814","ios":"levelo://app?vid=3f89caa4-14ba-48c9-8401-eb0380c3d814"},"vehicle_type_id":"4","last_reported":1717700830,"current_range_meters":25200,"station_id":"ce4bgj92rcd13ifvqbd0","pricing_plan_id":"cebpf4jnsgd1na2vs0mg"},{"bike_id":"d5bb11d5-8a87-47f5-9001-a155a12423da","system_id":"levelo_inurba_marseille","lat":43.295279,"lon":5.375048,"is_reserved":false,"is_disabled":false,"rental_uris":{"android":"levelo://app?vid=d5bb11d5-8a87-47f5-9001-a155a12423da","ios":"levelo://app?vid=d5bb11d5-8a87-47f5-9001-a155a12423da"},"vehicle_type_id":"4","last_reported":1717700830,"current_range_meters":15200,"station_id":"ce4bgkp2rcd13ifvqbmg","pricing_plan_id":"cebpf4jnsgd1na2vs0mg"},{"bike_id":"14c1826c-0efc-4e2b-a946-7d2930b64706","system_id":"levelo_inurba_marseille","lat":43.299629,"lon":5.384969,"is_reserved":false,"is_disabled":false,"rental_uris":{"android":"levelo://app?vid=14c1826c-0efc-4e2b-a946-7d2930b64706","ios":"levelo://app?vid=14c1826c-0efc-4e2b-a946-7d2930b64706"},"vehicle_type_id":"4","last_reported":1717700830,"current_range_meters":0,"station_id":"ce4bgj92rcd13ifvqbd0","pricing_plan_id":"cebpf4jnsgd1na2vs0mg"},{"bike_id":"aebe9839-6f06-499d-b098-7641b70cc18f","system_id":"levelo_inurba_marseille","lat":43.299717,"lon":5.384845,"is_reserved":false,"is_disabled":false,"rental_uris":{"android":"levelo://app?vid=aebe9839-6f06-499d-b098-7641b70cc18f","ios":"levelo://app?vid=aebe9839-6f06-499d-b098-7641b70cc18f"},"vehicle_type_id":"4","last_reported":1717700830,"current_range_meters":0,"station_id":"ce4bgj92rcd13ifvqbd0","pricing_plan_id":"cebpf4jnsgd1na2vs0mg"},{"bike_id":"b1b993a0-e5d4-4b41-8ea8-47c7520f1539","system_id":"levelo_inurba_marseille","lat":43.304278,"lon":5.388868,"is_reserved":false,"is_disabled":false,"rental_uris":{"android":"levelo://app?vid=b1b993a0-e5d4-4b41-8ea8-47c7520f1539","ios":"levelo://app?vid=b1b993a0-e5d4-4b41-8ea8-47c7520f1539"},"vehicle_type_id":"4","last_reported":1717700830,"current_range_meters":0,"station_id":"ce4bgk12rcd13ifvqbi0","pricing_plan_id":"cebpf4jnsgd1na2vs0mg"},{"bike_id":"57196caa-30e2-47c4-87fc-833c047663d2","system_id":"levelo_inurba_marseille","lat":43.299717,"lon":5.384845,"is_reserved":false,"is_disabled":false,"rental_uris":{"android":"levelo://app?vid=57196caa-30e2-47c4-87fc-833c047663d2","ios":"levelo://app?vid=57196caa-30e2-47c4-87fc-833c047663d2"},"vehicle_type_id":"4","last_reported":1717700830,"current_range_meters":26400,"station_id":"ce4bgj92rcd13ifvqbd0","pricing_plan_id":"cebpf4jnsgd1na2vs0mg"},{"bike_id":"30d2ea15-6c60-4f87-b9ea-8587723f2f36","system_id":"levelo_inurba_marseille","lat":43.2971,"lon":5.381187,"is_reserved":false,"is_disabled":false,"rental_uris":{"android":"levelo://app?vid=30d2ea15-6c60-4f87-b9ea-8587723f2f36","ios":"levelo://app?vid=30d2ea15-6c60-4f87-b9ea-8587723f2f36"},"vehicle_type_id":"4","last_reported":1717700830,"current_range_meters":18000,"station_id":"","pricing_plan_id":"cebpf4jnsgd1na2vs0mg"},{"bike_id":"19d342c7-2ea9-4025-9245-e07e87c4375f","system_id":"levelo_inurba_marseille","lat":43.29451,"lon":5.37456,"is_reserved":false,"is_disabled":false,"rental_uris":{"android":"levelo://app?vid=19d342c7-2ea9-4025-9245-e07e87c4375f","ios":"levelo://app?vid=19d342c7-2ea9-4025-9245-e07e87c4375f"},"vehicle_type_id":"4","last_reported":1717700830,"current_range_meters":0,"station_id":"","pricing_plan_id":"cebpf4jnsgd1na2vs0mg"},{"bike_id":"140bf91a-95f0-4072-93d7-54f0344ac2cb","system_id":"levelo_inurba_marseille","lat":43.29719,"lon":5.38238,"is_reserved":false,"is_disabled":false,"rental_uris":{"android":"levelo://app?vid=140bf91a-95f0-4072-93d7-54f0344ac2cb","ios":"levelo://app?vid=140bf91a-95f0-4072-93d7-54f0344ac2cb"},"vehicle_type_id":"4","last_reported":1717700830,"current_range_meters":13200,"station_id":"","pricing_plan_id":"cebpf4jnsgd1na2vs0mg"},{"bike_id":"ee7d499d-e01c-4f7d-a1c7-787315e8cfa1","system_id":"levelo_inurba_marseille","lat":43.3236,"lon":5.38879,"is_reserved":false,"is_disabled":false,"rental_uris":{"android":"levelo://app?vid=ee7d499d-e01c-4f7d-a1c7-787315e8cfa1","ios":"levelo://app?vid=ee7d499d-e01c-4f7d-a1c7-787315e8cfa1"},"vehicle_type_id":"4","last_reported":1717700830,"current_range_meters":0,"station_id":"ce4bhqp2rcd13ifvqhog","pricing_plan_id":"cebpf4jnsgd1na2vs0mg"},{"bike_id":"4259ce00-0c8c-412b-b5b5-c9542378cf41","system_id":"levelo_inurba_marseille","lat":43.32367,"lon":5.388836,"is_reserved":false,"is_disabled":false,"rental_uris":{"android":"levelo://app?vid=4259ce00-0c8c-412b-b5b5-c9542378cf41","ios":"levelo://app?vid=4259ce00-0c8c-412b-b5b5-c9542378cf41"},"vehicle_type_id":"4","last_reported":1717700830,"current_range_meters":13600,"station_id":"ce4bhqp2rcd13ifvqhog","pricing_plan_id":"cebpf4jnsgd1na2vs0mg"},{"bike_id":"845a1acf-efa2-4c37-95de-eeba409fc813","system_id":"levelo_inurba_marseille","lat":43.299707,"lon":5.384859,"is_reserved":false,"is_disabled":false,"rental_uris":{"android":"levelo://app?vid=845a1acf-efa2-4c37-95de-eeba409fc813","ios":"levelo://app?vid=845a1acf-efa2-4c37-95de-eeba409fc813"},"vehicle_type_id":"4","last_reported":1717700830,"current_range_meters":7200,"station_id":"ce4bgj92rcd13ifvqbd0","pricing_plan_id":"cebpf4jnsgd1na2vs0mg"},{"bike_id":"f14cf460-9b18-434b-9fdd-80d64136e2a6","system_id":"levelo_inurba_marseille","lat":43.29602,"lon":5.381084,"is_reserved":false,"is_disabled":false,"rental_uris":{"android":"levelo://app?vid=f14cf460-9b18-434b-9fdd-80d64136e2a6","ios":"levelo://app?vid=f14cf460-9b18-434b-9fdd-80d64136e2a6"},"vehicle_type_id":"4","last_reported":1717700830,"current_range_meters":13200,"station_id":"ce4bgl12rcd13ifvqbo0","pricing_plan_id":"cebpf4jnsgd1na2vs0mg"},{"bike_id":"bd3e4d52-d41f-4b80-b26a-41215721e29f","system_id":"levelo_inurba_marseille","lat":43.29293,"lon":5.36847,"is_reserved":false,"is_disabled":false,"rental_uris":{"android":"levelo://app?vid=bd3e4d52-d41f-4b80-b26a-41215721e29f","ios":"levelo://app?vid=bd3e4d52-d41f-4b80-b26a-41215721e29f"},"vehicle_type_id":"4","last_reported":1717700830,"current_range_meters":4000,"station_id":"ce4bhbp2rcd13ifvqesg","pricing_plan_id":"cebpf4jnsgd1na2vs0mg"},{"bike_id":"0b967c11-c7a6-4072-89b1-f5bdc9e80599","system_id":"levelo_inurba_marseille","lat":43.292749,"lon":5.368402,"is_reserved":false,"is_disabled":false,"rental_uris":{"android":"levelo://app?vid=0b967c11-c7a6-4072-89b1-f5bdc9e80599","ios":"levelo://app?vid=0b967c11-c7a6-4072-89b1-f5bdc9e80599"},"vehicle_type_id":"4","last_reported":1717700830,"current_range_meters":0,"station_id":"ce4bhbp2rcd13ifvqesg","pricing_plan_id":"cebpf4jnsgd1na2vs0mg"},{"bike_id":"90a43fba-d5ef-45b9-9856-c33f6111bd49","system_id":"levelo_inurba_marseille","lat":43.29282,"lon":5.36843,"is_reserved":false,"is_disabled":false,"rental_uris":{"android":"levelo://app?vid=90a43fba-d5ef-45b9-9856-c33f6111bd49","ios":"levelo://app?vid=90a43fba-d5ef-45b9-9856-c33f6111bd49"},"vehicle_type_id":"4","last_reported":1717700830,"current_range_meters":0,"station_id":"ce4bhbp2rcd13ifvqesg","pricing_plan_id":"cebpf4jnsgd1na2vs0mg"},{"bike_id":"12bde9c1-4a7d-4854-af4b-4a041c57b031","system_id":"levelo_inurba_marseille","lat":43.29279,"lon":5.36842,"is_reserved":false,"is_disabled":false,"rental_uris":{"android":"levelo://app?vid=12bde9c1-4a7d-4854-af4b-4a041c57b031","ios":"levelo://app?vid=12bde9c1-4a7d-4854-af4b-4a041c57b031"},"vehicle_type_id":"4","last_reported":1717700830,"current_range_meters":26000,"station_id":"ce4bhbp2rcd13ifvqesg","pricing_plan_id":"cebpf4jnsgd1na2vs0mg"},{"bike_id":"d2411002-a310-428a-9028-39c7e476c63b","system_id":"levelo_inurba_marseille","lat":43.292749,"lon":5.368402,"is_reserved":false,"is_disabled":false,"rental_uris":{"android":"levelo://app?vid=d2411002-a310-428a-9028-39c7e476c63b","ios":"levelo://app?vid=d2411002-a310-428a-9028-39c7e476c63b"},"vehicle_type_id":"4","last_reported":1717700830,"current_range_meters":0,"station_id":"ce4bhbp2rcd13ifvqesg","pricing_plan_id":"cebpf4jnsgd1na2vs0mg"},{"bike_id":"f205f855-a202-4e97-b2a7-1853808e1853","system_id":"levelo_inurba_marseille","lat":43.29277,"lon":5.36844,"is_reserved":false,"is_disabled":false,"rental_uris":{"android":"levelo://app?vid=f205f855-a202-4e97-b2a7-1853808e1853","ios":"levelo://app?vid=f205f855-a202-4e97-b2a7-1853808e1853"},"vehicle_type_id":"4","last_reported":1717700830,"current_range_meters":0,"station_id":"ce4bhbp2rcd13ifvqesg","pricing_plan_id":"cebpf4jnsgd1na2vs0mg"},{"bike_id":"ebea8132-9cfb-4aed-b5d1-463edeec377f","system_id":"levelo_inurba_marseille","lat":43.29271,"lon":5.36837,"is_reserved":false,"is_disabled":false,"rental_uris":{"android":"levelo://app?vid=ebea8132-9cfb-4aed-b5d1-463edeec377f","ios":"levelo://app?vid=ebea8132-9cfb-4aed-b5d1-463edeec377f"},"vehicle_type_id":"4","last_reported":1717700830,"current_range_meters":0,"station_id":"ce4bhbp2rcd13ifvqesg","pricing_plan_id":"cebpf4jnsgd1na2vs0mg"},{"bike_id":"fed41998-b170-4222-b0d1-cc4dac62d8b3","system_id":"levelo_inurba_marseille","lat":43.29308,"lon":5.37431,"is_reserved":false,"is_disabled":false,"rental_uris":{"android":"levelo://app?vid=fed41998-b170-4222-b0d1-cc4dac62d8b3","ios":"levelo://app?vid=fed41998-b170-4222-b0d1-cc4dac62d8b3"},"vehicle_type_id":"4","last_reported":1717700830,"current_range_meters":0,"station_id":"ce4bgi12rcd13ifvqb70","pricing_plan_id":"cebpf4jnsgd1na2vs0mg"},{"bike_id":"a85b55b0-045b-4141-bd4a-8ee0f3220198","system_id":"levelo_inurba_marseille","lat":43.29303,"lon":5.37457,"is_reserved":false,"is_disabled":false,"rental_uris":{"android":"levelo://app?vid=a85b55b0-045b-4141-bd4a-8ee0f3220198","ios":"levelo://app?vid=a85b55b0-045b-4141-bd4a-8ee0f3220198"},"vehicle_type_id":"4","last_reported":1717700830,"current_range_meters":21200,"station_id":"ce4bgi12rcd13ifvqb70","pricing_plan_id":"cebpf4jnsgd1na2vs0mg"},{"bike_id":"de93cc62-1471-4093-9c8f-9a67c6ff413a","system_id":"levelo_inurba_marseille","lat":43.302904,"lon":5.391665,"is_reserved":false,"is_disabled":false,"rental_uris":{"android":"levelo://app?vid=de93cc62-1471-4093-9c8f-9a67c6ff413a","ios":"levelo://app?vid=de93cc62-1471-4093-9c8f-9a67c6ff413a"},"vehicle_type_id":"4","last_reported":1717700830,"current_range_meters":16000,"station_id":"ce4bgkh2rcd13ifvqbk0","pricing_plan_id":"cebpf4jnsgd1na2vs0mg"},{"bike_id":"a9ad0c5c-4da0-4cfc-83e3-898fe2513b28","system_id":"levelo_inurba_marseille","lat":43.305994,"lon":5.393687,"is_reserved":false,"is_disabled":false,"rental_uris":{"android":"levelo://app?vid=a9ad0c5c-4da0-4cfc-83e3-898fe2513b28","ios":"levelo://app?vid=a9ad0c5c-4da0-4cfc-83e3-898fe2513b28"},"vehicle_type_id":"4","last_reported":1717700830,"current_range_meters":3200,"station_id":"ce4bh0p2rcd13ifvqd80","pricing_plan_id":"cebpf4jnsgd1na2vs0mg"},{"bike_id":"12045f28-152d-4b76-965b-f4a206856253","system_id":"levelo_inurba_marseille","lat":43.303002,"lon":5.392142,"is_reserved":false,"is_disabled":false,"rental_uris":{"android":"levelo://app?vid=12045f28-152d-4b76-965b-f4a206856253","ios":"levelo://app?vid=12045f28-152d-4b76-965b-f4a206856253"},"vehicle_type_id":"4","last_reported":1717700830,"current_range_meters":28800,"station_id":"ce4bgkh2rcd13ifvqbk0","pricing_plan_id":"cebpf4jnsgd1na2vs0mg"},{"bike_id":"8d6ba996-80e8-4dc1-9cbe-477afdb40bf2","system_id":"levelo_inurba_marseille","lat":43.302992,"lon":5.392136,"is_reserved":false,"is_disabled":false,"rental_uris":{"android":"levelo://app?vid=8d6ba996-80e8-4dc1-9cbe-477afdb40bf2","ios":"levelo://app?vid=8d6ba996-80e8-4dc1-9cbe-477afdb40bf2"},"vehicle_type_id":"4","last_reported":1717700830,"current_range_meters":0,"station_id":"ce4bgkh2rcd13ifvqbk0","pricing_plan_id":"cebpf4jnsgd1na2vs0mg"},{"bike_id":"11535a43-55e8-4ba4-9d80-b6a4a4aa87b1","system_id":"levelo_inurba_marseille","lat":43.302992,"lon":5.392136,"is_reserved":false,"is_disabled":false,"rental_uris":{"android":"levelo://app?vid=11535a43-55e8-4ba4-9d80-b6a4a4aa87b1","ios":"levelo://app?vid=11535a43-55e8-4ba4-9d80-b6a4a4aa87b1"},"vehicle_type_id":"4","last_reported":1717700830,"current_range_meters":6800,"station_id":"ce4bgkh2rcd13ifvqbk0","pricing_plan_id":"cebpf4jnsgd1na2vs0mg"},{"bike_id":"fd6805ba-4806-4f50-9576-9a8c7ffb3e2d","system_id":"levelo_inurba_marseille","lat":43.292311,"lon":5.360731,"is_reserved":false,"is_disabled":false,"rental_uris":{"android":"levelo://app?vid=fd6805ba-4806-4f50-9576-9a8c7ffb3e2d","ios":"levelo://app?vid=fd6805ba-4806-4f50-9576-9a8c7ffb3e2d"},"vehicle_type_id":"4","last_reported":1717700830,"current_range_meters":26400,"station_id":"ce4bhbh2rcd13ifvqeqg","pricing_plan_id":"cebpf4jnsgd1na2vs0mg"},{"bike_id":"d8ac03cf-6b35-47df-97d2-094c3071e37c","system_id":"levelo_inurba_marseille","lat":43.292311,"lon":5.360731,"is_reserved":false,"is_disabled":false,"rental_uris":{"android":"levelo://app?vid=d8ac03cf-6b35-47df-97d2-094c3071e37c","ios":"levelo://app?vid=d8ac03cf-6b35-47df-97d2-094c3071e37c"},"vehicle_type_id":"4","last_reported":1717700830,"current_range_meters":14400,"station_id":"ce4bhbh2rcd13ifvqeqg","pricing_plan_id":"cebpf4jnsgd1na2vs0mg"},{"bike_id":"33aa000b-6e65-42c9-84db-da9249080e80","system_id":"levelo_inurba_marseille","lat":43.298764,"lon":5.388973,"is_reserved":false,"is_disabled":false,"rental_uris":{"android":"levelo://app?vid=33aa000b-6e65-42c9-84db-da9249080e80","ios":"levelo://app?vid=33aa000b-6e65-42c9-84db-da9249080e80"},"vehicle_type_id":"4","last_reported":1717700830,"current_range_meters":18400,"station_id":"ce4bh392rcd13ifvqdl0","pricing_plan_id":"cebpf4jnsgd1na2vs0mg"},{"bike_id":"d59e43a7-4ae4-4b77-8da9-4e8e13e3f37e","system_id":"levelo_inurba_marseille","lat":43.292211,"lon":5.359919,"is_reserved":false,"is_disabled":false,"rental_uris":{"android":"levelo://app?vid=d59e43a7-4ae4-4b77-8da9-4e8e13e3f37e","ios":"levelo://app?vid=d59e43a7-4ae4-4b77-8da9-4e8e13e3f37e"},"vehicle_type_id":"4","last_reported":1717700830,"current_range_meters":0,"station_id":"","pricing_plan_id":"cebpf4jnsgd1na2vs0mg"},{"bike_id":"8cc5dcc1-1e2c-4444-a51e-cf4b071450f1","system_id":"levelo_inurba_marseille","lat":43.300863,"lon":5.39103,"is_reserved":false,"is_disabled":false,"rental_uris":{"android":"levelo://app?vid=8cc5dcc1-1e2c-4444-a51e-cf4b071450f1","ios":"levelo://app?vid=8cc5dcc1-1e2c-4444-a51e-cf4b071450f1"},"vehicle_type_id":"4","last_reported":1717700830,"current_range_meters":27600,"station_id":"ce4bh192rcd13ifvqdb0","pricing_plan_id":"cebpf4jnsgd1na2vs0mg"},{"bike_id":"ba1e7bd3-a3d4-4108-8068-a1475c43e376","system_id":"levelo_inurba_marseille","lat":43.298764,"lon":5.388973,"is_reserved":false,"is_disabled":false,"rental_uris":{"android":"levelo://app?vid=ba1e7bd3-a3d4-4108-8068-a1475c43e376","ios":"levelo://app?vid=ba1e7bd3-a3d4-4108-8068-a1475c43e376"},"vehicle_type_id":"4","last_reported":1717700830,"current_range_meters":9200,"station_id":"ce4bh392rcd13ifvqdl0","pricing_plan_id":"cebpf4jnsgd1na2vs0mg"},{"bike_id":"f8d4ba12-16ee-4144-84e5-24eb5abf4270","system_id":"levelo_inurba_marseille","lat":43.29316,"lon":5.378508,"is_reserved":false,"is_disabled":false,"rental_uris":{"android":"levelo://app?vid=f8d4ba12-16ee-4144-84e5-24eb5abf4270","ios":"levelo://app?vid=f8d4ba12-16ee-4144-84e5-24eb5abf4270"},"vehicle_type_id":"4","last_reported":1717700830,"current_range_meters":17600,"station_id":"","pricing_plan_id":"cebpf4jnsgd1na2vs0mg"},{"bike_id":"2f82bd08-bb71-40e2-a04c-c0745522cb51","system_id":"levelo_inurba_marseille","lat":43.292141,"lon":5.359382,"is_reserved":false,"is_disabled":false,"rental_uris":{"android":"levelo://app?vid=2f82bd08-bb71-40e2-a04c-c0745522cb51","ios":"levelo://app?vid=2f82bd08-bb71-40e2-a04c-c0745522cb51"},"vehicle_type_id":"4","last_reported":1717700830,"current_range_meters":18400,"station_id":"","pricing_plan_id":"cebpf4jnsgd1na2vs0mg"},{"bike_id":"1bba31a1-ee2b-431a-af2b-94f6108be8c0","system_id":"levelo_inurba_marseille","lat":43.298764,"lon":5.388973,"is_reserved":false,"is_disabled":false,"rental_uris":{"android":"levelo://app?vid=1bba31a1-ee2b-431a-af2b-94f6108be8c0","ios":"levelo://app?vid=1bba31a1-ee2b-431a-af2b-94f6108be8c0"},"vehicle_type_id":"4","last_reported":1717700830,"current_range_meters":4000,"station_id":"ce4bh392rcd13ifvqdl0","pricing_plan_id":"cebpf4jnsgd1na2vs0mg"},{"bike_id":"1f197469-09a9-4544-8a27-b30e00c82bb4","system_id":"levelo_inurba_marseille","lat":43.292005,"lon":5.357875,"is_reserved":false,"is_disabled":false,"rental_uris":{"android":"levelo://app?vid=1f197469-09a9-4544-8a27-b30e00c82bb4","ios":"levelo://app?vid=1f197469-09a9-4544-8a27-b30e00c82bb4"},"vehicle_type_id":"4","last_reported":1717700830,"current_range_meters":13600,"station_id":"ce4bhb12rcd13ifvqel0","pricing_plan_id":"cebpf4jnsgd1na2vs0mg"},{"bike_id":"7e6d142d-6e8e-4041-b097-ace273917964","system_id":"levelo_inurba_marseille","lat":43.292005,"lon":5.357875,"is_reserved":false,"is_disabled":false,"rental_uris":{"android":"levelo://app?vid=7e6d142d-6e8e-4041-b097-ace273917964","ios":"levelo://app?vid=7e6d142d-6e8e-4041-b097-ace273917964"},"vehicle_type_id":"4","last_reported":1717700830,"current_range_meters":30800,"station_id":"ce4bhb12rcd13ifvqel0","pricing_plan_id":"cebpf4jnsgd1na2vs0mg"},{"bike_id":"b23ef93e-5876-4ce6-8343-1ac08351fd56","system_id":"levelo_inurba_marseille","lat":43.309038,"lon":5.396546,"is_reserved":false,"is_disabled":false,"rental_uris":{"android":"levelo://app?vid=b23ef93e-5876-4ce6-8343-1ac08351fd56","ios":"levelo://app?vid=b23ef93e-5876-4ce6-8343-1ac08351fd56"},"vehicle_type_id":"4","last_reported":1717700830,"current_range_meters":3600,"station_id":"ce4bh012rcd13ifvqcv0","pricing_plan_id":"cebpf4jnsgd1na2vs0mg"},{"bike_id":"98c314a2-4a25-4452-a466-c2beab89d8fd","system_id":"levelo_inurba_marseille","lat":43.313291,"lon":5.396838,"is_reserved":false,"is_disabled":false,"rental_uris":{"android":"levelo://app?vid=98c314a2-4a25-4452-a466-c2beab89d8fd","ios":"levelo://app?vid=98c314a2-4a25-4452-a466-c2beab89d8fd"},"vehicle_type_id":"4","last_reported":1717700830,"current_range_meters":0,"station_id":"ce4bgvp2rcd13ifvqcu0","pricing_plan_id":"cebpf4jnsgd1na2vs0mg"},{"bike_id":"55b6bdc5-c802-48cc-b2c6-5ed4ef7b3e6f","system_id":"levelo_inurba_marseille","lat":43.31325,"lon":5.39688,"is_reserved":false,"is_disabled":false,"rental_uris":{"android":"levelo://app?vid=55b6bdc5-c802-48cc-b2c6-5ed4ef7b3e6f","ios":"levelo://app?vid=55b6bdc5-c802-48cc-b2c6-5ed4ef7b3e6f"},"vehicle_type_id":"4","last_reported":1717700830,"current_range_meters":0,"station_id":"ce4bgvp2rcd13ifvqcu0","pricing_plan_id":"cebpf4jnsgd1na2vs0mg"},{"bike_id":"69fad3a9-d534-4072-be42-bc97f6b23355","system_id":"levelo_inurba_marseille","lat":43.309038,"lon":5.396546,"is_reserved":false,"is_disabled":false,"rental_uris":{"android":"levelo://app?vid=69fad3a9-d534-4072-be42-bc97f6b23355","ios":"levelo://app?vid=69fad3a9-d534-4072-be42-bc97f6b23355"},"vehicle_type_id":"4","last_reported":1717700830,"current_range_meters":12400,"station_id":"ce4bh012rcd13ifvqcv0","pricing_plan_id":"cebpf4jnsgd1na2vs0mg"},{"bike_id":"10673254-4533-49da-82c8-ca4ca86b52bc","system_id":"levelo_inurba_marseille","lat":43.309038,"lon":5.396546,"is_reserved":false,"is_disabled":false,"rental_uris":{"android":"levelo://app?vid=10673254-4533-49da-82c8-ca4ca86b52bc","ios":"levelo://app?vid=10673254-4533-49da-82c8-ca4ca86b52bc"},"vehicle_type_id":"4","last_reported":1717700830,"current_range_meters":0,"station_id":"ce4bh012rcd13ifvqcv0","pricing_plan_id":"cebpf4jnsgd1na2vs0mg"},{"bike_id":"4d3c82a3-c6c6-4d5c-a61a-301f82f9bcdc","system_id":"levelo_inurba_marseille","lat":43.313291,"lon":5.396838,"is_reserved":false,"is_disabled":false,"rental_uris":{"android":"levelo://app?vid=4d3c82a3-c6c6-4d5c-a61a-301f82f9bcdc","ios":"levelo://app?vid=4d3c82a3-c6c6-4d5c-a61a-301f82f9bcdc"},"vehicle_type_id":"4","last_reported":1717700830,"current_range_meters":28000,"station_id":"ce4bgvp2rcd13ifvqcu0","pricing_plan_id":"cebpf4jnsgd1na2vs0mg"},{"bike_id":"144d072a-826e-4ee6-8a7f-db1b11d71436","system_id":"levelo_inurba_marseille","lat":43.309038,"lon":5.396546,"is_reserved":false,"is_disabled":false,"rental_uris":{"android":"levelo://app?vid=144d072a-826e-4ee6-8a7f-db1b11d71436","ios":"levelo://app?vid=144d072a-826e-4ee6-8a7f-db1b11d71436"},"vehicle_type_id":"4","last_reported":1717700830,"current_range_meters":1600,"station_id":"ce4bh012rcd13ifvqcv0","pricing_plan_id":"cebpf4jnsgd1na2vs0mg"},{"bike_id":"ee8a4fde-c749-4664-8a08-03c520cf84ef","system_id":"levelo_inurba_marseille","lat":43.31331,"lon":5.39698,"is_reserved":false,"is_disabled":false,"rental_uris":{"android":"levelo://app?vid=ee8a4fde-c749-4664-8a08-03c520cf84ef","ios":"levelo://app?vid=ee8a4fde-c749-4664-8a08-03c520cf84ef"},"vehicle_type_id":"4","last_reported":1717700830,"current_range_meters":0,"station_id":"ce4bgvp2rcd13ifvqcu0","pricing_plan_id":"cebpf4jnsgd1na2vs0mg"},{"bike_id":"12443e88-d14a-4561-bf75-51ced579aa65","system_id":"levelo_inurba_marseille","lat":43.309038,"lon":5.396546,"is_reserved":false,"is_disabled":false,"rental_uris":{"android":"levelo://app?vid=12443e88-d14a-4561-bf75-51ced579aa65","ios":"levelo://app?vid=12443e88-d14a-4561-bf75-51ced579aa65"},"vehicle_type_id":"4","last_reported":1717700830,"current_range_meters":0,"station_id":"ce4bh012rcd13ifvqcv0","pricing_plan_id":"cebpf4jnsgd1na2vs0mg"},{"bike_id":"623a6855-c437-4738-a8b5-465e5c896733","system_id":"levelo_inurba_marseille","lat":43.292005,"lon":5.357875,"is_reserved":false,"is_disabled":false,"rental_uris":{"android":"levelo://app?vid=623a6855-c437-4738-a8b5-465e5c896733","ios":"levelo://app?vid=623a6855-c437-4738-a8b5-465e5c896733"},"vehicle_type_id":"4","last_reported":1717700830,"current_range_meters":31200,"station_id":"ce4bhb12rcd13ifvqel0","pricing_plan_id":"cebpf4jnsgd1na2vs0mg"},{"bike_id":"bd35ac11-5a42-48e4-b724-982a709a87d7","system_id":"levelo_inurba_marseille","lat":43.309038,"lon":5.396546,"is_reserved":false,"is_disabled":false,"rental_uris":{"android":"levelo://app?vid=bd35ac11-5a42-48e4-b724-982a709a87d7","ios":"levelo://app?vid=bd35ac11-5a42-48e4-b724-982a709a87d7"},"vehicle_type_id":"4","last_reported":1717700830,"current_range_meters":8800,"station_id":"ce4bh012rcd13ifvqcv0","pricing_plan_id":"cebpf4jnsgd1na2vs0mg"},{"bike_id":"e37b4e7f-08d9-400c-9d63-a89bfff84d30","system_id":"levelo_inurba_marseille","lat":43.29529,"lon":5.385581,"is_reserved":false,"is_disabled":false,"rental_uris":{"android":"levelo://app?vid=e37b4e7f-08d9-400c-9d63-a89bfff84d30","ios":"levelo://app?vid=e37b4e7f-08d9-400c-9d63-a89bfff84d30"},"vehicle_type_id":"4","last_reported":1717700830,"current_range_meters":11600,"station_id":"ce4bgih2rcd13ifvqba0","pricing_plan_id":"cebpf4jnsgd1na2vs0mg"},{"bike_id":"9cf16b47-125a-4b89-b97f-6003e79b3096","system_id":"levelo_inurba_marseille","lat":43.29529,"lon":5.385581,"is_reserved":false,"is_disabled":false,"rental_uris":{"android":"levelo://app?vid=9cf16b47-125a-4b89-b97f-6003e79b3096","ios":"levelo://app?vid=9cf16b47-125a-4b89-b97f-6003e79b3096"},"vehicle_type_id":"4","last_reported":1717700830,"current_range_meters":4400,"station_id":"ce4bgih2rcd13ifvqba0","pricing_plan_id":"cebpf4jnsgd1na2vs0mg"},{"bike_id":"09c5fd9a-d264-4a20-acc7-7ad5f230658d","system_id":"levelo_inurba_marseille","lat":43.29529,"lon":5.385581,"is_reserved":false,"is_disabled":false,"rental_uris":{"android":"levelo://app?vid=09c5fd9a-d264-4a20-acc7-7ad5f230658d","ios":"levelo://app?vid=09c5fd9a-d264-4a20-acc7-7ad5f230658d"},"vehicle_type_id":"4","last_reported":1717700830,"current_range_meters":5200,"station_id":"ce4bgih2rcd13ifvqba0","pricing_plan_id":"cebpf4jnsgd1na2vs0mg"},{"bike_id":"e40a89cf-131b-49bb-a3d6-8abca98ddade","system_id":"levelo_inurba_marseille","lat":43.290779,"lon":5.371482,"is_reserved":false,"is_disabled":false,"rental_uris":{"android":"levelo://app?vid=e40a89cf-131b-49bb-a3d6-8abca98ddade","ios":"levelo://app?vid=e40a89cf-131b-49bb-a3d6-8abca98ddade"},"vehicle_type_id":"4","last_reported":1717700830,"current_range_meters":800,"station_id":"ce4bh5p2rcd13ifvqe4g","pricing_plan_id":"cebpf4jnsgd1na2vs0mg"},{"bike_id":"d625db53-9907-446c-b84a-81265af27ba1","system_id":"levelo_inurba_marseille","lat":43.290779,"lon":5.371482,"is_reserved":false,"is_disabled":false,"rental_uris":{"android":"levelo://app?vid=d625db53-9907-446c-b84a-81265af27ba1","ios":"levelo://app?vid=d625db53-9907-446c-b84a-81265af27ba1"},"vehicle_type_id":"4","last_reported":1717700830,"current_range_meters":10000,"station_id":"ce4bh5p2rcd13ifvqe4g","pricing_plan_id":"cebpf4jnsgd1na2vs0mg"},{"bike_id":"9cea31fe-6dcd-4b69-a131-a4c454162583","system_id":"levelo_inurba_marseille","lat":43.302008,"lon":5.394694,"is_reserved":false,"is_disabled":false,"rental_uris":{"android":"levelo://app?vid=9cea31fe-6dcd-4b69-a131-a4c454162583","ios":"levelo://app?vid=9cea31fe-6dcd-4b69-a131-a4c454162583"},"vehicle_type_id":"4","last_reported":1717700830,"current_range_meters":31200,"station_id":"ce4bh0p2rcd13ifvqd70","pricing_plan_id":"cebpf4jnsgd1na2vs0mg"},{"bike_id":"3ee9ecda-d6ad-4aa2-b8aa-87440d8485e7","system_id":"levelo_inurba_marseille","lat":43.302008,"lon":5.394694,"is_reserved":false,"is_disabled":false,"rental_uris":{"android":"levelo://app?vid=3ee9ecda-d6ad-4aa2-b8aa-87440d8485e7","ios":"levelo://app?vid=3ee9ecda-d6ad-4aa2-b8aa-87440d8485e7"},"vehicle_type_id":"4","last_reported":1717700830,"current_range_meters":11200,"station_id":"ce4bh0p2rcd13ifvqd70","pricing_plan_id":"cebpf4jnsgd1na2vs0mg"},{"bike_id":"4272995b-da70-44fc-9b9b-bf76cbc8b350","system_id":"levelo_inurba_marseille","lat":43.294305,"lon":5.385918,"is_reserved":false,"is_disabled":false,"rental_uris":{"android":"levelo://app?vid=4272995b-da70-44fc-9b9b-bf76cbc8b350","ios":"levelo://app?vid=4272995b-da70-44fc-9b9b-bf76cbc8b350"},"vehicle_type_id":"4","last_reported":1717700830,"current_range_meters":0,"station_id":"ce4bh2h2rcd13ifvqdh0","pricing_plan_id":"cebpf4jnsgd1na2vs0mg"},{"bike_id":"5a18c29a-e9a4-4ad2-9366-79a3224b2353","system_id":"levelo_inurba_marseille","lat":43.290624,"lon":5.359245,"is_reserved":false,"is_disabled":false,"rental_uris":{"android":"levelo://app?vid=5a18c29a-e9a4-4ad2-9366-79a3224b2353","ios":"levelo://app?vid=5a18c29a-e9a4-4ad2-9366-79a3224b2353"},"vehicle_type_id":"4","last_reported":1717700830,"current_range_meters":25600,"station_id":"ce4bha92rcd13ifvqeg0","pricing_plan_id":"cebpf4jnsgd1na2vs0mg"},{"bike_id":"d691c448-6e7c-45de-8128-921b245b5cd1","system_id":"levelo_inurba_marseille","lat":43.2942,"lon":5.38619,"is_reserved":false,"is_disabled":false,"rental_uris":{"android":"levelo://app?vid=d691c448-6e7c-45de-8128-921b245b5cd1","ios":"levelo://app?vid=d691c448-6e7c-45de-8128-921b245b5cd1"},"vehicle_type_id":"4","last_reported":1717700830,"current_range_meters":31200,"station_id":"ce4bh2h2rcd13ifvqdh0","pricing_plan_id":"cebpf4jnsgd1na2vs0mg"},{"bike_id":"acf56520-ad8b-410c-81d4-8c7f745bb592","system_id":"levelo_inurba_marseille","lat":43.29422,"lon":5.38623,"is_reserved":false,"is_disabled":false,"rental_uris":{"android":"levelo://app?vid=acf56520-ad8b-410c-81d4-8c7f745bb592","ios":"levelo://app?vid=acf56520-ad8b-410c-81d4-8c7f745bb592"},"vehicle_type_id":"4","last_reported":1717700830,"current_range_meters":26000,"station_id":"ce4bh2h2rcd13ifvqdh0","pricing_plan_id":"cebpf4jnsgd1na2vs0mg"},{"bike_id":"6fd99b58-3e9c-4733-b1d2-664f4b12f7ac","system_id":"levelo_inurba_marseille","lat":43.2942,"lon":5.3862,"is_reserved":false,"is_disabled":false,"rental_uris":{"android":"levelo://app?vid=6fd99b58-3e9c-4733-b1d2-664f4b12f7ac","ios":"levelo://app?vid=6fd99b58-3e9c-4733-b1d2-664f4b12f7ac"},"vehicle_type_id":"4","last_reported":1717700830,"current_range_meters":19200,"station_id":"ce4bh2h2rcd13ifvqdh0","pricing_plan_id":"cebpf4jnsgd1na2vs0mg"},{"bike_id":"080f1dee-2a89-453b-a60e-031449fe7f0c","system_id":"levelo_inurba_marseille","lat":43.2942,"lon":5.38621,"is_reserved":false,"is_disabled":false,"rental_uris":{"android":"levelo://app?vid=080f1dee-2a89-453b-a60e-031449fe7f0c","ios":"levelo://app?vid=080f1dee-2a89-453b-a60e-031449fe7f0c"},"vehicle_type_id":"4","last_reported":1717700830,"current_range_meters":2000,"station_id":"ce4bh2h2rcd13ifvqdh0","pricing_plan_id":"cebpf4jnsgd1na2vs0mg"},{"bike_id":"15317e05-ca37-49bf-957f-63fa96a928f5","system_id":"levelo_inurba_marseille","lat":43.29419,"lon":5.38622,"is_reserved":false,"is_disabled":false,"rental_uris":{"android":"levelo://app?vid=15317e05-ca37-49bf-957f-63fa96a928f5","ios":"levelo://app?vid=15317e05-ca37-49bf-957f-63fa96a928f5"},"vehicle_type_id":"4","last_reported":1717700830,"current_range_meters":1600,"station_id":"ce4bh2h2rcd13ifvqdh0","pricing_plan_id":"cebpf4jnsgd1na2vs0mg"},{"bike_id":"6b575da8-1466-4451-9598-0b61c14ad3b4","system_id":"levelo_inurba_marseille","lat":43.29418,"lon":5.38623,"is_reserved":false,"is_disabled":false,"rental_uris":{"android":"levelo://app?vid=6b575da8-1466-4451-9598-0b61c14ad3b4","ios":"levelo://app?vid=6b575da8-1466-4451-9598-0b61c14ad3b4"},"vehicle_type_id":"4","last_reported":1717700830,"current_range_meters":17600,"station_id":"ce4bh2h2rcd13ifvqdh0","pricing_plan_id":"cebpf4jnsgd1na2vs0mg"},{"bike_id":"e2ae74a4-7bb2-44df-affd-ae654dccb908","system_id":"levelo_inurba_marseille","lat":43.29419,"lon":5.38625,"is_reserved":false,"is_disabled":false,"rental_uris":{"android":"levelo://app?vid=e2ae74a4-7bb2-44df-affd-ae654dccb908","ios":"levelo://app?vid=e2ae74a4-7bb2-44df-affd-ae654dccb908"},"vehicle_type_id":"4","last_reported":1717700830,"current_range_meters":3600,"station_id":"ce4bh2h2rcd13ifvqdh0","pricing_plan_id":"cebpf4jnsgd1na2vs0mg"},{"bike_id":"230c9ae6-c067-4c25-a2f7-b4618c66a5f2","system_id":"levelo_inurba_marseille","lat":43.29422,"lon":5.38631,"is_reserved":false,"is_disabled":false,"rental_uris":{"android":"levelo://app?vid=230c9ae6-c067-4c25-a2f7-b4618c66a5f2","ios":"levelo://app?vid=230c9ae6-c067-4c25-a2f7-b4618c66a5f2"},"vehicle_type_id":"4","last_reported":1717700830,"current_range_meters":0,"station_id":"ce4bh2h2rcd13ifvqdh0","pricing_plan_id":"cebpf4jnsgd1na2vs0mg"},{"bike_id":"4d1ca115-f78c-4630-90de-5ed16d87bfe3","system_id":"levelo_inurba_marseille","lat":43.29417,"lon":5.38623,"is_reserved":false,"is_disabled":false,"rental_uris":{"android":"levelo://app?vid=4d1ca115-f78c-4630-90de-5ed16d87bfe3","ios":"levelo://app?vid=4d1ca115-f78c-4630-90de-5ed16d87bfe3"},"vehicle_type_id":"4","last_reported":1717700830,"current_range_meters":12800,"station_id":"ce4bh2h2rcd13ifvqdh0","pricing_plan_id":"cebpf4jnsgd1na2vs0mg"},{"bike_id":"ca1ae21a-a56a-4e72-bbea-27c033050639","system_id":"levelo_inurba_marseille","lat":43.289468,"lon":5.363719,"is_reserved":false,"is_disabled":false,"rental_uris":{"android":"levelo://app?vid=ca1ae21a-a56a-4e72-bbea-27c033050639","ios":"levelo://app?vid=ca1ae21a-a56a-4e72-bbea-27c033050639"},"vehicle_type_id":"4","last_reported":1717700830,"current_range_meters":400,"station_id":"ce4bhc92rcd13ifvqetg","pricing_plan_id":"cebpf4jnsgd1na2vs0mg"},{"bike_id":"b9070903-661b-4b8d-85b9-0d7ba3809c49","system_id":"levelo_inurba_marseille","lat":43.29417,"lon":5.38627,"is_reserved":false,"is_disabled":false,"rental_uris":{"android":"levelo://app?vid=b9070903-661b-4b8d-85b9-0d7ba3809c49","ios":"levelo://app?vid=b9070903-661b-4b8d-85b9-0d7ba3809c49"},"vehicle_type_id":"4","last_reported":1717700830,"current_range_meters":31200,"station_id":"ce4bh2h2rcd13ifvqdh0","pricing_plan_id":"cebpf4jnsgd1na2vs0mg"},{"bike_id":"0cadf462-713f-402d-bd77-0ebbc8286a09","system_id":"levelo_inurba_marseille","lat":43.29414,"lon":5.38622,"is_reserved":false,"is_disabled":false,"rental_uris":{"android":"levelo://app?vid=0cadf462-713f-402d-bd77-0ebbc8286a09","ios":"levelo://app?vid=0cadf462-713f-402d-bd77-0ebbc8286a09"},"vehicle_type_id":"4","last_reported":1717700830,"current_range_meters":21600,"station_id":"ce4bh2h2rcd13ifvqdh0","pricing_plan_id":"cebpf4jnsgd1na2vs0mg"},{"bike_id":"918237d2-c06a-4b79-b76e-5fbe9429333a","system_id":"levelo_inurba_marseille","lat":43.294102,"lon":5.386162,"is_reserved":false,"is_disabled":false,"rental_uris":{"android":"levelo://app?vid=918237d2-c06a-4b79-b76e-5fbe9429333a","ios":"levelo://app?vid=918237d2-c06a-4b79-b76e-5fbe9429333a"},"vehicle_type_id":"4","last_reported":1717700830,"current_range_meters":31200,"station_id":"ce4bh2h2rcd13ifvqdh0","pricing_plan_id":"cebpf4jnsgd1na2vs0mg"},{"bike_id":"23f7d586-dbc2-48e8-b500-0e7921230d53","system_id":"levelo_inurba_marseille","lat":43.29431,"lon":5.38654,"is_reserved":false,"is_disabled":false,"rental_uris":{"android":"levelo://app?vid=23f7d586-dbc2-48e8-b500-0e7921230d53","ios":"levelo://app?vid=23f7d586-dbc2-48e8-b500-0e7921230d53"},"vehicle_type_id":"4","last_reported":1717700830,"current_range_meters":15200,"station_id":"","pricing_plan_id":"cebpf4jnsgd1na2vs0mg"},{"bike_id":"18b1cb55-7d04-48f6-b19b-34619074b0a5","system_id":"levelo_inurba_marseille","lat":43.290995,"lon":5.381361,"is_reserved":false,"is_disabled":false,"rental_uris":{"android":"levelo://app?vid=18b1cb55-7d04-48f6-b19b-34619074b0a5","ios":"levelo://app?vid=18b1cb55-7d04-48f6-b19b-34619074b0a5"},"vehicle_type_id":"4","last_reported":1717700830,"current_range_meters":11200,"station_id":"ce4bh512rcd13ifvqe2g","pricing_plan_id":"cebpf4jnsgd1na2vs0mg"},{"bike_id":"1fc687c4-b4c3-4fa3-994b-2acc2ecc5a33","system_id":"levelo_inurba_marseille","lat":43.290319,"lon":5.375732,"is_reserved":false,"is_disabled":false,"rental_uris":{"android":"levelo://app?vid=1fc687c4-b4c3-4fa3-994b-2acc2ecc5a33","ios":"levelo://app?vid=1fc687c4-b4c3-4fa3-994b-2acc2ecc5a33"},"vehicle_type_id":"4","last_reported":1717700830,"current_range_meters":28000,"station_id":"ce4bh692rcd13ifvqe90","pricing_plan_id":"cebpf4jnsgd1na2vs0mg"},{"bike_id":"5c8a8b89-37c8-476b-b97a-90edd49188b2","system_id":"levelo_inurba_marseille","lat":43.294162,"lon":5.386292,"is_reserved":false,"is_disabled":false,"rental_uris":{"android":"levelo://app?vid=5c8a8b89-37c8-476b-b97a-90edd49188b2","ios":"levelo://app?vid=5c8a8b89-37c8-476b-b97a-90edd49188b2"},"vehicle_type_id":"4","last_reported":1717700830,"current_range_meters":30800,"station_id":"ce4bh2h2rcd13ifvqdh0","pricing_plan_id":"cebpf4jnsgd1na2vs0mg"},{"bike_id":"c402639e-a543-4919-8c3a-4fa18ea35c7a","system_id":"levelo_inurba_marseille","lat":43.28941,"lon":5.36631,"is_reserved":false,"is_disabled":false,"rental_uris":{"android":"levelo://app?vid=c402639e-a543-4919-8c3a-4fa18ea35c7a","ios":"levelo://app?vid=c402639e-a543-4919-8c3a-4fa18ea35c7a"},"vehicle_type_id":"4","last_reported":1717700830,"current_range_meters":0,"station_id":"ce4bhap2rcd13ifvqek0","pricing_plan_id":"cebpf4jnsgd1na2vs0mg"},{"bike_id":"617e2ba3-3775-44ce-b325-102f3ca202bd","system_id":"levelo_inurba_marseille","lat":43.289184,"lon":5.366408,"is_reserved":false,"is_disabled":false,"rental_uris":{"android":"levelo://app?vid=617e2ba3-3775-44ce-b325-102f3ca202bd","ios":"levelo://app?vid=617e2ba3-3775-44ce-b325-102f3ca202bd"},"vehicle_type_id":"4","last_reported":1717700830,"current_range_meters":13600,"station_id":"ce4bhap2rcd13ifvqek0","pricing_plan_id":"cebpf4jnsgd1na2vs0mg"},{"bike_id":"a4ca4219-3a90-4a67-ac58-18db0fc19c19","system_id":"levelo_inurba_marseille","lat":43.289184,"lon":5.366408,"is_reserved":false,"is_disabled":false,"rental_uris":{"android":"levelo://app?vid=a4ca4219-3a90-4a67-ac58-18db0fc19c19","ios":"levelo://app?vid=a4ca4219-3a90-4a67-ac58-18db0fc19c19"},"vehicle_type_id":"4","last_reported":1717700830,"current_range_meters":2800,"station_id":"ce4bhap2rcd13ifvqek0","pricing_plan_id":"cebpf4jnsgd1na2vs0mg"},{"bike_id":"f9b789e3-5a4e-4ca8-9346-4e34ad019c9e","system_id":"levelo_inurba_marseille","lat":43.29418,"lon":5.38639,"is_reserved":false,"is_disabled":false,"rental_uris":{"android":"levelo://app?vid=f9b789e3-5a4e-4ca8-9346-4e34ad019c9e","ios":"levelo://app?vid=f9b789e3-5a4e-4ca8-9346-4e34ad019c9e"},"vehicle_type_id":"4","last_reported":1717700830,"current_range_meters":31200,"station_id":"ce4bh2h2rcd13ifvqdh0","pricing_plan_id":"cebpf4jnsgd1na2vs0mg"},{"bike_id":"6a518450-e02e-4b44-bf5b-2a16e708beca","system_id":"levelo_inurba_marseille","lat":43.289184,"lon":5.366408,"is_reserved":false,"is_disabled":false,"rental_uris":{"android":"levelo://app?vid=6a518450-e02e-4b44-bf5b-2a16e708beca","ios":"levelo://app?vid=6a518450-e02e-4b44-bf5b-2a16e708beca"},"vehicle_type_id":"4","last_reported":1717700830,"current_range_meters":0,"station_id":"ce4bhap2rcd13ifvqek0","pricing_plan_id":"cebpf4jnsgd1na2vs0mg"},{"bike_id":"91e32c33-5663-498a-a84e-6a814c503003","system_id":"levelo_inurba_marseille","lat":43.28937,"lon":5.36638,"is_reserved":false,"is_disabled":false,"rental_uris":{"android":"levelo://app?vid=91e32c33-5663-498a-a84e-6a814c503003","ios":"levelo://app?vid=91e32c33-5663-498a-a84e-6a814c503003"},"vehicle_type_id":"4","last_reported":1717700830,"current_range_meters":0,"station_id":"ce4bhap2rcd13ifvqek0","pricing_plan_id":"cebpf4jnsgd1na2vs0mg"},{"bike_id":"b9c789c6-b347-40b1-961c-31912b4b6892","system_id":"levelo_inurba_marseille","lat":43.289184,"lon":5.366408,"is_reserved":false,"is_disabled":false,"rental_uris":{"android":"levelo://app?vid=b9c789c6-b347-40b1-961c-31912b4b6892","ios":"levelo://app?vid=b9c789c6-b347-40b1-961c-31912b4b6892"},"vehicle_type_id":"4","last_reported":1717700830,"current_range_meters":11600,"station_id":"ce4bhap2rcd13ifvqek0","pricing_plan_id":"cebpf4jnsgd1na2vs0mg"},{"bike_id":"e4d0404f-46fb-4fce-af34-3f1ba2126c13","system_id":"levelo_inurba_marseille","lat":43.289468,"lon":5.363719,"is_reserved":false,"is_disabled":false,"rental_uris":{"android":"levelo://app?vid=e4d0404f-46fb-4fce-af34-3f1ba2126c13","ios":"levelo://app?vid=e4d0404f-46fb-4fce-af34-3f1ba2126c13"},"vehicle_type_id":"4","last_reported":1717700830,"current_range_meters":18400,"station_id":"ce4bhc92rcd13ifvqetg","pricing_plan_id":"cebpf4jnsgd1na2vs0mg"},{"bike_id":"3fe302e0-fc25-412a-b489-4b56351cc769","system_id":"levelo_inurba_marseille","lat":43.289184,"lon":5.366408,"is_reserved":false,"is_disabled":false,"rental_uris":{"android":"levelo://app?vid=3fe302e0-fc25-412a-b489-4b56351cc769","ios":"levelo://app?vid=3fe302e0-fc25-412a-b489-4b56351cc769"},"vehicle_type_id":"4","last_reported":1717700830,"current_range_meters":10000,"station_id":"ce4bhap2rcd13ifvqek0","pricing_plan_id":"cebpf4jnsgd1na2vs0mg"},{"bike_id":"1dfb018e-7a88-4208-9773-afc7a117c8f5","system_id":"levelo_inurba_marseille","lat":43.289328,"lon":5.36631,"is_reserved":false,"is_disabled":false,"rental_uris":{"android":"levelo://app?vid=1dfb018e-7a88-4208-9773-afc7a117c8f5","ios":"levelo://app?vid=1dfb018e-7a88-4208-9773-afc7a117c8f5"},"vehicle_type_id":"4","last_reported":1717700830,"current_range_meters":0,"station_id":"ce4bhap2rcd13ifvqek0","pricing_plan_id":"cebpf4jnsgd1na2vs0mg"},{"bike_id":"67372d97-5f26-443b-bfc4-87bc5fcd8e8b","system_id":"levelo_inurba_marseille","lat":43.294005,"lon":5.386247,"is_reserved":false,"is_disabled":false,"rental_uris":{"android":"levelo://app?vid=67372d97-5f26-443b-bfc4-87bc5fcd8e8b","ios":"levelo://app?vid=67372d97-5f26-443b-bfc4-87bc5fcd8e8b"},"vehicle_type_id":"4","last_reported":1717700830,"current_range_meters":28800,"station_id":"ce4bh2h2rcd13ifvqdh0","pricing_plan_id":"cebpf4jnsgd1na2vs0mg"},{"bike_id":"13007ce6-8965-43c6-859c-cecb79b2f42d","system_id":"levelo_inurba_marseille","lat":43.289468,"lon":5.363719,"is_reserved":false,"is_disabled":false,"rental_uris":{"android":"levelo://app?vid=13007ce6-8965-43c6-859c-cecb79b2f42d","ios":"levelo://app?vid=13007ce6-8965-43c6-859c-cecb79b2f42d"},"vehicle_type_id":"4","last_reported":1717700830,"current_range_meters":9600,"station_id":"ce4bhc92rcd13ifvqetg","pricing_plan_id":"cebpf4jnsgd1na2vs0mg"},{"bike_id":"cffc201d-7790-486d-afc6-9a1555dad034","system_id":"levelo_inurba_marseille","lat":43.29271,"lon":5.38421,"is_reserved":false,"is_disabled":false,"rental_uris":{"android":"levelo://app?vid=cffc201d-7790-486d-afc6-9a1555dad034","ios":"levelo://app?vid=cffc201d-7790-486d-afc6-9a1555dad034"},"vehicle_type_id":"4","last_reported":1717700830,"current_range_meters":0,"station_id":"ce4bh692rcd13ifvqea0","pricing_plan_id":"cebpf4jnsgd1na2vs0mg"},{"bike_id":"a4400646-411a-4965-af3a-934dc7360491","system_id":"levelo_inurba_marseille","lat":43.292642,"lon":5.384254,"is_reserved":false,"is_disabled":false,"rental_uris":{"android":"levelo://app?vid=a4400646-411a-4965-af3a-934dc7360491","ios":"levelo://app?vid=a4400646-411a-4965-af3a-934dc7360491"},"vehicle_type_id":"4","last_reported":1717700830,"current_range_meters":0,"station_id":"ce4bh692rcd13ifvqea0","pricing_plan_id":"cebpf4jnsgd1na2vs0mg"},{"bike_id":"4fb8acf6-4f66-4a82-b094-9c38ba047426","system_id":"levelo_inurba_marseille","lat":43.292642,"lon":5.384254,"is_reserved":false,"is_disabled":false,"rental_uris":{"android":"levelo://app?vid=4fb8acf6-4f66-4a82-b094-9c38ba047426","ios":"levelo://app?vid=4fb8acf6-4f66-4a82-b094-9c38ba047426"},"vehicle_type_id":"4","last_reported":1717700830,"current_range_meters":2800,"station_id":"ce4bh692rcd13ifvqea0","pricing_plan_id":"cebpf4jnsgd1na2vs0mg"},{"bike_id":"e2147445-80d7-482e-bbe6-22001511e30f","system_id":"levelo_inurba_marseille","lat":43.29573,"lon":5.367355,"is_reserved":false,"is_disabled":false,"rental_uris":{"android":"levelo://app?vid=e2147445-80d7-482e-bbe6-22001511e30f","ios":"levelo://app?vid=e2147445-80d7-482e-bbe6-22001511e30f"},"vehicle_type_id":"4","last_reported":1717700830,"current_range_meters":6800,"station_id":"ce4bgph2rcd13ifvqc2g","pricing_plan_id":"cebpf4jnsgd1na2vs0mg"},{"bike_id":"db43a9ca-ccea-4d6d-a6fd-50f17fca310a","system_id":"levelo_inurba_marseille","lat":43.292644,"lon":5.384257,"is_reserved":false,"is_disabled":false,"rental_uris":{"android":"levelo://app?vid=db43a9ca-ccea-4d6d-a6fd-50f17fca310a","ios":"levelo://app?vid=db43a9ca-ccea-4d6d-a6fd-50f17fca310a"},"vehicle_type_id":"4","last_reported":1717700830,"current_range_meters":28000,"station_id":"ce4bh692rcd13ifvqea0","pricing_plan_id":"cebpf4jnsgd1na2vs0mg"},{"bike_id":"392d241c-48dc-4ba4-b459-babd80b61e92","system_id":"levelo_inurba_marseille","lat":43.29266,"lon":5.38434,"is_reserved":false,"is_disabled":false,"rental_uris":{"android":"levelo://app?vid=392d241c-48dc-4ba4-b459-babd80b61e92","ios":"levelo://app?vid=392d241c-48dc-4ba4-b459-babd80b61e92"},"vehicle_type_id":"4","last_reported":1717700830,"current_range_meters":10400,"station_id":"ce4bh692rcd13ifvqea0","pricing_plan_id":"cebpf4jnsgd1na2vs0mg"},{"bike_id":"9c432982-deb9-4c5f-be17-17ac43ff1e9b","system_id":"levelo_inurba_marseille","lat":43.29263,"lon":5.38435,"is_reserved":false,"is_disabled":false,"rental_uris":{"android":"levelo://app?vid=9c432982-deb9-4c5f-be17-17ac43ff1e9b","ios":"levelo://app?vid=9c432982-deb9-4c5f-be17-17ac43ff1e9b"},"vehicle_type_id":"4","last_reported":1717700830,"current_range_meters":3600,"station_id":"ce4bh692rcd13ifvqea0","pricing_plan_id":"cebpf4jnsgd1na2vs0mg"},{"bike_id":"5d355a61-7f02-4503-9a30-963c6512d920","system_id":"levelo_inurba_marseille","lat":43.292642,"lon":5.384254,"is_reserved":false,"is_disabled":false,"rental_uris":{"android":"levelo://app?vid=5d355a61-7f02-4503-9a30-963c6512d920","ios":"levelo://app?vid=5d355a61-7f02-4503-9a30-963c6512d920"},"vehicle_type_id":"4","last_reported":1717700830,"current_range_meters":800,"station_id":"ce4bh692rcd13ifvqea0","pricing_plan_id":"cebpf4jnsgd1na2vs0mg"},{"bike_id":"922a6b0f-9f5c-447c-abcc-b85946e1a54f","system_id":"levelo_inurba_marseille","lat":43.304296,"lon":5.397513,"is_reserved":false,"is_disabled":false,"rental_uris":{"android":"levelo://app?vid=922a6b0f-9f5c-447c-abcc-b85946e1a54f","ios":"levelo://app?vid=922a6b0f-9f5c-447c-abcc-b85946e1a54f"},"vehicle_type_id":"4","last_reported":1717700830,"current_range_meters":4000,"station_id":"ce4bh092rcd13ifvqd20","pricing_plan_id":"cebpf4jnsgd1na2vs0mg"},{"bike_id":"54fab329-a405-44bc-8e0e-261a27accd67","system_id":"levelo_inurba_marseille","lat":43.292605,"lon":5.384401,"is_reserved":false,"is_disabled":false,"rental_uris":{"android":"levelo://app?vid=54fab329-a405-44bc-8e0e-261a27accd67","ios":"levelo://app?vid=54fab329-a405-44bc-8e0e-261a27accd67"},"vehicle_type_id":"4","last_reported":1717700830,"current_range_meters":0,"station_id":"ce4bh692rcd13ifvqea0","pricing_plan_id":"cebpf4jnsgd1na2vs0mg"},{"bike_id":"6bde3a53-f523-416d-a706-27914f613881","system_id":"levelo_inurba_marseille","lat":43.29264,"lon":5.38453,"is_reserved":false,"is_disabled":false,"rental_uris":{"android":"levelo://app?vid=6bde3a53-f523-416d-a706-27914f613881","ios":"levelo://app?vid=6bde3a53-f523-416d-a706-27914f613881"},"vehicle_type_id":"4","last_reported":1717700830,"current_range_meters":31600,"station_id":"ce4bh692rcd13ifvqea0","pricing_plan_id":"cebpf4jnsgd1na2vs0mg"},{"bike_id":"ffe46593-be71-44a9-9316-b925b14f5bf3","system_id":"levelo_inurba_marseille","lat":43.29009,"lon":5.35616,"is_reserved":false,"is_disabled":false,"rental_uris":{"android":"levelo://app?vid=ffe46593-be71-44a9-9316-b925b14f5bf3","ios":"levelo://app?vid=ffe46593-be71-44a9-9316-b925b14f5bf3"},"vehicle_type_id":"4","last_reported":1717700830,"current_range_meters":31200,"station_id":"ce4bhb92rcd13ifvqen0","pricing_plan_id":"cebpf4jnsgd1na2vs0mg"},{"bike_id":"87c96cd8-0435-43ca-bfa3-1a6fcb9ca30b","system_id":"levelo_inurba_marseille","lat":43.290103,"lon":5.356114,"is_reserved":false,"is_disabled":false,"rental_uris":{"android":"levelo://app?vid=87c96cd8-0435-43ca-bfa3-1a6fcb9ca30b","ios":"levelo://app?vid=87c96cd8-0435-43ca-bfa3-1a6fcb9ca30b"},"vehicle_type_id":"4","last_reported":1717700830,"current_range_meters":13600,"station_id":"ce4bhb92rcd13ifvqen0","pricing_plan_id":"cebpf4jnsgd1na2vs0mg"},{"bike_id":"322d8e54-7fc0-45a7-9f10-e40bc085c32b","system_id":"levelo_inurba_marseille","lat":43.29006,"lon":5.35618,"is_reserved":false,"is_disabled":false,"rental_uris":{"android":"levelo://app?vid=322d8e54-7fc0-45a7-9f10-e40bc085c32b","ios":"levelo://app?vid=322d8e54-7fc0-45a7-9f10-e40bc085c32b"},"vehicle_type_id":"4","last_reported":1717700830,"current_range_meters":31200,"station_id":"ce4bhb92rcd13ifvqen0","pricing_plan_id":"cebpf4jnsgd1na2vs0mg"},{"bike_id":"a25177b5-111a-4db9-9e96-8c8cd831c8aa","system_id":"levelo_inurba_marseille","lat":43.29008,"lon":5.3561,"is_reserved":false,"is_disabled":false,"rental_uris":{"android":"levelo://app?vid=a25177b5-111a-4db9-9e96-8c8cd831c8aa","ios":"levelo://app?vid=a25177b5-111a-4db9-9e96-8c8cd831c8aa"},"vehicle_type_id":"4","last_reported":1717700830,"current_range_meters":0,"station_id":"ce4bhb92rcd13ifvqen0","pricing_plan_id":"cebpf4jnsgd1na2vs0mg"},{"bike_id":"ccbf978f-3c9a-4397-9614-a15cced0010f","system_id":"levelo_inurba_marseille","lat":43.29005,"lon":5.35616,"is_reserved":false,"is_disabled":false,"rental_uris":{"android":"levelo://app?vid=ccbf978f-3c9a-4397-9614-a15cced0010f","ios":"levelo://app?vid=ccbf978f-3c9a-4397-9614-a15cced0010f"},"vehicle_type_id":"4","last_reported":1717700830,"current_range_meters":30400,"station_id":"ce4bhb92rcd13ifvqen0","pricing_plan_id":"cebpf4jnsgd1na2vs0mg"},{"bike_id":"d2748042-0b55-4b55-b49f-7ae6d26ae098","system_id":"levelo_inurba_marseille","lat":43.295169,"lon":5.390426,"is_reserved":false,"is_disabled":false,"rental_uris":{"android":"levelo://app?vid=d2748042-0b55-4b55-b49f-7ae6d26ae098","ios":"levelo://app?vid=d2748042-0b55-4b55-b49f-7ae6d26ae098"},"vehicle_type_id":"4","last_reported":1717700830,"current_range_meters":20000,"station_id":"ce4bh3p2rcd13ifvqdp0","pricing_plan_id":"cebpf4jnsgd1na2vs0mg"},{"bike_id":"a170b0e4-2905-4c53-a4ab-ad28aa991c40","system_id":"levelo_inurba_marseille","lat":43.290104,"lon":5.356111,"is_reserved":false,"is_disabled":false,"rental_uris":{"android":"levelo://app?vid=a170b0e4-2905-4c53-a4ab-ad28aa991c40","ios":"levelo://app?vid=a170b0e4-2905-4c53-a4ab-ad28aa991c40"},"vehicle_type_id":"4","last_reported":1717700830,"current_range_meters":20000,"station_id":"ce4bhb92rcd13ifvqen0","pricing_plan_id":"cebpf4jnsgd1na2vs0mg"},{"bike_id":"7a9e28e7-694d-42a1-b6e2-9b4462f739a2","system_id":"levelo_inurba_marseille","lat":43.304296,"lon":5.397513,"is_reserved":false,"is_disabled":false,"rental_uris":{"android":"levelo://app?vid=7a9e28e7-694d-42a1-b6e2-9b4462f739a2","ios":"levelo://app?vid=7a9e28e7-694d-42a1-b6e2-9b4462f739a2"},"vehicle_type_id":"4","last_reported":1717700830,"current_range_meters":3600,"station_id":"ce4bh092rcd13ifvqd20","pricing_plan_id":"cebpf4jnsgd1na2vs0mg"},{"bike_id":"7a705606-2ebe-40e0-992d-d1490510a7b8","system_id":"levelo_inurba_marseille","lat":43.290995,"lon":5.381361,"is_reserved":false,"is_disabled":false,"rental_uris":{"android":"levelo://app?vid=7a705606-2ebe-40e0-992d-d1490510a7b8","ios":"levelo://app?vid=7a705606-2ebe-40e0-992d-d1490510a7b8"},"vehicle_type_id":"4","last_reported":1717700830,"current_range_meters":26000,"station_id":"ce4bh512rcd13ifvqe2g","pricing_plan_id":"cebpf4jnsgd1na2vs0mg"},{"bike_id":"983a45c4-8fc3-4a05-ac9b-5a31adaaa48e","system_id":"levelo_inurba_marseille","lat":43.290995,"lon":5.381361,"is_reserved":false,"is_disabled":false,"rental_uris":{"android":"levelo://app?vid=983a45c4-8fc3-4a05-ac9b-5a31adaaa48e","ios":"levelo://app?vid=983a45c4-8fc3-4a05-ac9b-5a31adaaa48e"},"vehicle_type_id":"4","last_reported":1717700830,"current_range_meters":6800,"station_id":"ce4bh512rcd13ifvqe2g","pricing_plan_id":"cebpf4jnsgd1na2vs0mg"},{"bike_id":"d2b92354-2b89-4bdd-a66b-5e208ef6be7a","system_id":"levelo_inurba_marseille","lat":43.297815,"lon":5.393548,"is_reserved":false,"is_disabled":false,"rental_uris":{"android":"levelo://app?vid=d2b92354-2b89-4bdd-a66b-5e208ef6be7a","ios":"levelo://app?vid=d2b92354-2b89-4bdd-a66b-5e208ef6be7a"},"vehicle_type_id":"4","last_reported":1717700830,"current_range_meters":22400,"station_id":"chh1huq6cuj3fo74tm60","pricing_plan_id":"cebpf4jnsgd1na2vs0mg"},{"bike_id":"b27632db-9af3-4b48-9918-0e90ac407599","system_id":"levelo_inurba_marseille","lat":43.29781,"lon":5.39343,"is_reserved":false,"is_disabled":false,"rental_uris":{"android":"levelo://app?vid=b27632db-9af3-4b48-9918-0e90ac407599","ios":"levelo://app?vid=b27632db-9af3-4b48-9918-0e90ac407599"},"vehicle_type_id":"4","last_reported":1717700830,"current_range_meters":25600,"station_id":"chh1huq6cuj3fo74tm60","pricing_plan_id":"cebpf4jnsgd1na2vs0mg"},{"bike_id":"742c4861-879e-4b1c-add5-4ba6c5e3445a","system_id":"levelo_inurba_marseille","lat":43.28979,"lon":5.37828,"is_reserved":false,"is_disabled":false,"rental_uris":{"android":"levelo://app?vid=742c4861-879e-4b1c-add5-4ba6c5e3445a","ios":"levelo://app?vid=742c4861-879e-4b1c-add5-4ba6c5e3445a"},"vehicle_type_id":"4","last_reported":1717700830,"current_range_meters":0,"station_id":"ce4bh9p2rcd13ifvqed0","pricing_plan_id":"cebpf4jnsgd1na2vs0mg"},{"bike_id":"97056a6d-d124-48bf-a807-8dfb2e0e0e9a","system_id":"levelo_inurba_marseille","lat":43.295169,"lon":5.390426,"is_reserved":false,"is_disabled":false,"rental_uris":{"android":"levelo://app?vid=97056a6d-d124-48bf-a807-8dfb2e0e0e9a","ios":"levelo://app?vid=97056a6d-d124-48bf-a807-8dfb2e0e0e9a"},"vehicle_type_id":"4","last_reported":1717700830,"current_range_meters":30000,"station_id":"ce4bh3p2rcd13ifvqdp0","pricing_plan_id":"cebpf4jnsgd1na2vs0mg"},{"bike_id":"2abb25e8-62bf-4ed3-b69c-4c38a92ae870","system_id":"levelo_inurba_marseille","lat":43.295169,"lon":5.390426,"is_reserved":false,"is_disabled":false,"rental_uris":{"android":"levelo://app?vid=2abb25e8-62bf-4ed3-b69c-4c38a92ae870","ios":"levelo://app?vid=2abb25e8-62bf-4ed3-b69c-4c38a92ae870"},"vehicle_type_id":"4","last_reported":1717700830,"current_range_meters":28400,"station_id":"ce4bh3p2rcd13ifvqdp0","pricing_plan_id":"cebpf4jnsgd1na2vs0mg"},{"bike_id":"d3d9285e-ebeb-4794-9f6e-ee23e783c1e1","system_id":"levelo_inurba_marseille","lat":43.295169,"lon":5.390426,"is_reserved":false,"is_disabled":false,"rental_uris":{"android":"levelo://app?vid=d3d9285e-ebeb-4794-9f6e-ee23e783c1e1","ios":"levelo://app?vid=d3d9285e-ebeb-4794-9f6e-ee23e783c1e1"},"vehicle_type_id":"4","last_reported":1717700830,"current_range_meters":18000,"station_id":"ce4bh3p2rcd13ifvqdp0","pricing_plan_id":"cebpf4jnsgd1na2vs0mg"},{"bike_id":"68205f8d-9d75-4dd0-91f7-f1a01d1535e4","system_id":"levelo_inurba_marseille","lat":43.295169,"lon":5.390426,"is_reserved":false,"is_disabled":false,"rental_uris":{"android":"levelo://app?vid=68205f8d-9d75-4dd0-91f7-f1a01d1535e4","ios":"levelo://app?vid=68205f8d-9d75-4dd0-91f7-f1a01d1535e4"},"vehicle_type_id":"4","last_reported":1717700830,"current_range_meters":19200,"station_id":"ce4bh3p2rcd13ifvqdp0","pricing_plan_id":"cebpf4jnsgd1na2vs0mg"},{"bike_id":"ef24a0c2-3def-4f66-abbc-2156b4a3030d","system_id":"levelo_inurba_marseille","lat":43.330442,"lon":5.389148,"is_reserved":false,"is_disabled":false,"rental_uris":{"android":"levelo://app?vid=ef24a0c2-3def-4f66-abbc-2156b4a3030d","ios":"levelo://app?vid=ef24a0c2-3def-4f66-abbc-2156b4a3030d"},"vehicle_type_id":"4","last_reported":1717700830,"current_range_meters":30800,"station_id":"ce4bhr92rcd13ifvqhrg","pricing_plan_id":"cebpf4jnsgd1na2vs0mg"},{"bike_id":"40f95258-cc6b-4bee-8967-2106b7bb4853","system_id":"levelo_inurba_marseille","lat":43.295169,"lon":5.390426,"is_reserved":false,"is_disabled":false,"rental_uris":{"android":"levelo://app?vid=40f95258-cc6b-4bee-8967-2106b7bb4853","ios":"levelo://app?vid=40f95258-cc6b-4bee-8967-2106b7bb4853"},"vehicle_type_id":"4","last_reported":1717700830,"current_range_meters":20400,"station_id":"ce4bh3p2rcd13ifvqdp0","pricing_plan_id":"cebpf4jnsgd1na2vs0mg"},{"bike_id":"a6d83cf9-a6c4-4e3d-9888-fe4030b3e5fd","system_id":"levelo_inurba_marseille","lat":43.295169,"lon":5.390426,"is_reserved":false,"is_disabled":false,"rental_uris":{"android":"levelo://app?vid=a6d83cf9-a6c4-4e3d-9888-fe4030b3e5fd","ios":"levelo://app?vid=a6d83cf9-a6c4-4e3d-9888-fe4030b3e5fd"},"vehicle_type_id":"4","last_reported":1717700830,"current_range_meters":30400,"station_id":"ce4bh3p2rcd13ifvqdp0","pricing_plan_id":"cebpf4jnsgd1na2vs0mg"},{"bike_id":"0cdfa72a-072a-42a9-b600-441b1652f29d","system_id":"levelo_inurba_marseille","lat":43.295169,"lon":5.390426,"is_reserved":false,"is_disabled":false,"rental_uris":{"android":"levelo://app?vid=0cdfa72a-072a-42a9-b600-441b1652f29d","ios":"levelo://app?vid=0cdfa72a-072a-42a9-b600-441b1652f29d"},"vehicle_type_id":"4","last_reported":1717700830,"current_range_meters":31600,"station_id":"ce4bh3p2rcd13ifvqdp0","pricing_plan_id":"cebpf4jnsgd1na2vs0mg"},{"bike_id":"dfe19823-dd38-4133-8f5c-37223b90da87","system_id":"levelo_inurba_marseille","lat":43.2901,"lon":5.381269,"is_reserved":false,"is_disabled":false,"rental_uris":{"android":"levelo://app?vid=dfe19823-dd38-4133-8f5c-37223b90da87","ios":"levelo://app?vid=dfe19823-dd38-4133-8f5c-37223b90da87"},"vehicle_type_id":"4","last_reported":1717700830,"current_range_meters":4400,"station_id":"ce4bh4p2rcd13ifvqe1g","pricing_plan_id":"cebpf4jnsgd1na2vs0mg"},{"bike_id":"d8037ef5-807b-495d-9290-74769b5ed2a9","system_id":"levelo_inurba_marseille","lat":43.290094,"lon":5.381264,"is_reserved":false,"is_disabled":false,"rental_uris":{"android":"levelo://app?vid=d8037ef5-807b-495d-9290-74769b5ed2a9","ios":"levelo://app?vid=d8037ef5-807b-495d-9290-74769b5ed2a9"},"vehicle_type_id":"4","last_reported":1717700830,"current_range_meters":1200,"station_id":"ce4bh4p2rcd13ifvqe1g","pricing_plan_id":"cebpf4jnsgd1na2vs0mg"},{"bike_id":"3657d553-9747-4447-9ab5-bd1b6821fb50","system_id":"levelo_inurba_marseille","lat":43.2901,"lon":5.381269,"is_reserved":false,"is_disabled":false,"rental_uris":{"android":"levelo://app?vid=3657d553-9747-4447-9ab5-bd1b6821fb50","ios":"levelo://app?vid=3657d553-9747-4447-9ab5-bd1b6821fb50"},"vehicle_type_id":"4","last_reported":1717700830,"current_range_meters":14800,"station_id":"ce4bh4p2rcd13ifvqe1g","pricing_plan_id":"cebpf4jnsgd1na2vs0mg"},{"bike_id":"939e690b-48b1-416b-ace8-d50804b55acd","system_id":"levelo_inurba_marseille","lat":43.28856,"lon":5.358371,"is_reserved":false,"is_disabled":false,"rental_uris":{"android":"levelo://app?vid=939e690b-48b1-416b-ace8-d50804b55acd","ios":"levelo://app?vid=939e690b-48b1-416b-ace8-d50804b55acd"},"vehicle_type_id":"4","last_reported":1717700830,"current_range_meters":24000,"station_id":"ce4bhb12rcd13ifvqem0","pricing_plan_id":"cebpf4jnsgd1na2vs0mg"},{"bike_id":"07fb46c5-198d-4b40-a9b3-03a92c28c6e5","system_id":"levelo_inurba_marseille","lat":43.28856,"lon":5.358371,"is_reserved":false,"is_disabled":false,"rental_uris":{"android":"levelo://app?vid=07fb46c5-198d-4b40-a9b3-03a92c28c6e5","ios":"levelo://app?vid=07fb46c5-198d-4b40-a9b3-03a92c28c6e5"},"vehicle_type_id":"4","last_reported":1717700830,"current_range_meters":31200,"station_id":"ce4bhb12rcd13ifvqem0","pricing_plan_id":"cebpf4jnsgd1na2vs0mg"},{"bike_id":"58c4402a-e4ef-447a-8ada-af4ca324c5a1","system_id":"levelo_inurba_marseille","lat":43.28851,"lon":5.35851,"is_reserved":false,"is_disabled":false,"rental_uris":{"android":"levelo://app?vid=58c4402a-e4ef-447a-8ada-af4ca324c5a1","ios":"levelo://app?vid=58c4402a-e4ef-447a-8ada-af4ca324c5a1"},"vehicle_type_id":"4","last_reported":1717700830,"current_range_meters":0,"station_id":"ce4bhb12rcd13ifvqem0","pricing_plan_id":"cebpf4jnsgd1na2vs0mg"},{"bike_id":"806d8af5-8ed2-42fd-9455-198fc419c291","system_id":"levelo_inurba_marseille","lat":43.28856,"lon":5.358371,"is_reserved":false,"is_disabled":false,"rental_uris":{"android":"levelo://app?vid=806d8af5-8ed2-42fd-9455-198fc419c291","ios":"levelo://app?vid=806d8af5-8ed2-42fd-9455-198fc419c291"},"vehicle_type_id":"4","last_reported":1717700830,"current_range_meters":0,"station_id":"ce4bhb12rcd13ifvqem0","pricing_plan_id":"cebpf4jnsgd1na2vs0mg"},{"bike_id":"ce919395-11dd-4021-b9ec-8a72f61523cf","system_id":"levelo_inurba_marseille","lat":43.28839,"lon":5.35845,"is_reserved":false,"is_disabled":false,"rental_uris":{"android":"levelo://app?vid=ce919395-11dd-4021-b9ec-8a72f61523cf","ios":"levelo://app?vid=ce919395-11dd-4021-b9ec-8a72f61523cf"},"vehicle_type_id":"4","last_reported":1717700830,"current_range_meters":0,"station_id":"ce4bhb12rcd13ifvqem0","pricing_plan_id":"cebpf4jnsgd1na2vs0mg"},{"bike_id":"d866d6a5-f89a-4795-b2b0-118399f8734c","system_id":"levelo_inurba_marseille","lat":43.288256,"lon":5.358496,"is_reserved":false,"is_disabled":false,"rental_uris":{"android":"levelo://app?vid=d866d6a5-f89a-4795-b2b0-118399f8734c","ios":"levelo://app?vid=d866d6a5-f89a-4795-b2b0-118399f8734c"},"vehicle_type_id":"4","last_reported":1717700830,"current_range_meters":0,"station_id":"ce4bhb12rcd13ifvqem0","pricing_plan_id":"cebpf4jnsgd1na2vs0mg"},{"bike_id":"f5d81ff7-7e0d-44d8-86e3-2548419d17b8","system_id":"levelo_inurba_marseille","lat":43.337412,"lon":5.37457,"is_reserved":false,"is_disabled":false,"rental_uris":{"android":"levelo://app?vid=f5d81ff7-7e0d-44d8-86e3-2548419d17b8","ios":"levelo://app?vid=f5d81ff7-7e0d-44d8-86e3-2548419d17b8"},"vehicle_type_id":"4","last_reported":1717700830,"current_range_meters":5600,"station_id":"","pricing_plan_id":"cebpf4jnsgd1na2vs0mg"},{"bike_id":"76efa02d-b601-4b43-882a-a1161a0d8013","system_id":"levelo_inurba_marseille","lat":43.309371,"lon":5.401449,"is_reserved":false,"is_disabled":false,"rental_uris":{"android":"levelo://app?vid=76efa02d-b601-4b43-882a-a1161a0d8013","ios":"levelo://app?vid=76efa02d-b601-4b43-882a-a1161a0d8013"},"vehicle_type_id":"4","last_reported":1717700830,"current_range_meters":16000,"station_id":"ce4bgvp2rcd13ifvqct0","pricing_plan_id":"cebpf4jnsgd1na2vs0mg"},{"bike_id":"d5d29520-7f4b-4154-a0bc-cbbb31d38277","system_id":"levelo_inurba_marseille","lat":43.309371,"lon":5.401449,"is_reserved":false,"is_disabled":false,"rental_uris":{"android":"levelo://app?vid=d5d29520-7f4b-4154-a0bc-cbbb31d38277","ios":"levelo://app?vid=d5d29520-7f4b-4154-a0bc-cbbb31d38277"},"vehicle_type_id":"4","last_reported":1717700830,"current_range_meters":12400,"station_id":"ce4bgvp2rcd13ifvqct0","pricing_plan_id":"cebpf4jnsgd1na2vs0mg"},{"bike_id":"c91827bd-4f0f-4019-98ca-45e1ac92d0fe","system_id":"levelo_inurba_marseille","lat":43.309371,"lon":5.401449,"is_reserved":false,"is_disabled":false,"rental_uris":{"android":"levelo://app?vid=c91827bd-4f0f-4019-98ca-45e1ac92d0fe","ios":"levelo://app?vid=c91827bd-4f0f-4019-98ca-45e1ac92d0fe"},"vehicle_type_id":"4","last_reported":1717700830,"current_range_meters":0,"station_id":"ce4bgvp2rcd13ifvqct0","pricing_plan_id":"cebpf4jnsgd1na2vs0mg"},