{"last_updated":1762345307,"ttl":60,"version":"2.2","data":{"bikes":[{"bike_id":"b7c5e96f-2666-418c-b8cc-36dfc613348c","system_id":"levelo_inurba_marseille","lat":43.337444,"lon":5.374475,"is_reserved":false,"is_disabled":false,"rental_uris":{"android":"levelo://app?vid=b7c5e96f-2666-418c-b8cc-36dfc613348c","ios":"levelo://app?vid=b7c5e96f-2666-418c-b8cc-36dfc613348c"},"vehicle_type_id":"4","last_reported":1762345307,"current_range_meters":0,"station_id":"","pricing_plan_id":"cebpf4jnsgd1na2vs0mg"},{"bike_id":"9c46a9f5-39cb-461a-ac28-286dc216524b","system_id":"levelo_inurba_marseille","lat":43.337444,"lon":5.374475,"is_reserved":false,"is_disabled":false,"rental_uris":{"android":"levelo://app?vid=9c46a9f5-39cb-461a-ac28-286dc216524b","ios":"levelo://app?vid=9c46a9f5-39cb-461a-ac28-286dc216524b"},"vehicle_type_id":"4","last_reported":1762345307,"current_range_meters":0,"station_id":"","pricing_plan_id":"cebpf4jnsgd1na2vs0mg"},{"bike_id":"2aa95e42-5a8c-4825-81d0-40d356e0168e","system_id":"levelo_inurba_marseille","lat":43.337444,"lon":5.374475,"is_reserved":false,"is_disabled":false,"rental_uris":{"android":"levelo://app?vid=2aa95e42-5a8c-4825-81d0-40d356e0168e","ios":"levelo://app?vid=2aa95e42-5a8c-4825-81d0-40d356e0168e"},"vehicle_type_id":"4","last_reported":1762345307,"current_range_meters":0,"station_id":"","pricing_plan_id":"cebpf4jnsgd1na2vs0mg"},{"bike_id":"23f7c00c-abd3-4b9e-b454-b625ef68ddce","system_id":"levelo_inurba_marseille","lat":43.337444,"lon":5.374475,"is_reserved":false,"is_disabled":false,"rental_uris":{"android":"levelo://app?vid=23f7c00c-abd3-4b9e-b454-b625ef68ddce","ios":"levelo://app?vid=23f7c00c-abd3-4b9e-b454-b625ef68ddce"},"vehicle_type_id":"4","last_reported":1762345307,"current_range_meters":0,"station_id":"","pricing_plan_id":"cebpf4jnsgd1na2vs0mg"},{"bike_id":"a3451d83-9c80-4ffa-96f9-a14c25634465","system_id":"levelo_inurba_marseille","lat":43.337444,"lon":5.374475,"is_reserved":false,"is_disabled":false,"rental_uris":{"android":"levelo://app?vid=a3451d83-9c80-4ffa-96f9-a14c25634465","ios":"levelo://app?vid=a3451d83-9c80-4ffa-96f9-a14c25634465"},"vehicle_type_id":"4","last_reported":1762345307,"current_range_meters":0,"station_id":"","pricing_plan_id":"cebpf4jnsgd1na2vs0mg"},{"bike_id":"19649598-fd0f-4237-a302-8b748132eb30","system_id":"levelo_inurba_marseille","lat":43.337444,"lon":5.374475,"is_reserved":false,"is_disabled":false,"rental_uris":{"android":"levelo://app?vid=19649598-fd0f-4237-a302-8b748132eb30","ios":"levelo://app?vid=19649598-fd0f-4237-a302-8b748132eb30"},"vehicle_type_id":"4","last_reported":1762345307,"current_range_meters":0,"station_id":"","pricing_plan_id":"cebpf4jnsgd1na2vs0mg"},{"bike_id":"79f0199f-1fbb-40b2-9337-191d82b520a7","system_id":"levelo_inurba_marseille","lat":43.337444,"lon":5.374475,"is_reserved":false,"is_disabled":false,"rental_uris":{"android":"levelo://app?vid=79f0199f-1fbb-40b2-9337-191d82b520a7","ios":"levelo://app?vid=79f0199f-1fbb-40b2-9337-191d82b520a7"},"vehicle_type_id":"4","last_reported":1762345307,"current_range_meters":0,"station_id":"","pricing_plan_id":"cebpf4jnsgd1na2vs0mg"},{"bike_id":"34a0d96e-bbf5-4ab6-8de8-a56cc767fd57","system_id":"levelo_inurba_marseille","lat":43.337444,"lon":5.374475,"is_reserved":false,"is_disabled":false,"rental_uris":{"android":"levelo://app?vid=34a0d96e-bbf5-4ab6-8de8-a56cc767fd57","ios":"levelo://app?vid=34a0d96e-bbf5-4ab6-8de8-a56cc767fd57"},"vehicle_type_id":"4","last_reported":1762345307,"current_range_meters":0,"station_id":"","pricing_plan_id":"cebpf4jnsgd1na2vs0mg"},{"bike_id":"30c4756b-2e3a-4ac9-b1fb-aa08283eecaa","system_id":"levelo_inurba_marseille","lat":43.337444,"lon":5.374475,"is_reserved":false,"is_disabled":false,"rental_uris":{"android":"levelo://app?vid=30c4756b-2e3a-4ac9-b1fb-aa08283eecaa","ios":"levelo://app?vid=30c4756b-2e3a-4ac9-b1fb-aa08283eecaa"},"vehicle_type_id":"4","last_reported":1762345307,"current_range_meters":0,"station_id":"","pricing_plan_id":"cebpf4jnsgd1na2vs0mg"},{"bike_id":"cb5b6ee7-3ef8-4299-a38d-cc32f035098b","system_id":"levelo_inurba_marseille","lat":43.337444,"lon":5.374475,"is_reserved":false,"is_disabled":false,"rental_uris":{"android":"levelo://app?vid=cb5b6ee7-3ef8-4299-a38d-cc32f035098b","ios":"levelo://app?vid=cb5b6ee7-3ef8-4299-a38d-cc32f035098b"},"vehicle_type_id":"4","last_reported":1762345307,"current_range_meters":0,"station_id":"","pricing_plan_id":"cebpf4jnsgd1na2vs0mg"},{"bike_id":"0dbf8834-1963-4427-879a-60d5139a1252","system_id":"levelo_inurba_marseille","lat":43.337444,"lon":5.374475,"is_reserved":false,"is_disabled":false,"rental_uris":{"android":"levelo://app?vid=0dbf8834-1963-4427-879a-60d5139a1252","ios":"levelo://app?vid=0dbf8834-1963-4427-879a-60d5139a1252"},"vehicle_type_id":"4","last_reported":1762345307,"current_range_meters":0,"station_id":"","pricing_plan_id":"cebpf4jnsgd1na2vs0mg"},{"bike_id":"c3d3ce5c-8075-4b42-9455-beadd1468f17","system_id":"levelo_inurba_marseille","lat":43.337444,"lon":5.374475,"is_reserved":false,"is_disabled":false,"rental_uris":{"android":"levelo://app?vid=c3d3ce5c-8075-4b42-9455-beadd1468f17","ios":"levelo://app?vid=c3d3ce5c-8075-4b42-9455-beadd1468f17"},"vehicle_type_id":"4","last_reported":1762345307,"current_range_meters":0,"station_id":"","pricing_plan_id":"cebpf4jnsgd1na2vs0mg"},{"bike_id":"2177a091-7ad7-4fcd-ad08-e78406d1a8ef","system_id":"levelo_inurba_marseille","lat":43.337444,"lon":5.374475,"is_reserved":false,"is_disabled":false,"rental_uris":{"android":"levelo://app?vid=2177a091-7ad7-4fcd-ad08-e78406d1a8ef","ios":"levelo://app?vid=2177a091-7ad7-4fcd-ad08-e78406d1a8ef"},"vehicle_type_id":"4","last_reported":1762345307,"current_range_meters":0,"station_id":"","pricing_plan_id":"cebpf4jnsgd1na2vs0mg"},{"bike_id":"ed2dc6ad-7a96-47d2-b4d0-3deee38fd62c","system_id":"levelo_inurba_marseille","lat":43.337444,"lon":5.374475,"is_reserved":false,"is_disabled":false,"rental_uris":{"android":"levelo://app?vid=ed2dc6ad-7a96-47d2-b4d0-3deee38fd62c","ios":"levelo://app?vid=ed2dc6ad-7a96-47d2-b4d0-3deee38fd62c"},"vehicle_type_id":"4","last_reported":1762345307,"current_range_meters":0,"station_id":"","pricing_plan_id":"cebpf4jnsgd1na2vs0mg"},{"bike_id":"42735ee1-244b-4d96-8480-f9806199924f","system_id":"levelo_inurba_marseille","lat":43.337444,"lon":5.374475,"is_reserved":false,"is_disabled":false,"rental_uris":{"android":"levelo://app?vid=42735ee1-244b-4d96-8480-f9806199924f","ios":"levelo://app?vid=42735ee1-244b-4d96-8480-f9806199924f"},"vehicle_type_id":"4","last_reported":1762345307,"current_range_meters":0,"station_id":"","pricing_plan_id":"cebpf4jnsgd1na2vs0mg"},{"bike_id":"0d7ab61a-02ec-456f-ab23-ba92f34594d5","system_id":"levelo_inurba_marseille","lat":43.337444,"lon":5.374475,"is_reserved":false,"is_disabled":false,"rental_uris":{"android":"levelo://app?vid=0d7ab61a-02ec-456f-ab23-ba92f34594d5","ios":"levelo://app?vid=0d7ab61a-02ec-456f-ab23-ba92f34594d5"},"vehicle_type_id":"4","last_reported":1762345307,"current_range_meters":0,"station_id":"","pricing_plan_id":"cebpf4jnsgd1na2vs0mg"},{"bike_id":"f68022fa-eb0a-4aac-8aea-6f2e14d0afb9","system_id":"levelo_inurba_marseille","lat":43.337444,"lon":5.374475,"is_reserved":false,"is_disabled":false,"rental_uris":{"android":"levelo://app?vid=f68022fa-eb0a-4aac-8aea-6f2e14d0afb9","ios":"levelo://app?vid=f68022fa-eb0a-4aac-8aea-6f2e14d0afb9"},"vehicle_type_id":"4","last_reported":1762345307,"current_range_meters":0,"station_id":"","pricing_plan_id":"cebpf4jnsgd1na2vs0mg"},{"bike_id":"386a9781-f1f4-4d33-8679-4d1163c3b9de","system_id":"levelo_inurba_marseille","lat":43.337444,"lon":5.374475,"is_reserved":false,"is_disabled":false,"rental_uris":{"android":"levelo://app?vid=386a9781-f1f4-4d33-8679-4d1163c3b9de","ios":"levelo://app?vid=386a9781-f1f4-4d33-8679-4d1163c3b9de"},"vehicle_type_id":"4","last_reported":1762345307,"current_range_meters":0,"station_id":"","pricing_plan_id":"cebpf4jnsgd1na2vs0mg"},{"bike_id":"4692d694-8a80-47c7-a7c6-1264ca94c6df","system_id":"levelo_inurba_marseille","lat":43.337444,"lon":5.374475,"is_reserved":false,"is_disabled":false,"rental_uris":{"android":"levelo://app?vid=4692d694-8a80-47c7-a7c6-1264ca94c6df","ios":"levelo://app?vid=4692d694-8a80-47c7-a7c6-1264ca94c6df"},"vehicle_type_id":"4","last_reported":1762345307,"current_range_meters":0,"station_id":"","pricing_plan_id":"cebpf4jnsgd1na2vs0mg"},{"bike_id":"4706d18d-408c-4dc1-a44f-b0f99f27bdf0","system_id":"levelo_inurba_marseille","lat":43.337444,"lon":5.374475,"is_reserved":false,"is_disabled":false,"rental_uris":{"android":"levelo://app?vid=4706d18d-408c-4dc1-a44f-b0f99f27bdf0","ios":"levelo://app?vid=4706d18d-408c-4dc1-a44f-b0f99f27bdf0"},"vehicle_type_id":"4","last_reported":1762345307,"current_range_meters":0,"station_id":"","pricing_plan_id":"cebpf4jnsgd1na2vs0mg"},{"bike_id":"abb77335-fe7b-4b75-9b2f-be4bb45cbb0d","system_id":"levelo_inurba_marseille","lat":43.337444,"lon":5.374475,"is_reserved":false,"is_disabled":false,"rental_uris":{"android":"levelo://app?vid=abb77335-fe7b-4b75-9b2f-be4bb45cbb0d","ios":"levelo://app?vid=abb77335-fe7b-4b75-9b2f-be4bb45cbb0d"},"vehicle_type_id":"4","last_reported":1762345307,"current_range_meters":0,"station_id":"","pricing_plan_id":"cebpf4jnsgd1na2vs0mg"},{"bike_id":"4bde9393-6919-41f3-8fef-f4b40f375cc0","system_id":"levelo_inurba_marseille","lat":43.337444,"lon":5.374475,"is_reserved":false,"is_disabled":false,"rental_uris":{"android":"levelo://app?vid=4bde9393-6919-41f3-8fef-f4b40f375cc0","ios":"levelo://app?vid=4bde9393-6919-41f3-8fef-f4b40f375cc0"},"vehicle_type_id":"4","last_reported":1762345307,"current_range_meters":0,"station_id":"","pricing_plan_id":"cebpf4jnsgd1na2vs0mg"},{"bike_id":"51f4e824-5009-4c5b-9283-cfda2d34404c","system_id":"levelo_inurba_marseille","lat":43.337444,"lon":5.374475,"is_reserved":false,"is_disabled":false,"rental_uris":{"android":"levelo://app?vid=51f4e824-5009-4c5b-9283-cfda2d34404c","ios":"levelo://app?vid=51f4e824-5009-4c5b-9283-cfda2d34404c"},"vehicle_type_id":"4","last_reported":1762345307,"current_range_meters":0,"station_id":"","pricing_plan_id":"cebpf4jnsgd1na2vs0mg"},{"bike_id":"d155d58c-f50a-4469-b126-b5af1b8d3f8a","system_id":"levelo_inurba_marseille","lat":43.337444,"lon":5.374475,"is_reserved":false,"is_disabled":false,"rental_uris":{"android":"levelo://app?vid=d155d58c-f50a-4469-b126-b5af1b8d3f8a","ios":"levelo://app?vid=d155d58c-f50a-4469-b126-b5af1b8d3f8a"},"vehicle_type_id":"4","last_reported":1762345307,"current_range_meters":0,"station_id":"","pricing_plan_id":"cebpf4jnsgd1na2vs0mg"},{"bike_id":"16f471c2-a8ed-4e61-ba2a-d83085a9c284","system_id":"levelo_inurba_marseille","lat":43.337444,"lon":5.374475,"is_reserved":false,"is_disabled":false,"rental_uris":{"android":"levelo://app?vid=16f471c2-a8ed-4e61-ba2a-d83085a9c284","ios":"levelo://app?vid=16f471c2-a8ed-4e61-ba2a-d83085a9c284"},"vehicle_type_id":"4","last_reported":1762345307,"current_range_meters":0,"station_id":"","pricing_plan_id":"cebpf4jnsgd1na2vs0mg"},{"bike_id":"b8bd4cc4-f519-43de-b194-2cc2cf75483c","system_id":"levelo_inurba_marseille","lat":43.337444,"lon":5.374475,"is_reserved":false,"is_disabled":false,"rental_uris":{"android":"levelo://app?vid=b8bd4cc4-f519-43de-b194-2cc2cf75483c","ios":"levelo://app?vid=b8bd4cc4-f519-43de-b194-2cc2cf75483c"},"vehicle_type_id":"4","last_reported":1762345307,"current_range_meters":0,"station_id":"","pricing_plan_id":"cebpf4jnsgd1na2vs0mg"},{"bike_id":"591b062c-0423-40a0-9120-f7c30f97e98f","system_id":"levelo_inurba_marseille","lat":43.337444,"lon":5.374475,"is_reserved":false,"is_disabled":false,"rental_uris":{"android":"levelo://app?vid=591b062c-0423-40a0-9120-f7c30f97e98f","ios":"levelo://app?vid=591b062c-0423-40a0-9120-f7c30f97e98f"},"vehicle_type_id":"4","last_reported":1762345307,"current_range_meters":0,"station_id":"","pricing_plan_id":"cebpf4jnsgd1na2vs0mg"},{"bike_id":"8fbb8d57-565e-4232-a867-846a316b3375","system_id":"levelo_inurba_marseille","lat":43.337444,"lon":5.374475,"is_reserved":false,"is_disabled":false,"rental_uris":{"android":"levelo://app?vid=8fbb8d57-565e-4232-a867-846a316b3375","ios":"levelo://app?vid=8fbb8d57-565e-4232-a867-846a316b3375"},"vehicle_type_id":"4","last_reported":1762345307,"current_range_meters":0,"station_id":"","pricing_plan_id":"cebpf4jnsgd1na2vs0mg"},{"bike_id":"e6134458-396f-46c5-87ab-a79cf2b6424c","system_id":"levelo_inurba_marseille","lat":43.337444,"lon":5.374475,"is_reserved":false,"is_disabled":false,"rental_uris":{"android":"levelo://app?vid=e6134458-396f-46c5-87ab-a79cf2b6424c","ios":"levelo://app?vid=e6134458-396f-46c5-87ab-a79cf2b6424c"},"vehicle_type_id":"4","last_reported":1762345307,"current_range_meters":0,"station_id":"","pricing_plan_id":"cebpf4jnsgd1na2vs0mg"},{"bike_id":"0a0d4295-fe5b-4614-b2ca-f5579d5190b0","system_id":"levelo_inurba_marseille","lat":43.337444,"lon":5.374475,"is_reserved":false,"is_disabled":false,"rental_uris":{"android":"levelo://app?vid=0a0d4295-fe5b-4614-b2ca-f5579d5190b0","ios":"levelo://app?vid=0a0d4295-fe5b-4614-b2ca-f5579d5190b0"},"vehicle_type_id":"4","last_reported":1762345307,"current_range_meters":0,"station_id":"","pricing_plan_id":"cebpf4jnsgd1na2vs0mg"},{"bike_id":"3ed531a7-b742-45bd-8774-6cfc1a37c8bc","system_id":"levelo_inurba_marseille","lat":43.273782,"lon":5.362562,"is_reserved":false,"is_disabled":false,"rental_uris":{"android":"levelo://app?vid=3ed531a7-b742-45bd-8774-6cfc1a37c8bc","ios":"levelo://app?vid=3ed531a7-b742-45bd-8774-6cfc1a37c8bc"},"vehicle_type_id":"4","last_reported":1762345307,"current_range_meters":2800,"station_id":"ce4bhbh2rcd13ifvqeo0","pricing_plan_id":"cebpf4jnsgd1na2vs0mg"},{"bike_id":"c2579447-c19e-4ae5-a167-f910b7772bfe","system_id":"levelo_inurba_marseille","lat":43.30319,"lon":5.40452,"is_reserved":false,"is_disabled":false,"rental_uris":{"android":"levelo://app?vid=c2579447-c19e-4ae5-a167-f910b7772bfe","ios":"levelo://app?vid=c2579447-c19e-4ae5-a167-f910b7772bfe"},"vehicle_type_id":"4","last_reported":1762345307,"current_range_meters":2800,"station_id":"ce4bh012rcd13ifvqd10","pricing_plan_id":"cebpf4jnsgd1na2vs0mg"},{"bike_id":"785a64af-c808-4ff7-9976-a88dbacb992f","system_id":"levelo_inurba_marseille","lat":43.286706,"lon":5.379006,"is_reserved":false,"is_disabled":false,"rental_uris":{"android":"levelo://app?vid=785a64af-c808-4ff7-9976-a88dbacb992f","ios":"levelo://app?vid=785a64af-c808-4ff7-9976-a88dbacb992f"},"vehicle_type_id":"4","last_reported":1762345307,"current_range_meters":2800,"station_id":"ce4bh9p2rcd13ifvqec0","pricing_plan_id":"cebpf4jnsgd1na2vs0mg"},{"bike_id":"5bfde13a-681a-4014-80a5-e8794835e685","system_id":"levelo_inurba_marseille","lat":43.23138,"lon":5.43742,"is_reserved":false,"is_disabled":false,"rental_uris":{"android":"levelo://app?vid=5bfde13a-681a-4014-80a5-e8794835e685","ios":"levelo://app?vid=5bfde13a-681a-4014-80a5-e8794835e685"},"vehicle_type_id":"4","last_reported":1762345307,"current_range_meters":3200,"station_id":"ce4bhmp2rcd13ifvqgog","pricing_plan_id":"cebpf4jnsgd1na2vs0mg"},{"bike_id":"9d812fee-3558-44ee-b76f-5140b192a28e","system_id":"levelo_inurba_marseille","lat":43.27379,"lon":5.36256,"is_reserved":false,"is_disabled":false,"rental_uris":{"android":"levelo://app?vid=9d812fee-3558-44ee-b76f-5140b192a28e","ios":"levelo://app?vid=9d812fee-3558-44ee-b76f-5140b192a28e"},"vehicle_type_id":"4","last_reported":1762345307,"current_range_meters":3200,"station_id":"ce4bhbh2rcd13ifvqeo0","pricing_plan_id":"cebpf4jnsgd1na2vs0mg"},{"bike_id":"e316d8c0-567f-4794-97db-615dfaa55771","system_id":"levelo_inurba_marseille","lat":43.29522,"lon":5.37499,"is_reserved":false,"is_disabled":true,"rental_uris":{"android":"levelo://app?vid=e316d8c0-567f-4794-97db-615dfaa55771","ios":"levelo://app?vid=e316d8c0-567f-4794-97db-615dfaa55771"},"vehicle_type_id":"4","last_reported":1762345307,"current_range_meters":3200,"station_id":"ce4bgkp2rcd13ifvqbmg","pricing_plan_id":"cebpf4jnsgd1na2vs0mg"},{"bike_id":"67842f6f-98fe-4358-b85e-7f04e0f0b59c","system_id":"levelo_inurba_marseille","lat":43.313499,"lon":5.379119,"is_reserved":false,"is_disabled":true,"rental_uris":{"android":"levelo://app?vid=67842f6f-98fe-4358-b85e-7f04e0f0b59c","ios":"levelo://app?vid=67842f6f-98fe-4358-b85e-7f04e0f0b59c"},"vehicle_type_id":"4","last_reported":1762345307,"current_range_meters":3200,"station_id":"","pricing_plan_id":"cebpf4jnsgd1na2vs0mg"},{"bike_id":"30c794c0-a98b-44e0-9a89-158ce0242039","system_id":"levelo_inurba_marseille","lat":43.287,"lon":5.3998,"is_reserved":false,"is_disabled":false,"rental_uris":{"android":"levelo://app?vid=30c794c0-a98b-44e0-9a89-158ce0242039","ios":"levelo://app?vid=30c794c0-a98b-44e0-9a89-158ce0242039"},"vehicle_type_id":"4","last_reported":1762345307,"current_range_meters":3200,"station_id":"ce4bho92rcd13ifvqh3g","pricing_plan_id":"cebpf4jnsgd1na2vs0mg"},{"bike_id":"665c430f-2a90-4266-8c97-ebcd758f6465","system_id":"levelo_inurba_marseille","lat":43.30612,"lon":5.39333,"is_reserved":false,"is_disabled":false,"rental_uris":{"android":"levelo://app?vid=665c430f-2a90-4266-8c97-ebcd758f6465","ios":"levelo://app?vid=665c430f-2a90-4266-8c97-ebcd758f6465"},"vehicle_type_id":"4","last_reported":1762345307,"current_range_meters":3200,"station_id":"ce4bh0p2rcd13ifvqd80","pricing_plan_id":"cebpf4jnsgd1na2vs0mg"},{"bike_id":"4206fd1c-fca5-4468-81b6-1c50d2a4a589","system_id":"levelo_inurba_marseille","lat":43.29821,"lon":5.43803,"is_reserved":false,"is_disabled":false,"rental_uris":{"android":"levelo://app?vid=4206fd1c-fca5-4468-81b6-1c50d2a4a589","ios":"levelo://app?vid=4206fd1c-fca5-4468-81b6-1c50d2a4a589"},"vehicle_type_id":"4","last_reported":1762345307,"current_range_meters":3600,"station_id":"","pricing_plan_id":"cebpf4jnsgd1na2vs0mg"},{"bike_id":"5923d8b9-39e5-47a0-9a58-29b77533c7c6","system_id":"levelo_inurba_marseille","lat":43.26202,"lon":5.37931,"is_reserved":false,"is_disabled":false,"rental_uris":{"android":"levelo://app?vid=5923d8b9-39e5-47a0-9a58-29b77533c7c6","ios":"levelo://app?vid=5923d8b9-39e5-47a0-9a58-29b77533c7c6"},"vehicle_type_id":"4","last_reported":1762345307,"current_range_meters":3600,"station_id":"ce4bhjp2rcd13ifvqg90","pricing_plan_id":"cebpf4jnsgd1na2vs0mg"},{"bike_id":"c469a8f3-7eee-4b63-880b-e8922011b1b3","system_id":"levelo_inurba_marseille","lat":43.28527,"lon":5.44102,"is_reserved":false,"is_disabled":false,"rental_uris":{"android":"levelo://app?vid=c469a8f3-7eee-4b63-880b-e8922011b1b3","ios":"levelo://app?vid=c469a8f3-7eee-4b63-880b-e8922011b1b3"},"vehicle_type_id":"4","last_reported":1762345307,"current_range_meters":3600,"station_id":"st_d3j3df2ikq2c7380ej80","pricing_plan_id":"cebpf4jnsgd1na2vs0mg"},{"bike_id":"0464b9d1-e411-4c9a-8aee-df4743e5280b","system_id":"levelo_inurba_marseille","lat":43.32099,"lon":5.36778,"is_reserved":false,"is_disabled":false,"rental_uris":{"android":"levelo://app?vid=0464b9d1-e411-4c9a-8aee-df4743e5280b","ios":"levelo://app?vid=0464b9d1-e411-4c9a-8aee-df4743e5280b"},"vehicle_type_id":"4","last_reported":1762345307,"current_range_meters":3600,"station_id":"ce4bhrh2rcd13ifvqhug","pricing_plan_id":"cebpf4jnsgd1na2vs0mg"},{"bike_id":"b7274164-d104-4569-8e8d-d56b2a397565","system_id":"levelo_inurba_marseille","lat":43.28472,"lon":5.48384,"is_reserved":false,"is_disabled":false,"rental_uris":{"android":"levelo://app?vid=b7274164-d104-4569-8e8d-d56b2a397565","ios":"levelo://app?vid=b7274164-d104-4569-8e8d-d56b2a397565"},"vehicle_type_id":"4","last_reported":1762345307,"current_range_meters":4000,"station_id":"st_d3svhcjqgbts73a3dn0g","pricing_plan_id":"cebpf4jnsgd1na2vs0mg"},{"bike_id":"140b7ff9-c8ad-48cb-9157-5a3f85067c0e","system_id":"levelo_inurba_marseille","lat":43.23149,"lon":5.43724,"is_reserved":false,"is_disabled":false,"rental_uris":{"android":"levelo://app?vid=140b7ff9-c8ad-48cb-9157-5a3f85067c0e","ios":"levelo://app?vid=140b7ff9-c8ad-48cb-9157-5a3f85067c0e"},"vehicle_type_id":"4","last_reported":1762345307,"current_range_meters":4000,"station_id":"ce4bhmp2rcd13ifvqgog","pricing_plan_id":"cebpf4jnsgd1na2vs0mg"},{"bike_id":"35f3d332-363c-4c4c-91fd-df0e640219f2","system_id":"levelo_inurba_marseille","lat":43.284119,"lon":5.375078,"is_reserved":false,"is_disabled":false,"rental_uris":{"android":"levelo://app?vid=35f3d332-363c-4c4c-91fd-df0e640219f2","ios":"levelo://app?vid=35f3d332-363c-4c4c-91fd-df0e640219f2"},"vehicle_type_id":"4","last_reported":1762345307,"current_range_meters":4000,"station_id":"ce4bh412rcd13ifvqds0","pricing_plan_id":"cebpf4jnsgd1na2vs0mg"},{"bike_id":"6b584dfc-9ae5-43a1-9b6e-c68f93817c95","system_id":"levelo_inurba_marseille","lat":43.2794,"lon":5.41049,"is_reserved":false,"is_disabled":false,"rental_uris":{"android":"levelo://app?vid=6b584dfc-9ae5-43a1-9b6e-c68f93817c95","ios":"levelo://app?vid=6b584dfc-9ae5-43a1-9b6e-c68f93817c95"},"vehicle_type_id":"4","last_reported":1762345307,"current_range_meters":4400,"station_id":"ce4bhnp2rcd13ifvqh0g","pricing_plan_id":"cebpf4jnsgd1na2vs0mg"},{"bike_id":"0bfaff0d-2cfd-4576-9329-a90fa7f66485","system_id":"levelo_inurba_marseille","lat":43.24807,"lon":5.37462,"is_reserved":false,"is_disabled":false,"rental_uris":{"android":"levelo://app?vid=0bfaff0d-2cfd-4576-9329-a90fa7f66485","ios":"levelo://app?vid=0bfaff0d-2cfd-4576-9329-a90fa7f66485"},"vehicle_type_id":"4","last_reported":1762345307,"current_range_meters":4400,"station_id":"ce4bhgh2rcd13ifvqfb0","pricing_plan_id":"cebpf4jnsgd1na2vs0mg"},{"bike_id":"154e1719-e5e0-414e-9e73-f7999a587fcd","system_id":"levelo_inurba_marseille","lat":43.30277,"lon":5.37717,"is_reserved":false,"is_disabled":false,"rental_uris":{"android":"levelo://app?vid=154e1719-e5e0-414e-9e73-f7999a587fcd","ios":"levelo://app?vid=154e1719-e5e0-414e-9e73-f7999a587fcd"},"vehicle_type_id":"4","last_reported":1762345307,"current_range_meters":4400,"station_id":"ce4bguh2rcd13ifvqcj0","pricing_plan_id":"cebpf4jnsgd1na2vs0mg"},{"bike_id":"b377f71f-98f9-415a-8b63-350bae8bf80c","system_id":"levelo_inurba_marseille","lat":43.28845,"lon":5.39326,"is_reserved":false,"is_disabled":false,"rental_uris":{"android":"levelo://app?vid=b377f71f-98f9-415a-8b63-350bae8bf80c","ios":"levelo://app?vid=b377f71f-98f9-415a-8b63-350bae8bf80c"},"vehicle_type_id":"4","last_reported":1762345307,"current_range_meters":4800,"station_id":"ce4bh2p2rcd13ifvqdi0","pricing_plan_id":"cebpf4jnsgd1na2vs0mg"},{"bike_id":"887642d5-1c55-4a1c-be66-22040e42ee8a","system_id":"levelo_inurba_marseille","lat":43.25721,"lon":5.41115,"is_reserved":false,"is_disabled":false,"rental_uris":{"android":"levelo://app?vid=887642d5-1c55-4a1c-be66-22040e42ee8a","ios":"levelo://app?vid=887642d5-1c55-4a1c-be66-22040e42ee8a"},"vehicle_type_id":"4","last_reported":1762345307,"current_range_meters":4800,"station_id":"ce4bhkp2rcd13ifvqgd0","pricing_plan_id":"cebpf4jnsgd1na2vs0mg"},{"bike_id":"b5f953b8-0b23-4a53-85d8-d39eab8e6c05","system_id":"levelo_inurba_marseille","lat":43.29002,"lon":5.35604,"is_reserved":false,"is_disabled":false,"rental_uris":{"android":"levelo://app?vid=b5f953b8-0b23-4a53-85d8-d39eab8e6c05","ios":"levelo://app?vid=b5f953b8-0b23-4a53-85d8-d39eab8e6c05"},"vehicle_type_id":"4","last_reported":1762345307,"current_range_meters":5600,"station_id":"ce4bhb92rcd13ifvqen0","pricing_plan_id":"cebpf4jnsgd1na2vs0mg"},{"bike_id":"b3b431a6-a52a-42d5-b0fe-24f4424e1088","system_id":"levelo_inurba_marseille","lat":43.28476,"lon":5.38424,"is_reserved":false,"is_disabled":false,"rental_uris":{"android":"levelo://app?vid=b3b431a6-a52a-42d5-b0fe-24f4424e1088","ios":"levelo://app?vid=b3b431a6-a52a-42d5-b0fe-24f4424e1088"},"vehicle_type_id":"4","last_reported":1762345307,"current_range_meters":5600,"station_id":"ce4bh512rcd13ifvqe3g","pricing_plan_id":"cebpf4jnsgd1na2vs0mg"},{"bike_id":"f1979f78-234e-4db4-b761-bbad610d0c95","system_id":"levelo_inurba_marseille","lat":43.29202,"lon":5.35816,"is_reserved":false,"is_disabled":false,"rental_uris":{"android":"levelo://app?vid=f1979f78-234e-4db4-b761-bbad610d0c95","ios":"levelo://app?vid=f1979f78-234e-4db4-b761-bbad610d0c95"},"vehicle_type_id":"4","last_reported":1762345307,"current_range_meters":5600,"station_id":"ce4bhb12rcd13ifvqel0","pricing_plan_id":"cebpf4jnsgd1na2vs0mg"},{"bike_id":"d38fb122-3083-4973-9720-0aa8abd06707","system_id":"levelo_inurba_marseille","lat":43.28694,"lon":5.39979,"is_reserved":false,"is_disabled":false,"rental_uris":{"android":"levelo://app?vid=d38fb122-3083-4973-9720-0aa8abd06707","ios":"levelo://app?vid=d38fb122-3083-4973-9720-0aa8abd06707"},"vehicle_type_id":"4","last_reported":1762345307,"current_range_meters":5600,"station_id":"ce4bho92rcd13ifvqh3g","pricing_plan_id":"cebpf4jnsgd1na2vs0mg"},{"bike_id":"28b85111-1e3c-4e94-9d4a-5a837507bfee","system_id":"levelo_inurba_marseille","lat":43.297213,"lon":5.426494,"is_reserved":false,"is_disabled":false,"rental_uris":{"android":"levelo://app?vid=28b85111-1e3c-4e94-9d4a-5a837507bfee","ios":"levelo://app?vid=28b85111-1e3c-4e94-9d4a-5a837507bfee"},"vehicle_type_id":"4","last_reported":1762345307,"current_range_meters":6000,"station_id":"","pricing_plan_id":"cebpf4jnsgd1na2vs0mg"},{"bike_id":"e1a64d41-1b56-470e-b323-888cf453d0ae","system_id":"levelo_inurba_marseille","lat":43.24997,"lon":5.38943,"is_reserved":false,"is_disabled":false,"rental_uris":{"android":"levelo://app?vid=e1a64d41-1b56-470e-b323-888cf453d0ae","ios":"levelo://app?vid=e1a64d41-1b56-470e-b323-888cf453d0ae"},"vehicle_type_id":"4","last_reported":1762345307,"current_range_meters":6000,"station_id":"ce4bhgp2rcd13ifvqfd0","pricing_plan_id":"cebpf4jnsgd1na2vs0mg"},{"bike_id":"dd381934-bc86-4b6e-b1ce-bc5085563482","system_id":"levelo_inurba_marseille","lat":43.31528,"lon":5.38031,"is_reserved":false,"is_disabled":false,"rental_uris":{"android":"levelo://app?vid=dd381934-bc86-4b6e-b1ce-bc5085563482","ios":"levelo://app?vid=dd381934-bc86-4b6e-b1ce-bc5085563482"},"vehicle_type_id":"4","last_reported":1762345307,"current_range_meters":6000,"station_id":"ce4bhsp2rcd13ifvqi50","pricing_plan_id":"cebpf4jnsgd1na2vs0mg"},{"bike_id":"4fc73a58-9b1d-42a0-ac19-49567d823378","system_id":"levelo_inurba_marseille","lat":43.303466,"lon":5.376565,"is_reserved":false,"is_disabled":false,"rental_uris":{"android":"levelo://app?vid=4fc73a58-9b1d-42a0-ac19-49567d823378","ios":"levelo://app?vid=4fc73a58-9b1d-42a0-ac19-49567d823378"},"vehicle_type_id":"4","last_reported":1762345307,"current_range_meters":6000,"station_id":"ce4bguh2rcd13ifvqcj0","pricing_plan_id":"cebpf4jnsgd1na2vs0mg"},{"bike_id":"faced5f8-0d58-4762-8c0a-2df9652fbd78","system_id":"levelo_inurba_marseille","lat":43.31347,"lon":5.36722,"is_reserved":false,"is_disabled":false,"rental_uris":{"android":"levelo://app?vid=faced5f8-0d58-4762-8c0a-2df9652fbd78","ios":"levelo://app?vid=faced5f8-0d58-4762-8c0a-2df9652fbd78"},"vehicle_type_id":"4","last_reported":1762345307,"current_range_meters":6000,"station_id":"ce4bgr92rcd13ifvqc6g","pricing_plan_id":"cebpf4jnsgd1na2vs0mg"},{"bike_id":"b2edbec7-9959-4a3c-90f0-6e77723c6b7d","system_id":"levelo_inurba_marseille","lat":43.31738,"lon":5.42379,"is_reserved":false,"is_disabled":false,"rental_uris":{"android":"levelo://app?vid=b2edbec7-9959-4a3c-90f0-6e77723c6b7d","ios":"levelo://app?vid=b2edbec7-9959-4a3c-90f0-6e77723c6b7d"},"vehicle_type_id":"4","last_reported":1762345307,"current_range_meters":6000,"station_id":"ce4bhp92rcd13ifvqhbg","pricing_plan_id":"cebpf4jnsgd1na2vs0mg"},{"bike_id":"4951fb4a-6231-4390-b38f-d9a7dd913cc6","system_id":"levelo_inurba_marseille","lat":43.24805,"lon":5.37454,"is_reserved":false,"is_disabled":false,"rental_uris":{"android":"levelo://app?vid=4951fb4a-6231-4390-b38f-d9a7dd913cc6","ios":"levelo://app?vid=4951fb4a-6231-4390-b38f-d9a7dd913cc6"},"vehicle_type_id":"4","last_reported":1762345307,"current_range_meters":6000,"station_id":"ce4bhgh2rcd13ifvqfb0","pricing_plan_id":"cebpf4jnsgd1na2vs0mg"},{"bike_id":"7b27bc8f-3ee9-4d6a-89db-08fea62226a9","system_id":"levelo_inurba_marseille","lat":43.262,"lon":5.37933,"is_reserved":false,"is_disabled":false,"rental_uris":{"android":"levelo://app?vid=7b27bc8f-3ee9-4d6a-89db-08fea62226a9","ios":"levelo://app?vid=7b27bc8f-3ee9-4d6a-89db-08fea62226a9"},"vehicle_type_id":"4","last_reported":1762345307,"current_range_meters":6000,"station_id":"ce4bhjp2rcd13ifvqg90","pricing_plan_id":"cebpf4jnsgd1na2vs0mg"},{"bike_id":"675ba34c-4f78-44d7-bae5-7eff772680dc","system_id":"levelo_inurba_marseille","lat":43.26208,"lon":5.37446,"is_reserved":false,"is_disabled":false,"rental_uris":{"android":"levelo://app?vid=675ba34c-4f78-44d7-bae5-7eff772680dc","ios":"levelo://app?vid=675ba34c-4f78-44d7-bae5-7eff772680dc"},"vehicle_type_id":"4","last_reported":1762345307,"current_range_meters":6000,"station_id":"ce4bhgp2rcd13ifvqfc0","pricing_plan_id":"cebpf4jnsgd1na2vs0mg"},{"bike_id":"a77b718d-c64b-4ff9-9646-6e51ff97f252","system_id":"levelo_inurba_marseille","lat":43.30089,"lon":5.39079,"is_reserved":false,"is_disabled":false,"rental_uris":{"android":"levelo://app?vid=a77b718d-c64b-4ff9-9646-6e51ff97f252","ios":"levelo://app?vid=a77b718d-c64b-4ff9-9646-6e51ff97f252"},"vehicle_type_id":"4","last_reported":1762345307,"current_range_meters":6000,"station_id":"ce4bh192rcd13ifvqdb0","pricing_plan_id":"cebpf4jnsgd1na2vs0mg"},{"bike_id":"46c81537-8b74-4296-9a94-6e959d0f0f07","system_id":"levelo_inurba_marseille","lat":43.27908,"lon":5.39609,"is_reserved":false,"is_disabled":false,"rental_uris":{"android":"levelo://app?vid=46c81537-8b74-4296-9a94-6e959d0f0f07","ios":"levelo://app?vid=46c81537-8b74-4296-9a94-6e959d0f0f07"},"vehicle_type_id":"4","last_reported":1762345307,"current_range_meters":6000,"station_id":"","pricing_plan_id":"cebpf4jnsgd1na2vs0mg"},{"bike_id":"f9b55f15-cf36-4ad9-90e5-59c582e0b2c7","system_id":"levelo_inurba_marseille","lat":43.22955,"lon":5.44039,"is_reserved":false,"is_disabled":false,"rental_uris":{"android":"levelo://app?vid=f9b55f15-cf36-4ad9-90e5-59c582e0b2c7","ios":"levelo://app?vid=f9b55f15-cf36-4ad9-90e5-59c582e0b2c7"},"vehicle_type_id":"4","last_reported":1762345307,"current_range_meters":6400,"station_id":"","pricing_plan_id":"cebpf4jnsgd1na2vs0mg"},{"bike_id":"aa245444-6a34-4efe-9949-e29bca990e53","system_id":"levelo_inurba_marseille","lat":43.21733,"lon":5.34614,"is_reserved":false,"is_disabled":false,"rental_uris":{"android":"levelo://app?vid=aa245444-6a34-4efe-9949-e29bca990e53","ios":"levelo://app?vid=aa245444-6a34-4efe-9949-e29bca990e53"},"vehicle_type_id":"4","last_reported":1762345307,"current_range_meters":6400,"station_id":"st_cvj6r9ubvosntc0bgbag","pricing_plan_id":"cebpf4jnsgd1na2vs0mg"},{"bike_id":"bfa1b275-449d-4a90-84f6-027c1301c1b1","system_id":"levelo_inurba_marseille","lat":43.270571,"lon":5.402556,"is_reserved":false,"is_disabled":false,"rental_uris":{"android":"levelo://app?vid=bfa1b275-449d-4a90-84f6-027c1301c1b1","ios":"levelo://app?vid=bfa1b275-449d-4a90-84f6-027c1301c1b1"},"vehicle_type_id":"4","last_reported":1762345307,"current_range_meters":6400,"station_id":"ce4bhk92rcd13ifvqgc0","pricing_plan_id":"cebpf4jnsgd1na2vs0mg"},{"bike_id":"a07a02bf-f48e-48f1-a084-0757f112ed21","system_id":"levelo_inurba_marseille","lat":43.27426,"lon":5.3943,"is_reserved":false,"is_disabled":false,"rental_uris":{"android":"levelo://app?vid=a07a02bf-f48e-48f1-a084-0757f112ed21","ios":"levelo://app?vid=a07a02bf-f48e-48f1-a084-0757f112ed21"},"vehicle_type_id":"4","last_reported":1762345307,"current_range_meters":6400,"station_id":"ce4bhdp2rcd13ifvqf20","pricing_plan_id":"cebpf4jnsgd1na2vs0mg"},{"bike_id":"2f838315-9d8e-40da-9e79-103124df0adf","system_id":"levelo_inurba_marseille","lat":43.2375,"lon":5.36621,"is_reserved":false,"is_disabled":false,"rental_uris":{"android":"levelo://app?vid=2f838315-9d8e-40da-9e79-103124df0adf","ios":"levelo://app?vid=2f838315-9d8e-40da-9e79-103124df0adf"},"vehicle_type_id":"4","last_reported":1762345307,"current_range_meters":6400,"station_id":"st_d3nk18o9ro0c73en2l3g","pricing_plan_id":"cebpf4jnsgd1na2vs0mg"},{"bike_id":"361633b4-1a80-4025-8791-e41c89d1acc9","system_id":"levelo_inurba_marseille","lat":43.26558,"lon":5.372839,"is_reserved":false,"is_disabled":false,"rental_uris":{"android":"levelo://app?vid=361633b4-1a80-4025-8791-e41c89d1acc9","ios":"levelo://app?vid=361633b4-1a80-4025-8791-e41c89d1acc9"},"vehicle_type_id":"4","last_reported":1762345307,"current_range_meters":6400,"station_id":"ce4bhg12rcd13ifvqf70","pricing_plan_id":"cebpf4jnsgd1na2vs0mg"},{"bike_id":"c2d01a05-f352-4600-adc7-3b0d33838acf","system_id":"levelo_inurba_marseille","lat":43.30317,"lon":5.40437,"is_reserved":false,"is_disabled":false,"rental_uris":{"android":"levelo://app?vid=c2d01a05-f352-4600-adc7-3b0d33838acf","ios":"levelo://app?vid=c2d01a05-f352-4600-adc7-3b0d33838acf"},"vehicle_type_id":"4","last_reported":1762345307,"current_range_meters":6800,"station_id":"ce4bh012rcd13ifvqd10","pricing_plan_id":"cebpf4jnsgd1na2vs0mg"},{"bike_id":"83fd6b1b-793d-4b4f-b8b8-524c1c6af90e","system_id":"levelo_inurba_marseille","lat":43.30333,"lon":5.40447,"is_reserved":false,"is_disabled":false,"rental_uris":{"android":"levelo://app?vid=83fd6b1b-793d-4b4f-b8b8-524c1c6af90e","ios":"levelo://app?vid=83fd6b1b-793d-4b4f-b8b8-524c1c6af90e"},"vehicle_type_id":"4","last_reported":1762345307,"current_range_meters":6800,"station_id":"ce4bh012rcd13ifvqd10","pricing_plan_id":"cebpf4jnsgd1na2vs0mg"},{"bike_id":"727a9c0d-962b-461c-aeb7-f39d94fd2815","system_id":"levelo_inurba_marseille","lat":43.25729,"lon":5.41111,"is_reserved":false,"is_disabled":false,"rental_uris":{"android":"levelo://app?vid=727a9c0d-962b-461c-aeb7-f39d94fd2815","ios":"levelo://app?vid=727a9c0d-962b-461c-aeb7-f39d94fd2815"},"vehicle_type_id":"4","last_reported":1762345307,"current_range_meters":6800,"station_id":"ce4bhkp2rcd13ifvqgd0","pricing_plan_id":"cebpf4jnsgd1na2vs0mg"},{"bike_id":"927cb905-fb63-4cb5-942a-783dc7e1ccbc","system_id":"levelo_inurba_marseille","lat":43.29963,"lon":5.38502,"is_reserved":false,"is_disabled":false,"rental_uris":{"android":"levelo://app?vid=927cb905-fb63-4cb5-942a-783dc7e1ccbc","ios":"levelo://app?vid=927cb905-fb63-4cb5-942a-783dc7e1ccbc"},"vehicle_type_id":"4","last_reported":1762345307,"current_range_meters":6800,"station_id":"ce4bgj92rcd13ifvqbd0","pricing_plan_id":"cebpf4jnsgd1na2vs0mg"},{"bike_id":"86c0f716-adc6-4d92-acb1-f61051c05c50","system_id":"levelo_inurba_marseille","lat":43.23197,"lon":5.39996,"is_reserved":false,"is_disabled":false,"rental_uris":{"android":"levelo://app?vid=86c0f716-adc6-4d92-acb1-f61051c05c50","ios":"levelo://app?vid=86c0f716-adc6-4d92-acb1-f61051c05c50"},"vehicle_type_id":"4","last_reported":1762345307,"current_range_meters":6800,"station_id":"ce4bhn12rcd13ifvqgqg","pricing_plan_id":"cebpf4jnsgd1na2vs0mg"},{"bike_id":"9133e6a3-e292-48ba-8f23-154eaa10f07a","system_id":"levelo_inurba_marseille","lat":43.2466,"lon":5.38162,"is_reserved":false,"is_disabled":false,"rental_uris":{"android":"levelo://app?vid=9133e6a3-e292-48ba-8f23-154eaa10f07a","ios":"levelo://app?vid=9133e6a3-e292-48ba-8f23-154eaa10f07a"},"vehicle_type_id":"4","last_reported":1762345307,"current_range_meters":6800,"station_id":"ce4bhih2rcd13ifvqfr0","pricing_plan_id":"cebpf4jnsgd1na2vs0mg"},{"bike_id":"02c565c9-e1be-4475-b1a9-b37751cdb830","system_id":"levelo_inurba_marseille","lat":43.34389,"lon":5.34875,"is_reserved":false,"is_disabled":false,"rental_uris":{"android":"levelo://app?vid=02c565c9-e1be-4475-b1a9-b37751cdb830","ios":"levelo://app?vid=02c565c9-e1be-4475-b1a9-b37751cdb830"},"vehicle_type_id":"4","last_reported":1762345307,"current_range_meters":7200,"station_id":"","pricing_plan_id":"cebpf4jnsgd1na2vs0mg"},{"bike_id":"2d9c5717-915d-455b-b09c-0b38e34cfd73","system_id":"levelo_inurba_marseille","lat":43.29771,"lon":5.37105,"is_reserved":false,"is_disabled":false,"rental_uris":{"android":"levelo://app?vid=2d9c5717-915d-455b-b09c-0b38e34cfd73","ios":"levelo://app?vid=2d9c5717-915d-455b-b09c-0b38e34cfd73"},"vehicle_type_id":"4","last_reported":1762345307,"current_range_meters":7200,"station_id":"ce4bgop2rcd13ifvqc1g","pricing_plan_id":"cebpf4jnsgd1na2vs0mg"},{"bike_id":"3800314d-6410-4feb-bd76-28cb0729c673","system_id":"levelo_inurba_marseille","lat":43.303354,"lon":5.400699,"is_reserved":false,"is_disabled":false,"rental_uris":{"android":"levelo://app?vid=3800314d-6410-4feb-bd76-28cb0729c673","ios":"levelo://app?vid=3800314d-6410-4feb-bd76-28cb0729c673"},"vehicle_type_id":"4","last_reported":1762345307,"current_range_meters":7200,"station_id":"","pricing_plan_id":"cebpf4jnsgd1na2vs0mg"},{"bike_id":"11d40e71-4ca5-48fa-8510-84cd0e14098e","system_id":"levelo_inurba_marseille","lat":43.23183,"lon":5.35561,"is_reserved":false,"is_disabled":false,"rental_uris":{"android":"levelo://app?vid=11d40e71-4ca5-48fa-8510-84cd0e14098e","ios":"levelo://app?vid=11d40e71-4ca5-48fa-8510-84cd0e14098e"},"vehicle_type_id":"4","last_reported":1762345307,"current_range_meters":7200,"station_id":"ce4bhu92rcd13ifvqi70","pricing_plan_id":"cebpf4jnsgd1na2vs0mg"},{"bike_id":"e2c2b61c-f03c-4a6b-86fe-7a3a994f4b2b","system_id":"levelo_inurba_marseille","lat":43.30902,"lon":5.36853,"is_reserved":false,"is_disabled":false,"rental_uris":{"android":"levelo://app?vid=e2c2b61c-f03c-4a6b-86fe-7a3a994f4b2b","ios":"levelo://app?vid=e2c2b61c-f03c-4a6b-86fe-7a3a994f4b2b"},"vehicle_type_id":"4","last_reported":1762345307,"current_range_meters":7200,"station_id":"ce4bgn92rcd13ifvqbvg","pricing_plan_id":"cebpf4jnsgd1na2vs0mg"},{"bike_id":"62a7cbdc-1473-4213-b423-400b7a94035c","system_id":"levelo_inurba_marseille","lat":43.231496,"lon":5.437159,"is_reserved":false,"is_disabled":false,"rental_uris":{"android":"levelo://app?vid=62a7cbdc-1473-4213-b423-400b7a94035c","ios":"levelo://app?vid=62a7cbdc-1473-4213-b423-400b7a94035c"},"vehicle_type_id":"4","last_reported":1762345307,"current_range_meters":7200,"station_id":"","pricing_plan_id":"cebpf4jnsgd1na2vs0mg"},{"bike_id":"f558d479-ce57-4cf0-a0fa-5a549c753dc8","system_id":"levelo_inurba_marseille","lat":43.23053,"lon":5.35505,"is_reserved":false,"is_disabled":false,"rental_uris":{"android":"levelo://app?vid=f558d479-ce57-4cf0-a0fa-5a549c753dc8","ios":"levelo://app?vid=f558d479-ce57-4cf0-a0fa-5a549c753dc8"},"vehicle_type_id":"4","last_reported":1762345307,"current_range_meters":8000,"station_id":"cpo3342slgdg3j2ifvpg","pricing_plan_id":"cebpf4jnsgd1na2vs0mg"},{"bike_id":"aacf42e0-2f18-4200-a64b-11d1f88c92f0","system_id":"levelo_inurba_marseille","lat":43.292671,"lon":5.37626,"is_reserved":false,"is_disabled":true,"rental_uris":{"android":"levelo://app?vid=aacf42e0-2f18-4200-a64b-11d1f88c92f0","ios":"levelo://app?vid=aacf42e0-2f18-4200-a64b-11d1f88c92f0"},"vehicle_type_id":"4","last_reported":1762345307,"current_range_meters":8000,"station_id":"ce4bgi12rcd13ifvqb80","pricing_plan_id":"cebpf4jnsgd1na2vs0mg"},{"bike_id":"4b49c684-e3e5-4d0b-b736-2d889266fcd7","system_id":"levelo_inurba_marseille","lat":43.28362,"lon":5.38631,"is_reserved":false,"is_disabled":false,"rental_uris":{"android":"levelo://app?vid=4b49c684-e3e5-4d0b-b736-2d889266fcd7","ios":"levelo://app?vid=4b49c684-e3e5-4d0b-b736-2d889266fcd7"},"vehicle_type_id":"4","last_reported":1762345307,"current_range_meters":8000,"station_id":"ce4bh492rcd13ifvqdvg","pricing_plan_id":"cebpf4jnsgd1na2vs0mg"},{"bike_id":"c10ec399-9c52-4d37-a96c-607ed410b782","system_id":"levelo_inurba_marseille","lat":43.26216,"lon":5.40462,"is_reserved":false,"is_disabled":false,"rental_uris":{"android":"levelo://app?vid=c10ec399-9c52-4d37-a96c-607ed410b782","ios":"levelo://app?vid=c10ec399-9c52-4d37-a96c-607ed410b782"},"vehicle_type_id":"4","last_reported":1762345307,"current_range_meters":8000,"station_id":"ce4bhmh2rcd13ifvqgmg","pricing_plan_id":"cebpf4jnsgd1na2vs0mg"},{"bike_id":"ca027186-72c6-4358-8d7a-70b219e6273a","system_id":"levelo_inurba_marseille","lat":43.351556,"lon":5.384529,"is_reserved":false,"is_disabled":false,"rental_uris":{"android":"levelo://app?vid=ca027186-72c6-4358-8d7a-70b219e6273a","ios":"levelo://app?vid=ca027186-72c6-4358-8d7a-70b219e6273a"},"vehicle_type_id":"4","last_reported":1762345307,"current_range_meters":8000,"station_id":"","pricing_plan_id":"cebpf4jnsgd1na2vs0mg"},{"bike_id":"654dc482-8458-4686-a09b-a5e21a822232","system_id":"levelo_inurba_marseille","lat":43.231912,"lon":5.355517,"is_reserved":false,"is_disabled":true,"rental_uris":{"android":"levelo://app?vid=654dc482-8458-4686-a09b-a5e21a822232","ios":"levelo://app?vid=654dc482-8458-4686-a09b-a5e21a822232"},"vehicle_type_id":"4","last_reported":1762345307,"current_range_meters":8000,"station_id":"ce4bhu92rcd13ifvqi70","pricing_plan_id":"cebpf4jnsgd1na2vs0mg"},{"bike_id":"b1c606eb-e513-456f-8eff-6449996a6e9f","system_id":"levelo_inurba_marseille","lat":43.24629,"lon":5.43153,"is_reserved":false,"is_disabled":false,"rental_uris":{"android":"levelo://app?vid=b1c606eb-e513-456f-8eff-6449996a6e9f","ios":"levelo://app?vid=b1c606eb-e513-456f-8eff-6449996a6e9f"},"vehicle_type_id":"4","last_reported":1762345307,"current_range_meters":8000,"station_id":"st_d2m6c4gdas8pm72e190g","pricing_plan_id":"cebpf4jnsgd1na2vs0mg"},{"bike_id":"d6a6ec5e-eeef-49d4-98ea-73074ad3aa07","system_id":"levelo_inurba_marseille","lat":43.26556,"lon":5.37281,"is_reserved":false,"is_disabled":false,"rental_uris":{"android":"levelo://app?vid=d6a6ec5e-eeef-49d4-98ea-73074ad3aa07","ios":"levelo://app?vid=d6a6ec5e-eeef-49d4-98ea-73074ad3aa07"},"vehicle_type_id":"4","last_reported":1762345307,"current_range_meters":8400,"station_id":"ce4bhg12rcd13ifvqf70","pricing_plan_id":"cebpf4jnsgd1na2vs0mg"},{"bike_id":"22825a19-5cf6-46d4-875f-64c895703a50","system_id":"levelo_inurba_marseille","lat":43.285785,"lon":5.350868,"is_reserved":false,"is_disabled":false,"rental_uris":{"android":"levelo://app?vid=22825a19-5cf6-46d4-875f-64c895703a50","ios":"levelo://app?vid=22825a19-5cf6-46d4-875f-64c895703a50"},"vehicle_type_id":"4","last_reported":1762345307,"current_range_meters":8400,"station_id":"ce4bhbp2rcd13ifvqerg","pricing_plan_id":"cebpf4jnsgd1na2vs0mg"},{"bike_id":"f8a99829-6446-4314-944a-b277b536f8c0","system_id":"levelo_inurba_marseille","lat":43.24078,"lon":5.37758,"is_reserved":false,"is_disabled":false,"rental_uris":{"android":"levelo://app?vid=f8a99829-6446-4314-944a-b277b536f8c0","ios":"levelo://app?vid=f8a99829-6446-4314-944a-b277b536f8c0"},"vehicle_type_id":"4","last_reported":1762345307,"current_range_meters":8400,"station_id":"ce4bhnp2rcd13ifvqgvg","pricing_plan_id":"cebpf4jnsgd1na2vs0mg"},{"bike_id":"8625fd71-52f7-4d25-987b-6e76164035a5","system_id":"levelo_inurba_marseille","lat":43.307862,"lon":5.405409,"is_reserved":false,"is_disabled":false,"rental_uris":{"android":"levelo://app?vid=8625fd71-52f7-4d25-987b-6e76164035a5","ios":"levelo://app?vid=8625fd71-52f7-4d25-987b-6e76164035a5"},"vehicle_type_id":"4","last_reported":1762345307,"current_range_meters":8400,"station_id":"","pricing_plan_id":"cebpf4jnsgd1na2vs0mg"},{"bike_id":"f842f661-e0b9-4ed7-9590-2fd2f10216f5","system_id":"levelo_inurba_marseille","lat":43.32349,"lon":5.36753,"is_reserved":false,"is_disabled":false,"rental_uris":{"android":"levelo://app?vid=f842f661-e0b9-4ed7-9590-2fd2f10216f5","ios":"levelo://app?vid=f842f661-e0b9-4ed7-9590-2fd2f10216f5"},"vehicle_type_id":"4","last_reported":1762345307,"current_range_meters":8400,"station_id":"ce4bhsh2rcd13ifvqi2g","pricing_plan_id":"cebpf4jnsgd1na2vs0mg"},{"bike_id":"0b178eaf-0be4-4880-8fa2-2f14fec56424","system_id":"levelo_inurba_marseille","lat":43.29769,"lon":5.37107,"is_reserved":false,"is_disabled":false,"rental_uris":{"android":"levelo://app?vid=0b178eaf-0be4-4880-8fa2-2f14fec56424","ios":"levelo://app?vid=0b178eaf-0be4-4880-8fa2-2f14fec56424"},"vehicle_type_id":"4","last_reported":1762345307,"current_range_meters":8800,"station_id":"ce4bgop2rcd13ifvqc1g","pricing_plan_id":"cebpf4jnsgd1na2vs0mg"},{"bike_id":"53dda434-dc8b-4c51-879b-e5cd0d7bf8c7","system_id":"levelo_inurba_marseille","lat":43.31236,"lon":5.36862,"is_reserved":false,"is_disabled":false,"rental_uris":{"android":"levelo://app?vid=53dda434-dc8b-4c51-879b-e5cd0d7bf8c7","ios":"levelo://app?vid=53dda434-dc8b-4c51-879b-e5cd0d7bf8c7"},"vehicle_type_id":"4","last_reported":1762345307,"current_range_meters":8800,"station_id":"ce4bgl92rcd13ifvqbq0","pricing_plan_id":"cebpf4jnsgd1na2vs0mg"},{"bike_id":"5e6b5e6b-9f8a-43ab-9eb8-b69e41a6c1e6","system_id":"levelo_inurba_marseille","lat":43.225298,"lon":5.348365,"is_reserved":false,"is_disabled":false,"rental_uris":{"android":"levelo://app?vid=5e6b5e6b-9f8a-43ab-9eb8-b69e41a6c1e6","ios":"levelo://app?vid=5e6b5e6b-9f8a-43ab-9eb8-b69e41a6c1e6"},"vehicle_type_id":"4","last_reported":1762345307,"current_range_meters":8800,"station_id":"","pricing_plan_id":"cebpf4jnsgd1na2vs0mg"},{"bike_id":"d5ca484d-1ce1-45af-9946-e759c600a5b4","system_id":"levelo_inurba_marseille","lat":43.26778,"lon":5.39416,"is_reserved":false,"is_disabled":false,"rental_uris":{"android":"levelo://app?vid=d5ca484d-1ce1-45af-9946-e759c600a5b4","ios":"levelo://app?vid=d5ca484d-1ce1-45af-9946-e759c600a5b4"},"vehicle_type_id":"4","last_reported":1762345307,"current_range_meters":8800,"station_id":"ce4bhh12rcd13ifvqfg0","pricing_plan_id":"cebpf4jnsgd1na2vs0mg"},{"bike_id":"92f1987a-55b8-4d4f-b4b6-cdbfa4658be9","system_id":"levelo_inurba_marseille","lat":43.32478,"lon":5.36561,"is_reserved":false,"is_disabled":false,"rental_uris":{"android":"levelo://app?vid=92f1987a-55b8-4d4f-b4b6-cdbfa4658be9","ios":"levelo://app?vid=92f1987a-55b8-4d4f-b4b6-cdbfa4658be9"},"vehicle_type_id":"4","last_reported":1762345307,"current_range_meters":8800,"station_id":"ce4bhs12rcd13ifvqhvg","pricing_plan_id":"cebpf4jnsgd1na2vs0mg"},{"bike_id":"f2a4a1c8-de93-40ce-bb53-37ceb74111f0","system_id":"levelo_inurba_marseille","lat":43.281081,"lon":5.352051,"is_reserved":false,"is_disabled":false,"rental_uris":{"android":"levelo://app?vid=f2a4a1c8-de93-40ce-bb53-37ceb74111f0","ios":"levelo://app?vid=f2a4a1c8-de93-40ce-bb53-37ceb74111f0"},"vehicle_type_id":"4","last_reported":1762345307,"current_range_meters":8800,"station_id":"ce4bhbp2rcd13ifvqerg","pricing_plan_id":"cebpf4jnsgd1na2vs0mg"},{"bike_id":"03dcf107-f0b9-48bd-a415-ba085a92f8f7","system_id":"levelo_inurba_marseille","lat":43.273803,"lon":5.36261,"is_reserved":false,"is_disabled":false,"rental_uris":{"android":"levelo://app?vid=03dcf107-f0b9-48bd-a415-ba085a92f8f7","ios":"levelo://app?vid=03dcf107-f0b9-48bd-a415-ba085a92f8f7"},"vehicle_type_id":"4","last_reported":1762345307,"current_range_meters":9200,"station_id":"ce4bhbh2rcd13ifvqeo0","pricing_plan_id":"cebpf4jnsgd1na2vs0mg"},{"bike_id":"f7a192fe-ecfa-451f-8d3a-3c4f39209fc4","system_id":"levelo_inurba_marseille","lat":43.32368,"lon":5.38886,"is_reserved":false,"is_disabled":false,"rental_uris":{"android":"levelo://app?vid=f7a192fe-ecfa-451f-8d3a-3c4f39209fc4","ios":"levelo://app?vid=f7a192fe-ecfa-451f-8d3a-3c4f39209fc4"},"vehicle_type_id":"4","last_reported":1762345307,"current_range_meters":9200,"station_id":"ce4bhqp2rcd13ifvqhog","pricing_plan_id":"cebpf4jnsgd1na2vs0mg"},{"bike_id":"b9211a18-502a-4b61-ac71-cf29c2a37ede","system_id":"levelo_inurba_marseille","lat":43.31229,"lon":5.36858,"is_reserved":false,"is_disabled":false,"rental_uris":{"android":"levelo://app?vid=b9211a18-502a-4b61-ac71-cf29c2a37ede","ios":"levelo://app?vid=b9211a18-502a-4b61-ac71-cf29c2a37ede"},"vehicle_type_id":"4","last_reported":1762345307,"current_range_meters":9200,"station_id":"ce4bgl92rcd13ifvqbq0","pricing_plan_id":"cebpf4jnsgd1na2vs0mg"},{"bike_id":"3ef0dc03-1cb1-4e56-b52b-dc0316260748","system_id":"levelo_inurba_marseille","lat":43.30461,"lon":5.37908,"is_reserved":false,"is_disabled":false,"rental_uris":{"android":"levelo://app?vid=3ef0dc03-1cb1-4e56-b52b-dc0316260748","ios":"levelo://app?vid=3ef0dc03-1cb1-4e56-b52b-dc0316260748"},"vehicle_type_id":"4","last_reported":1762345307,"current_range_meters":9200,"station_id":"ce4bgup2rcd13ifvqcn0","pricing_plan_id":"cebpf4jnsgd1na2vs0mg"},{"bike_id":"eed78698-4705-4f36-b1cc-c3cc31682f5d","system_id":"levelo_inurba_marseille","lat":43.334053,"lon":5.419538,"is_reserved":false,"is_disabled":false,"rental_uris":{"android":"levelo://app?vid=eed78698-4705-4f36-b1cc-c3cc31682f5d","ios":"levelo://app?vid=eed78698-4705-4f36-b1cc-c3cc31682f5d"},"vehicle_type_id":"4","last_reported":1762345307,"current_range_meters":9200,"station_id":"","pricing_plan_id":"cebpf4jnsgd1na2vs0mg"},{"bike_id":"32253c72-ed1a-4521-958c-ca7e177e1988","system_id":"levelo_inurba_marseille","lat":43.3032,"lon":5.40271,"is_reserved":false,"is_disabled":false,"rental_uris":{"android":"levelo://app?vid=32253c72-ed1a-4521-958c-ca7e177e1988","ios":"levelo://app?vid=32253c72-ed1a-4521-958c-ca7e177e1988"},"vehicle_type_id":"4","last_reported":1762345307,"current_range_meters":9200,"station_id":"","pricing_plan_id":"cebpf4jnsgd1na2vs0mg"},{"bike_id":"816d3c2b-d179-4589-b00b-21624ebd356e","system_id":"levelo_inurba_marseille","lat":43.29952,"lon":5.41314,"is_reserved":false,"is_disabled":false,"rental_uris":{"android":"levelo://app?vid=816d3c2b-d179-4589-b00b-21624ebd356e","ios":"levelo://app?vid=816d3c2b-d179-4589-b00b-21624ebd356e"},"vehicle_type_id":"4","last_reported":1762345307,"current_range_meters":9200,"station_id":"ce4bhp12rcd13ifvqh9g","pricing_plan_id":"cebpf4jnsgd1na2vs0mg"},{"bike_id":"ad483091-7411-4e16-8cc4-09042e8161f5","system_id":"levelo_inurba_marseille","lat":43.273468,"lon":5.385179,"is_reserved":false,"is_disabled":true,"rental_uris":{"android":"levelo://app?vid=ad483091-7411-4e16-8cc4-09042e8161f5","ios":"levelo://app?vid=ad483091-7411-4e16-8cc4-09042e8161f5"},"vehicle_type_id":"4","last_reported":1762345307,"current_range_meters":9200,"station_id":"","pricing_plan_id":"cebpf4jnsgd1na2vs0mg"},{"bike_id":"279117c7-98cc-481f-91c8-c7a9f6f1227e","system_id":"levelo_inurba_marseille","lat":43.28423,"lon":5.34976,"is_reserved":false,"is_disabled":false,"rental_uris":{"android":"levelo://app?vid=279117c7-98cc-481f-91c8-c7a9f6f1227e","ios":"levelo://app?vid=279117c7-98cc-481f-91c8-c7a9f6f1227e"},"vehicle_type_id":"4","last_reported":1762345307,"current_range_meters":9600,"station_id":"ce4bhbh2rcd13ifvqepg","pricing_plan_id":"cebpf4jnsgd1na2vs0mg"},{"bike_id":"5b847e08-3d6b-4d81-a54f-1c6807c31ca9","system_id":"levelo_inurba_marseille","lat":43.31126,"lon":5.37765,"is_reserved":false,"is_disabled":false,"rental_uris":{"android":"levelo://app?vid=5b847e08-3d6b-4d81-a54f-1c6807c31ca9","ios":"levelo://app?vid=5b847e08-3d6b-4d81-a54f-1c6807c31ca9"},"vehicle_type_id":"4","last_reported":1762345307,"current_range_meters":9600,"station_id":"ce4bgt92rcd13ifvqcg0","pricing_plan_id":"cebpf4jnsgd1na2vs0mg"},{"bike_id":"17bbf34e-30a3-48ae-89a7-101afb24d19d","system_id":"levelo_inurba_marseille","lat":43.2956,"lon":5.381621,"is_reserved":false,"is_disabled":true,"rental_uris":{"android":"levelo://app?vid=17bbf34e-30a3-48ae-89a7-101afb24d19d","ios":"levelo://app?vid=17bbf34e-30a3-48ae-89a7-101afb24d19d"},"vehicle_type_id":"4","last_reported":1762345307,"current_range_meters":9600,"station_id":"","pricing_plan_id":"cebpf4jnsgd1na2vs0mg"},{"bike_id":"cd9c6c8f-813a-4b2c-b0c7-7a3265cb2fa0","system_id":"levelo_inurba_marseille","lat":43.24233,"lon":5.39315,"is_reserved":false,"is_disabled":false,"rental_uris":{"android":"levelo://app?vid=cd9c6c8f-813a-4b2c-b0c7-7a3265cb2fa0","ios":"levelo://app?vid=cd9c6c8f-813a-4b2c-b0c7-7a3265cb2fa0"},"vehicle_type_id":"4","last_reported":1762345307,"current_range_meters":9600,"station_id":"","pricing_plan_id":"cebpf4jnsgd1na2vs0mg"},{"bike_id":"8a80570e-bf7a-4811-b6f7-f7bef821bdac","system_id":"levelo_inurba_marseille","lat":43.309533,"lon":5.390179,"is_reserved":false,"is_disabled":true,"rental_uris":{"android":"levelo://app?vid=8a80570e-bf7a-4811-b6f7-f7bef821bdac","ios":"levelo://app?vid=8a80570e-bf7a-4811-b6f7-f7bef821bdac"},"vehicle_type_id":"4","last_reported":1762345307,"current_range_meters":9600,"station_id":"ce4bgkp2rcd13ifvqbmg","pricing_plan_id":"cebpf4jnsgd1na2vs0mg"},{"bike_id":"82fc0fa7-976b-4860-9185-53bd269e1313","system_id":"levelo_inurba_marseille","lat":43.28538,"lon":5.441,"is_reserved":false,"is_disabled":false,"rental_uris":{"android":"levelo://app?vid=82fc0fa7-976b-4860-9185-53bd269e1313","ios":"levelo://app?vid=82fc0fa7-976b-4860-9185-53bd269e1313"},"vehicle_type_id":"4","last_reported":1762345307,"current_range_meters":9600,"station_id":"st_d3j3df2ikq2c7380ej80","pricing_plan_id":"cebpf4jnsgd1na2vs0mg"},{"bike_id":"26faa3b5-ca27-42e8-b96e-b08098a0b652","system_id":"levelo_inurba_marseille","lat":43.29621,"lon":5.37133,"is_reserved":false,"is_disabled":false,"rental_uris":{"android":"levelo://app?vid=26faa3b5-ca27-42e8-b96e-b08098a0b652","ios":"levelo://app?vid=26faa3b5-ca27-42e8-b96e-b08098a0b652"},"vehicle_type_id":"4","last_reported":1762345307,"current_range_meters":10000,"station_id":"ce4bgnh2rcd13ifvqc0g","pricing_plan_id":"cebpf4jnsgd1na2vs0mg"},{"bike_id":"36dadbf7-a228-4f6f-8b08-391008b68693","system_id":"levelo_inurba_marseille","lat":43.34548,"lon":5.36848,"is_reserved":false,"is_disabled":false,"rental_uris":{"android":"levelo://app?vid=36dadbf7-a228-4f6f-8b08-391008b68693","ios":"levelo://app?vid=36dadbf7-a228-4f6f-8b08-391008b68693"},"vehicle_type_id":"4","last_reported":1762345307,"current_range_meters":10000,"station_id":"","pricing_plan_id":"cebpf4jnsgd1na2vs0mg"},{"bike_id":"47de9693-398c-4078-bb2e-bf0d38c76c57","system_id":"levelo_inurba_marseille","lat":43.28462,"lon":5.38756,"is_reserved":false,"is_disabled":false,"rental_uris":{"android":"levelo://app?vid=47de9693-398c-4078-bb2e-bf0d38c76c57","ios":"levelo://app?vid=47de9693-398c-4078-bb2e-bf0d38c76c57"},"vehicle_type_id":"4","last_reported":1762345307,"current_range_meters":10000,"station_id":"","pricing_plan_id":"cebpf4jnsgd1na2vs0mg"},{"bike_id":"28069767-84bb-4c35-b19c-b38cef0c3a3a","system_id":"levelo_inurba_marseille","lat":43.2736,"lon":5.42404,"is_reserved":false,"is_disabled":false,"rental_uris":{"android":"levelo://app?vid=28069767-84bb-4c35-b19c-b38cef0c3a3a","ios":"levelo://app?vid=28069767-84bb-4c35-b19c-b38cef0c3a3a"},"vehicle_type_id":"4","last_reported":1762345307,"current_range_meters":10000,"station_id":"","pricing_plan_id":"cebpf4jnsgd1na2vs0mg"},{"bike_id":"7479cfee-6f68-4a59-afc8-ceca6b83dba4","system_id":"levelo_inurba_marseille","lat":43.255706,"lon":5.382314,"is_reserved":false,"is_disabled":false,"rental_uris":{"android":"levelo://app?vid=7479cfee-6f68-4a59-afc8-ceca6b83dba4","ios":"levelo://app?vid=7479cfee-6f68-4a59-afc8-ceca6b83dba4"},"vehicle_type_id":"4","last_reported":1762345307,"current_range_meters":10800,"station_id":"ce4bhih2rcd13ifvqfs0","pricing_plan_id":"cebpf4jnsgd1na2vs0mg"},{"bike_id":"2935bb6e-354c-4aa4-9d17-1e4508d8a263","system_id":"levelo_inurba_marseille","lat":43.30407,"lon":5.41287,"is_reserved":false,"is_disabled":false,"rental_uris":{"android":"levelo://app?vid=2935bb6e-354c-4aa4-9d17-1e4508d8a263","ios":"levelo://app?vid=2935bb6e-354c-4aa4-9d17-1e4508d8a263"},"vehicle_type_id":"4","last_reported":1762345307,"current_range_meters":10800,"station_id":"ce4bhop2rcd13ifvqh8g","pricing_plan_id":"cebpf4jnsgd1na2vs0mg"},{"bike_id":"52f8acf4-191d-48ee-b789-9cbb184f3732","system_id":"levelo_inurba_marseille","lat":43.2551,"lon":5.37653,"is_reserved":false,"is_disabled":false,"rental_uris":{"android":"levelo://app?vid=52f8acf4-191d-48ee-b789-9cbb184f3732","ios":"levelo://app?vid=52f8acf4-191d-48ee-b789-9cbb184f3732"},"vehicle_type_id":"4","last_reported":1762345307,"current_range_meters":10800,"station_id":"ce4bhh12rcd13ifvqff0","pricing_plan_id":"cebpf4jnsgd1na2vs0mg"},{"bike_id":"41893b22-e9e6-49c7-8fac-0208a88e3540","system_id":"levelo_inurba_marseille","lat":43.24158,"lon":5.39751,"is_reserved":false,"is_disabled":false,"rental_uris":{"android":"levelo://app?vid=41893b22-e9e6-49c7-8fac-0208a88e3540","ios":"levelo://app?vid=41893b22-e9e6-49c7-8fac-0208a88e3540"},"vehicle_type_id":"4","last_reported":1762345307,"current_range_meters":10800,"station_id":"ce4bhn12rcd13ifvqgpg","pricing_plan_id":"cebpf4jnsgd1na2vs0mg"},{"bike_id":"ea4f4b84-78b0-4180-a7f8-ecb8c6182713","system_id":"levelo_inurba_marseille","lat":43.2953,"lon":5.36104,"is_reserved":false,"is_disabled":true,"rental_uris":{"android":"levelo://app?vid=ea4f4b84-78b0-4180-a7f8-ecb8c6182713","ios":"levelo://app?vid=ea4f4b84-78b0-4180-a7f8-ecb8c6182713"},"vehicle_type_id":"4","last_reported":1762345307,"current_range_meters":10800,"station_id":"","pricing_plan_id":"cebpf4jnsgd1na2vs0mg"},{"bike_id":"1f26d7cf-c178-41e0-b8fd-52e6feef212c","system_id":"levelo_inurba_marseille","lat":43.325404,"lon":5.414294,"is_reserved":false,"is_disabled":false,"rental_uris":{"android":"levelo://app?vid=1f26d7cf-c178-41e0-b8fd-52e6feef212c","ios":"levelo://app?vid=1f26d7cf-c178-41e0-b8fd-52e6feef212c"},"vehicle_type_id":"4","last_reported":1762345307,"current_range_meters":10800,"station_id":"ce4bhq12rcd13ifvqhhg","pricing_plan_id":"cebpf4jnsgd1na2vs0mg"},{"bike_id":"d0bbd646-2962-4d80-9cb4-668a5435d4b4","system_id":"levelo_inurba_marseille","lat":43.284092,"lon":5.375171,"is_reserved":false,"is_disabled":true,"rental_uris":{"android":"levelo://app?vid=d0bbd646-2962-4d80-9cb4-668a5435d4b4","ios":"levelo://app?vid=d0bbd646-2962-4d80-9cb4-668a5435d4b4"},"vehicle_type_id":"4","last_reported":1762345307,"current_range_meters":11200,"station_id":"","pricing_plan_id":"cebpf4jnsgd1na2vs0mg"},{"bike_id":"6eb73ba7-6b0e-4bc0-aaac-319d20ef799d","system_id":"levelo_inurba_marseille","lat":43.28698,"lon":5.3739,"is_reserved":false,"is_disabled":false,"rental_uris":{"android":"levelo://app?vid=6eb73ba7-6b0e-4bc0-aaac-319d20ef799d","ios":"levelo://app?vid=6eb73ba7-6b0e-4bc0-aaac-319d20ef799d"},"vehicle_type_id":"4","last_reported":1762345307,"current_range_meters":11200,"station_id":"ce4bh3p2rcd13ifvqdq0","pricing_plan_id":"cebpf4jnsgd1na2vs0mg"},{"bike_id":"fcdeb17d-bf49-489b-bcd2-d07603ec96c1","system_id":"levelo_inurba_marseille","lat":43.303,"lon":5.39212,"is_reserved":false,"is_disabled":false,"rental_uris":{"android":"levelo://app?vid=fcdeb17d-bf49-489b-bcd2-d07603ec96c1","ios":"levelo://app?vid=fcdeb17d-bf49-489b-bcd2-d07603ec96c1"},"vehicle_type_id":"4","last_reported":1762345307,"current_range_meters":11200,"station_id":"ce4bgkh2rcd13ifvqbk0","pricing_plan_id":"cebpf4jnsgd1na2vs0mg"},{"bike_id":"657ae5d2-7824-467a-af19-111c99196a49","system_id":"levelo_inurba_marseille","lat":43.30899,"lon":5.368498,"is_reserved":false,"is_disabled":false,"rental_uris":{"android":"levelo://app?vid=657ae5d2-7824-467a-af19-111c99196a49","ios":"levelo://app?vid=657ae5d2-7824-467a-af19-111c99196a49"},"vehicle_type_id":"4","last_reported":1762345307,"current_range_meters":11600,"station_id":"ce4bgn92rcd13ifvqbvg","pricing_plan_id":"cebpf4jnsgd1na2vs0mg"},{"bike_id":"7d09585e-6427-467c-8e23-84cd7cb02047","system_id":"levelo_inurba_marseille","lat":43.290295,"lon":5.386528,"is_reserved":false,"is_disabled":false,"rental_uris":{"android":"levelo://app?vid=7d09585e-6427-467c-8e23-84cd7cb02047","ios":"levelo://app?vid=7d09585e-6427-467c-8e23-84cd7cb02047"},"vehicle_type_id":"4","last_reported":1762345307,"current_range_meters":11600,"station_id":"ce4bh4p2rcd13ifvqe0g","pricing_plan_id":"cebpf4jnsgd1na2vs0mg"},{"bike_id":"d9fd7bb5-fd79-41f8-b907-8d24aff88403","system_id":"levelo_inurba_marseille","lat":43.30262,"lon":5.39929,"is_reserved":false,"is_disabled":false,"rental_uris":{"android":"levelo://app?vid=d9fd7bb5-fd79-41f8-b907-8d24aff88403","ios":"levelo://app?vid=d9fd7bb5-fd79-41f8-b907-8d24aff88403"},"vehicle_type_id":"4","last_reported":1762345307,"current_range_meters":11600,"station_id":"","pricing_plan_id":"cebpf4jnsgd1na2vs0mg"},{"bike_id":"a09c7f66-29d2-4588-b87f-cb00090294a7","system_id":"levelo_inurba_marseille","lat":43.23181,"lon":5.39995,"is_reserved":false,"is_disabled":false,"rental_uris":{"android":"levelo://app?vid=a09c7f66-29d2-4588-b87f-cb00090294a7","ios":"levelo://app?vid=a09c7f66-29d2-4588-b87f-cb00090294a7"},"vehicle_type_id":"4","last_reported":1762345307,"current_range_meters":11600,"station_id":"ce4bhn12rcd13ifvqgqg","pricing_plan_id":"cebpf4jnsgd1na2vs0mg"},{"bike_id":"db6a2c65-c838-4de7-bcff-af7747b366c1","system_id":"levelo_inurba_marseille","lat":43.25559,"lon":5.38258,"is_reserved":false,"is_disabled":false,"rental_uris":{"android":"levelo://app?vid=db6a2c65-c838-4de7-bcff-af7747b366c1","ios":"levelo://app?vid=db6a2c65-c838-4de7-bcff-af7747b366c1"},"vehicle_type_id":"4","last_reported":1762345307,"current_range_meters":11600,"station_id":"ce4bhih2rcd13ifvqfs0","pricing_plan_id":"cebpf4jnsgd1na2vs0mg"},{"bike_id":"e7002296-a724-4792-9c77-9aa7da662e7d","system_id":"levelo_inurba_marseille","lat":43.29752,"lon":5.36248,"is_reserved":false,"is_disabled":false,"rental_uris":{"android":"levelo://app?vid=e7002296-a724-4792-9c77-9aa7da662e7d","ios":"levelo://app?vid=e7002296-a724-4792-9c77-9aa7da662e7d"},"vehicle_type_id":"4","last_reported":1762345307,"current_range_meters":11600,"station_id":"","pricing_plan_id":"cebpf4jnsgd1na2vs0mg"},{"bike_id":"4b24dbba-41a5-4ecf-ade9-ac15d69f3a39","system_id":"levelo_inurba_marseille","lat":43.30277,"lon":5.37689,"is_reserved":false,"is_disabled":false,"rental_uris":{"android":"levelo://app?vid=4b24dbba-41a5-4ecf-ade9-ac15d69f3a39","ios":"levelo://app?vid=4b24dbba-41a5-4ecf-ade9-ac15d69f3a39"},"vehicle_type_id":"4","last_reported":1762345307,"current_range_meters":12000,"station_id":"ce4bguh2rcd13ifvqcj0","pricing_plan_id":"cebpf4jnsgd1na2vs0mg"},{"bike_id":"dceb4beb-6bb5-4225-ae7e-d3c4b9815bbe","system_id":"levelo_inurba_marseille","lat":43.284724,"lon":5.484066,"is_reserved":false,"is_disabled":false,"rental_uris":{"android":"levelo://app?vid=dceb4beb-6bb5-4225-ae7e-d3c4b9815bbe","ios":"levelo://app?vid=dceb4beb-6bb5-4225-ae7e-d3c4b9815bbe"},"vehicle_type_id":"4","last_reported":1762345307,"current_range_meters":12000,"station_id":"st_d3svhcjqgbts73a3dn0g","pricing_plan_id":"cebpf4jnsgd1na2vs0mg"},{"bike_id":"17b3e484-a2dc-4a18-9a8e-0f2e9aa1526c","system_id":"levelo_inurba_marseille","lat":43.231343,"lon":5.437339,"is_reserved":false,"is_disabled":false,"rental_uris":{"android":"levelo://app?vid=17b3e484-a2dc-4a18-9a8e-0f2e9aa1526c","ios":"levelo://app?vid=17b3e484-a2dc-4a18-9a8e-0f2e9aa1526c"},"vehicle_type_id":"4","last_reported":1762345307,"current_range_meters":12000,"station_id":"ce4bhmp2rcd13ifvqgog","pricing_plan_id":"cebpf4jnsgd1na2vs0mg"},{"bike_id":"13c3ccaa-99d2-4685-a1fa-a15f41ed3f72","system_id":"levelo_inurba_marseille","lat":43.30543,"lon":5.36536,"is_reserved":false,"is_disabled":false,"rental_uris":{"android":"levelo://app?vid=13c3ccaa-99d2-4685-a1fa-a15f41ed3f72","ios":"levelo://app?vid=13c3ccaa-99d2-4685-a1fa-a15f41ed3f72"},"vehicle_type_id":"4","last_reported":1762345307,"current_range_meters":12000,"station_id":"ce4bgs12rcd13ifvqcag","pricing_plan_id":"cebpf4jnsgd1na2vs0mg"},{"bike_id":"9bbd3d85-b440-471b-b356-6d920393d718","system_id":"levelo_inurba_marseille","lat":43.23971,"lon":5.36633,"is_reserved":false,"is_disabled":false,"rental_uris":{"android":"levelo://app?vid=9bbd3d85-b440-471b-b356-6d920393d718","ios":"levelo://app?vid=9bbd3d85-b440-471b-b356-6d920393d718"},"vehicle_type_id":"4","last_reported":1762345307,"current_range_meters":12000,"station_id":"ce4bhi12rcd13ifvqfp0","pricing_plan_id":"cebpf4jnsgd1na2vs0mg"},{"bike_id":"7c8c77e6-611f-4f5e-8374-da326e1729a3","system_id":"levelo_inurba_marseille","lat":43.2978,"lon":5.44102,"is_reserved":false,"is_disabled":false,"rental_uris":{"android":"levelo://app?vid=7c8c77e6-611f-4f5e-8374-da326e1729a3","ios":"levelo://app?vid=7c8c77e6-611f-4f5e-8374-da326e1729a3"},"vehicle_type_id":"4","last_reported":1762345307,"current_range_meters":12000,"station_id":"st_d3jp68qikq2c7381ktn0","pricing_plan_id":"cebpf4jnsgd1na2vs0mg"},{"bike_id":"ba2938fb-1ec4-425e-b6e5-c82904ce08fe","system_id":"levelo_inurba_marseille","lat":43.246217,"lon":5.431394,"is_reserved":false,"is_disabled":false,"rental_uris":{"android":"levelo://app?vid=ba2938fb-1ec4-425e-b6e5-c82904ce08fe","ios":"levelo://app?vid=ba2938fb-1ec4-425e-b6e5-c82904ce08fe"},"vehicle_type_id":"4","last_reported":1762345307,"current_range_meters":12000,"station_id":"st_d2m6c4gdas8pm72e190g","pricing_plan_id":"cebpf4jnsgd1na2vs0mg"},{"bike_id":"823f7b0f-ecce-4edb-9f63-73f100bfa91c","system_id":"levelo_inurba_marseille","lat":43.29199,"lon":5.35807,"is_reserved":false,"is_disabled":false,"rental_uris":{"android":"levelo://app?vid=823f7b0f-ecce-4edb-9f63-73f100bfa91c","ios":"levelo://app?vid=823f7b0f-ecce-4edb-9f63-73f100bfa91c"},"vehicle_type_id":"4","last_reported":1762345307,"current_range_meters":12400,"station_id":"ce4bhb12rcd13ifvqel0","pricing_plan_id":"cebpf4jnsgd1na2vs0mg"},{"bike_id":"7e8da862-2af0-47cd-9267-b7b5a54bf28d","system_id":"levelo_inurba_marseille","lat":43.22925,"lon":5.35396,"is_reserved":false,"is_disabled":false,"rental_uris":{"android":"levelo://app?vid=7e8da862-2af0-47cd-9267-b7b5a54bf28d","ios":"levelo://app?vid=7e8da862-2af0-47cd-9267-b7b5a54bf28d"},"vehicle_type_id":"4","last_reported":1762345307,"current_range_meters":12400,"station_id":"cpo3532slgdg3j2ikp40","pricing_plan_id":"cebpf4jnsgd1na2vs0mg"},{"bike_id":"9439ed6c-d676-4d8f-ae18-93ccd719e0b1","system_id":"levelo_inurba_marseille","lat":43.26499,"lon":5.39546,"is_reserved":false,"is_disabled":false,"rental_uris":{"android":"levelo://app?vid=9439ed6c-d676-4d8f-ae18-93ccd719e0b1","ios":"levelo://app?vid=9439ed6c-d676-4d8f-ae18-93ccd719e0b1"},"vehicle_type_id":"4","last_reported":1762345307,"current_range_meters":12400,"station_id":"ce4bhi12rcd13ifvqfq0","pricing_plan_id":"cebpf4jnsgd1na2vs0mg"},{"bike_id":"765b9661-2b24-4c0f-a9fb-732d7409b10c","system_id":"levelo_inurba_marseille","lat":43.21616,"lon":5.34435,"is_reserved":false,"is_disabled":false,"rental_uris":{"android":"levelo://app?vid=765b9661-2b24-4c0f-a9fb-732d7409b10c","ios":"levelo://app?vid=765b9661-2b24-4c0f-a9fb-732d7409b10c"},"vehicle_type_id":"4","last_reported":1762345307,"current_range_meters":12400,"station_id":"","pricing_plan_id":"cebpf4jnsgd1na2vs0mg"},{"bike_id":"dae30738-204c-4787-a9b5-e056fa94e0c9","system_id":"levelo_inurba_marseille","lat":43.22569,"lon":5.41629,"is_reserved":false,"is_disabled":false,"rental_uris":{"android":"levelo://app?vid=dae30738-204c-4787-a9b5-e056fa94e0c9","ios":"levelo://app?vid=dae30738-204c-4787-a9b5-e056fa94e0c9"},"vehicle_type_id":"4","last_reported":1762345307,"current_range_meters":12400,"station_id":"st_d2o4gvlbi1j2169b742g","pricing_plan_id":"cebpf4jnsgd1na2vs0mg"},{"bike_id":"d16911f9-0093-4796-bbbd-eb912eeb6174","system_id":"levelo_inurba_marseille","lat":43.25946,"lon":5.40876,"is_reserved":false,"is_disabled":false,"rental_uris":{"android":"levelo://app?vid=d16911f9-0093-4796-bbbd-eb912eeb6174","ios":"levelo://app?vid=d16911f9-0093-4796-bbbd-eb912eeb6174"},"vehicle_type_id":"4","last_reported":1762345307,"current_range_meters":12400,"station_id":"ce4bhm92rcd13ifvqglg","pricing_plan_id":"cebpf4jnsgd1na2vs0mg"},{"bike_id":"8a47a60e-bfb2-4ed6-8147-b39b97ff2fc3","system_id":"levelo_inurba_marseille","lat":43.2318,"lon":5.39989,"is_reserved":false,"is_disabled":false,"rental_uris":{"android":"levelo://app?vid=8a47a60e-bfb2-4ed6-8147-b39b97ff2fc3","ios":"levelo://app?vid=8a47a60e-bfb2-4ed6-8147-b39b97ff2fc3"},"vehicle_type_id":"4","last_reported":1762345307,"current_range_meters":12400,"station_id":"ce4bhn12rcd13ifvqgqg","pricing_plan_id":"cebpf4jnsgd1na2vs0mg"},{"bike_id":"c186caa4-2f1d-451a-a60e-b0344c78c4aa","system_id":"levelo_inurba_marseille","lat":43.23954,"lon":5.36647,"is_reserved":false,"is_disabled":false,"rental_uris":{"android":"levelo://app?vid=c186caa4-2f1d-451a-a60e-b0344c78c4aa","ios":"levelo://app?vid=c186caa4-2f1d-451a-a60e-b0344c78c4aa"},"vehicle_type_id":"4","last_reported":1762345307,"current_range_meters":12400,"station_id":"ce4bhi12rcd13ifvqfp0","pricing_plan_id":"cebpf4jnsgd1na2vs0mg"},{"bike_id":"ac7d2703-de91-43e1-bd7f-dacd227f269d","system_id":"levelo_inurba_marseille","lat":43.24681,"lon":5.3814,"is_reserved":false,"is_disabled":false,"rental_uris":{"android":"levelo://app?vid=ac7d2703-de91-43e1-bd7f-dacd227f269d","ios":"levelo://app?vid=ac7d2703-de91-43e1-bd7f-dacd227f269d"},"vehicle_type_id":"4","last_reported":1762345307,"current_range_meters":12400,"station_id":"ce4bhih2rcd13ifvqfr0","pricing_plan_id":"cebpf4jnsgd1na2vs0mg"},{"bike_id":"bcc138ed-a420-49ce-bd09-2812d40d19ee","system_id":"levelo_inurba_marseille","lat":43.25819,"lon":5.39443,"is_reserved":false,"is_disabled":false,"rental_uris":{"android":"levelo://app?vid=bcc138ed-a420-49ce-bd09-2812d40d19ee","ios":"levelo://app?vid=bcc138ed-a420-49ce-bd09-2812d40d19ee"},"vehicle_type_id":"4","last_reported":1762345307,"current_range_meters":12400,"station_id":"ce4bhip2rcd13ifvqft0","pricing_plan_id":"cebpf4jnsgd1na2vs0mg"},{"bike_id":"b8950634-601f-4b1a-a8ca-9ac75a365486","system_id":"levelo_inurba_marseille","lat":43.30477,"lon":5.37927,"is_reserved":false,"is_disabled":false,"rental_uris":{"android":"levelo://app?vid=b8950634-601f-4b1a-a8ca-9ac75a365486","ios":"levelo://app?vid=b8950634-601f-4b1a-a8ca-9ac75a365486"},"vehicle_type_id":"4","last_reported":1762345307,"current_range_meters":12800,"station_id":"ce4bgup2rcd13ifvqcn0","pricing_plan_id":"cebpf4jnsgd1na2vs0mg"},{"bike_id":"6b812d25-e1a0-46ad-88f6-3fa37f50c1f4","system_id":"levelo_inurba_marseille","lat":43.293046,"lon":5.371745,"is_reserved":false,"is_disabled":false,"rental_uris":{"android":"levelo://app?vid=6b812d25-e1a0-46ad-88f6-3fa37f50c1f4","ios":"levelo://app?vid=6b812d25-e1a0-46ad-88f6-3fa37f50c1f4"},"vehicle_type_id":"4","last_reported":1762345307,"current_range_meters":12800,"station_id":"","pricing_plan_id":"cebpf4jnsgd1na2vs0mg"},{"bike_id":"09774ef3-71e0-480b-a7dd-b7de8d19488d","system_id":"levelo_inurba_marseille","lat":43.23149,"lon":5.43722,"is_reserved":false,"is_disabled":false,"rental_uris":{"android":"levelo://app?vid=09774ef3-71e0-480b-a7dd-b7de8d19488d","ios":"levelo://app?vid=09774ef3-71e0-480b-a7dd-b7de8d19488d"},"vehicle_type_id":"4","last_reported":1762345307,"current_range_meters":12800,"station_id":"ce4bhmp2rcd13ifvqgog","pricing_plan_id":"cebpf4jnsgd1na2vs0mg"},{"bike_id":"fd973876-74e9-4ec8-8754-b3a5c162821f","system_id":"levelo_inurba_marseille","lat":43.2743,"lon":5.39418,"is_reserved":false,"is_disabled":false,"rental_uris":{"android":"levelo://app?vid=fd973876-74e9-4ec8-8754-b3a5c162821f","ios":"levelo://app?vid=fd973876-74e9-4ec8-8754-b3a5c162821f"},"vehicle_type_id":"4","last_reported":1762345307,"current_range_meters":12800,"station_id":"ce4bhdp2rcd13ifvqf20","pricing_plan_id":"cebpf4jnsgd1na2vs0mg"},{"bike_id":"82199599-7551-48d3-81a5-6ed885f0a93b","system_id":"levelo_inurba_marseille","lat":43.30477,"lon":5.37908,"is_reserved":false,"is_disabled":false,"rental_uris":{"android":"levelo://app?vid=82199599-7551-48d3-81a5-6ed885f0a93b","ios":"levelo://app?vid=82199599-7551-48d3-81a5-6ed885f0a93b"},"vehicle_type_id":"4","last_reported":1762345307,"current_range_meters":12800,"station_id":"ce4bgup2rcd13ifvqcn0","pricing_plan_id":"cebpf4jnsgd1na2vs0mg"},{"bike_id":"436a350d-721a-4466-b199-e7b08f07fb91","system_id":"levelo_inurba_marseille","lat":43.29004,"lon":5.35615,"is_reserved":false,"is_disabled":false,"rental_uris":{"android":"levelo://app?vid=436a350d-721a-4466-b199-e7b08f07fb91","ios":"levelo://app?vid=436a350d-721a-4466-b199-e7b08f07fb91"},"vehicle_type_id":"4","last_reported":1762345307,"current_range_meters":12800,"station_id":"ce4bhb92rcd13ifvqen0","pricing_plan_id":"cebpf4jnsgd1na2vs0mg"},{"bike_id":"5ae8ea99-7d84-48b0-b4af-a1457fc0273b","system_id":"levelo_inurba_marseille","lat":43.25927,"lon":5.40904,"is_reserved":false,"is_disabled":false,"rental_uris":{"android":"levelo://app?vid=5ae8ea99-7d84-48b0-b4af-a1457fc0273b","ios":"levelo://app?vid=5ae8ea99-7d84-48b0-b4af-a1457fc0273b"},"vehicle_type_id":"4","last_reported":1762345307,"current_range_meters":12800,"station_id":"ce4bhm92rcd13ifvqglg","pricing_plan_id":"cebpf4jnsgd1na2vs0mg"},{"bike_id":"e2104b6a-7e12-4a20-ae1b-cf4b446d5e26","system_id":"levelo_inurba_marseille","lat":43.28468,"lon":5.48406,"is_reserved":false,"is_disabled":false,"rental_uris":{"android":"levelo://app?vid=e2104b6a-7e12-4a20-ae1b-cf4b446d5e26","ios":"levelo://app?vid=e2104b6a-7e12-4a20-ae1b-cf4b446d5e26"},"vehicle_type_id":"4","last_reported":1762345307,"current_range_meters":12800,"station_id":"st_d3svhcjqgbts73a3dn0g","pricing_plan_id":"cebpf4jnsgd1na2vs0mg"},{"bike_id":"3a7e35fb-b205-49b0-b31b-983840c3bf80","system_id":"levelo_inurba_marseille","lat":43.2861,"lon":5.37068,"is_reserved":false,"is_disabled":false,"rental_uris":{"android":"levelo://app?vid=3a7e35fb-b205-49b0-b31b-983840c3bf80","ios":"levelo://app?vid=3a7e35fb-b205-49b0-b31b-983840c3bf80"},"vehicle_type_id":"4","last_reported":1762345307,"current_range_meters":12800,"station_id":"ce4bht12rcd13ifvqi60","pricing_plan_id":"cebpf4jnsgd1na2vs0mg"},{"bike_id":"bacb9c52-ae0d-48f0-aa92-6c038e31315d","system_id":"levelo_inurba_marseille","lat":43.29277,"lon":5.38766,"is_reserved":false,"is_disabled":false,"rental_uris":{"android":"levelo://app?vid=bacb9c52-ae0d-48f0-aa92-6c038e31315d","ios":"levelo://app?vid=bacb9c52-ae0d-48f0-aa92-6c038e31315d"},"vehicle_type_id":"4","last_reported":1762345307,"current_range_meters":12800,"station_id":"","pricing_plan_id":"cebpf4jnsgd1na2vs0mg"},{"bike_id":"2ecf69a5-dd5a-4797-a967-76411d68b0f1","system_id":"levelo_inurba_marseille","lat":43.27814,"lon":5.40718,"is_reserved":false,"is_disabled":false,"rental_uris":{"android":"levelo://app?vid=2ecf69a5-dd5a-4797-a967-76411d68b0f1","ios":"levelo://app?vid=2ecf69a5-dd5a-4797-a967-76411d68b0f1"},"vehicle_type_id":"4","last_reported":1762345307,"current_range_meters":12800,"station_id":"ce4bhnh2rcd13ifvqgtg","pricing_plan_id":"cebpf4jnsgd1na2vs0mg"},{"bike_id":"a887b1cd-286a-477e-b7f7-98653ff5555e","system_id":"levelo_inurba_marseille","lat":43.267,"lon":5.41217,"is_reserved":false,"is_disabled":false,"rental_uris":{"android":"levelo://app?vid=a887b1cd-286a-477e-b7f7-98653ff5555e","ios":"levelo://app?vid=a887b1cd-286a-477e-b7f7-98653ff5555e"},"vehicle_type_id":"4","last_reported":1762345307,"current_range_meters":13600,"station_id":"","pricing_plan_id":"cebpf4jnsgd1na2vs0mg"},{"bike_id":"e458a04e-8648-405c-ad83-b53d61f3e64a","system_id":"levelo_inurba_marseille","lat":43.229323,"lon":5.353796,"is_reserved":false,"is_disabled":false,"rental_uris":{"android":"levelo://app?vid=e458a04e-8648-405c-ad83-b53d61f3e64a","ios":"levelo://app?vid=e458a04e-8648-405c-ad83-b53d61f3e64a"},"vehicle_type_id":"4","last_reported":1762345307,"current_range_meters":13600,"station_id":"cpo3532slgdg3j2ikp40","pricing_plan_id":"cebpf4jnsgd1na2vs0mg"},{"bike_id":"5f93c904-b9ec-4f25-8b7b-6c7a835949a0","system_id":"levelo_inurba_marseille","lat":43.25933,"lon":5.40914,"is_reserved":false,"is_disabled":false,"rental_uris":{"android":"levelo://app?vid=5f93c904-b9ec-4f25-8b7b-6c7a835949a0","ios":"levelo://app?vid=5f93c904-b9ec-4f25-8b7b-6c7a835949a0"},"vehicle_type_id":"4","last_reported":1762345307,"current_range_meters":13600,"station_id":"ce4bhm92rcd13ifvqglg","pricing_plan_id":"cebpf4jnsgd1na2vs0mg"},{"bike_id":"ab9b2bcc-ea75-449d-adbb-4add292d38c4","system_id":"levelo_inurba_marseille","lat":43.34064,"lon":5.38136,"is_reserved":false,"is_disabled":false,"rental_uris":{"android":"levelo://app?vid=ab9b2bcc-ea75-449d-adbb-4add292d38c4","ios":"levelo://app?vid=ab9b2bcc-ea75-449d-adbb-4add292d38c4"},"vehicle_type_id":"4","last_reported":1762345307,"current_range_meters":13600,"station_id":"","pricing_plan_id":"cebpf4jnsgd1na2vs0mg"},{"bike_id":"b9fd5a1b-fd04-4b24-a46a-4d2a6504e33d","system_id":"levelo_inurba_marseille","lat":43.32777,"lon":5.42446,"is_reserved":false,"is_disabled":false,"rental_uris":{"android":"levelo://app?vid=b9fd5a1b-fd04-4b24-a46a-4d2a6504e33d","ios":"levelo://app?vid=b9fd5a1b-fd04-4b24-a46a-4d2a6504e33d"},"vehicle_type_id":"4","last_reported":1762345307,"current_range_meters":13600,"station_id":"","pricing_plan_id":"cebpf4jnsgd1na2vs0mg"},{"bike_id":"855fb76f-387b-4119-9d09-c953f924d82e","system_id":"levelo_inurba_marseille","lat":43.279748,"lon":5.386958,"is_reserved":false,"is_disabled":false,"rental_uris":{"android":"levelo://app?vid=855fb76f-387b-4119-9d09-c953f924d82e","ios":"levelo://app?vid=855fb76f-387b-4119-9d09-c953f924d82e"},"vehicle_type_id":"4","last_reported":1762345307,"current_range_meters":13600,"station_id":"","pricing_plan_id":"cebpf4jnsgd1na2vs0mg"},{"bike_id":"8dcca48b-f36b-4574-ac35-0f04b245352c","system_id":"levelo_inurba_marseille","lat":43.307953,"lon":5.435225,"is_reserved":false,"is_disabled":false,"rental_uris":{"android":"levelo://app?vid=8dcca48b-f36b-4574-ac35-0f04b245352c","ios":"levelo://app?vid=8dcca48b-f36b-4574-ac35-0f04b245352c"},"vehicle_type_id":"4","last_reported":1762345307,"current_range_meters":13600,"station_id":"","pricing_plan_id":"cebpf4jnsgd1na2vs0mg"},{"bike_id":"8718bdb6-5029-4277-a93d-0baafe3b96a9","system_id":"levelo_inurba_marseille","lat":43.264661,"lon":5.373442,"is_reserved":false,"is_disabled":false,"rental_uris":{"android":"levelo://app?vid=8718bdb6-5029-4277-a93d-0baafe3b96a9","ios":"levelo://app?vid=8718bdb6-5029-4277-a93d-0baafe3b96a9"},"vehicle_type_id":"4","last_reported":1762345307,"current_range_meters":14000,"station_id":"ce4bgk12rcd13ifvqbi0","pricing_plan_id":"cebpf4jnsgd1na2vs0mg"},{"bike_id":"3517c829-5868-451e-a2ab-1c037110fd0b","system_id":"levelo_inurba_marseille","lat":43.26551,"lon":5.37289,"is_reserved":false,"is_disabled":false,"rental_uris":{"android":"levelo://app?vid=3517c829-5868-451e-a2ab-1c037110fd0b","ios":"levelo://app?vid=3517c829-5868-451e-a2ab-1c037110fd0b"},"vehicle_type_id":"4","last_reported":1762345307,"current_range_meters":14000,"station_id":"ce4bhg12rcd13ifvqf70","pricing_plan_id":"cebpf4jnsgd1na2vs0mg"},{"bike_id":"839b0ee5-7b96-41df-a192-d6fc3a3bebee","system_id":"levelo_inurba_marseille","lat":43.30497,"lon":5.36554,"is_reserved":false,"is_disabled":false,"rental_uris":{"android":"levelo://app?vid=839b0ee5-7b96-41df-a192-d6fc3a3bebee","ios":"levelo://app?vid=839b0ee5-7b96-41df-a192-d6fc3a3bebee"},"vehicle_type_id":"4","last_reported":1762345307,"current_range_meters":14000,"station_id":"","pricing_plan_id":"cebpf4jnsgd1na2vs0mg"},{"bike_id":"604a4a96-00ae-4719-afaf-053b11b9b8d2","system_id":"levelo_inurba_marseille","lat":43.25338,"lon":5.42181,"is_reserved":false,"is_disabled":false,"rental_uris":{"android":"levelo://app?vid=604a4a96-00ae-4719-afaf-053b11b9b8d2","ios":"levelo://app?vid=604a4a96-00ae-4719-afaf-053b11b9b8d2"},"vehicle_type_id":"4","last_reported":1762345307,"current_range_meters":14400,"station_id":"st_d2m65c5bi1j21697t3ng","pricing_plan_id":"cebpf4jnsgd1na2vs0mg"},{"bike_id":"6edaa430-e37a-4cc5-b572-2c09b5252b2c","system_id":"levelo_inurba_marseille","lat":43.323693,"lon":5.388809,"is_reserved":false,"is_disabled":false,"rental_uris":{"android":"levelo://app?vid=6edaa430-e37a-4cc5-b572-2c09b5252b2c","ios":"levelo://app?vid=6edaa430-e37a-4cc5-b572-2c09b5252b2c"},"vehicle_type_id":"4","last_reported":1762345307,"current_range_meters":14400,"station_id":"ce4bhqp2rcd13ifvqhog","pricing_plan_id":"cebpf4jnsgd1na2vs0mg"},{"bike_id":"bcb3c39b-ec48-48ef-9eac-eb8b71840959","system_id":"levelo_inurba_marseille","lat":43.33757,"lon":5.37464,"is_reserved":false,"is_disabled":false,"rental_uris":{"android":"levelo://app?vid=bcb3c39b-ec48-48ef-9eac-eb8b71840959","ios":"levelo://app?vid=bcb3c39b-ec48-48ef-9eac-eb8b71840959"},"vehicle_type_id":"4","last_reported":1762345307,"current_range_meters":14800,"station_id":"","pricing_plan_id":"cebpf4jnsgd1na2vs0mg"},{"bike_id":"1aea4996-2054-4008-9687-d3930802c663","system_id":"levelo_inurba_marseille","lat":43.29005,"lon":5.35613,"is_reserved":false,"is_disabled":false,"rental_uris":{"android":"levelo://app?vid=1aea4996-2054-4008-9687-d3930802c663","ios":"levelo://app?vid=1aea4996-2054-4008-9687-d3930802c663"},"vehicle_type_id":"4","last_reported":1762345307,"current_range_meters":14800,"station_id":"ce4bhb92rcd13ifvqen0","pricing_plan_id":"cebpf4jnsgd1na2vs0mg"},{"bike_id":"94b06f3e-9c43-404e-899a-d1e48d6d7a76","system_id":"levelo_inurba_marseille","lat":43.287102,"lon":5.399967,"is_reserved":false,"is_disabled":false,"rental_uris":{"android":"levelo://app?vid=94b06f3e-9c43-404e-899a-d1e48d6d7a76","ios":"levelo://app?vid=94b06f3e-9c43-404e-899a-d1e48d6d7a76"},"vehicle_type_id":"4","last_reported":1762345307,"current_range_meters":15200,"station_id":"ce4bho92rcd13ifvqh3g","pricing_plan_id":"cebpf4jnsgd1na2vs0mg"},{"bike_id":"bcac1c24-90fc-4609-baac-34013d616e31","system_id":"levelo_inurba_marseille","lat":43.24165,"lon":5.36393,"is_reserved":false,"is_disabled":false,"rental_uris":{"android":"levelo://app?vid=bcac1c24-90fc-4609-baac-34013d616e31","ios":"levelo://app?vid=bcac1c24-90fc-4609-baac-34013d616e31"},"vehicle_type_id":"4","last_reported":1762345307,"current_range_meters":15200,"station_id":"cpo36qri1sfpv3e86is0","pricing_plan_id":"cebpf4jnsgd1na2vs0mg"},{"bike_id":"079b38ff-5a78-48d1-9d64-262703f7fe18","system_id":"levelo_inurba_marseille","lat":43.30308,"lon":5.369,"is_reserved":false,"is_disabled":false,"rental_uris":{"android":"levelo://app?vid=079b38ff-5a78-48d1-9d64-262703f7fe18","ios":"levelo://app?vid=079b38ff-5a78-48d1-9d64-262703f7fe18"},"vehicle_type_id":"4","last_reported":1762345307,"current_range_meters":15200,"station_id":"ce4bgqh2rcd13ifvqc5g","pricing_plan_id":"cebpf4jnsgd1na2vs0mg"},{"bike_id":"9f42320e-716a-463d-a0ac-defefad10bcf","system_id":"levelo_inurba_marseille","lat":43.24173,"lon":5.397296,"is_reserved":false,"is_disabled":false,"rental_uris":{"android":"levelo://app?vid=9f42320e-716a-463d-a0ac-defefad10bcf","ios":"levelo://app?vid=9f42320e-716a-463d-a0ac-defefad10bcf"},"vehicle_type_id":"4","last_reported":1762345307,"current_range_meters":15200,"station_id":"ce4bhn12rcd13ifvqgpg","pricing_plan_id":"cebpf4jnsgd1na2vs0mg"},{"bike_id":"42d2792a-88bd-48e5-afe0-4b6400cd337a","system_id":"levelo_inurba_marseille","lat":43.31663,"lon":5.38209,"is_reserved":false,"is_disabled":false,"rental_uris":{"android":"levelo://app?vid=42d2792a-88bd-48e5-afe0-4b6400cd337a","ios":"levelo://app?vid=42d2792a-88bd-48e5-afe0-4b6400cd337a"},"vehicle_type_id":"4","last_reported":1762345307,"current_range_meters":15200,"station_id":"","pricing_plan_id":"cebpf4jnsgd1na2vs0mg"},{"bike_id":"62c07fdf-faae-41ba-ba69-523c309bbfa6","system_id":"levelo_inurba_marseille","lat":43.29197,"lon":5.35815,"is_reserved":false,"is_disabled":false,"rental_uris":{"android":"levelo://app?vid=62c07fdf-faae-41ba-ba69-523c309bbfa6","ios":"levelo://app?vid=62c07fdf-faae-41ba-ba69-523c309bbfa6"},"vehicle_type_id":"4","last_reported":1762345307,"current_range_meters":15200,"station_id":"ce4bhb12rcd13ifvqel0","pricing_plan_id":"cebpf4jnsgd1na2vs0mg"},{"bike_id":"0a567e7b-a8c7-4700-b2e5-90b665b67c4d","system_id":"levelo_inurba_marseille","lat":43.259375,"lon":5.409029,"is_reserved":false,"is_disabled":false,"rental_uris":{"android":"levelo://app?vid=0a567e7b-a8c7-4700-b2e5-90b665b67c4d","ios":"levelo://app?vid=0a567e7b-a8c7-4700-b2e5-90b665b67c4d"},"vehicle_type_id":"4","last_reported":1762345307,"current_range_meters":15200,"station_id":"ce4bhmh2rcd13ifvqgmg","pricing_plan_id":"cebpf4jnsgd1na2vs0mg"},{"bike_id":"8dc7779b-3ef6-4e6f-af35-7b777172050f","system_id":"levelo_inurba_marseille","lat":43.257168,"lon":5.410979,"is_reserved":false,"is_disabled":false,"rental_uris":{"android":"levelo://app?vid=8dc7779b-3ef6-4e6f-af35-7b777172050f","ios":"levelo://app?vid=8dc7779b-3ef6-4e6f-af35-7b777172050f"},"vehicle_type_id":"4","last_reported":1762345307,"current_range_meters":15200,"station_id":"ce4bhkp2rcd13ifvqgd0","pricing_plan_id":"cebpf4jnsgd1na2vs0mg"},{"bike_id":"27aefe03-bbd2-43d3-8d72-3a7105da9194","system_id":"levelo_inurba_marseille","lat":43.31356,"lon":5.37911,"is_reserved":false,"is_disabled":false,"rental_uris":{"android":"levelo://app?vid=27aefe03-bbd2-43d3-8d72-3a7105da9194","ios":"levelo://app?vid=27aefe03-bbd2-43d3-8d72-3a7105da9194"},"vehicle_type_id":"4","last_reported":1762345307,"current_range_meters":15200,"station_id":"","pricing_plan_id":"cebpf4jnsgd1na2vs0mg"},{"bike_id":"18b814bc-7baf-4cca-a78f-815b5762e683","system_id":"levelo_inurba_marseille","lat":43.25474,"lon":5.37666,"is_reserved":false,"is_disabled":false,"rental_uris":{"android":"levelo://app?vid=18b814bc-7baf-4cca-a78f-815b5762e683","ios":"levelo://app?vid=18b814bc-7baf-4cca-a78f-815b5762e683"},"vehicle_type_id":"4","last_reported":1762345307,"current_range_meters":15200,"station_id":"ce4bhh12rcd13ifvqff0","pricing_plan_id":"cebpf4jnsgd1na2vs0mg"},{"bike_id":"1ddc9094-5059-4b98-85f1-07efe98a909f","system_id":"levelo_inurba_marseille","lat":43.29305,"lon":5.37462,"is_reserved":false,"is_disabled":false,"rental_uris":{"android":"levelo://app?vid=1ddc9094-5059-4b98-85f1-07efe98a909f","ios":"levelo://app?vid=1ddc9094-5059-4b98-85f1-07efe98a909f"},"vehicle_type_id":"4","last_reported":1762345307,"current_range_meters":15200,"station_id":"ce4bgi12rcd13ifvqb70","pricing_plan_id":"cebpf4jnsgd1na2vs0mg"},{"bike_id":"ee7b4a2a-327b-4f7c-88c2-d8bb993ed935","system_id":"levelo_inurba_marseille","lat":43.259467,"lon":5.40898,"is_reserved":false,"is_disabled":false,"rental_uris":{"android":"levelo://app?vid=ee7b4a2a-327b-4f7c-88c2-d8bb993ed935","ios":"levelo://app?vid=ee7b4a2a-327b-4f7c-88c2-d8bb993ed935"},"vehicle_type_id":"4","last_reported":1762345307,"current_range_meters":16000,"station_id":"ce4bhm92rcd13ifvqglg","pricing_plan_id":"cebpf4jnsgd1na2vs0mg"},{"bike_id":"c14b70b2-98d4-4848-a2d9-32722b8d1daf","system_id":"levelo_inurba_marseille","lat":43.321012,"lon":5.367655,"is_reserved":false,"is_disabled":false,"rental_uris":{"android":"levelo://app?vid=c14b70b2-98d4-4848-a2d9-32722b8d1daf","ios":"levelo://app?vid=c14b70b2-98d4-4848-a2d9-32722b8d1daf"},"vehicle_type_id":"4","last_reported":1762345307,"current_range_meters":16000,"station_id":"ce4bhrh2rcd13ifvqhug","pricing_plan_id":"cebpf4jnsgd1na2vs0mg"},{"bike_id":"ca46fdbd-ac89-432a-9c58-507605a7d54c","system_id":"levelo_inurba_marseille","lat":43.29269,"lon":5.37629,"is_reserved":false,"is_disabled":false,"rental_uris":{"android":"levelo://app?vid=ca46fdbd-ac89-432a-9c58-507605a7d54c","ios":"levelo://app?vid=ca46fdbd-ac89-432a-9c58-507605a7d54c"},"vehicle_type_id":"4","last_reported":1762345307,"current_range_meters":16000,"station_id":"ce4bgi12rcd13ifvqb80","pricing_plan_id":"cebpf4jnsgd1na2vs0mg"},{"bike_id":"dbb6b5e9-b188-4887-bba4-ba2a589c69fd","system_id":"levelo_inurba_marseille","lat":43.25844,"lon":5.39875,"is_reserved":false,"is_disabled":false,"rental_uris":{"android":"levelo://app?vid=dbb6b5e9-b188-4887-bba4-ba2a589c69fd","ios":"levelo://app?vid=dbb6b5e9-b188-4887-bba4-ba2a589c69fd"},"vehicle_type_id":"4","last_reported":1762345307,"current_range_meters":16000,"station_id":"ce4bhl92rcd13ifvqghg","pricing_plan_id":"cebpf4jnsgd1na2vs0mg"},{"bike_id":"302a54b6-94f8-4e2e-aa42-d3a7c1af3a9c","system_id":"levelo_inurba_marseille","lat":43.30121,"lon":5.43119,"is_reserved":false,"is_disabled":false,"rental_uris":{"android":"levelo://app?vid=302a54b6-94f8-4e2e-aa42-d3a7c1af3a9c","ios":"levelo://app?vid=302a54b6-94f8-4e2e-aa42-d3a7c1af3a9c"},"vehicle_type_id":"4","last_reported":1762345307,"current_range_meters":16000,"station_id":"st_d3js3co5814s73ftftug","pricing_plan_id":"cebpf4jnsgd1na2vs0mg"},{"bike_id":"ffc53bf7-db3c-486c-bc73-2610a47cd5a9","system_id":"levelo_inurba_marseille","lat":43.290718,"lon":5.371637,"is_reserved":false,"is_disabled":false,"rental_uris":{"android":"levelo://app?vid=ffc53bf7-db3c-486c-bc73-2610a47cd5a9","ios":"levelo://app?vid=ffc53bf7-db3c-486c-bc73-2610a47cd5a9"},"vehicle_type_id":"4","last_reported":1762345307,"current_range_meters":16000,"station_id":"ce4bh692rcd13ifvqea0","pricing_plan_id":"cebpf4jnsgd1na2vs0mg"},{"bike_id":"81dcc136-dea2-46c0-98af-42dbdee92b54","system_id":"levelo_inurba_marseille","lat":43.28475,"lon":5.48416,"is_reserved":false,"is_disabled":false,"rental_uris":{"android":"levelo://app?vid=81dcc136-dea2-46c0-98af-42dbdee92b54","ios":"levelo://app?vid=81dcc136-dea2-46c0-98af-42dbdee92b54"},"vehicle_type_id":"4","last_reported":1762345307,"current_range_meters":16000,"station_id":"","pricing_plan_id":"cebpf4jnsgd1na2vs0mg"},{"bike_id":"cae79087-0d8c-456b-808b-67649a544dde","system_id":"levelo_inurba_marseille","lat":43.25124,"lon":5.40331,"is_reserved":false,"is_disabled":false,"rental_uris":{"android":"levelo://app?vid=cae79087-0d8c-456b-808b-67649a544dde","ios":"levelo://app?vid=cae79087-0d8c-456b-808b-67649a544dde"},"vehicle_type_id":"4","last_reported":1762345307,"current_range_meters":16000,"station_id":"ce4bhlh2rcd13ifvqgig","pricing_plan_id":"cebpf4jnsgd1na2vs0mg"},{"bike_id":"8cf54d33-efb5-4166-8509-df2cb57488b1","system_id":"levelo_inurba_marseille","lat":43.33426,"lon":5.40034,"is_reserved":false,"is_disabled":false,"rental_uris":{"android":"levelo://app?vid=8cf54d33-efb5-4166-8509-df2cb57488b1","ios":"levelo://app?vid=8cf54d33-efb5-4166-8509-df2cb57488b1"},"vehicle_type_id":"4","last_reported":1762345307,"current_range_meters":16000,"station_id":"","pricing_plan_id":"cebpf4jnsgd1na2vs0mg"},{"bike_id":"93fa785b-4482-491b-969d-b8683ee3d48d","system_id":"levelo_inurba_marseille","lat":43.29063,"lon":5.37187,"is_reserved":false,"is_disabled":false,"rental_uris":{"android":"levelo://app?vid=93fa785b-4482-491b-969d-b8683ee3d48d","ios":"levelo://app?vid=93fa785b-4482-491b-969d-b8683ee3d48d"},"vehicle_type_id":"4","last_reported":1762345307,"current_range_meters":16000,"station_id":"ce4bh5p2rcd13ifvqe4g","pricing_plan_id":"cebpf4jnsgd1na2vs0mg"},{"bike_id":"e98a4ce4-3752-4eab-ae51-5311e84df11a","system_id":"levelo_inurba_marseille","lat":43.32366,"lon":5.38885,"is_reserved":false,"is_disabled":false,"rental_uris":{"android":"levelo://app?vid=e98a4ce4-3752-4eab-ae51-5311e84df11a","ios":"levelo://app?vid=e98a4ce4-3752-4eab-ae51-5311e84df11a"},"vehicle_type_id":"4","last_reported":1762345307,"current_range_meters":16000,"station_id":"ce4bhqp2rcd13ifvqhog","pricing_plan_id":"cebpf4jnsgd1na2vs0mg"},{"bike_id":"c3809eb6-b0fb-4587-9ebe-c32411bbebd7","system_id":"levelo_inurba_marseille","lat":43.3016,"lon":5.38096,"is_reserved":false,"is_disabled":false,"rental_uris":{"android":"levelo://app?vid=c3809eb6-b0fb-4587-9ebe-c32411bbebd7","ios":"levelo://app?vid=c3809eb6-b0fb-4587-9ebe-c32411bbebd7"},"vehicle_type_id":"4","last_reported":1762345307,"current_range_meters":16400,"station_id":"ce4bgjp2rcd13ifvqbh0","pricing_plan_id":"cebpf4jnsgd1na2vs0mg"},{"bike_id":"64f63343-4494-416c-90c6-98a294ecb70d","system_id":"levelo_inurba_marseille","lat":43.30958,"lon":5.39045,"is_reserved":false,"is_disabled":false,"rental_uris":{"android":"levelo://app?vid=64f63343-4494-416c-90c6-98a294ecb70d","ios":"levelo://app?vid=64f63343-4494-416c-90c6-98a294ecb70d"},"vehicle_type_id":"4","last_reported":1762345307,"current_range_meters":16400,"station_id":"ce4bgup2rcd13ifvqco0","pricing_plan_id":"cebpf4jnsgd1na2vs0mg"},{"bike_id":"813d84df-d28e-442a-86a4-2693a3f1117d","system_id":"levelo_inurba_marseille","lat":43.23047,"lon":5.35497,"is_reserved":false,"is_disabled":false,"rental_uris":{"android":"levelo://app?vid=813d84df-d28e-442a-86a4-2693a3f1117d","ios":"levelo://app?vid=813d84df-d28e-442a-86a4-2693a3f1117d"},"vehicle_type_id":"4","last_reported":1762345307,"current_range_meters":16400,"station_id":"cpo3342slgdg3j2ifvpg","pricing_plan_id":"cebpf4jnsgd1na2vs0mg"},{"bike_id":"cff64f4e-5f37-43ea-ae7e-1ca574864a38","system_id":"levelo_inurba_marseille","lat":43.32437,"lon":5.42816,"is_reserved":false,"is_disabled":false,"rental_uris":{"android":"levelo://app?vid=cff64f4e-5f37-43ea-ae7e-1ca574864a38","ios":"levelo://app?vid=cff64f4e-5f37-43ea-ae7e-1ca574864a38"},"vehicle_type_id":"4","last_reported":1762345307,"current_range_meters":16400,"station_id":"","pricing_plan_id":"cebpf4jnsgd1na2vs0mg"},{"bike_id":"c6d2dafc-fb2c-4b82-8b78-f3d7d347211b","system_id":"levelo_inurba_marseille","lat":43.32342,"lon":5.3674,"is_reserved":false,"is_disabled":false,"rental_uris":{"android":"levelo://app?vid=c6d2dafc-fb2c-4b82-8b78-f3d7d347211b","ios":"levelo://app?vid=c6d2dafc-fb2c-4b82-8b78-f3d7d347211b"},"vehicle_type_id":"4","last_reported":1762345307,"current_range_meters":16400,"station_id":"ce4bhsh2rcd13ifvqi2g","pricing_plan_id":"cebpf4jnsgd1na2vs0mg"},{"bike_id":"81ac0ba6-3f71-481e-bb86-6417cb8d40e0","system_id":"levelo_inurba_marseille","lat":43.30954,"lon":5.39044,"is_reserved":false,"is_disabled":false,"rental_uris":{"android":"levelo://app?vid=81ac0ba6-3f71-481e-bb86-6417cb8d40e0","ios":"levelo://app?vid=81ac0ba6-3f71-481e-bb86-6417cb8d40e0"},"vehicle_type_id":"4","last_reported":1762345307,"current_range_meters":16400,"station_id":"ce4bgup2rcd13ifvqco0","pricing_plan_id":"cebpf4jnsgd1na2vs0mg"},{"bike_id":"89668189-b95b-43c4-a0b4-cad5f1f90638","system_id":"levelo_inurba_marseille","lat":43.30166,"lon":5.38021,"is_reserved":false,"is_disabled":true,"rental_uris":{"android":"levelo://app?vid=89668189-b95b-43c4-a0b4-cad5f1f90638","ios":"levelo://app?vid=89668189-b95b-43c4-a0b4-cad5f1f90638"},"vehicle_type_id":"4","last_reported":1762345307,"current_range_meters":16400,"station_id":"ce4bgjp2rcd13ifvqbh0","pricing_plan_id":"cebpf4jnsgd1na2vs0mg"},{"bike_id":"5c5611a8-6ac7-43c7-b606-5e1a3b67cf77","system_id":"levelo_inurba_marseille","lat":43.25013,"lon":5.3893,"is_reserved":false,"is_disabled":false,"rental_uris":{"android":"levelo://app?vid=5c5611a8-6ac7-43c7-b606-5e1a3b67cf77","ios":"levelo://app?vid=5c5611a8-6ac7-43c7-b606-5e1a3b67cf77"},"vehicle_type_id":"4","last_reported":1762345307,"current_range_meters":16400,"station_id":"ce4bhgp2rcd13ifvqfd0","pricing_plan_id":"cebpf4jnsgd1na2vs0mg"},{"bike_id":"d8c5c888-31e3-48d4-8881-36cdc651e5df","system_id":"levelo_inurba_marseille","lat":43.22532,"lon":5.34842,"is_reserved":false,"is_disabled":false,"rental_uris":{"android":"levelo://app?vid=d8c5c888-31e3-48d4-8881-36cdc651e5df","ios":"levelo://app?vid=d8c5c888-31e3-48d4-8881-36cdc651e5df"},"vehicle_type_id":"4","last_reported":1762345307,"current_range_meters":16400,"station_id":"","pricing_plan_id":"cebpf4jnsgd1na2vs0mg"},{"bike_id":"4b9b61f9-e84c-4648-b6f6-faf53029a4ee","system_id":"levelo_inurba_marseille","lat":43.270668,"lon":5.422734,"is_reserved":false,"is_disabled":false,"rental_uris":{"android":"levelo://app?vid=4b9b61f9-e84c-4648-b6f6-faf53029a4ee","ios":"levelo://app?vid=4b9b61f9-e84c-4648-b6f6-faf53029a4ee"},"vehicle_type_id":"4","last_reported":1762345307,"current_range_meters":16800,"station_id":"ce4bhk92rcd13ifvqgb0","pricing_plan_id":"cebpf4jnsgd1na2vs0mg"},{"bike_id":"4409e8e6-e2b1-45fd-ac80-4ccdb4f82c11","system_id":"levelo_inurba_marseille","lat":43.31082,"lon":5.42425,"is_reserved":false,"is_disabled":false,"rental_uris":{"android":"levelo://app?vid=4409e8e6-e2b1-45fd-ac80-4ccdb4f82c11","ios":"levelo://app?vid=4409e8e6-e2b1-45fd-ac80-4ccdb4f82c11"},"vehicle_type_id":"4","last_reported":1762345307,"current_range_meters":16800,"station_id":"ce4bhp92rcd13ifvqhag","pricing_plan_id":"cebpf4jnsgd1na2vs0mg"},{"bike_id":"67d332af-0dff-4402-9885-e114a9efa4f9","system_id":"levelo_inurba_marseille","lat":43.296,"lon":5.38114,"is_reserved":false,"is_disabled":false,"rental_uris":{"android":"levelo://app?vid=67d332af-0dff-4402-9885-e114a9efa4f9","ios":"levelo://app?vid=67d332af-0dff-4402-9885-e114a9efa4f9"},"vehicle_type_id":"4","last_reported":1762345307,"current_range_meters":16800,"station_id":"ce4bgl12rcd13ifvqbo0","pricing_plan_id":"cebpf4jnsgd1na2vs0mg"},{"bike_id":"88b5e09b-fa89-445e-a2f3-e7f01fcd212c","system_id":"levelo_inurba_marseille","lat":43.30459,"lon":5.37902,"is_reserved":false,"is_disabled":false,"rental_uris":{"android":"levelo://app?vid=88b5e09b-fa89-445e-a2f3-e7f01fcd212c","ios":"levelo://app?vid=88b5e09b-fa89-445e-a2f3-e7f01fcd212c"},"vehicle_type_id":"4","last_reported":1762345307,"current_range_meters":16800,"station_id":"ce4bgup2rcd13ifvqcn0","pricing_plan_id":"cebpf4jnsgd1na2vs0mg"},{"bike_id":"e946e9ec-a4d2-434a-b465-1ffc5a3e6b52","system_id":"levelo_inurba_marseille","lat":43.25921,"lon":5.40916,"is_reserved":false,"is_disabled":false,"rental_uris":{"android":"levelo://app?vid=e946e9ec-a4d2-434a-b465-1ffc5a3e6b52","ios":"levelo://app?vid=e946e9ec-a4d2-434a-b465-1ffc5a3e6b52"},"vehicle_type_id":"4","last_reported":1762345307,"current_range_meters":16800,"station_id":"ce4bhm92rcd13ifvqglg","pricing_plan_id":"cebpf4jnsgd1na2vs0mg"},{"bike_id":"aee05e44-58d8-4251-b642-bba3a7afe48a","system_id":"levelo_inurba_marseille","lat":43.21192,"lon":5.35077,"is_reserved":false,"is_disabled":false,"rental_uris":{"android":"levelo://app?vid=aee05e44-58d8-4251-b642-bba3a7afe48a","ios":"levelo://app?vid=aee05e44-58d8-4251-b642-bba3a7afe48a"},"vehicle_type_id":"4","last_reported":1762345307,"current_range_meters":16800,"station_id":"","pricing_plan_id":"cebpf4jnsgd1na2vs0mg"},{"bike_id":"460958aa-abb4-46e7-a2e3-909165861081","system_id":"levelo_inurba_marseille","lat":43.29821,"lon":5.36282,"is_reserved":false,"is_disabled":false,"rental_uris":{"android":"levelo://app?vid=460958aa-abb4-46e7-a2e3-909165861081","ios":"levelo://app?vid=460958aa-abb4-46e7-a2e3-909165861081"},"vehicle_type_id":"4","last_reported":1762345307,"current_range_meters":16800,"station_id":"ce4bgpp2rcd13ifvqc3g","pricing_plan_id":"cebpf4jnsgd1na2vs0mg"},{"bike_id":"a6010974-670e-49c0-b408-8e5fee4c2775","system_id":"levelo_inurba_marseille","lat":43.241689,"lon":5.363958,"is_reserved":false,"is_disabled":false,"rental_uris":{"android":"levelo://app?vid=a6010974-670e-49c0-b408-8e5fee4c2775","ios":"levelo://app?vid=a6010974-670e-49c0-b408-8e5fee4c2775"},"vehicle_type_id":"4","last_reported":1762345307,"current_range_meters":17200,"station_id":"cpo36qri1sfpv3e86is0","pricing_plan_id":"cebpf4jnsgd1na2vs0mg"},{"bike_id":"a15523e4-2bca-4117-8360-9e49f688d5a3","system_id":"levelo_inurba_marseille","lat":43.26503,"lon":5.39539,"is_reserved":false,"is_disabled":false,"rental_uris":{"android":"levelo://app?vid=a15523e4-2bca-4117-8360-9e49f688d5a3","ios":"levelo://app?vid=a15523e4-2bca-4117-8360-9e49f688d5a3"},"vehicle_type_id":"4","last_reported":1762345307,"current_range_meters":17200,"station_id":"ce4bhi12rcd13ifvqfq0","pricing_plan_id":"cebpf4jnsgd1na2vs0mg"},{"bike_id":"f1f141f2-a5e3-4888-abcf-b7cf46882aaa","system_id":"levelo_inurba_marseille","lat":43.28419,"lon":5.34976,"is_reserved":false,"is_disabled":false,"rental_uris":{"android":"levelo://app?vid=f1f141f2-a5e3-4888-abcf-b7cf46882aaa","ios":"levelo://app?vid=f1f141f2-a5e3-4888-abcf-b7cf46882aaa"},"vehicle_type_id":"4","last_reported":1762345307,"current_range_meters":17200,"station_id":"ce4bhbh2rcd13ifvqepg","pricing_plan_id":"cebpf4jnsgd1na2vs0mg"},{"bike_id":"ce1c2141-edec-497f-b7e0-3db3a275c2ce","system_id":"levelo_inurba_marseille","lat":43.29748,"lon":5.38075,"is_reserved":false,"is_disabled":false,"rental_uris":{"android":"levelo://app?vid=ce1c2141-edec-497f-b7e0-3db3a275c2ce","ios":"levelo://app?vid=ce1c2141-edec-497f-b7e0-3db3a275c2ce"},"vehicle_type_id":"4","last_reported":1762345307,"current_range_meters":17200,"station_id":"","pricing_plan_id":"cebpf4jnsgd1na2vs0mg"},{"bike_id":"cb8ee62f-fc52-4fa5-a545-b823cfc4aedd","system_id":"levelo_inurba_marseille","lat":43.32362,"lon":5.38893,"is_reserved":false,"is_disabled":false,"rental_uris":{"android":"levelo://app?vid=cb8ee62f-fc52-4fa5-a545-b823cfc4aedd","ios":"levelo://app?vid=cb8ee62f-fc52-4fa5-a545-b823cfc4aedd"},"vehicle_type_id":"4","last_reported":1762345307,"current_range_meters":17200,"station_id":"ce4bhqp2rcd13ifvqhog","pricing_plan_id":"cebpf4jnsgd1na2vs0mg"},{"bike_id":"456325d2-f213-43d0-b8bb-83874dc983a6","system_id":"levelo_inurba_marseille","lat":43.25573,"lon":5.3823,"is_reserved":false,"is_disabled":false,"rental_uris":{"android":"levelo://app?vid=456325d2-f213-43d0-b8bb-83874dc983a6","ios":"levelo://app?vid=456325d2-f213-43d0-b8bb-83874dc983a6"},"vehicle_type_id":"4","last_reported":1762345307,"current_range_meters":17200,"station_id":"ce4bhih2rcd13ifvqfs0","pricing_plan_id":"cebpf4jnsgd1na2vs0mg"},{"bike_id":"c1163c28-a235-4405-a2a2-f506c222f0fa","system_id":"levelo_inurba_marseille","lat":43.29972,"lon":5.37187,"is_reserved":false,"is_disabled":false,"rental_uris":{"android":"levelo://app?vid=c1163c28-a235-4405-a2a2-f506c222f0fa","ios":"levelo://app?vid=c1163c28-a235-4405-a2a2-f506c222f0fa"},