{"last_updated":1751922586,"ttl":60,"version":"2.2","data":{"bikes":[{"bike_id":"3da29fb8-fc97-44c6-b9ac-31dd456b2fd4","system_id":"levelo_inurba_marseille","lat":43.33771,"lon":5.37424,"is_reserved":false,"is_disabled":true,"rental_uris":{"android":"levelo://app?vid=3da29fb8-fc97-44c6-b9ac-31dd456b2fd4","ios":"levelo://app?vid=3da29fb8-fc97-44c6-b9ac-31dd456b2fd4"},"vehicle_type_id":"4","last_reported":1751922586,"current_range_meters":0,"station_id":"","pricing_plan_id":"cebpf4jnsgd1na2vs0mg"},{"bike_id":"01861ad8-a8d7-4be6-816e-651927c87584","system_id":"levelo_inurba_marseille","lat":43.33751,"lon":5.37456,"is_reserved":false,"is_disabled":true,"rental_uris":{"android":"levelo://app?vid=01861ad8-a8d7-4be6-816e-651927c87584","ios":"levelo://app?vid=01861ad8-a8d7-4be6-816e-651927c87584"},"vehicle_type_id":"4","last_reported":1751922586,"current_range_meters":0,"station_id":"","pricing_plan_id":"cebpf4jnsgd1na2vs0mg"},{"bike_id":"95c194a9-5cae-4867-bc56-f8781828dc70","system_id":"levelo_inurba_marseille","lat":43.337444,"lon":5.374475,"is_reserved":false,"is_disabled":true,"rental_uris":{"android":"levelo://app?vid=95c194a9-5cae-4867-bc56-f8781828dc70","ios":"levelo://app?vid=95c194a9-5cae-4867-bc56-f8781828dc70"},"vehicle_type_id":"4","last_reported":1751922586,"current_range_meters":0,"station_id":"","pricing_plan_id":"cebpf4jnsgd1na2vs0mg"},{"bike_id":"f0a19a9e-f150-4c1e-bcc6-db3195370cac","system_id":"levelo_inurba_marseille","lat":43.32668,"lon":5.43067,"is_reserved":false,"is_disabled":true,"rental_uris":{"android":"levelo://app?vid=f0a19a9e-f150-4c1e-bcc6-db3195370cac","ios":"levelo://app?vid=f0a19a9e-f150-4c1e-bcc6-db3195370cac"},"vehicle_type_id":"4","last_reported":1751922586,"current_range_meters":0,"station_id":"","pricing_plan_id":"cebpf4jnsgd1na2vs0mg"},{"bike_id":"3028f261-5a94-442b-824d-03c73dcbaead","system_id":"levelo_inurba_marseille","lat":43.30414,"lon":5.36687,"is_reserved":false,"is_disabled":true,"rental_uris":{"android":"levelo://app?vid=3028f261-5a94-442b-824d-03c73dcbaead","ios":"levelo://app?vid=3028f261-5a94-442b-824d-03c73dcbaead"},"vehicle_type_id":"4","last_reported":1751922586,"current_range_meters":0,"station_id":"","pricing_plan_id":"cebpf4jnsgd1na2vs0mg"},{"bike_id":"30c7e844-3621-47ef-9b01-b93948ecfdf5","system_id":"levelo_inurba_marseille","lat":43.295268,"lon":5.37505,"is_reserved":false,"is_disabled":true,"rental_uris":{"android":"levelo://app?vid=30c7e844-3621-47ef-9b01-b93948ecfdf5","ios":"levelo://app?vid=30c7e844-3621-47ef-9b01-b93948ecfdf5"},"vehicle_type_id":"4","last_reported":1751922586,"current_range_meters":0,"station_id":"ce4bgkp2rcd13ifvqbmg","pricing_plan_id":"cebpf4jnsgd1na2vs0mg"},{"bike_id":"e48f31d0-9beb-4da3-9cf7-8389dcb2fc75","system_id":"levelo_inurba_marseille","lat":43.33605,"lon":5.41039,"is_reserved":false,"is_disabled":true,"rental_uris":{"android":"levelo://app?vid=e48f31d0-9beb-4da3-9cf7-8389dcb2fc75","ios":"levelo://app?vid=e48f31d0-9beb-4da3-9cf7-8389dcb2fc75"},"vehicle_type_id":"4","last_reported":1751922586,"current_range_meters":0,"station_id":"ce4bhqh2rcd13ifvqhmg","pricing_plan_id":"cebpf4jnsgd1na2vs0mg"},{"bike_id":"3d508917-55ee-42b6-894b-89c2a444dc06","system_id":"levelo_inurba_marseille","lat":43.2248,"lon":5.34811,"is_reserved":false,"is_disabled":true,"rental_uris":{"android":"levelo://app?vid=3d508917-55ee-42b6-894b-89c2a444dc06","ios":"levelo://app?vid=3d508917-55ee-42b6-894b-89c2a444dc06"},"vehicle_type_id":"4","last_reported":1751922586,"current_range_meters":0,"station_id":"st_cvj5dfep6f1abm77gieg","pricing_plan_id":"cebpf4jnsgd1na2vs0mg"},{"bike_id":"e86ba8c9-208d-482c-a826-4c100938472a","system_id":"levelo_inurba_marseille","lat":43.21193,"lon":5.3507,"is_reserved":false,"is_disabled":true,"rental_uris":{"android":"levelo://app?vid=e86ba8c9-208d-482c-a826-4c100938472a","ios":"levelo://app?vid=e86ba8c9-208d-482c-a826-4c100938472a"},"vehicle_type_id":"4","last_reported":1751922586,"current_range_meters":0,"station_id":"st_cvj6sg6p6f1abm77japg","pricing_plan_id":"cebpf4jnsgd1na2vs0mg"},{"bike_id":"49165249-59a5-4d24-8cb4-bc450b498980","system_id":"levelo_inurba_marseille","lat":43.2857,"lon":5.39494,"is_reserved":false,"is_disabled":true,"rental_uris":{"android":"levelo://app?vid=49165249-59a5-4d24-8cb4-bc450b498980","ios":"levelo://app?vid=49165249-59a5-4d24-8cb4-bc450b498980"},"vehicle_type_id":"4","last_reported":1751922586,"current_range_meters":400,"station_id":"ce4bh292rcd13ifvqdg0","pricing_plan_id":"cebpf4jnsgd1na2vs0mg"},{"bike_id":"ae5c08b1-7c7f-4245-a09c-19d1577fef3b","system_id":"levelo_inurba_marseille","lat":43.27969,"lon":5.38747,"is_reserved":false,"is_disabled":true,"rental_uris":{"android":"levelo://app?vid=ae5c08b1-7c7f-4245-a09c-19d1577fef3b","ios":"levelo://app?vid=ae5c08b1-7c7f-4245-a09c-19d1577fef3b"},"vehicle_type_id":"4","last_reported":1751922586,"current_range_meters":400,"station_id":"ce4bhg12rcd13ifvqf80","pricing_plan_id":"cebpf4jnsgd1na2vs0mg"},{"bike_id":"c32a44ab-b078-4729-9be5-e0735978229d","system_id":"levelo_inurba_marseille","lat":43.21194,"lon":5.35088,"is_reserved":false,"is_disabled":true,"rental_uris":{"android":"levelo://app?vid=c32a44ab-b078-4729-9be5-e0735978229d","ios":"levelo://app?vid=c32a44ab-b078-4729-9be5-e0735978229d"},"vehicle_type_id":"4","last_reported":1751922586,"current_range_meters":800,"station_id":"st_cvj6sg6p6f1abm77japg","pricing_plan_id":"cebpf4jnsgd1na2vs0mg"},{"bike_id":"36fc43ff-930e-421b-9c9a-ac8fb9d1625b","system_id":"levelo_inurba_marseille","lat":43.29226,"lon":5.40574,"is_reserved":false,"is_disabled":true,"rental_uris":{"android":"levelo://app?vid=36fc43ff-930e-421b-9c9a-ac8fb9d1625b","ios":"levelo://app?vid=36fc43ff-930e-421b-9c9a-ac8fb9d1625b"},"vehicle_type_id":"4","last_reported":1751922586,"current_range_meters":1600,"station_id":"","pricing_plan_id":"cebpf4jnsgd1na2vs0mg"},{"bike_id":"5f1fcfac-c59e-4edd-8020-942ee2e8da8e","system_id":"levelo_inurba_marseille","lat":43.30801,"lon":5.38153,"is_reserved":false,"is_disabled":true,"rental_uris":{"android":"levelo://app?vid=5f1fcfac-c59e-4edd-8020-942ee2e8da8e","ios":"levelo://app?vid=5f1fcfac-c59e-4edd-8020-942ee2e8da8e"},"vehicle_type_id":"4","last_reported":1751922586,"current_range_meters":1600,"station_id":"ce4bgt12rcd13ifvqce0","pricing_plan_id":"cebpf4jnsgd1na2vs0mg"},{"bike_id":"433d1af4-beb4-4fab-a911-244e310c149c","system_id":"levelo_inurba_marseille","lat":43.29015,"lon":5.38656,"is_reserved":false,"is_disabled":true,"rental_uris":{"android":"levelo://app?vid=433d1af4-beb4-4fab-a911-244e310c149c","ios":"levelo://app?vid=433d1af4-beb4-4fab-a911-244e310c149c"},"vehicle_type_id":"4","last_reported":1751922586,"current_range_meters":1600,"station_id":"ce4bh4p2rcd13ifvqe0g","pricing_plan_id":"cebpf4jnsgd1na2vs0mg"},{"bike_id":"674e2cee-f720-42f8-9ebb-6d14db3ae65f","system_id":"levelo_inurba_marseille","lat":43.28354,"lon":5.38109,"is_reserved":false,"is_disabled":false,"rental_uris":{"android":"levelo://app?vid=674e2cee-f720-42f8-9ebb-6d14db3ae65f","ios":"levelo://app?vid=674e2cee-f720-42f8-9ebb-6d14db3ae65f"},"vehicle_type_id":"4","last_reported":1751922586,"current_range_meters":2800,"station_id":"ce4bh412rcd13ifvqdr0","pricing_plan_id":"cebpf4jnsgd1na2vs0mg"},{"bike_id":"86d844ad-796b-4cd9-af5a-5a32bc950678","system_id":"levelo_inurba_marseille","lat":43.28469,"lon":5.3842,"is_reserved":false,"is_disabled":false,"rental_uris":{"android":"levelo://app?vid=86d844ad-796b-4cd9-af5a-5a32bc950678","ios":"levelo://app?vid=86d844ad-796b-4cd9-af5a-5a32bc950678"},"vehicle_type_id":"4","last_reported":1751922586,"current_range_meters":2800,"station_id":"ce4bh512rcd13ifvqe3g","pricing_plan_id":"cebpf4jnsgd1na2vs0mg"},{"bike_id":"81dd2a55-58d2-4774-83d9-9729db106602","system_id":"levelo_inurba_marseille","lat":43.31755,"lon":5.39022,"is_reserved":false,"is_disabled":false,"rental_uris":{"android":"levelo://app?vid=81dd2a55-58d2-4774-83d9-9729db106602","ios":"levelo://app?vid=81dd2a55-58d2-4774-83d9-9729db106602"},"vehicle_type_id":"4","last_reported":1751922586,"current_range_meters":3600,"station_id":"ce4bhqp2rcd13ifvqhng","pricing_plan_id":"cebpf4jnsgd1na2vs0mg"},{"bike_id":"7caea318-5ad9-4645-905e-b79cb1c6ded2","system_id":"levelo_inurba_marseille","lat":43.279665,"lon":5.387527,"is_reserved":false,"is_disabled":false,"rental_uris":{"android":"levelo://app?vid=7caea318-5ad9-4645-905e-b79cb1c6ded2","ios":"levelo://app?vid=7caea318-5ad9-4645-905e-b79cb1c6ded2"},"vehicle_type_id":"4","last_reported":1751922586,"current_range_meters":4000,"station_id":"ce4bhg12rcd13ifvqf80","pricing_plan_id":"cebpf4jnsgd1na2vs0mg"},{"bike_id":"ed290504-6948-4f69-8584-2e2b0286febf","system_id":"levelo_inurba_marseille","lat":43.21194,"lon":5.3507,"is_reserved":false,"is_disabled":false,"rental_uris":{"android":"levelo://app?vid=ed290504-6948-4f69-8584-2e2b0286febf","ios":"levelo://app?vid=ed290504-6948-4f69-8584-2e2b0286febf"},"vehicle_type_id":"4","last_reported":1751922586,"current_range_meters":4800,"station_id":"st_cvj6sg6p6f1abm77japg","pricing_plan_id":"cebpf4jnsgd1na2vs0mg"},{"bike_id":"a7753154-ad7f-4eb5-b7b3-df27edf18a53","system_id":"levelo_inurba_marseille","lat":43.22454,"lon":5.34798,"is_reserved":false,"is_disabled":false,"rental_uris":{"android":"levelo://app?vid=a7753154-ad7f-4eb5-b7b3-df27edf18a53","ios":"levelo://app?vid=a7753154-ad7f-4eb5-b7b3-df27edf18a53"},"vehicle_type_id":"4","last_reported":1751922586,"current_range_meters":6000,"station_id":"st_cvj5dfep6f1abm77gieg","pricing_plan_id":"cebpf4jnsgd1na2vs0mg"},{"bike_id":"3c42cd23-5bf1-44e4-9329-258de1cd72a3","system_id":"levelo_inurba_marseille","lat":43.28701,"lon":5.39987,"is_reserved":false,"is_disabled":false,"rental_uris":{"android":"levelo://app?vid=3c42cd23-5bf1-44e4-9329-258de1cd72a3","ios":"levelo://app?vid=3c42cd23-5bf1-44e4-9329-258de1cd72a3"},"vehicle_type_id":"4","last_reported":1751922586,"current_range_meters":6400,"station_id":"ce4bho92rcd13ifvqh3g","pricing_plan_id":"cebpf4jnsgd1na2vs0mg"},{"bike_id":"2a644680-a682-4a1f-8cbd-3d0fb57685b4","system_id":"levelo_inurba_marseille","lat":43.21737,"lon":5.3463,"is_reserved":false,"is_disabled":false,"rental_uris":{"android":"levelo://app?vid=2a644680-a682-4a1f-8cbd-3d0fb57685b4","ios":"levelo://app?vid=2a644680-a682-4a1f-8cbd-3d0fb57685b4"},"vehicle_type_id":"4","last_reported":1751922586,"current_range_meters":6400,"station_id":"st_cvj6r9ubvosntc0bgbag","pricing_plan_id":"cebpf4jnsgd1na2vs0mg"},{"bike_id":"af6a1767-98c9-4fe4-93a3-c9bd9b56caae","system_id":"levelo_inurba_marseille","lat":43.29913,"lon":5.37485,"is_reserved":false,"is_disabled":false,"rental_uris":{"android":"levelo://app?vid=af6a1767-98c9-4fe4-93a3-c9bd9b56caae","ios":"levelo://app?vid=af6a1767-98c9-4fe4-93a3-c9bd9b56caae"},"vehicle_type_id":"4","last_reported":1751922586,"current_range_meters":6800,"station_id":"ce4bgjh2rcd13ifvqbg0","pricing_plan_id":"cebpf4jnsgd1na2vs0mg"},{"bike_id":"4df166d1-9bb1-4398-8cc9-8724a1c69172","system_id":"levelo_inurba_marseille","lat":43.28251,"lon":5.39175,"is_reserved":false,"is_disabled":false,"rental_uris":{"android":"levelo://app?vid=4df166d1-9bb1-4398-8cc9-8724a1c69172","ios":"levelo://app?vid=4df166d1-9bb1-4398-8cc9-8724a1c69172"},"vehicle_type_id":"4","last_reported":1751922586,"current_range_meters":7200,"station_id":"","pricing_plan_id":"cebpf4jnsgd1na2vs0mg"},{"bike_id":"bd1874bf-e30a-482e-a165-63d599b3ee06","system_id":"levelo_inurba_marseille","lat":43.31468,"lon":5.39769,"is_reserved":false,"is_disabled":false,"rental_uris":{"android":"levelo://app?vid=bd1874bf-e30a-482e-a165-63d599b3ee06","ios":"levelo://app?vid=bd1874bf-e30a-482e-a165-63d599b3ee06"},"vehicle_type_id":"4","last_reported":1751922586,"current_range_meters":7200,"station_id":"","pricing_plan_id":"cebpf4jnsgd1na2vs0mg"},{"bike_id":"cf081b2d-6019-466f-8754-86c7c9217ee1","system_id":"levelo_inurba_marseille","lat":43.28396,"lon":5.37523,"is_reserved":false,"is_disabled":false,"rental_uris":{"android":"levelo://app?vid=cf081b2d-6019-466f-8754-86c7c9217ee1","ios":"levelo://app?vid=cf081b2d-6019-466f-8754-86c7c9217ee1"},"vehicle_type_id":"4","last_reported":1751922586,"current_range_meters":7200,"station_id":"ce4bh412rcd13ifvqds0","pricing_plan_id":"cebpf4jnsgd1na2vs0mg"},{"bike_id":"6883b381-1ba7-4e68-92c8-065fa1398dcb","system_id":"levelo_inurba_marseille","lat":43.30935,"lon":5.40156,"is_reserved":false,"is_disabled":false,"rental_uris":{"android":"levelo://app?vid=6883b381-1ba7-4e68-92c8-065fa1398dcb","ios":"levelo://app?vid=6883b381-1ba7-4e68-92c8-065fa1398dcb"},"vehicle_type_id":"4","last_reported":1751922586,"current_range_meters":8400,"station_id":"ce4bgvp2rcd13ifvqct0","pricing_plan_id":"cebpf4jnsgd1na2vs0mg"},{"bike_id":"3aa0acad-2bd1-4c4d-a5ea-0884b4524d0b","system_id":"levelo_inurba_marseille","lat":43.3093,"lon":5.4015,"is_reserved":false,"is_disabled":false,"rental_uris":{"android":"levelo://app?vid=3aa0acad-2bd1-4c4d-a5ea-0884b4524d0b","ios":"levelo://app?vid=3aa0acad-2bd1-4c4d-a5ea-0884b4524d0b"},"vehicle_type_id":"4","last_reported":1751922586,"current_range_meters":8400,"station_id":"ce4bgvp2rcd13ifvqct0","pricing_plan_id":"cebpf4jnsgd1na2vs0mg"},{"bike_id":"187a1778-0555-491f-809c-180c4dc08ffc","system_id":"levelo_inurba_marseille","lat":43.30125,"lon":5.39873,"is_reserved":false,"is_disabled":false,"rental_uris":{"android":"levelo://app?vid=187a1778-0555-491f-809c-180c4dc08ffc","ios":"levelo://app?vid=187a1778-0555-491f-809c-180c4dc08ffc"},"vehicle_type_id":"4","last_reported":1751922586,"current_range_meters":8400,"station_id":"ce4bh0h2rcd13ifvqd40","pricing_plan_id":"cebpf4jnsgd1na2vs0mg"},{"bike_id":"03699007-2712-4e34-94df-dea992eca531","system_id":"levelo_inurba_marseille","lat":43.30093,"lon":5.39079,"is_reserved":false,"is_disabled":false,"rental_uris":{"android":"levelo://app?vid=03699007-2712-4e34-94df-dea992eca531","ios":"levelo://app?vid=03699007-2712-4e34-94df-dea992eca531"},"vehicle_type_id":"4","last_reported":1751922586,"current_range_meters":8400,"station_id":"ce4bh192rcd13ifvqdb0","pricing_plan_id":"cebpf4jnsgd1na2vs0mg"},{"bike_id":"29eed864-6dc2-435e-9e44-cdba571d1173","system_id":"levelo_inurba_marseille","lat":43.2843,"lon":5.39193,"is_reserved":false,"is_disabled":false,"rental_uris":{"android":"levelo://app?vid=29eed864-6dc2-435e-9e44-cdba571d1173","ios":"levelo://app?vid=29eed864-6dc2-435e-9e44-cdba571d1173"},"vehicle_type_id":"4","last_reported":1751922586,"current_range_meters":8400,"station_id":"ce4bhoh2rcd13ifvqh5g","pricing_plan_id":"cebpf4jnsgd1na2vs0mg"},{"bike_id":"98f46642-8fdc-43be-8379-a5bf33d8441b","system_id":"levelo_inurba_marseille","lat":43.21199,"lon":5.35058,"is_reserved":false,"is_disabled":false,"rental_uris":{"android":"levelo://app?vid=98f46642-8fdc-43be-8379-a5bf33d8441b","ios":"levelo://app?vid=98f46642-8fdc-43be-8379-a5bf33d8441b"},"vehicle_type_id":"4","last_reported":1751922586,"current_range_meters":8800,"station_id":"st_cvj6sg6p6f1abm77japg","pricing_plan_id":"cebpf4jnsgd1na2vs0mg"},{"bike_id":"2bb5f653-c438-4b43-9949-b863e97d26e4","system_id":"levelo_inurba_marseille","lat":43.290715,"lon":5.371589,"is_reserved":false,"is_disabled":false,"rental_uris":{"android":"levelo://app?vid=2bb5f653-c438-4b43-9949-b863e97d26e4","ios":"levelo://app?vid=2bb5f653-c438-4b43-9949-b863e97d26e4"},"vehicle_type_id":"4","last_reported":1751922586,"current_range_meters":9200,"station_id":"","pricing_plan_id":"cebpf4jnsgd1na2vs0mg"},{"bike_id":"7b527f00-f6ea-4963-b59d-8da04a2feedb","system_id":"levelo_inurba_marseille","lat":43.32128,"lon":5.40014,"is_reserved":false,"is_disabled":false,"rental_uris":{"android":"levelo://app?vid=7b527f00-f6ea-4963-b59d-8da04a2feedb","ios":"levelo://app?vid=7b527f00-f6ea-4963-b59d-8da04a2feedb"},"vehicle_type_id":"4","last_reported":1751922586,"current_range_meters":9200,"station_id":"","pricing_plan_id":"cebpf4jnsgd1na2vs0mg"},{"bike_id":"88ea42cb-cf0f-4e4a-8442-732645bc4ba5","system_id":"levelo_inurba_marseille","lat":43.31063,"lon":5.36621,"is_reserved":false,"is_disabled":false,"rental_uris":{"android":"levelo://app?vid=88ea42cb-cf0f-4e4a-8442-732645bc4ba5","ios":"levelo://app?vid=88ea42cb-cf0f-4e4a-8442-732645bc4ba5"},"vehicle_type_id":"4","last_reported":1751922586,"current_range_meters":9200,"station_id":"","pricing_plan_id":"cebpf4jnsgd1na2vs0mg"},{"bike_id":"f9a6ba19-4dd2-4523-bb2e-4b8f81582393","system_id":"levelo_inurba_marseille","lat":43.30295,"lon":5.39217,"is_reserved":false,"is_disabled":false,"rental_uris":{"android":"levelo://app?vid=f9a6ba19-4dd2-4523-bb2e-4b8f81582393","ios":"levelo://app?vid=f9a6ba19-4dd2-4523-bb2e-4b8f81582393"},"vehicle_type_id":"4","last_reported":1751922586,"current_range_meters":9200,"station_id":"ce4bgkh2rcd13ifvqbk0","pricing_plan_id":"cebpf4jnsgd1na2vs0mg"},{"bike_id":"115cbb8d-05ca-4cdc-be63-d9a816da2e27","system_id":"levelo_inurba_marseille","lat":43.29208,"lon":5.39321,"is_reserved":false,"is_disabled":false,"rental_uris":{"android":"levelo://app?vid=115cbb8d-05ca-4cdc-be63-d9a816da2e27","ios":"levelo://app?vid=115cbb8d-05ca-4cdc-be63-d9a816da2e27"},"vehicle_type_id":"4","last_reported":1751922586,"current_range_meters":9200,"station_id":"ce4bh192rcd13ifvqdd0","pricing_plan_id":"cebpf4jnsgd1na2vs0mg"},{"bike_id":"11857206-cca0-4289-bf33-79c88afbaeea","system_id":"levelo_inurba_marseille","lat":43.261983,"lon":5.374507,"is_reserved":false,"is_disabled":false,"rental_uris":{"android":"levelo://app?vid=11857206-cca0-4289-bf33-79c88afbaeea","ios":"levelo://app?vid=11857206-cca0-4289-bf33-79c88afbaeea"},"vehicle_type_id":"4","last_reported":1751922586,"current_range_meters":9200,"station_id":"ce4bhgp2rcd13ifvqfc0","pricing_plan_id":"cebpf4jnsgd1na2vs0mg"},{"bike_id":"a479ea66-ce01-4043-9abc-2a5507cf0928","system_id":"levelo_inurba_marseille","lat":43.23181,"lon":5.39985,"is_reserved":false,"is_disabled":false,"rental_uris":{"android":"levelo://app?vid=a479ea66-ce01-4043-9abc-2a5507cf0928","ios":"levelo://app?vid=a479ea66-ce01-4043-9abc-2a5507cf0928"},"vehicle_type_id":"4","last_reported":1751922586,"current_range_meters":9200,"station_id":"ce4bhn12rcd13ifvqgqg","pricing_plan_id":"cebpf4jnsgd1na2vs0mg"},{"bike_id":"47b36a33-91bd-4988-849d-2538e403362e","system_id":"levelo_inurba_marseille","lat":43.28443,"lon":5.39189,"is_reserved":false,"is_disabled":false,"rental_uris":{"android":"levelo://app?vid=47b36a33-91bd-4988-849d-2538e403362e","ios":"levelo://app?vid=47b36a33-91bd-4988-849d-2538e403362e"},"vehicle_type_id":"4","last_reported":1751922586,"current_range_meters":9200,"station_id":"ce4bhoh2rcd13ifvqh5g","pricing_plan_id":"cebpf4jnsgd1na2vs0mg"},{"bike_id":"3b22f952-d0bc-4c00-8fd3-7e27b88aea23","system_id":"levelo_inurba_marseille","lat":43.29659,"lon":5.36245,"is_reserved":false,"is_disabled":false,"rental_uris":{"android":"levelo://app?vid=3b22f952-d0bc-4c00-8fd3-7e27b88aea23","ios":"levelo://app?vid=3b22f952-d0bc-4c00-8fd3-7e27b88aea23"},"vehicle_type_id":"4","last_reported":1751922586,"current_range_meters":10000,"station_id":"","pricing_plan_id":"cebpf4jnsgd1na2vs0mg"},{"bike_id":"783b785f-34da-4343-83a2-443bfe3ded51","system_id":"levelo_inurba_marseille","lat":43.28968,"lon":5.37836,"is_reserved":false,"is_disabled":false,"rental_uris":{"android":"levelo://app?vid=783b785f-34da-4343-83a2-443bfe3ded51","ios":"levelo://app?vid=783b785f-34da-4343-83a2-443bfe3ded51"},"vehicle_type_id":"4","last_reported":1751922586,"current_range_meters":10000,"station_id":"ce4bh9p2rcd13ifvqed0","pricing_plan_id":"cebpf4jnsgd1na2vs0mg"},{"bike_id":"6f975736-c4ff-4bef-91f3-51f9a84ad8c5","system_id":"levelo_inurba_marseille","lat":43.27976,"lon":5.38745,"is_reserved":false,"is_disabled":false,"rental_uris":{"android":"levelo://app?vid=6f975736-c4ff-4bef-91f3-51f9a84ad8c5","ios":"levelo://app?vid=6f975736-c4ff-4bef-91f3-51f9a84ad8c5"},"vehicle_type_id":"4","last_reported":1751922586,"current_range_meters":10000,"station_id":"ce4bhg12rcd13ifvqf80","pricing_plan_id":"cebpf4jnsgd1na2vs0mg"},{"bike_id":"2580a786-ce1f-4713-a838-8bd018c0292c","system_id":"levelo_inurba_marseille","lat":43.29373,"lon":5.37267,"is_reserved":false,"is_disabled":false,"rental_uris":{"android":"levelo://app?vid=2580a786-ce1f-4713-a838-8bd018c0292c","ios":"levelo://app?vid=2580a786-ce1f-4713-a838-8bd018c0292c"},"vehicle_type_id":"4","last_reported":1751922586,"current_range_meters":10800,"station_id":"","pricing_plan_id":"cebpf4jnsgd1na2vs0mg"},{"bike_id":"6b768e31-7fa8-4f11-9d1a-b41f1f752272","system_id":"levelo_inurba_marseille","lat":43.27832,"lon":5.39206,"is_reserved":false,"is_disabled":false,"rental_uris":{"android":"levelo://app?vid=6b768e31-7fa8-4f11-9d1a-b41f1f752272","ios":"levelo://app?vid=6b768e31-7fa8-4f11-9d1a-b41f1f752272"},"vehicle_type_id":"4","last_reported":1751922586,"current_range_meters":10800,"station_id":"ce4bhjp2rcd13ifvqga0","pricing_plan_id":"cebpf4jnsgd1na2vs0mg"},{"bike_id":"37f2becd-23f9-4f13-a711-38b8024eeec7","system_id":"levelo_inurba_marseille","lat":43.33768,"lon":5.37516,"is_reserved":false,"is_disabled":false,"rental_uris":{"android":"levelo://app?vid=37f2becd-23f9-4f13-a711-38b8024eeec7","ios":"levelo://app?vid=37f2becd-23f9-4f13-a711-38b8024eeec7"},"vehicle_type_id":"4","last_reported":1751922586,"current_range_meters":11200,"station_id":"","pricing_plan_id":"cebpf4jnsgd1na2vs0mg"},{"bike_id":"99bfc716-575b-470e-b0b5-150423baf903","system_id":"levelo_inurba_marseille","lat":43.310899,"lon":5.387594,"is_reserved":false,"is_disabled":false,"rental_uris":{"android":"levelo://app?vid=99bfc716-575b-470e-b0b5-150423baf903","ios":"levelo://app?vid=99bfc716-575b-470e-b0b5-150423baf903"},"vehicle_type_id":"4","last_reported":1751922586,"current_range_meters":11200,"station_id":"ce4bgv12rcd13ifvqcp0","pricing_plan_id":"cebpf4jnsgd1na2vs0mg"},{"bike_id":"2c423baa-ecca-420a-87d7-ad0b7e0b9ebb","system_id":"levelo_inurba_marseille","lat":43.28019,"lon":5.35361,"is_reserved":false,"is_disabled":false,"rental_uris":{"android":"levelo://app?vid=2c423baa-ecca-420a-87d7-ad0b7e0b9ebb","ios":"levelo://app?vid=2c423baa-ecca-420a-87d7-ad0b7e0b9ebb"},"vehicle_type_id":"4","last_reported":1751922586,"current_range_meters":11600,"station_id":"","pricing_plan_id":"cebpf4jnsgd1na2vs0mg"},{"bike_id":"ccc29df5-1113-42b5-b8de-771b9f206409","system_id":"levelo_inurba_marseille","lat":43.26265,"lon":5.37409,"is_reserved":false,"is_disabled":false,"rental_uris":{"android":"levelo://app?vid=ccc29df5-1113-42b5-b8de-771b9f206409","ios":"levelo://app?vid=ccc29df5-1113-42b5-b8de-771b9f206409"},"vehicle_type_id":"4","last_reported":1751922586,"current_range_meters":11600,"station_id":"","pricing_plan_id":"cebpf4jnsgd1na2vs0mg"},{"bike_id":"fd1af7b9-6fed-44c6-a0e5-a6f74f2d9177","system_id":"levelo_inurba_marseille","lat":43.29569,"lon":5.39969,"is_reserved":false,"is_disabled":false,"rental_uris":{"android":"levelo://app?vid=fd1af7b9-6fed-44c6-a0e5-a6f74f2d9177","ios":"levelo://app?vid=fd1af7b9-6fed-44c6-a0e5-a6f74f2d9177"},"vehicle_type_id":"4","last_reported":1751922586,"current_range_meters":11600,"station_id":"ce4bh312rcd13ifvqdj0","pricing_plan_id":"cebpf4jnsgd1na2vs0mg"},{"bike_id":"d795a9d1-8cb7-45d5-b7f6-886096745e86","system_id":"levelo_inurba_marseille","lat":43.25725,"lon":5.41109,"is_reserved":false,"is_disabled":false,"rental_uris":{"android":"levelo://app?vid=d795a9d1-8cb7-45d5-b7f6-886096745e86","ios":"levelo://app?vid=d795a9d1-8cb7-45d5-b7f6-886096745e86"},"vehicle_type_id":"4","last_reported":1751922586,"current_range_meters":11600,"station_id":"ce4bhkp2rcd13ifvqgd0","pricing_plan_id":"cebpf4jnsgd1na2vs0mg"},{"bike_id":"d941fde0-51e3-4372-abf4-1a7f3fd5b373","system_id":"levelo_inurba_marseille","lat":43.24163,"lon":5.39747,"is_reserved":false,"is_disabled":false,"rental_uris":{"android":"levelo://app?vid=d941fde0-51e3-4372-abf4-1a7f3fd5b373","ios":"levelo://app?vid=d941fde0-51e3-4372-abf4-1a7f3fd5b373"},"vehicle_type_id":"4","last_reported":1751922586,"current_range_meters":11600,"station_id":"ce4bhn12rcd13ifvqgpg","pricing_plan_id":"cebpf4jnsgd1na2vs0mg"},{"bike_id":"a31d7b1d-f875-4f27-b8f6-640a4ac62493","system_id":"levelo_inurba_marseille","lat":43.337284,"lon":5.39189,"is_reserved":false,"is_disabled":false,"rental_uris":{"android":"levelo://app?vid=a31d7b1d-f875-4f27-b8f6-640a4ac62493","ios":"levelo://app?vid=a31d7b1d-f875-4f27-b8f6-640a4ac62493"},"vehicle_type_id":"4","last_reported":1751922586,"current_range_meters":11600,"station_id":"ce4bhr92rcd13ifvqhsg","pricing_plan_id":"cebpf4jnsgd1na2vs0mg"},{"bike_id":"29102da4-02a2-4f9c-99ed-89cdef887179","system_id":"levelo_inurba_marseille","lat":43.22504,"lon":5.34771,"is_reserved":false,"is_disabled":false,"rental_uris":{"android":"levelo://app?vid=29102da4-02a2-4f9c-99ed-89cdef887179","ios":"levelo://app?vid=29102da4-02a2-4f9c-99ed-89cdef887179"},"vehicle_type_id":"4","last_reported":1751922586,"current_range_meters":11600,"station_id":"st_cvj5dfep6f1abm77gieg","pricing_plan_id":"cebpf4jnsgd1na2vs0mg"},{"bike_id":"a70cfab5-f447-4d61-b80a-343a49825360","system_id":"levelo_inurba_marseille","lat":43.31769,"lon":5.37832,"is_reserved":false,"is_disabled":false,"rental_uris":{"android":"levelo://app?vid=a70cfab5-f447-4d61-b80a-343a49825360","ios":"levelo://app?vid=a70cfab5-f447-4d61-b80a-343a49825360"},"vehicle_type_id":"4","last_reported":1751922586,"current_range_meters":12000,"station_id":"","pricing_plan_id":"cebpf4jnsgd1na2vs0mg"},{"bike_id":"78c65a7f-d308-40b5-accc-8e6897ac9f8a","system_id":"levelo_inurba_marseille","lat":43.30064,"lon":5.37796,"is_reserved":false,"is_disabled":false,"rental_uris":{"android":"levelo://app?vid=78c65a7f-d308-40b5-accc-8e6897ac9f8a","ios":"levelo://app?vid=78c65a7f-d308-40b5-accc-8e6897ac9f8a"},"vehicle_type_id":"4","last_reported":1751922586,"current_range_meters":12000,"station_id":"","pricing_plan_id":"cebpf4jnsgd1na2vs0mg"},{"bike_id":"35b29e7f-3303-4e3b-a2d8-f5afa4356afe","system_id":"levelo_inurba_marseille","lat":43.254961,"lon":5.376457,"is_reserved":false,"is_disabled":false,"rental_uris":{"android":"levelo://app?vid=35b29e7f-3303-4e3b-a2d8-f5afa4356afe","ios":"levelo://app?vid=35b29e7f-3303-4e3b-a2d8-f5afa4356afe"},"vehicle_type_id":"4","last_reported":1751922586,"current_range_meters":12000,"station_id":"ce4bhh12rcd13ifvqff0","pricing_plan_id":"cebpf4jnsgd1na2vs0mg"},{"bike_id":"218d1f16-f8a8-4528-8407-4c84f38a7294","system_id":"levelo_inurba_marseille","lat":43.31081,"lon":5.42451,"is_reserved":false,"is_disabled":false,"rental_uris":{"android":"levelo://app?vid=218d1f16-f8a8-4528-8407-4c84f38a7294","ios":"levelo://app?vid=218d1f16-f8a8-4528-8407-4c84f38a7294"},"vehicle_type_id":"4","last_reported":1751922586,"current_range_meters":12000,"station_id":"ce4bhp92rcd13ifvqhag","pricing_plan_id":"cebpf4jnsgd1na2vs0mg"},{"bike_id":"20c0674d-b5fd-4e8e-88c4-fe181160a0e2","system_id":"levelo_inurba_marseille","lat":43.21741,"lon":5.3458,"is_reserved":false,"is_disabled":false,"rental_uris":{"android":"levelo://app?vid=20c0674d-b5fd-4e8e-88c4-fe181160a0e2","ios":"levelo://app?vid=20c0674d-b5fd-4e8e-88c4-fe181160a0e2"},"vehicle_type_id":"4","last_reported":1751922586,"current_range_meters":12000,"station_id":"st_cvj6r9ubvosntc0bgbag","pricing_plan_id":"cebpf4jnsgd1na2vs0mg"},{"bike_id":"b4b4334d-25ea-44e0-a260-d49320309a69","system_id":"levelo_inurba_marseille","lat":43.29309,"lon":5.37469,"is_reserved":false,"is_disabled":false,"rental_uris":{"android":"levelo://app?vid=b4b4334d-25ea-44e0-a260-d49320309a69","ios":"levelo://app?vid=b4b4334d-25ea-44e0-a260-d49320309a69"},"vehicle_type_id":"4","last_reported":1751922586,"current_range_meters":12400,"station_id":"ce4bgi12rcd13ifvqb70","pricing_plan_id":"cebpf4jnsgd1na2vs0mg"},{"bike_id":"b260b628-14ee-4f8d-a7bb-2148a7e59e67","system_id":"levelo_inurba_marseille","lat":43.30606,"lon":5.37233,"is_reserved":false,"is_disabled":false,"rental_uris":{"android":"levelo://app?vid=b260b628-14ee-4f8d-a7bb-2148a7e59e67","ios":"levelo://app?vid=b260b628-14ee-4f8d-a7bb-2148a7e59e67"},"vehicle_type_id":"4","last_reported":1751922586,"current_range_meters":12400,"station_id":"ce4bgqh2rcd13ifvqc4g","pricing_plan_id":"cebpf4jnsgd1na2vs0mg"},{"bike_id":"dee0c70c-1cfc-4d55-a486-3860b742f10a","system_id":"levelo_inurba_marseille","lat":43.30791,"lon":5.38167,"is_reserved":false,"is_disabled":false,"rental_uris":{"android":"levelo://app?vid=dee0c70c-1cfc-4d55-a486-3860b742f10a","ios":"levelo://app?vid=dee0c70c-1cfc-4d55-a486-3860b742f10a"},"vehicle_type_id":"4","last_reported":1751922586,"current_range_meters":12400,"station_id":"ce4bgt12rcd13ifvqce0","pricing_plan_id":"cebpf4jnsgd1na2vs0mg"},{"bike_id":"40a4d41c-4a98-4ff9-8fb7-1c8f7d63aa00","system_id":"levelo_inurba_marseille","lat":43.29431,"lon":5.39758,"is_reserved":false,"is_disabled":false,"rental_uris":{"android":"levelo://app?vid=40a4d41c-4a98-4ff9-8fb7-1c8f7d63aa00","ios":"levelo://app?vid=40a4d41c-4a98-4ff9-8fb7-1c8f7d63aa00"},"vehicle_type_id":"4","last_reported":1751922586,"current_range_meters":12400,"station_id":"ce4bh3h2rcd13ifvqdo0","pricing_plan_id":"cebpf4jnsgd1na2vs0mg"},{"bike_id":"b3d99d2c-0ba9-4b93-ad41-ac4592c5210e","system_id":"levelo_inurba_marseille","lat":43.28359,"lon":5.38112,"is_reserved":false,"is_disabled":false,"rental_uris":{"android":"levelo://app?vid=b3d99d2c-0ba9-4b93-ad41-ac4592c5210e","ios":"levelo://app?vid=b3d99d2c-0ba9-4b93-ad41-ac4592c5210e"},"vehicle_type_id":"4","last_reported":1751922586,"current_range_meters":12400,"station_id":"ce4bh412rcd13ifvqdr0","pricing_plan_id":"cebpf4jnsgd1na2vs0mg"},{"bike_id":"0f4589d0-9392-4928-8988-4de7fc295cb0","system_id":"levelo_inurba_marseille","lat":43.28403,"lon":5.37519,"is_reserved":false,"is_disabled":false,"rental_uris":{"android":"levelo://app?vid=0f4589d0-9392-4928-8988-4de7fc295cb0","ios":"levelo://app?vid=0f4589d0-9392-4928-8988-4de7fc295cb0"},"vehicle_type_id":"4","last_reported":1751922586,"current_range_meters":12400,"station_id":"ce4bh412rcd13ifvqds0","pricing_plan_id":"cebpf4jnsgd1na2vs0mg"},{"bike_id":"bbdbc614-c979-4c1d-ab7c-9e285857b7bb","system_id":"levelo_inurba_marseille","lat":43.262013,"lon":5.374845,"is_reserved":false,"is_disabled":false,"rental_uris":{"android":"levelo://app?vid=bbdbc614-c979-4c1d-ab7c-9e285857b7bb","ios":"levelo://app?vid=bbdbc614-c979-4c1d-ab7c-9e285857b7bb"},"vehicle_type_id":"4","last_reported":1751922586,"current_range_meters":12400,"station_id":"ce4bhh92rcd13ifvqfh0","pricing_plan_id":"cebpf4jnsgd1na2vs0mg"},{"bike_id":"520db1de-894b-49d4-b9f4-553feb163659","system_id":"levelo_inurba_marseille","lat":43.32334,"lon":5.40629,"is_reserved":false,"is_disabled":false,"rental_uris":{"android":"levelo://app?vid=520db1de-894b-49d4-b9f4-553feb163659","ios":"levelo://app?vid=520db1de-894b-49d4-b9f4-553feb163659"},"vehicle_type_id":"4","last_reported":1751922586,"current_range_meters":12400,"station_id":"ce4bhq92rcd13ifvqhjg","pricing_plan_id":"cebpf4jnsgd1na2vs0mg"},{"bike_id":"13c84df3-55fc-4465-b582-17389625d267","system_id":"levelo_inurba_marseille","lat":43.26005,"lon":5.41769,"is_reserved":false,"is_disabled":false,"rental_uris":{"android":"levelo://app?vid=13c84df3-55fc-4465-b582-17389625d267","ios":"levelo://app?vid=13c84df3-55fc-4465-b582-17389625d267"},"vehicle_type_id":"4","last_reported":1751922586,"current_range_meters":12800,"station_id":"","pricing_plan_id":"cebpf4jnsgd1na2vs0mg"},{"bike_id":"33f81a93-a2a0-48f8-ac54-078601f4600d","system_id":"levelo_inurba_marseille","lat":43.30926,"lon":5.40165,"is_reserved":false,"is_disabled":false,"rental_uris":{"android":"levelo://app?vid=33f81a93-a2a0-48f8-ac54-078601f4600d","ios":"levelo://app?vid=33f81a93-a2a0-48f8-ac54-078601f4600d"},"vehicle_type_id":"4","last_reported":1751922586,"current_range_meters":12800,"station_id":"ce4bgvp2rcd13ifvqct0","pricing_plan_id":"cebpf4jnsgd1na2vs0mg"},{"bike_id":"9a835e01-725b-41f5-8a1c-1a4de65a16a4","system_id":"levelo_inurba_marseille","lat":43.28033,"lon":5.36953,"is_reserved":false,"is_disabled":false,"rental_uris":{"android":"levelo://app?vid=9a835e01-725b-41f5-8a1c-1a4de65a16a4","ios":"levelo://app?vid=9a835e01-725b-41f5-8a1c-1a4de65a16a4"},"vehicle_type_id":"4","last_reported":1751922586,"current_range_meters":12800,"station_id":"ce4bha12rcd13ifvqef0","pricing_plan_id":"cebpf4jnsgd1na2vs0mg"},{"bike_id":"e77fccfc-5782-446e-bdeb-dcea0002c077","system_id":"levelo_inurba_marseille","lat":43.29286,"lon":5.36836,"is_reserved":false,"is_disabled":false,"rental_uris":{"android":"levelo://app?vid=e77fccfc-5782-446e-bdeb-dcea0002c077","ios":"levelo://app?vid=e77fccfc-5782-446e-bdeb-dcea0002c077"},"vehicle_type_id":"4","last_reported":1751922586,"current_range_meters":12800,"station_id":"ce4bhbp2rcd13ifvqesg","pricing_plan_id":"cebpf4jnsgd1na2vs0mg"},{"bike_id":"8f13d38c-0510-4eaa-986c-62ae1fef2b49","system_id":"levelo_inurba_marseille","lat":43.28603,"lon":5.35156,"is_reserved":false,"is_disabled":false,"rental_uris":{"android":"levelo://app?vid=8f13d38c-0510-4eaa-986c-62ae1fef2b49","ios":"levelo://app?vid=8f13d38c-0510-4eaa-986c-62ae1fef2b49"},"vehicle_type_id":"4","last_reported":1751922586,"current_range_meters":12800,"station_id":"ce4bhch2rcd13ifvqeug","pricing_plan_id":"cebpf4jnsgd1na2vs0mg"},{"bike_id":"34961fc1-8e1d-44fe-8f53-30afd81fbe6f","system_id":"levelo_inurba_marseille","lat":43.31715,"lon":5.4371,"is_reserved":false,"is_disabled":false,"rental_uris":{"android":"levelo://app?vid=34961fc1-8e1d-44fe-8f53-30afd81fbe6f","ios":"levelo://app?vid=34961fc1-8e1d-44fe-8f53-30afd81fbe6f"},"vehicle_type_id":"4","last_reported":1751922586,"current_range_meters":12800,"station_id":"ce4bhp92rcd13ifvqhcg","pricing_plan_id":"cebpf4jnsgd1na2vs0mg"},{"bike_id":"072aef18-8c4c-41ca-9032-1b5fba7539b3","system_id":"levelo_inurba_marseille","lat":43.31992,"lon":5.36752,"is_reserved":false,"is_disabled":false,"rental_uris":{"android":"levelo://app?vid=072aef18-8c4c-41ca-9032-1b5fba7539b3","ios":"levelo://app?vid=072aef18-8c4c-41ca-9032-1b5fba7539b3"},"vehicle_type_id":"4","last_reported":1751922586,"current_range_meters":12800,"station_id":"ce4bhrh2rcd13ifvqhug","pricing_plan_id":"cebpf4jnsgd1na2vs0mg"},{"bike_id":"91bec4e9-93cf-4984-a744-960690e6db68","system_id":"levelo_inurba_marseille","lat":43.31157,"lon":5.38719,"is_reserved":false,"is_disabled":false,"rental_uris":{"android":"levelo://app?vid=91bec4e9-93cf-4984-a744-960690e6db68","ios":"levelo://app?vid=91bec4e9-93cf-4984-a744-960690e6db68"},"vehicle_type_id":"4","last_reported":1751922586,"current_range_meters":13600,"station_id":"ce4bgv12rcd13ifvqcp0","pricing_plan_id":"cebpf4jnsgd1na2vs0mg"},{"bike_id":"fd346227-092e-423a-84e6-6269c948c480","system_id":"levelo_inurba_marseille","lat":43.31319,"lon":5.39695,"is_reserved":false,"is_disabled":false,"rental_uris":{"android":"levelo://app?vid=fd346227-092e-423a-84e6-6269c948c480","ios":"levelo://app?vid=fd346227-092e-423a-84e6-6269c948c480"},"vehicle_type_id":"4","last_reported":1751922586,"current_range_meters":13600,"station_id":"ce4bgvp2rcd13ifvqcu0","pricing_plan_id":"cebpf4jnsgd1na2vs0mg"},{"bike_id":"187b534a-a7a2-44e8-8155-8c260cae4393","system_id":"levelo_inurba_marseille","lat":43.30209,"lon":5.39468,"is_reserved":false,"is_disabled":false,"rental_uris":{"android":"levelo://app?vid=187b534a-a7a2-44e8-8155-8c260cae4393","ios":"levelo://app?vid=187b534a-a7a2-44e8-8155-8c260cae4393"},"vehicle_type_id":"4","last_reported":1751922586,"current_range_meters":13600,"station_id":"ce4bh0p2rcd13ifvqd70","pricing_plan_id":"cebpf4jnsgd1na2vs0mg"},{"bike_id":"07567f9a-cfda-4df4-b7cf-f23999564824","system_id":"levelo_inurba_marseille","lat":43.28405,"lon":5.3752,"is_reserved":false,"is_disabled":false,"rental_uris":{"android":"levelo://app?vid=07567f9a-cfda-4df4-b7cf-f23999564824","ios":"levelo://app?vid=07567f9a-cfda-4df4-b7cf-f23999564824"},"vehicle_type_id":"4","last_reported":1751922586,"current_range_meters":13600,"station_id":"ce4bh412rcd13ifvqds0","pricing_plan_id":"cebpf4jnsgd1na2vs0mg"},{"bike_id":"78a085b5-4474-4ac9-afea-71a44d22dd73","system_id":"levelo_inurba_marseille","lat":43.24789,"lon":5.37465,"is_reserved":false,"is_disabled":false,"rental_uris":{"android":"levelo://app?vid=78a085b5-4474-4ac9-afea-71a44d22dd73","ios":"levelo://app?vid=78a085b5-4474-4ac9-afea-71a44d22dd73"},"vehicle_type_id":"4","last_reported":1751922586,"current_range_meters":13600,"station_id":"ce4bhgh2rcd13ifvqfb0","pricing_plan_id":"cebpf4jnsgd1na2vs0mg"},{"bike_id":"e7e74529-e7e6-4147-a905-c0ad6739b2a8","system_id":"levelo_inurba_marseille","lat":43.25,"lon":5.38927,"is_reserved":false,"is_disabled":false,"rental_uris":{"android":"levelo://app?vid=e7e74529-e7e6-4147-a905-c0ad6739b2a8","ios":"levelo://app?vid=e7e74529-e7e6-4147-a905-c0ad6739b2a8"},"vehicle_type_id":"4","last_reported":1751922586,"current_range_meters":13600,"station_id":"ce4bhgp2rcd13ifvqfd0","pricing_plan_id":"cebpf4jnsgd1na2vs0mg"},{"bike_id":"942a983a-7094-47d3-97b7-ba4ab853d965","system_id":"levelo_inurba_marseille","lat":43.2708,"lon":5.4226,"is_reserved":false,"is_disabled":false,"rental_uris":{"android":"levelo://app?vid=942a983a-7094-47d3-97b7-ba4ab853d965","ios":"levelo://app?vid=942a983a-7094-47d3-97b7-ba4ab853d965"},"vehicle_type_id":"4","last_reported":1751922586,"current_range_meters":13600,"station_id":"ce4bhk92rcd13ifvqgb0","pricing_plan_id":"cebpf4jnsgd1na2vs0mg"},{"bike_id":"002f2ba8-82ee-4831-bc18-f0b75d723675","system_id":"levelo_inurba_marseille","lat":43.28708,"lon":5.39993,"is_reserved":false,"is_disabled":false,"rental_uris":{"android":"levelo://app?vid=002f2ba8-82ee-4831-bc18-f0b75d723675","ios":"levelo://app?vid=002f2ba8-82ee-4831-bc18-f0b75d723675"},"vehicle_type_id":"4","last_reported":1751922586,"current_range_meters":13600,"station_id":"ce4bho92rcd13ifvqh3g","pricing_plan_id":"cebpf4jnsgd1na2vs0mg"},{"bike_id":"4a3154ac-3048-463e-9c11-90185238f36f","system_id":"levelo_inurba_marseille","lat":43.30138,"lon":5.39884,"is_reserved":false,"is_disabled":false,"rental_uris":{"android":"levelo://app?vid=4a3154ac-3048-463e-9c11-90185238f36f","ios":"levelo://app?vid=4a3154ac-3048-463e-9c11-90185238f36f"},"vehicle_type_id":"4","last_reported":1751922586,"current_range_meters":14000,"station_id":"ce4bh0h2rcd13ifvqd40","pricing_plan_id":"cebpf4jnsgd1na2vs0mg"},{"bike_id":"43d12e7f-c3cd-4a6a-a228-c0298712c5ef","system_id":"levelo_inurba_marseille","lat":43.30596,"lon":5.39333,"is_reserved":false,"is_disabled":false,"rental_uris":{"android":"levelo://app?vid=43d12e7f-c3cd-4a6a-a228-c0298712c5ef","ios":"levelo://app?vid=43d12e7f-c3cd-4a6a-a228-c0298712c5ef"},"vehicle_type_id":"4","last_reported":1751922586,"current_range_meters":14000,"station_id":"ce4bh0p2rcd13ifvqd80","pricing_plan_id":"cebpf4jnsgd1na2vs0mg"},{"bike_id":"e79346c8-86fc-4daa-86ef-e1e68b65043e","system_id":"levelo_inurba_marseille","lat":43.2408,"lon":5.37782,"is_reserved":false,"is_disabled":false,"rental_uris":{"android":"levelo://app?vid=e79346c8-86fc-4daa-86ef-e1e68b65043e","ios":"levelo://app?vid=e79346c8-86fc-4daa-86ef-e1e68b65043e"},"vehicle_type_id":"4","last_reported":1751922586,"current_range_meters":14000,"station_id":"ce4bhnp2rcd13ifvqgvg","pricing_plan_id":"cebpf4jnsgd1na2vs0mg"},{"bike_id":"4cc495d5-e597-4967-9c52-2a54104880ee","system_id":"levelo_inurba_marseille","lat":43.22922,"lon":5.35404,"is_reserved":false,"is_disabled":false,"rental_uris":{"android":"levelo://app?vid=4cc495d5-e597-4967-9c52-2a54104880ee","ios":"levelo://app?vid=4cc495d5-e597-4967-9c52-2a54104880ee"},"vehicle_type_id":"4","last_reported":1751922586,"current_range_meters":14000,"station_id":"cpo3532slgdg3j2ikp40","pricing_plan_id":"cebpf4jnsgd1na2vs0mg"},{"bike_id":"3940df16-67e4-48d2-ba98-0b9c909004b3","system_id":"levelo_inurba_marseille","lat":43.31496,"lon":5.39774,"is_reserved":false,"is_disabled":false,"rental_uris":{"android":"levelo://app?vid=3940df16-67e4-48d2-ba98-0b9c909004b3","ios":"levelo://app?vid=3940df16-67e4-48d2-ba98-0b9c909004b3"},"vehicle_type_id":"4","last_reported":1751922586,"current_range_meters":14400,"station_id":"","pricing_plan_id":"cebpf4jnsgd1na2vs0mg"},{"bike_id":"9c9d902c-ce2d-4391-9bb5-9ede6e8fed10","system_id":"levelo_inurba_marseille","lat":43.292739,"lon":5.384359,"is_reserved":false,"is_disabled":false,"rental_uris":{"android":"levelo://app?vid=9c9d902c-ce2d-4391-9bb5-9ede6e8fed10","ios":"levelo://app?vid=9c9d902c-ce2d-4391-9bb5-9ede6e8fed10"},"vehicle_type_id":"4","last_reported":1751922586,"current_range_meters":14400,"station_id":"","pricing_plan_id":"cebpf4jnsgd1na2vs0mg"},{"bike_id":"00d908f9-7627-4421-a6a3-f66128883f77","system_id":"levelo_inurba_marseille","lat":43.30148,"lon":5.37424,"is_reserved":false,"is_disabled":false,"rental_uris":{"android":"levelo://app?vid=00d908f9-7627-4421-a6a3-f66128883f77","ios":"levelo://app?vid=00d908f9-7627-4421-a6a3-f66128883f77"},"vehicle_type_id":"4","last_reported":1751922586,"current_range_meters":14400,"station_id":"ce4bgs92rcd13ifvqcc0","pricing_plan_id":"cebpf4jnsgd1na2vs0mg"},{"bike_id":"cea5162a-08d4-4fc6-a1b9-7d22bc30a077","system_id":"levelo_inurba_marseille","lat":43.29035,"lon":5.38653,"is_reserved":false,"is_disabled":false,"rental_uris":{"android":"levelo://app?vid=cea5162a-08d4-4fc6-a1b9-7d22bc30a077","ios":"levelo://app?vid=cea5162a-08d4-4fc6-a1b9-7d22bc30a077"},"vehicle_type_id":"4","last_reported":1751922586,"current_range_meters":14400,"station_id":"ce4bh4p2rcd13ifvqe0g","pricing_plan_id":"cebpf4jnsgd1na2vs0mg"},{"bike_id":"c2ee7d66-374b-44cd-b9d7-9ad64301293b","system_id":"levelo_inurba_marseille","lat":43.22498,"lon":5.34755,"is_reserved":false,"is_disabled":false,"rental_uris":{"android":"levelo://app?vid=c2ee7d66-374b-44cd-b9d7-9ad64301293b","ios":"levelo://app?vid=c2ee7d66-374b-44cd-b9d7-9ad64301293b"},"vehicle_type_id":"4","last_reported":1751922586,"current_range_meters":14400,"station_id":"st_cvj5dfep6f1abm77gieg","pricing_plan_id":"cebpf4jnsgd1na2vs0mg"},{"bike_id":"4c4d4b94-5832-431b-a6a4-1addce77dff7","system_id":"levelo_inurba_marseille","lat":43.2433,"lon":5.3708,"is_reserved":false,"is_disabled":false,"rental_uris":{"android":"levelo://app?vid=4c4d4b94-5832-431b-a6a4-1addce77dff7","ios":"levelo://app?vid=4c4d4b94-5832-431b-a6a4-1addce77dff7"},"vehicle_type_id":"4","last_reported":1751922586,"current_range_meters":14800,"station_id":"","pricing_plan_id":"cebpf4jnsgd1na2vs0mg"},{"bike_id":"fce7c4f4-dd99-4b31-9110-14801993ff5f","system_id":"levelo_inurba_marseille","lat":43.21745,"lon":5.34612,"is_reserved":false,"is_disabled":false,"rental_uris":{"android":"levelo://app?vid=fce7c4f4-dd99-4b31-9110-14801993ff5f","ios":"levelo://app?vid=fce7c4f4-dd99-4b31-9110-14801993ff5f"},"vehicle_type_id":"4","last_reported":1751922586,"current_range_meters":14800,"station_id":"","pricing_plan_id":"cebpf4jnsgd1na2vs0mg"},{"bike_id":"5eace689-684d-4f7d-8bf9-3ba5b450ebdc","system_id":"levelo_inurba_marseille","lat":43.29475,"lon":5.38598,"is_reserved":false,"is_disabled":false,"rental_uris":{"android":"levelo://app?vid=5eace689-684d-4f7d-8bf9-3ba5b450ebdc","ios":"levelo://app?vid=5eace689-684d-4f7d-8bf9-3ba5b450ebdc"},"vehicle_type_id":"4","last_reported":1751922586,"current_range_meters":14800,"station_id":"","pricing_plan_id":"cebpf4jnsgd1na2vs0mg"},{"bike_id":"67f94500-6ad6-40b7-80db-92434fb96541","system_id":"levelo_inurba_marseille","lat":43.3088,"lon":5.39647,"is_reserved":false,"is_disabled":false,"rental_uris":{"android":"levelo://app?vid=67f94500-6ad6-40b7-80db-92434fb96541","ios":"levelo://app?vid=67f94500-6ad6-40b7-80db-92434fb96541"},"vehicle_type_id":"4","last_reported":1751922586,"current_range_meters":14800,"station_id":"ce4bh012rcd13ifvqcv0","pricing_plan_id":"cebpf4jnsgd1na2vs0mg"},{"bike_id":"29c4a96e-6e02-4752-ba24-6f192e976d7d","system_id":"levelo_inurba_marseille","lat":43.30086,"lon":5.3908,"is_reserved":false,"is_disabled":false,"rental_uris":{"android":"levelo://app?vid=29c4a96e-6e02-4752-ba24-6f192e976d7d","ios":"levelo://app?vid=29c4a96e-6e02-4752-ba24-6f192e976d7d"},"vehicle_type_id":"4","last_reported":1751922586,"current_range_meters":14800,"station_id":"ce4bh192rcd13ifvqdb0","pricing_plan_id":"cebpf4jnsgd1na2vs0mg"},{"bike_id":"82dc7477-d23f-4fe2-8763-1826918122f6","system_id":"levelo_inurba_marseille","lat":43.28006,"lon":5.36941,"is_reserved":false,"is_disabled":false,"rental_uris":{"android":"levelo://app?vid=82dc7477-d23f-4fe2-8763-1826918122f6","ios":"levelo://app?vid=82dc7477-d23f-4fe2-8763-1826918122f6"},"vehicle_type_id":"4","last_reported":1751922586,"current_range_meters":14800,"station_id":"ce4bha12rcd13ifvqef0","pricing_plan_id":"cebpf4jnsgd1na2vs0mg"},{"bike_id":"d83608bb-4437-43c9-8764-6af0d6d7dccf","system_id":"levelo_inurba_marseille","lat":43.288608,"lon":5.358402,"is_reserved":false,"is_disabled":false,"rental_uris":{"android":"levelo://app?vid=d83608bb-4437-43c9-8764-6af0d6d7dccf","ios":"levelo://app?vid=d83608bb-4437-43c9-8764-6af0d6d7dccf"},"vehicle_type_id":"4","last_reported":1751922586,"current_range_meters":14800,"station_id":"ce4bhb12rcd13ifvqem0","pricing_plan_id":"cebpf4jnsgd1na2vs0mg"},{"bike_id":"4a6854b2-473b-4ad0-850d-efb719e323dc","system_id":"levelo_inurba_marseille","lat":43.31535,"lon":5.38031,"is_reserved":false,"is_disabled":false,"rental_uris":{"android":"levelo://app?vid=4a6854b2-473b-4ad0-850d-efb719e323dc","ios":"levelo://app?vid=4a6854b2-473b-4ad0-850d-efb719e323dc"},"vehicle_type_id":"4","last_reported":1751922586,"current_range_meters":14800,"station_id":"ce4bhsp2rcd13ifvqi50","pricing_plan_id":"cebpf4jnsgd1na2vs0mg"},{"bike_id":"bfa68a10-30cc-4b94-8aff-d32551306ba7","system_id":"levelo_inurba_marseille","lat":43.29717,"lon":5.36606,"is_reserved":false,"is_disabled":false,"rental_uris":{"android":"levelo://app?vid=bfa68a10-30cc-4b94-8aff-d32551306ba7","ios":"levelo://app?vid=bfa68a10-30cc-4b94-8aff-d32551306ba7"},"vehicle_type_id":"4","last_reported":1751922586,"current_range_meters":15200,"station_id":"ce4bgn12rcd13ifvqbt0","pricing_plan_id":"cebpf4jnsgd1na2vs0mg"},{"bike_id":"c7ac2c6f-0af8-4ed6-b7b9-2a662853575a","system_id":"levelo_inurba_marseille","lat":43.30607,"lon":5.37206,"is_reserved":false,"is_disabled":false,"rental_uris":{"android":"levelo://app?vid=c7ac2c6f-0af8-4ed6-b7b9-2a662853575a","ios":"levelo://app?vid=c7ac2c6f-0af8-4ed6-b7b9-2a662853575a"},"vehicle_type_id":"4","last_reported":1751922586,"current_range_meters":15200,"station_id":"ce4bgqh2rcd13ifvqc4g","pricing_plan_id":"cebpf4jnsgd1na2vs0mg"},{"bike_id":"bff287d5-0c9a-4575-8cd6-c178d6ab245e","system_id":"levelo_inurba_marseille","lat":43.30595,"lon":5.37229,"is_reserved":false,"is_disabled":false,"rental_uris":{"android":"levelo://app?vid=bff287d5-0c9a-4575-8cd6-c178d6ab245e","ios":"levelo://app?vid=bff287d5-0c9a-4575-8cd6-c178d6ab245e"},"vehicle_type_id":"4","last_reported":1751922586,"current_range_meters":15200,"station_id":"ce4bgqh2rcd13ifvqc4g","pricing_plan_id":"cebpf4jnsgd1na2vs0mg"},{"bike_id":"6a805d5e-cc74-42cf-8b5f-ea8407fc8a11","system_id":"levelo_inurba_marseille","lat":43.292973,"lon":5.374622,"is_reserved":false,"is_disabled":false,"rental_uris":{"android":"levelo://app?vid=6a805d5e-cc74-42cf-8b5f-ea8407fc8a11","ios":"levelo://app?vid=6a805d5e-cc74-42cf-8b5f-ea8407fc8a11"},"vehicle_type_id":"4","last_reported":1751922586,"current_range_meters":15200,"station_id":"ce4bgt12rcd13ifvqce0","pricing_plan_id":"cebpf4jnsgd1na2vs0mg"},{"bike_id":"016a0d30-1fee-4594-8d10-205963a7d4dd","system_id":"levelo_inurba_marseille","lat":43.29276,"lon":5.40121,"is_reserved":false,"is_disabled":false,"rental_uris":{"android":"levelo://app?vid=016a0d30-1fee-4594-8d10-205963a7d4dd","ios":"levelo://app?vid=016a0d30-1fee-4594-8d10-205963a7d4dd"},"vehicle_type_id":"4","last_reported":1751922586,"current_range_meters":15200,"station_id":"ce4bh312rcd13ifvqdk0","pricing_plan_id":"cebpf4jnsgd1na2vs0mg"},{"bike_id":"0ae62828-32d2-4ec7-9fc9-cba31c077cc0","system_id":"levelo_inurba_marseille","lat":43.29249,"lon":5.38419,"is_reserved":false,"is_disabled":false,"rental_uris":{"android":"levelo://app?vid=0ae62828-32d2-4ec7-9fc9-cba31c077cc0","ios":"levelo://app?vid=0ae62828-32d2-4ec7-9fc9-cba31c077cc0"},"vehicle_type_id":"4","last_reported":1751922586,"current_range_meters":15200,"station_id":"ce4bh692rcd13ifvqea0","pricing_plan_id":"cebpf4jnsgd1na2vs0mg"},{"bike_id":"83937736-998d-454f-9f5c-57adf6fd3024","system_id":"levelo_inurba_marseille","lat":43.24992,"lon":5.38927,"is_reserved":false,"is_disabled":false,"rental_uris":{"android":"levelo://app?vid=83937736-998d-454f-9f5c-57adf6fd3024","ios":"levelo://app?vid=83937736-998d-454f-9f5c-57adf6fd3024"},"vehicle_type_id":"4","last_reported":1751922586,"current_range_meters":15200,"station_id":"ce4bhgp2rcd13ifvqfd0","pricing_plan_id":"cebpf4jnsgd1na2vs0mg"},{"bike_id":"2090512e-543d-4a55-b888-2423e2f84234","system_id":"levelo_inurba_marseille","lat":43.24061,"lon":5.37729,"is_reserved":false,"is_disabled":false,"rental_uris":{"android":"levelo://app?vid=2090512e-543d-4a55-b888-2423e2f84234","ios":"levelo://app?vid=2090512e-543d-4a55-b888-2423e2f84234"},"vehicle_type_id":"4","last_reported":1751922586,"current_range_meters":15200,"station_id":"ce4bhnp2rcd13ifvqgvg","pricing_plan_id":"cebpf4jnsgd1na2vs0mg"},{"bike_id":"2acdb97e-7ea7-4c87-9236-5d0e97f4bb9f","system_id":"levelo_inurba_marseille","lat":43.287,"lon":5.39982,"is_reserved":false,"is_disabled":false,"rental_uris":{"android":"levelo://app?vid=2acdb97e-7ea7-4c87-9236-5d0e97f4bb9f","ios":"levelo://app?vid=2acdb97e-7ea7-4c87-9236-5d0e97f4bb9f"},"vehicle_type_id":"4","last_reported":1751922586,"current_range_meters":15200,"station_id":"ce4bho92rcd13ifvqh3g","pricing_plan_id":"cebpf4jnsgd1na2vs0mg"},{"bike_id":"bac13eb2-75b6-43a2-8750-65111fd6394f","system_id":"levelo_inurba_marseille","lat":43.32113,"lon":5.36802,"is_reserved":false,"is_disabled":false,"rental_uris":{"android":"levelo://app?vid=bac13eb2-75b6-43a2-8750-65111fd6394f","ios":"levelo://app?vid=bac13eb2-75b6-43a2-8750-65111fd6394f"},"vehicle_type_id":"4","last_reported":1751922586,"current_range_meters":15200,"station_id":"ce4bhrh2rcd13ifvqhug","pricing_plan_id":"cebpf4jnsgd1na2vs0mg"},{"bike_id":"9bfc7d3d-4e60-4f8a-9c32-ef3d0e77ec5b","system_id":"levelo_inurba_marseille","lat":43.21194,"lon":5.35084,"is_reserved":false,"is_disabled":false,"rental_uris":{"android":"levelo://app?vid=9bfc7d3d-4e60-4f8a-9c32-ef3d0e77ec5b","ios":"levelo://app?vid=9bfc7d3d-4e60-4f8a-9c32-ef3d0e77ec5b"},"vehicle_type_id":"4","last_reported":1751922586,"current_range_meters":15200,"station_id":"st_cvj6sg6p6f1abm77japg","pricing_plan_id":"cebpf4jnsgd1na2vs0mg"},{"bike_id":"6ffc31bf-be63-440b-8353-4ff83386083b","system_id":"levelo_inurba_marseille","lat":43.298383,"lon":5.364014,"is_reserved":false,"is_disabled":false,"rental_uris":{"android":"levelo://app?vid=6ffc31bf-be63-440b-8353-4ff83386083b","ios":"levelo://app?vid=6ffc31bf-be63-440b-8353-4ff83386083b"},"vehicle_type_id":"4","last_reported":1751922586,"current_range_meters":16000,"station_id":"","pricing_plan_id":"cebpf4jnsgd1na2vs0mg"},{"bike_id":"ae063a66-86c8-4dbf-85fb-211b53656a78","system_id":"levelo_inurba_marseille","lat":43.30793,"lon":5.37663,"is_reserved":false,"is_disabled":false,"rental_uris":{"android":"levelo://app?vid=ae063a66-86c8-4dbf-85fb-211b53656a78","ios":"levelo://app?vid=ae063a66-86c8-4dbf-85fb-211b53656a78"},"vehicle_type_id":"4","last_reported":1751922586,"current_range_meters":16000,"station_id":"ce4bgv92rcd13ifvqcq0","pricing_plan_id":"cebpf4jnsgd1na2vs0mg"},{"bike_id":"45bf0661-6be7-469e-ac50-cda1e6dcbb9c","system_id":"levelo_inurba_marseille","lat":43.2841,"lon":5.37526,"is_reserved":false,"is_disabled":false,"rental_uris":{"android":"levelo://app?vid=45bf0661-6be7-469e-ac50-cda1e6dcbb9c","ios":"levelo://app?vid=45bf0661-6be7-469e-ac50-cda1e6dcbb9c"},"vehicle_type_id":"4","last_reported":1751922586,"current_range_meters":16000,"station_id":"ce4bh412rcd13ifvqds0","pricing_plan_id":"cebpf4jnsgd1na2vs0mg"},{"bike_id":"0e28a9ae-26b0-4409-896f-cfa314dde98a","system_id":"levelo_inurba_marseille","lat":43.24638,"lon":5.38147,"is_reserved":false,"is_disabled":false,"rental_uris":{"android":"levelo://app?vid=0e28a9ae-26b0-4409-896f-cfa314dde98a","ios":"levelo://app?vid=0e28a9ae-26b0-4409-896f-cfa314dde98a"},"vehicle_type_id":"4","last_reported":1751922586,"current_range_meters":16000,"station_id":"ce4bhih2rcd13ifvqfr0","pricing_plan_id":"cebpf4jnsgd1na2vs0mg"},{"bike_id":"d5136664-d1b6-458d-ac35-d528f7d8ea80","system_id":"levelo_inurba_marseille","lat":43.30421,"lon":5.41282,"is_reserved":false,"is_disabled":false,"rental_uris":{"android":"levelo://app?vid=d5136664-d1b6-458d-ac35-d528f7d8ea80","ios":"levelo://app?vid=d5136664-d1b6-458d-ac35-d528f7d8ea80"},"vehicle_type_id":"4","last_reported":1751922586,"current_range_meters":16000,"station_id":"ce4bhop2rcd13ifvqh8g","pricing_plan_id":"cebpf4jnsgd1na2vs0mg"},{"bike_id":"fb32a2f9-c94d-449a-9953-8c2de1ae4466","system_id":"levelo_inurba_marseille","lat":43.29975,"lon":5.371846,"is_reserved":false,"is_disabled":false,"rental_uris":{"android":"levelo://app?vid=fb32a2f9-c94d-449a-9953-8c2de1ae4466","ios":"levelo://app?vid=fb32a2f9-c94d-449a-9953-8c2de1ae4466"},"vehicle_type_id":"4","last_reported":1751922586,"current_range_meters":16400,"station_id":"ce4bgr92rcd13ifvqc7g","pricing_plan_id":"cebpf4jnsgd1na2vs0mg"},{"bike_id":"181358dc-ecdf-4f55-9586-2f3fc5ca7153","system_id":"levelo_inurba_marseille","lat":43.30792,"lon":5.37659,"is_reserved":false,"is_disabled":false,"rental_uris":{"android":"levelo://app?vid=181358dc-ecdf-4f55-9586-2f3fc5ca7153","ios":"levelo://app?vid=181358dc-ecdf-4f55-9586-2f3fc5ca7153"},"vehicle_type_id":"4","last_reported":1751922586,"current_range_meters":16400,"station_id":"ce4bgv92rcd13ifvqcq0","pricing_plan_id":"cebpf4jnsgd1na2vs0mg"},{"bike_id":"6fb781ad-7406-4e4e-9963-e3f60ed116cc","system_id":"levelo_inurba_marseille","lat":43.29433,"lon":5.3975,"is_reserved":false,"is_disabled":false,"rental_uris":{"android":"levelo://app?vid=6fb781ad-7406-4e4e-9963-e3f60ed116cc","ios":"levelo://app?vid=6fb781ad-7406-4e4e-9963-e3f60ed116cc"},"vehicle_type_id":"4","last_reported":1751922586,"current_range_meters":16400,"station_id":"ce4bh3h2rcd13ifvqdo0","pricing_plan_id":"cebpf4jnsgd1na2vs0mg"},{"bike_id":"5631bb76-0685-4b34-965c-5554fa69ed8e","system_id":"levelo_inurba_marseille","lat":43.28944,"lon":5.36643,"is_reserved":false,"is_disabled":false,"rental_uris":{"android":"levelo://app?vid=5631bb76-0685-4b34-965c-5554fa69ed8e","ios":"levelo://app?vid=5631bb76-0685-4b34-965c-5554fa69ed8e"},"vehicle_type_id":"4","last_reported":1751922586,"current_range_meters":16400,"station_id":"ce4bhap2rcd13ifvqek0","pricing_plan_id":"cebpf4jnsgd1na2vs0mg"},{"bike_id":"47504bfd-399a-4889-acd8-b9a1331dcb3c","system_id":"levelo_inurba_marseille","lat":43.30732,"lon":5.42443,"is_reserved":false,"is_disabled":false,"rental_uris":{"android":"levelo://app?vid=47504bfd-399a-4889-acd8-b9a1331dcb3c","ios":"levelo://app?vid=47504bfd-399a-4889-acd8-b9a1331dcb3c"},"vehicle_type_id":"4","last_reported":1751922586,"current_range_meters":16400,"station_id":"st_cvj6ca6bvosntc0bfgr0","pricing_plan_id":"cebpf4jnsgd1na2vs0mg"},{"bike_id":"fe7ecf40-9aa5-4d9b-9a98-8637aadd6e83","system_id":"levelo_inurba_marseille","lat":43.21741,"lon":5.34639,"is_reserved":false,"is_disabled":false,"rental_uris":{"android":"levelo://app?vid=fe7ecf40-9aa5-4d9b-9a98-8637aadd6e83","ios":"levelo://app?vid=fe7ecf40-9aa5-4d9b-9a98-8637aadd6e83"},"vehicle_type_id":"4","last_reported":1751922586,"current_range_meters":16400,"station_id":"st_cvj6r9ubvosntc0bgbag","pricing_plan_id":"cebpf4jnsgd1na2vs0mg"},{"bike_id":"64b4fa4f-0779-4ed7-89cb-2e78d143f36e","system_id":"levelo_inurba_marseille","lat":43.2176,"lon":5.34602,"is_reserved":false,"is_disabled":false,"rental_uris":{"android":"levelo://app?vid=64b4fa4f-0779-4ed7-89cb-2e78d143f36e","ios":"levelo://app?vid=64b4fa4f-0779-4ed7-89cb-2e78d143f36e"},"vehicle_type_id":"4","last_reported":1751922586,"current_range_meters":16400,"station_id":"st_cvj6r9ubvosntc0bgbag","pricing_plan_id":"cebpf4jnsgd1na2vs0mg"},{"bike_id":"427cea64-fc3b-46a4-bd25-2bad84cd1642","system_id":"levelo_inurba_marseille","lat":43.21181,"lon":5.35078,"is_reserved":false,"is_disabled":false,"rental_uris":{"android":"levelo://app?vid=427cea64-fc3b-46a4-bd25-2bad84cd1642","ios":"levelo://app?vid=427cea64-fc3b-46a4-bd25-2bad84cd1642"},"vehicle_type_id":"4","last_reported":1751922586,"current_range_meters":16400,"station_id":"st_cvj6sg6p6f1abm77japg","pricing_plan_id":"cebpf4jnsgd1na2vs0mg"},{"bike_id":"6a3a3e65-1839-43d5-b574-3a73e4e32dac","system_id":"levelo_inurba_marseille","lat":43.32321,"lon":5.3887,"is_reserved":false,"is_disabled":false,"rental_uris":{"android":"levelo://app?vid=6a3a3e65-1839-43d5-b574-3a73e4e32dac","ios":"levelo://app?vid=6a3a3e65-1839-43d5-b574-3a73e4e32dac"},"vehicle_type_id":"4","last_reported":1751922586,"current_range_meters":16800,"station_id":"","pricing_plan_id":"cebpf4jnsgd1na2vs0mg"},{"bike_id":"888522e3-39b6-4ff3-ad74-ff6c6f771157","system_id":"levelo_inurba_marseille","lat":43.295,"lon":5.40265,"is_reserved":false,"is_disabled":false,"rental_uris":{"android":"levelo://app?vid=888522e3-39b6-4ff3-ad74-ff6c6f771157","ios":"levelo://app?vid=888522e3-39b6-4ff3-ad74-ff6c6f771157"},"vehicle_type_id":"4","last_reported":1751922586,"current_range_meters":16800,"station_id":"","pricing_plan_id":"cebpf4jnsgd1na2vs0mg"},{"bike_id":"a11f7711-06b5-48d4-ad64-228f8a05b25d","system_id":"levelo_inurba_marseille","lat":43.26687,"lon":5.38276,"is_reserved":false,"is_disabled":false,"rental_uris":{"android":"levelo://app?vid=a11f7711-06b5-48d4-ad64-228f8a05b25d","ios":"levelo://app?vid=a11f7711-06b5-48d4-ad64-228f8a05b25d"},"vehicle_type_id":"4","last_reported":1751922586,"current_range_meters":16800,"station_id":"ce4bhg92rcd13ifvqf90","pricing_plan_id":"cebpf4jnsgd1na2vs0mg"},{"bike_id":"f155da0d-22fa-4e44-82e2-7195d7f4db01","system_id":"levelo_inurba_marseille","lat":43.26272,"lon":5.37572,"is_reserved":false,"is_disabled":false,"rental_uris":{"android":"levelo://app?vid=f155da0d-22fa-4e44-82e2-7195d7f4db01","ios":"levelo://app?vid=f155da0d-22fa-4e44-82e2-7195d7f4db01"},"vehicle_type_id":"4","last_reported":1751922586,"current_range_meters":17200,"station_id":"","pricing_plan_id":"cebpf4jnsgd1na2vs0mg"},{"bike_id":"d5ef770d-9759-47e3-b3a5-7d2785ef76db","system_id":"levelo_inurba_marseille","lat":43.32929,"lon":5.39031,"is_reserved":false,"is_disabled":false,"rental_uris":{"android":"levelo://app?vid=d5ef770d-9759-47e3-b3a5-7d2785ef76db","ios":"levelo://app?vid=d5ef770d-9759-47e3-b3a5-7d2785ef76db"},"vehicle_type_id":"4","last_reported":1751922586,"current_range_meters":17200,"station_id":"","pricing_plan_id":"cebpf4jnsgd1na2vs0mg"},{"bike_id":"afd2c671-b274-4716-95f7-9abfdfc6dc55","system_id":"levelo_inurba_marseille","lat":43.31523,"lon":5.37432,"is_reserved":false,"is_disabled":false,"rental_uris":{"android":"levelo://app?vid=afd2c671-b274-4716-95f7-9abfdfc6dc55","ios":"levelo://app?vid=afd2c671-b274-4716-95f7-9abfdfc6dc55"},"vehicle_type_id":"4","last_reported":1751922586,"current_range_meters":17200,"station_id":"","pricing_plan_id":"cebpf4jnsgd1na2vs0mg"},{"bike_id":"9db15efa-62b5-43dc-beab-14a16c0840b9","system_id":"levelo_inurba_marseille","lat":43.304524,"lon":5.415534,"is_reserved":false,"is_disabled":false,"rental_uris":{"android":"levelo://app?vid=9db15efa-62b5-43dc-beab-14a16c0840b9","ios":"levelo://app?vid=9db15efa-62b5-43dc-beab-14a16c0840b9"},"vehicle_type_id":"4","last_reported":1751922586,"current_range_meters":17200,"station_id":"","pricing_plan_id":"cebpf4jnsgd1na2vs0mg"},{"bike_id":"878b4e66-b55a-4ac3-9fc4-194e704b409a","system_id":"levelo_inurba_marseille","lat":43.29627,"lon":5.3774,"is_reserved":false,"is_disabled":false,"rental_uris":{"android":"levelo://app?vid=878b4e66-b55a-4ac3-9fc4-194e704b409a","ios":"levelo://app?vid=878b4e66-b55a-4ac3-9fc4-194e704b409a"},"vehicle_type_id":"4","last_reported":1751922586,"current_range_meters":17200,"station_id":"ce4bgi92rcd13ifvqb90","pricing_plan_id":"cebpf4jnsgd1na2vs0mg"},{"bike_id":"8aaeb002-8531-40af-8325-0aa202f46a0a","system_id":"levelo_inurba_marseille","lat":43.3079,"lon":5.37644,"is_reserved":false,"is_disabled":false,"rental_uris":{"android":"levelo://app?vid=8aaeb002-8531-40af-8325-0aa202f46a0a","ios":"levelo://app?vid=8aaeb002-8531-40af-8325-0aa202f46a0a"},"vehicle_type_id":"4","last_reported":1751922586,"current_range_meters":17200,"station_id":"ce4bgv92rcd13ifvqcq0","pricing_plan_id":"cebpf4jnsgd1na2vs0mg"},{"bike_id":"84d3a0d1-939d-492b-ac98-b964b34b597d","system_id":"levelo_inurba_marseille","lat":43.30325,"lon":5.40441,"is_reserved":false,"is_disabled":false,"rental_uris":{"android":"levelo://app?vid=84d3a0d1-939d-492b-ac98-b964b34b597d","ios":"levelo://app?vid=84d3a0d1-939d-492b-ac98-b964b34b597d"},"vehicle_type_id":"4","last_reported":1751922586,"current_range_meters":17200,"station_id":"ce4bh012rcd13ifvqd10","pricing_plan_id":"cebpf4jnsgd1na2vs0mg"},{"bike_id":"2d39707d-4234-4a47-8dd8-5e45549acf1c","system_id":"levelo_inurba_marseille","lat":43.31287,"lon":5.40167,"is_reserved":false,"is_disabled":false,"rental_uris":{"android":"levelo://app?vid=2d39707d-4234-4a47-8dd8-5e45549acf1c","ios":"levelo://app?vid=2d39707d-4234-4a47-8dd8-5e45549acf1c"},"vehicle_type_id":"4","last_reported":1751922586,"current_range_meters":17200,"station_id":"ce4bh092rcd13ifvqd30","pricing_plan_id":"cebpf4jnsgd1na2vs0mg"},{"bike_id":"fb43060e-bd4f-48fe-86b1-53646a7282b8","system_id":"levelo_inurba_marseille","lat":43.30588,"lon":5.39364,"is_reserved":false,"is_disabled":false,"rental_uris":{"android":"levelo://app?vid=fb43060e-bd4f-48fe-86b1-53646a7282b8","ios":"levelo://app?vid=fb43060e-bd4f-48fe-86b1-53646a7282b8"},"vehicle_type_id":"4","last_reported":1751922586,"current_range_meters":17200,"station_id":"ce4bh0p2rcd13ifvqd80","pricing_plan_id":"cebpf4jnsgd1na2vs0mg"},{"bike_id":"fec07ed8-f107-4dc6-83c9-2622bce79963","system_id":"levelo_inurba_marseille","lat":43.29524,"lon":5.39046,"is_reserved":false,"is_disabled":false,"rental_uris":{"android":"levelo://app?vid=fec07ed8-f107-4dc6-83c9-2622bce79963","ios":"levelo://app?vid=fec07ed8-f107-4dc6-83c9-2622bce79963"},"vehicle_type_id":"4","last_reported":1751922586,"current_range_meters":17200,"station_id":"ce4bh3p2rcd13ifvqdp0","pricing_plan_id":"cebpf4jnsgd1na2vs0mg"},{"bike_id":"5c029247-6628-4a51-a7d5-9f167b33518e","system_id":"levelo_inurba_marseille","lat":43.28973,"lon":5.37831,"is_reserved":false,"is_disabled":false,"rental_uris":{"android":"levelo://app?vid=5c029247-6628-4a51-a7d5-9f167b33518e","ios":"levelo://app?vid=5c029247-6628-4a51-a7d5-9f167b33518e"},"vehicle_type_id":"4","last_reported":1751922586,"current_range_meters":17200,"station_id":"ce4bh9p2rcd13ifvqed0","pricing_plan_id":"cebpf4jnsgd1na2vs0mg"},{"bike_id":"51890362-46b0-4ee7-9f02-afbf036d064e","system_id":"levelo_inurba_marseille","lat":43.21198,"lon":5.35084,"is_reserved":false,"is_disabled":false,"rental_uris":{"android":"levelo://app?vid=51890362-46b0-4ee7-9f02-afbf036d064e","ios":"levelo://app?vid=51890362-46b0-4ee7-9f02-afbf036d064e"},"vehicle_type_id":"4","last_reported":1751922586,"current_range_meters":17200,"station_id":"st_cvj6sg6p6f1abm77japg","pricing_plan_id":"cebpf4jnsgd1na2vs0mg"},{"bike_id":"c5f83647-e0bc-4d1c-96d9-15bff83e5fe0","system_id":"levelo_inurba_marseille","lat":43.25051,"lon":5.39545,"is_reserved":false,"is_disabled":false,"rental_uris":{"android":"levelo://app?vid=c5f83647-e0bc-4d1c-96d9-15bff83e5fe0","ios":"levelo://app?vid=c5f83647-e0bc-4d1c-96d9-15bff83e5fe0"},"vehicle_type_id":"4","last_reported":1751922586,"current_range_meters":17600,"station_id":"","pricing_plan_id":"cebpf4jnsgd1na2vs0mg"},{"bike_id":"084f14d4-0bc9-446c-902e-a4f3b90135fe","system_id":"levelo_inurba_marseille","lat":43.32441,"lon":5.42888,"is_reserved":false,"is_disabled":false,"rental_uris":{"android":"levelo://app?vid=084f14d4-0bc9-446c-902e-a4f3b90135fe","ios":"levelo://app?vid=084f14d4-0bc9-446c-902e-a4f3b90135fe"},"vehicle_type_id":"4","last_reported":1751922586,"current_range_meters":17600,"station_id":"","pricing_plan_id":"cebpf4jnsgd1na2vs0mg"},{"bike_id":"0a54a6fe-1efb-4eb9-a789-1ad738235b96","system_id":"levelo_inurba_marseille","lat":43.29522,"lon":5.38557,"is_reserved":false,"is_disabled":false,"rental_uris":{"android":"levelo://app?vid=0a54a6fe-1efb-4eb9-a789-1ad738235b96","ios":"levelo://app?vid=0a54a6fe-1efb-4eb9-a789-1ad738235b96"},"vehicle_type_id":"4","last_reported":1751922586,"current_range_meters":17600,"station_id":"ce4bgih2rcd13ifvqba0","pricing_plan_id":"cebpf4jnsgd1na2vs0mg"},{"bike_id":"beb5a5fc-2438-48e3-beb1-3496ac923db8","system_id":"levelo_inurba_marseille","lat":43.29923,"lon":5.3748,"is_reserved":false,"is_disabled":false,"rental_uris":{"android":"levelo://app?vid=beb5a5fc-2438-48e3-beb1-3496ac923db8","ios":"levelo://app?vid=beb5a5fc-2438-48e3-beb1-3496ac923db8"},"vehicle_type_id":"4","last_reported":1751922586,"current_range_meters":17600,"station_id":"ce4bgjh2rcd13ifvqbg0","pricing_plan_id":"cebpf4jnsgd1na2vs0mg"},{"bike_id":"dfe474ed-87e6-460a-9158-01a0a0f821f2","system_id":"levelo_inurba_marseille","lat":43.29926,"lon":5.36549,"is_reserved":false,"is_disabled":false,"rental_uris":{"android":"levelo://app?vid=dfe474ed-87e6-460a-9158-01a0a0f821f2","ios":"levelo://app?vid=dfe474ed-87e6-460a-9158-01a0a0f821f2"},"vehicle_type_id":"4","last_reported":1751922586,"current_range_meters":17600,"station_id":"ce4bgm92rcd13ifvqbr0","pricing_plan_id":"cebpf4jnsgd1na2vs0mg"},{"bike_id":"aae381a2-a135-4ee9-b7f6-7366e6683e05","system_id":"levelo_inurba_marseille","lat":43.30606,"lon":5.37264,"is_reserved":false,"is_disabled":false,"rental_uris":{"android":"levelo://app?vid=aae381a2-a135-4ee9-b7f6-7366e6683e05","ios":"levelo://app?vid=aae381a2-a135-4ee9-b7f6-7366e6683e05"},"vehicle_type_id":"4","last_reported":1751922586,"current_range_meters":17600,"station_id":"ce4bgqh2rcd13ifvqc4g","pricing_plan_id":"cebpf4jnsgd1na2vs0mg"},{"bike_id":"8a299cab-9836-4dc2-9ba5-35c7e2a9ed29","system_id":"levelo_inurba_marseille","lat":43.2903,"lon":5.38653,"is_reserved":false,"is_disabled":false,"rental_uris":{"android":"levelo://app?vid=8a299cab-9836-4dc2-9ba5-35c7e2a9ed29","ios":"levelo://app?vid=8a299cab-9836-4dc2-9ba5-35c7e2a9ed29"},"vehicle_type_id":"4","last_reported":1751922586,"current_range_meters":17600,"station_id":"ce4bh4p2rcd13ifvqe0g","pricing_plan_id":"cebpf4jnsgd1na2vs0mg"},{"bike_id":"8488af10-92d7-41f0-8176-aa446bff0859","system_id":"levelo_inurba_marseille","lat":43.284577,"lon":5.358803,"is_reserved":false,"is_disabled":false,"rental_uris":{"android":"levelo://app?vid=8488af10-92d7-41f0-8176-aa446bff0859","ios":"levelo://app?vid=8488af10-92d7-41f0-8176-aa446bff0859"},"vehicle_type_id":"4","last_reported":1751922586,"current_range_meters":17600,"station_id":"ce4bhah2rcd13ifvqei0","pricing_plan_id":"cebpf4jnsgd1na2vs0mg"},{"bike_id":"87c2d236-4978-4760-be77-27d7f5a212e4","system_id":"levelo_inurba_marseille","lat":43.29644,"lon":5.36205,"is_reserved":false,"is_disabled":false,"rental_uris":{"android":"levelo://app?vid=87c2d236-4978-4760-be77-27d7f5a212e4","ios":"levelo://app?vid=87c2d236-4978-4760-be77-27d7f5a212e4"},"vehicle_type_id":"4","last_reported":1751922586,"current_range_meters":18000,"station_id":"","pricing_plan_id":"cebpf4jnsgd1na2vs0mg"},{"bike_id":"128f659f-6c7e-4cb0-9ea1-4684a4b898cc","system_id":"levelo_inurba_marseille","lat":43.31119,"lon":5.37771,"is_reserved":false,"is_disabled":false,"rental_uris":{"android":"levelo://app?vid=128f659f-6c7e-4cb0-9ea1-4684a4b898cc","ios":"levelo://app?vid=128f659f-6c7e-4cb0-9ea1-4684a4b898cc"},"vehicle_type_id":"4","last_reported":1751922586,"current_range_meters":18000,"station_id":"ce4bgt92rcd13ifvqcg0","pricing_plan_id":"cebpf4jnsgd1na2vs0mg"},{"bike_id":"9fa9cc1f-1d47-4d3a-89b9-ba477e0dc6c0","system_id":"levelo_inurba_marseille","lat":43.28701,"lon":5.39986,"is_reserved":false,"is_disabled":false,"rental_uris":{"android":"levelo://app?vid=9fa9cc1f-1d47-4d3a-89b9-ba477e0dc6c0","ios":"levelo://app?vid=9fa9cc1f-1d47-4d3a-89b9-ba477e0dc6c0"},"vehicle_type_id":"4","last_reported":1751922586,"current_range_meters":18000,"station_id":"ce4bho92rcd13ifvqh3g","pricing_plan_id":"cebpf4jnsgd1na2vs0mg"},{"bike_id":"d78487cb-fa92-4db1-b4fa-56250fd7e81f","system_id":"levelo_inurba_marseille","lat":43.2488,"lon":5.39322,"is_reserved":false,"is_disabled":false,"rental_uris":{"android":"levelo://app?vid=d78487cb-fa92-4db1-b4fa-56250fd7e81f","ios":"levelo://app?vid=d78487cb-fa92-4db1-b4fa-56250fd7e81f"},"vehicle_type_id":"4","last_reported":1751922586,"current_range_meters":18800,"station_id":"","pricing_plan_id":"cebpf4jnsgd1na2vs0mg"},{"bike_id":"a2a86d1d-e210-4dd1-b089-983cb9115d4e","system_id":"levelo_inurba_marseille","lat":43.29308,"lon":5.37465,"is_reserved":false,"is_disabled":false,"rental_uris":{"android":"levelo://app?vid=a2a86d1d-e210-4dd1-b089-983cb9115d4e","ios":"levelo://app?vid=a2a86d1d-e210-4dd1-b089-983cb9115d4e"},"vehicle_type_id":"4","last_reported":1751922586,"current_range_meters":18800,"station_id":"ce4bgi12rcd13ifvqb70","pricing_plan_id":"cebpf4jnsgd1na2vs0mg"},{"bike_id":"8f79dc00-a15d-4197-9ff0-cceb654c0ae7","system_id":"levelo_inurba_marseille","lat":43.294377,"lon":5.38674,"is_reserved":false,"is_disabled":false,"rental_uris":{"android":"levelo://app?vid=8f79dc00-a15d-4197-9ff0-cceb654c0ae7","ios":"levelo://app?vid=8f79dc00-a15d-4197-9ff0-cceb654c0ae7"},"vehicle_type_id":"4","last_reported":1751922586,"current_range_meters":18800,"station_id":"ce4bh2h2rcd13ifvqdh0","pricing_plan_id":"cebpf4jnsgd1na2vs0mg"},{"bike_id":"df0207e9-b0df-4a62-8e5c-8efdc445f97c","system_id":"levelo_inurba_marseille","lat":43.26064,"lon":5.39397,"is_reserved":false,"is_disabled":false,"rental_uris":{"android":"levelo://app?vid=df0207e9-b0df-4a62-8e5c-8efdc445f97c","ios":"levelo://app?vid=df0207e9-b0df-4a62-8e5c-8efdc445f97c"},"vehicle_type_id":"4","last_reported":1751922586,"current_range_meters":18800,"station_id":"ce4bhh92rcd13ifvqfj0","pricing_plan_id":"cebpf4jnsgd1na2vs0mg"},{"bike_id":"d49a2126-62b5-42fd-a3ef-af696a31ef7f","system_id":"levelo_inurba_marseille","lat":43.31892,"lon":5.408308,"is_reserved":false,"is_disabled":false,"rental_uris":{"android":"levelo://app?vid=d49a2126-62b5-42fd-a3ef-af696a31ef7f","ios":"levelo://app?vid=d49a2126-62b5-42fd-a3ef-af696a31ef7f"},"vehicle_type_id":"4","last_reported":1751922586,"current_range_meters":18800,"station_id":"ce4bhq12rcd13ifvqhig","pricing_plan_id":"cebpf4jnsgd1na2vs0mg"},{"bike_id":"ca0055cc-6cae-498a-bd83-33d4ae75dc6e","system_id":"levelo_inurba_marseille","lat":43.31275,"lon":5.4017,"is_reserved":false,"is_disabled":false,"rental_uris":{"android":"levelo://app?vid=ca0055cc-6cae-498a-bd83-33d4ae75dc6e","ios":"levelo://app?vid=ca0055cc-6cae-498a-bd83-33d4ae75dc6e"},"vehicle_type_id":"4","last_reported":1751922586,"current_range_meters":19200,"station_id":"ce4bh092rcd13ifvqd30","pricing_plan_id":"cebpf4jnsgd1na2vs0mg"},{"bike_id":"7fb328bf-f8b7-42a9-991c-848c0828ffed","system_id":"levelo_inurba_marseille","lat":43.29277,"lon":5.40114,"is_reserved":false,"is_disabled":false,"rental_uris":{"android":"levelo://app?vid=7fb328bf-f8b7-42a9-991c-848c0828ffed","ios":"levelo://app?vid=7fb328bf-f8b7-42a9-991c-848c0828ffed"},"vehicle_type_id":"4","last_reported":1751922586,"current_range_meters":19200,"station_id":"ce4bh312rcd13ifvqdk0","pricing_plan_id":"cebpf4jnsgd1na2vs0mg"},{"bike_id":"d95308aa-ea8a-4cbb-92eb-cff15ac356c5","system_id":"levelo_inurba_marseille","lat":43.26195,"lon":5.37442,"is_reserved":false,"is_disabled":false,"rental_uris":{"android":"levelo://app?vid=d95308aa-ea8a-4cbb-92eb-cff15ac356c5","ios":"levelo://app?vid=d95308aa-ea8a-4cbb-92eb-cff15ac356c5"},"vehicle_type_id":"4","last_reported":1751922586,"current_range_meters":19200,"station_id":"ce4bhgp2rcd13ifvqfc0","pricing_plan_id":"cebpf4jnsgd1na2vs0mg"},{"bike_id":"ea7df389-5dc0-4c58-88fe-80a5af035925","system_id":"levelo_inurba_marseille","lat":43.29855,"lon":5.3644,"is_reserved":false,"is_disabled":false,"rental_uris":{"android":"levelo://app?vid=ea7df389-5dc0-4c58-88fe-80a5af035925","ios":"levelo://app?vid=ea7df389-5dc0-4c58-88fe-80a5af035925"},"vehicle_type_id":"4","last_reported":1751922586,"current_range_meters":19600,"station_id":"","pricing_plan_id":"cebpf4jnsgd1na2vs0mg"},{"bike_id":"d863add3-575b-49e8-a502-bd5a659aadbe","system_id":"levelo_inurba_marseille","lat":43.27966,"lon":5.38745,"is_reserved":false,"is_disabled":false,"rental_uris":{"android":"levelo://app?vid=d863add3-575b-49e8-a502-bd5a659aadbe","ios":"levelo://app?vid=d863add3-575b-49e8-a502-bd5a659aadbe"},"vehicle_type_id":"4","last_reported":1751922586,"current_range_meters":19600,"station_id":"ce4bhg12rcd13ifvqf80","pricing_plan_id":"cebpf4jnsgd1na2vs0mg"},{"bike_id":"75aed67c-2a08-4c61-a6e0-077190803fa3","system_id":"levelo_inurba_marseille","lat":43.26055,"lon":5.39402,"is_reserved":false,"is_disabled":false,"rental_uris":{"android":"levelo://app?vid=75aed67c-2a08-4c61-a6e0-077190803fa3","ios":"levelo://app?vid=75aed67c-2a08-4c61-a6e0-077190803fa3"},"vehicle_type_id":"4","last_reported":1751922586,"current_range_meters":19600,"station_id":"ce4bhh92rcd13ifvqfj0","pricing_plan_id":"cebpf4jnsgd1na2vs0mg"},{"bike_id":"0151660b-0f1d-4cb7-8217-ed8026604fdc","system_id":"levelo_inurba_marseille","lat":43.26499,"lon":5.3957,"is_reserved":false,"is_disabled":false,"rental_uris":{"android":"levelo://app?vid=0151660b-0f1d-4cb7-8217-ed8026604fdc","ios":"levelo://app?vid=0151660b-0f1d-4cb7-8217-ed8026604fdc"},"vehicle_type_id":"4","last_reported":1751922586,"current_range_meters":19600,"station_id":"ce4bhi12rcd13ifvqfq0","pricing_plan_id":"cebpf4jnsgd1na2vs0mg"},{"bike_id":"92c6a9d9-2b7f-4402-84f4-471caf5ebfd6","system_id":"levelo_inurba_marseille","lat":43.24685,"lon":5.38148,"is_reserved":false,"is_disabled":false,"rental_uris":{"android":"levelo://app?vid=92c6a9d9-2b7f-4402-84f4-471caf5ebfd6","ios":"levelo://app?vid=92c6a9d9-2b7f-4402-84f4-471caf5ebfd6"},"vehicle_type_id":"4","last_reported":1751922586,"current_range_meters":19600,"station_id":"ce4bhih2rcd13ifvqfr0","pricing_plan_id":"cebpf4jnsgd1na2vs0mg"},{"bike_id":"9e555447-bc4b-4551-8312-b095933eb62f","system_id":"levelo_inurba_marseille","lat":43.2901,"lon":5.3865,"is_reserved":false,"is_disabled":false,"rental_uris":{"android":"levelo://app?vid=9e555447-bc4b-4551-8312-b095933eb62f","ios":"levelo://app?vid=9e555447-bc4b-4551-8312-b095933eb62f"},"vehicle_type_id":"4","last_reported":1751922586,"current_range_meters":20000,"station_id":"ce4bh4p2rcd13ifvqe0g","pricing_plan_id":"cebpf4jnsgd1na2vs0mg"},{"bike_id":"1be726fd-6933-415b-9945-8a018b2aca84","system_id":"levelo_inurba_marseille","lat":43.29033,"lon":5.3592,"is_reserved":false,"is_disabled":false,"rental_uris":{"android":"levelo://app?vid=1be726fd-6933-415b-9945-8a018b2aca84","ios":"levelo://app?vid=1be726fd-6933-415b-9945-8a018b2aca84"},"vehicle_type_id":"4","last_reported":1751922586,"current_range_meters":20000,"station_id":"ce4bha92rcd13ifvqeg0","pricing_plan_id":"cebpf4jnsgd1na2vs0mg"},{"bike_id":"cfa9c844-14f8-4788-aaa2-7becd175bf6b","system_id":"levelo_inurba_marseille","lat":43.25081,"lon":5.39521,"is_reserved":false,"is_disabled":false,"rental_uris":{"android":"levelo://app?vid=cfa9c844-14f8-4788-aaa2-7becd175bf6b","ios":"levelo://app?vid=cfa9c844-14f8-4788-aaa2-7becd175bf6b"},"vehicle_type_id":"4","last_reported":1751922586,"current_range_meters":20000,"station_id":"ce4bhm12rcd13ifvqgkg","pricing_plan_id":"cebpf4jnsgd1na2vs0mg"},{"bike_id":"533874ce-3879-4efa-a214-6ba7be8bdc8c","system_id":"levelo_inurba_marseille","lat":43.24178,"lon":5.39729,"is_reserved":false,"is_disabled":false,"rental_uris":{"android":"levelo://app?vid=533874ce-3879-4efa-a214-6ba7be8bdc8c","ios":"levelo://app?vid=533874ce-3879-4efa-a214-6ba7be8bdc8c"},"vehicle_type_id":"4","last_reported":1751922586,"current_range_meters":20000,"station_id":"ce4bhn12rcd13ifvqgpg","pricing_plan_id":"cebpf4jnsgd1na2vs0mg"},{"bike_id":"45b31e0b-1887-4def-b5f9-d8cd58c4e399","system_id":"levelo_inurba_marseille","lat":43.32358,"lon":5.38897,"is_reserved":false,"is_disabled":false,"rental_uris":{"android":"levelo://app?vid=45b31e0b-1887-4def-b5f9-d8cd58c4e399","ios":"levelo://app?vid=45b31e0b-1887-4def-b5f9-d8cd58c4e399"},"vehicle_type_id":"4","last_reported":1751922586,"current_range_meters":20000,"station_id":"ce4bhqp2rcd13ifvqhog","pricing_plan_id":"cebpf4jnsgd1na2vs0mg"},{"bike_id":"b287377f-3d0b-47ac-86fe-9e0dfc1563de","system_id":"levelo_inurba_marseille","lat":43.22509,"lon":5.34764,"is_reserved":false,"is_disabled":false,"rental_uris":{"android":"levelo://app?vid=b287377f-3d0b-47ac-86fe-9e0dfc1563de","ios":"levelo://app?vid=b287377f-3d0b-47ac-86fe-9e0dfc1563de"},"vehicle_type_id":"4","last_reported":1751922586,"current_range_meters":20000,"station_id":"st_cvj5dfep6f1abm77gieg","pricing_plan_id":"cebpf4jnsgd1na2vs0mg"},{"bike_id":"0a967b9b-4d06-4142-9038-0014f7535902","system_id":"levelo_inurba_marseille","lat":43.29249,"lon":5.37628,"is_reserved":false,"is_disabled":false,"rental_uris":{"android":"levelo://app?vid=0a967b9b-4d06-4142-9038-0014f7535902","ios":"levelo://app?vid=0a967b9b-4d06-4142-9038-0014f7535902"},"vehicle_type_id":"4","last_reported":1751922586,"current_range_meters":20400,"station_id":"ce4bgi12rcd13ifvqb80","pricing_plan_id":"cebpf4jnsgd1na2vs0mg"},{"bike_id":"d22a7ead-5528-4d00-9039-7518ade0dedd","system_id":"levelo_inurba_marseille","lat":43.31325,"lon":5.39693,"is_reserved":false,"is_disabled":false,"rental_uris":{"android":"levelo://app?vid=d22a7ead-5528-4d00-9039-7518ade0dedd","ios":"levelo://app?vid=d22a7ead-5528-4d00-9039-7518ade0dedd"},"vehicle_type_id":"4","last_reported":1751922586,"current_range_meters":20400,"station_id":"ce4bgvp2rcd13ifvqcu0","pricing_plan_id":"cebpf4jnsgd1na2vs0mg"},{"bike_id":"3af9309d-b0e0-4a4a-901c-85870d8cddc6","system_id":"levelo_inurba_marseille","lat":43.31322,"lon":5.39693,"is_reserved":false,"is_disabled":false,"rental_uris":{"android":"levelo://app?vid=3af9309d-b0e0-4a4a-901c-85870d8cddc6","ios":"levelo://app?vid=3af9309d-b0e0-4a4a-901c-85870d8cddc6"},"vehicle_type_id":"4","last_reported":1751922586,"current_range_meters":20400,"station_id":"ce4bgvp2rcd13ifvqcu0","pricing_plan_id":"cebpf4jnsgd1na2vs0mg"},{"bike_id":"6f1b7768-92f9-426b-a478-8367723d6fc3","system_id":"levelo_inurba_marseille","lat":43.29878,"lon":5.38935,"is_reserved":false,"is_disabled":false,"rental_uris":{"android":"levelo://app?vid=6f1b7768-92f9-426b-a478-8367723d6fc3","ios":"levelo://app?vid=6f1b7768-92f9-426b-a478-8367723d6fc3"},"vehicle_type_id":"4","last_reported":1751922586,"current_range_meters":20400,"station_id":"ce4bh392rcd13ifvqdl0","pricing_plan_id":"cebpf4jnsgd1na2vs0mg"},{"bike_id":"6e0cb045-7a78-4a10-92d3-cbf7399a39df","system_id":"levelo_inurba_marseille","lat":43.26945,"lon":5.38646,"is_reserved":false,"is_disabled":false,"rental_uris":{"android":"levelo://app?vid=6e0cb045-7a78-4a10-92d3-cbf7399a39df","ios":"levelo://app?vid=6e0cb045-7a78-4a10-92d3-cbf7399a39df"},"vehicle_type_id":"4","last_reported":1751922586,"current_range_meters":20400,"station_id":"ce4bhh92rcd13ifvqfh0","pricing_plan_id":"cebpf4jnsgd1na2vs0mg"},{"bike_id":"d00bfd9c-d56c-4ae7-9e0e-bb6b7351d199","system_id":"levelo_inurba_marseille","lat":43.28001,"lon":5.40028,"is_reserved":false,"is_disabled":false,"rental_uris":{"android":"levelo://app?vid=d00bfd9c-d56c-4ae7-9e0e-bb6b7351d199","ios":"levelo://app?vid=d00bfd9c-d56c-4ae7-9e0e-bb6b7351d199"},"vehicle_type_id":"4","last_reported":1751922586,"current_range_meters":20400,"station_id":"ce4bho92rcd13ifvqh4g","pricing_plan_id":"cebpf4jnsgd1na2vs0mg"},{"bike_id":"7da960ef-f775-4474-8386-c98ef0d94de9","system_id":"levelo_inurba_marseille","lat":43.30937,"lon":5.40141,"is_reserved":false,"is_disabled":false,"rental_uris":{"android":"levelo://app?vid=7da960ef-f775-4474-8386-c98ef0d94de9","ios":"levelo://app?vid=7da960ef-f775-4474-8386-c98ef0d94de9"},"vehicle_type_id":"4","last_reported":1751922586,"current_range_meters":20800,"station_id":"ce4bgvp2rcd13ifvqct0","pricing_plan_id":"cebpf4jnsgd1na2vs0mg"},{"bike_id":"8cc906ef-fb00-4f78-ac89-8f3791944987","system_id":"levelo_inurba_marseille","lat":43.295307,"lon":5.390328,"is_reserved":false,"is_disabled":false,"rental_uris":{"android":"levelo://app?vid=8cc906ef-fb00-4f78-ac89-8f3791944987","ios":"levelo://app?vid=8cc906ef-fb00-4f78-ac89-8f3791944987"},"vehicle_type_id":"4","last_reported":1751922586,"current_range_meters":20800,"station_id":"ce4bh3p2rcd13ifvqdp0","pricing_plan_id":"cebpf4jnsgd1na2vs0mg"},{"bike_id":"6f46f84a-b007-442d-a820-0abc1a532207","system_id":"levelo_inurba_marseille","lat":43.24636,"lon":5.38935,"is_reserved":false,"is_disabled":false,"rental_uris":{"android":"levelo://app?vid=6f46f84a-b007-442d-a820-0abc1a532207","ios":"levelo://app?vid=6f46f84a-b007-442d-a820-0abc1a532207"},"vehicle_type_id":"4","last_reported":1751922586,"current_range_meters":20800,"station_id":"ce4bhg12rcd13ifvqf60","pricing_plan_id":"cebpf4jnsgd1na2vs0mg"},{"bike_id":"e35c65f3-3f9e-44ac-9c35-d67050f82774","system_id":"levelo_inurba_marseille","lat":43.30795,"lon":5.43527,"is_reserved":false,"is_disabled":false,"rental_uris":{"android":"levelo://app?vid=e35c65f3-3f9e-44ac-9c35-d67050f82774","ios":"levelo://app?vid=e35c65f3-3f9e-44ac-9c35-d67050f82774"},"vehicle_type_id":"4","last_reported":1751922586,"current_range_meters":20800,"station_id":"ce4bhph2rcd13ifvqheg","pricing_plan_id":"cebpf4jnsgd1na2vs0mg"},{"bike_id":"f5c16f07-bc6f-4121-91a7-5ad90eec4f34","system_id":"levelo_inurba_marseille","lat":43.31215,"lon":5.37335,"is_reserved":false,"is_disabled":false,"rental_uris":{"android":"levelo://app?vid=f5c16f07-bc6f-4121-91a7-5ad90eec4f34","ios":"levelo://app?vid=f5c16f07-bc6f-4121-91a7-5ad90eec4f34"},"vehicle_type_id":"4","last_reported":1751922586,"current_range_meters":21600,"station_id":"","pricing_plan_id":"cebpf4jnsgd1na2vs0mg"},{"bike_id":"d44be792-e4c0-45b1-96b1-d9dfde42e217","system_id":"levelo_inurba_marseille","lat":43.2871,"lon":5.37392,"is_reserved":false,"is_disabled":false,"rental_uris":{"android":"levelo://app?vid=d44be792-e4c0-45b1-96b1-d9dfde42e217","ios":"levelo://app?vid=d44be792-e4c0-45b1-96b1-d9dfde42e217"},"vehicle_type_id":"4","last_reported":1751922586,"current_range_meters":21600,"station_id":"ce4bh3p2rcd13ifvqdq0","pricing_plan_id":"cebpf4jnsgd1na2vs0mg"},{"bike_id":"d318b26d-c41d-4502-ad81-3864a33c889d","system_id":"levelo_inurba_marseille","lat":43.260302,"lon":5.375483,"is_reserved":false,"is_disabled":false,"rental_uris":{"android":"levelo://app?vid=d318b26d-c41d-4502-ad81-3864a33c889d","ios":"levelo://app?vid=d318b26d-c41d-4502-ad81-3864a33c889d"},"vehicle_type_id":"4","last_reported":1751922586,"current_range_meters":21600,"station_id":"ce4bhgh2rcd13ifvqfa0","pricing_plan_id":"cebpf4jnsgd1na2vs0mg"},{"bike_id":"5a5872c6-a97c-4e06-96d5-1828b33141df","system_id":"levelo_inurba_marseille","lat":43.31327,"lon":5.36891,"is_reserved":false,"is_disabled":false,"rental_uris":{"android":"levelo://app?vid=5a5872c6-a97c-4e06-96d5-1828b33141df","ios":"levelo://app?vid=5a5872c6-a97c-4e06-96d5-1828b33141df"},"vehicle_type_id":"4","last_reported":1751922586,"current_range_meters":22000,"station_id":"","pricing_plan_id":"cebpf4jnsgd1na2vs0mg"},{"bike_id":"1f941f38-6a86-40e6-9112-84dca2987c41","system_id":"levelo_inurba_marseille","lat":43.29305,"lon":5.37457,"is_reserved":false,"is_disabled":false,"rental_uris":{"android":"levelo://app?vid=1f941f38-6a86-40e6-9112-84dca2987c41","ios":"levelo://app?vid=1f941f38-6a86-40e6-9112-84dca2987c41"},"vehicle_type_id":"4","last_reported":1751922586,"current_range_meters":22000,"station_id":"ce4bgi12rcd13ifvqb70","pricing_plan_id":"cebpf4jnsgd1na2vs0mg"},{"bike_id":"51f0e6bb-8e86-4a89-9f43-3305d7779a76","system_id":"levelo_inurba_marseille","lat":43.2886,"lon":5.39324,"is_reserved":false,"is_disabled":false,"rental_uris":{"android":"levelo://app?vid=51f0e6bb-8e86-4a89-9f43-3305d7779a76","ios":"levelo://app?vid=51f0e6bb-8e86-4a89-9f43-3305d7779a76"},"vehicle_type_id":"4","last_reported":1751922586,"current_range_meters":22000,"station_id":"ce4bh2p2rcd13ifvqdi0","pricing_plan_id":"cebpf4jnsgd1na2vs0mg"},{"bike_id":"d6639486-88e0-4219-98aa-4c821ecee9a9","system_id":"levelo_inurba_marseille","lat":43.28399,"lon":5.37512,"is_reserved":false,"is_disabled":false,"rental_uris":{"android":"levelo://app?vid=d6639486-88e0-4219-98aa-4c821ecee9a9","ios":"levelo://app?vid=d6639486-88e0-4219-98aa-4c821ecee9a9"},"vehicle_type_id":"4","last_reported":1751922586,"current_range_meters":22000,"station_id":"ce4bh412rcd13ifvqds0","pricing_plan_id":"cebpf4jnsgd1na2vs0mg"},{"bike_id":"0cb774ee-4b48-41aa-8395-41450d4de707","system_id":"levelo_inurba_marseille","lat":43.2481,"lon":5.37456,"is_reserved":false,"is_disabled":false,"rental_uris":{"android":"levelo://app?vid=0cb774ee-4b48-41aa-8395-41450d4de707","ios":"levelo://app?vid=0cb774ee-4b48-41aa-8395-41450d4de707"},"vehicle_type_id":"4","last_reported":1751922586,"current_range_meters":22000,"station_id":"ce4bhgh2rcd13ifvqfb0","pricing_plan_id":"cebpf4jnsgd1na2vs0mg"},{"bike_id":"d0f90c24-dd03-411b-9731-55305f76b7c8","system_id":"levelo_inurba_marseille","lat":43.211878,"lon":5.350768,"is_reserved":false,"is_disabled":false,"rental_uris":{"android":"levelo://app?vid=d0f90c24-dd03-411b-9731-55305f76b7c8","ios":"levelo://app?vid=d0f90c24-dd03-411b-9731-55305f76b7c8"},"vehicle_type_id":"4","last_reported":1751922586,"current_range_meters":22000,"station_id":"st_cvj6sg6p6f1abm77japg","pricing_plan_id":"cebpf4jnsgd1na2vs0mg"},{"bike_id":"e4793d5e-b4cd-4c12-b9d4-446cb97752b9","system_id":"levelo_inurba_marseille","lat":43.292745,"lon":5.39054,"is_reserved":false,"is_disabled":false,"rental_uris":{"android":"levelo://app?vid=e4793d5e-b4cd-4c12-b9d4-446cb97752b9","ios":"levelo://app?vid=e4793d5e-b4cd-4c12-b9d4-446cb97752b9"},"vehicle_type_id":"4","last_reported":1751922586,"current_range_meters":22400,"station_id":"","pricing_plan_id":"cebpf4jnsgd1na2vs0mg"},{"bike_id":"06feb6af-5eb5-49ba-8d41-8d2f4dbe1ee1","system_id":"levelo_inurba_marseille","lat":43.2994,"lon":5.36562,"is_reserved":false,"is_disabled":false,"rental_uris":{"android":"levelo://app?vid=06feb6af-5eb5-49ba-8d41-8d2f4dbe1ee1","ios":"levelo://app?vid=06feb6af-5eb5-49ba-8d41-8d2f4dbe1ee1"},"vehicle_type_id":"4","last_reported":1751922586,"current_range_meters":22400,"station_id":"","pricing_plan_id":"cebpf4jnsgd1na2vs0mg"},{"bike_id":"c2b72fe0-bae6-4c7b-ad48-9e771b203dc8","system_id":"levelo_inurba_marseille","lat":43.313642,"lon":5.384586,"is_reserved":false,"is_disabled":false,"rental_uris":{"android":"levelo://app?vid=c2b72fe0-bae6-4c7b-ad48-9e771b203dc8","ios":"levelo://app?vid=c2b72fe0-bae6-4c7b-ad48-9e771b203dc8"},"vehicle_type_id":"4","last_reported":1751922586,"current_range_meters":22400,"station_id":"ce4bgt92rcd13ifvqcf0","pricing_plan_id":"cebpf4jnsgd1na2vs0mg"},{"bike_id":"70f72318-2a88-4fe3-ae61-6ab01438d1b0","system_id":"levelo_inurba_marseille","lat":43.30206,"lon":5.39495,"is_reserved":false,"is_disabled":false,"rental_uris":{"android":"levelo://app?vid=70f72318-2a88-4fe3-ae61-6ab01438d1b0","ios":"levelo://app?vid=70f72318-2a88-4fe3-ae61-6ab01438d1b0"},"vehicle_type_id":"4","last_reported":1751922586,"current_range_meters":22400,"station_id":"ce4bh0p2rcd13ifvqd70","pricing_plan_id":"cebpf4jnsgd1na2vs0mg"},{"bike_id":"d9334d81-2980-40e2-9689-9aac44e9f77e","system_id":"levelo_inurba_marseille","lat":43.29037,"lon":5.39966,"is_reserved":false,"is_disabled":false,"rental_uris":{"android":"levelo://app?vid=d9334d81-2980-40e2-9689-9aac44e9f77e","ios":"levelo://app?vid=d9334d81-2980-40e2-9689-9aac44e9f77e"},"vehicle_type_id":"4","last_reported":1751922586,"current_range_meters":22400,"station_id":"ce4bh392rcd13ifvqdm0","pricing_plan_id":"cebpf4jnsgd1na2vs0mg"},{"bike_id":"98da9a34-abfb-415c-aa21-986813383584","system_id":"levelo_inurba_marseille","lat":43.28619,"lon":5.35103,"is_reserved":false,"is_disabled":false,"rental_uris":{"android":"levelo://app?vid=98da9a34-abfb-415c-aa21-986813383584","ios":"levelo://app?vid=98da9a34-abfb-415c-aa21-986813383584"},"vehicle_type_id":"4","last_reported":1751922586,"current_range_meters":22400,"station_id":"ce4bhch2rcd13ifvqeug","pricing_plan_id":"cebpf4jnsgd1na2vs0mg"},{"bike_id":"b005f6cc-f591-4151-b55a-a68efe001a48","system_id":"levelo_inurba_marseille","lat":43.23968,"lon":5.36635,"is_reserved":false,"is_disabled":false,"rental_uris":{"android":"levelo://app?vid=b005f6cc-f591-4151-b55a-a68efe001a48","ios":"levelo://app?vid=b005f6cc-f591-4151-b55a-a68efe001a48"},"vehicle_type_id":"4","last_reported":1751922586,"current_range_meters":22400,"station_id":"ce4bhi12rcd13ifvqfp0","pricing_plan_id":"cebpf4jnsgd1na2vs0mg"},{"bike_id":"8af3bab5-67ca-4001-a1bb-3e99bc14c96c","system_id":"levelo_inurba_marseille","lat":43.229362,"lon":5.353677,"is_reserved":false,"is_disabled":false,"rental_uris":{"android":"levelo://app?vid=8af3bab5-67ca-4001-a1bb-3e99bc14c96c","ios":"levelo://app?vid=8af3bab5-67ca-4001-a1bb-3e99bc14c96c"},"vehicle_type_id":"4","last_reported":1751922586,"current_range_meters":22400,"station_id":"cpo3532slgdg3j2ikp40","pricing_plan_id":"cebpf4jnsgd1na2vs0mg"},{"bike_id":"56eb3fdf-ea87-4fcf-85df-3680fa66363e","system_id":"levelo_inurba_marseille","lat":43.22509,"lon":5.34758,"is_reserved":false,"is_disabled":false,"rental_uris":{"android":"levelo://app?vid=56eb3fdf-ea87-4fcf-85df-3680fa66363e","ios":"levelo://app?vid=56eb3fdf-ea87-4fcf-85df-3680fa66363e"},"vehicle_type_id":"4","last_reported":1751922586,"current_range_meters":22400,"station_id":"st_cvj5dfep6f1abm77gieg","pricing_plan_id":"cebpf4jnsgd1na2vs0mg"},{"bike_id":"1e91cee9-7d4a-458c-9805-68ef6c30eb40","system_id":"levelo_inurba_marseille","lat":43.21745,"lon":5.34607,"is_reserved":false,"is_disabled":false,"rental_uris":{"android":"levelo://app?vid=1e91cee9-7d4a-458c-9805-68ef6c30eb40","ios":"levelo://app?vid=1e91cee9-7d4a-458c-9805-68ef6c30eb40"},"vehicle_type_id":"4","last_reported":1751922586,"current_range_meters":22400,"station_id":"st_cvj6r9ubvosntc0bgbag","pricing_plan_id":"cebpf4jnsgd1na2vs0mg"},{"bike_id":"7f0c405c-cebd-402f-b8ba-98e46b99f50b","system_id":"levelo_inurba_marseille","lat":43.21186,"lon":5.35076,"is_reserved":false,"is_disabled":false,"rental_uris":{"android":"levelo://app?vid=7f0c405c-cebd-402f-b8ba-98e46b99f50b","ios":"levelo://app?vid=7f0c405c-cebd-402f-b8ba-98e46b99f50b"},"vehicle_type_id":"4","last_reported":1751922586,"current_range_meters":22400,"station_id":"st_cvj6sg6p6f1abm77japg","pricing_plan_id":"cebpf4jnsgd1na2vs0mg"},{"bike_id":"b757ffbb-2b71-4330-9f60-5f8a9d46d16e","system_id":"levelo_inurba_marseille","lat":43.29662,"lon":5.37163,"is_reserved":false,"is_disabled":false,"rental_uris":{"android":"levelo://app?vid=b757ffbb-2b71-4330-9f60-5f8a9d46d16e","ios":"levelo://app?vid=b757ffbb-2b71-4330-9f60-5f8a9d46d16e"},"vehicle_type_id":"4","last_reported":1751922586,"current_range_meters":22800,"station_id":"","pricing_plan_id":"cebpf4jnsgd1na2vs0mg"},{"bike_id":"b2caa530-bb19-4cc6-a6bd-61e3e1d7432e","system_id":"levelo_inurba_marseille","lat":43.33763,"lon":5.37461,"is_reserved":false,"is_disabled":false,"rental_uris":{"android":"levelo://app?vid=b2caa530-bb19-4cc6-a6bd-61e3e1d7432e","ios":"levelo://app?vid=b2caa530-bb19-4cc6-a6bd-61e3e1d7432e"},"vehicle_type_id":"4","last_reported":1751922586,"current_range_meters":22800,"station_id":"","pricing_plan_id":"cebpf4jnsgd1na2vs0mg"},{"bike_id":"ad3e2da9-278b-4822-9585-e51a3e502e40","system_id":"levelo_inurba_marseille","lat":43.29571,"lon":5.37527,"is_reserved":false,"is_disabled":false,"rental_uris":{"android":"levelo://app?vid=ad3e2da9-278b-4822-9585-e51a3e502e40","ios":"levelo://app?vid=ad3e2da9-278b-4822-9585-e51a3e502e40"},"vehicle_type_id":"4","last_reported":1751922586,"current_range_meters":22800,"station_id":"ce4bgh92rcd13ifvqb50","pricing_plan_id":"cebpf4jnsgd1na2vs0mg"},{"bike_id":"8bf9e171-c3a2-4853-a031-543b56b4ccd8","system_id":"levelo_inurba_marseille","lat":43.30255,"lon":5.40074,"is_reserved":false,"is_disabled":false,"rental_uris":{"android":"levelo://app?vid=8bf9e171-c3a2-4853-a031-543b56b4ccd8","ios":"levelo://app?vid=8bf9e171-c3a2-4853-a031-543b56b4ccd8"},"vehicle_type_id":"4","last_reported":1751922586,"current_range_meters":22800,"station_id":"ce4bgvh2rcd13ifvqcs0","pricing_plan_id":"cebpf4jnsgd1na2vs0mg"},{"bike_id":"11c39605-a69d-4688-8110-703210775295","system_id":"levelo_inurba_marseille","lat":43.3133,"lon":5.3969,"is_reserved":false,"is_disabled":false,"rental_uris":{"android":"levelo://app?vid=11c39605-a69d-4688-8110-703210775295","ios":"levelo://app?vid=11c39605-a69d-4688-8110-703210775295"},"vehicle_type_id":"4","last_reported":1751922586,"current_range_meters":22800,"station_id":"ce4bgvp2rcd13ifvqcu0","pricing_plan_id":"cebpf4jnsgd1na2vs0mg"},{"bike_id":"732cbd76-4837-4a38-a590-416e6fbe6518","system_id":"levelo_inurba_marseille","lat":43.29259,"lon":5.40919,"is_reserved":false,"is_disabled":false,"rental_uris":{"android":"levelo://app?vid=732cbd76-4837-4a38-a590-416e6fbe6518","ios":"levelo://app?vid=732cbd76-4837-4a38-a590-416e6fbe6518"},"vehicle_type_id":"4","last_reported":1751922586,"current_range_meters":22800,"station_id":"ce4bh192rcd13ifvqdc0","pricing_plan_id":"cebpf4jnsgd1na2vs0mg"},{"bike_id":"e450dc0f-7b0d-4507-bab5-a5e2792e5a45","system_id":"levelo_inurba_marseille","lat":43.28852,"lon":5.39309,"is_reserved":false,"is_disabled":false,"rental_uris":{"android":"levelo://app?vid=e450dc0f-7b0d-4507-bab5-a5e2792e5a45","ios":"levelo://app?vid=e450dc0f-7b0d-4507-bab5-a5e2792e5a45"},"vehicle_type_id":"4","last_reported":1751922586,"current_range_meters":22800,"station_id":"ce4bh2p2rcd13ifvqdi0","pricing_plan_id":"cebpf4jnsgd1na2vs0mg"},{"bike_id":"01d7d53c-863f-472d-a438-ce48a0146924","system_id":"levelo_inurba_marseille","lat":43.26951,"lon":5.38628,"is_reserved":false,"is_disabled":false,"rental_uris":{"android":"levelo://app?vid=01d7d53c-863f-472d-a438-ce48a0146924","ios":"levelo://app?vid=01d7d53c-863f-472d-a438-ce48a0146924"},"vehicle_type_id":"4","last_reported":1751922586,"current_range_meters":22800,"station_id":"ce4bhh92rcd13ifvqfh0","pricing_plan_id":"cebpf4jnsgd1na2vs0mg"},{"bike_id":"fb4122cd-0277-4297-8cd5-1b777b465e3e","system_id":"levelo_inurba_marseille","lat":43.24062,"lon":5.3778,"is_reserved":false,"is_disabled":false,"rental_uris":{"android":"levelo://app?vid=fb4122cd-0277-4297-8cd5-1b777b465e3e","ios":"levelo://app?vid=fb4122cd-0277-4297-8cd5-1b777b465e3e"},"vehicle_type_id":"4","last_reported":1751922586,"current_range_meters":22800,"station_id":"ce4bhnp2rcd13ifvqgvg","pricing_plan_id":"cebpf4jnsgd1na2vs0mg"},{"bike_id":"b6d9b946-f66a-4c6f-96e5-5d23e176360c","system_id":"levelo_inurba_marseille","lat":43.31315,"lon":5.38172,"is_reserved":false,"is_disabled":false,"rental_uris":{"android":"levelo://app?vid=b6d9b946-f66a-4c6f-96e5-5d23e176360c","ios":"levelo://app?vid=b6d9b946-f66a-4c6f-96e5-5d23e176360c"},"vehicle_type_id":"4","last_reported":1751922586,"current_range_meters":23200,"station_id":"","pricing_plan_id":"cebpf4jnsgd1na2vs0mg"},{"bike_id":"3e5ae229-a7f4-4369-b174-15a8529b0b50","system_id":"levelo_inurba_marseille","lat":43.28694,"lon":5.38308,"is_reserved":false,"is_disabled":false,"rental_uris":{"android":"levelo://app?vid=3e5ae229-a7f4-4369-b174-15a8529b0b50","ios":"levelo://app?vid=3e5ae229-a7f4-4369-b174-15a8529b0b50"},"vehicle_type_id":"4","last_reported":1751922586,"current_range_meters":23200,"station_id":"","pricing_plan_id":"cebpf4jnsgd1na2vs0mg"},{"bike_id":"4d204027-e58f-4770-9c2e-43b395582ed1","system_id":"levelo_inurba_marseille","lat":43.30923,"lon":5.40158,"is_reserved":false,"is_disabled":false,"rental_uris":{"android":"levelo://app?vid=4d204027-e58f-4770-9c2e-43b395582ed1","ios":"levelo://app?vid=4d204027-e58f-4770-9c2e-43b395582ed1"},"vehicle_type_id":"4","last_reported":1751922586,"current_range_meters":23200,"station_id":"ce4bgvp2rcd13ifvqct0","pricing_plan_id":"cebpf4jnsgd1na2vs0mg"},{"bike_id":"1f159776-c6ab-4ee5-9cd8-b2185ead58eb","system_id":"levelo_inurba_marseille","lat":43.30589,"lon":5.3936,"is_reserved":false,"is_disabled":false,"rental_uris":{"android":"levelo://app?vid=1f159776-c6ab-4ee5-9cd8-b2185ead58eb","ios":"levelo://app?vid=1f159776-c6ab-4ee5-9cd8-b2185ead58eb"},"vehicle_type_id":"4","last_reported":1751922586,"current_range_meters":23200,"station_id":"ce4bh0p2rcd13ifvqd80","pricing_plan_id":"cebpf4jnsgd1na2vs0mg"},{"bike_id":"13f60028-50a7-4b82-979c-3d7e8f34cbf3","system_id":"levelo_inurba_marseille","lat":43.287036,"lon":5.373806,"is_reserved":false,"is_disabled":false,"rental_uris":{"android":"levelo://app?vid=13f60028-50a7-4b82-979c-3d7e8f34cbf3","ios":"levelo://app?vid=13f60028-50a7-4b82-979c-3d7e8f34cbf3"},"vehicle_type_id":"4","last_reported":1751922586,"current_range_meters":23200,"station_id":"ce4bh3p2rcd13ifvqdq0","pricing_plan_id":"cebpf4jnsgd1na2vs0mg"},{"bike_id":"4cf6f90c-649f-412d-b834-1005df2b5cbc","system_id":"levelo_inurba_marseille","lat":43.28335,"lon":5.38111,"is_reserved":false,"is_disabled":false,"rental_uris":{"android":"levelo://app?vid=4cf6f90c-649f-412d-b834-1005df2b5cbc","ios":"levelo://app?vid=4cf6f90c-649f-412d-b834-1005df2b5cbc"},"vehicle_type_id":"4","last_reported":1751922586,"current_range_meters":23200,"station_id":"ce4bh412rcd13ifvqdr0","pricing_plan_id":"cebpf4jnsgd1na2vs0mg"},{"bike_id":"af1bbdf0-3820-48d3-b369-c9d5923de072","system_id":"levelo_inurba_marseille","lat":43.27899,"lon":5.38011,"is_reserved":false,"is_disabled":false,"rental_uris":{"android":"levelo://app?vid=af1bbdf0-3820-48d3-b369-c9d5923de072","ios":"levelo://app?vid=af1bbdf0-3820-48d3-b369-c9d5923de072"},"vehicle_type_id":"4","last_reported":1751922586,"current_range_meters":23200,"station_id":"ce4bhf92rcd13ifvqf50","pricing_plan_id":"cebpf4jnsgd1na2vs0mg"},{"bike_id":"2d13aa6e-26ad-41e9-997d-48bd9e2e0cec","system_id":"levelo_inurba_marseille","lat":43.26788,"lon":5.39419,"is_reserved":false,"is_disabled":false,"rental_uris":{"android":"levelo://app?vid=2d13aa6e-26ad-41e9-997d-48bd9e2e0cec","ios":"levelo://app?vid=2d13aa6e-26ad-41e9-997d-48bd9e2e0cec"},"vehicle_type_id":"4","last_reported":1751922586,"current_range_meters":23200,"station_id":"ce4bhh12rcd13ifvqfg0","pricing_plan_id":"cebpf4jnsgd1na2vs0mg"},{"bike_id":"239d8cb5-aa1e-4272-b826-60060c933d75","system_id":"levelo_inurba_marseille","lat":43.27823,"lon":5.39219,"is_reserved":false,"is_disabled":false,"rental_uris":{"android":"levelo://app?vid=239d8cb5-aa1e-4272-b826-60060c933d75","ios":"levelo://app?vid=239d8cb5-aa1e-4272-b826-60060c933d75"},"vehicle_type_id":"4","last_reported":1751922586,"current_range_meters":23200,"station_id":"ce4bhjp2rcd13ifvqga0","pricing_plan_id":"cebpf4jnsgd1na2vs0mg"},{"bike_id":"cfadcf42-1dd0-4d71-9c6f-9bfc68f545ae","system_id":"levelo_inurba_marseille","lat":43.25105,"lon":5.4032,"is_reserved":false,"is_disabled":false,"rental_uris":{"android":"levelo://app?vid=cfadcf42-1dd0-4d71-9c6f-9bfc68f545ae","ios":"levelo://app?vid=cfadcf42-1dd0-4d71-9c6f-9bfc68f545ae"},"vehicle_type_id":"4","last_reported":1751922586,"current_range_meters":23200,"station_id":"ce4bhlh2rcd13ifvqgig","pricing_plan_id":"cebpf4jnsgd1na2vs0mg"},{"bike_id":"de3c7479-ad03-448f-a78e-88898eddd51a","system_id":"levelo_inurba_marseille","lat":43.29627,"lon":5.37267,"is_reserved":false,"is_disabled":false,"rental_uris":{"android":"levelo://app?vid=de3c7479-ad03-448f-a78e-88898eddd51a","ios":"levelo://app?vid=de3c7479-ad03-448f-a78e-88898eddd51a"},"vehicle_type_id":"4","last_reported":1751922586,"current_range_meters":24000,"station_id":"","pricing_plan_id":"cebpf4jnsgd1na2vs0mg"},{"bike_id":"320f2a33-deaa-4e0a-a3d5-c39ce8ad680a","system_id":"levelo_inurba_marseille","lat":43.31541,"lon":5.37456,"is_reserved":false,"is_disabled":false,"rental_uris":{"android":"levelo://app?vid=320f2a33-deaa-4e0a-a3d5-c39ce8ad680a","ios":"levelo://app?vid=320f2a33-deaa-4e0a-a3d5-c39ce8ad680a"},"vehicle_type_id":"4","last_reported":1751922586,"current_range_meters":24000,"station_id":"","pricing_plan_id":"cebpf4jnsgd1na2vs0mg"},{"bike_id":"82831a06-c670-48f5-aed0-740cfceb51ca","system_id":"levelo_inurba_marseille","lat":43.29803,"lon":5.37278,"is_reserved":false,"is_disabled":false,"rental_uris":{"android":"levelo://app?vid=82831a06-c670-48f5-aed0-740cfceb51ca","ios":"levelo://app?vid=82831a06-c670-48f5-aed0-740cfceb51ca"},