{"last_updated":1711822171,"ttl":30,"version":"2.2","data":{"bikes":[{"bike_id":"cbb5fdc6-6f1b-4cbd-a00c-627e85c497a6","system_id":"levelo_inurba_marseille","lat":43.312239,"lon":5.368562,"is_reserved":false,"is_disabled":false,"rental_uris":{"android":"levelo://app?vid=cbb5fdc6-6f1b-4cbd-a00c-627e85c497a6","ios":"levelo://app?vid=cbb5fdc6-6f1b-4cbd-a00c-627e85c497a6"},"vehicle_type_id":"4","last_reported":1711822171,"current_range_meters":30400,"station_id":"ce4bgl92rcd13ifvqbq0","pricing_plan_id":"cebpf4jnsgd1na2vs0mg"},{"bike_id":"6a70c60a-7f67-4704-ba6c-c6f0c2bd5886","system_id":"levelo_inurba_marseille","lat":43.312239,"lon":5.368562,"is_reserved":false,"is_disabled":false,"rental_uris":{"android":"levelo://app?vid=6a70c60a-7f67-4704-ba6c-c6f0c2bd5886","ios":"levelo://app?vid=6a70c60a-7f67-4704-ba6c-c6f0c2bd5886"},"vehicle_type_id":"4","last_reported":1711822171,"current_range_meters":22000,"station_id":"ce4bgl92rcd13ifvqbq0","pricing_plan_id":"cebpf4jnsgd1na2vs0mg"},{"bike_id":"54712fff-22a5-4449-a189-393ab49833ee","system_id":"levelo_inurba_marseille","lat":43.31224,"lon":5.3685,"is_reserved":false,"is_disabled":false,"rental_uris":{"android":"levelo://app?vid=54712fff-22a5-4449-a189-393ab49833ee","ios":"levelo://app?vid=54712fff-22a5-4449-a189-393ab49833ee"},"vehicle_type_id":"4","last_reported":1711822171,"current_range_meters":11200,"station_id":"ce4bgl92rcd13ifvqbq0","pricing_plan_id":"cebpf4jnsgd1na2vs0mg"},{"bike_id":"3af67cd3-8562-4214-8f48-571f7f355e17","system_id":"levelo_inurba_marseille","lat":43.312239,"lon":5.368562,"is_reserved":false,"is_disabled":false,"rental_uris":{"android":"levelo://app?vid=3af67cd3-8562-4214-8f48-571f7f355e17","ios":"levelo://app?vid=3af67cd3-8562-4214-8f48-571f7f355e17"},"vehicle_type_id":"4","last_reported":1711822171,"current_range_meters":12800,"station_id":"ce4bgl92rcd13ifvqbq0","pricing_plan_id":"cebpf4jnsgd1na2vs0mg"},{"bike_id":"f935ec05-5cd6-45a6-8bb8-73441ef331b0","system_id":"levelo_inurba_marseille","lat":43.312239,"lon":5.368562,"is_reserved":false,"is_disabled":false,"rental_uris":{"android":"levelo://app?vid=f935ec05-5cd6-45a6-8bb8-73441ef331b0","ios":"levelo://app?vid=f935ec05-5cd6-45a6-8bb8-73441ef331b0"},"vehicle_type_id":"4","last_reported":1711822171,"current_range_meters":18000,"station_id":"ce4bgl92rcd13ifvqbq0","pricing_plan_id":"cebpf4jnsgd1na2vs0mg"},{"bike_id":"10e1c1f0-ceb7-4b0f-a47d-a231a4e325fd","system_id":"levelo_inurba_marseille","lat":43.312239,"lon":5.368562,"is_reserved":false,"is_disabled":false,"rental_uris":{"android":"levelo://app?vid=10e1c1f0-ceb7-4b0f-a47d-a231a4e325fd","ios":"levelo://app?vid=10e1c1f0-ceb7-4b0f-a47d-a231a4e325fd"},"vehicle_type_id":"4","last_reported":1711822171,"current_range_meters":22400,"station_id":"ce4bgl92rcd13ifvqbq0","pricing_plan_id":"cebpf4jnsgd1na2vs0mg"},{"bike_id":"94c77f86-cdbe-4820-93e0-1974e976dc5f","system_id":"levelo_inurba_marseille","lat":43.312239,"lon":5.368562,"is_reserved":false,"is_disabled":false,"rental_uris":{"android":"levelo://app?vid=94c77f86-cdbe-4820-93e0-1974e976dc5f","ios":"levelo://app?vid=94c77f86-cdbe-4820-93e0-1974e976dc5f"},"vehicle_type_id":"4","last_reported":1711822171,"current_range_meters":8800,"station_id":"ce4bgl92rcd13ifvqbq0","pricing_plan_id":"cebpf4jnsgd1na2vs0mg"},{"bike_id":"3f000913-994d-49bc-87cc-eaa9139d80cd","system_id":"levelo_inurba_marseille","lat":43.312239,"lon":5.368562,"is_reserved":false,"is_disabled":false,"rental_uris":{"android":"levelo://app?vid=3f000913-994d-49bc-87cc-eaa9139d80cd","ios":"levelo://app?vid=3f000913-994d-49bc-87cc-eaa9139d80cd"},"vehicle_type_id":"4","last_reported":1711822171,"current_range_meters":5200,"station_id":"ce4bgl92rcd13ifvqbq0","pricing_plan_id":"cebpf4jnsgd1na2vs0mg"},{"bike_id":"eb955371-2e9c-4994-9a24-760c5d426526","system_id":"levelo_inurba_marseille","lat":43.312306,"lon":5.368665,"is_reserved":false,"is_disabled":false,"rental_uris":{"android":"levelo://app?vid=eb955371-2e9c-4994-9a24-760c5d426526","ios":"levelo://app?vid=eb955371-2e9c-4994-9a24-760c5d426526"},"vehicle_type_id":"4","last_reported":1711822171,"current_range_meters":0,"station_id":"ce4bgl92rcd13ifvqbq0","pricing_plan_id":"cebpf4jnsgd1na2vs0mg"},{"bike_id":"de35af07-58d5-4cd1-8398-59460b22421e","system_id":"levelo_inurba_marseille","lat":43.312239,"lon":5.368562,"is_reserved":false,"is_disabled":false,"rental_uris":{"android":"levelo://app?vid=de35af07-58d5-4cd1-8398-59460b22421e","ios":"levelo://app?vid=de35af07-58d5-4cd1-8398-59460b22421e"},"vehicle_type_id":"4","last_reported":1711822171,"current_range_meters":27600,"station_id":"ce4bgl92rcd13ifvqbq0","pricing_plan_id":"cebpf4jnsgd1na2vs0mg"},{"bike_id":"6b39b055-586f-40c3-965d-b0b4ed624cb0","system_id":"levelo_inurba_marseille","lat":43.312239,"lon":5.368562,"is_reserved":false,"is_disabled":false,"rental_uris":{"android":"levelo://app?vid=6b39b055-586f-40c3-965d-b0b4ed624cb0","ios":"levelo://app?vid=6b39b055-586f-40c3-965d-b0b4ed624cb0"},"vehicle_type_id":"4","last_reported":1711822171,"current_range_meters":16400,"station_id":"ce4bgl92rcd13ifvqbq0","pricing_plan_id":"cebpf4jnsgd1na2vs0mg"},{"bike_id":"7191c091-4765-475e-865a-bf40eaac4a40","system_id":"levelo_inurba_marseille","lat":43.309076,"lon":5.368465,"is_reserved":false,"is_disabled":false,"rental_uris":{"android":"levelo://app?vid=7191c091-4765-475e-865a-bf40eaac4a40","ios":"levelo://app?vid=7191c091-4765-475e-865a-bf40eaac4a40"},"vehicle_type_id":"4","last_reported":1711822171,"current_range_meters":21600,"station_id":"ce4bgn92rcd13ifvqbvg","pricing_plan_id":"cebpf4jnsgd1na2vs0mg"},{"bike_id":"eaa2d76c-b7b3-4c19-97c4-d92828fff7d1","system_id":"levelo_inurba_marseille","lat":43.309076,"lon":5.368465,"is_reserved":false,"is_disabled":false,"rental_uris":{"android":"levelo://app?vid=eaa2d76c-b7b3-4c19-97c4-d92828fff7d1","ios":"levelo://app?vid=eaa2d76c-b7b3-4c19-97c4-d92828fff7d1"},"vehicle_type_id":"4","last_reported":1711822171,"current_range_meters":22800,"station_id":"ce4bgn92rcd13ifvqbvg","pricing_plan_id":"cebpf4jnsgd1na2vs0mg"},{"bike_id":"3fc4429f-4c38-4ecd-a7f5-4c0df314f61e","system_id":"levelo_inurba_marseille","lat":43.309076,"lon":5.368465,"is_reserved":false,"is_disabled":false,"rental_uris":{"android":"levelo://app?vid=3fc4429f-4c38-4ecd-a7f5-4c0df314f61e","ios":"levelo://app?vid=3fc4429f-4c38-4ecd-a7f5-4c0df314f61e"},"vehicle_type_id":"4","last_reported":1711822171,"current_range_meters":28000,"station_id":"ce4bgn92rcd13ifvqbvg","pricing_plan_id":"cebpf4jnsgd1na2vs0mg"},{"bike_id":"56d49acf-e41c-45e5-8091-a3ebdb182bc2","system_id":"levelo_inurba_marseille","lat":43.309076,"lon":5.368465,"is_reserved":false,"is_disabled":false,"rental_uris":{"android":"levelo://app?vid=56d49acf-e41c-45e5-8091-a3ebdb182bc2","ios":"levelo://app?vid=56d49acf-e41c-45e5-8091-a3ebdb182bc2"},"vehicle_type_id":"4","last_reported":1711822171,"current_range_meters":22400,"station_id":"ce4bgn92rcd13ifvqbvg","pricing_plan_id":"cebpf4jnsgd1na2vs0mg"},{"bike_id":"d6307505-8c34-4a0b-a7b0-61a30e8ab21c","system_id":"levelo_inurba_marseille","lat":43.314811,"lon":5.373103,"is_reserved":false,"is_disabled":false,"rental_uris":{"android":"levelo://app?vid=d6307505-8c34-4a0b-a7b0-61a30e8ab21c","ios":"levelo://app?vid=d6307505-8c34-4a0b-a7b0-61a30e8ab21c"},"vehicle_type_id":"4","last_reported":1711822171,"current_range_meters":20800,"station_id":"ce4bgt12rcd13ifvqcd0","pricing_plan_id":"cebpf4jnsgd1na2vs0mg"},{"bike_id":"fc3b53db-09e3-4a3e-866d-270ba637fb7f","system_id":"levelo_inurba_marseille","lat":43.314811,"lon":5.373103,"is_reserved":false,"is_disabled":false,"rental_uris":{"android":"levelo://app?vid=fc3b53db-09e3-4a3e-866d-270ba637fb7f","ios":"levelo://app?vid=fc3b53db-09e3-4a3e-866d-270ba637fb7f"},"vehicle_type_id":"4","last_reported":1711822171,"current_range_meters":16000,"station_id":"ce4bgt12rcd13ifvqcd0","pricing_plan_id":"cebpf4jnsgd1na2vs0mg"},{"bike_id":"65bd3067-843a-4dff-967c-3041e85029e1","system_id":"levelo_inurba_marseille","lat":43.315289,"lon":5.380349,"is_reserved":false,"is_disabled":false,"rental_uris":{"android":"levelo://app?vid=65bd3067-843a-4dff-967c-3041e85029e1","ios":"levelo://app?vid=65bd3067-843a-4dff-967c-3041e85029e1"},"vehicle_type_id":"4","last_reported":1711822171,"current_range_meters":20800,"station_id":"ce4bhsp2rcd13ifvqi50","pricing_plan_id":"cebpf4jnsgd1na2vs0mg"},{"bike_id":"1722e6fe-1871-4bfd-bcbf-3c8c8f1f55e2","system_id":"levelo_inurba_marseille","lat":43.314811,"lon":5.373104,"is_reserved":false,"is_disabled":false,"rental_uris":{"android":"levelo://app?vid=1722e6fe-1871-4bfd-bcbf-3c8c8f1f55e2","ios":"levelo://app?vid=1722e6fe-1871-4bfd-bcbf-3c8c8f1f55e2"},"vehicle_type_id":"4","last_reported":1711822171,"current_range_meters":28800,"station_id":"ce4bgt12rcd13ifvqcd0","pricing_plan_id":"cebpf4jnsgd1na2vs0mg"},{"bike_id":"04695aa5-50cd-45d4-b3ca-0af9f9a62407","system_id":"levelo_inurba_marseille","lat":43.308012,"lon":5.381511,"is_reserved":false,"is_disabled":false,"rental_uris":{"android":"levelo://app?vid=04695aa5-50cd-45d4-b3ca-0af9f9a62407","ios":"levelo://app?vid=04695aa5-50cd-45d4-b3ca-0af9f9a62407"},"vehicle_type_id":"4","last_reported":1711822171,"current_range_meters":2400,"station_id":"ce4bgt12rcd13ifvqce0","pricing_plan_id":"cebpf4jnsgd1na2vs0mg"},{"bike_id":"756c4052-7f28-4c40-bcab-474ad6ac51c0","system_id":"levelo_inurba_marseille","lat":43.314811,"lon":5.373104,"is_reserved":false,"is_disabled":false,"rental_uris":{"android":"levelo://app?vid=756c4052-7f28-4c40-bcab-474ad6ac51c0","ios":"levelo://app?vid=756c4052-7f28-4c40-bcab-474ad6ac51c0"},"vehicle_type_id":"4","last_reported":1711822171,"current_range_meters":8400,"station_id":"ce4bgt12rcd13ifvqcd0","pricing_plan_id":"cebpf4jnsgd1na2vs0mg"},{"bike_id":"b0c16670-931c-4f95-93f2-98a7b197e7c0","system_id":"levelo_inurba_marseille","lat":43.314811,"lon":5.373104,"is_reserved":false,"is_disabled":false,"rental_uris":{"android":"levelo://app?vid=b0c16670-931c-4f95-93f2-98a7b197e7c0","ios":"levelo://app?vid=b0c16670-931c-4f95-93f2-98a7b197e7c0"},"vehicle_type_id":"4","last_reported":1711822171,"current_range_meters":18800,"station_id":"ce4bgt12rcd13ifvqcd0","pricing_plan_id":"cebpf4jnsgd1na2vs0mg"},{"bike_id":"36e2adf4-2d6d-40f6-b5bf-745bd63067ed","system_id":"levelo_inurba_marseille","lat":43.309039,"lon":5.371797,"is_reserved":false,"is_disabled":false,"rental_uris":{"android":"levelo://app?vid=36e2adf4-2d6d-40f6-b5bf-745bd63067ed","ios":"levelo://app?vid=36e2adf4-2d6d-40f6-b5bf-745bd63067ed"},"vehicle_type_id":"4","last_reported":1711822171,"current_range_meters":30000,"station_id":"ce4bguh2rcd13ifvqckg","pricing_plan_id":"cebpf4jnsgd1na2vs0mg"},{"bike_id":"89104f73-41c6-46e2-bd91-b86b1d2f71cc","system_id":"levelo_inurba_marseille","lat":43.30896,"lon":5.371963,"is_reserved":false,"is_disabled":false,"rental_uris":{"android":"levelo://app?vid=89104f73-41c6-46e2-bd91-b86b1d2f71cc","ios":"levelo://app?vid=89104f73-41c6-46e2-bd91-b86b1d2f71cc"},"vehicle_type_id":"4","last_reported":1711822171,"current_range_meters":26000,"station_id":"ce4bguh2rcd13ifvqckg","pricing_plan_id":"cebpf4jnsgd1na2vs0mg"},{"bike_id":"a86568d4-6fd1-4028-98b6-2c80d505a363","system_id":"levelo_inurba_marseille","lat":43.30898,"lon":5.372,"is_reserved":false,"is_disabled":false,"rental_uris":{"android":"levelo://app?vid=a86568d4-6fd1-4028-98b6-2c80d505a363","ios":"levelo://app?vid=a86568d4-6fd1-4028-98b6-2c80d505a363"},"vehicle_type_id":"4","last_reported":1711822171,"current_range_meters":800,"station_id":"ce4bguh2rcd13ifvqckg","pricing_plan_id":"cebpf4jnsgd1na2vs0mg"},{"bike_id":"db0e0924-ee1f-4410-b450-32cf5471965e","system_id":"levelo_inurba_marseille","lat":43.308341,"lon":5.372222,"is_reserved":false,"is_disabled":false,"rental_uris":{"android":"levelo://app?vid=db0e0924-ee1f-4410-b450-32cf5471965e","ios":"levelo://app?vid=db0e0924-ee1f-4410-b450-32cf5471965e"},"vehicle_type_id":"4","last_reported":1711822171,"current_range_meters":800,"station_id":"ce4bguh2rcd13ifvqckg","pricing_plan_id":"cebpf4jnsgd1na2vs0mg"},{"bike_id":"5239a120-23c9-4ab6-abdd-9a99b80d04e8","system_id":"levelo_inurba_marseille","lat":43.30537,"lon":5.367345,"is_reserved":false,"is_disabled":false,"rental_uris":{"android":"levelo://app?vid=5239a120-23c9-4ab6-abdd-9a99b80d04e8","ios":"levelo://app?vid=5239a120-23c9-4ab6-abdd-9a99b80d04e8"},"vehicle_type_id":"4","last_reported":1711822171,"current_range_meters":19600,"station_id":"ce4bgrp2rcd13ifvqc9g","pricing_plan_id":"cebpf4jnsgd1na2vs0mg"},{"bike_id":"62c87a81-ffc4-4d64-85e4-68fbda1a4b8f","system_id":"levelo_inurba_marseille","lat":43.305706,"lon":5.365654,"is_reserved":false,"is_disabled":false,"rental_uris":{"android":"levelo://app?vid=62c87a81-ffc4-4d64-85e4-68fbda1a4b8f","ios":"levelo://app?vid=62c87a81-ffc4-4d64-85e4-68fbda1a4b8f"},"vehicle_type_id":"4","last_reported":1711822171,"current_range_meters":6800,"station_id":"ce4bgs12rcd13ifvqcag","pricing_plan_id":"cebpf4jnsgd1na2vs0mg"},{"bike_id":"99392800-7513-4a65-af25-ffabdc6be80d","system_id":"levelo_inurba_marseille","lat":43.30538,"lon":5.36532,"is_reserved":false,"is_disabled":false,"rental_uris":{"android":"levelo://app?vid=99392800-7513-4a65-af25-ffabdc6be80d","ios":"levelo://app?vid=99392800-7513-4a65-af25-ffabdc6be80d"},"vehicle_type_id":"4","last_reported":1711822171,"current_range_meters":0,"station_id":"ce4bgs12rcd13ifvqcag","pricing_plan_id":"cebpf4jnsgd1na2vs0mg"},{"bike_id":"77c4d9b1-2f9c-493b-9610-e5b31b7b0c3e","system_id":"levelo_inurba_marseille","lat":43.292749,"lon":5.368402,"is_reserved":false,"is_disabled":false,"rental_uris":{"android":"levelo://app?vid=77c4d9b1-2f9c-493b-9610-e5b31b7b0c3e","ios":"levelo://app?vid=77c4d9b1-2f9c-493b-9610-e5b31b7b0c3e"},"vehicle_type_id":"4","last_reported":1711822171,"current_range_meters":11200,"station_id":"ce4bhbp2rcd13ifvqesg","pricing_plan_id":"cebpf4jnsgd1na2vs0mg"},{"bike_id":"9afd3794-e979-46f0-9ebb-bd324d78cbfc","system_id":"levelo_inurba_marseille","lat":43.30613,"lon":5.37236,"is_reserved":false,"is_disabled":false,"rental_uris":{"android":"levelo://app?vid=9afd3794-e979-46f0-9ebb-bd324d78cbfc","ios":"levelo://app?vid=9afd3794-e979-46f0-9ebb-bd324d78cbfc"},"vehicle_type_id":"4","last_reported":1711822171,"current_range_meters":0,"station_id":"ce4bgqh2rcd13ifvqc4g","pricing_plan_id":"cebpf4jnsgd1na2vs0mg"},{"bike_id":"bc7c6fdb-7b25-4807-9c38-cc7b5a3d784f","system_id":"levelo_inurba_marseille","lat":43.305989,"lon":5.37225,"is_reserved":false,"is_disabled":false,"rental_uris":{"android":"levelo://app?vid=bc7c6fdb-7b25-4807-9c38-cc7b5a3d784f","ios":"levelo://app?vid=bc7c6fdb-7b25-4807-9c38-cc7b5a3d784f"},"vehicle_type_id":"4","last_reported":1711822171,"current_range_meters":22000,"station_id":"ce4bgqh2rcd13ifvqc4g","pricing_plan_id":"cebpf4jnsgd1na2vs0mg"},{"bike_id":"996e3b7a-30d8-47ec-8d0d-907df1d38511","system_id":"levelo_inurba_marseille","lat":43.305989,"lon":5.37225,"is_reserved":false,"is_disabled":false,"rental_uris":{"android":"levelo://app?vid=996e3b7a-30d8-47ec-8d0d-907df1d38511","ios":"levelo://app?vid=996e3b7a-30d8-47ec-8d0d-907df1d38511"},"vehicle_type_id":"4","last_reported":1711822171,"current_range_meters":0,"station_id":"ce4bgqh2rcd13ifvqc4g","pricing_plan_id":"cebpf4jnsgd1na2vs0mg"},{"bike_id":"c0140e8e-e726-44a5-adc7-5ee20761cdbe","system_id":"levelo_inurba_marseille","lat":43.305989,"lon":5.37225,"is_reserved":false,"is_disabled":false,"rental_uris":{"android":"levelo://app?vid=c0140e8e-e726-44a5-adc7-5ee20761cdbe","ios":"levelo://app?vid=c0140e8e-e726-44a5-adc7-5ee20761cdbe"},"vehicle_type_id":"4","last_reported":1711822171,"current_range_meters":11200,"station_id":"ce4bgqh2rcd13ifvqc4g","pricing_plan_id":"cebpf4jnsgd1na2vs0mg"},{"bike_id":"e66ebdfb-2c03-4a65-b5d1-a5f3e42b37dd","system_id":"levelo_inurba_marseille","lat":43.305989,"lon":5.37225,"is_reserved":false,"is_disabled":false,"rental_uris":{"android":"levelo://app?vid=e66ebdfb-2c03-4a65-b5d1-a5f3e42b37dd","ios":"levelo://app?vid=e66ebdfb-2c03-4a65-b5d1-a5f3e42b37dd"},"vehicle_type_id":"4","last_reported":1711822171,"current_range_meters":8000,"station_id":"ce4bgqh2rcd13ifvqc4g","pricing_plan_id":"cebpf4jnsgd1na2vs0mg"},{"bike_id":"00278a64-b6af-419d-b87a-4c3dc76d2c17","system_id":"levelo_inurba_marseille","lat":43.305989,"lon":5.37225,"is_reserved":false,"is_disabled":false,"rental_uris":{"android":"levelo://app?vid=00278a64-b6af-419d-b87a-4c3dc76d2c17","ios":"levelo://app?vid=00278a64-b6af-419d-b87a-4c3dc76d2c17"},"vehicle_type_id":"4","last_reported":1711822171,"current_range_meters":0,"station_id":"ce4bgqh2rcd13ifvqc4g","pricing_plan_id":"cebpf4jnsgd1na2vs0mg"},{"bike_id":"42442fcf-6b99-483c-ba25-340798a80285","system_id":"levelo_inurba_marseille","lat":43.302992,"lon":5.392136,"is_reserved":false,"is_disabled":false,"rental_uris":{"android":"levelo://app?vid=42442fcf-6b99-483c-ba25-340798a80285","ios":"levelo://app?vid=42442fcf-6b99-483c-ba25-340798a80285"},"vehicle_type_id":"4","last_reported":1711822171,"current_range_meters":0,"station_id":"ce4bgkh2rcd13ifvqbk0","pricing_plan_id":"cebpf4jnsgd1na2vs0mg"},{"bike_id":"ca0ad5c0-0623-4b12-b7dd-801793db0478","system_id":"levelo_inurba_marseille","lat":43.317557,"lon":5.390173,"is_reserved":false,"is_disabled":false,"rental_uris":{"android":"levelo://app?vid=ca0ad5c0-0623-4b12-b7dd-801793db0478","ios":"levelo://app?vid=ca0ad5c0-0623-4b12-b7dd-801793db0478"},"vehicle_type_id":"4","last_reported":1711822171,"current_range_meters":6800,"station_id":"ce4bhqp2rcd13ifvqhng","pricing_plan_id":"cebpf4jnsgd1na2vs0mg"},{"bike_id":"0646ae98-f722-41eb-82a0-228cc91f0bae","system_id":"levelo_inurba_marseille","lat":43.307945,"lon":5.376487,"is_reserved":false,"is_disabled":false,"rental_uris":{"android":"levelo://app?vid=0646ae98-f722-41eb-82a0-228cc91f0bae","ios":"levelo://app?vid=0646ae98-f722-41eb-82a0-228cc91f0bae"},"vehicle_type_id":"4","last_reported":1711822171,"current_range_meters":17600,"station_id":"ce4bgv92rcd13ifvqcq0","pricing_plan_id":"cebpf4jnsgd1na2vs0mg"},{"bike_id":"11112092-5228-4af8-b69b-bbfb318060a6","system_id":"levelo_inurba_marseille","lat":43.307945,"lon":5.376487,"is_reserved":false,"is_disabled":false,"rental_uris":{"android":"levelo://app?vid=11112092-5228-4af8-b69b-bbfb318060a6","ios":"levelo://app?vid=11112092-5228-4af8-b69b-bbfb318060a6"},"vehicle_type_id":"4","last_reported":1711822171,"current_range_meters":22400,"station_id":"ce4bgv92rcd13ifvqcq0","pricing_plan_id":"cebpf4jnsgd1na2vs0mg"},{"bike_id":"23d28e02-68c2-4e76-96ad-52497a804e71","system_id":"levelo_inurba_marseille","lat":43.307945,"lon":5.376487,"is_reserved":false,"is_disabled":false,"rental_uris":{"android":"levelo://app?vid=23d28e02-68c2-4e76-96ad-52497a804e71","ios":"levelo://app?vid=23d28e02-68c2-4e76-96ad-52497a804e71"},"vehicle_type_id":"4","last_reported":1711822171,"current_range_meters":8400,"station_id":"ce4bgv92rcd13ifvqcq0","pricing_plan_id":"cebpf4jnsgd1na2vs0mg"},{"bike_id":"bbfed310-f5ca-41c8-bf3a-f83cd6959697","system_id":"levelo_inurba_marseille","lat":43.313254,"lon":5.37881,"is_reserved":false,"is_disabled":false,"rental_uris":{"android":"levelo://app?vid=bbfed310-f5ca-41c8-bf3a-f83cd6959697","ios":"levelo://app?vid=bbfed310-f5ca-41c8-bf3a-f83cd6959697"},"vehicle_type_id":"4","last_reported":1711822171,"current_range_meters":27200,"station_id":"","pricing_plan_id":"cebpf4jnsgd1na2vs0mg"},{"bike_id":"a9c19612-2270-43ac-b96f-bc9b66e3530a","system_id":"levelo_inurba_marseille","lat":43.317075,"lon":5.377367,"is_reserved":false,"is_disabled":false,"rental_uris":{"android":"levelo://app?vid=a9c19612-2270-43ac-b96f-bc9b66e3530a","ios":"levelo://app?vid=a9c19612-2270-43ac-b96f-bc9b66e3530a"},"vehicle_type_id":"4","last_reported":1711822171,"current_range_meters":20000,"station_id":"ce4bgth2rcd13ifvqch0","pricing_plan_id":"cebpf4jnsgd1na2vs0mg"},{"bike_id":"c5d7bd61-4a4c-468f-bf1b-791f016d7d93","system_id":"levelo_inurba_marseille","lat":43.317075,"lon":5.377367,"is_reserved":false,"is_disabled":false,"rental_uris":{"android":"levelo://app?vid=c5d7bd61-4a4c-468f-bf1b-791f016d7d93","ios":"levelo://app?vid=c5d7bd61-4a4c-468f-bf1b-791f016d7d93"},"vehicle_type_id":"4","last_reported":1711822171,"current_range_meters":14400,"station_id":"ce4bgth2rcd13ifvqch0","pricing_plan_id":"cebpf4jnsgd1na2vs0mg"},{"bike_id":"0956d1bd-9c6e-4cb8-90c7-157d9f331b74","system_id":"levelo_inurba_marseille","lat":43.317075,"lon":5.377367,"is_reserved":false,"is_disabled":false,"rental_uris":{"android":"levelo://app?vid=0956d1bd-9c6e-4cb8-90c7-157d9f331b74","ios":"levelo://app?vid=0956d1bd-9c6e-4cb8-90c7-157d9f331b74"},"vehicle_type_id":"4","last_reported":1711822171,"current_range_meters":24800,"station_id":"ce4bgth2rcd13ifvqch0","pricing_plan_id":"cebpf4jnsgd1na2vs0mg"},{"bike_id":"d44c8bf8-5b8d-4314-a8ea-9edadb48aac2","system_id":"levelo_inurba_marseille","lat":43.317075,"lon":5.377367,"is_reserved":false,"is_disabled":false,"rental_uris":{"android":"levelo://app?vid=d44c8bf8-5b8d-4314-a8ea-9edadb48aac2","ios":"levelo://app?vid=d44c8bf8-5b8d-4314-a8ea-9edadb48aac2"},"vehicle_type_id":"4","last_reported":1711822171,"current_range_meters":23600,"station_id":"ce4bgth2rcd13ifvqch0","pricing_plan_id":"cebpf4jnsgd1na2vs0mg"},{"bike_id":"60a26e36-aa1f-40fe-b32f-1029b85fd1dd","system_id":"levelo_inurba_marseille","lat":43.330442,"lon":5.389148,"is_reserved":false,"is_disabled":false,"rental_uris":{"android":"levelo://app?vid=60a26e36-aa1f-40fe-b32f-1029b85fd1dd","ios":"levelo://app?vid=60a26e36-aa1f-40fe-b32f-1029b85fd1dd"},"vehicle_type_id":"4","last_reported":1711822171,"current_range_meters":5600,"station_id":"ce4bhr92rcd13ifvqhrg","pricing_plan_id":"cebpf4jnsgd1na2vs0mg"},{"bike_id":"41b5b72f-2d21-4a20-a1e3-52455d840b0b","system_id":"levelo_inurba_marseille","lat":43.317075,"lon":5.377367,"is_reserved":false,"is_disabled":false,"rental_uris":{"android":"levelo://app?vid=41b5b72f-2d21-4a20-a1e3-52455d840b0b","ios":"levelo://app?vid=41b5b72f-2d21-4a20-a1e3-52455d840b0b"},"vehicle_type_id":"4","last_reported":1711822171,"current_range_meters":20800,"station_id":"ce4bgth2rcd13ifvqch0","pricing_plan_id":"cebpf4jnsgd1na2vs0mg"},{"bike_id":"b2f8a7eb-72c9-4d5e-9b6d-6779b5ef32ac","system_id":"levelo_inurba_marseille","lat":43.30457,"lon":5.37336,"is_reserved":false,"is_disabled":false,"rental_uris":{"android":"levelo://app?vid=b2f8a7eb-72c9-4d5e-9b6d-6779b5ef32ac","ios":"levelo://app?vid=b2f8a7eb-72c9-4d5e-9b6d-6779b5ef32ac"},"vehicle_type_id":"4","last_reported":1711822171,"current_range_meters":0,"station_id":"","pricing_plan_id":"cebpf4jnsgd1na2vs0mg"},{"bike_id":"b95c1d77-008f-4e4d-be53-a916c6b216af","system_id":"levelo_inurba_marseille","lat":43.315289,"lon":5.380349,"is_reserved":false,"is_disabled":false,"rental_uris":{"android":"levelo://app?vid=b95c1d77-008f-4e4d-be53-a916c6b216af","ios":"levelo://app?vid=b95c1d77-008f-4e4d-be53-a916c6b216af"},"vehicle_type_id":"4","last_reported":1711822171,"current_range_meters":25200,"station_id":"ce4bhsp2rcd13ifvqi50","pricing_plan_id":"cebpf4jnsgd1na2vs0mg"},{"bike_id":"7b4db143-407b-420f-baa7-6494a5536f74","system_id":"levelo_inurba_marseille","lat":43.302957,"lon":5.372327,"is_reserved":false,"is_disabled":false,"rental_uris":{"android":"levelo://app?vid=7b4db143-407b-420f-baa7-6494a5536f74","ios":"levelo://app?vid=7b4db143-407b-420f-baa7-6494a5536f74"},"vehicle_type_id":"4","last_reported":1711822171,"current_range_meters":22400,"station_id":"","pricing_plan_id":"cebpf4jnsgd1na2vs0mg"},{"bike_id":"d7a2a39a-12a1-44f7-9cdc-47462d1ecd5c","system_id":"levelo_inurba_marseille","lat":43.301939,"lon":5.366286,"is_reserved":false,"is_disabled":false,"rental_uris":{"android":"levelo://app?vid=d7a2a39a-12a1-44f7-9cdc-47462d1ecd5c","ios":"levelo://app?vid=d7a2a39a-12a1-44f7-9cdc-47462d1ecd5c"},"vehicle_type_id":"4","last_reported":1711822171,"current_range_meters":4000,"station_id":"ce4bgrh2rcd13ifvqc8g","pricing_plan_id":"cebpf4jnsgd1na2vs0mg"},{"bike_id":"41343fa0-bbaf-4eb4-aa08-1aab5d58a646","system_id":"levelo_inurba_marseille","lat":43.308012,"lon":5.381511,"is_reserved":false,"is_disabled":false,"rental_uris":{"android":"levelo://app?vid=41343fa0-bbaf-4eb4-aa08-1aab5d58a646","ios":"levelo://app?vid=41343fa0-bbaf-4eb4-aa08-1aab5d58a646"},"vehicle_type_id":"4","last_reported":1711822171,"current_range_meters":9600,"station_id":"ce4bgt12rcd13ifvqce0","pricing_plan_id":"cebpf4jnsgd1na2vs0mg"},{"bike_id":"226d8ec4-5f75-47d6-8c91-e5e8bd609df5","system_id":"levelo_inurba_marseille","lat":43.301939,"lon":5.366286,"is_reserved":false,"is_disabled":false,"rental_uris":{"android":"levelo://app?vid=226d8ec4-5f75-47d6-8c91-e5e8bd609df5","ios":"levelo://app?vid=226d8ec4-5f75-47d6-8c91-e5e8bd609df5"},"vehicle_type_id":"4","last_reported":1711822171,"current_range_meters":19600,"station_id":"ce4bgrh2rcd13ifvqc8g","pricing_plan_id":"cebpf4jnsgd1na2vs0mg"},{"bike_id":"3402d8f5-70c2-4126-9321-2ffd1aa2b4ca","system_id":"levelo_inurba_marseille","lat":43.301939,"lon":5.366286,"is_reserved":false,"is_disabled":false,"rental_uris":{"android":"levelo://app?vid=3402d8f5-70c2-4126-9321-2ffd1aa2b4ca","ios":"levelo://app?vid=3402d8f5-70c2-4126-9321-2ffd1aa2b4ca"},"vehicle_type_id":"4","last_reported":1711822171,"current_range_meters":11200,"station_id":"ce4bgrh2rcd13ifvqc8g","pricing_plan_id":"cebpf4jnsgd1na2vs0mg"},{"bike_id":"25ceb812-bdf3-44b3-b01e-9e5f20249dd2","system_id":"levelo_inurba_marseille","lat":43.308012,"lon":5.381511,"is_reserved":false,"is_disabled":false,"rental_uris":{"android":"levelo://app?vid=25ceb812-bdf3-44b3-b01e-9e5f20249dd2","ios":"levelo://app?vid=25ceb812-bdf3-44b3-b01e-9e5f20249dd2"},"vehicle_type_id":"4","last_reported":1711822171,"current_range_meters":8800,"station_id":"ce4bgt12rcd13ifvqce0","pricing_plan_id":"cebpf4jnsgd1na2vs0mg"},{"bike_id":"ed00f683-ad4d-46e2-84a9-b821e9ac9ee2","system_id":"levelo_inurba_marseille","lat":43.308012,"lon":5.381511,"is_reserved":false,"is_disabled":false,"rental_uris":{"android":"levelo://app?vid=ed00f683-ad4d-46e2-84a9-b821e9ac9ee2","ios":"levelo://app?vid=ed00f683-ad4d-46e2-84a9-b821e9ac9ee2"},"vehicle_type_id":"4","last_reported":1711822171,"current_range_meters":16400,"station_id":"ce4bgt12rcd13ifvqce0","pricing_plan_id":"cebpf4jnsgd1na2vs0mg"},{"bike_id":"0bb28bc1-3cf3-4d5b-8846-4a30e180b90e","system_id":"levelo_inurba_marseille","lat":43.324483,"lon":5.365194,"is_reserved":false,"is_disabled":false,"rental_uris":{"android":"levelo://app?vid=0bb28bc1-3cf3-4d5b-8846-4a30e180b90e","ios":"levelo://app?vid=0bb28bc1-3cf3-4d5b-8846-4a30e180b90e"},"vehicle_type_id":"4","last_reported":1711822171,"current_range_meters":12400,"station_id":"ce4bhs12rcd13ifvqhvg","pricing_plan_id":"cebpf4jnsgd1na2vs0mg"},{"bike_id":"82ac2595-79b2-4efe-a201-811e104729a9","system_id":"levelo_inurba_marseille","lat":43.302784,"lon":5.377158,"is_reserved":false,"is_disabled":false,"rental_uris":{"android":"levelo://app?vid=82ac2595-79b2-4efe-a201-811e104729a9","ios":"levelo://app?vid=82ac2595-79b2-4efe-a201-811e104729a9"},"vehicle_type_id":"4","last_reported":1711822171,"current_range_meters":4000,"station_id":"ce4bguh2rcd13ifvqcj0","pricing_plan_id":"cebpf4jnsgd1na2vs0mg"},{"bike_id":"9d06c776-4b2d-4c2f-a500-020aef6cf302","system_id":"levelo_inurba_marseille","lat":43.304606,"lon":5.379026,"is_reserved":false,"is_disabled":false,"rental_uris":{"android":"levelo://app?vid=9d06c776-4b2d-4c2f-a500-020aef6cf302","ios":"levelo://app?vid=9d06c776-4b2d-4c2f-a500-020aef6cf302"},"vehicle_type_id":"4","last_reported":1711822171,"current_range_meters":27600,"station_id":"ce4bgup2rcd13ifvqcn0","pricing_plan_id":"cebpf4jnsgd1na2vs0mg"},{"bike_id":"b7df2112-1ac1-4fe2-9a8c-2e0dd8a1a220","system_id":"levelo_inurba_marseille","lat":43.304606,"lon":5.379026,"is_reserved":false,"is_disabled":false,"rental_uris":{"android":"levelo://app?vid=b7df2112-1ac1-4fe2-9a8c-2e0dd8a1a220","ios":"levelo://app?vid=b7df2112-1ac1-4fe2-9a8c-2e0dd8a1a220"},"vehicle_type_id":"4","last_reported":1711822171,"current_range_meters":14800,"station_id":"ce4bgup2rcd13ifvqcn0","pricing_plan_id":"cebpf4jnsgd1na2vs0mg"},{"bike_id":"af3d49fe-3866-457a-bca8-511e5808f613","system_id":"levelo_inurba_marseille","lat":43.304606,"lon":5.379026,"is_reserved":false,"is_disabled":false,"rental_uris":{"android":"levelo://app?vid=af3d49fe-3866-457a-bca8-511e5808f613","ios":"levelo://app?vid=af3d49fe-3866-457a-bca8-511e5808f613"},"vehicle_type_id":"4","last_reported":1711822171,"current_range_meters":3600,"station_id":"ce4bgup2rcd13ifvqcn0","pricing_plan_id":"cebpf4jnsgd1na2vs0mg"},{"bike_id":"72a6bb51-fe23-4a1f-8d5b-364e5147216c","system_id":"levelo_inurba_marseille","lat":43.304606,"lon":5.379026,"is_reserved":false,"is_disabled":false,"rental_uris":{"android":"levelo://app?vid=72a6bb51-fe23-4a1f-8d5b-364e5147216c","ios":"levelo://app?vid=72a6bb51-fe23-4a1f-8d5b-364e5147216c"},"vehicle_type_id":"4","last_reported":1711822171,"current_range_meters":31200,"station_id":"ce4bgup2rcd13ifvqcn0","pricing_plan_id":"cebpf4jnsgd1na2vs0mg"},{"bike_id":"8061bd21-02b5-4815-89c8-3b831945482c","system_id":"levelo_inurba_marseille","lat":43.304606,"lon":5.379026,"is_reserved":false,"is_disabled":false,"rental_uris":{"android":"levelo://app?vid=8061bd21-02b5-4815-89c8-3b831945482c","ios":"levelo://app?vid=8061bd21-02b5-4815-89c8-3b831945482c"},"vehicle_type_id":"4","last_reported":1711822171,"current_range_meters":31200,"station_id":"ce4bgup2rcd13ifvqcn0","pricing_plan_id":"cebpf4jnsgd1na2vs0mg"},{"bike_id":"d5a69b20-2970-48c0-8600-269f136df1f4","system_id":"levelo_inurba_marseille","lat":43.304606,"lon":5.379026,"is_reserved":false,"is_disabled":false,"rental_uris":{"android":"levelo://app?vid=d5a69b20-2970-48c0-8600-269f136df1f4","ios":"levelo://app?vid=d5a69b20-2970-48c0-8600-269f136df1f4"},"vehicle_type_id":"4","last_reported":1711822171,"current_range_meters":27200,"station_id":"ce4bgup2rcd13ifvqcn0","pricing_plan_id":"cebpf4jnsgd1na2vs0mg"},{"bike_id":"49c59850-6c9b-406e-ac97-e9cb8eb28853","system_id":"levelo_inurba_marseille","lat":43.304606,"lon":5.379026,"is_reserved":false,"is_disabled":false,"rental_uris":{"android":"levelo://app?vid=49c59850-6c9b-406e-ac97-e9cb8eb28853","ios":"levelo://app?vid=49c59850-6c9b-406e-ac97-e9cb8eb28853"},"vehicle_type_id":"4","last_reported":1711822171,"current_range_meters":23200,"station_id":"ce4bgup2rcd13ifvqcn0","pricing_plan_id":"cebpf4jnsgd1na2vs0mg"},{"bike_id":"33061dae-2bc6-47e8-8c75-7e571644dc3c","system_id":"levelo_inurba_marseille","lat":43.304656,"lon":5.379119,"is_reserved":false,"is_disabled":false,"rental_uris":{"android":"levelo://app?vid=33061dae-2bc6-47e8-8c75-7e571644dc3c","ios":"levelo://app?vid=33061dae-2bc6-47e8-8c75-7e571644dc3c"},"vehicle_type_id":"4","last_reported":1711822171,"current_range_meters":12000,"station_id":"ce4bgup2rcd13ifvqcn0","pricing_plan_id":"cebpf4jnsgd1na2vs0mg"},{"bike_id":"8cabb885-25f4-4a95-90b4-70c33cd57c08","system_id":"levelo_inurba_marseille","lat":43.304766,"lon":5.379306,"is_reserved":false,"is_disabled":false,"rental_uris":{"android":"levelo://app?vid=8cabb885-25f4-4a95-90b4-70c33cd57c08","ios":"levelo://app?vid=8cabb885-25f4-4a95-90b4-70c33cd57c08"},"vehicle_type_id":"4","last_reported":1711822171,"current_range_meters":19200,"station_id":"ce4bgup2rcd13ifvqcn0","pricing_plan_id":"cebpf4jnsgd1na2vs0mg"},{"bike_id":"f2ad5e58-d422-4d67-8c74-e4cf1a9fa51b","system_id":"levelo_inurba_marseille","lat":43.324764,"lon":5.36562,"is_reserved":false,"is_disabled":false,"rental_uris":{"android":"levelo://app?vid=f2ad5e58-d422-4d67-8c74-e4cf1a9fa51b","ios":"levelo://app?vid=f2ad5e58-d422-4d67-8c74-e4cf1a9fa51b"},"vehicle_type_id":"4","last_reported":1711822171,"current_range_meters":4400,"station_id":"ce4bhs12rcd13ifvqhvg","pricing_plan_id":"cebpf4jnsgd1na2vs0mg"},{"bike_id":"3225af17-6304-4d26-8345-d20bd0c60c63","system_id":"levelo_inurba_marseille","lat":43.324771,"lon":5.36557,"is_reserved":false,"is_disabled":false,"rental_uris":{"android":"levelo://app?vid=3225af17-6304-4d26-8345-d20bd0c60c63","ios":"levelo://app?vid=3225af17-6304-4d26-8345-d20bd0c60c63"},"vehicle_type_id":"4","last_reported":1711822171,"current_range_meters":17200,"station_id":"ce4bhs12rcd13ifvqhvg","pricing_plan_id":"cebpf4jnsgd1na2vs0mg"},{"bike_id":"640f9d42-89e6-4c56-a222-b1620aa3e053","system_id":"levelo_inurba_marseille","lat":43.324771,"lon":5.36557,"is_reserved":false,"is_disabled":false,"rental_uris":{"android":"levelo://app?vid=640f9d42-89e6-4c56-a222-b1620aa3e053","ios":"levelo://app?vid=640f9d42-89e6-4c56-a222-b1620aa3e053"},"vehicle_type_id":"4","last_reported":1711822171,"current_range_meters":24000,"station_id":"ce4bhs12rcd13ifvqhvg","pricing_plan_id":"cebpf4jnsgd1na2vs0mg"},{"bike_id":"401bc7b5-9ce9-443b-a290-c2f943b6888e","system_id":"levelo_inurba_marseille","lat":43.324771,"lon":5.36557,"is_reserved":false,"is_disabled":false,"rental_uris":{"android":"levelo://app?vid=401bc7b5-9ce9-443b-a290-c2f943b6888e","ios":"levelo://app?vid=401bc7b5-9ce9-443b-a290-c2f943b6888e"},"vehicle_type_id":"4","last_reported":1711822171,"current_range_meters":400,"station_id":"ce4bhs12rcd13ifvqhvg","pricing_plan_id":"cebpf4jnsgd1na2vs0mg"},{"bike_id":"d7e593ae-0e04-4801-88d6-585d610f28a0","system_id":"levelo_inurba_marseille","lat":43.32481,"lon":5.36559,"is_reserved":false,"is_disabled":false,"rental_uris":{"android":"levelo://app?vid=d7e593ae-0e04-4801-88d6-585d610f28a0","ios":"levelo://app?vid=d7e593ae-0e04-4801-88d6-585d610f28a0"},"vehicle_type_id":"4","last_reported":1711822171,"current_range_meters":18000,"station_id":"ce4bhs12rcd13ifvqhvg","pricing_plan_id":"cebpf4jnsgd1na2vs0mg"},{"bike_id":"60a3f65a-6f55-44a2-b4b9-157239c6c101","system_id":"levelo_inurba_marseille","lat":43.32483,"lon":5.36563,"is_reserved":false,"is_disabled":false,"rental_uris":{"android":"levelo://app?vid=60a3f65a-6f55-44a2-b4b9-157239c6c101","ios":"levelo://app?vid=60a3f65a-6f55-44a2-b4b9-157239c6c101"},"vehicle_type_id":"4","last_reported":1711822171,"current_range_meters":13200,"station_id":"ce4bhs12rcd13ifvqhvg","pricing_plan_id":"cebpf4jnsgd1na2vs0mg"},{"bike_id":"1454c4f2-524b-46f1-ba0f-a30f674460c5","system_id":"levelo_inurba_marseille","lat":43.324771,"lon":5.36557,"is_reserved":false,"is_disabled":false,"rental_uris":{"android":"levelo://app?vid=1454c4f2-524b-46f1-ba0f-a30f674460c5","ios":"levelo://app?vid=1454c4f2-524b-46f1-ba0f-a30f674460c5"},"vehicle_type_id":"4","last_reported":1711822171,"current_range_meters":0,"station_id":"ce4bhs12rcd13ifvqhvg","pricing_plan_id":"cebpf4jnsgd1na2vs0mg"},{"bike_id":"a2c392f5-a98a-45b7-8dd6-943247fdc576","system_id":"levelo_inurba_marseille","lat":43.32484,"lon":5.36567,"is_reserved":false,"is_disabled":false,"rental_uris":{"android":"levelo://app?vid=a2c392f5-a98a-45b7-8dd6-943247fdc576","ios":"levelo://app?vid=a2c392f5-a98a-45b7-8dd6-943247fdc576"},"vehicle_type_id":"4","last_reported":1711822171,"current_range_meters":0,"station_id":"ce4bhs12rcd13ifvqhvg","pricing_plan_id":"cebpf4jnsgd1na2vs0mg"},{"bike_id":"28b48b15-711a-43dc-8ff2-a3cd36268a69","system_id":"levelo_inurba_marseille","lat":43.324771,"lon":5.36557,"is_reserved":false,"is_disabled":false,"rental_uris":{"android":"levelo://app?vid=28b48b15-711a-43dc-8ff2-a3cd36268a69","ios":"levelo://app?vid=28b48b15-711a-43dc-8ff2-a3cd36268a69"},"vehicle_type_id":"4","last_reported":1711822171,"current_range_meters":6800,"station_id":"ce4bhs12rcd13ifvqhvg","pricing_plan_id":"cebpf4jnsgd1na2vs0mg"},{"bike_id":"2e957c2f-87ca-4379-befe-e2b9b3b1e2a6","system_id":"levelo_inurba_marseille","lat":43.324771,"lon":5.36557,"is_reserved":false,"is_disabled":false,"rental_uris":{"android":"levelo://app?vid=2e957c2f-87ca-4379-befe-e2b9b3b1e2a6","ios":"levelo://app?vid=2e957c2f-87ca-4379-befe-e2b9b3b1e2a6"},"vehicle_type_id":"4","last_reported":1711822171,"current_range_meters":7600,"station_id":"ce4bhs12rcd13ifvqhvg","pricing_plan_id":"cebpf4jnsgd1na2vs0mg"},{"bike_id":"f6f72ee2-3f0f-4fe4-910a-0ab1c3a2398f","system_id":"levelo_inurba_marseille","lat":43.32486,"lon":5.36556,"is_reserved":false,"is_disabled":false,"rental_uris":{"android":"levelo://app?vid=f6f72ee2-3f0f-4fe4-910a-0ab1c3a2398f","ios":"levelo://app?vid=f6f72ee2-3f0f-4fe4-910a-0ab1c3a2398f"},"vehicle_type_id":"4","last_reported":1711822171,"current_range_meters":1600,"station_id":"ce4bhs12rcd13ifvqhvg","pricing_plan_id":"cebpf4jnsgd1na2vs0mg"},{"bike_id":"7209f19a-18e3-4f2c-a5a5-e7804deed364","system_id":"levelo_inurba_marseille","lat":43.32487,"lon":5.3657,"is_reserved":false,"is_disabled":false,"rental_uris":{"android":"levelo://app?vid=7209f19a-18e3-4f2c-a5a5-e7804deed364","ios":"levelo://app?vid=7209f19a-18e3-4f2c-a5a5-e7804deed364"},"vehicle_type_id":"4","last_reported":1711822171,"current_range_meters":8800,"station_id":"ce4bhs12rcd13ifvqhvg","pricing_plan_id":"cebpf4jnsgd1na2vs0mg"},{"bike_id":"4cce7423-2bd2-4e46-8abc-f17e3aabdda8","system_id":"levelo_inurba_marseille","lat":43.324867,"lon":5.365643,"is_reserved":false,"is_disabled":false,"rental_uris":{"android":"levelo://app?vid=4cce7423-2bd2-4e46-8abc-f17e3aabdda8","ios":"levelo://app?vid=4cce7423-2bd2-4e46-8abc-f17e3aabdda8"},"vehicle_type_id":"4","last_reported":1711822171,"current_range_meters":17600,"station_id":"ce4bhs12rcd13ifvqhvg","pricing_plan_id":"cebpf4jnsgd1na2vs0mg"},{"bike_id":"45664fe7-5f37-4d8d-9989-45aa0dcbca0e","system_id":"levelo_inurba_marseille","lat":43.32487,"lon":5.36569,"is_reserved":false,"is_disabled":false,"rental_uris":{"android":"levelo://app?vid=45664fe7-5f37-4d8d-9989-45aa0dcbca0e","ios":"levelo://app?vid=45664fe7-5f37-4d8d-9989-45aa0dcbca0e"},"vehicle_type_id":"4","last_reported":1711822171,"current_range_meters":16400,"station_id":"ce4bhs12rcd13ifvqhvg","pricing_plan_id":"cebpf4jnsgd1na2vs0mg"},{"bike_id":"d7c4b099-286d-4bbb-acb9-adddbb81321d","system_id":"levelo_inurba_marseille","lat":43.324771,"lon":5.36557,"is_reserved":false,"is_disabled":false,"rental_uris":{"android":"levelo://app?vid=d7c4b099-286d-4bbb-acb9-adddbb81321d","ios":"levelo://app?vid=d7c4b099-286d-4bbb-acb9-adddbb81321d"},"vehicle_type_id":"4","last_reported":1711822171,"current_range_meters":2800,"station_id":"ce4bhs12rcd13ifvqhvg","pricing_plan_id":"cebpf4jnsgd1na2vs0mg"},{"bike_id":"467a10da-37ad-45b5-a987-6f4116b5b6bf","system_id":"levelo_inurba_marseille","lat":43.324771,"lon":5.36557,"is_reserved":false,"is_disabled":false,"rental_uris":{"android":"levelo://app?vid=467a10da-37ad-45b5-a987-6f4116b5b6bf","ios":"levelo://app?vid=467a10da-37ad-45b5-a987-6f4116b5b6bf"},"vehicle_type_id":"4","last_reported":1711822171,"current_range_meters":6000,"station_id":"ce4bhs12rcd13ifvqhvg","pricing_plan_id":"cebpf4jnsgd1na2vs0mg"},{"bike_id":"cdbf7076-7e1c-4277-9d57-17692054ed98","system_id":"levelo_inurba_marseille","lat":43.324771,"lon":5.36557,"is_reserved":false,"is_disabled":false,"rental_uris":{"android":"levelo://app?vid=cdbf7076-7e1c-4277-9d57-17692054ed98","ios":"levelo://app?vid=cdbf7076-7e1c-4277-9d57-17692054ed98"},"vehicle_type_id":"4","last_reported":1711822171,"current_range_meters":5200,"station_id":"ce4bhs12rcd13ifvqhvg","pricing_plan_id":"cebpf4jnsgd1na2vs0mg"},{"bike_id":"63e878d4-ad95-4537-a53c-71d14b32f732","system_id":"levelo_inurba_marseille","lat":43.32489,"lon":5.36565,"is_reserved":false,"is_disabled":false,"rental_uris":{"android":"levelo://app?vid=63e878d4-ad95-4537-a53c-71d14b32f732","ios":"levelo://app?vid=63e878d4-ad95-4537-a53c-71d14b32f732"},"vehicle_type_id":"4","last_reported":1711822171,"current_range_meters":7600,"station_id":"ce4bhs12rcd13ifvqhvg","pricing_plan_id":"cebpf4jnsgd1na2vs0mg"},{"bike_id":"73ba2e17-abe6-4115-bb7e-419e7409bb9a","system_id":"levelo_inurba_marseille","lat":43.32489,"lon":5.36562,"is_reserved":false,"is_disabled":false,"rental_uris":{"android":"levelo://app?vid=73ba2e17-abe6-4115-bb7e-419e7409bb9a","ios":"levelo://app?vid=73ba2e17-abe6-4115-bb7e-419e7409bb9a"},"vehicle_type_id":"4","last_reported":1711822171,"current_range_meters":1200,"station_id":"ce4bhs12rcd13ifvqhvg","pricing_plan_id":"cebpf4jnsgd1na2vs0mg"},{"bike_id":"1c910cc3-4a27-4080-9e90-12d858b1b014","system_id":"levelo_inurba_marseille","lat":43.3249,"lon":5.36571,"is_reserved":false,"is_disabled":false,"rental_uris":{"android":"levelo://app?vid=1c910cc3-4a27-4080-9e90-12d858b1b014","ios":"levelo://app?vid=1c910cc3-4a27-4080-9e90-12d858b1b014"},"vehicle_type_id":"4","last_reported":1711822171,"current_range_meters":2000,"station_id":"ce4bhs12rcd13ifvqhvg","pricing_plan_id":"cebpf4jnsgd1na2vs0mg"},{"bike_id":"e1c8e5c1-333b-44cf-9c5e-0b04b3f63da6","system_id":"levelo_inurba_marseille","lat":43.3249,"lon":5.36565,"is_reserved":false,"is_disabled":false,"rental_uris":{"android":"levelo://app?vid=e1c8e5c1-333b-44cf-9c5e-0b04b3f63da6","ios":"levelo://app?vid=e1c8e5c1-333b-44cf-9c5e-0b04b3f63da6"},"vehicle_type_id":"4","last_reported":1711822171,"current_range_meters":0,"station_id":"ce4bhs12rcd13ifvqhvg","pricing_plan_id":"cebpf4jnsgd1na2vs0mg"},{"bike_id":"ddf57d18-9022-4475-ba1d-0bbc38ef4b39","system_id":"levelo_inurba_marseille","lat":43.32492,"lon":5.36566,"is_reserved":false,"is_disabled":false,"rental_uris":{"android":"levelo://app?vid=ddf57d18-9022-4475-ba1d-0bbc38ef4b39","ios":"levelo://app?vid=ddf57d18-9022-4475-ba1d-0bbc38ef4b39"},"vehicle_type_id":"4","last_reported":1711822171,"current_range_meters":3600,"station_id":"ce4bhs12rcd13ifvqhvg","pricing_plan_id":"cebpf4jnsgd1na2vs0mg"},{"bike_id":"638d6beb-de77-4625-a44d-fbba915ddf7a","system_id":"levelo_inurba_marseille","lat":43.31067,"lon":5.38352,"is_reserved":false,"is_disabled":false,"rental_uris":{"android":"levelo://app?vid=638d6beb-de77-4625-a44d-fbba915ddf7a","ios":"levelo://app?vid=638d6beb-de77-4625-a44d-fbba915ddf7a"},"vehicle_type_id":"4","last_reported":1711822171,"current_range_meters":0,"station_id":"ce4bgv92rcd13ifvqcr0","pricing_plan_id":"cebpf4jnsgd1na2vs0mg"},{"bike_id":"f0e77745-f1ac-4c1b-a688-7b0f8a57616f","system_id":"levelo_inurba_marseille","lat":43.30143,"lon":5.37413,"is_reserved":false,"is_disabled":false,"rental_uris":{"android":"levelo://app?vid=f0e77745-f1ac-4c1b-a688-7b0f8a57616f","ios":"levelo://app?vid=f0e77745-f1ac-4c1b-a688-7b0f8a57616f"},"vehicle_type_id":"4","last_reported":1711822171,"current_range_meters":11600,"station_id":"ce4bgs92rcd13ifvqcc0","pricing_plan_id":"cebpf4jnsgd1na2vs0mg"},{"bike_id":"639c6564-3f14-4645-b86a-6960cafaee9e","system_id":"levelo_inurba_marseille","lat":43.313571,"lon":5.384829,"is_reserved":false,"is_disabled":false,"rental_uris":{"android":"levelo://app?vid=639c6564-3f14-4645-b86a-6960cafaee9e","ios":"levelo://app?vid=639c6564-3f14-4645-b86a-6960cafaee9e"},"vehicle_type_id":"4","last_reported":1711822171,"current_range_meters":2800,"station_id":"ce4bgt92rcd13ifvqcf0","pricing_plan_id":"cebpf4jnsgd1na2vs0mg"},{"bike_id":"2b52be15-b565-4c4c-91cc-bc12efbc2510","system_id":"levelo_inurba_marseille","lat":43.313571,"lon":5.384829,"is_reserved":false,"is_disabled":false,"rental_uris":{"android":"levelo://app?vid=2b52be15-b565-4c4c-91cc-bc12efbc2510","ios":"levelo://app?vid=2b52be15-b565-4c4c-91cc-bc12efbc2510"},"vehicle_type_id":"4","last_reported":1711822171,"current_range_meters":11600,"station_id":"ce4bgt92rcd13ifvqcf0","pricing_plan_id":"cebpf4jnsgd1na2vs0mg"},{"bike_id":"a8790c77-e016-421b-96f7-4bcac9f4c1e4","system_id":"levelo_inurba_marseille","lat":43.319935,"lon":5.381699,"is_reserved":false,"is_disabled":false,"rental_uris":{"android":"levelo://app?vid=a8790c77-e016-421b-96f7-4bcac9f4c1e4","ios":"levelo://app?vid=a8790c77-e016-421b-96f7-4bcac9f4c1e4"},"vehicle_type_id":"4","last_reported":1711822171,"current_range_meters":0,"station_id":"ce4bhr12rcd13ifvqhpg","pricing_plan_id":"cebpf4jnsgd1na2vs0mg"},{"bike_id":"e27c4e03-7f07-4e4c-bfed-1c6147082d31","system_id":"levelo_inurba_marseille","lat":43.319935,"lon":5.381699,"is_reserved":false,"is_disabled":false,"rental_uris":{"android":"levelo://app?vid=e27c4e03-7f07-4e4c-bfed-1c6147082d31","ios":"levelo://app?vid=e27c4e03-7f07-4e4c-bfed-1c6147082d31"},"vehicle_type_id":"4","last_reported":1711822171,"current_range_meters":20000,"station_id":"ce4bhr12rcd13ifvqhpg","pricing_plan_id":"cebpf4jnsgd1na2vs0mg"},{"bike_id":"91c61b16-15ea-4113-a848-b77d3ae4c316","system_id":"levelo_inurba_marseille","lat":43.319935,"lon":5.381699,"is_reserved":false,"is_disabled":false,"rental_uris":{"android":"levelo://app?vid=91c61b16-15ea-4113-a848-b77d3ae4c316","ios":"levelo://app?vid=91c61b16-15ea-4113-a848-b77d3ae4c316"},"vehicle_type_id":"4","last_reported":1711822171,"current_range_meters":12000,"station_id":"ce4bhr12rcd13ifvqhpg","pricing_plan_id":"cebpf4jnsgd1na2vs0mg"},{"bike_id":"11d863d4-c17c-47be-b69c-674428e5728e","system_id":"levelo_inurba_marseille","lat":43.319935,"lon":5.381699,"is_reserved":false,"is_disabled":false,"rental_uris":{"android":"levelo://app?vid=11d863d4-c17c-47be-b69c-674428e5728e","ios":"levelo://app?vid=11d863d4-c17c-47be-b69c-674428e5728e"},"vehicle_type_id":"4","last_reported":1711822171,"current_range_meters":16400,"station_id":"ce4bhr12rcd13ifvqhpg","pricing_plan_id":"cebpf4jnsgd1na2vs0mg"},{"bike_id":"47906416-3a3d-4d6e-b620-2af45065a840","system_id":"levelo_inurba_marseille","lat":43.319935,"lon":5.381699,"is_reserved":false,"is_disabled":false,"rental_uris":{"android":"levelo://app?vid=47906416-3a3d-4d6e-b620-2af45065a840","ios":"levelo://app?vid=47906416-3a3d-4d6e-b620-2af45065a840"},"vehicle_type_id":"4","last_reported":1711822171,"current_range_meters":12400,"station_id":"ce4bhr12rcd13ifvqhpg","pricing_plan_id":"cebpf4jnsgd1na2vs0mg"},{"bike_id":"a93c4cda-c9e2-48ed-a38f-1a24b78fb516","system_id":"levelo_inurba_marseille","lat":43.319935,"lon":5.381699,"is_reserved":false,"is_disabled":false,"rental_uris":{"android":"levelo://app?vid=a93c4cda-c9e2-48ed-a38f-1a24b78fb516","ios":"levelo://app?vid=a93c4cda-c9e2-48ed-a38f-1a24b78fb516"},"vehicle_type_id":"4","last_reported":1711822171,"current_range_meters":11600,"station_id":"ce4bhr12rcd13ifvqhpg","pricing_plan_id":"cebpf4jnsgd1na2vs0mg"},{"bike_id":"f9cd9c23-b2fb-4e6e-84ec-98948cc46da1","system_id":"levelo_inurba_marseille","lat":43.313571,"lon":5.384829,"is_reserved":false,"is_disabled":false,"rental_uris":{"android":"levelo://app?vid=f9cd9c23-b2fb-4e6e-84ec-98948cc46da1","ios":"levelo://app?vid=f9cd9c23-b2fb-4e6e-84ec-98948cc46da1"},"vehicle_type_id":"4","last_reported":1711822171,"current_range_meters":13200,"station_id":"ce4bgt92rcd13ifvqcf0","pricing_plan_id":"cebpf4jnsgd1na2vs0mg"},{"bike_id":"ac3a1879-8126-48a7-8574-2b05161e2c67","system_id":"levelo_inurba_marseille","lat":43.313571,"lon":5.384829,"is_reserved":false,"is_disabled":false,"rental_uris":{"android":"levelo://app?vid=ac3a1879-8126-48a7-8574-2b05161e2c67","ios":"levelo://app?vid=ac3a1879-8126-48a7-8574-2b05161e2c67"},"vehicle_type_id":"4","last_reported":1711822171,"current_range_meters":19200,"station_id":"ce4bgt92rcd13ifvqcf0","pricing_plan_id":"cebpf4jnsgd1na2vs0mg"},{"bike_id":"f1bf179e-8187-47b8-9f2d-75af0127a925","system_id":"levelo_inurba_marseille","lat":43.313571,"lon":5.384829,"is_reserved":false,"is_disabled":false,"rental_uris":{"android":"levelo://app?vid=f1bf179e-8187-47b8-9f2d-75af0127a925","ios":"levelo://app?vid=f1bf179e-8187-47b8-9f2d-75af0127a925"},"vehicle_type_id":"4","last_reported":1711822171,"current_range_meters":2800,"station_id":"ce4bgt92rcd13ifvqcf0","pricing_plan_id":"cebpf4jnsgd1na2vs0mg"},{"bike_id":"b21d2f15-a0f9-4344-9f87-4993eb031fe2","system_id":"levelo_inurba_marseille","lat":43.313571,"lon":5.384829,"is_reserved":false,"is_disabled":false,"rental_uris":{"android":"levelo://app?vid=b21d2f15-a0f9-4344-9f87-4993eb031fe2","ios":"levelo://app?vid=b21d2f15-a0f9-4344-9f87-4993eb031fe2"},"vehicle_type_id":"4","last_reported":1711822171,"current_range_meters":11200,"station_id":"ce4bgt92rcd13ifvqcf0","pricing_plan_id":"cebpf4jnsgd1na2vs0mg"},{"bike_id":"dc243b94-33f8-45ad-a541-fe7130919af8","system_id":"levelo_inurba_marseille","lat":43.2936,"lon":5.37835,"is_reserved":false,"is_disabled":false,"rental_uris":{"android":"levelo://app?vid=dc243b94-33f8-45ad-a541-fe7130919af8","ios":"levelo://app?vid=dc243b94-33f8-45ad-a541-fe7130919af8"},"vehicle_type_id":"4","last_reported":1711822171,"current_range_meters":30800,"station_id":"ce4bgjh2rcd13ifvqbf0","pricing_plan_id":"cebpf4jnsgd1na2vs0mg"},{"bike_id":"9bcc2e7d-33c5-484f-a55f-695748c149bc","system_id":"levelo_inurba_marseille","lat":43.313571,"lon":5.384829,"is_reserved":false,"is_disabled":false,"rental_uris":{"android":"levelo://app?vid=9bcc2e7d-33c5-484f-a55f-695748c149bc","ios":"levelo://app?vid=9bcc2e7d-33c5-484f-a55f-695748c149bc"},"vehicle_type_id":"4","last_reported":1711822171,"current_range_meters":9600,"station_id":"ce4bgt92rcd13ifvqcf0","pricing_plan_id":"cebpf4jnsgd1na2vs0mg"},{"bike_id":"d479ea51-6ea5-44a2-b39d-280c7d8046be","system_id":"levelo_inurba_marseille","lat":43.31227,"lon":5.38641,"is_reserved":false,"is_disabled":false,"rental_uris":{"android":"levelo://app?vid=d479ea51-6ea5-44a2-b39d-280c7d8046be","ios":"levelo://app?vid=d479ea51-6ea5-44a2-b39d-280c7d8046be"},"vehicle_type_id":"4","last_reported":1711822171,"current_range_meters":16800,"station_id":"","pricing_plan_id":"cebpf4jnsgd1na2vs0mg"},{"bike_id":"5425b721-8f85-42d0-8228-448e34155aa3","system_id":"levelo_inurba_marseille","lat":43.317557,"lon":5.390173,"is_reserved":false,"is_disabled":false,"rental_uris":{"android":"levelo://app?vid=5425b721-8f85-42d0-8228-448e34155aa3","ios":"levelo://app?vid=5425b721-8f85-42d0-8228-448e34155aa3"},"vehicle_type_id":"4","last_reported":1711822171,"current_range_meters":7200,"station_id":"ce4bhqp2rcd13ifvqhng","pricing_plan_id":"cebpf4jnsgd1na2vs0mg"},{"bike_id":"d15a9328-0d2c-43b6-8ebb-6c94c579442a","system_id":"levelo_inurba_marseille","lat":43.305364,"lon":5.384119,"is_reserved":false,"is_disabled":false,"rental_uris":{"android":"levelo://app?vid=d15a9328-0d2c-43b6-8ebb-6c94c579442a","ios":"levelo://app?vid=d15a9328-0d2c-43b6-8ebb-6c94c579442a"},"vehicle_type_id":"4","last_reported":1711822171,"current_range_meters":24000,"station_id":"ce4bgg92rcd13ifvqb30","pricing_plan_id":"cebpf4jnsgd1na2vs0mg"},{"bike_id":"e03d5365-5631-4b29-b44c-f882563761de","system_id":"levelo_inurba_marseille","lat":43.305364,"lon":5.384119,"is_reserved":false,"is_disabled":false,"rental_uris":{"android":"levelo://app?vid=e03d5365-5631-4b29-b44c-f882563761de","ios":"levelo://app?vid=e03d5365-5631-4b29-b44c-f882563761de"},"vehicle_type_id":"4","last_reported":1711822171,"current_range_meters":18400,"station_id":"ce4bgg92rcd13ifvqb30","pricing_plan_id":"cebpf4jnsgd1na2vs0mg"},{"bike_id":"8d3d3fd1-2230-4afd-b992-40e3d5226c58","system_id":"levelo_inurba_marseille","lat":43.29855,"lon":5.36283,"is_reserved":false,"is_disabled":false,"rental_uris":{"android":"levelo://app?vid=8d3d3fd1-2230-4afd-b992-40e3d5226c58","ios":"levelo://app?vid=8d3d3fd1-2230-4afd-b992-40e3d5226c58"},"vehicle_type_id":"4","last_reported":1711822171,"current_range_meters":31200,"station_id":"ce4bgpp2rcd13ifvqc3g","pricing_plan_id":"cebpf4jnsgd1na2vs0mg"},{"bike_id":"8e3ee2f3-fd27-46bf-bac8-05ed3cf57e33","system_id":"levelo_inurba_marseille","lat":43.29854,"lon":5.36284,"is_reserved":false,"is_disabled":false,"rental_uris":{"android":"levelo://app?vid=8e3ee2f3-fd27-46bf-bac8-05ed3cf57e33","ios":"levelo://app?vid=8e3ee2f3-fd27-46bf-bac8-05ed3cf57e33"},"vehicle_type_id":"4","last_reported":1711822171,"current_range_meters":10000,"station_id":"ce4bgpp2rcd13ifvqc3g","pricing_plan_id":"cebpf4jnsgd1na2vs0mg"},{"bike_id":"eddf95fd-eb4c-4fa9-a03a-9317d5a62653","system_id":"levelo_inurba_marseille","lat":43.305364,"lon":5.384119,"is_reserved":false,"is_disabled":false,"rental_uris":{"android":"levelo://app?vid=eddf95fd-eb4c-4fa9-a03a-9317d5a62653","ios":"levelo://app?vid=eddf95fd-eb4c-4fa9-a03a-9317d5a62653"},"vehicle_type_id":"4","last_reported":1711822171,"current_range_meters":17600,"station_id":"ce4bgg92rcd13ifvqb30","pricing_plan_id":"cebpf4jnsgd1na2vs0mg"},{"bike_id":"3036bf85-12a3-43e7-90c5-5dfe08970a7d","system_id":"levelo_inurba_marseille","lat":43.29851,"lon":5.36284,"is_reserved":false,"is_disabled":false,"rental_uris":{"android":"levelo://app?vid=3036bf85-12a3-43e7-90c5-5dfe08970a7d","ios":"levelo://app?vid=3036bf85-12a3-43e7-90c5-5dfe08970a7d"},"vehicle_type_id":"4","last_reported":1711822171,"current_range_meters":16000,"station_id":"ce4bgpp2rcd13ifvqc3g","pricing_plan_id":"cebpf4jnsgd1na2vs0mg"},{"bike_id":"99d3ba43-153d-42a6-b34f-0db5a926d529","system_id":"levelo_inurba_marseille","lat":43.30544,"lon":5.384207,"is_reserved":false,"is_disabled":false,"rental_uris":{"android":"levelo://app?vid=99d3ba43-153d-42a6-b34f-0db5a926d529","ios":"levelo://app?vid=99d3ba43-153d-42a6-b34f-0db5a926d529"},"vehicle_type_id":"4","last_reported":1711822171,"current_range_meters":0,"station_id":"ce4bgg92rcd13ifvqb30","pricing_plan_id":"cebpf4jnsgd1na2vs0mg"},{"bike_id":"657c0e99-e61d-47f1-9e4c-cb1c78943932","system_id":"levelo_inurba_marseille","lat":43.29846,"lon":5.36269,"is_reserved":false,"is_disabled":false,"rental_uris":{"android":"levelo://app?vid=657c0e99-e61d-47f1-9e4c-cb1c78943932","ios":"levelo://app?vid=657c0e99-e61d-47f1-9e4c-cb1c78943932"},"vehicle_type_id":"4","last_reported":1711822171,"current_range_meters":12800,"station_id":"ce4bgpp2rcd13ifvqc3g","pricing_plan_id":"cebpf4jnsgd1na2vs0mg"},{"bike_id":"aa4e4826-3f90-4991-b985-8716d157789d","system_id":"levelo_inurba_marseille","lat":43.29845,"lon":5.36263,"is_reserved":false,"is_disabled":false,"rental_uris":{"android":"levelo://app?vid=aa4e4826-3f90-4991-b985-8716d157789d","ios":"levelo://app?vid=aa4e4826-3f90-4991-b985-8716d157789d"},"vehicle_type_id":"4","last_reported":1711822171,"current_range_meters":19200,"station_id":"ce4bgpp2rcd13ifvqc3g","pricing_plan_id":"cebpf4jnsgd1na2vs0mg"},{"bike_id":"5ff00940-2d78-4ae0-9689-8e171113340b","system_id":"levelo_inurba_marseille","lat":43.293009,"lon":5.374584,"is_reserved":false,"is_disabled":false,"rental_uris":{"android":"levelo://app?vid=5ff00940-2d78-4ae0-9689-8e171113340b","ios":"levelo://app?vid=5ff00940-2d78-4ae0-9689-8e171113340b"},"vehicle_type_id":"4","last_reported":1711822171,"current_range_meters":800,"station_id":"ce4bgi12rcd13ifvqb70","pricing_plan_id":"cebpf4jnsgd1na2vs0mg"},{"bike_id":"ddee1f0b-48c7-40d6-a215-6f8024be1f4a","system_id":"levelo_inurba_marseille","lat":43.29844,"lon":5.36266,"is_reserved":false,"is_disabled":false,"rental_uris":{"android":"levelo://app?vid=ddee1f0b-48c7-40d6-a215-6f8024be1f4a","ios":"levelo://app?vid=ddee1f0b-48c7-40d6-a215-6f8024be1f4a"},"vehicle_type_id":"4","last_reported":1711822171,"current_range_meters":12400,"station_id":"ce4bgpp2rcd13ifvqc3g","pricing_plan_id":"cebpf4jnsgd1na2vs0mg"},{"bike_id":"eace05df-8480-4732-a160-ea490a46e5e1","system_id":"levelo_inurba_marseille","lat":43.298433,"lon":5.362774,"is_reserved":false,"is_disabled":false,"rental_uris":{"android":"levelo://app?vid=eace05df-8480-4732-a160-ea490a46e5e1","ios":"levelo://app?vid=eace05df-8480-4732-a160-ea490a46e5e1"},"vehicle_type_id":"4","last_reported":1711822171,"current_range_meters":26400,"station_id":"ce4bgpp2rcd13ifvqc3g","pricing_plan_id":"cebpf4jnsgd1na2vs0mg"},{"bike_id":"41d91570-acab-4f01-9f14-338f27f46c11","system_id":"levelo_inurba_marseille","lat":43.316821,"lon":5.404737,"is_reserved":false,"is_disabled":false,"rental_uris":{"android":"levelo://app?vid=41d91570-acab-4f01-9f14-338f27f46c11","ios":"levelo://app?vid=41d91570-acab-4f01-9f14-338f27f46c11"},"vehicle_type_id":"4","last_reported":1711822171,"current_range_meters":8400,"station_id":"ce4bh012rcd13ifvqd00","pricing_plan_id":"cebpf4jnsgd1na2vs0mg"},{"bike_id":"759a22f3-3de1-44ed-a971-3b02202c6e6e","system_id":"levelo_inurba_marseille","lat":43.311722,"lon":5.387247,"is_reserved":false,"is_disabled":false,"rental_uris":{"android":"levelo://app?vid=759a22f3-3de1-44ed-a971-3b02202c6e6e","ios":"levelo://app?vid=759a22f3-3de1-44ed-a971-3b02202c6e6e"},"vehicle_type_id":"4","last_reported":1711822171,"current_range_meters":8800,"station_id":"ce4bgv12rcd13ifvqcp0","pricing_plan_id":"cebpf4jnsgd1na2vs0mg"},{"bike_id":"8577b865-66a5-41a2-9f68-3fcb58b04a51","system_id":"levelo_inurba_marseille","lat":43.311698,"lon":5.38715,"is_reserved":false,"is_disabled":false,"rental_uris":{"android":"levelo://app?vid=8577b865-66a5-41a2-9f68-3fcb58b04a51","ios":"levelo://app?vid=8577b865-66a5-41a2-9f68-3fcb58b04a51"},"vehicle_type_id":"4","last_reported":1711822171,"current_range_meters":0,"station_id":"ce4bgv12rcd13ifvqcp0","pricing_plan_id":"cebpf4jnsgd1na2vs0mg"},{"bike_id":"f0b4f348-987e-426d-a4bb-5229e7e85220","system_id":"levelo_inurba_marseille","lat":43.299243,"lon":5.37481,"is_reserved":false,"is_disabled":false,"rental_uris":{"android":"levelo://app?vid=f0b4f348-987e-426d-a4bb-5229e7e85220","ios":"levelo://app?vid=f0b4f348-987e-426d-a4bb-5229e7e85220"},"vehicle_type_id":"4","last_reported":1711822171,"current_range_meters":4800,"station_id":"ce4bgjh2rcd13ifvqbg0","pricing_plan_id":"cebpf4jnsgd1na2vs0mg"},{"bike_id":"2c7f4c2c-3d31-4fc7-a696-f17c007e402e","system_id":"levelo_inurba_marseille","lat":43.311722,"lon":5.387247,"is_reserved":false,"is_disabled":false,"rental_uris":{"android":"levelo://app?vid=2c7f4c2c-3d31-4fc7-a696-f17c007e402e","ios":"levelo://app?vid=2c7f4c2c-3d31-4fc7-a696-f17c007e402e"},"vehicle_type_id":"4","last_reported":1711822171,"current_range_meters":19600,"station_id":"ce4bgv12rcd13ifvqcp0","pricing_plan_id":"cebpf4jnsgd1na2vs0mg"},{"bike_id":"a8be729c-a148-4beb-b70c-ca1b64b63e97","system_id":"levelo_inurba_marseille","lat":43.311722,"lon":5.387247,"is_reserved":false,"is_disabled":false,"rental_uris":{"android":"levelo://app?vid=a8be729c-a148-4beb-b70c-ca1b64b63e97","ios":"levelo://app?vid=a8be729c-a148-4beb-b70c-ca1b64b63e97"},"vehicle_type_id":"4","last_reported":1711822171,"current_range_meters":3200,"station_id":"ce4bgv12rcd13ifvqcp0","pricing_plan_id":"cebpf4jnsgd1na2vs0mg"},{"bike_id":"0e55ff0a-5307-4bd1-a5d3-d2048d99f1f2","system_id":"levelo_inurba_marseille","lat":43.322872,"lon":5.382756,"is_reserved":false,"is_disabled":false,"rental_uris":{"android":"levelo://app?vid=0e55ff0a-5307-4bd1-a5d3-d2048d99f1f2","ios":"levelo://app?vid=0e55ff0a-5307-4bd1-a5d3-d2048d99f1f2"},"vehicle_type_id":"4","last_reported":1711822171,"current_range_meters":24400,"station_id":"ce4bhr12rcd13ifvqhqg","pricing_plan_id":"cebpf4jnsgd1na2vs0mg"},{"bike_id":"c498f0aa-dc5b-447d-b8b8-76f3fa7beed2","system_id":"levelo_inurba_marseille","lat":43.322872,"lon":5.382756,"is_reserved":false,"is_disabled":false,"rental_uris":{"android":"levelo://app?vid=c498f0aa-dc5b-447d-b8b8-76f3fa7beed2","ios":"levelo://app?vid=c498f0aa-dc5b-447d-b8b8-76f3fa7beed2"},"vehicle_type_id":"4","last_reported":1711822171,"current_range_meters":19600,"station_id":"ce4bhr12rcd13ifvqhqg","pricing_plan_id":"cebpf4jnsgd1na2vs0mg"},{"bike_id":"82e0bcbd-85cf-4039-af64-55393dbb1ce4","system_id":"levelo_inurba_marseille","lat":43.32294,"lon":5.38265,"is_reserved":false,"is_disabled":false,"rental_uris":{"android":"levelo://app?vid=82e0bcbd-85cf-4039-af64-55393dbb1ce4","ios":"levelo://app?vid=82e0bcbd-85cf-4039-af64-55393dbb1ce4"},"vehicle_type_id":"4","last_reported":1711822171,"current_range_meters":22800,"station_id":"ce4bhr12rcd13ifvqhqg","pricing_plan_id":"cebpf4jnsgd1na2vs0mg"},{"bike_id":"af91ee66-ebec-4e5f-b566-646a8b5863b7","system_id":"levelo_inurba_marseille","lat":43.322872,"lon":5.382756,"is_reserved":false,"is_disabled":false,"rental_uris":{"android":"levelo://app?vid=af91ee66-ebec-4e5f-b566-646a8b5863b7","ios":"levelo://app?vid=af91ee66-ebec-4e5f-b566-646a8b5863b7"},"vehicle_type_id":"4","last_reported":1711822171,"current_range_meters":12800,"station_id":"ce4bhr12rcd13ifvqhqg","pricing_plan_id":"cebpf4jnsgd1na2vs0mg"},{"bike_id":"c1803e3c-5844-4500-9148-3f73efb6092e","system_id":"levelo_inurba_marseille","lat":43.322872,"lon":5.382756,"is_reserved":false,"is_disabled":false,"rental_uris":{"android":"levelo://app?vid=c1803e3c-5844-4500-9148-3f73efb6092e","ios":"levelo://app?vid=c1803e3c-5844-4500-9148-3f73efb6092e"},"vehicle_type_id":"4","last_reported":1711822171,"current_range_meters":7200,"station_id":"ce4bhr12rcd13ifvqhqg","pricing_plan_id":"cebpf4jnsgd1na2vs0mg"},{"bike_id":"6db4ba56-cdbd-44f6-826d-1abf96302385","system_id":"levelo_inurba_marseille","lat":43.322872,"lon":5.382756,"is_reserved":false,"is_disabled":false,"rental_uris":{"android":"levelo://app?vid=6db4ba56-cdbd-44f6-826d-1abf96302385","ios":"levelo://app?vid=6db4ba56-cdbd-44f6-826d-1abf96302385"},"vehicle_type_id":"4","last_reported":1711822171,"current_range_meters":31200,"station_id":"ce4bhr12rcd13ifvqhqg","pricing_plan_id":"cebpf4jnsgd1na2vs0mg"},{"bike_id":"c2b6ec39-cf52-44eb-ae94-bbedc38fd17f","system_id":"levelo_inurba_marseille","lat":43.32294,"lon":5.38276,"is_reserved":false,"is_disabled":false,"rental_uris":{"android":"levelo://app?vid=c2b6ec39-cf52-44eb-ae94-bbedc38fd17f","ios":"levelo://app?vid=c2b6ec39-cf52-44eb-ae94-bbedc38fd17f"},"vehicle_type_id":"4","last_reported":1711822171,"current_range_meters":7600,"station_id":"ce4bhr12rcd13ifvqhqg","pricing_plan_id":"cebpf4jnsgd1na2vs0mg"},{"bike_id":"46b526ed-7547-422b-8a78-8a6d0d579aff","system_id":"levelo_inurba_marseille","lat":43.297163,"lon":5.365866,"is_reserved":false,"is_disabled":false,"rental_uris":{"android":"levelo://app?vid=46b526ed-7547-422b-8a78-8a6d0d579aff","ios":"levelo://app?vid=46b526ed-7547-422b-8a78-8a6d0d579aff"},"vehicle_type_id":"4","last_reported":1711822171,"current_range_meters":3600,"station_id":"ce4bgn12rcd13ifvqbt0","pricing_plan_id":"cebpf4jnsgd1na2vs0mg"},{"bike_id":"6607f4bd-aa1d-4482-b990-04cde7c314f8","system_id":"levelo_inurba_marseille","lat":43.297163,"lon":5.365866,"is_reserved":false,"is_disabled":false,"rental_uris":{"android":"levelo://app?vid=6607f4bd-aa1d-4482-b990-04cde7c314f8","ios":"levelo://app?vid=6607f4bd-aa1d-4482-b990-04cde7c314f8"},"vehicle_type_id":"4","last_reported":1711822171,"current_range_meters":7600,"station_id":"ce4bgn12rcd13ifvqbt0","pricing_plan_id":"cebpf4jnsgd1na2vs0mg"},{"bike_id":"d18e8aa8-fe6d-4180-a68f-6d8c3a6f3a52","system_id":"levelo_inurba_marseille","lat":43.297163,"lon":5.365866,"is_reserved":false,"is_disabled":false,"rental_uris":{"android":"levelo://app?vid=d18e8aa8-fe6d-4180-a68f-6d8c3a6f3a52","ios":"levelo://app?vid=d18e8aa8-fe6d-4180-a68f-6d8c3a6f3a52"},"vehicle_type_id":"4","last_reported":1711822171,"current_range_meters":26400,"station_id":"ce4bgn12rcd13ifvqbt0","pricing_plan_id":"cebpf4jnsgd1na2vs0mg"},{"bike_id":"5ea95783-df6b-4e20-870a-9135e4562176","system_id":"levelo_inurba_marseille","lat":43.286039,"lon":5.370679,"is_reserved":false,"is_disabled":false,"rental_uris":{"android":"levelo://app?vid=5ea95783-df6b-4e20-870a-9135e4562176","ios":"levelo://app?vid=5ea95783-df6b-4e20-870a-9135e4562176"},"vehicle_type_id":"4","last_reported":1711822171,"current_range_meters":8400,"station_id":"ce4bht12rcd13ifvqi60","pricing_plan_id":"cebpf4jnsgd1na2vs0mg"},{"bike_id":"c2265a84-7d9f-4935-b535-a766025fac36","system_id":"levelo_inurba_marseille","lat":43.297163,"lon":5.365866,"is_reserved":false,"is_disabled":false,"rental_uris":{"android":"levelo://app?vid=c2265a84-7d9f-4935-b535-a766025fac36","ios":"levelo://app?vid=c2265a84-7d9f-4935-b535-a766025fac36"},"vehicle_type_id":"4","last_reported":1711822171,"current_range_meters":18800,"station_id":"ce4bgn12rcd13ifvqbt0","pricing_plan_id":"cebpf4jnsgd1na2vs0mg"},{"bike_id":"5fe53e64-6032-4087-a51e-5516b98b97ef","system_id":"levelo_inurba_marseille","lat":43.297163,"lon":5.365866,"is_reserved":false,"is_disabled":false,"rental_uris":{"android":"levelo://app?vid=5fe53e64-6032-4087-a51e-5516b98b97ef","ios":"levelo://app?vid=5fe53e64-6032-4087-a51e-5516b98b97ef"},"vehicle_type_id":"4","last_reported":1711822171,"current_range_meters":5200,"station_id":"ce4bgn12rcd13ifvqbt0","pricing_plan_id":"cebpf4jnsgd1na2vs0mg"},{"bike_id":"e8874568-a08d-40a3-b985-89286cf90274","system_id":"levelo_inurba_marseille","lat":43.29573,"lon":5.367355,"is_reserved":false,"is_disabled":false,"rental_uris":{"android":"levelo://app?vid=e8874568-a08d-40a3-b985-89286cf90274","ios":"levelo://app?vid=e8874568-a08d-40a3-b985-89286cf90274"},"vehicle_type_id":"4","last_reported":1711822171,"current_range_meters":25600,"station_id":"ce4bgph2rcd13ifvqc2g","pricing_plan_id":"cebpf4jnsgd1na2vs0mg"},{"bike_id":"b2e9e6fe-bfc2-49d8-8a7b-78dc564812ac","system_id":"levelo_inurba_marseille","lat":43.298796,"lon":5.37948,"is_reserved":false,"is_disabled":false,"rental_uris":{"android":"levelo://app?vid=b2e9e6fe-bfc2-49d8-8a7b-78dc564812ac","ios":"levelo://app?vid=b2e9e6fe-bfc2-49d8-8a7b-78dc564812ac"},"vehicle_type_id":"4","last_reported":1711822171,"current_range_meters":10800,"station_id":"","pricing_plan_id":"cebpf4jnsgd1na2vs0mg"},{"bike_id":"fd3ac7a1-e92c-4b83-a842-f4ea44baff97","system_id":"levelo_inurba_marseille","lat":43.296765,"lon":5.373564,"is_reserved":false,"is_disabled":false,"rental_uris":{"android":"levelo://app?vid=fd3ac7a1-e92c-4b83-a842-f4ea44baff97","ios":"levelo://app?vid=fd3ac7a1-e92c-4b83-a842-f4ea44baff97"},"vehicle_type_id":"4","last_reported":1711822171,"current_range_meters":12000,"station_id":"","pricing_plan_id":"cebpf4jnsgd1na2vs0mg"},{"bike_id":"89b25724-def4-4a6e-b93d-d47c898b0f05","system_id":"levelo_inurba_marseille","lat":43.296131,"lon":5.370773,"is_reserved":false,"is_disabled":false,"rental_uris":{"android":"levelo://app?vid=89b25724-def4-4a6e-b93d-d47c898b0f05","ios":"levelo://app?vid=89b25724-def4-4a6e-b93d-d47c898b0f05"},"vehicle_type_id":"4","last_reported":1711822171,"current_range_meters":4400,"station_id":"ce4bgnh2rcd13ifvqc0g","pricing_plan_id":"cebpf4jnsgd1na2vs0mg"},{"bike_id":"39bb4512-342c-40ad-8d52-0fc62662ef65","system_id":"levelo_inurba_marseille","lat":43.29573,"lon":5.367355,"is_reserved":false,"is_disabled":false,"rental_uris":{"android":"levelo://app?vid=39bb4512-342c-40ad-8d52-0fc62662ef65","ios":"levelo://app?vid=39bb4512-342c-40ad-8d52-0fc62662ef65"},"vehicle_type_id":"4","last_reported":1711822171,"current_range_meters":6000,"station_id":"ce4bgph2rcd13ifvqc2g","pricing_plan_id":"cebpf4jnsgd1na2vs0mg"},{"bike_id":"766f3c55-2699-43fa-9c85-d82fc26f7bd2","system_id":"levelo_inurba_marseille","lat":43.29573,"lon":5.367355,"is_reserved":false,"is_disabled":false,"rental_uris":{"android":"levelo://app?vid=766f3c55-2699-43fa-9c85-d82fc26f7bd2","ios":"levelo://app?vid=766f3c55-2699-43fa-9c85-d82fc26f7bd2"},"vehicle_type_id":"4","last_reported":1711822171,"current_range_meters":21600,"station_id":"ce4bgph2rcd13ifvqc2g","pricing_plan_id":"cebpf4jnsgd1na2vs0mg"},{"bike_id":"f671fd4c-c35f-4072-8f56-bf03523ab6fa","system_id":"levelo_inurba_marseille","lat":43.29579,"lon":5.36714,"is_reserved":false,"is_disabled":false,"rental_uris":{"android":"levelo://app?vid=f671fd4c-c35f-4072-8f56-bf03523ab6fa","ios":"levelo://app?vid=f671fd4c-c35f-4072-8f56-bf03523ab6fa"},"vehicle_type_id":"4","last_reported":1711822171,"current_range_meters":0,"station_id":"ce4bgph2rcd13ifvqc2g","pricing_plan_id":"cebpf4jnsgd1na2vs0mg"},{"bike_id":"df5ed1d0-2df0-4e68-a474-db9d5dbaba21","system_id":"levelo_inurba_marseille","lat":43.29719,"lon":5.3769,"is_reserved":false,"is_disabled":false,"rental_uris":{"android":"levelo://app?vid=df5ed1d0-2df0-4e68-a474-db9d5dbaba21","ios":"levelo://app?vid=df5ed1d0-2df0-4e68-a474-db9d5dbaba21"},"vehicle_type_id":"4","last_reported":1711822171,"current_range_meters":0,"station_id":"ce4bgkh2rcd13ifvqbl0","pricing_plan_id":"cebpf4jnsgd1na2vs0mg"},{"bike_id":"6c4705c3-6db4-4481-bc17-32389f892d18","system_id":"levelo_inurba_marseille","lat":43.29908,"lon":5.38134,"is_reserved":false,"is_disabled":false,"rental_uris":{"android":"levelo://app?vid=6c4705c3-6db4-4481-bc17-32389f892d18","ios":"levelo://app?vid=6c4705c3-6db4-4481-bc17-32389f892d18"},"vehicle_type_id":"4","last_reported":1711822171,"current_range_meters":25200,"station_id":"ce4bgj12rcd13ifvqbc0","pricing_plan_id":"cebpf4jnsgd1na2vs0mg"},{"bike_id":"52e62ac3-7bf8-4e95-bcc2-ce3f9681fcd2","system_id":"levelo_inurba_marseille","lat":43.29907,"lon":5.38136,"is_reserved":false,"is_disabled":false,"rental_uris":{"android":"levelo://app?vid=52e62ac3-7bf8-4e95-bcc2-ce3f9681fcd2","ios":"levelo://app?vid=52e62ac3-7bf8-4e95-bcc2-ce3f9681fcd2"},"vehicle_type_id":"4","last_reported":1711822171,"current_range_meters":0,"station_id":"ce4bgj12rcd13ifvqbc0","pricing_plan_id":"cebpf4jnsgd1na2vs0mg"},{"bike_id":"9c3de725-f5f0-4c4b-8d3e-d687563cfa3e","system_id":"levelo_inurba_marseille","lat":43.31749,"lon":5.3901,"is_reserved":false,"is_disabled":false,"rental_uris":{"android":"levelo://app?vid=9c3de725-f5f0-4c4b-8d3e-d687563cfa3e","ios":"levelo://app?vid=9c3de725-f5f0-4c4b-8d3e-d687563cfa3e"},"vehicle_type_id":"4","last_reported":1711822171,"current_range_meters":25200,"station_id":"ce4bhqp2rcd13ifvqhng","pricing_plan_id":"cebpf4jnsgd1na2vs0mg"},{"bike_id":"b2ff05fa-dca6-4470-a9cc-38c3bbca7082","system_id":"levelo_inurba_marseille","lat":43.317557,"lon":5.390173,"is_reserved":false,"is_disabled":false,"rental_uris":{"android":"levelo://app?vid=b2ff05fa-dca6-4470-a9cc-38c3bbca7082","ios":"levelo://app?vid=b2ff05fa-dca6-4470-a9cc-38c3bbca7082"},"vehicle_type_id":"4","last_reported":1711822171,"current_range_meters":19600,"station_id":"ce4bhqp2rcd13ifvqhng","pricing_plan_id":"cebpf4jnsgd1na2vs0mg"},{"bike_id":"23c6e965-a6a1-4da7-8b1d-13b6591b5d67","system_id":"levelo_inurba_marseille","lat":43.317557,"lon":5.390173,"is_reserved":false,"is_disabled":false,"rental_uris":{"android":"levelo://app?vid=23c6e965-a6a1-4da7-8b1d-13b6591b5d67","ios":"levelo://app?vid=23c6e965-a6a1-4da7-8b1d-13b6591b5d67"},"vehicle_type_id":"4","last_reported":1711822171,"current_range_meters":31200,"station_id":"ce4bhqp2rcd13ifvqhng","pricing_plan_id":"cebpf4jnsgd1na2vs0mg"},{"bike_id":"fcdc3647-21be-4b09-b61d-8c354df5fb59","system_id":"levelo_inurba_marseille","lat":43.317754,"lon":5.390153,"is_reserved":false,"is_disabled":false,"rental_uris":{"android":"levelo://app?vid=fcdc3647-21be-4b09-b61d-8c354df5fb59","ios":"levelo://app?vid=fcdc3647-21be-4b09-b61d-8c354df5fb59"},"vehicle_type_id":"4","last_reported":1711822171,"current_range_meters":21600,"station_id":"ce4bhqp2rcd13ifvqhng","pricing_plan_id":"cebpf4jnsgd1na2vs0mg"},{"bike_id":"db2f8f93-5132-4831-b0da-4f37ff28ef6f","system_id":"levelo_inurba_marseille","lat":43.278128,"lon":5.407195,"is_reserved":false,"is_disabled":false,"rental_uris":{"android":"levelo://app?vid=db2f8f93-5132-4831-b0da-4f37ff28ef6f","ios":"levelo://app?vid=db2f8f93-5132-4831-b0da-4f37ff28ef6f"},"vehicle_type_id":"4","last_reported":1711822171,"current_range_meters":0,"station_id":"ce4bhnh2rcd13ifvqgtg","pricing_plan_id":"cebpf4jnsgd1na2vs0mg"},{"bike_id":"bf773d44-7962-4a4b-9d67-92bba431eb69","system_id":"levelo_inurba_marseille","lat":43.298087,"lon":5.380999,"is_reserved":false,"is_disabled":false,"rental_uris":{"android":"levelo://app?vid=bf773d44-7962-4a4b-9d67-92bba431eb69","ios":"levelo://app?vid=bf773d44-7962-4a4b-9d67-92bba431eb69"},"vehicle_type_id":"4","last_reported":1711822171,"current_range_meters":0,"station_id":"ce4bgip2rcd13ifvqbb0","pricing_plan_id":"cebpf4jnsgd1na2vs0mg"},{"bike_id":"9641c487-f8b7-4ef2-8508-efc32602a200","system_id":"levelo_inurba_marseille","lat":43.29809,"lon":5.38101,"is_reserved":false,"is_disabled":false,"rental_uris":{"android":"levelo://app?vid=9641c487-f8b7-4ef2-8508-efc32602a200","ios":"levelo://app?vid=9641c487-f8b7-4ef2-8508-efc32602a200"},"vehicle_type_id":"4","last_reported":1711822171,"current_range_meters":0,"station_id":"ce4bgip2rcd13ifvqbb0","pricing_plan_id":"cebpf4jnsgd1na2vs0mg"},{"bike_id":"75039cd1-a7c3-464f-a7b2-f537dc8f2e18","system_id":"levelo_inurba_marseille","lat":43.295748,"lon":5.37522,"is_reserved":false,"is_disabled":false,"rental_uris":{"android":"levelo://app?vid=75039cd1-a7c3-464f-a7b2-f537dc8f2e18","ios":"levelo://app?vid=75039cd1-a7c3-464f-a7b2-f537dc8f2e18"},"vehicle_type_id":"4","last_reported":1711822171,"current_range_meters":0,"station_id":"ce4bgh92rcd13ifvqb50","pricing_plan_id":"cebpf4jnsgd1na2vs0mg"},{"bike_id":"921ac195-96c9-4e71-9227-0221ff8be0b9","system_id":"levelo_inurba_marseille","lat":43.296117,"lon":5.37623,"is_reserved":false,"is_disabled":false,"rental_uris":{"android":"levelo://app?vid=921ac195-96c9-4e71-9227-0221ff8be0b9","ios":"levelo://app?vid=921ac195-96c9-4e71-9227-0221ff8be0b9"},"vehicle_type_id":"4","last_reported":1711822171,"current_range_meters":24000,"station_id":"","pricing_plan_id":"cebpf4jnsgd1na2vs0mg"},{"bike_id":"358dff17-c45b-4017-8bd1-3e1727fb8150","system_id":"levelo_inurba_marseille","lat":43.295748,"lon":5.37522,"is_reserved":false,"is_disabled":false,"rental_uris":{"android":"levelo://app?vid=358dff17-c45b-4017-8bd1-3e1727fb8150","ios":"levelo://app?vid=358dff17-c45b-4017-8bd1-3e1727fb8150"},"vehicle_type_id":"4","last_reported":1711822171,"current_range_meters":22800,"station_id":"ce4bgh92rcd13ifvqb50","pricing_plan_id":"cebpf4jnsgd1na2vs0mg"},{"bike_id":"7a3b2f01-df41-4f2b-a9f5-c145f3f8d7da","system_id":"levelo_inurba_marseille","lat":43.295748,"lon":5.37522,"is_reserved":false,"is_disabled":false,"rental_uris":{"android":"levelo://app?vid=7a3b2f01-df41-4f2b-a9f5-c145f3f8d7da","ios":"levelo://app?vid=7a3b2f01-df41-4f2b-a9f5-c145f3f8d7da"},"vehicle_type_id":"4","last_reported":1711822171,"current_range_meters":9200,"station_id":"ce4bgh92rcd13ifvqb50","pricing_plan_id":"cebpf4jnsgd1na2vs0mg"},{"bike_id":"a3f4734b-5a25-4ebd-83fd-1ad4703b17d6","system_id":"levelo_inurba_marseille","lat":43.295748,"lon":5.37522,"is_reserved":false,"is_disabled":false,"rental_uris":{"android":"levelo://app?vid=a3f4734b-5a25-4ebd-83fd-1ad4703b17d6","ios":"levelo://app?vid=a3f4734b-5a25-4ebd-83fd-1ad4703b17d6"},"vehicle_type_id":"4","last_reported":1711822171,"current_range_meters":0,"station_id":"ce4bgh92rcd13ifvqb50","pricing_plan_id":"cebpf4jnsgd1na2vs0mg"},{"bike_id":"6d97b531-3e6d-48e8-b347-ffdadce201a4","system_id":"levelo_inurba_marseille","lat":43.304293,"lon":5.38884,"is_reserved":false,"is_disabled":false,"rental_uris":{"android":"levelo://app?vid=6d97b531-3e6d-48e8-b347-ffdadce201a4","ios":"levelo://app?vid=6d97b531-3e6d-48e8-b347-ffdadce201a4"},"vehicle_type_id":"4","last_reported":1711822171,"current_range_meters":0,"station_id":"ce4bgk12rcd13ifvqbi0","pricing_plan_id":"cebpf4jnsgd1na2vs0mg"},{"bike_id":"9bd4c4a1-17eb-4566-bff3-c7a00e8da85f","system_id":"levelo_inurba_marseille","lat":43.29792,"lon":5.38109,"is_reserved":false,"is_disabled":false,"rental_uris":{"android":"levelo://app?vid=9bd4c4a1-17eb-4566-bff3-c7a00e8da85f","ios":"levelo://app?vid=9bd4c4a1-17eb-4566-bff3-c7a00e8da85f"},"vehicle_type_id":"4","last_reported":1711822171,"current_range_meters":3200,"station_id":"ce4bgip2rcd13ifvqbb0","pricing_plan_id":"cebpf4jnsgd1na2vs0mg"},{"bike_id":"754e5fb7-33b7-4285-8ad8-c098f28aad72","system_id":"levelo_inurba_marseille","lat":43.295748,"lon":5.37522,"is_reserved":false,"is_disabled":false,"rental_uris":{"android":"levelo://app?vid=754e5fb7-33b7-4285-8ad8-c098f28aad72","ios":"levelo://app?vid=754e5fb7-33b7-4285-8ad8-c098f28aad72"},"vehicle_type_id":"4","last_reported":1711822171,"current_range_meters":23600,"station_id":"ce4bgh92rcd13ifvqb50","pricing_plan_id":"cebpf4jnsgd1na2vs0mg"},{"bike_id":"ab39fbb3-96ed-4c34-a8fe-80ba70b9f114","system_id":"levelo_inurba_marseille","lat":43.30432,"lon":5.3889,"is_reserved":false,"is_disabled":false,"rental_uris":{"android":"levelo://app?vid=ab39fbb3-96ed-4c34-a8fe-80ba70b9f114","ios":"levelo://app?vid=ab39fbb3-96ed-4c34-a8fe-80ba70b9f114"},"vehicle_type_id":"4","last_reported":1711822171,"current_range_meters":0,"station_id":"ce4bgk12rcd13ifvqbi0","pricing_plan_id":"cebpf4jnsgd1na2vs0mg"},{"bike_id":"4d822340-227a-413d-832c-f51eb2a40239","system_id":"levelo_inurba_marseille","lat":43.304281,"lon":5.388908,"is_reserved":false,"is_disabled":false,"rental_uris":{"android":"levelo://app?vid=4d822340-227a-413d-832c-f51eb2a40239","ios":"levelo://app?vid=4d822340-227a-413d-832c-f51eb2a40239"},"vehicle_type_id":"4","last_reported":1711822171,"current_range_meters":11600,"station_id":"ce4bgk12rcd13ifvqbi0","pricing_plan_id":"cebpf4jnsgd1na2vs0mg"},{"bike_id":"7aa4b357-af8a-4a24-8bf1-4002e7e8b9c1","system_id":"levelo_inurba_marseille","lat":43.296242,"lon":5.377204,"is_reserved":false,"is_disabled":false,"rental_uris":{"android":"levelo://app?vid=7aa4b357-af8a-4a24-8bf1-4002e7e8b9c1","ios":"levelo://app?vid=7aa4b357-af8a-4a24-8bf1-4002e7e8b9c1"},"vehicle_type_id":"4","last_reported":1711822171,"current_range_meters":0,"station_id":"ce4bgi92rcd13ifvqb90","pricing_plan_id":"cebpf4jnsgd1na2vs0mg"},{"bike_id":"ab691a45-2ce3-4e5b-ba9c-4b696efb9c0c","system_id":"levelo_inurba_marseille","lat":43.33058,"lon":5.37148,"is_reserved":false,"is_disabled":false,"rental_uris":{"android":"levelo://app?vid=ab691a45-2ce3-4e5b-ba9c-4b696efb9c0c","ios":"levelo://app?vid=ab691a45-2ce3-4e5b-ba9c-4b696efb9c0c"},"vehicle_type_id":"4","last_reported":1711822171,"current_range_meters":11600,"station_id":"","pricing_plan_id":"cebpf4jnsgd1na2vs0mg"},{"bike_id":"621ffb5c-c30a-472f-b971-ac322cbe17e2","system_id":"levelo_inurba_marseille","lat":43.291994,"lon":5.357886,"is_reserved":false,"is_disabled":false,"rental_uris":{"android":"levelo://app?vid=621ffb5c-c30a-472f-b971-ac322cbe17e2","ios":"levelo://app?vid=621ffb5c-c30a-472f-b971-ac322cbe17e2"},"vehicle_type_id":"4","last_reported":1711822171,"current_range_meters":24400,"station_id":"ce4bhb12rcd13ifvqel0","pricing_plan_id":"cebpf4jnsgd1na2vs0mg"},{"bike_id":"af15391d-61e0-4763-aca0-8d1b5995b289","system_id":"levelo_inurba_marseille","lat":43.299707,"lon":5.384859,"is_reserved":false,"is_disabled":false,"rental_uris":{"android":"levelo://app?vid=af15391d-61e0-4763-aca0-8d1b5995b289","ios":"levelo://app?vid=af15391d-61e0-4763-aca0-8d1b5995b289"},"vehicle_type_id":"4","last_reported":1711822171,"current_range_meters":6000,"station_id":"ce4bgj92rcd13ifvqbd0","pricing_plan_id":"cebpf4jnsgd1na2vs0mg"},{"bike_id":"b73f8ade-2fac-4f9a-8643-faf641a54cbb","system_id":"levelo_inurba_marseille","lat":43.299707,"lon":5.384859,"is_reserved":false,"is_disabled":false,"rental_uris":{"android":"levelo://app?vid=b73f8ade-2fac-4f9a-8643-faf641a54cbb","ios":"levelo://app?vid=b73f8ade-2fac-4f9a-8643-faf641a54cbb"},"vehicle_type_id":"4","last_reported":1711822171,"current_range_meters":20800,"station_id":"ce4bgj92rcd13ifvqbd0","pricing_plan_id":"cebpf4jnsgd1na2vs0mg"},{"bike_id":"4f0c6b0c-06e7-4626-9c4e-2d738f5d7eb1","system_id":"levelo_inurba_marseille","lat":43.29982,"lon":5.38483,"is_reserved":false,"is_disabled":false,"rental_uris":{"android":"levelo://app?vid=4f0c6b0c-06e7-4626-9c4e-2d738f5d7eb1","ios":"levelo://app?vid=4f0c6b0c-06e7-4626-9c4e-2d738f5d7eb1"},"vehicle_type_id":"4","last_reported":1711822171,"current_range_meters":13600,"station_id":"ce4bgj92rcd13ifvqbd0","pricing_plan_id":"cebpf4jnsgd1na2vs0mg"},{"bike_id":"c1247802-56fc-424a-a134-1ed5aac5802b","system_id":"levelo_inurba_marseille","lat":43.29976,"lon":5.38479,"is_reserved":false,"is_disabled":false,"rental_uris":{"android":"levelo://app?vid=c1247802-56fc-424a-a134-1ed5aac5802b","ios":"levelo://app?vid=c1247802-56fc-424a-a134-1ed5aac5802b"},"vehicle_type_id":"4","last_reported":1711822171,"current_range_meters":24000,"station_id":"ce4bgj92rcd13ifvqbd0","pricing_plan_id":"cebpf4jnsgd1na2vs0mg"},{"bike_id":"3a63f8c6-2dc0-4042-bbe3-5c5183bf059b","system_id":"levelo_inurba_marseille","lat":43.299707,"lon":5.384859,"is_reserved":false,"is_disabled":false,"rental_uris":{"android":"levelo://app?vid=3a63f8c6-2dc0-4042-bbe3-5c5183bf059b","ios":"levelo://app?vid=3a63f8c6-2dc0-4042-bbe3-5c5183bf059b"},"vehicle_type_id":"4","last_reported":1711822171,"current_range_meters":13200,"station_id":"ce4bgj92rcd13ifvqbd0","pricing_plan_id":"cebpf4jnsgd1na2vs0mg"},{"bike_id":"c7817993-45d0-4ab6-b7e8-30a7b147caf5","system_id":"levelo_inurba_marseille","lat":43.29977,"lon":5.38484,"is_reserved":false,"is_disabled":false,"rental_uris":{"android":"levelo://app?vid=c7817993-45d0-4ab6-b7e8-30a7b147caf5","ios":"levelo://app?vid=c7817993-45d0-4ab6-b7e8-30a7b147caf5"},"vehicle_type_id":"4","last_reported":1711822171,"current_range_meters":17600,"station_id":"ce4bgj92rcd13ifvqbd0","pricing_plan_id":"cebpf4jnsgd1na2vs0mg"},{"bike_id":"792a90b2-392b-4180-ad83-268a3b50c40f","system_id":"levelo_inurba_marseille","lat":43.299707,"lon":5.384859,"is_reserved":false,"is_disabled":false,"rental_uris":{"android":"levelo://app?vid=792a90b2-392b-4180-ad83-268a3b50c40f","ios":"levelo://app?vid=792a90b2-392b-4180-ad83-268a3b50c40f"},"vehicle_type_id":"4","last_reported":1711822171,"current_range_meters":9200,"station_id":"ce4bgj92rcd13ifvqbd0","pricing_plan_id":"cebpf4jnsgd1na2vs0mg"},{"bike_id":"1794039a-2b81-4826-946c-e3afc5c3e49a","system_id":"levelo_inurba_marseille","lat":43.314811,"lon":5.373103,"is_reserved":false,"is_disabled":false,"rental_uris":{"android":"levelo://app?vid=1794039a-2b81-4826-946c-e3afc5c3e49a","ios":"levelo://app?vid=1794039a-2b81-4826-946c-e3afc5c3e49a"},"vehicle_type_id":"4","last_reported":1711822171,"current_range_meters":22400,"station_id":"ce4bgt12rcd13ifvqcd0","pricing_plan_id":"cebpf4jnsgd1na2vs0mg"},{"bike_id":"bf1fe6ac-4ad3-4d5d-b24a-884f4dbd3861","system_id":"levelo_inurba_marseille","lat":43.299707,"lon":5.384859,"is_reserved":false,"is_disabled":false,"rental_uris":{"android":"levelo://app?vid=bf1fe6ac-4ad3-4d5d-b24a-884f4dbd3861","ios":"levelo://app?vid=bf1fe6ac-4ad3-4d5d-b24a-884f4dbd3861"},"vehicle_type_id":"4","last_reported":1711822171,"current_range_meters":26400,"station_id":"ce4bgj92rcd13ifvqbd0","pricing_plan_id":"cebpf4jnsgd1na2vs0mg"},{"bike_id":"d4a140a1-8d62-491f-b917-12b64b48c0d3","system_id":"levelo_inurba_marseille","lat":43.299763,"lon":5.384948,"is_reserved":false,"is_disabled":false,"rental_uris":{"android":"levelo://app?vid=d4a140a1-8d62-491f-b917-12b64b48c0d3","ios":"levelo://app?vid=d4a140a1-8d62-491f-b917-12b64b48c0d3"},"vehicle_type_id":"4","last_reported":1711822171,"current_range_meters":19200,"station_id":"ce4bgj92rcd13ifvqbd0","pricing_plan_id":"cebpf4jnsgd1na2vs0mg"},{"bike_id":"d0c5207e-958a-413f-bf9a-6208668b0b55","system_id":"levelo_inurba_marseille","lat":43.29975,"lon":5.38493,"is_reserved":false,"is_disabled":false,"rental_uris":{"android":"levelo://app?vid=d0c5207e-958a-413f-bf9a-6208668b0b55","ios":"levelo://app?vid=d0c5207e-958a-413f-bf9a-6208668b0b55"},"vehicle_type_id":"4","last_reported":1711822171,"current_range_meters":0,"station_id":"ce4bgj92rcd13ifvqbd0","pricing_plan_id":"cebpf4jnsgd1na2vs0mg"},{"bike_id":"a7098946-8d51-4bc8-9dfc-b36ebe9de21b","system_id":"levelo_inurba_marseille","lat":43.299717,"lon":5.384845,"is_reserved":false,"is_disabled":false,"rental_uris":{"android":"levelo://app?vid=a7098946-8d51-4bc8-9dfc-b36ebe9de21b","ios":"levelo://app?vid=a7098946-8d51-4bc8-9dfc-b36ebe9de21b"},"vehicle_type_id":"4","last_reported":1711822171,"current_range_meters":14800,"station_id":"ce4bgj92rcd13ifvqbd0","pricing_plan_id":"cebpf4jnsgd1na2vs0mg"},{"bike_id":"5596eee7-1894-4bd4-a316-6a925d11d70c","system_id":"levelo_inurba_marseille","lat":43.302008,"lon":5.394694,"is_reserved":false,"is_disabled":false,"rental_uris":{"android":"levelo://app?vid=5596eee7-1894-4bd4-a316-6a925d11d70c","ios":"levelo://app?vid=5596eee7-1894-4bd4-a316-6a925d11d70c"},"vehicle_type_id":"4","last_reported":1711822171,"current_range_meters":6800,"station_id":"ce4bh0p2rcd13ifvqd70","pricing_plan_id":"cebpf4jnsgd1na2vs0mg"},{"bike_id":"2aa3043b-6577-4a97-9cb0-aa1d44bb4ac3","system_id":"levelo_inurba_marseille","lat":43.299683,"lon":5.384946,"is_reserved":false,"is_disabled":false,"rental_uris":{"android":"levelo://app?vid=2aa3043b-6577-4a97-9cb0-aa1d44bb4ac3","ios":"levelo://app?vid=2aa3043b-6577-4a97-9cb0-aa1d44bb4ac3"},"vehicle_type_id":"4","last_reported":1711822171,"current_range_meters":1200,"station_id":"ce4bgj92rcd13ifvqbd0","pricing_plan_id":"cebpf4jnsgd1na2vs0mg"},{"bike_id":"3f070a54-4ed4-4b7f-a238-dcf67bf27b22","system_id":"levelo_inurba_marseille","lat":43.299621,"lon":5.38488,"is_reserved":false,"is_disabled":false,"rental_uris":{"android":"levelo://app?vid=3f070a54-4ed4-4b7f-a238-dcf67bf27b22","ios":"levelo://app?vid=3f070a54-4ed4-4b7f-a238-dcf67bf27b22"},"vehicle_type_id":"4","last_reported":1711822171,"current_range_meters":4000,"station_id":"ce4bgj92rcd13ifvqbd0","pricing_plan_id":"cebpf4jnsgd1na2vs0mg"},{"bike_id":"859f3c3d-bd92-4872-9560-2c8de613a6e7","system_id":"levelo_inurba_marseille","lat":43.29476,"lon":5.3739,"is_reserved":false,"is_disabled":false,"rental_uris":{"android":"levelo://app?vid=859f3c3d-bd92-4872-9560-2c8de613a6e7","ios":"levelo://app?vid=859f3c3d-bd92-4872-9560-2c8de613a6e7"},"vehicle_type_id":"4","last_reported":1711822171,"current_range_meters":2800,"station_id":"","pricing_plan_id":"cebpf4jnsgd1na2vs0mg"},{"bike_id":"3ee4720f-a6b7-4fbf-b3d4-34e2b92d96c0","system_id":"levelo_inurba_marseille","lat":43.25102,"lon":5.403214,"is_reserved":false,"is_disabled":false,"rental_uris":{"android":"levelo://app?vid=3ee4720f-a6b7-4fbf-b3d4-34e2b92d96c0","ios":"levelo://app?vid=3ee4720f-a6b7-4fbf-b3d4-34e2b92d96c0"},"vehicle_type_id":"4","last_reported":1711822171,"current_range_meters":4800,"station_id":"ce4bhlh2rcd13ifvqgig","pricing_plan_id":"cebpf4jnsgd1na2vs0mg"},{"bike_id":"8cc89804-daea-4b4f-8c2c-0056e12245e7","system_id":"levelo_inurba_marseille","lat":43.299605,"lon":5.385598,"is_reserved":false,"is_disabled":false,"rental_uris":{"android":"levelo://app?vid=8cc89804-daea-4b4f-8c2c-0056e12245e7","ios":"levelo://app?vid=8cc89804-daea-4b4f-8c2c-0056e12245e7"},"vehicle_type_id":"4","last_reported":1711822171,"current_range_meters":22400,"station_id":"ce4bgj92rcd13ifvqbd0","pricing_plan_id":"cebpf4jnsgd1na2vs0mg"},{"bike_id":"1b6a5335-1015-4e3e-b795-f68d368adbe5","system_id":"levelo_inurba_marseille","lat":43.29607,"lon":5.37941,"is_reserved":false,"is_disabled":false,"rental_uris":{"android":"levelo://app?vid=1b6a5335-1015-4e3e-b795-f68d368adbe5","ios":"levelo://app?vid=1b6a5335-1015-4e3e-b795-f68d368adbe5"},"vehicle_type_id":"4","last_reported":1711822171,"current_range_meters":0,"station_id":"","pricing_plan_id":"cebpf4jnsgd1na2vs0mg"},{"bike_id":"f93c2274-cec6-4306-aa86-3ee1f0486722","system_id":"levelo_inurba_marseille","lat":43.323736,"lon":5.388464,"is_reserved":false,"is_disabled":false,"rental_uris":{"android":"levelo://app?vid=f93c2274-cec6-4306-aa86-3ee1f0486722","ios":"levelo://app?vid=f93c2274-cec6-4306-aa86-3ee1f0486722"},"vehicle_type_id":"4","last_reported":1711822171,"current_range_meters":20000,"station_id":"ce4bhqp2rcd13ifvqhog","pricing_plan_id":"cebpf4jnsgd1na2vs0mg"},{"bike_id":"7acc25d4-c157-45aa-a457-5f560d8e3326","system_id":"levelo_inurba_marseille","lat":43.32365,"lon":5.38881,"is_reserved":false,"is_disabled":false,"rental_uris":{"android":"levelo://app?vid=7acc25d4-c157-45aa-a457-5f560d8e3326","ios":"levelo://app?vid=7acc25d4-c157-45aa-a457-5f560d8e3326"},"vehicle_type_id":"4","last_reported":1711822171,"current_range_meters":15200,"station_id":"ce4bhqp2rcd13ifvqhog","pricing_plan_id":"cebpf4jnsgd1na2vs0mg"},{"bike_id":"0847bfde-98dc-4645-b288-daf805a0541e","system_id":"levelo_inurba_marseille","lat":43.32364,"lon":5.38884,"is_reserved":false,"is_disabled":false,"rental_uris":{"android":"levelo://app?vid=0847bfde-98dc-4645-b288-daf805a0541e","ios":"levelo://app?vid=0847bfde-98dc-4645-b288-daf805a0541e"},"vehicle_type_id":"4","last_reported":1711822171,"current_range_meters":27200,"station_id":"ce4bhqp2rcd13ifvqhog","pricing_plan_id":"cebpf4jnsgd1na2vs0mg"},{"bike_id":"21280b21-df63-4624-af2e-cf3aa3aaf03c","system_id":"levelo_inurba_marseille","lat":43.32368,"lon":5.38883,"is_reserved":false,"is_disabled":false,"rental_uris":{"android":"levelo://app?vid=21280b21-df63-4624-af2e-cf3aa3aaf03c","ios":"levelo://app?vid=21280b21-df63-4624-af2e-cf3aa3aaf03c"},"vehicle_type_id":"4","last_reported":1711822171,"current_range_meters":0,"station_id":"ce4bhqp2rcd13ifvqhog","pricing_plan_id":"cebpf4jnsgd1na2vs0mg"},{"bike_id":"a7139ce8-a352-4d57-8aac-2c55f8217d5f","system_id":"levelo_inurba_marseille","lat":43.32368,"lon":5.38884,"is_reserved":false,"is_disabled":false,"rental_uris":{"android":"levelo://app?vid=a7139ce8-a352-4d57-8aac-2c55f8217d5f","ios":"levelo://app?vid=a7139ce8-a352-4d57-8aac-2c55f8217d5f"},"vehicle_type_id":"4","last_reported":1711822171,"current_range_meters":7200,"station_id":"ce4bhqp2rcd13ifvqhog","pricing_plan_id":"cebpf4jnsgd1na2vs0mg"},{"bike_id":"61da30af-79e6-4078-9f55-da4fe466eee9","system_id":"levelo_inurba_marseille","lat":43.323626,"lon":5.3889,"is_reserved":false,"is_disabled":false,"rental_uris":{"android":"levelo://app?vid=61da30af-79e6-4078-9f55-da4fe466eee9","ios":"levelo://app?vid=61da30af-79e6-4078-9f55-da4fe466eee9"},"vehicle_type_id":"4","last_reported":1711822171,"current_range_meters":13200,"station_id":"ce4bhqp2rcd13ifvqhog","pricing_plan_id":"cebpf4jnsgd1na2vs0mg"},{"bike_id":"0f83768f-80a2-4641-b375-375725ab5d7a","system_id":"levelo_inurba_marseille","lat":43.323634,"lon":5.388934,"is_reserved":false,"is_disabled":false,"rental_uris":{"android":"levelo://app?vid=0f83768f-80a2-4641-b375-375725ab5d7a","ios":"levelo://app?vid=0f83768f-80a2-4641-b375-375725ab5d7a"},"vehicle_type_id":"4","last_reported":1711822171,"current_range_meters":400,"station_id":"ce4bhqp2rcd13ifvqhog","pricing_plan_id":"cebpf4jnsgd1na2vs0mg"},{"bike_id":"7974de9a-ff15-41f1-91cc-35110c4cbb23","system_id":"levelo_inurba_marseille","lat":43.32365,"lon":5.38892,"is_reserved":false,"is_disabled":false,"rental_uris":{"android":"levelo://app?vid=7974de9a-ff15-41f1-91cc-35110c4cbb23","ios":"levelo://app?vid=7974de9a-ff15-41f1-91cc-35110c4cbb23"},"vehicle_type_id":"4","last_reported":1711822171,"current_range_meters":0,"station_id":"ce4bhqp2rcd13ifvqhog","pricing_plan_id":"cebpf4jnsgd1na2vs0mg"},{"bike_id":"f4d29bd9-bbc5-4a2e-ac9f-e0a1bfb46a88","system_id":"levelo_inurba_marseille","lat":43.32367,"lon":5.388836,"is_reserved":false,"is_disabled":false,"rental_uris":{"android":"levelo://app?vid=f4d29bd9-bbc5-4a2e-ac9f-e0a1bfb46a88","ios":"levelo://app?vid=f4d29bd9-bbc5-4a2e-ac9f-e0a1bfb46a88"},"vehicle_type_id":"4","last_reported":1711822171,"current_range_meters":6000,"station_id":"ce4bhqp2rcd13ifvqhog","pricing_plan_id":"cebpf4jnsgd1na2vs0mg"},{"bike_id":"41b3e8a6-3e59-4b8e-9143-02dc00a8a5f7","system_id":"levelo_inurba_marseille","lat":43.323674,"lon":5.38892,"is_reserved":false,"is_disabled":false,"rental_uris":{"android":"levelo://app?vid=41b3e8a6-3e59-4b8e-9143-02dc00a8a5f7","ios":"levelo://app?vid=41b3e8a6-3e59-4b8e-9143-02dc00a8a5f7"},"vehicle_type_id":"4","last_reported":1711822171,"current_range_meters":16800,"station_id":"ce4bhqp2rcd13ifvqhog","pricing_plan_id":"cebpf4jnsgd1na2vs0mg"},{"bike_id":"9224330f-d09a-4f67-90e7-b545cdf603d6","system_id":"levelo_inurba_marseille","lat":43.294569,"lon":5.376246,"is_reserved":false,"is_disabled":false,"rental_uris":{"android":"levelo://app?vid=9224330f-d09a-4f67-90e7-b545cdf603d6","ios":"levelo://app?vid=9224330f-d09a-4f67-90e7-b545cdf603d6"},"vehicle_type_id":"4","last_reported":1711822171,"current_range_meters":13200,"station_id":"","pricing_plan_id":"cebpf4jnsgd1na2vs0mg"},{"bike_id":"7e50bee5-934e-49c4-a4cf-9f4ed4881bbf","system_id":"levelo_inurba_marseille","lat":43.29602,"lon":5.381084,"is_reserved":false,"is_disabled":false,"rental_uris":{"android":"levelo://app?vid=7e50bee5-934e-49c4-a4cf-9f4ed4881bbf","ios":"levelo://app?vid=7e50bee5-934e-49c4-a4cf-9f4ed4881bbf"},"vehicle_type_id":"4","last_reported":1711822171,"current_range_meters":26800,"station_id":"ce4bgl12rcd13ifvqbo0","pricing_plan_id":"cebpf4jnsgd1na2vs0mg"},{"bike_id":"39884ed7-fb4f-41d3-82fa-0dc20d175fdd","system_id":"levelo_inurba_marseille","lat":43.296044,"lon":5.380956,"is_reserved":false,"is_disabled":false,"rental_uris":{"android":"levelo://app?vid=39884ed7-fb4f-41d3-82fa-0dc20d175fdd","ios":"levelo://app?vid=39884ed7-fb4f-41d3-82fa-0dc20d175fdd"},"vehicle_type_id":"4","last_reported":1711822171,"current_range_meters":0,"station_id":"ce4bgl12rcd13ifvqbo0","pricing_plan_id":"cebpf4jnsgd1na2vs0mg"},{"bike_id":"04b314ff-daa1-4349-94d2-040ef5040303","system_id":"levelo_inurba_marseille","lat":43.292749,"lon":5.368402,"is_reserved":false,"is_disabled":false,"rental_uris":{"android":"levelo://app?vid=04b314ff-daa1-4349-94d2-040ef5040303","ios":"levelo://app?vid=04b314ff-daa1-4349-94d2-040ef5040303"},"vehicle_type_id":"4","last_reported":1711822171,"current_range_meters":26000,"station_id":"ce4bhbp2rcd13ifvqesg","pricing_plan_id":"cebpf4jnsgd1na2vs0mg"},{"bike_id":"88af8c1f-9c25-4f96-91b4-63a215418d25","system_id":"levelo_inurba_marseille","lat":43.29573,"lon":5.367355,"is_reserved":false,"is_disabled":false,"rental_uris":{"android":"levelo://app?vid=88af8c1f-9c25-4f96-91b4-63a215418d25","ios":"levelo://app?vid=88af8c1f-9c25-4f96-91b4-63a215418d25"},"vehicle_type_id":"4","last_reported":1711822171,"current_range_meters":27200,"station_id":"ce4bgph2rcd13ifvqc2g","pricing_plan_id":"cebpf4jnsgd1na2vs0mg"},{"bike_id":"22b19d60-1b75-4328-81e4-7fc097fd3970","system_id":"levelo_inurba_marseille","lat":43.29315,"lon":5.37179,"is_reserved":false,"is_disabled":false,"rental_uris":{"android":"levelo://app?vid=22b19d60-1b75-4328-81e4-7fc097fd3970","ios":"levelo://app?vid=22b19d60-1b75-4328-81e4-7fc097fd3970"},"vehicle_type_id":"4","last_reported":1711822171,"current_range_meters":5200,"station_id":"ce4bgh92rcd13ifvqb40","pricing_plan_id":"cebpf4jnsgd1na2vs0mg"},{"bike_id":"c286a0c1-767b-403c-85ad-80229f3ceba6","system_id":"levelo_inurba_marseille","lat":43.292749,"lon":5.368402,"is_reserved":false,"is_disabled":false,"rental_uris":{"android":"levelo://app?vid=c286a0c1-767b-403c-85ad-80229f3ceba6","ios":"levelo://app?vid=c286a0c1-767b-403c-85ad-80229f3ceba6"},"vehicle_type_id":"4","last_reported":1711822171,"current_range_meters":14800,"station_id":"ce4bhbp2rcd13ifvqesg","pricing_plan_id":"cebpf4jnsgd1na2vs0mg"},{"bike_id":"6db705a4-7f3d-48d7-9337-393c44b342a9","system_id":"levelo_inurba_marseille","lat":43.292749,"lon":5.368402,"is_reserved":false,"is_disabled":false,"rental_uris":{"android":"levelo://app?vid=6db705a4-7f3d-48d7-9337-393c44b342a9","ios":"levelo://app?vid=6db705a4-7f3d-48d7-9337-393c44b342a9"},"vehicle_type_id":"4","last_reported":1711822171,"current_range_meters":0,"station_id":"ce4bhbp2rcd13ifvqesg","pricing_plan_id":"cebpf4jnsgd1na2vs0mg"},{"bike_id":"77b07b50-9b23-495d-acb6-3e8c801d0f71","system_id":"levelo_inurba_marseille","lat":43.292749,"lon":5.368402,"is_reserved":false,"is_disabled":false,"rental_uris":{"android":"levelo://app?vid=77b07b50-9b23-495d-acb6-3e8c801d0f71","ios":"levelo://app?vid=77b07b50-9b23-495d-acb6-3e8c801d0f71"},"vehicle_type_id":"4","last_reported":1711822171,"current_range_meters":12400,"station_id":"ce4bhbp2rcd13ifvqesg","pricing_plan_id":"cebpf4jnsgd1na2vs0mg"},{"bike_id":"eb180680-986e-43ed-83cf-bc7988df27cc","system_id":"levelo_inurba_marseille","lat":43.293259,"lon":5.371586,"is_reserved":false,"is_disabled":false,"rental_uris":{"android":"levelo://app?vid=eb180680-986e-43ed-83cf-bc7988df27cc","ios":"levelo://app?vid=eb180680-986e-43ed-83cf-bc7988df27cc"},"vehicle_type_id":"4","last_reported":1711822171,"current_range_meters":23200,"station_id":"ce4bgh92rcd13ifvqb40","pricing_plan_id":"cebpf4jnsgd1na2vs0mg"},{"bike_id":"57495fd0-90b6-4a87-ab16-a3ac29cc4e8d","system_id":"levelo_inurba_marseille","lat":43.293259,"lon":5.371586,"is_reserved":false,"is_disabled":false,"rental_uris":{"android":"levelo://app?vid=57495fd0-90b6-4a87-ab16-a3ac29cc4e8d","ios":"levelo://app?vid=57495fd0-90b6-4a87-ab16-a3ac29cc4e8d"},"vehicle_type_id":"4","last_reported":1711822171,"current_range_meters":18400,"station_id":"ce4bgh92rcd13ifvqb40","pricing_plan_id":"cebpf4jnsgd1na2vs0mg"},{"bike_id":"b2866c39-0b09-4020-9847-3f3a69f6f6fd","system_id":"levelo_inurba_marseille","lat":43.293249,"lon":5.371578,"is_reserved":false,"is_disabled":false,"rental_uris":{"android":"levelo://app?vid=b2866c39-0b09-4020-9847-3f3a69f6f6fd","ios":"levelo://app?vid=b2866c39-0b09-4020-9847-3f3a69f6f6fd"},"vehicle_type_id":"4","last_reported":1711822171,"current_range_meters":5200,"station_id":"ce4bgh92rcd13ifvqb40","pricing_plan_id":"cebpf4jnsgd1na2vs0mg"},{"bike_id":"0056cbb9-32a2-4e64-90b3-39ca03cb6ea1","system_id":"levelo_inurba_marseille","lat":43.292749,"lon":5.368402,"is_reserved":false,"is_disabled":false,"rental_uris":{"android":"levelo://app?vid=0056cbb9-32a2-4e64-90b3-39ca03cb6ea1","ios":"levelo://app?vid=0056cbb9-32a2-4e64-90b3-39ca03cb6ea1"},"vehicle_type_id":"4","last_reported":1711822171,"current_range_meters":1200,"station_id":"ce4bhbp2rcd13ifvqesg","pricing_plan_id":"cebpf4jnsgd1na2vs0mg"},{"bike_id":"ae1868d9-ca1c-4e75-8c79-b86586d0d6d3","system_id":"levelo_inurba_marseille","lat":43.292749,"lon":5.368402,"is_reserved":false,"is_disabled":false,"rental_uris":{"android":"levelo://app?vid=ae1868d9-ca1c-4e75-8c79-b86586d0d6d3","ios":"levelo://app?vid=ae1868d9-ca1c-4e75-8c79-b86586d0d6d3"},"vehicle_type_id":"4","last_reported":1711822171,"current_range_meters":20400,"station_id":"ce4bhbp2rcd13ifvqesg","pricing_plan_id":"cebpf4jnsgd1na2vs0mg"},{"bike_id":"1179b373-ecbd-4e60-bc35-14e349f7d3ab","system_id":"levelo_inurba_marseille","lat":43.292749,"lon":5.368402,"is_reserved":false,"is_disabled":false,"rental_uris":{"android":"levelo://app?vid=1179b373-ecbd-4e60-bc35-14e349f7d3ab","ios":"levelo://app?vid=1179b373-ecbd-4e60-bc35-14e349f7d3ab"},"vehicle_type_id":"4","last_reported":1711822171,"current_range_meters":4800,"station_id":"ce4bhbp2rcd13ifvqesg","pricing_plan_id":"cebpf4jnsgd1na2vs0mg"},{"bike_id":"ee136d36-75f1-471c-b907-26eb26bfc15f","system_id":"levelo_inurba_marseille","lat":43.29277,"lon":5.36837,"is_reserved":false,"is_disabled":false,"rental_uris":{"android":"levelo://app?vid=ee136d36-75f1-471c-b907-26eb26bfc15f","ios":"levelo://app?vid=ee136d36-75f1-471c-b907-26eb26bfc15f"},"vehicle_type_id":"4","last_reported":1711822171,"current_range_meters":0,"station_id":"ce4bhbp2rcd13ifvqesg","pricing_plan_id":"cebpf4jnsgd1na2vs0mg"},{"bike_id":"3d3d1495-1af5-45be-b0ae-04473954a347","system_id":"levelo_inurba_marseille","lat":43.292771,"lon":5.368435,"is_reserved":false,"is_disabled":false,"rental_uris":{"android":"levelo://app?vid=3d3d1495-1af5-45be-b0ae-04473954a347","ios":"levelo://app?vid=3d3d1495-1af5-45be-b0ae-04473954a347"},"vehicle_type_id":"4","last_reported":1711822171,"current_range_meters":10800,"station_id":"","pricing_plan_id":"cebpf4jnsgd1na2vs0mg"},{"bike_id":"6aa90d4e-427f-4b0c-880c-162f326cb650","system_id":"levelo_inurba_marseille","lat":43.29277,"lon":5.36841,"is_reserved":false,"is_disabled":false,"rental_uris":{"android":"levelo://app?vid=6aa90d4e-427f-4b0c-880c-162f326cb650","ios":"levelo://app?vid=6aa90d4e-427f-4b0c-880c-162f326cb650"},"vehicle_type_id":"4","last_reported":1711822171,"current_range_meters":12000,"station_id":"ce4bhch2rcd13ifvqeug","pricing_plan_id":"cebpf4jnsgd1na2vs0mg"},{"bike_id":"9c9eaf9e-88d2-4cfe-a8c0-67d5c729e882","system_id":"levelo_inurba_marseille","lat":43.292749,"lon":5.368402,"is_reserved":false,"is_disabled":false,"rental_uris":{"android":"levelo://app?vid=9c9eaf9e-88d2-4cfe-a8c0-67d5c729e882","ios":"levelo://app?vid=9c9eaf9e-88d2-4cfe-a8c0-67d5c729e882"},"vehicle_type_id":"4","last_reported":1711822171,"current_range_meters":8800,"station_id":"ce4bhbp2rcd13ifvqesg","pricing_plan_id":"cebpf4jnsgd1na2vs0mg"},{"bike_id":"23c88f89-534b-402d-ae7a-2f0d522aebf7","system_id":"levelo_inurba_marseille","lat":43.292749,"lon":5.368402,"is_reserved":false,"is_disabled":false,"rental_uris":{"android":"levelo://app?vid=23c88f89-534b-402d-ae7a-2f0d522aebf7","ios":"levelo://app?vid=23c88f89-534b-402d-ae7a-2f0d522aebf7"},"vehicle_type_id":"4","last_reported":1711822171,"current_range_meters":10800,"station_id":"ce4bhbp2rcd13ifvqesg","pricing_plan_id":"cebpf4jnsgd1na2vs0mg"},{"bike_id":"6e7fd4d7-07b6-49c6-b5e3-d791a16e0c0d","system_id":"levelo_inurba_marseille","lat":43.292749,"lon":5.368402,"is_reserved":false,"is_disabled":false,"rental_uris":{"android":"levelo://app?vid=6e7fd4d7-07b6-49c6-b5e3-d791a16e0c0d","ios":"levelo://app?vid=6e7fd4d7-07b6-49c6-b5e3-d791a16e0c0d"},"vehicle_type_id":"4","last_reported":1711822171,"current_range_meters":2000,"station_id":"ce4bhbp2rcd13ifvqesg","pricing_plan_id":"cebpf4jnsgd1na2vs0mg"},