{"last_updated":1728799941,"ttl":60,"version":"2.2","data":{"bikes":[{"bike_id":"18ab750d-3ab0-435f-b6bb-cd6add02f5f6","system_id":"levelo_inurba_marseille","lat":43.28026,"lon":5.36941,"is_reserved":false,"is_disabled":false,"rental_uris":{"android":"levelo://app?vid=18ab750d-3ab0-435f-b6bb-cd6add02f5f6","ios":"levelo://app?vid=18ab750d-3ab0-435f-b6bb-cd6add02f5f6"},"vehicle_type_id":"4","last_reported":1728799941,"current_range_meters":37600,"station_id":"ce4bha12rcd13ifvqef0","pricing_plan_id":"cebpf4jnsgd1na2vs0mg"},{"bike_id":"a88cc3d5-4214-4799-a463-c01d33dbb23e","system_id":"levelo_inurba_marseille","lat":43.24997,"lon":5.38918,"is_reserved":false,"is_disabled":false,"rental_uris":{"android":"levelo://app?vid=a88cc3d5-4214-4799-a463-c01d33dbb23e","ios":"levelo://app?vid=a88cc3d5-4214-4799-a463-c01d33dbb23e"},"vehicle_type_id":"4","last_reported":1728799941,"current_range_meters":17200,"station_id":"ce4bhgp2rcd13ifvqfd0","pricing_plan_id":"cebpf4jnsgd1na2vs0mg"},{"bike_id":"8a36bb65-dd05-437f-adaf-66c35c91f8ff","system_id":"levelo_inurba_marseille","lat":43.2417,"lon":5.36397,"is_reserved":false,"is_disabled":false,"rental_uris":{"android":"levelo://app?vid=8a36bb65-dd05-437f-adaf-66c35c91f8ff","ios":"levelo://app?vid=8a36bb65-dd05-437f-adaf-66c35c91f8ff"},"vehicle_type_id":"4","last_reported":1728799941,"current_range_meters":36800,"station_id":"cpo36qri1sfpv3e86is0","pricing_plan_id":"cebpf4jnsgd1na2vs0mg"},{"bike_id":"be49e04f-56dd-4b61-b13c-bf6a68f1f153","system_id":"levelo_inurba_marseille","lat":43.28704,"lon":5.3998,"is_reserved":false,"is_disabled":false,"rental_uris":{"android":"levelo://app?vid=be49e04f-56dd-4b61-b13c-bf6a68f1f153","ios":"levelo://app?vid=be49e04f-56dd-4b61-b13c-bf6a68f1f153"},"vehicle_type_id":"4","last_reported":1728799941,"current_range_meters":30800,"station_id":"ce4bho92rcd13ifvqh3g","pricing_plan_id":"cebpf4jnsgd1na2vs0mg"},{"bike_id":"480c36bc-dd66-41df-b09a-76735c76211b","system_id":"levelo_inurba_marseille","lat":43.279913,"lon":5.416571,"is_reserved":false,"is_disabled":false,"rental_uris":{"android":"levelo://app?vid=480c36bc-dd66-41df-b09a-76735c76211b","ios":"levelo://app?vid=480c36bc-dd66-41df-b09a-76735c76211b"},"vehicle_type_id":"4","last_reported":1728799941,"current_range_meters":36800,"station_id":"ce4bho12rcd13ifvqh1g","pricing_plan_id":"cebpf4jnsgd1na2vs0mg"},{"bike_id":"4b535c61-fb6f-4b85-8290-d37a5e9d2e4b","system_id":"levelo_inurba_marseille","lat":43.279075,"lon":5.38001,"is_reserved":false,"is_disabled":false,"rental_uris":{"android":"levelo://app?vid=4b535c61-fb6f-4b85-8290-d37a5e9d2e4b","ios":"levelo://app?vid=4b535c61-fb6f-4b85-8290-d37a5e9d2e4b"},"vehicle_type_id":"4","last_reported":1728799941,"current_range_meters":35600,"station_id":"ce4bhf92rcd13ifvqf50","pricing_plan_id":"cebpf4jnsgd1na2vs0mg"},{"bike_id":"102471ee-d485-4122-8a0e-2f43e101d172","system_id":"levelo_inurba_marseille","lat":43.28718,"lon":5.36097,"is_reserved":false,"is_disabled":false,"rental_uris":{"android":"levelo://app?vid=102471ee-d485-4122-8a0e-2f43e101d172","ios":"levelo://app?vid=102471ee-d485-4122-8a0e-2f43e101d172"},"vehicle_type_id":"4","last_reported":1728799941,"current_range_meters":37600,"station_id":"cki0cbj6b192h4jlfktg","pricing_plan_id":"cebpf4jnsgd1na2vs0mg"},{"bike_id":"5eed5274-8a1f-4d73-bcad-e2fdf847a1da","system_id":"levelo_inurba_marseille","lat":43.30793,"lon":5.43523,"is_reserved":false,"is_disabled":false,"rental_uris":{"android":"levelo://app?vid=5eed5274-8a1f-4d73-bcad-e2fdf847a1da","ios":"levelo://app?vid=5eed5274-8a1f-4d73-bcad-e2fdf847a1da"},"vehicle_type_id":"4","last_reported":1728799941,"current_range_meters":38800,"station_id":"ce4bhph2rcd13ifvqheg","pricing_plan_id":"cebpf4jnsgd1na2vs0mg"},{"bike_id":"a2f60892-90a8-437a-a8aa-bdb16f23fcc3","system_id":"levelo_inurba_marseille","lat":43.3046,"lon":5.37894,"is_reserved":false,"is_disabled":false,"rental_uris":{"android":"levelo://app?vid=a2f60892-90a8-437a-a8aa-bdb16f23fcc3","ios":"levelo://app?vid=a2f60892-90a8-437a-a8aa-bdb16f23fcc3"},"vehicle_type_id":"4","last_reported":1728799941,"current_range_meters":39200,"station_id":"ce4bgup2rcd13ifvqcn0","pricing_plan_id":"cebpf4jnsgd1na2vs0mg"},{"bike_id":"0cd993dc-190c-4d56-bce5-0c30cce473ad","system_id":"levelo_inurba_marseille","lat":43.33021,"lon":5.39034,"is_reserved":false,"is_disabled":false,"rental_uris":{"android":"levelo://app?vid=0cd993dc-190c-4d56-bce5-0c30cce473ad","ios":"levelo://app?vid=0cd993dc-190c-4d56-bce5-0c30cce473ad"},"vehicle_type_id":"4","last_reported":1728799941,"current_range_meters":38800,"station_id":"ce4bhr92rcd13ifvqhrg","pricing_plan_id":"cebpf4jnsgd1na2vs0mg"},{"bike_id":"e49be7dd-1e95-4af1-8431-31f4173ce85d","system_id":"levelo_inurba_marseille","lat":43.32103,"lon":5.36766,"is_reserved":false,"is_disabled":false,"rental_uris":{"android":"levelo://app?vid=e49be7dd-1e95-4af1-8431-31f4173ce85d","ios":"levelo://app?vid=e49be7dd-1e95-4af1-8431-31f4173ce85d"},"vehicle_type_id":"4","last_reported":1728799941,"current_range_meters":38000,"station_id":"ce4bhrh2rcd13ifvqhug","pricing_plan_id":"cebpf4jnsgd1na2vs0mg"},{"bike_id":"6143dcf9-c681-4212-af02-af18735f4829","system_id":"levelo_inurba_marseille","lat":43.284089,"lon":5.375186,"is_reserved":false,"is_disabled":false,"rental_uris":{"android":"levelo://app?vid=6143dcf9-c681-4212-af02-af18735f4829","ios":"levelo://app?vid=6143dcf9-c681-4212-af02-af18735f4829"},"vehicle_type_id":"4","last_reported":1728799941,"current_range_meters":38000,"station_id":"ce4bh412rcd13ifvqds0","pricing_plan_id":"cebpf4jnsgd1na2vs0mg"},{"bike_id":"61432fa4-e69a-43e1-a752-60da459a1e2e","system_id":"levelo_inurba_marseille","lat":43.33728,"lon":5.39187,"is_reserved":false,"is_disabled":false,"rental_uris":{"android":"levelo://app?vid=61432fa4-e69a-43e1-a752-60da459a1e2e","ios":"levelo://app?vid=61432fa4-e69a-43e1-a752-60da459a1e2e"},"vehicle_type_id":"4","last_reported":1728799941,"current_range_meters":33600,"station_id":"ce4bhr92rcd13ifvqhsg","pricing_plan_id":"cebpf4jnsgd1na2vs0mg"},{"bike_id":"6dfa1c15-62e5-4156-9ffa-4e5064dfd4c4","system_id":"levelo_inurba_marseille","lat":43.25106,"lon":5.40323,"is_reserved":false,"is_disabled":false,"rental_uris":{"android":"levelo://app?vid=6dfa1c15-62e5-4156-9ffa-4e5064dfd4c4","ios":"levelo://app?vid=6dfa1c15-62e5-4156-9ffa-4e5064dfd4c4"},"vehicle_type_id":"4","last_reported":1728799941,"current_range_meters":38000,"station_id":"ce4bhlh2rcd13ifvqgig","pricing_plan_id":"cebpf4jnsgd1na2vs0mg"},{"bike_id":"0c63c1bc-9327-445f-80ab-9d459abee4b1","system_id":"levelo_inurba_marseille","lat":43.31714,"lon":5.4371,"is_reserved":false,"is_disabled":false,"rental_uris":{"android":"levelo://app?vid=0c63c1bc-9327-445f-80ab-9d459abee4b1","ios":"levelo://app?vid=0c63c1bc-9327-445f-80ab-9d459abee4b1"},"vehicle_type_id":"4","last_reported":1728799941,"current_range_meters":38800,"station_id":"ce4bhp92rcd13ifvqhcg","pricing_plan_id":"cebpf4jnsgd1na2vs0mg"},{"bike_id":"2bbefd26-2c7c-4782-8855-de09b398c1d5","system_id":"levelo_inurba_marseille","lat":43.279,"lon":5.38007,"is_reserved":false,"is_disabled":false,"rental_uris":{"android":"levelo://app?vid=2bbefd26-2c7c-4782-8855-de09b398c1d5","ios":"levelo://app?vid=2bbefd26-2c7c-4782-8855-de09b398c1d5"},"vehicle_type_id":"4","last_reported":1728799941,"current_range_meters":15200,"station_id":"ce4bhf92rcd13ifvqf50","pricing_plan_id":"cebpf4jnsgd1na2vs0mg"},{"bike_id":"0ee8ad9a-b6fd-4d3f-832f-488c11776be5","system_id":"levelo_inurba_marseille","lat":43.27172,"lon":5.40986,"is_reserved":false,"is_disabled":false,"rental_uris":{"android":"levelo://app?vid=0ee8ad9a-b6fd-4d3f-832f-488c11776be5","ios":"levelo://app?vid=0ee8ad9a-b6fd-4d3f-832f-488c11776be5"},"vehicle_type_id":"4","last_reported":1728799941,"current_range_meters":37600,"station_id":"ce4bhl12rcd13ifvqgf0","pricing_plan_id":"cebpf4jnsgd1na2vs0mg"},{"bike_id":"a77400de-760c-4351-a0b4-e8d54db19d3a","system_id":"levelo_inurba_marseille","lat":43.27378,"lon":5.36261,"is_reserved":false,"is_disabled":false,"rental_uris":{"android":"levelo://app?vid=a77400de-760c-4351-a0b4-e8d54db19d3a","ios":"levelo://app?vid=a77400de-760c-4351-a0b4-e8d54db19d3a"},"vehicle_type_id":"4","last_reported":1728799941,"current_range_meters":38800,"station_id":"ce4bhbh2rcd13ifvqeo0","pricing_plan_id":"cebpf4jnsgd1na2vs0mg"},{"bike_id":"c5c33660-077d-4f97-b2f0-40691ac09116","system_id":"levelo_inurba_marseille","lat":43.2439,"lon":5.37064,"is_reserved":false,"is_disabled":false,"rental_uris":{"android":"levelo://app?vid=c5c33660-077d-4f97-b2f0-40691ac09116","ios":"levelo://app?vid=c5c33660-077d-4f97-b2f0-40691ac09116"},"vehicle_type_id":"4","last_reported":1728799941,"current_range_meters":35600,"station_id":"ce4bhhh2rcd13ifvqfk0","pricing_plan_id":"cebpf4jnsgd1na2vs0mg"},{"bike_id":"931d1f9c-4cb2-40a2-a856-914a1c55fcf3","system_id":"levelo_inurba_marseille","lat":43.24571,"lon":5.41662,"is_reserved":false,"is_disabled":false,"rental_uris":{"android":"levelo://app?vid=931d1f9c-4cb2-40a2-a856-914a1c55fcf3","ios":"levelo://app?vid=931d1f9c-4cb2-40a2-a856-914a1c55fcf3"},"vehicle_type_id":"4","last_reported":1728799941,"current_range_meters":8400,"station_id":"","pricing_plan_id":"cebpf4jnsgd1na2vs0mg"},{"bike_id":"7ae8277d-142e-4a38-8954-9d74bf3121f9","system_id":"levelo_inurba_marseille","lat":43.29274,"lon":5.40131,"is_reserved":false,"is_disabled":false,"rental_uris":{"android":"levelo://app?vid=7ae8277d-142e-4a38-8954-9d74bf3121f9","ios":"levelo://app?vid=7ae8277d-142e-4a38-8954-9d74bf3121f9"},"vehicle_type_id":"4","last_reported":1728799941,"current_range_meters":38000,"station_id":"ce4bh312rcd13ifvqdk0","pricing_plan_id":"cebpf4jnsgd1na2vs0mg"},{"bike_id":"36ca0ca8-90a4-490c-8d77-4000acac3807","system_id":"levelo_inurba_marseille","lat":43.28441,"lon":5.39204,"is_reserved":false,"is_disabled":false,"rental_uris":{"android":"levelo://app?vid=36ca0ca8-90a4-490c-8d77-4000acac3807","ios":"levelo://app?vid=36ca0ca8-90a4-490c-8d77-4000acac3807"},"vehicle_type_id":"4","last_reported":1728799941,"current_range_meters":5600,"station_id":"ce4bhoh2rcd13ifvqh5g","pricing_plan_id":"cebpf4jnsgd1na2vs0mg"},{"bike_id":"5eb74bb7-b9c8-4284-954c-9595665900f1","system_id":"levelo_inurba_marseille","lat":43.3108,"lon":5.4243,"is_reserved":false,"is_disabled":false,"rental_uris":{"android":"levelo://app?vid=5eb74bb7-b9c8-4284-954c-9595665900f1","ios":"levelo://app?vid=5eb74bb7-b9c8-4284-954c-9595665900f1"},"vehicle_type_id":"4","last_reported":1728799941,"current_range_meters":32800,"station_id":"ce4bhp92rcd13ifvqhag","pricing_plan_id":"cebpf4jnsgd1na2vs0mg"},{"bike_id":"eb69c496-fd74-4e0a-badd-9b02b5c683c7","system_id":"levelo_inurba_marseille","lat":43.28467,"lon":5.3843,"is_reserved":false,"is_disabled":false,"rental_uris":{"android":"levelo://app?vid=eb69c496-fd74-4e0a-badd-9b02b5c683c7","ios":"levelo://app?vid=eb69c496-fd74-4e0a-badd-9b02b5c683c7"},"vehicle_type_id":"4","last_reported":1728799941,"current_range_meters":9600,"station_id":"ce4bh512rcd13ifvqe3g","pricing_plan_id":"cebpf4jnsgd1na2vs0mg"},{"bike_id":"e801b4e3-a8c8-4f7c-aab0-7ce64d067833","system_id":"levelo_inurba_marseille","lat":43.30146,"lon":5.38079,"is_reserved":false,"is_disabled":false,"rental_uris":{"android":"levelo://app?vid=e801b4e3-a8c8-4f7c-aab0-7ce64d067833","ios":"levelo://app?vid=e801b4e3-a8c8-4f7c-aab0-7ce64d067833"},"vehicle_type_id":"4","last_reported":1728799941,"current_range_meters":36800,"station_id":"ce4bgjp2rcd13ifvqbh0","pricing_plan_id":"cebpf4jnsgd1na2vs0mg"},{"bike_id":"926360cb-427c-43f3-8311-96475c2329be","system_id":"levelo_inurba_marseille","lat":43.27433,"lon":5.39409,"is_reserved":false,"is_disabled":false,"rental_uris":{"android":"levelo://app?vid=926360cb-427c-43f3-8311-96475c2329be","ios":"levelo://app?vid=926360cb-427c-43f3-8311-96475c2329be"},"vehicle_type_id":"4","last_reported":1728799941,"current_range_meters":28800,"station_id":"ce4bhdp2rcd13ifvqf20","pricing_plan_id":"cebpf4jnsgd1na2vs0mg"},{"bike_id":"605fb24e-2807-4c08-854f-1b2eb0039a3a","system_id":"levelo_inurba_marseille","lat":43.27843,"lon":5.39231,"is_reserved":false,"is_disabled":false,"rental_uris":{"android":"levelo://app?vid=605fb24e-2807-4c08-854f-1b2eb0039a3a","ios":"levelo://app?vid=605fb24e-2807-4c08-854f-1b2eb0039a3a"},"vehicle_type_id":"4","last_reported":1728799941,"current_range_meters":38800,"station_id":"ce4bhjp2rcd13ifvqga0","pricing_plan_id":"cebpf4jnsgd1na2vs0mg"},{"bike_id":"dee41c9d-caa5-4b3f-857d-6226540d0c76","system_id":"levelo_inurba_marseille","lat":43.29041,"lon":5.35887,"is_reserved":false,"is_disabled":false,"rental_uris":{"android":"levelo://app?vid=dee41c9d-caa5-4b3f-857d-6226540d0c76","ios":"levelo://app?vid=dee41c9d-caa5-4b3f-857d-6226540d0c76"},"vehicle_type_id":"4","last_reported":1728799941,"current_range_meters":37600,"station_id":"ce4bha92rcd13ifvqeg0","pricing_plan_id":"cebpf4jnsgd1na2vs0mg"},{"bike_id":"0efb5f8a-ae8c-4665-8d55-4d630707f077","system_id":"levelo_inurba_marseille","lat":43.28457,"lon":5.35887,"is_reserved":false,"is_disabled":false,"rental_uris":{"android":"levelo://app?vid=0efb5f8a-ae8c-4665-8d55-4d630707f077","ios":"levelo://app?vid=0efb5f8a-ae8c-4665-8d55-4d630707f077"},"vehicle_type_id":"4","last_reported":1728799941,"current_range_meters":32400,"station_id":"ce4bhah2rcd13ifvqei0","pricing_plan_id":"cebpf4jnsgd1na2vs0mg"},{"bike_id":"7bc6d464-6b9c-4c8d-8ab5-4665e63ed911","system_id":"levelo_inurba_marseille","lat":43.31673,"lon":5.37737,"is_reserved":false,"is_disabled":false,"rental_uris":{"android":"levelo://app?vid=7bc6d464-6b9c-4c8d-8ab5-4665e63ed911","ios":"levelo://app?vid=7bc6d464-6b9c-4c8d-8ab5-4665e63ed911"},"vehicle_type_id":"4","last_reported":1728799941,"current_range_meters":17600,"station_id":"ce4bgth2rcd13ifvqch0","pricing_plan_id":"cebpf4jnsgd1na2vs0mg"},{"bike_id":"f0d02166-6936-4e58-ac35-f5a54df6c97a","system_id":"levelo_inurba_marseille","lat":43.302951,"lon":5.392096,"is_reserved":false,"is_disabled":false,"rental_uris":{"android":"levelo://app?vid=f0d02166-6936-4e58-ac35-f5a54df6c97a","ios":"levelo://app?vid=f0d02166-6936-4e58-ac35-f5a54df6c97a"},"vehicle_type_id":"4","last_reported":1728799941,"current_range_meters":36000,"station_id":"ce4bgkh2rcd13ifvqbk0","pricing_plan_id":"cebpf4jnsgd1na2vs0mg"},{"bike_id":"b931e51e-e774-4113-82e5-f8b1d492d8b7","system_id":"levelo_inurba_marseille","lat":43.260594,"lon":5.393969,"is_reserved":false,"is_disabled":false,"rental_uris":{"android":"levelo://app?vid=b931e51e-e774-4113-82e5-f8b1d492d8b7","ios":"levelo://app?vid=b931e51e-e774-4113-82e5-f8b1d492d8b7"},"vehicle_type_id":"4","last_reported":1728799941,"current_range_meters":35600,"station_id":"ce4bhh92rcd13ifvqfj0","pricing_plan_id":"cebpf4jnsgd1na2vs0mg"},{"bike_id":"372c80c0-e97f-485d-bdfa-e40c2384a065","system_id":"levelo_inurba_marseille","lat":43.31695,"lon":5.37762,"is_reserved":false,"is_disabled":false,"rental_uris":{"android":"levelo://app?vid=372c80c0-e97f-485d-bdfa-e40c2384a065","ios":"levelo://app?vid=372c80c0-e97f-485d-bdfa-e40c2384a065"},"vehicle_type_id":"4","last_reported":1728799941,"current_range_meters":38800,"station_id":"ce4bgth2rcd13ifvqch0","pricing_plan_id":"cebpf4jnsgd1na2vs0mg"},{"bike_id":"6b2daff3-9851-4dff-9081-e0ec010599e4","system_id":"levelo_inurba_marseille","lat":43.314515,"lon":5.37384,"is_reserved":false,"is_disabled":false,"rental_uris":{"android":"levelo://app?vid=6b2daff3-9851-4dff-9081-e0ec010599e4","ios":"levelo://app?vid=6b2daff3-9851-4dff-9081-e0ec010599e4"},"vehicle_type_id":"4","last_reported":1728799941,"current_range_meters":33600,"station_id":"","pricing_plan_id":"cebpf4jnsgd1na2vs0mg"},{"bike_id":"6f68d79b-bdbe-417d-a066-1075381457a2","system_id":"levelo_inurba_marseille","lat":43.24667,"lon":5.38159,"is_reserved":false,"is_disabled":false,"rental_uris":{"android":"levelo://app?vid=6f68d79b-bdbe-417d-a066-1075381457a2","ios":"levelo://app?vid=6f68d79b-bdbe-417d-a066-1075381457a2"},"vehicle_type_id":"4","last_reported":1728799941,"current_range_meters":13600,"station_id":"ce4bhih2rcd13ifvqfr0","pricing_plan_id":"cebpf4jnsgd1na2vs0mg"},{"bike_id":"f8fd929e-ef12-4998-8e1d-12522bd05de2","system_id":"levelo_inurba_marseille","lat":43.33024,"lon":5.39044,"is_reserved":false,"is_disabled":false,"rental_uris":{"android":"levelo://app?vid=f8fd929e-ef12-4998-8e1d-12522bd05de2","ios":"levelo://app?vid=f8fd929e-ef12-4998-8e1d-12522bd05de2"},"vehicle_type_id":"4","last_reported":1728799941,"current_range_meters":38400,"station_id":"ce4bhr92rcd13ifvqhrg","pricing_plan_id":"cebpf4jnsgd1na2vs0mg"},{"bike_id":"bd573882-2cfa-467e-9721-18b43c87ec47","system_id":"levelo_inurba_marseille","lat":43.32532,"lon":5.41436,"is_reserved":false,"is_disabled":false,"rental_uris":{"android":"levelo://app?vid=bd573882-2cfa-467e-9721-18b43c87ec47","ios":"levelo://app?vid=bd573882-2cfa-467e-9721-18b43c87ec47"},"vehicle_type_id":"4","last_reported":1728799941,"current_range_meters":32400,"station_id":"ce4bhq12rcd13ifvqhhg","pricing_plan_id":"cebpf4jnsgd1na2vs0mg"},{"bike_id":"ab8854fc-a6ad-4add-b026-24b7b1135b17","system_id":"levelo_inurba_marseille","lat":43.29811,"lon":5.38084,"is_reserved":false,"is_disabled":false,"rental_uris":{"android":"levelo://app?vid=ab8854fc-a6ad-4add-b026-24b7b1135b17","ios":"levelo://app?vid=ab8854fc-a6ad-4add-b026-24b7b1135b17"},"vehicle_type_id":"4","last_reported":1728799941,"current_range_meters":22800,"station_id":"ce4bgip2rcd13ifvqbb0","pricing_plan_id":"cebpf4jnsgd1na2vs0mg"},{"bike_id":"7fd1cae2-c0ec-41e3-baae-0e095464e86c","system_id":"levelo_inurba_marseille","lat":43.29534,"lon":5.3999,"is_reserved":false,"is_disabled":false,"rental_uris":{"android":"levelo://app?vid=7fd1cae2-c0ec-41e3-baae-0e095464e86c","ios":"levelo://app?vid=7fd1cae2-c0ec-41e3-baae-0e095464e86c"},"vehicle_type_id":"4","last_reported":1728799941,"current_range_meters":12400,"station_id":"ce4bh312rcd13ifvqdj0","pricing_plan_id":"cebpf4jnsgd1na2vs0mg"},{"bike_id":"70d121b6-156a-4870-9294-75ae3da288bc","system_id":"levelo_inurba_marseille","lat":43.26942,"lon":5.40261,"is_reserved":false,"is_disabled":false,"rental_uris":{"android":"levelo://app?vid=70d121b6-156a-4870-9294-75ae3da288bc","ios":"levelo://app?vid=70d121b6-156a-4870-9294-75ae3da288bc"},"vehicle_type_id":"4","last_reported":1728799941,"current_range_meters":39200,"station_id":"cjm6bp8fraef2m0cb0m0","pricing_plan_id":"cebpf4jnsgd1na2vs0mg"},{"bike_id":"fa08456f-0316-46ca-b497-6c7d63a7f841","system_id":"levelo_inurba_marseille","lat":43.23189,"lon":5.35541,"is_reserved":false,"is_disabled":false,"rental_uris":{"android":"levelo://app?vid=fa08456f-0316-46ca-b497-6c7d63a7f841","ios":"levelo://app?vid=fa08456f-0316-46ca-b497-6c7d63a7f841"},"vehicle_type_id":"4","last_reported":1728799941,"current_range_meters":36400,"station_id":"ce4bhu92rcd13ifvqi70","pricing_plan_id":"cebpf4jnsgd1na2vs0mg"},{"bike_id":"7042fcd7-d053-43e8-aa8f-e9acc729f925","system_id":"levelo_inurba_marseille","lat":43.306465,"lon":5.400808,"is_reserved":false,"is_disabled":false,"rental_uris":{"android":"levelo://app?vid=7042fcd7-d053-43e8-aa8f-e9acc729f925","ios":"levelo://app?vid=7042fcd7-d053-43e8-aa8f-e9acc729f925"},"vehicle_type_id":"4","last_reported":1728799941,"current_range_meters":39200,"station_id":"ce4bh112rcd13ifvqda0","pricing_plan_id":"cebpf4jnsgd1na2vs0mg"},{"bike_id":"af72dc5b-e02f-4efa-8cbd-41822bfef337","system_id":"levelo_inurba_marseille","lat":43.27986,"lon":5.40026,"is_reserved":false,"is_disabled":false,"rental_uris":{"android":"levelo://app?vid=af72dc5b-e02f-4efa-8cbd-41822bfef337","ios":"levelo://app?vid=af72dc5b-e02f-4efa-8cbd-41822bfef337"},"vehicle_type_id":"4","last_reported":1728799941,"current_range_meters":39200,"station_id":"ce4bho92rcd13ifvqh4g","pricing_plan_id":"cebpf4jnsgd1na2vs0mg"},{"bike_id":"cb1ea2b7-a6ef-43d5-a9c8-7cfc8b55f804","system_id":"levelo_inurba_marseille","lat":43.26205,"lon":5.37444,"is_reserved":false,"is_disabled":false,"rental_uris":{"android":"levelo://app?vid=cb1ea2b7-a6ef-43d5-a9c8-7cfc8b55f804","ios":"levelo://app?vid=cb1ea2b7-a6ef-43d5-a9c8-7cfc8b55f804"},"vehicle_type_id":"4","last_reported":1728799941,"current_range_meters":16000,"station_id":"ce4bhgp2rcd13ifvqfc0","pricing_plan_id":"cebpf4jnsgd1na2vs0mg"},{"bike_id":"86851483-6460-4f2a-8d92-b3b47e5c55aa","system_id":"levelo_inurba_marseille","lat":43.239598,"lon":5.366338,"is_reserved":false,"is_disabled":false,"rental_uris":{"android":"levelo://app?vid=86851483-6460-4f2a-8d92-b3b47e5c55aa","ios":"levelo://app?vid=86851483-6460-4f2a-8d92-b3b47e5c55aa"},"vehicle_type_id":"4","last_reported":1728799941,"current_range_meters":39200,"station_id":"ce4bhi12rcd13ifvqfp0","pricing_plan_id":"cebpf4jnsgd1na2vs0mg"},{"bike_id":"969f0c9f-e24e-4c9e-a033-6bb183585ce3","system_id":"levelo_inurba_marseille","lat":43.30096,"lon":5.37845,"is_reserved":false,"is_disabled":false,"rental_uris":{"android":"levelo://app?vid=969f0c9f-e24e-4c9e-a033-6bb183585ce3","ios":"levelo://app?vid=969f0c9f-e24e-4c9e-a033-6bb183585ce3"},"vehicle_type_id":"4","last_reported":1728799941,"current_range_meters":8000,"station_id":"","pricing_plan_id":"cebpf4jnsgd1na2vs0mg"},{"bike_id":"900d410e-a263-4441-80a1-af67345a66d2","system_id":"levelo_inurba_marseille","lat":43.24389,"lon":5.37065,"is_reserved":false,"is_disabled":false,"rental_uris":{"android":"levelo://app?vid=900d410e-a263-4441-80a1-af67345a66d2","ios":"levelo://app?vid=900d410e-a263-4441-80a1-af67345a66d2"},"vehicle_type_id":"4","last_reported":1728799941,"current_range_meters":16000,"station_id":"ce4bhhh2rcd13ifvqfk0","pricing_plan_id":"cebpf4jnsgd1na2vs0mg"},{"bike_id":"17484043-4344-41a9-8192-117ae71fadc8","system_id":"levelo_inurba_marseille","lat":43.27982,"lon":5.41658,"is_reserved":false,"is_disabled":false,"rental_uris":{"android":"levelo://app?vid=17484043-4344-41a9-8192-117ae71fadc8","ios":"levelo://app?vid=17484043-4344-41a9-8192-117ae71fadc8"},"vehicle_type_id":"4","last_reported":1728799941,"current_range_meters":38400,"station_id":"ce4bho12rcd13ifvqh1g","pricing_plan_id":"cebpf4jnsgd1na2vs0mg"},{"bike_id":"50deecc9-6fe4-48a3-9ee7-031626dd77eb","system_id":"levelo_inurba_marseille","lat":43.30425,"lon":5.39756,"is_reserved":false,"is_disabled":false,"rental_uris":{"android":"levelo://app?vid=50deecc9-6fe4-48a3-9ee7-031626dd77eb","ios":"levelo://app?vid=50deecc9-6fe4-48a3-9ee7-031626dd77eb"},"vehicle_type_id":"4","last_reported":1728799941,"current_range_meters":39200,"station_id":"ce4bh092rcd13ifvqd20","pricing_plan_id":"cebpf4jnsgd1na2vs0mg"},{"bike_id":"2c08b66a-f2f6-4a1d-b2e0-65007aea605a","system_id":"levelo_inurba_marseille","lat":43.301385,"lon":5.398754,"is_reserved":false,"is_disabled":false,"rental_uris":{"android":"levelo://app?vid=2c08b66a-f2f6-4a1d-b2e0-65007aea605a","ios":"levelo://app?vid=2c08b66a-f2f6-4a1d-b2e0-65007aea605a"},"vehicle_type_id":"4","last_reported":1728799941,"current_range_meters":16800,"station_id":"ce4bh0h2rcd13ifvqd40","pricing_plan_id":"cebpf4jnsgd1na2vs0mg"},{"bike_id":"1d88376c-6674-4e5c-a3c5-0340c59f28ab","system_id":"levelo_inurba_marseille","lat":43.33597,"lon":5.41017,"is_reserved":false,"is_disabled":false,"rental_uris":{"android":"levelo://app?vid=1d88376c-6674-4e5c-a3c5-0340c59f28ab","ios":"levelo://app?vid=1d88376c-6674-4e5c-a3c5-0340c59f28ab"},"vehicle_type_id":"4","last_reported":1728799941,"current_range_meters":39200,"station_id":"ce4bhqh2rcd13ifvqhmg","pricing_plan_id":"cebpf4jnsgd1na2vs0mg"},{"bike_id":"334eb7c5-e537-4478-984a-f14151edc3e5","system_id":"levelo_inurba_marseille","lat":43.31273,"lon":5.4017,"is_reserved":false,"is_disabled":false,"rental_uris":{"android":"levelo://app?vid=334eb7c5-e537-4478-984a-f14151edc3e5","ios":"levelo://app?vid=334eb7c5-e537-4478-984a-f14151edc3e5"},"vehicle_type_id":"4","last_reported":1728799941,"current_range_meters":36800,"station_id":"ce4bh092rcd13ifvqd30","pricing_plan_id":"cebpf4jnsgd1na2vs0mg"},{"bike_id":"ee3d77b2-c4c3-417a-8170-d8edb7edeab8","system_id":"levelo_inurba_marseille","lat":43.22934,"lon":5.35374,"is_reserved":false,"is_disabled":false,"rental_uris":{"android":"levelo://app?vid=ee3d77b2-c4c3-417a-8170-d8edb7edeab8","ios":"levelo://app?vid=ee3d77b2-c4c3-417a-8170-d8edb7edeab8"},"vehicle_type_id":"4","last_reported":1728799941,"current_range_meters":8800,"station_id":"cpo3532slgdg3j2ikp40","pricing_plan_id":"cebpf4jnsgd1na2vs0mg"},{"bike_id":"edbfa98d-d85b-4681-b337-04b7952a4f2a","system_id":"levelo_inurba_marseille","lat":43.30458,"lon":5.3791,"is_reserved":false,"is_disabled":false,"rental_uris":{"android":"levelo://app?vid=edbfa98d-d85b-4681-b337-04b7952a4f2a","ios":"levelo://app?vid=edbfa98d-d85b-4681-b337-04b7952a4f2a"},"vehicle_type_id":"4","last_reported":1728799941,"current_range_meters":38000,"station_id":"ce4bgup2rcd13ifvqcn0","pricing_plan_id":"cebpf4jnsgd1na2vs0mg"},{"bike_id":"b9be809a-d267-49aa-8c7f-d37dd3388355","system_id":"levelo_inurba_marseille","lat":43.336045,"lon":5.410292,"is_reserved":false,"is_disabled":false,"rental_uris":{"android":"levelo://app?vid=b9be809a-d267-49aa-8c7f-d37dd3388355","ios":"levelo://app?vid=b9be809a-d267-49aa-8c7f-d37dd3388355"},"vehicle_type_id":"4","last_reported":1728799941,"current_range_meters":24400,"station_id":"ce4bhqh2rcd13ifvqhmg","pricing_plan_id":"cebpf4jnsgd1na2vs0mg"},{"bike_id":"f74c580e-bfc6-4876-bcd3-c2cf24c400dc","system_id":"levelo_inurba_marseille","lat":43.28936,"lon":5.39624,"is_reserved":false,"is_disabled":false,"rental_uris":{"android":"levelo://app?vid=f74c580e-bfc6-4876-bcd3-c2cf24c400dc","ios":"levelo://app?vid=f74c580e-bfc6-4876-bcd3-c2cf24c400dc"},"vehicle_type_id":"4","last_reported":1728799941,"current_range_meters":38800,"station_id":"ce4bh3h2rcd13ifvqdn0","pricing_plan_id":"cebpf4jnsgd1na2vs0mg"},{"bike_id":"ac978630-ff70-41c9-a20e-53567f342b36","system_id":"levelo_inurba_marseille","lat":43.3014,"lon":5.38082,"is_reserved":false,"is_disabled":false,"rental_uris":{"android":"levelo://app?vid=ac978630-ff70-41c9-a20e-53567f342b36","ios":"levelo://app?vid=ac978630-ff70-41c9-a20e-53567f342b36"},"vehicle_type_id":"4","last_reported":1728799941,"current_range_meters":33200,"station_id":"ce4bgjp2rcd13ifvqbh0","pricing_plan_id":"cebpf4jnsgd1na2vs0mg"},{"bike_id":"f6581013-d91f-4a90-9ef7-674f4e86e30d","system_id":"levelo_inurba_marseille","lat":43.26051,"lon":5.39389,"is_reserved":false,"is_disabled":false,"rental_uris":{"android":"levelo://app?vid=f6581013-d91f-4a90-9ef7-674f4e86e30d","ios":"levelo://app?vid=f6581013-d91f-4a90-9ef7-674f4e86e30d"},"vehicle_type_id":"4","last_reported":1728799941,"current_range_meters":40000,"station_id":"ce4bhh92rcd13ifvqfj0","pricing_plan_id":"cebpf4jnsgd1na2vs0mg"},{"bike_id":"a854baa8-4497-4ebb-ad0a-8e93bd11aa9c","system_id":"levelo_inurba_marseille","lat":43.28408,"lon":5.3751,"is_reserved":false,"is_disabled":false,"rental_uris":{"android":"levelo://app?vid=a854baa8-4497-4ebb-ad0a-8e93bd11aa9c","ios":"levelo://app?vid=a854baa8-4497-4ebb-ad0a-8e93bd11aa9c"},"vehicle_type_id":"4","last_reported":1728799941,"current_range_meters":35600,"station_id":"ce4bh412rcd13ifvqds0","pricing_plan_id":"cebpf4jnsgd1na2vs0mg"},{"bike_id":"61e92425-4545-4dce-90a5-3fc12bfeda74","system_id":"levelo_inurba_marseille","lat":43.30295,"lon":5.39212,"is_reserved":false,"is_disabled":false,"rental_uris":{"android":"levelo://app?vid=61e92425-4545-4dce-90a5-3fc12bfeda74","ios":"levelo://app?vid=61e92425-4545-4dce-90a5-3fc12bfeda74"},"vehicle_type_id":"4","last_reported":1728799941,"current_range_meters":19600,"station_id":"ce4bgkh2rcd13ifvqbk0","pricing_plan_id":"cebpf4jnsgd1na2vs0mg"},{"bike_id":"7ed8bd30-01ef-4a79-9d96-188ec6d810e0","system_id":"levelo_inurba_marseille","lat":43.26555,"lon":5.38995,"is_reserved":false,"is_disabled":false,"rental_uris":{"android":"levelo://app?vid=7ed8bd30-01ef-4a79-9d96-188ec6d810e0","ios":"levelo://app?vid=7ed8bd30-01ef-4a79-9d96-188ec6d810e0"},"vehicle_type_id":"4","last_reported":1728799941,"current_range_meters":10000,"station_id":"ce4bhe12rcd13ifvqf30","pricing_plan_id":"cebpf4jnsgd1na2vs0mg"},{"bike_id":"11d2acba-9213-43b7-bee9-c635a3c3b21c","system_id":"levelo_inurba_marseille","lat":43.26547,"lon":5.37282,"is_reserved":false,"is_disabled":false,"rental_uris":{"android":"levelo://app?vid=11d2acba-9213-43b7-bee9-c635a3c3b21c","ios":"levelo://app?vid=11d2acba-9213-43b7-bee9-c635a3c3b21c"},"vehicle_type_id":"4","last_reported":1728799941,"current_range_meters":37600,"station_id":"ce4bhg12rcd13ifvqf70","pricing_plan_id":"cebpf4jnsgd1na2vs0mg"},{"bike_id":"683f70bb-8ede-4516-a8a4-3219da6c61b4","system_id":"levelo_inurba_marseille","lat":43.31119,"lon":5.37761,"is_reserved":false,"is_disabled":false,"rental_uris":{"android":"levelo://app?vid=683f70bb-8ede-4516-a8a4-3219da6c61b4","ios":"levelo://app?vid=683f70bb-8ede-4516-a8a4-3219da6c61b4"},"vehicle_type_id":"4","last_reported":1728799941,"current_range_meters":39200,"station_id":"ce4bgt92rcd13ifvqcg0","pricing_plan_id":"cebpf4jnsgd1na2vs0mg"},{"bike_id":"75ae6634-187f-4718-a29a-15e4d38e7e7c","system_id":"levelo_inurba_marseille","lat":43.30148,"lon":5.38081,"is_reserved":false,"is_disabled":false,"rental_uris":{"android":"levelo://app?vid=75ae6634-187f-4718-a29a-15e4d38e7e7c","ios":"levelo://app?vid=75ae6634-187f-4718-a29a-15e4d38e7e7c"},"vehicle_type_id":"4","last_reported":1728799941,"current_range_meters":35200,"station_id":"ce4bgjp2rcd13ifvqbh0","pricing_plan_id":"cebpf4jnsgd1na2vs0mg"},{"bike_id":"4ca0598f-fe28-40a0-9e39-8c40cc330a5d","system_id":"levelo_inurba_marseille","lat":43.28719,"lon":5.36095,"is_reserved":false,"is_disabled":false,"rental_uris":{"android":"levelo://app?vid=4ca0598f-fe28-40a0-9e39-8c40cc330a5d","ios":"levelo://app?vid=4ca0598f-fe28-40a0-9e39-8c40cc330a5d"},"vehicle_type_id":"4","last_reported":1728799941,"current_range_meters":24000,"station_id":"cki0cbj6b192h4jlfktg","pricing_plan_id":"cebpf4jnsgd1na2vs0mg"},{"bike_id":"be46f476-765f-412c-b01b-c17d3d8d1bd3","system_id":"levelo_inurba_marseille","lat":43.27825,"lon":5.39209,"is_reserved":false,"is_disabled":false,"rental_uris":{"android":"levelo://app?vid=be46f476-765f-412c-b01b-c17d3d8d1bd3","ios":"levelo://app?vid=be46f476-765f-412c-b01b-c17d3d8d1bd3"},"vehicle_type_id":"4","last_reported":1728799941,"current_range_meters":38000,"station_id":"ce4bhjp2rcd13ifvqga0","pricing_plan_id":"cebpf4jnsgd1na2vs0mg"},{"bike_id":"a24a7cd1-1662-4d3b-8a2e-fdb67593331c","system_id":"levelo_inurba_marseille","lat":43.30774,"lon":5.37647,"is_reserved":false,"is_disabled":false,"rental_uris":{"android":"levelo://app?vid=a24a7cd1-1662-4d3b-8a2e-fdb67593331c","ios":"levelo://app?vid=a24a7cd1-1662-4d3b-8a2e-fdb67593331c"},"vehicle_type_id":"4","last_reported":1728799941,"current_range_meters":38800,"station_id":"ce4bgv92rcd13ifvqcq0","pricing_plan_id":"cebpf4jnsgd1na2vs0mg"},{"bike_id":"cec1e807-225d-4073-b5be-e6b643c96f31","system_id":"levelo_inurba_marseille","lat":43.2499,"lon":5.38921,"is_reserved":false,"is_disabled":false,"rental_uris":{"android":"levelo://app?vid=cec1e807-225d-4073-b5be-e6b643c96f31","ios":"levelo://app?vid=cec1e807-225d-4073-b5be-e6b643c96f31"},"vehicle_type_id":"4","last_reported":1728799941,"current_range_meters":16000,"station_id":"ce4bhgp2rcd13ifvqfd0","pricing_plan_id":"cebpf4jnsgd1na2vs0mg"},{"bike_id":"0c5a1e5b-223f-4823-b9d2-d0b796dd3e79","system_id":"levelo_inurba_marseille","lat":43.27995,"lon":5.40022,"is_reserved":false,"is_disabled":false,"rental_uris":{"android":"levelo://app?vid=0c5a1e5b-223f-4823-b9d2-d0b796dd3e79","ios":"levelo://app?vid=0c5a1e5b-223f-4823-b9d2-d0b796dd3e79"},"vehicle_type_id":"4","last_reported":1728799941,"current_range_meters":38800,"station_id":"ce4bho92rcd13ifvqh4g","pricing_plan_id":"cebpf4jnsgd1na2vs0mg"},{"bike_id":"528f4478-dfd3-41b8-b0a8-7a1492a25f77","system_id":"levelo_inurba_marseille","lat":43.24808,"lon":5.37453,"is_reserved":false,"is_disabled":false,"rental_uris":{"android":"levelo://app?vid=528f4478-dfd3-41b8-b0a8-7a1492a25f77","ios":"levelo://app?vid=528f4478-dfd3-41b8-b0a8-7a1492a25f77"},"vehicle_type_id":"4","last_reported":1728799941,"current_range_meters":28400,"station_id":"ce4bhgh2rcd13ifvqfb0","pricing_plan_id":"cebpf4jnsgd1na2vs0mg"},{"bike_id":"b550d9a5-6d28-4849-919d-9ff3eacbcff1","system_id":"levelo_inurba_marseille","lat":43.31707,"lon":5.37757,"is_reserved":false,"is_disabled":false,"rental_uris":{"android":"levelo://app?vid=b550d9a5-6d28-4849-919d-9ff3eacbcff1","ios":"levelo://app?vid=b550d9a5-6d28-4849-919d-9ff3eacbcff1"},"vehicle_type_id":"4","last_reported":1728799941,"current_range_meters":24800,"station_id":"ce4bgth2rcd13ifvqch0","pricing_plan_id":"cebpf4jnsgd1na2vs0mg"},{"bike_id":"fce64ce7-88b3-471b-aac0-f30f3e66d244","system_id":"levelo_inurba_marseille","lat":43.25083,"lon":5.39512,"is_reserved":false,"is_disabled":false,"rental_uris":{"android":"levelo://app?vid=fce64ce7-88b3-471b-aac0-f30f3e66d244","ios":"levelo://app?vid=fce64ce7-88b3-471b-aac0-f30f3e66d244"},"vehicle_type_id":"4","last_reported":1728799941,"current_range_meters":32400,"station_id":"ce4bhm12rcd13ifvqgkg","pricing_plan_id":"cebpf4jnsgd1na2vs0mg"},{"bike_id":"83a4174b-629d-4bc4-836e-304b13210d85","system_id":"levelo_inurba_marseille","lat":43.27981,"lon":5.41651,"is_reserved":false,"is_disabled":false,"rental_uris":{"android":"levelo://app?vid=83a4174b-629d-4bc4-836e-304b13210d85","ios":"levelo://app?vid=83a4174b-629d-4bc4-836e-304b13210d85"},"vehicle_type_id":"4","last_reported":1728799941,"current_range_meters":38000,"station_id":"ce4bho12rcd13ifvqh1g","pricing_plan_id":"cebpf4jnsgd1na2vs0mg"},{"bike_id":"584bee64-0da2-4704-bddf-9fe42be26e6a","system_id":"levelo_inurba_marseille","lat":43.23964,"lon":5.36638,"is_reserved":false,"is_disabled":false,"rental_uris":{"android":"levelo://app?vid=584bee64-0da2-4704-bddf-9fe42be26e6a","ios":"levelo://app?vid=584bee64-0da2-4704-bddf-9fe42be26e6a"},"vehicle_type_id":"4","last_reported":1728799941,"current_range_meters":2800,"station_id":"ce4bhi12rcd13ifvqfp0","pricing_plan_id":"cebpf4jnsgd1na2vs0mg"},{"bike_id":"baf8ed53-e2c2-4ad3-aaa7-cc53b8bdc41d","system_id":"levelo_inurba_marseille","lat":43.309279,"lon":5.401444,"is_reserved":false,"is_disabled":false,"rental_uris":{"android":"levelo://app?vid=baf8ed53-e2c2-4ad3-aaa7-cc53b8bdc41d","ios":"levelo://app?vid=baf8ed53-e2c2-4ad3-aaa7-cc53b8bdc41d"},"vehicle_type_id":"4","last_reported":1728799941,"current_range_meters":28400,"station_id":"ce4bgvp2rcd13ifvqct0","pricing_plan_id":"cebpf4jnsgd1na2vs0mg"},{"bike_id":"3545951b-894d-4495-afdf-84cb7b3b25b3","system_id":"levelo_inurba_marseille","lat":43.23194,"lon":5.35557,"is_reserved":false,"is_disabled":false,"rental_uris":{"android":"levelo://app?vid=3545951b-894d-4495-afdf-84cb7b3b25b3","ios":"levelo://app?vid=3545951b-894d-4495-afdf-84cb7b3b25b3"},"vehicle_type_id":"4","last_reported":1728799941,"current_range_meters":35200,"station_id":"ce4bhu92rcd13ifvqi70","pricing_plan_id":"cebpf4jnsgd1na2vs0mg"},{"bike_id":"94b5b3e5-1466-4cd8-b5b3-d5cbebabce80","system_id":"levelo_inurba_marseille","lat":43.23961,"lon":5.3664,"is_reserved":false,"is_disabled":false,"rental_uris":{"android":"levelo://app?vid=94b5b3e5-1466-4cd8-b5b3-d5cbebabce80","ios":"levelo://app?vid=94b5b3e5-1466-4cd8-b5b3-d5cbebabce80"},"vehicle_type_id":"4","last_reported":1728799941,"current_range_meters":8000,"station_id":"ce4bhi12rcd13ifvqfp0","pricing_plan_id":"cebpf4jnsgd1na2vs0mg"},{"bike_id":"b238f832-4b8a-4fe0-9926-30e9cc48d552","system_id":"levelo_inurba_marseille","lat":43.30798,"lon":5.3816,"is_reserved":false,"is_disabled":false,"rental_uris":{"android":"levelo://app?vid=b238f832-4b8a-4fe0-9926-30e9cc48d552","ios":"levelo://app?vid=b238f832-4b8a-4fe0-9926-30e9cc48d552"},"vehicle_type_id":"4","last_reported":1728799941,"current_range_meters":38000,"station_id":"ce4bgt12rcd13ifvqce0","pricing_plan_id":"cebpf4jnsgd1na2vs0mg"},{"bike_id":"4566c200-8b97-4c3f-a93f-87eb55628c93","system_id":"levelo_inurba_marseille","lat":43.28665,"lon":5.36355,"is_reserved":false,"is_disabled":false,"rental_uris":{"android":"levelo://app?vid=4566c200-8b97-4c3f-a93f-87eb55628c93","ios":"levelo://app?vid=4566c200-8b97-4c3f-a93f-87eb55628c93"},"vehicle_type_id":"4","last_reported":1728799941,"current_range_meters":38800,"station_id":"ce4bhah2rcd13ifvqej0","pricing_plan_id":"cebpf4jnsgd1na2vs0mg"},{"bike_id":"f78f0412-ee71-4a24-82a9-83d0770be959","system_id":"levelo_inurba_marseille","lat":43.2835,"lon":5.38626,"is_reserved":false,"is_disabled":false,"rental_uris":{"android":"levelo://app?vid=f78f0412-ee71-4a24-82a9-83d0770be959","ios":"levelo://app?vid=f78f0412-ee71-4a24-82a9-83d0770be959"},"vehicle_type_id":"4","last_reported":1728799941,"current_range_meters":25600,"station_id":"ce4bh492rcd13ifvqdvg","pricing_plan_id":"cebpf4jnsgd1na2vs0mg"},{"bike_id":"c1fcf50c-e2ba-4e96-9763-93b8cf94a494","system_id":"levelo_inurba_marseille","lat":43.32529,"lon":5.41421,"is_reserved":false,"is_disabled":false,"rental_uris":{"android":"levelo://app?vid=c1fcf50c-e2ba-4e96-9763-93b8cf94a494","ios":"levelo://app?vid=c1fcf50c-e2ba-4e96-9763-93b8cf94a494"},"vehicle_type_id":"4","last_reported":1728799941,"current_range_meters":9200,"station_id":"ce4bhq12rcd13ifvqhhg","pricing_plan_id":"cebpf4jnsgd1na2vs0mg"},{"bike_id":"4cf4a3f5-04b0-4b03-9d5c-0555b82aefe7","system_id":"levelo_inurba_marseille","lat":43.29565,"lon":5.39969,"is_reserved":false,"is_disabled":false,"rental_uris":{"android":"levelo://app?vid=4cf4a3f5-04b0-4b03-9d5c-0555b82aefe7","ios":"levelo://app?vid=4cf4a3f5-04b0-4b03-9d5c-0555b82aefe7"},"vehicle_type_id":"4","last_reported":1728799941,"current_range_meters":38800,"station_id":"ce4bh312rcd13ifvqdj0","pricing_plan_id":"cebpf4jnsgd1na2vs0mg"},{"bike_id":"a14783a8-2d54-4635-95f6-85268a1c3c10","system_id":"levelo_inurba_marseille","lat":43.29264,"lon":5.36855,"is_reserved":false,"is_disabled":false,"rental_uris":{"android":"levelo://app?vid=a14783a8-2d54-4635-95f6-85268a1c3c10","ios":"levelo://app?vid=a14783a8-2d54-4635-95f6-85268a1c3c10"},"vehicle_type_id":"4","last_reported":1728799941,"current_range_meters":21600,"station_id":"ce4bhbp2rcd13ifvqesg","pricing_plan_id":"cebpf4jnsgd1na2vs0mg"},{"bike_id":"4cfa8b72-dc35-44da-a355-76a43e662cbd","system_id":"levelo_inurba_marseille","lat":43.286957,"lon":5.373675,"is_reserved":false,"is_disabled":false,"rental_uris":{"android":"levelo://app?vid=4cfa8b72-dc35-44da-a355-76a43e662cbd","ios":"levelo://app?vid=4cfa8b72-dc35-44da-a355-76a43e662cbd"},"vehicle_type_id":"4","last_reported":1728799941,"current_range_meters":36800,"station_id":"ce4bh3p2rcd13ifvqdq0","pricing_plan_id":"cebpf4jnsgd1na2vs0mg"},{"bike_id":"4fed9521-cd62-415c-9257-9734e7722b38","system_id":"levelo_inurba_marseille","lat":43.25498,"lon":5.3765,"is_reserved":false,"is_disabled":false,"rental_uris":{"android":"levelo://app?vid=4fed9521-cd62-415c-9257-9734e7722b38","ios":"levelo://app?vid=4fed9521-cd62-415c-9257-9734e7722b38"},"vehicle_type_id":"4","last_reported":1728799941,"current_range_meters":18800,"station_id":"ce4bhh12rcd13ifvqff0","pricing_plan_id":"cebpf4jnsgd1na2vs0mg"},{"bike_id":"25ed2710-8c35-44e6-81fd-8fc7cf6b54a8","system_id":"levelo_inurba_marseille","lat":43.274948,"lon":5.424466,"is_reserved":false,"is_disabled":false,"rental_uris":{"android":"levelo://app?vid=25ed2710-8c35-44e6-81fd-8fc7cf6b54a8","ios":"levelo://app?vid=25ed2710-8c35-44e6-81fd-8fc7cf6b54a8"},"vehicle_type_id":"4","last_reported":1728799941,"current_range_meters":22400,"station_id":"ce4bhn92rcd13ifvqgrg","pricing_plan_id":"cebpf4jnsgd1na2vs0mg"},{"bike_id":"701a46cd-56e8-4593-9151-18ac094e52f4","system_id":"levelo_inurba_marseille","lat":43.28722,"lon":5.36098,"is_reserved":false,"is_disabled":false,"rental_uris":{"android":"levelo://app?vid=701a46cd-56e8-4593-9151-18ac094e52f4","ios":"levelo://app?vid=701a46cd-56e8-4593-9151-18ac094e52f4"},"vehicle_type_id":"4","last_reported":1728799941,"current_range_meters":32000,"station_id":"cki0cbj6b192h4jlfktg","pricing_plan_id":"cebpf4jnsgd1na2vs0mg"},{"bike_id":"85b58660-c1d9-4cfc-a6fd-281e7dc6cce5","system_id":"levelo_inurba_marseille","lat":43.28704,"lon":5.39978,"is_reserved":false,"is_disabled":false,"rental_uris":{"android":"levelo://app?vid=85b58660-c1d9-4cfc-a6fd-281e7dc6cce5","ios":"levelo://app?vid=85b58660-c1d9-4cfc-a6fd-281e7dc6cce5"},"vehicle_type_id":"4","last_reported":1728799941,"current_range_meters":34800,"station_id":"ce4bho92rcd13ifvqh3g","pricing_plan_id":"cebpf4jnsgd1na2vs0mg"},{"bike_id":"fda02240-df65-4d65-bbda-6f7e5d08eaf0","system_id":"levelo_inurba_marseille","lat":43.30419,"lon":5.41284,"is_reserved":false,"is_disabled":false,"rental_uris":{"android":"levelo://app?vid=fda02240-df65-4d65-bbda-6f7e5d08eaf0","ios":"levelo://app?vid=fda02240-df65-4d65-bbda-6f7e5d08eaf0"},"vehicle_type_id":"4","last_reported":1728799941,"current_range_meters":28400,"station_id":"ce4bhop2rcd13ifvqh8g","pricing_plan_id":"cebpf4jnsgd1na2vs0mg"},{"bike_id":"719b0a25-64dc-4191-b079-850d13a26630","system_id":"levelo_inurba_marseille","lat":43.27154,"lon":5.40991,"is_reserved":false,"is_disabled":false,"rental_uris":{"android":"levelo://app?vid=719b0a25-64dc-4191-b079-850d13a26630","ios":"levelo://app?vid=719b0a25-64dc-4191-b079-850d13a26630"},"vehicle_type_id":"4","last_reported":1728799941,"current_range_meters":38800,"station_id":"ce4bhl12rcd13ifvqgf0","pricing_plan_id":"cebpf4jnsgd1na2vs0mg"},{"bike_id":"fe82d686-3f2b-40b2-8e0c-9d663410e554","system_id":"levelo_inurba_marseille","lat":43.287,"lon":5.39983,"is_reserved":false,"is_disabled":false,"rental_uris":{"android":"levelo://app?vid=fe82d686-3f2b-40b2-8e0c-9d663410e554","ios":"levelo://app?vid=fe82d686-3f2b-40b2-8e0c-9d663410e554"},"vehicle_type_id":"4","last_reported":1728799941,"current_range_meters":35600,"station_id":"ce4bho92rcd13ifvqh3g","pricing_plan_id":"cebpf4jnsgd1na2vs0mg"},{"bike_id":"0970453b-c0c2-4fe1-875e-4690b6619731","system_id":"levelo_inurba_marseille","lat":43.2951,"lon":5.37505,"is_reserved":false,"is_disabled":false,"rental_uris":{"android":"levelo://app?vid=0970453b-c0c2-4fe1-875e-4690b6619731","ios":"levelo://app?vid=0970453b-c0c2-4fe1-875e-4690b6619731"},"vehicle_type_id":"4","last_reported":1728799941,"current_range_meters":28800,"station_id":"ce4bgkp2rcd13ifvqbmg","pricing_plan_id":"cebpf4jnsgd1na2vs0mg"},{"bike_id":"5fcd241a-2ee4-49ed-a963-5e66485d4fea","system_id":"levelo_inurba_marseille","lat":43.248,"lon":5.37452,"is_reserved":false,"is_disabled":false,"rental_uris":{"android":"levelo://app?vid=5fcd241a-2ee4-49ed-a963-5e66485d4fea","ios":"levelo://app?vid=5fcd241a-2ee4-49ed-a963-5e66485d4fea"},"vehicle_type_id":"4","last_reported":1728799941,"current_range_meters":15200,"station_id":"ce4bhgh2rcd13ifvqfb0","pricing_plan_id":"cebpf4jnsgd1na2vs0mg"},{"bike_id":"22c0a697-730a-4af7-86d7-32a711bec4e1","system_id":"levelo_inurba_marseille","lat":43.2762,"lon":5.3611,"is_reserved":false,"is_disabled":false,"rental_uris":{"android":"levelo://app?vid=22c0a697-730a-4af7-86d7-32a711bec4e1","ios":"levelo://app?vid=22c0a697-730a-4af7-86d7-32a711bec4e1"},"vehicle_type_id":"4","last_reported":1728799941,"current_range_meters":2000,"station_id":"ce4bgj92rcd13ifvqbe0","pricing_plan_id":"cebpf4jnsgd1na2vs0mg"},{"bike_id":"5ee10e32-f517-43ca-90c3-669e43f3ba43","system_id":"levelo_inurba_marseille","lat":43.24652,"lon":5.38896,"is_reserved":false,"is_disabled":false,"rental_uris":{"android":"levelo://app?vid=5ee10e32-f517-43ca-90c3-669e43f3ba43","ios":"levelo://app?vid=5ee10e32-f517-43ca-90c3-669e43f3ba43"},"vehicle_type_id":"4","last_reported":1728799941,"current_range_meters":28400,"station_id":"ce4bhg12rcd13ifvqf60","pricing_plan_id":"cebpf4jnsgd1na2vs0mg"},{"bike_id":"0e93c01b-9e71-4227-9295-5a4a2f7a0689","system_id":"levelo_inurba_marseille","lat":43.32658,"lon":5.40992,"is_reserved":false,"is_disabled":false,"rental_uris":{"android":"levelo://app?vid=0e93c01b-9e71-4227-9295-5a4a2f7a0689","ios":"levelo://app?vid=0e93c01b-9e71-4227-9295-5a4a2f7a0689"},"vehicle_type_id":"4","last_reported":1728799941,"current_range_meters":27600,"station_id":"ce4bhpp2rcd13ifvqhgg","pricing_plan_id":"cebpf4jnsgd1na2vs0mg"},{"bike_id":"19ed5c03-0e03-4011-aac5-3c05b288be88","system_id":"levelo_inurba_marseille","lat":43.30933,"lon":5.40147,"is_reserved":false,"is_disabled":false,"rental_uris":{"android":"levelo://app?vid=19ed5c03-0e03-4011-aac5-3c05b288be88","ios":"levelo://app?vid=19ed5c03-0e03-4011-aac5-3c05b288be88"},"vehicle_type_id":"4","last_reported":1728799941,"current_range_meters":31200,"station_id":"ce4bgvp2rcd13ifvqct0","pricing_plan_id":"cebpf4jnsgd1na2vs0mg"},{"bike_id":"12c16baa-fd96-4fd7-b545-6dd516b485e8","system_id":"levelo_inurba_marseille","lat":43.23187,"lon":5.39999,"is_reserved":false,"is_disabled":false,"rental_uris":{"android":"levelo://app?vid=12c16baa-fd96-4fd7-b545-6dd516b485e8","ios":"levelo://app?vid=12c16baa-fd96-4fd7-b545-6dd516b485e8"},"vehicle_type_id":"4","last_reported":1728799941,"current_range_meters":12000,"station_id":"ce4bhn12rcd13ifvqgqg","pricing_plan_id":"cebpf4jnsgd1na2vs0mg"},{"bike_id":"5f48668b-ea01-481e-99ee-35bc36a67628","system_id":"levelo_inurba_marseille","lat":43.29869,"lon":5.3974,"is_reserved":false,"is_disabled":false,"rental_uris":{"android":"levelo://app?vid=5f48668b-ea01-481e-99ee-35bc36a67628","ios":"levelo://app?vid=5f48668b-ea01-481e-99ee-35bc36a67628"},"vehicle_type_id":"4","last_reported":1728799941,"current_range_meters":6400,"station_id":"ce4bh0h2rcd13ifvqd50","pricing_plan_id":"cebpf4jnsgd1na2vs0mg"},{"bike_id":"967f4c41-ae2f-46d0-8dc2-5c803de3ece1","system_id":"levelo_inurba_marseille","lat":43.30928,"lon":5.40142,"is_reserved":false,"is_disabled":false,"rental_uris":{"android":"levelo://app?vid=967f4c41-ae2f-46d0-8dc2-5c803de3ece1","ios":"levelo://app?vid=967f4c41-ae2f-46d0-8dc2-5c803de3ece1"},"vehicle_type_id":"4","last_reported":1728799941,"current_range_meters":30800,"station_id":"ce4bgvp2rcd13ifvqct0","pricing_plan_id":"cebpf4jnsgd1na2vs0mg"},{"bike_id":"88ba979d-de38-40f0-99b4-110d9f8fa2a0","system_id":"levelo_inurba_marseille","lat":43.274212,"lon":5.394172,"is_reserved":false,"is_disabled":false,"rental_uris":{"android":"levelo://app?vid=88ba979d-de38-40f0-99b4-110d9f8fa2a0","ios":"levelo://app?vid=88ba979d-de38-40f0-99b4-110d9f8fa2a0"},"vehicle_type_id":"4","last_reported":1728799941,"current_range_meters":36800,"station_id":"ce4bh292rcd13ifvqdg0","pricing_plan_id":"cebpf4jnsgd1na2vs0mg"},{"bike_id":"e3cd8953-9e5a-44ad-a5cd-debf49a539ae","system_id":"levelo_inurba_marseille","lat":43.21258,"lon":5.35445,"is_reserved":false,"is_disabled":false,"rental_uris":{"android":"levelo://app?vid=e3cd8953-9e5a-44ad-a5cd-debf49a539ae","ios":"levelo://app?vid=e3cd8953-9e5a-44ad-a5cd-debf49a539ae"},"vehicle_type_id":"4","last_reported":1728799941,"current_range_meters":22800,"station_id":"","pricing_plan_id":"cebpf4jnsgd1na2vs0mg"},{"bike_id":"84ba5cd7-8174-4aae-b5e5-bd4adc1ef89c","system_id":"levelo_inurba_marseille","lat":43.28469,"lon":5.38396,"is_reserved":false,"is_disabled":false,"rental_uris":{"android":"levelo://app?vid=84ba5cd7-8174-4aae-b5e5-bd4adc1ef89c","ios":"levelo://app?vid=84ba5cd7-8174-4aae-b5e5-bd4adc1ef89c"},"vehicle_type_id":"4","last_reported":1728799941,"current_range_meters":38400,"station_id":"ce4bh512rcd13ifvqe3g","pricing_plan_id":"cebpf4jnsgd1na2vs0mg"},{"bike_id":"de0f21a5-08fa-44c7-aeae-1fc9d6ad962e","system_id":"levelo_inurba_marseille","lat":43.26787,"lon":5.39416,"is_reserved":false,"is_disabled":false,"rental_uris":{"android":"levelo://app?vid=de0f21a5-08fa-44c7-aeae-1fc9d6ad962e","ios":"levelo://app?vid=de0f21a5-08fa-44c7-aeae-1fc9d6ad962e"},"vehicle_type_id":"4","last_reported":1728799941,"current_range_meters":38800,"station_id":"ce4bhh12rcd13ifvqfg0","pricing_plan_id":"cebpf4jnsgd1na2vs0mg"},{"bike_id":"53481144-5f5c-4acf-9f73-e042e6bba806","system_id":"levelo_inurba_marseille","lat":43.279498,"lon":5.410489,"is_reserved":false,"is_disabled":false,"rental_uris":{"android":"levelo://app?vid=53481144-5f5c-4acf-9f73-e042e6bba806","ios":"levelo://app?vid=53481144-5f5c-4acf-9f73-e042e6bba806"},"vehicle_type_id":"4","last_reported":1728799941,"current_range_meters":38400,"station_id":"ce4bhnp2rcd13ifvqh0g","pricing_plan_id":"cebpf4jnsgd1na2vs0mg"},{"bike_id":"ba7dbaa3-eac1-41e2-9f44-503e0e1aea13","system_id":"levelo_inurba_marseille","lat":43.32042,"lon":5.41552,"is_reserved":false,"is_disabled":false,"rental_uris":{"android":"levelo://app?vid=ba7dbaa3-eac1-41e2-9f44-503e0e1aea13","ios":"levelo://app?vid=ba7dbaa3-eac1-41e2-9f44-503e0e1aea13"},"vehicle_type_id":"4","last_reported":1728799941,"current_range_meters":37600,"station_id":"ce4bhq92rcd13ifvqhkg","pricing_plan_id":"cebpf4jnsgd1na2vs0mg"},{"bike_id":"744d7d46-a030-452d-827a-600610e2a098","system_id":"levelo_inurba_marseille","lat":43.23193,"lon":5.39988,"is_reserved":false,"is_disabled":false,"rental_uris":{"android":"levelo://app?vid=744d7d46-a030-452d-827a-600610e2a098","ios":"levelo://app?vid=744d7d46-a030-452d-827a-600610e2a098"},"vehicle_type_id":"4","last_reported":1728799941,"current_range_meters":36000,"station_id":"ce4bhn12rcd13ifvqgqg","pricing_plan_id":"cebpf4jnsgd1na2vs0mg"},{"bike_id":"c07591cb-630f-4a71-a82f-ad2dc6224f9e","system_id":"levelo_inurba_marseille","lat":43.29247,"lon":5.40912,"is_reserved":false,"is_disabled":false,"rental_uris":{"android":"levelo://app?vid=c07591cb-630f-4a71-a82f-ad2dc6224f9e","ios":"levelo://app?vid=c07591cb-630f-4a71-a82f-ad2dc6224f9e"},"vehicle_type_id":"4","last_reported":1728799941,"current_range_meters":38400,"station_id":"ce4bh192rcd13ifvqdc0","pricing_plan_id":"cebpf4jnsgd1na2vs0mg"},{"bike_id":"3b874f72-bd00-4f0c-92d9-24628791887e","system_id":"levelo_inurba_marseille","lat":43.3048,"lon":5.37165,"is_reserved":false,"is_disabled":false,"rental_uris":{"android":"levelo://app?vid=3b874f72-bd00-4f0c-92d9-24628791887e","ios":"levelo://app?vid=3b874f72-bd00-4f0c-92d9-24628791887e"},"vehicle_type_id":"4","last_reported":1728799941,"current_range_meters":16800,"station_id":"","pricing_plan_id":"cebpf4jnsgd1na2vs0mg"},{"bike_id":"e6a8aec1-d448-48fb-b2d3-480453e7edf3","system_id":"levelo_inurba_marseille","lat":43.3169,"lon":5.39835,"is_reserved":false,"is_disabled":false,"rental_uris":{"android":"levelo://app?vid=e6a8aec1-d448-48fb-b2d3-480453e7edf3","ios":"levelo://app?vid=e6a8aec1-d448-48fb-b2d3-480453e7edf3"},"vehicle_type_id":"4","last_reported":1728799941,"current_range_meters":6400,"station_id":"","pricing_plan_id":"cebpf4jnsgd1na2vs0mg"},{"bike_id":"c1252388-4481-4e15-b658-f584ef66a49c","system_id":"levelo_inurba_marseille","lat":43.33608,"lon":5.41029,"is_reserved":false,"is_disabled":false,"rental_uris":{"android":"levelo://app?vid=c1252388-4481-4e15-b658-f584ef66a49c","ios":"levelo://app?vid=c1252388-4481-4e15-b658-f584ef66a49c"},"vehicle_type_id":"4","last_reported":1728799941,"current_range_meters":26800,"station_id":"ce4bhqh2rcd13ifvqhmg","pricing_plan_id":"cebpf4jnsgd1na2vs0mg"},{"bike_id":"89793279-1700-4cb1-b883-7aa598b6d464","system_id":"levelo_inurba_marseille","lat":43.307988,"lon":5.435286,"is_reserved":false,"is_disabled":false,"rental_uris":{"android":"levelo://app?vid=89793279-1700-4cb1-b883-7aa598b6d464","ios":"levelo://app?vid=89793279-1700-4cb1-b883-7aa598b6d464"},"vehicle_type_id":"4","last_reported":1728799941,"current_range_meters":38800,"station_id":"ce4bhph2rcd13ifvqheg","pricing_plan_id":"cebpf4jnsgd1na2vs0mg"},{"bike_id":"9936a912-de01-4404-bd89-6b9478a1ad76","system_id":"levelo_inurba_marseille","lat":43.30142,"lon":5.380802,"is_reserved":false,"is_disabled":false,"rental_uris":{"android":"levelo://app?vid=9936a912-de01-4404-bd89-6b9478a1ad76","ios":"levelo://app?vid=9936a912-de01-4404-bd89-6b9478a1ad76"},"vehicle_type_id":"4","last_reported":1728799941,"current_range_meters":11200,"station_id":"ce4bgjp2rcd13ifvqbh0","pricing_plan_id":"cebpf4jnsgd1na2vs0mg"},{"bike_id":"6c88fd04-8064-4b69-af89-437a91515c00","system_id":"levelo_inurba_marseille","lat":43.28458,"lon":5.35883,"is_reserved":false,"is_disabled":false,"rental_uris":{"android":"levelo://app?vid=6c88fd04-8064-4b69-af89-437a91515c00","ios":"levelo://app?vid=6c88fd04-8064-4b69-af89-437a91515c00"},"vehicle_type_id":"4","last_reported":1728799941,"current_range_meters":29600,"station_id":"ce4bhah2rcd13ifvqei0","pricing_plan_id":"cebpf4jnsgd1na2vs0mg"},{"bike_id":"2066d8a7-1ec7-44a0-9f38-79de9bc5f1f2","system_id":"levelo_inurba_marseille","lat":43.26953,"lon":5.38637,"is_reserved":false,"is_disabled":false,"rental_uris":{"android":"levelo://app?vid=2066d8a7-1ec7-44a0-9f38-79de9bc5f1f2","ios":"levelo://app?vid=2066d8a7-1ec7-44a0-9f38-79de9bc5f1f2"},"vehicle_type_id":"4","last_reported":1728799941,"current_range_meters":34800,"station_id":"ce4bhh92rcd13ifvqfh0","pricing_plan_id":"cebpf4jnsgd1na2vs0mg"},{"bike_id":"92c1af36-5649-40f5-84ed-a7b062884571","system_id":"levelo_inurba_marseille","lat":43.239646,"lon":5.366361,"is_reserved":false,"is_disabled":false,"rental_uris":{"android":"levelo://app?vid=92c1af36-5649-40f5-84ed-a7b062884571","ios":"levelo://app?vid=92c1af36-5649-40f5-84ed-a7b062884571"},"vehicle_type_id":"4","last_reported":1728799941,"current_range_meters":30400,"station_id":"ce4bhi12rcd13ifvqfp0","pricing_plan_id":"cebpf4jnsgd1na2vs0mg"},{"bike_id":"3b75fe99-810f-40ef-9f84-d5b1cf667dc9","system_id":"levelo_inurba_marseille","lat":43.23147,"lon":5.43707,"is_reserved":false,"is_disabled":false,"rental_uris":{"android":"levelo://app?vid=3b75fe99-810f-40ef-9f84-d5b1cf667dc9","ios":"levelo://app?vid=3b75fe99-810f-40ef-9f84-d5b1cf667dc9"},"vehicle_type_id":"4","last_reported":1728799941,"current_range_meters":26000,"station_id":"ce4bhmp2rcd13ifvqgog","pricing_plan_id":"cebpf4jnsgd1na2vs0mg"},{"bike_id":"6cb5b02c-2401-484a-8b7d-b4d2106d6b08","system_id":"levelo_inurba_marseille","lat":43.23191,"lon":5.35553,"is_reserved":false,"is_disabled":false,"rental_uris":{"android":"levelo://app?vid=6cb5b02c-2401-484a-8b7d-b4d2106d6b08","ios":"levelo://app?vid=6cb5b02c-2401-484a-8b7d-b4d2106d6b08"},"vehicle_type_id":"4","last_reported":1728799941,"current_range_meters":26800,"station_id":"ce4bhu92rcd13ifvqi70","pricing_plan_id":"cebpf4jnsgd1na2vs0mg"},{"bike_id":"ea203679-8246-41bb-bc64-80edd7e095b0","system_id":"levelo_inurba_marseille","lat":43.3302,"lon":5.39038,"is_reserved":false,"is_disabled":false,"rental_uris":{"android":"levelo://app?vid=ea203679-8246-41bb-bc64-80edd7e095b0","ios":"levelo://app?vid=ea203679-8246-41bb-bc64-80edd7e095b0"},"vehicle_type_id":"4","last_reported":1728799941,"current_range_meters":17600,"station_id":"ce4bhr92rcd13ifvqhrg","pricing_plan_id":"cebpf4jnsgd1na2vs0mg"},{"bike_id":"f7dd1dc7-fa4b-4758-aac5-4419d54d56ad","system_id":"levelo_inurba_marseille","lat":43.317616,"lon":5.390131,"is_reserved":false,"is_disabled":false,"rental_uris":{"android":"levelo://app?vid=f7dd1dc7-fa4b-4758-aac5-4419d54d56ad","ios":"levelo://app?vid=f7dd1dc7-fa4b-4758-aac5-4419d54d56ad"},"vehicle_type_id":"4","last_reported":1728799941,"current_range_meters":39200,"station_id":"ce4bhqp2rcd13ifvqhng","pricing_plan_id":"cebpf4jnsgd1na2vs0mg"},{"bike_id":"5342387b-13bf-4ecc-b703-417c00eeeeae","system_id":"levelo_inurba_marseille","lat":43.24667,"lon":5.38164,"is_reserved":false,"is_disabled":false,"rental_uris":{"android":"levelo://app?vid=5342387b-13bf-4ecc-b703-417c00eeeeae","ios":"levelo://app?vid=5342387b-13bf-4ecc-b703-417c00eeeeae"},"vehicle_type_id":"4","last_reported":1728799941,"current_range_meters":38800,"station_id":"ce4bhih2rcd13ifvqfr0","pricing_plan_id":"cebpf4jnsgd1na2vs0mg"},{"bike_id":"cb2c6844-d14b-4d2c-aaea-c9da9a7efe9c","system_id":"levelo_inurba_marseille","lat":43.292762,"lon":5.401257,"is_reserved":false,"is_disabled":false,"rental_uris":{"android":"levelo://app?vid=cb2c6844-d14b-4d2c-aaea-c9da9a7efe9c","ios":"levelo://app?vid=cb2c6844-d14b-4d2c-aaea-c9da9a7efe9c"},"vehicle_type_id":"4","last_reported":1728799941,"current_range_meters":39200,"station_id":"ce4bh312rcd13ifvqdk0","pricing_plan_id":"cebpf4jnsgd1na2vs0mg"},{"bike_id":"3163f74e-baa3-48f4-be70-4c65b08c2367","system_id":"levelo_inurba_marseille","lat":43.2619,"lon":5.3745,"is_reserved":false,"is_disabled":false,"rental_uris":{"android":"levelo://app?vid=3163f74e-baa3-48f4-be70-4c65b08c2367","ios":"levelo://app?vid=3163f74e-baa3-48f4-be70-4c65b08c2367"},"vehicle_type_id":"4","last_reported":1728799941,"current_range_meters":30000,"station_id":"ce4bhgp2rcd13ifvqfc0","pricing_plan_id":"cebpf4jnsgd1na2vs0mg"},{"bike_id":"2bb0e8f1-58d4-4f84-8581-9e0cbaf7bbf4","system_id":"levelo_inurba_marseille","lat":43.26199,"lon":5.37441,"is_reserved":false,"is_disabled":false,"rental_uris":{"android":"levelo://app?vid=2bb0e8f1-58d4-4f84-8581-9e0cbaf7bbf4","ios":"levelo://app?vid=2bb0e8f1-58d4-4f84-8581-9e0cbaf7bbf4"},"vehicle_type_id":"4","last_reported":1728799941,"current_range_meters":38400,"station_id":"ce4bhgp2rcd13ifvqfc0","pricing_plan_id":"cebpf4jnsgd1na2vs0mg"},{"bike_id":"dbf4f8c9-99b8-4387-a4b7-eb47b9df871d","system_id":"levelo_inurba_marseille","lat":43.2958,"lon":5.36742,"is_reserved":false,"is_disabled":false,"rental_uris":{"android":"levelo://app?vid=dbf4f8c9-99b8-4387-a4b7-eb47b9df871d","ios":"levelo://app?vid=dbf4f8c9-99b8-4387-a4b7-eb47b9df871d"},"vehicle_type_id":"4","last_reported":1728799941,"current_range_meters":20800,"station_id":"ce4bgph2rcd13ifvqc2g","pricing_plan_id":"cebpf4jnsgd1na2vs0mg"},{"bike_id":"dec436c1-d01a-4e4e-a66d-a687a7901d68","system_id":"levelo_inurba_marseille","lat":43.25107,"lon":5.40315,"is_reserved":false,"is_disabled":false,"rental_uris":{"android":"levelo://app?vid=dec436c1-d01a-4e4e-a66d-a687a7901d68","ios":"levelo://app?vid=dec436c1-d01a-4e4e-a66d-a687a7901d68"},"vehicle_type_id":"4","last_reported":1728799941,"current_range_meters":37600,"station_id":"ce4bhlh2rcd13ifvqgig","pricing_plan_id":"cebpf4jnsgd1na2vs0mg"},{"bike_id":"24174b17-9a1a-42fc-b28d-ccdf79ae4c31","system_id":"levelo_inurba_marseille","lat":43.28159,"lon":5.42633,"is_reserved":false,"is_disabled":false,"rental_uris":{"android":"levelo://app?vid=24174b17-9a1a-42fc-b28d-ccdf79ae4c31","ios":"levelo://app?vid=24174b17-9a1a-42fc-b28d-ccdf79ae4c31"},"vehicle_type_id":"4","last_reported":1728799941,"current_range_meters":9600,"station_id":"ce4bhnh2rcd13ifvqgug","pricing_plan_id":"cebpf4jnsgd1na2vs0mg"},{"bike_id":"accb871e-a6d6-4416-b0e7-cca548384eeb","system_id":"levelo_inurba_marseille","lat":43.265483,"lon":5.372881,"is_reserved":false,"is_disabled":false,"rental_uris":{"android":"levelo://app?vid=accb871e-a6d6-4416-b0e7-cca548384eeb","ios":"levelo://app?vid=accb871e-a6d6-4416-b0e7-cca548384eeb"},"vehicle_type_id":"4","last_reported":1728799941,"current_range_meters":34800,"station_id":"ce4bhg12rcd13ifvqf70","pricing_plan_id":"cebpf4jnsgd1na2vs0mg"},{"bike_id":"b73a330a-d417-463b-93f0-d89461813f6e","system_id":"levelo_inurba_marseille","lat":43.255,"lon":5.37649,"is_reserved":false,"is_disabled":false,"rental_uris":{"android":"levelo://app?vid=b73a330a-d417-463b-93f0-d89461813f6e","ios":"levelo://app?vid=b73a330a-d417-463b-93f0-d89461813f6e"},"vehicle_type_id":"4","last_reported":1728799941,"current_range_meters":25600,"station_id":"ce4bhh12rcd13ifvqff0","pricing_plan_id":"cebpf4jnsgd1na2vs0mg"},{"bike_id":"360bf9d4-7a7a-4363-a459-888c749281e7","system_id":"levelo_inurba_marseille","lat":43.30265,"lon":5.37693,"is_reserved":false,"is_disabled":false,"rental_uris":{"android":"levelo://app?vid=360bf9d4-7a7a-4363-a459-888c749281e7","ios":"levelo://app?vid=360bf9d4-7a7a-4363-a459-888c749281e7"},"vehicle_type_id":"4","last_reported":1728799941,"current_range_meters":38800,"station_id":"ce4bguh2rcd13ifvqcj0","pricing_plan_id":"cebpf4jnsgd1na2vs0mg"},{"bike_id":"2d8cc02b-89ad-4a56-ae14-85fe3df84827","system_id":"levelo_inurba_marseille","lat":43.26194,"lon":5.37447,"is_reserved":false,"is_disabled":false,"rental_uris":{"android":"levelo://app?vid=2d8cc02b-89ad-4a56-ae14-85fe3df84827","ios":"levelo://app?vid=2d8cc02b-89ad-4a56-ae14-85fe3df84827"},"vehicle_type_id":"4","last_reported":1728799941,"current_range_meters":10000,"station_id":"ce4bhgp2rcd13ifvqfc0","pricing_plan_id":"cebpf4jnsgd1na2vs0mg"},{"bike_id":"5bcb25d4-03ca-4ec9-8291-a3375ad99d18","system_id":"levelo_inurba_marseille","lat":43.34145,"lon":5.40902,"is_reserved":false,"is_disabled":false,"rental_uris":{"android":"levelo://app?vid=5bcb25d4-03ca-4ec9-8291-a3375ad99d18","ios":"levelo://app?vid=5bcb25d4-03ca-4ec9-8291-a3375ad99d18"},"vehicle_type_id":"4","last_reported":1728799941,"current_range_meters":37600,"station_id":"ce4bhqh2rcd13ifvqhlg","pricing_plan_id":"cebpf4jnsgd1na2vs0mg"},{"bike_id":"f463bffd-395b-45c4-87b1-620a763388ae","system_id":"levelo_inurba_marseille","lat":43.25862,"lon":5.39906,"is_reserved":false,"is_disabled":false,"rental_uris":{"android":"levelo://app?vid=f463bffd-395b-45c4-87b1-620a763388ae","ios":"levelo://app?vid=f463bffd-395b-45c4-87b1-620a763388ae"},"vehicle_type_id":"4","last_reported":1728799941,"current_range_meters":33200,"station_id":"ce4bhl92rcd13ifvqghg","pricing_plan_id":"cebpf4jnsgd1na2vs0mg"},{"bike_id":"9d671549-67ad-4eb0-ace0-50f59d8a0c79","system_id":"levelo_inurba_marseille","lat":43.31109,"lon":5.38064,"is_reserved":false,"is_disabled":false,"rental_uris":{"android":"levelo://app?vid=9d671549-67ad-4eb0-ace0-50f59d8a0c79","ios":"levelo://app?vid=9d671549-67ad-4eb0-ace0-50f59d8a0c79"},"vehicle_type_id":"4","last_reported":1728799941,"current_range_meters":25600,"station_id":"ce4bgt92rcd13ifvqcf0","pricing_plan_id":"cebpf4jnsgd1na2vs0mg"},{"bike_id":"c508ea59-519e-4e06-ab3d-aa1fccc3a7d5","system_id":"levelo_inurba_marseille","lat":43.30137,"lon":5.38077,"is_reserved":false,"is_disabled":false,"rental_uris":{"android":"levelo://app?vid=c508ea59-519e-4e06-ab3d-aa1fccc3a7d5","ios":"levelo://app?vid=c508ea59-519e-4e06-ab3d-aa1fccc3a7d5"},"vehicle_type_id":"4","last_reported":1728799941,"current_range_meters":33600,"station_id":"ce4bgjp2rcd13ifvqbh0","pricing_plan_id":"cebpf4jnsgd1na2vs0mg"},{"bike_id":"0af09764-3110-4470-807c-e6254f865e3e","system_id":"levelo_inurba_marseille","lat":43.29774,"lon":5.37106,"is_reserved":false,"is_disabled":false,"rental_uris":{"android":"levelo://app?vid=0af09764-3110-4470-807c-e6254f865e3e","ios":"levelo://app?vid=0af09764-3110-4470-807c-e6254f865e3e"},"vehicle_type_id":"4","last_reported":1728799941,"current_range_meters":38800,"station_id":"ce4bgop2rcd13ifvqc1g","pricing_plan_id":"cebpf4jnsgd1na2vs0mg"},{"bike_id":"25e59862-8a09-482d-b3a5-7138deb4afc5","system_id":"levelo_inurba_marseille","lat":43.23052,"lon":5.35486,"is_reserved":false,"is_disabled":false,"rental_uris":{"android":"levelo://app?vid=25e59862-8a09-482d-b3a5-7138deb4afc5","ios":"levelo://app?vid=25e59862-8a09-482d-b3a5-7138deb4afc5"},"vehicle_type_id":"4","last_reported":1728799941,"current_range_meters":6800,"station_id":"cpo3342slgdg3j2ifvpg","pricing_plan_id":"cebpf4jnsgd1na2vs0mg"},{"bike_id":"3113907b-5542-4c19-a74e-85ae1b131d1a","system_id":"levelo_inurba_marseille","lat":43.26934,"lon":5.38921,"is_reserved":false,"is_disabled":false,"rental_uris":{"android":"levelo://app?vid=3113907b-5542-4c19-a74e-85ae1b131d1a","ios":"levelo://app?vid=3113907b-5542-4c19-a74e-85ae1b131d1a"},"vehicle_type_id":"4","last_reported":1728799941,"current_range_meters":12800,"station_id":"ce4bhhh2rcd13ifvqfl0","pricing_plan_id":"cebpf4jnsgd1na2vs0mg"},{"bike_id":"81e6a043-ed21-48b2-b5f1-f14f165151cc","system_id":"levelo_inurba_marseille","lat":43.27991,"lon":5.4166,"is_reserved":false,"is_disabled":false,"rental_uris":{"android":"levelo://app?vid=81e6a043-ed21-48b2-b5f1-f14f165151cc","ios":"levelo://app?vid=81e6a043-ed21-48b2-b5f1-f14f165151cc"},"vehicle_type_id":"4","last_reported":1728799941,"current_range_meters":37600,"station_id":"ce4bho12rcd13ifvqh1g","pricing_plan_id":"cebpf4jnsgd1na2vs0mg"},{"bike_id":"46a4370d-6182-4a1b-bcb1-074ba208b1b1","system_id":"levelo_inurba_marseille","lat":43.31084,"lon":5.4243,"is_reserved":false,"is_disabled":false,"rental_uris":{"android":"levelo://app?vid=46a4370d-6182-4a1b-bcb1-074ba208b1b1","ios":"levelo://app?vid=46a4370d-6182-4a1b-bcb1-074ba208b1b1"},"vehicle_type_id":"4","last_reported":1728799941,"current_range_meters":39200,"station_id":"ce4bhp92rcd13ifvqhag","pricing_plan_id":"cebpf4jnsgd1na2vs0mg"},{"bike_id":"0aa173d8-8a1e-48c2-98ae-3396cafc3dfa","system_id":"levelo_inurba_marseille","lat":43.26207,"lon":5.37445,"is_reserved":false,"is_disabled":false,"rental_uris":{"android":"levelo://app?vid=0aa173d8-8a1e-48c2-98ae-3396cafc3dfa","ios":"levelo://app?vid=0aa173d8-8a1e-48c2-98ae-3396cafc3dfa"},"vehicle_type_id":"4","last_reported":1728799941,"current_range_meters":29600,"station_id":"ce4bhgp2rcd13ifvqfc0","pricing_plan_id":"cebpf4jnsgd1na2vs0mg"},{"bike_id":"b933402b-d1ca-49a8-bbf7-fb19281d941c","system_id":"levelo_inurba_marseille","lat":43.23192,"lon":5.35557,"is_reserved":false,"is_disabled":false,"rental_uris":{"android":"levelo://app?vid=b933402b-d1ca-49a8-bbf7-fb19281d941c","ios":"levelo://app?vid=b933402b-d1ca-49a8-bbf7-fb19281d941c"},"vehicle_type_id":"4","last_reported":1728799941,"current_range_meters":16800,"station_id":"ce4bhu92rcd13ifvqi70","pricing_plan_id":"cebpf4jnsgd1na2vs0mg"},{"bike_id":"e2e70154-1a45-4078-9872-304a786fca1e","system_id":"levelo_inurba_marseille","lat":43.25572,"lon":5.38247,"is_reserved":false,"is_disabled":false,"rental_uris":{"android":"levelo://app?vid=e2e70154-1a45-4078-9872-304a786fca1e","ios":"levelo://app?vid=e2e70154-1a45-4078-9872-304a786fca1e"},"vehicle_type_id":"4","last_reported":1728799941,"current_range_meters":34800,"station_id":"ce4bhih2rcd13ifvqfs0","pricing_plan_id":"cebpf4jnsgd1na2vs0mg"},{"bike_id":"e65d2ca6-a0f5-4f5c-abac-545d677d9b92","system_id":"levelo_inurba_marseille","lat":43.2988,"lon":5.39747,"is_reserved":false,"is_disabled":false,"rental_uris":{"android":"levelo://app?vid=e65d2ca6-a0f5-4f5c-abac-545d677d9b92","ios":"levelo://app?vid=e65d2ca6-a0f5-4f5c-abac-545d677d9b92"},"vehicle_type_id":"4","last_reported":1728799941,"current_range_meters":39200,"station_id":"ce4bh0h2rcd13ifvqd50","pricing_plan_id":"cebpf4jnsgd1na2vs0mg"},{"bike_id":"30e39ca8-7344-4f43-a096-b41b3f9ab952","system_id":"levelo_inurba_marseille","lat":43.29036,"lon":5.39964,"is_reserved":false,"is_disabled":false,"rental_uris":{"android":"levelo://app?vid=30e39ca8-7344-4f43-a096-b41b3f9ab952","ios":"levelo://app?vid=30e39ca8-7344-4f43-a096-b41b3f9ab952"},"vehicle_type_id":"4","last_reported":1728799941,"current_range_meters":40000,"station_id":"ce4bh392rcd13ifvqdm0","pricing_plan_id":"cebpf4jnsgd1na2vs0mg"},{"bike_id":"d8b1ce1d-838b-48bb-86eb-0245b55493ec","system_id":"levelo_inurba_marseille","lat":43.29849,"lon":5.36289,"is_reserved":false,"is_disabled":false,"rental_uris":{"android":"levelo://app?vid=d8b1ce1d-838b-48bb-86eb-0245b55493ec","ios":"levelo://app?vid=d8b1ce1d-838b-48bb-86eb-0245b55493ec"},"vehicle_type_id":"4","last_reported":1728799941,"current_range_meters":32800,"station_id":"ce4bgpp2rcd13ifvqc3g","pricing_plan_id":"cebpf4jnsgd1na2vs0mg"},{"bike_id":"1dbb835e-7e76-477d-a73e-0f6fdca4b106","system_id":"levelo_inurba_marseille","lat":43.23186,"lon":5.39978,"is_reserved":false,"is_disabled":false,"rental_uris":{"android":"levelo://app?vid=1dbb835e-7e76-477d-a73e-0f6fdca4b106","ios":"levelo://app?vid=1dbb835e-7e76-477d-a73e-0f6fdca4b106"},"vehicle_type_id":"4","last_reported":1728799941,"current_range_meters":12800,"station_id":"ce4bhn12rcd13ifvqgqg","pricing_plan_id":"cebpf4jnsgd1na2vs0mg"},{"bike_id":"d751b74f-afbb-4075-ac46-9547555eee0f","system_id":"levelo_inurba_marseille","lat":43.32365,"lon":5.38889,"is_reserved":false,"is_disabled":false,"rental_uris":{"android":"levelo://app?vid=d751b74f-afbb-4075-ac46-9547555eee0f","ios":"levelo://app?vid=d751b74f-afbb-4075-ac46-9547555eee0f"},"vehicle_type_id":"4","last_reported":1728799941,"current_range_meters":17200,"station_id":"ce4bhqp2rcd13ifvqhog","pricing_plan_id":"cebpf4jnsgd1na2vs0mg"},{"bike_id":"3357dbf0-06e3-4a05-8c7c-9717c6b97eba","system_id":"levelo_inurba_marseille","lat":43.31883,"lon":5.40731,"is_reserved":false,"is_disabled":false,"rental_uris":{"android":"levelo://app?vid=3357dbf0-06e3-4a05-8c7c-9717c6b97eba","ios":"levelo://app?vid=3357dbf0-06e3-4a05-8c7c-9717c6b97eba"},"vehicle_type_id":"4","last_reported":1728799941,"current_range_meters":38800,"station_id":"ce4bhq12rcd13ifvqhig","pricing_plan_id":"cebpf4jnsgd1na2vs0mg"},{"bike_id":"262ad37d-8ad8-447a-9929-14549db2fbc3","system_id":"levelo_inurba_marseille","lat":43.3054,"lon":5.38428,"is_reserved":false,"is_disabled":false,"rental_uris":{"android":"levelo://app?vid=262ad37d-8ad8-447a-9929-14549db2fbc3","ios":"levelo://app?vid=262ad37d-8ad8-447a-9929-14549db2fbc3"},"vehicle_type_id":"4","last_reported":1728799941,"current_range_meters":36400,"station_id":"ce4bgg92rcd13ifvqb30","pricing_plan_id":"cebpf4jnsgd1na2vs0mg"},{"bike_id":"d4844357-2af5-420a-8b37-e0d284076ab6","system_id":"levelo_inurba_marseille","lat":43.2872,"lon":5.36095,"is_reserved":false,"is_disabled":false,"rental_uris":{"android":"levelo://app?vid=d4844357-2af5-420a-8b37-e0d284076ab6","ios":"levelo://app?vid=d4844357-2af5-420a-8b37-e0d284076ab6"},"vehicle_type_id":"4","last_reported":1728799941,"current_range_meters":10800,"station_id":"cki0cbj6b192h4jlfktg","pricing_plan_id":"cebpf4jnsgd1na2vs0mg"},{"bike_id":"dd488bb6-2002-40e1-9ea4-29c41547f763","system_id":"levelo_inurba_marseille","lat":43.28358,"lon":5.38636,"is_reserved":false,"is_disabled":false,"rental_uris":{"android":"levelo://app?vid=dd488bb6-2002-40e1-9ea4-29c41547f763","ios":"levelo://app?vid=dd488bb6-2002-40e1-9ea4-29c41547f763"},"vehicle_type_id":"4","last_reported":1728799941,"current_range_meters":38000,"station_id":"ce4bh492rcd13ifvqdvg","pricing_plan_id":"cebpf4jnsgd1na2vs0mg"},{"bike_id":"acbe997b-a9be-49ac-ad5e-d0e8fdd650d9","system_id":"levelo_inurba_marseille","lat":43.27831,"lon":5.39209,"is_reserved":false,"is_disabled":false,"rental_uris":{"android":"levelo://app?vid=acbe997b-a9be-49ac-ad5e-d0e8fdd650d9","ios":"levelo://app?vid=acbe997b-a9be-49ac-ad5e-d0e8fdd650d9"},"vehicle_type_id":"4","last_reported":1728799941,"current_range_meters":38800,"station_id":"ce4bhjp2rcd13ifvqga0","pricing_plan_id":"cebpf4jnsgd1na2vs0mg"},{"bike_id":"b761c7a6-134d-4a6f-b264-f0ee80509c11","system_id":"levelo_inurba_marseille","lat":43.30462,"lon":5.37902,"is_reserved":false,"is_disabled":false,"rental_uris":{"android":"levelo://app?vid=b761c7a6-134d-4a6f-b264-f0ee80509c11","ios":"levelo://app?vid=b761c7a6-134d-4a6f-b264-f0ee80509c11"},"vehicle_type_id":"4","last_reported":1728799941,"current_range_meters":30400,"station_id":"ce4bgup2rcd13ifvqcn0","pricing_plan_id":"cebpf4jnsgd1na2vs0mg"},{"bike_id":"736f3d1f-39a5-4752-90b4-6b334b5fd0b7","system_id":"levelo_inurba_marseille","lat":43.27819,"lon":5.39203,"is_reserved":false,"is_disabled":false,"rental_uris":{"android":"levelo://app?vid=736f3d1f-39a5-4752-90b4-6b334b5fd0b7","ios":"levelo://app?vid=736f3d1f-39a5-4752-90b4-6b334b5fd0b7"},"vehicle_type_id":"4","last_reported":1728799941,"current_range_meters":30000,"station_id":"ce4bhjp2rcd13ifvqga0","pricing_plan_id":"cebpf4jnsgd1na2vs0mg"},{"bike_id":"df347eec-7bcf-4f56-8684-7275a87904b5","system_id":"levelo_inurba_marseille","lat":43.31284,"lon":5.40174,"is_reserved":false,"is_disabled":false,"rental_uris":{"android":"levelo://app?vid=df347eec-7bcf-4f56-8684-7275a87904b5","ios":"levelo://app?vid=df347eec-7bcf-4f56-8684-7275a87904b5"},"vehicle_type_id":"4","last_reported":1728799941,"current_range_meters":22400,"station_id":"ce4bh092rcd13ifvqd30","pricing_plan_id":"cebpf4jnsgd1na2vs0mg"},{"bike_id":"922be445-130b-423a-97a6-dbeed6eb1c41","system_id":"levelo_inurba_marseille","lat":43.31694,"lon":5.37752,"is_reserved":false,"is_disabled":false,"rental_uris":{"android":"levelo://app?vid=922be445-130b-423a-97a6-dbeed6eb1c41","ios":"levelo://app?vid=922be445-130b-423a-97a6-dbeed6eb1c41"},"vehicle_type_id":"4","last_reported":1728799941,"current_range_meters":38800,"station_id":"ce4bgth2rcd13ifvqch0","pricing_plan_id":"cebpf4jnsgd1na2vs0mg"},{"bike_id":"7697f612-54b8-496c-9169-e808be1107e5","system_id":"levelo_inurba_marseille","lat":43.25821,"lon":5.39421,"is_reserved":false,"is_disabled":false,"rental_uris":{"android":"levelo://app?vid=7697f612-54b8-496c-9169-e808be1107e5","ios":"levelo://app?vid=7697f612-54b8-496c-9169-e808be1107e5"},"vehicle_type_id":"4","last_reported":1728799941,"current_range_meters":38800,"station_id":"ce4bhip2rcd13ifvqft0","pricing_plan_id":"cebpf4jnsgd1na2vs0mg"},{"bike_id":"4e18dddc-2684-4cf8-8c31-345dd1f8f224","system_id":"levelo_inurba_marseille","lat":43.27938,"lon":5.41047,"is_reserved":false,"is_disabled":false,"rental_uris":{"android":"levelo://app?vid=4e18dddc-2684-4cf8-8c31-345dd1f8f224","ios":"levelo://app?vid=4e18dddc-2684-4cf8-8c31-345dd1f8f224"},"vehicle_type_id":"4","last_reported":1728799941,"current_range_meters":36800,"station_id":"ce4bhnp2rcd13ifvqh0g","pricing_plan_id":"cebpf4jnsgd1na2vs0mg"},{"bike_id":"46a85584-c979-42d0-a3d6-62160a658ef1","system_id":"levelo_inurba_marseille","lat":43.28961,"lon":5.36423,"is_reserved":false,"is_disabled":false,"rental_uris":{"android":"levelo://app?vid=46a85584-c979-42d0-a3d6-62160a658ef1","ios":"levelo://app?vid=46a85584-c979-42d0-a3d6-62160a658ef1"},"vehicle_type_id":"4","last_reported":1728799941,"current_range_meters":17200,"station_id":"ce4bhc92rcd13ifvqetg","pricing_plan_id":"cebpf4jnsgd1na2vs0mg"},{"bike_id":"4a18f552-42b7-479d-a0f2-d85c92f0c887","system_id":"levelo_inurba_marseille","lat":43.30601,"lon":5.37236,"is_reserved":false,"is_disabled":false,"rental_uris":{"android":"levelo://app?vid=4a18f552-42b7-479d-a0f2-d85c92f0c887","ios":"levelo://app?vid=4a18f552-42b7-479d-a0f2-d85c92f0c887"},"vehicle_type_id":"4","last_reported":1728799941,"current_range_meters":31200,"station_id":"ce4bgqh2rcd13ifvqc4g","pricing_plan_id":"cebpf4jnsgd1na2vs0mg"},{"bike_id":"7b66ec6b-169b-4e5d-920d-1d6a0c8bb5f7","system_id":"levelo_inurba_marseille","lat":43.27559,"lon":5.38414,"is_reserved":false,"is_disabled":false,"rental_uris":{"android":"levelo://app?vid=7b66ec6b-169b-4e5d-920d-1d6a0c8bb5f7","ios":"levelo://app?vid=7b66ec6b-169b-4e5d-920d-1d6a0c8bb5f7"},"vehicle_type_id":"4","last_reported":1728799941,"current_range_meters":38800,"station_id":"ce4bhh92rcd13ifvqfi0","pricing_plan_id":"cebpf4jnsgd1na2vs0mg"},{"bike_id":"e6336660-e5d0-4336-aab6-9e2081b4b551","system_id":"levelo_inurba_marseille","lat":43.3372,"lon":5.39198,"is_reserved":false,"is_disabled":false,"rental_uris":{"android":"levelo://app?vid=e6336660-e5d0-4336-aab6-9e2081b4b551","ios":"levelo://app?vid=e6336660-e5d0-4336-aab6-9e2081b4b551"},"vehicle_type_id":"4","last_reported":1728799941,"current_range_meters":19200,"station_id":"ce4bhr92rcd13ifvqhsg","pricing_plan_id":"cebpf4jnsgd1na2vs0mg"},{"bike_id":"c40a2ff4-f3a0-440e-9dc0-13231ecdc1c7","system_id":"levelo_inurba_marseille","lat":43.2842,"lon":5.34983,"is_reserved":false,"is_disabled":false,"rental_uris":{"android":"levelo://app?vid=c40a2ff4-f3a0-440e-9dc0-13231ecdc1c7","ios":"levelo://app?vid=c40a2ff4-f3a0-440e-9dc0-13231ecdc1c7"},"vehicle_type_id":"4","last_reported":1728799941,"current_range_meters":18800,"station_id":"ce4bhbh2rcd13ifvqepg","pricing_plan_id":"cebpf4jnsgd1na2vs0mg"},{"bike_id":"73dd85c9-f526-4350-b659-634165490578","system_id":"levelo_inurba_marseille","lat":43.24807,"lon":5.37457,"is_reserved":false,"is_disabled":false,"rental_uris":{"android":"levelo://app?vid=73dd85c9-f526-4350-b659-634165490578","ios":"levelo://app?vid=73dd85c9-f526-4350-b659-634165490578"},"vehicle_type_id":"4","last_reported":1728799941,"current_range_meters":38800,"station_id":"ce4bhgh2rcd13ifvqfb0","pricing_plan_id":"cebpf4jnsgd1na2vs0mg"},{"bike_id":"b2e9e370-9210-49f2-a2bc-03587913b57f","system_id":"levelo_inurba_marseille","lat":43.324817,"lon":5.365561,"is_reserved":false,"is_disabled":false,"rental_uris":{"android":"levelo://app?vid=b2e9e370-9210-49f2-a2bc-03587913b57f","ios":"levelo://app?vid=b2e9e370-9210-49f2-a2bc-03587913b57f"},"vehicle_type_id":"4","last_reported":1728799941,"current_range_meters":38800,"station_id":"ce4bhs12rcd13ifvqhvg","pricing_plan_id":"cebpf4jnsgd1na2vs0mg"},{"bike_id":"55582e1e-1cd8-4e96-933c-025471d1c473","system_id":"levelo_inurba_marseille","lat":43.26936,"lon":5.38924,"is_reserved":false,"is_disabled":false,"rental_uris":{"android":"levelo://app?vid=55582e1e-1cd8-4e96-933c-025471d1c473","ios":"levelo://app?vid=55582e1e-1cd8-4e96-933c-025471d1c473"},"vehicle_type_id":"4","last_reported":1728799941,"current_range_meters":8000,"station_id":"ce4bhhh2rcd13ifvqfl0","pricing_plan_id":"cebpf4jnsgd1na2vs0mg"},{"bike_id":"3281a0ec-58fb-4380-9d49-ea93cb621c0c","system_id":"levelo_inurba_marseille","lat":43.30243,"lon":5.40059,"is_reserved":false,"is_disabled":false,"rental_uris":{"android":"levelo://app?vid=3281a0ec-58fb-4380-9d49-ea93cb621c0c","ios":"levelo://app?vid=3281a0ec-58fb-4380-9d49-ea93cb621c0c"},"vehicle_type_id":"4","last_reported":1728799941,"current_range_meters":30800,"station_id":"ce4bgvh2rcd13ifvqcs0","pricing_plan_id":"cebpf4jnsgd1na2vs0mg"},{"bike_id":"d436aba9-cd69-47a3-8be1-18efe961d690","system_id":"levelo_inurba_marseille","lat":43.28657,"lon":5.36354,"is_reserved":false,"is_disabled":false,"rental_uris":{"android":"levelo://app?vid=d436aba9-cd69-47a3-8be1-18efe961d690","ios":"levelo://app?vid=d436aba9-cd69-47a3-8be1-18efe961d690"},"vehicle_type_id":"4","last_reported":1728799941,"current_range_meters":38800,"station_id":"ce4bhah2rcd13ifvqej0","pricing_plan_id":"cebpf4jnsgd1na2vs0mg"},{"bike_id":"98ee9e6c-a436-48c3-aa6d-74d566a0ee14","system_id":"levelo_inurba_marseille","lat":43.258186,"lon":5.39433,"is_reserved":false,"is_disabled":false,"rental_uris":{"android":"levelo://app?vid=98ee9e6c-a436-48c3-aa6d-74d566a0ee14","ios":"levelo://app?vid=98ee9e6c-a436-48c3-aa6d-74d566a0ee14"},"vehicle_type_id":"4","last_reported":1728799941,"current_range_meters":38800,"station_id":"ce4bhip2rcd13ifvqft0","pricing_plan_id":"cebpf4jnsgd1na2vs0mg"},{"bike_id":"e1f9486c-3843-42a6-aacd-4c828c67520a","system_id":"levelo_inurba_marseille","lat":43.23052,"lon":5.35494,"is_reserved":false,"is_disabled":false,"rental_uris":{"android":"levelo://app?vid=e1f9486c-3843-42a6-aacd-4c828c67520a","ios":"levelo://app?vid=e1f9486c-3843-42a6-aacd-4c828c67520a"},"vehicle_type_id":"4","last_reported":1728799941,"current_range_meters":32000,"station_id":"cpo3342slgdg3j2ifvpg","pricing_plan_id":"cebpf4jnsgd1na2vs0mg"},{"bike_id":"d862904a-f570-4538-95f7-4fcc46630b1c","system_id":"levelo_inurba_marseille","lat":43.27914,"lon":5.39584,"is_reserved":false,"is_disabled":false,"rental_uris":{"android":"levelo://app?vid=d862904a-f570-4538-95f7-4fcc46630b1c","ios":"levelo://app?vid=d862904a-f570-4538-95f7-4fcc46630b1c"},"vehicle_type_id":"4","last_reported":1728799941,"current_range_meters":36800,"station_id":"ce4bhf92rcd13ifvqf40","pricing_plan_id":"cebpf4jnsgd1na2vs0mg"},{"bike_id":"17f0a58b-fa96-470d-a1b0-89c2a0c2bfbe","system_id":"levelo_inurba_marseille","lat":43.23191,"lon":5.35557,"is_reserved":false,"is_disabled":false,"rental_uris":{"android":"levelo://app?vid=17f0a58b-fa96-470d-a1b0-89c2a0c2bfbe","ios":"levelo://app?vid=17f0a58b-fa96-470d-a1b0-89c2a0c2bfbe"},"vehicle_type_id":"4","last_reported":1728799941,"current_range_meters":18800,"station_id":"ce4bhu92rcd13ifvqi70","pricing_plan_id":"cebpf4jnsgd1na2vs0mg"},{"bike_id":"9767619a-3281-47be-939c-b6e115d5bcf9","system_id":"levelo_inurba_marseille","lat":43.27993,"lon":5.40011,"is_reserved":false,"is_disabled":false,"rental_uris":{"android":"levelo://app?vid=9767619a-3281-47be-939c-b6e115d5bcf9","ios":"levelo://app?vid=9767619a-3281-47be-939c-b6e115d5bcf9"},"vehicle_type_id":"4","last_reported":1728799941,"current_range_meters":37600,"station_id":"ce4bho92rcd13ifvqh4g","pricing_plan_id":"cebpf4jnsgd1na2vs0mg"},{"bike_id":"a6346a84-eb58-4259-8f5c-834589e4bcec","system_id":"levelo_inurba_marseille","lat":43.32536,"lon":5.41442,"is_reserved":false,"is_disabled":false,"rental_uris":{"android":"levelo://app?vid=a6346a84-eb58-4259-8f5c-834589e4bcec","ios":"levelo://app?vid=a6346a84-eb58-4259-8f5c-834589e4bcec"},"vehicle_type_id":"4","last_reported":1728799941,"current_range_meters":38800,"station_id":"ce4bhq12rcd13ifvqhhg","pricing_plan_id":"cebpf4jnsgd1na2vs0mg"},{"bike_id":"0383fd16-e9b8-4410-b536-493a9708d1c6","system_id":"levelo_inurba_marseille","lat":43.33023,"lon":5.39042,"is_reserved":false,"is_disabled":false,"rental_uris":{"android":"levelo://app?vid=0383fd16-e9b8-4410-b536-493a9708d1c6","ios":"levelo://app?vid=0383fd16-e9b8-4410-b536-493a9708d1c6"},"vehicle_type_id":"4","last_reported":1728799941,"current_range_meters":39200,"station_id":"ce4bhr92rcd13ifvqhrg","pricing_plan_id":"cebpf4jnsgd1na2vs0mg"},{"bike_id":"b25409bc-df4d-476a-893e-c6a5838692b2","system_id":"levelo_inurba_marseille","lat":43.23193,"lon":5.35554,"is_reserved":false,"is_disabled":false,"rental_uris":{"android":"levelo://app?vid=b25409bc-df4d-476a-893e-c6a5838692b2","ios":"levelo://app?vid=b25409bc-df4d-476a-893e-c6a5838692b2"},"vehicle_type_id":"4","last_reported":1728799941,"current_range_meters":38800,"station_id":"ce4bhu92rcd13ifvqi70","pricing_plan_id":"cebpf4jnsgd1na2vs0mg"},{"bike_id":"887fedf8-944b-42a2-ab80-88181529dcf8","system_id":"levelo_inurba_marseille","lat":43.28067,"lon":5.40987,"is_reserved":false,"is_disabled":false,"rental_uris":{"android":"levelo://app?vid=887fedf8-944b-42a2-ab80-88181529dcf8","ios":"levelo://app?vid=887fedf8-944b-42a2-ab80-88181529dcf8"},"vehicle_type_id":"4","last_reported":1728799941,"current_range_meters":34800,"station_id":"","pricing_plan_id":"cebpf4jnsgd1na2vs0mg"},{"bike_id":"f5b82967-6782-46d2-87a8-d4fab0581b3f","system_id":"levelo_inurba_marseille","lat":43.25937,"lon":5.40901,"is_reserved":false,"is_disabled":false,"rental_uris":{"android":"levelo://app?vid=f5b82967-6782-46d2-87a8-d4fab0581b3f","ios":"levelo://app?vid=f5b82967-6782-46d2-87a8-d4fab0581b3f"},"vehicle_type_id":"4","last_reported":1728799941,"current_range_meters":24400,"station_id":"ce4bhm92rcd13ifvqglg","pricing_plan_id":"cebpf4jnsgd1na2vs0mg"},{"bike_id":"8fb2b431-bcb9-46ba-80fb-e26e84592fc5","system_id":"levelo_inurba_marseille","lat":43.23185,"lon":5.35552,"is_reserved":false,"is_disabled":false,"rental_uris":{"android":"levelo://app?vid=8fb2b431-bcb9-46ba-80fb-e26e84592fc5","ios":"levelo://app?vid=8fb2b431-bcb9-46ba-80fb-e26e84592fc5"},"vehicle_type_id":"4","last_reported":1728799941,"current_range_meters":28400,"station_id":"ce4bhu92rcd13ifvqi70","pricing_plan_id":"cebpf4jnsgd1na2vs0mg"},{"bike_id":"4b2e8f9e-ecd0-4291-9fee-2fd269b3180c","system_id":"levelo_inurba_marseille","lat":43.324828,"lon":5.365601,"is_reserved":false,"is_disabled":false,"rental_uris":{"android":"levelo://app?vid=4b2e8f9e-ecd0-4291-9fee-2fd269b3180c","ios":"levelo://app?vid=4b2e8f9e-ecd0-4291-9fee-2fd269b3180c"},"vehicle_type_id":"4","last_reported":1728799941,"current_range_meters":38000,"station_id":"ce4bhs12rcd13ifvqhvg","pricing_plan_id":"cebpf4jnsgd1na2vs0mg"},{"bike_id":"05b7de8e-0432-4ca6-9443-88c3e42ebb31","system_id":"levelo_inurba_marseille","lat":43.30642,"lon":5.40092,"is_reserved":false,"is_disabled":false,"rental_uris":{"android":"levelo://app?vid=05b7de8e-0432-4ca6-9443-88c3e42ebb31","ios":"levelo://app?vid=05b7de8e-0432-4ca6-9443-88c3e42ebb31"},"vehicle_type_id":"4","last_reported":1728799941,"current_range_meters":39200,"station_id":"ce4bh112rcd13ifvqda0","pricing_plan_id":"cebpf4jnsgd1na2vs0mg"},{"bike_id":"c6b55a19-d824-451a-977a-92aea0ffaf10","system_id":"levelo_inurba_marseille","lat":43.28848,"lon":5.35858,"is_reserved":false,"is_disabled":false,"rental_uris":{"android":"levelo://app?vid=c6b55a19-d824-451a-977a-92aea0ffaf10","ios":"levelo://app?vid=c6b55a19-d824-451a-977a-92aea0ffaf10"},"vehicle_type_id":"4","last_reported":1728799941,"current_range_meters":38800,"station_id":"ce4bhb12rcd13ifvqem0","pricing_plan_id":"cebpf4jnsgd1na2vs0mg"},{"bike_id":"e2f25126-29b7-4581-a4fe-9e458716fb1d","system_id":"levelo_inurba_marseille","lat":43.2396,"lon":5.36633,"is_reserved":false,"is_disabled":false,"rental_uris":{"android":"levelo://app?vid=e2f25126-29b7-4581-a4fe-9e458716fb1d","ios":"levelo://app?vid=e2f25126-29b7-4581-a4fe-9e458716fb1d"},"vehicle_type_id":"4","last_reported":1728799941,"current_range_meters":25200,"station_id":"ce4bhi12rcd13ifvqfp0","pricing_plan_id":"cebpf4jnsgd1na2vs0mg"},{"bike_id":"4ec08f3e-201a-4bcf-846f-57279c6ce76f","system_id":"levelo_inurba_marseille","lat":43.292536,"lon":5.409044,"is_reserved":false,"is_disabled":false,"rental_uris":{"android":"levelo://app?vid=4ec08f3e-201a-4bcf-846f-57279c6ce76f","ios":"levelo://app?vid=4ec08f3e-201a-4bcf-846f-57279c6ce76f"},"vehicle_type_id":"4","last_reported":1728799941,"current_range_meters":38800,"station_id":"ce4bh192rcd13ifvqdc0","pricing_plan_id":"cebpf4jnsgd1na2vs0mg"},{"bike_id":"6746abcb-d28b-4802-b21a-150ec671a4ca","system_id":"levelo_inurba_marseille","lat":43.24671,"lon":5.38162,"is_reserved":false,"is_disabled":false,"rental_uris":{"android":"levelo://app?vid=6746abcb-d28b-4802-b21a-150ec671a4ca","ios":"levelo://app?vid=6746abcb-d28b-4802-b21a-150ec671a4ca"},"vehicle_type_id":"4","last_reported":1728799941,"current_range_meters":22000,"station_id":"ce4bhih2rcd13ifvqfr0","pricing_plan_id":"cebpf4jnsgd1na2vs0mg"},{"bike_id":"f79e89d1-d707-4b12-93c0-a8b2cba42263","system_id":"levelo_inurba_marseille","lat":43.26563,"lon":5.39002,"is_reserved":false,"is_disabled":false,"rental_uris":{"android":"levelo://app?vid=f79e89d1-d707-4b12-93c0-a8b2cba42263","ios":"levelo://app?vid=f79e89d1-d707-4b12-93c0-a8b2cba42263"},"vehicle_type_id":"4","last_reported":1728799941,"current_range_meters":38800,"station_id":"ce4bhe12rcd13ifvqf30","pricing_plan_id":"cebpf4jnsgd1na2vs0mg"},{"bike_id":"972e1e50-2e1e-454f-8635-5ea35f00e6a7","system_id":"levelo_inurba_marseille","lat":43.30453,"lon":5.40184,"is_reserved":false,"is_disabled":false,"rental_uris":{"android":"levelo://app?vid=972e1e50-2e1e-454f-8635-5ea35f00e6a7","ios":"levelo://app?vid=972e1e50-2e1e-454f-8635-5ea35f00e6a7"},"vehicle_type_id":"4","last_reported":1728799941,"current_range_meters":34800,"station_id":"","pricing_plan_id":"cebpf4jnsgd1na2vs0mg"},{"bike_id":"509c75f1-6dee-4835-b593-0a35aaec2b07","system_id":"levelo_inurba_marseille","lat":43.30883,"lon":5.39653,"is_reserved":false,"is_disabled":false,"rental_uris":{"android":"levelo://app?vid=509c75f1-6dee-4835-b593-0a35aaec2b07","ios":"levelo://app?vid=509c75f1-6dee-4835-b593-0a35aaec2b07"},"vehicle_type_id":"4","last_reported":1728799941,"current_range_meters":39200,"station_id":"ce4bh012rcd13ifvqcv0","pricing_plan_id":"cebpf4jnsgd1na2vs0mg"},{"bike_id":"9727869b-1ba2-4d66-9ae5-d306c1972059","system_id":"levelo_inurba_marseille","lat":43.26208,"lon":5.37445,"is_reserved":false,"is_disabled":false,"rental_uris":{"android":"levelo://app?vid=9727869b-1ba2-4d66-9ae5-d306c1972059","ios":"levelo://app?vid=9727869b-1ba2-4d66-9ae5-d306c1972059"},"vehicle_type_id":"4","last_reported":1728799941,"current_range_meters":28400,"station_id":"ce4bhgp2rcd13ifvqfc0","pricing_plan_id":"cebpf4jnsgd1na2vs0mg"},{"bike_id":"a00de00a-905c-4db5-a610-907d6a3631fb","system_id":"levelo_inurba_marseille","lat":43.31717,"lon":5.4241,"is_reserved":false,"is_disabled":false,"rental_uris":{"android":"levelo://app?vid=a00de00a-905c-4db5-a610-907d6a3631fb","ios":"levelo://app?vid=a00de00a-905c-4db5-a610-907d6a3631fb"},"vehicle_type_id":"4","last_reported":1728799941,"current_range_meters":32000,"station_id":"ce4bhp92rcd13ifvqhbg","pricing_plan_id":"cebpf4jnsgd1na2vs0mg"},{"bike_id":"7cabff55-4077-4020-89ed-581a3863585b","system_id":"levelo_inurba_marseille","lat":43.28931,"lon":5.36628,"is_reserved":false,"is_disabled":false,"rental_uris":{"android":"levelo://app?vid=7cabff55-4077-4020-89ed-581a3863585b","ios":"levelo://app?vid=7cabff55-4077-4020-89ed-581a3863585b"},"vehicle_type_id":"4","last_reported":1728799941,"current_range_meters":38800,"station_id":"ce4bhap2rcd13ifvqek0","pricing_plan_id":"cebpf4jnsgd1na2vs0mg"},{"bike_id":"6f6aa75e-2312-4bd3-bf06-df20614f1ef1","system_id":"levelo_inurba_marseille","lat":43.23185,"lon":5.4,"is_reserved":false,"is_disabled":false,"rental_uris":{"android":"levelo://app?vid=6f6aa75e-2312-4bd3-bf06-df20614f1ef1","ios":"levelo://app?vid=6f6aa75e-2312-4bd3-bf06-df20614f1ef1"},"vehicle_type_id":"4","last_reported":1728799941,"current_range_meters":4800,"station_id":"ce4bhn12rcd13ifvqgqg","pricing_plan_id":"cebpf4jnsgd1na2vs0mg"},{"bike_id":"e6049eb7-a913-4c30-b891-92576278de4c","system_id":"levelo_inurba_marseille","lat":43.2481,"lon":5.37453,"is_reserved":false,"is_disabled":false,"rental_uris":{"android":"levelo://app?vid=e6049eb7-a913-4c30-b891-92576278de4c","ios":"levelo://app?vid=e6049eb7-a913-4c30-b891-92576278de4c"},"vehicle_type_id":"4","last_reported":1728799941,"current_range_meters":30000,"station_id":"ce4bhgh2rcd13ifvqfb0","pricing_plan_id":"cebpf4jnsgd1na2vs0mg"},{"bike_id":"5921aa91-248f-4a16-8c98-9799af620238","system_id":"levelo_inurba_marseille","lat":43.29223,"lon":5.36058,"is_reserved":false,"is_disabled":false,"rental_uris":{"android":"levelo://app?vid=5921aa91-248f-4a16-8c98-9799af620238","ios":"levelo://app?vid=5921aa91-248f-4a16-8c98-9799af620238"},"vehicle_type_id":"4","last_reported":1728799941,"current_range_meters":24000,"station_id":"ce4bhbh2rcd13ifvqeqg","pricing_plan_id":"cebpf4jnsgd1na2vs0mg"},{"bike_id":"1f6da07d-6221-4aec-a348-09aa636acfd5","system_id":"levelo_inurba_marseille","lat":43.271807,"lon":5.40992,"is_reserved":false,"is_disabled":false,"rental_uris":{"android":"levelo://app?vid=1f6da07d-6221-4aec-a348-09aa636acfd5","ios":"levelo://app?vid=1f6da07d-6221-4aec-a348-09aa636acfd5"},"vehicle_type_id":"4","last_reported":1728799941,"current_range_meters":38800,"station_id":"ce4bhl12rcd13ifvqgf0","pricing_plan_id":"cebpf4jnsgd1na2vs0mg"},{"bike_id":"cbad0c38-d1eb-4eb8-b897-f59a32f0bf84","system_id":"levelo_inurba_marseille","lat":43.30453,"lon":5.37888,"is_reserved":false,"is_disabled":false,"rental_uris":{"android":"levelo://app?vid=cbad0c38-d1eb-4eb8-b897-f59a32f0bf84","ios":"levelo://app?vid=cbad0c38-d1eb-4eb8-b897-f59a32f0bf84"},"vehicle_type_id":"4","last_reported":1728799941,"current_range_meters":28000,"station_id":"ce4bgup2rcd13ifvqcn0","pricing_plan_id":"cebpf4jnsgd1na2vs0mg"},{"bike_id":"c4900d26-2372-42e9-81f0-a66bac17d365","system_id":"levelo_inurba_marseille","lat":43.29391,"lon":5.37877,"is_reserved":false,"is_disabled":false,"rental_uris":{"android":"levelo://app?vid=c4900d26-2372-42e9-81f0-a66bac17d365","ios":"levelo://app?vid=c4900d26-2372-42e9-81f0-a66bac17d365"},"vehicle_type_id":"4","last_reported":1728799941,"current_range_meters":25200,"station_id":"ce4bgjh2rcd13ifvqbf0","pricing_plan_id":"cebpf4jnsgd1na2vs0mg"},{"bike_id":"0e715dda-ad8c-4db5-ab6f-a2f571af8c87","system_id":"levelo_inurba_marseille","lat":43.31163,"lon":5.38718,"is_reserved":false,"is_disabled":false,"rental_uris":{"android":"levelo://app?vid=0e715dda-ad8c-4db5-ab6f-a2f571af8c87","ios":"levelo://app?vid=0e715dda-ad8c-4db5-ab6f-a2f571af8c87"},"vehicle_type_id":"4","last_reported":1728799941,"current_range_meters":9200,"station_id":"ce4bgv12rcd13ifvqcp0","pricing_plan_id":"cebpf4jnsgd1na2vs0mg"},{"bike_id":"f3ee8275-4858-4a5d-98ed-6e1feaa66473","system_id":"levelo_inurba_marseille","lat":43.26805,"lon":5.40268,"is_reserved":false,"is_disabled":false,"rental_uris":{"android":"levelo://app?vid=f3ee8275-4858-4a5d-98ed-6e1feaa66473","ios":"levelo://app?vid=f3ee8275-4858-4a5d-98ed-6e1feaa66473"},"vehicle_type_id":"4","last_reported":1728799941,"current_range_meters":39200,"station_id":"ce501612rcd8frsf0b60","pricing_plan_id":"cebpf4jnsgd1na2vs0mg"},{"bike_id":"bb81938b-b4b4-4c07-9ecc-2be73736f0b6","system_id":"levelo_inurba_marseille","lat":43.27067,"lon":5.4228,"is_reserved":false,"is_disabled":false,"rental_uris":{"android":"levelo://app?vid=bb81938b-b4b4-4c07-9ecc-2be73736f0b6","ios":"levelo://app?vid=bb81938b-b4b4-4c07-9ecc-2be73736f0b6"},"vehicle_type_id":"4","last_reported":1728799941,"current_range_meters":10800,"station_id":"ce4bhk92rcd13ifvqgb0","pricing_plan_id":"cebpf4jnsgd1na2vs0mg"},{"bike_id":"6a065387-3877-465d-86e0-9e6d72903917","system_id":"levelo_inurba_marseille","lat":43.320413,"lon":5.415565,"is_reserved":false,"is_disabled":false,"rental_uris":{"android":"levelo://app?vid=6a065387-3877-465d-86e0-9e6d72903917","ios":"levelo://app?vid=6a065387-3877-465d-86e0-9e6d72903917"},"vehicle_type_id":"4","last_reported":1728799941,"current_range_meters":38800,"station_id":"ce4bhq92rcd13ifvqhkg","pricing_plan_id":"cebpf4jnsgd1na2vs0mg"},{"bike_id":"a368bb98-b7c7-4477-b09d-a3bfc72e2d85","system_id":"levelo_inurba_marseille","lat":43.29885,"lon":5.39735,"is_reserved":false,"is_disabled":false,"rental_uris":{"android":"levelo://app?vid=a368bb98-b7c7-4477-b09d-a3bfc72e2d85","ios":"levelo://app?vid=a368bb98-b7c7-4477-b09d-a3bfc72e2d85"},"vehicle_type_id":"4","last_reported":1728799941,"current_range_meters":17200,"station_id":"ce4bh0h2rcd13ifvqd50","pricing_plan_id":"cebpf4jnsgd1na2vs0mg"},{"bike_id":"ed46c01a-e808-497e-bab0-4e396bdc551c","system_id":"levelo_inurba_marseille","lat":43.28468,"lon":5.38411,"is_reserved":false,"is_disabled":false,"rental_uris":{"android":"levelo://app?vid=ed46c01a-e808-497e-bab0-4e396bdc551c","ios":"levelo://app?vid=ed46c01a-e808-497e-bab0-4e396bdc551c"},"vehicle_type_id":"4","last_reported":1728799941,"current_range_meters":28000,"station_id":"ce4bh512rcd13ifvqe3g","pricing_plan_id":"cebpf4jnsgd1na2vs0mg"},{"bike_id":"9ff233ae-5546-4eab-998e-fa3a9207492c","system_id":"levelo_inurba_marseille","lat":43.23182,"lon":5.39993,"is_reserved":false,"is_disabled":false,"rental_uris":{"android":"levelo://app?vid=9ff233ae-5546-4eab-998e-fa3a9207492c","ios":"levelo://app?vid=9ff233ae-5546-4eab-998e-fa3a9207492c"},"vehicle_type_id":"4","last_reported":1728799941,"current_range_meters":30400,"station_id":"ce4bhn12rcd13ifvqgqg","pricing_plan_id":"cebpf4jnsgd1na2vs0mg"},{"bike_id":"1dd63510-d3dc-49a0-9b34-4150d50fbc89","system_id":"levelo_inurba_marseille","lat":43.30883,"lon":5.39651,"is_reserved":false,"is_disabled":false,"rental_uris":{"android":"levelo://app?vid=1dd63510-d3dc-49a0-9b34-4150d50fbc89","ios":"levelo://app?vid=1dd63510-d3dc-49a0-9b34-4150d50fbc89"},"vehicle_type_id":"4","last_reported":1728799941,"current_range_meters":8000,"station_id":"ce4bh012rcd13ifvqcv0","pricing_plan_id":"cebpf4jnsgd1na2vs0mg"},{"bike_id":"e53d9dac-6d16-4334-ad56-d0d38fcf4eb7","system_id":"levelo_inurba_marseille","lat":43.27967,"lon":5.4183,"is_reserved":false,"is_disabled":false,"rental_uris":{"android":"levelo://app?vid=e53d9dac-6d16-4334-ad56-d0d38fcf4eb7","ios":"levelo://app?vid=e53d9dac-6d16-4334-ad56-d0d38fcf4eb7"},"vehicle_type_id":"4","last_reported":1728799941,"current_range_meters":25600,"station_id":"","pricing_plan_id":"cebpf4jnsgd1na2vs0mg"},{"bike_id":"d65efb3b-2afa-45d2-bcce-b806ada453bd","system_id":"levelo_inurba_marseille","lat":43.28457,"lon":5.35883,"is_reserved":false,"is_disabled":false,"rental_uris":{"android":"levelo://app?vid=d65efb3b-2afa-45d2-bcce-b806ada453bd","ios":"levelo://app?vid=d65efb3b-2afa-45d2-bcce-b806ada453bd"},"vehicle_type_id":"4","last_reported":1728799941,"current_range_meters":38400,"station_id":"ce4bhah2rcd13ifvqei0","pricing_plan_id":"cebpf4jnsgd1na2vs0mg"},{"bike_id":"1e0da37a-f9be-40aa-9824-1c023094493f","system_id":"levelo_inurba_marseille","lat":43.26554,"lon":5.37283,"is_reserved":false,"is_disabled":false,"rental_uris":{"android":"levelo://app?vid=1e0da37a-f9be-40aa-9824-1c023094493f","ios":"levelo://app?vid=1e0da37a-f9be-40aa-9824-1c023094493f"},"vehicle_type_id":"4","last_reported":1728799941,"current_range_meters":5600,"station_id":"ce4bhg12rcd13ifvqf70","pricing_plan_id":"cebpf4jnsgd1na2vs0mg"},{"bike_id":"5ab70f1b-3f2c-4f8b-a0cc-cdba02fd83d4","system_id":"levelo_inurba_marseille","lat":43.32485,"lon":5.36557,"is_reserved":false,"is_disabled":false,"rental_uris":{"android":"levelo://app?vid=5ab70f1b-3f2c-4f8b-a0cc-cdba02fd83d4","ios":"levelo://app?vid=5ab70f1b-3f2c-4f8b-a0cc-cdba02fd83d4"},"vehicle_type_id":"4","last_reported":1728799941,"current_range_meters":32800,"station_id":"ce4bhs12rcd13ifvqhvg","pricing_plan_id":"cebpf4jnsgd1na2vs0mg"},{"bike_id":"954c95c0-ca16-4d6f-b3f0-1eed6830e4f0","system_id":"levelo_inurba_marseille","lat":43.29269,"lon":5.40123,"is_reserved":false,"is_disabled":false,"rental_uris":{"android":"levelo://app?vid=954c95c0-ca16-4d6f-b3f0-1eed6830e4f0","ios":"levelo://app?vid=954c95c0-ca16-4d6f-b3f0-1eed6830e4f0"},"vehicle_type_id":"4","last_reported":1728799941,"current_range_meters":39200,"station_id":"ce4bh312rcd13ifvqdk0","pricing_plan_id":"cebpf4jnsgd1na2vs0mg"},{"bike_id":"dca05137-5c70-4a29-82e4-70d4f81f5280","system_id":"levelo_inurba_marseille","lat":43.28037,"lon":5.36949,"is_reserved":false,"is_disabled":false,"rental_uris":{"android":"levelo://app?vid=dca05137-5c70-4a29-82e4-70d4f81f5280","ios":"levelo://app?vid=dca05137-5c70-4a29-82e4-70d4f81f5280"},"vehicle_type_id":"4","last_reported":1728799941,"current_range_meters":37600,"station_id":"ce4bha12rcd13ifvqef0","pricing_plan_id":"cebpf4jnsgd1na2vs0mg"},{"bike_id":"7a12168f-ea98-4f17-89da-dd7a7665cbf6","system_id":"levelo_inurba_marseille","lat":43.28704,"lon":5.39986,"is_reserved":false,"is_disabled":false,"rental_uris":{"android":"levelo://app?vid=7a12168f-ea98-4f17-89da-dd7a7665cbf6","ios":"levelo://app?vid=7a12168f-ea98-4f17-89da-dd7a7665cbf6"},"vehicle_type_id":"4","last_reported":1728799941,"current_range_meters":28000,"station_id":"ce4bho92rcd13ifvqh3g","pricing_plan_id":"cebpf4jnsgd1na2vs0mg"},{"bike_id":"4c0b401a-eed5-40fc-919a-7995633bd32e","system_id":"levelo_inurba_marseille","lat":43.31066,"lon":5.38346,"is_reserved":false,"is_disabled":false,"rental_uris":{"android":"levelo://app?vid=4c0b401a-eed5-40fc-919a-7995633bd32e","ios":"levelo://app?vid=4c0b401a-eed5-40fc-919a-7995633bd32e"},"vehicle_type_id":"4","last_reported":1728799941,"current_range_meters":30800,"station_id":"ce4bgv92rcd13ifvqcr0","pricing_plan_id":"cebpf4jnsgd1na2vs0mg"},{"bike_id":"9fb1a937-ae5a-42d8-bd65-33ddcdad479e","system_id":"levelo_inurba_marseille","lat":43.29559,"lon":5.42287,"is_reserved":false,"is_disabled":false,"rental_uris":{"android":"levelo://app?vid=9fb1a937-ae5a-42d8-bd65-33ddcdad479e","ios":"levelo://app?vid=9fb1a937-ae5a-42d8-bd65-33ddcdad479e"},"vehicle_type_id":"4","last_reported":1728799941,"current_range_meters":38800,"station_id":"ce4bhph2rcd13ifvqhdg","pricing_plan_id":"cebpf4jnsgd1na2vs0mg"},{"bike_id":"2c4c4fdd-4be3-40ba-ae9f-53b1d6165fc5","system_id":"levelo_inurba_marseille","lat":43.28847,"lon":5.35839,"is_reserved":false,"is_disabled":false,"rental_uris":{"android":"levelo://app?vid=2c4c4fdd-4be3-40ba-ae9f-53b1d6165fc5","ios":"levelo://app?vid=2c4c4fdd-4be3-40ba-ae9f-53b1d6165fc5"},"vehicle_type_id":"4","last_reported":1728799941,"current_range_meters":8400,"station_id":"ce4bhb12rcd13ifvqem0","pricing_plan_id":"cebpf4jnsgd1na2vs0mg"},{"bike_id":"21fbe4f0-3c8c-48c3-9045-08442e3e91fc","system_id":"levelo_inurba_marseille","lat":43.269562,"lon":5.386426,"is_reserved":false,"is_disabled":false,"rental_uris":{"android":"levelo://app?vid=21fbe4f0-3c8c-48c3-9045-08442e3e91fc","ios":"levelo://app?vid=21fbe4f0-3c8c-48c3-9045-08442e3e91fc"},"vehicle_type_id":"4","last_reported":1728799941,"current_range_meters":20400,"station_id":"ce4bhh92rcd13ifvqfh0","pricing_plan_id":"cebpf4jnsgd1na2vs0mg"},{"bike_id":"7e6935f4-8f70-4b95-a429-bfc9c553e07c","system_id":"levelo_inurba_marseille","lat":43.2586,"lon":5.39904,"is_reserved":false,"is_disabled":false,"rental_uris":{"android":"levelo://app?vid=7e6935f4-8f70-4b95-a429-bfc9c553e07c","ios":"levelo://app?vid=7e6935f4-8f70-4b95-a429-bfc9c553e07c"},"vehicle_type_id":"4","last_reported":1728799941,"current_range_meters":26000,"station_id":"ce4bhl92rcd13ifvqghg","pricing_plan_id":"cebpf4jnsgd1na2vs0mg"},{"bike_id":"91fc0894-36d9-44a0-9d4a-4db1117ec914","system_id":"levelo_inurba_marseille","lat":43.3095,"lon":5.39032,"is_reserved":false,"is_disabled":false,"rental_uris":{"android":"levelo://app?vid=91fc0894-36d9-44a0-9d4a-4db1117ec914","ios":"levelo://app?vid=91fc0894-36d9-44a0-9d4a-4db1117ec914"},"vehicle_type_id":"4","last_reported":1728799941,"current_range_meters":38400,"station_id":"ce4bgup2rcd13ifvqco0","pricing_plan_id":"cebpf4jnsgd1na2vs0mg"},