{"last_updated":1740841684,"ttl":60,"version":"2.2","data":{"bikes":[{"bike_id":"498c2ace-4821-4676-a9ac-9368b02a49b6","system_id":"levelo_inurba_marseille","lat":43.33799,"lon":5.37386,"is_reserved":false,"is_disabled":false,"rental_uris":{"android":"levelo://app?vid=498c2ace-4821-4676-a9ac-9368b02a49b6","ios":"levelo://app?vid=498c2ace-4821-4676-a9ac-9368b02a49b6"},"vehicle_type_id":"4","last_reported":1740841684,"current_range_meters":30000,"station_id":"","pricing_plan_id":"cebpf4jnsgd1na2vs0mg"},{"bike_id":"b5a2265c-20f9-4c40-8925-f8a3d220a38b","system_id":"levelo_inurba_marseille","lat":43.29883,"lon":5.40064,"is_reserved":false,"is_disabled":true,"rental_uris":{"android":"levelo://app?vid=b5a2265c-20f9-4c40-8925-f8a3d220a38b","ios":"levelo://app?vid=b5a2265c-20f9-4c40-8925-f8a3d220a38b"},"vehicle_type_id":"4","last_reported":1740841684,"current_range_meters":0,"station_id":"","pricing_plan_id":"cebpf4jnsgd1na2vs0mg"},{"bike_id":"b205ffbb-29c4-40e4-a7ed-648d434cd32b","system_id":"levelo_inurba_marseille","lat":43.309587,"lon":5.3904,"is_reserved":false,"is_disabled":true,"rental_uris":{"android":"levelo://app?vid=b205ffbb-29c4-40e4-a7ed-648d434cd32b","ios":"levelo://app?vid=b205ffbb-29c4-40e4-a7ed-648d434cd32b"},"vehicle_type_id":"4","last_reported":1740841684,"current_range_meters":0,"station_id":"ce4bgup2rcd13ifvqco0","pricing_plan_id":"cebpf4jnsgd1na2vs0mg"},{"bike_id":"a8328c72-27ce-4150-a953-d0b7993a21b2","system_id":"levelo_inurba_marseille","lat":43.29256,"lon":5.37616,"is_reserved":false,"is_disabled":true,"rental_uris":{"android":"levelo://app?vid=a8328c72-27ce-4150-a953-d0b7993a21b2","ios":"levelo://app?vid=a8328c72-27ce-4150-a953-d0b7993a21b2"},"vehicle_type_id":"4","last_reported":1740841684,"current_range_meters":800,"station_id":"ce4bgi12rcd13ifvqb80","pricing_plan_id":"cebpf4jnsgd1na2vs0mg"},{"bike_id":"89a7517e-6658-46c5-a615-9e427ec79029","system_id":"levelo_inurba_marseille","lat":43.25716,"lon":5.41786,"is_reserved":false,"is_disabled":true,"rental_uris":{"android":"levelo://app?vid=89a7517e-6658-46c5-a615-9e427ec79029","ios":"levelo://app?vid=89a7517e-6658-46c5-a615-9e427ec79029"},"vehicle_type_id":"4","last_reported":1740841684,"current_range_meters":1200,"station_id":"","pricing_plan_id":"cebpf4jnsgd1na2vs0mg"},{"bike_id":"3a70cc68-55d6-4ba4-ac38-d4869201e2cf","system_id":"levelo_inurba_marseille","lat":43.2972,"lon":5.37696,"is_reserved":false,"is_disabled":false,"rental_uris":{"android":"levelo://app?vid=3a70cc68-55d6-4ba4-ac38-d4869201e2cf","ios":"levelo://app?vid=3a70cc68-55d6-4ba4-ac38-d4869201e2cf"},"vehicle_type_id":"4","last_reported":1740841684,"current_range_meters":2000,"station_id":"ce4bgkh2rcd13ifvqbl0","pricing_plan_id":"cebpf4jnsgd1na2vs0mg"},{"bike_id":"51254141-d350-4739-8f91-9c1ecd241bcb","system_id":"levelo_inurba_marseille","lat":43.29858,"lon":5.36287,"is_reserved":false,"is_disabled":false,"rental_uris":{"android":"levelo://app?vid=51254141-d350-4739-8f91-9c1ecd241bcb","ios":"levelo://app?vid=51254141-d350-4739-8f91-9c1ecd241bcb"},"vehicle_type_id":"4","last_reported":1740841684,"current_range_meters":3600,"station_id":"ce4bgpp2rcd13ifvqc3g","pricing_plan_id":"cebpf4jnsgd1na2vs0mg"},{"bike_id":"c4d7c314-a990-41a2-893f-66cbf6687c0f","system_id":"levelo_inurba_marseille","lat":43.294242,"lon":5.386384,"is_reserved":false,"is_disabled":false,"rental_uris":{"android":"levelo://app?vid=c4d7c314-a990-41a2-893f-66cbf6687c0f","ios":"levelo://app?vid=c4d7c314-a990-41a2-893f-66cbf6687c0f"},"vehicle_type_id":"4","last_reported":1740841684,"current_range_meters":4000,"station_id":"ce4bh2h2rcd13ifvqdh0","pricing_plan_id":"cebpf4jnsgd1na2vs0mg"},{"bike_id":"fec06910-07f0-48a6-a5fb-cac0e9b54af9","system_id":"levelo_inurba_marseille","lat":43.25728,"lon":5.4182,"is_reserved":false,"is_disabled":false,"rental_uris":{"android":"levelo://app?vid=fec06910-07f0-48a6-a5fb-cac0e9b54af9","ios":"levelo://app?vid=fec06910-07f0-48a6-a5fb-cac0e9b54af9"},"vehicle_type_id":"4","last_reported":1740841684,"current_range_meters":4400,"station_id":"","pricing_plan_id":"cebpf4jnsgd1na2vs0mg"},{"bike_id":"9fa6a8fb-1884-4c88-9d3d-114ae3b90f98","system_id":"levelo_inurba_marseille","lat":43.28967,"lon":5.37842,"is_reserved":false,"is_disabled":false,"rental_uris":{"android":"levelo://app?vid=9fa6a8fb-1884-4c88-9d3d-114ae3b90f98","ios":"levelo://app?vid=9fa6a8fb-1884-4c88-9d3d-114ae3b90f98"},"vehicle_type_id":"4","last_reported":1740841684,"current_range_meters":4400,"station_id":"ce4bh9p2rcd13ifvqed0","pricing_plan_id":"cebpf4jnsgd1na2vs0mg"},{"bike_id":"58a68f7e-3a58-4830-88c7-f299e7022d3e","system_id":"levelo_inurba_marseille","lat":43.31487,"lon":5.37319,"is_reserved":false,"is_disabled":false,"rental_uris":{"android":"levelo://app?vid=58a68f7e-3a58-4830-88c7-f299e7022d3e","ios":"levelo://app?vid=58a68f7e-3a58-4830-88c7-f299e7022d3e"},"vehicle_type_id":"4","last_reported":1740841684,"current_range_meters":4800,"station_id":"ce4bgt12rcd13ifvqcd0","pricing_plan_id":"cebpf4jnsgd1na2vs0mg"},{"bike_id":"49e0a034-277f-4658-83cf-83e39377ef50","system_id":"levelo_inurba_marseille","lat":43.29517,"lon":5.37931,"is_reserved":false,"is_disabled":false,"rental_uris":{"android":"levelo://app?vid=49e0a034-277f-4658-83cf-83e39377ef50","ios":"levelo://app?vid=49e0a034-277f-4658-83cf-83e39377ef50"},"vehicle_type_id":"4","last_reported":1740841684,"current_range_meters":5600,"station_id":"","pricing_plan_id":"cebpf4jnsgd1na2vs0mg"},{"bike_id":"bcb3dd3d-4bbe-4a55-8cc6-0ab0579bcdbe","system_id":"levelo_inurba_marseille","lat":43.31713,"lon":5.37756,"is_reserved":false,"is_disabled":false,"rental_uris":{"android":"levelo://app?vid=bcb3dd3d-4bbe-4a55-8cc6-0ab0579bcdbe","ios":"levelo://app?vid=bcb3dd3d-4bbe-4a55-8cc6-0ab0579bcdbe"},"vehicle_type_id":"4","last_reported":1740841684,"current_range_meters":5600,"station_id":"ce4bgth2rcd13ifvqch0","pricing_plan_id":"cebpf4jnsgd1na2vs0mg"},{"bike_id":"b373bd9c-e2e5-410a-8373-5722011b2608","system_id":"levelo_inurba_marseille","lat":43.29275,"lon":5.40122,"is_reserved":false,"is_disabled":false,"rental_uris":{"android":"levelo://app?vid=b373bd9c-e2e5-410a-8373-5722011b2608","ios":"levelo://app?vid=b373bd9c-e2e5-410a-8373-5722011b2608"},"vehicle_type_id":"4","last_reported":1740841684,"current_range_meters":5600,"station_id":"ce4bh312rcd13ifvqdk0","pricing_plan_id":"cebpf4jnsgd1na2vs0mg"},{"bike_id":"4a9e6264-d863-4ecc-a470-f0d1cba244d7","system_id":"levelo_inurba_marseille","lat":43.27323,"lon":5.39106,"is_reserved":false,"is_disabled":false,"rental_uris":{"android":"levelo://app?vid=4a9e6264-d863-4ecc-a470-f0d1cba244d7","ios":"levelo://app?vid=4a9e6264-d863-4ecc-a470-f0d1cba244d7"},"vehicle_type_id":"4","last_reported":1740841684,"current_range_meters":5600,"station_id":"ce4bhgp2rcd13ifvqfe0","pricing_plan_id":"cebpf4jnsgd1na2vs0mg"},{"bike_id":"3de9aeda-1f9a-4bbc-8b90-e02a49e56ca9","system_id":"levelo_inurba_marseille","lat":43.23194,"lon":5.35558,"is_reserved":false,"is_disabled":false,"rental_uris":{"android":"levelo://app?vid=3de9aeda-1f9a-4bbc-8b90-e02a49e56ca9","ios":"levelo://app?vid=3de9aeda-1f9a-4bbc-8b90-e02a49e56ca9"},"vehicle_type_id":"4","last_reported":1740841684,"current_range_meters":5600,"station_id":"ce4bhu92rcd13ifvqi70","pricing_plan_id":"cebpf4jnsgd1na2vs0mg"},{"bike_id":"4097b1c9-81ed-4381-9f60-ce4d99e4355d","system_id":"levelo_inurba_marseille","lat":43.2306,"lon":5.35489,"is_reserved":false,"is_disabled":false,"rental_uris":{"android":"levelo://app?vid=4097b1c9-81ed-4381-9f60-ce4d99e4355d","ios":"levelo://app?vid=4097b1c9-81ed-4381-9f60-ce4d99e4355d"},"vehicle_type_id":"4","last_reported":1740841684,"current_range_meters":5600,"station_id":"cpo3342slgdg3j2ifvpg","pricing_plan_id":"cebpf4jnsgd1na2vs0mg"},{"bike_id":"79cafc9e-754b-48d7-8051-c81fd8332b25","system_id":"levelo_inurba_marseille","lat":43.300106,"lon":5.385884,"is_reserved":false,"is_disabled":false,"rental_uris":{"android":"levelo://app?vid=79cafc9e-754b-48d7-8051-c81fd8332b25","ios":"levelo://app?vid=79cafc9e-754b-48d7-8051-c81fd8332b25"},"vehicle_type_id":"4","last_reported":1740841684,"current_range_meters":6000,"station_id":"ce4bh2h2rcd13ifvqdh0","pricing_plan_id":"cebpf4jnsgd1na2vs0mg"},{"bike_id":"5aa63f21-09e7-4528-a8fd-b8073cc13dd3","system_id":"levelo_inurba_marseille","lat":43.29099,"lon":5.38157,"is_reserved":false,"is_disabled":false,"rental_uris":{"android":"levelo://app?vid=5aa63f21-09e7-4528-a8fd-b8073cc13dd3","ios":"levelo://app?vid=5aa63f21-09e7-4528-a8fd-b8073cc13dd3"},"vehicle_type_id":"4","last_reported":1740841684,"current_range_meters":6000,"station_id":"ce4bh512rcd13ifvqe2g","pricing_plan_id":"cebpf4jnsgd1na2vs0mg"},{"bike_id":"9125a52a-7636-4ef7-91be-dae27247ba17","system_id":"levelo_inurba_marseille","lat":43.25503,"lon":5.37659,"is_reserved":false,"is_disabled":false,"rental_uris":{"android":"levelo://app?vid=9125a52a-7636-4ef7-91be-dae27247ba17","ios":"levelo://app?vid=9125a52a-7636-4ef7-91be-dae27247ba17"},"vehicle_type_id":"4","last_reported":1740841684,"current_range_meters":6000,"station_id":"ce4bhh12rcd13ifvqff0","pricing_plan_id":"cebpf4jnsgd1na2vs0mg"},{"bike_id":"649ee275-78b1-4db3-812f-fe4d0b7e5ee7","system_id":"levelo_inurba_marseille","lat":43.26214,"lon":5.37927,"is_reserved":false,"is_disabled":false,"rental_uris":{"android":"levelo://app?vid=649ee275-78b1-4db3-812f-fe4d0b7e5ee7","ios":"levelo://app?vid=649ee275-78b1-4db3-812f-fe4d0b7e5ee7"},"vehicle_type_id":"4","last_reported":1740841684,"current_range_meters":6000,"station_id":"ce4bhjp2rcd13ifvqg90","pricing_plan_id":"cebpf4jnsgd1na2vs0mg"},{"bike_id":"5898c058-ebcb-4112-ac48-b2be8e8b370f","system_id":"levelo_inurba_marseille","lat":43.29103,"lon":5.38137,"is_reserved":false,"is_disabled":false,"rental_uris":{"android":"levelo://app?vid=5898c058-ebcb-4112-ac48-b2be8e8b370f","ios":"levelo://app?vid=5898c058-ebcb-4112-ac48-b2be8e8b370f"},"vehicle_type_id":"4","last_reported":1740841684,"current_range_meters":6400,"station_id":"ce4bh512rcd13ifvqe2g","pricing_plan_id":"cebpf4jnsgd1na2vs0mg"},{"bike_id":"ab435d74-ab89-4176-9f60-fdf2fec9096d","system_id":"levelo_inurba_marseille","lat":43.30329,"lon":5.40436,"is_reserved":false,"is_disabled":false,"rental_uris":{"android":"levelo://app?vid=ab435d74-ab89-4176-9f60-fdf2fec9096d","ios":"levelo://app?vid=ab435d74-ab89-4176-9f60-fdf2fec9096d"},"vehicle_type_id":"4","last_reported":1740841684,"current_range_meters":6800,"station_id":"ce4bh012rcd13ifvqd10","pricing_plan_id":"cebpf4jnsgd1na2vs0mg"},{"bike_id":"d36301ff-065c-4644-9520-d9e8e53fafb9","system_id":"levelo_inurba_marseille","lat":43.27209,"lon":5.39199,"is_reserved":false,"is_disabled":false,"rental_uris":{"android":"levelo://app?vid=d36301ff-065c-4644-9520-d9e8e53fafb9","ios":"levelo://app?vid=d36301ff-065c-4644-9520-d9e8e53fafb9"},"vehicle_type_id":"4","last_reported":1740841684,"current_range_meters":6800,"station_id":"ce4bhhp2rcd13ifvqfm0","pricing_plan_id":"cebpf4jnsgd1na2vs0mg"},{"bike_id":"87b985b0-b21a-457b-876e-995bf2ff8f5e","system_id":"levelo_inurba_marseille","lat":43.32087,"lon":5.36783,"is_reserved":false,"is_disabled":false,"rental_uris":{"android":"levelo://app?vid=87b985b0-b21a-457b-876e-995bf2ff8f5e","ios":"levelo://app?vid=87b985b0-b21a-457b-876e-995bf2ff8f5e"},"vehicle_type_id":"4","last_reported":1740841684,"current_range_meters":6800,"station_id":"ce4bhrh2rcd13ifvqhug","pricing_plan_id":"cebpf4jnsgd1na2vs0mg"},{"bike_id":"9eb62bd7-0fdc-491b-9eef-be0a9f73fbfb","system_id":"levelo_inurba_marseille","lat":43.24161,"lon":5.36415,"is_reserved":false,"is_disabled":false,"rental_uris":{"android":"levelo://app?vid=9eb62bd7-0fdc-491b-9eef-be0a9f73fbfb","ios":"levelo://app?vid=9eb62bd7-0fdc-491b-9eef-be0a9f73fbfb"},"vehicle_type_id":"4","last_reported":1740841684,"current_range_meters":6800,"station_id":"cpo36qri1sfpv3e86is0","pricing_plan_id":"cebpf4jnsgd1na2vs0mg"},{"bike_id":"be047da3-12fb-470e-9d78-68641c40dc2c","system_id":"levelo_inurba_marseille","lat":43.28659,"lon":5.40969,"is_reserved":false,"is_disabled":false,"rental_uris":{"android":"levelo://app?vid=be047da3-12fb-470e-9d78-68641c40dc2c","ios":"levelo://app?vid=be047da3-12fb-470e-9d78-68641c40dc2c"},"vehicle_type_id":"4","last_reported":1740841684,"current_range_meters":7200,"station_id":"","pricing_plan_id":"cebpf4jnsgd1na2vs0mg"},{"bike_id":"576bf4de-0033-46bf-9e74-74d91d945d5e","system_id":"levelo_inurba_marseille","lat":43.31242,"lon":5.36872,"is_reserved":false,"is_disabled":false,"rental_uris":{"android":"levelo://app?vid=576bf4de-0033-46bf-9e74-74d91d945d5e","ios":"levelo://app?vid=576bf4de-0033-46bf-9e74-74d91d945d5e"},"vehicle_type_id":"4","last_reported":1740841684,"current_range_meters":7200,"station_id":"ce4bgl92rcd13ifvqbq0","pricing_plan_id":"cebpf4jnsgd1na2vs0mg"},{"bike_id":"15832f90-976b-44e3-a3aa-6bcca45efae8","system_id":"levelo_inurba_marseille","lat":43.29845,"lon":5.36293,"is_reserved":false,"is_disabled":false,"rental_uris":{"android":"levelo://app?vid=15832f90-976b-44e3-a3aa-6bcca45efae8","ios":"levelo://app?vid=15832f90-976b-44e3-a3aa-6bcca45efae8"},"vehicle_type_id":"4","last_reported":1740841684,"current_range_meters":7200,"station_id":"ce4bgpp2rcd13ifvqc3g","pricing_plan_id":"cebpf4jnsgd1na2vs0mg"},{"bike_id":"f76068e2-e5cd-429c-a288-64ac8b76974f","system_id":"levelo_inurba_marseille","lat":43.3094,"lon":5.40147,"is_reserved":false,"is_disabled":false,"rental_uris":{"android":"levelo://app?vid=f76068e2-e5cd-429c-a288-64ac8b76974f","ios":"levelo://app?vid=f76068e2-e5cd-429c-a288-64ac8b76974f"},"vehicle_type_id":"4","last_reported":1740841684,"current_range_meters":7200,"station_id":"ce4bgvp2rcd13ifvqct0","pricing_plan_id":"cebpf4jnsgd1na2vs0mg"},{"bike_id":"77b7c322-7703-4fb8-9103-770e7bb5551e","system_id":"levelo_inurba_marseille","lat":43.26559,"lon":5.37293,"is_reserved":false,"is_disabled":false,"rental_uris":{"android":"levelo://app?vid=77b7c322-7703-4fb8-9103-770e7bb5551e","ios":"levelo://app?vid=77b7c322-7703-4fb8-9103-770e7bb5551e"},"vehicle_type_id":"4","last_reported":1740841684,"current_range_meters":7200,"station_id":"ce4bhg12rcd13ifvqf70","pricing_plan_id":"cebpf4jnsgd1na2vs0mg"},{"bike_id":"d5481c01-2984-43f7-9ca9-876cf6aa8921","system_id":"levelo_inurba_marseille","lat":43.27989,"lon":5.40022,"is_reserved":false,"is_disabled":false,"rental_uris":{"android":"levelo://app?vid=d5481c01-2984-43f7-9ca9-876cf6aa8921","ios":"levelo://app?vid=d5481c01-2984-43f7-9ca9-876cf6aa8921"},"vehicle_type_id":"4","last_reported":1740841684,"current_range_meters":7200,"station_id":"ce4bho92rcd13ifvqh4g","pricing_plan_id":"cebpf4jnsgd1na2vs0mg"},{"bike_id":"6581f07b-f4c8-45e5-91e9-df2094e3176d","system_id":"levelo_inurba_marseille","lat":43.30537,"lon":5.36719,"is_reserved":false,"is_disabled":false,"rental_uris":{"android":"levelo://app?vid=6581f07b-f4c8-45e5-91e9-df2094e3176d","ios":"levelo://app?vid=6581f07b-f4c8-45e5-91e9-df2094e3176d"},"vehicle_type_id":"4","last_reported":1740841684,"current_range_meters":8000,"station_id":"ce4bgrp2rcd13ifvqc9g","pricing_plan_id":"cebpf4jnsgd1na2vs0mg"},{"bike_id":"f5fc676c-3c4b-470d-b394-15a460bc6e14","system_id":"levelo_inurba_marseille","lat":43.28976,"lon":5.37837,"is_reserved":false,"is_disabled":false,"rental_uris":{"android":"levelo://app?vid=f5fc676c-3c4b-470d-b394-15a460bc6e14","ios":"levelo://app?vid=f5fc676c-3c4b-470d-b394-15a460bc6e14"},"vehicle_type_id":"4","last_reported":1740841684,"current_range_meters":8000,"station_id":"ce4bh9p2rcd13ifvqed0","pricing_plan_id":"cebpf4jnsgd1na2vs0mg"},{"bike_id":"a5fd71ea-4807-4e2d-a716-448c8cd70326","system_id":"levelo_inurba_marseille","lat":43.2655,"lon":5.3729,"is_reserved":false,"is_disabled":false,"rental_uris":{"android":"levelo://app?vid=a5fd71ea-4807-4e2d-a716-448c8cd70326","ios":"levelo://app?vid=a5fd71ea-4807-4e2d-a716-448c8cd70326"},"vehicle_type_id":"4","last_reported":1740841684,"current_range_meters":8000,"station_id":"ce4bhg12rcd13ifvqf70","pricing_plan_id":"cebpf4jnsgd1na2vs0mg"},{"bike_id":"fa32e183-306a-47e5-ad8c-fff869084beb","system_id":"levelo_inurba_marseille","lat":43.29598,"lon":5.38098,"is_reserved":false,"is_disabled":false,"rental_uris":{"android":"levelo://app?vid=fa32e183-306a-47e5-ad8c-fff869084beb","ios":"levelo://app?vid=fa32e183-306a-47e5-ad8c-fff869084beb"},"vehicle_type_id":"4","last_reported":1740841684,"current_range_meters":8400,"station_id":"ce4bgl12rcd13ifvqbo0","pricing_plan_id":"cebpf4jnsgd1na2vs0mg"},{"bike_id":"7f9a5607-3d05-4199-a7b0-fd9e68e531eb","system_id":"levelo_inurba_marseille","lat":43.29954,"lon":5.37116,"is_reserved":false,"is_disabled":false,"rental_uris":{"android":"levelo://app?vid=7f9a5607-3d05-4199-a7b0-fd9e68e531eb","ios":"levelo://app?vid=7f9a5607-3d05-4199-a7b0-fd9e68e531eb"},"vehicle_type_id":"4","last_reported":1740841684,"current_range_meters":8400,"station_id":"ce4bgr92rcd13ifvqc7g","pricing_plan_id":"cebpf4jnsgd1na2vs0mg"},{"bike_id":"2e5b1c00-cc3f-4398-9d7c-2f6eede7d980","system_id":"levelo_inurba_marseille","lat":43.30137,"lon":5.39858,"is_reserved":false,"is_disabled":false,"rental_uris":{"android":"levelo://app?vid=2e5b1c00-cc3f-4398-9d7c-2f6eede7d980","ios":"levelo://app?vid=2e5b1c00-cc3f-4398-9d7c-2f6eede7d980"},"vehicle_type_id":"4","last_reported":1740841684,"current_range_meters":8400,"station_id":"ce4bh0h2rcd13ifvqd40","pricing_plan_id":"cebpf4jnsgd1na2vs0mg"},{"bike_id":"257c4849-dc72-4ebc-b295-ab798a49160b","system_id":"levelo_inurba_marseille","lat":43.26199,"lon":5.37913,"is_reserved":false,"is_disabled":false,"rental_uris":{"android":"levelo://app?vid=257c4849-dc72-4ebc-b295-ab798a49160b","ios":"levelo://app?vid=257c4849-dc72-4ebc-b295-ab798a49160b"},"vehicle_type_id":"4","last_reported":1740841684,"current_range_meters":8400,"station_id":"ce4bhjp2rcd13ifvqg90","pricing_plan_id":"cebpf4jnsgd1na2vs0mg"},{"bike_id":"97e4791d-4b06-4729-ae6e-c12900e89fd0","system_id":"levelo_inurba_marseille","lat":43.24172,"lon":5.39718,"is_reserved":false,"is_disabled":false,"rental_uris":{"android":"levelo://app?vid=97e4791d-4b06-4729-ae6e-c12900e89fd0","ios":"levelo://app?vid=97e4791d-4b06-4729-ae6e-c12900e89fd0"},"vehicle_type_id":"4","last_reported":1740841684,"current_range_meters":8400,"station_id":"ce4bhn12rcd13ifvqgpg","pricing_plan_id":"cebpf4jnsgd1na2vs0mg"},{"bike_id":"3f5e4c77-943b-4a46-b257-614bf13afec4","system_id":"levelo_inurba_marseille","lat":43.24159,"lon":5.36412,"is_reserved":false,"is_disabled":false,"rental_uris":{"android":"levelo://app?vid=3f5e4c77-943b-4a46-b257-614bf13afec4","ios":"levelo://app?vid=3f5e4c77-943b-4a46-b257-614bf13afec4"},"vehicle_type_id":"4","last_reported":1740841684,"current_range_meters":8400,"station_id":"cpo36qri1sfpv3e86is0","pricing_plan_id":"cebpf4jnsgd1na2vs0mg"},{"bike_id":"aca14adc-36e9-46db-966a-05761590058e","system_id":"levelo_inurba_marseille","lat":43.3021,"lon":5.39795,"is_reserved":false,"is_disabled":false,"rental_uris":{"android":"levelo://app?vid=aca14adc-36e9-46db-966a-05761590058e","ios":"levelo://app?vid=aca14adc-36e9-46db-966a-05761590058e"},"vehicle_type_id":"4","last_reported":1740841684,"current_range_meters":8800,"station_id":"","pricing_plan_id":"cebpf4jnsgd1na2vs0mg"},{"bike_id":"afb2ba15-7296-4d79-a3a2-07d069185413","system_id":"levelo_inurba_marseille","lat":43.30553,"lon":5.3654,"is_reserved":false,"is_disabled":false,"rental_uris":{"android":"levelo://app?vid=afb2ba15-7296-4d79-a3a2-07d069185413","ios":"levelo://app?vid=afb2ba15-7296-4d79-a3a2-07d069185413"},"vehicle_type_id":"4","last_reported":1740841684,"current_range_meters":8800,"station_id":"ce4bgs12rcd13ifvqcag","pricing_plan_id":"cebpf4jnsgd1na2vs0mg"},{"bike_id":"7a23127d-2779-4a0f-986d-03d679091017","system_id":"levelo_inurba_marseille","lat":43.301,"lon":5.39081,"is_reserved":false,"is_disabled":false,"rental_uris":{"android":"levelo://app?vid=7a23127d-2779-4a0f-986d-03d679091017","ios":"levelo://app?vid=7a23127d-2779-4a0f-986d-03d679091017"},"vehicle_type_id":"4","last_reported":1740841684,"current_range_meters":8800,"station_id":"ce4bh192rcd13ifvqdb0","pricing_plan_id":"cebpf4jnsgd1na2vs0mg"},{"bike_id":"f7888e25-446f-4da8-96e6-65d5daad9223","system_id":"levelo_inurba_marseille","lat":43.28418,"lon":5.34985,"is_reserved":false,"is_disabled":false,"rental_uris":{"android":"levelo://app?vid=f7888e25-446f-4da8-96e6-65d5daad9223","ios":"levelo://app?vid=f7888e25-446f-4da8-96e6-65d5daad9223"},"vehicle_type_id":"4","last_reported":1740841684,"current_range_meters":8800,"station_id":"ce4bhbh2rcd13ifvqepg","pricing_plan_id":"cebpf4jnsgd1na2vs0mg"},{"bike_id":"2789cdbe-4172-4b79-9d75-df8c4d8ece0a","system_id":"levelo_inurba_marseille","lat":43.2622,"lon":5.37469,"is_reserved":false,"is_disabled":false,"rental_uris":{"android":"levelo://app?vid=2789cdbe-4172-4b79-9d75-df8c4d8ece0a","ios":"levelo://app?vid=2789cdbe-4172-4b79-9d75-df8c4d8ece0a"},"vehicle_type_id":"4","last_reported":1740841684,"current_range_meters":8800,"station_id":"ce4bhgp2rcd13ifvqfc0","pricing_plan_id":"cebpf4jnsgd1na2vs0mg"},{"bike_id":"6c1ec418-4b5a-488c-8bae-ed1a437dc1f8","system_id":"levelo_inurba_marseille","lat":43.28948,"lon":5.36639,"is_reserved":false,"is_disabled":false,"rental_uris":{"android":"levelo://app?vid=6c1ec418-4b5a-488c-8bae-ed1a437dc1f8","ios":"levelo://app?vid=6c1ec418-4b5a-488c-8bae-ed1a437dc1f8"},"vehicle_type_id":"4","last_reported":1740841684,"current_range_meters":9200,"station_id":"ce4bhap2rcd13ifvqek0","pricing_plan_id":"cebpf4jnsgd1na2vs0mg"},{"bike_id":"64776998-29da-4135-8148-4b3fa829910b","system_id":"levelo_inurba_marseille","lat":43.27997,"lon":5.40022,"is_reserved":false,"is_disabled":false,"rental_uris":{"android":"levelo://app?vid=64776998-29da-4135-8148-4b3fa829910b","ios":"levelo://app?vid=64776998-29da-4135-8148-4b3fa829910b"},"vehicle_type_id":"4","last_reported":1740841684,"current_range_meters":9200,"station_id":"ce4bho92rcd13ifvqh4g","pricing_plan_id":"cebpf4jnsgd1na2vs0mg"},{"bike_id":"cdb914c7-100b-4086-a937-897bede8373e","system_id":"levelo_inurba_marseille","lat":43.30795,"lon":5.43531,"is_reserved":false,"is_disabled":false,"rental_uris":{"android":"levelo://app?vid=cdb914c7-100b-4086-a937-897bede8373e","ios":"levelo://app?vid=cdb914c7-100b-4086-a937-897bede8373e"},"vehicle_type_id":"4","last_reported":1740841684,"current_range_meters":9200,"station_id":"ce4bhph2rcd13ifvqheg","pricing_plan_id":"cebpf4jnsgd1na2vs0mg"},{"bike_id":"eb6f3018-35af-4819-ab6e-f07ea1f8c2d5","system_id":"levelo_inurba_marseille","lat":43.31747,"lon":5.39003,"is_reserved":false,"is_disabled":false,"rental_uris":{"android":"levelo://app?vid=eb6f3018-35af-4819-ab6e-f07ea1f8c2d5","ios":"levelo://app?vid=eb6f3018-35af-4819-ab6e-f07ea1f8c2d5"},"vehicle_type_id":"4","last_reported":1740841684,"current_range_meters":9200,"station_id":"ce4bhqp2rcd13ifvqhng","pricing_plan_id":"cebpf4jnsgd1na2vs0mg"},{"bike_id":"364b209e-752e-45ea-b26c-06b2552c1833","system_id":"levelo_inurba_marseille","lat":43.23196,"lon":5.3556,"is_reserved":false,"is_disabled":false,"rental_uris":{"android":"levelo://app?vid=364b209e-752e-45ea-b26c-06b2552c1833","ios":"levelo://app?vid=364b209e-752e-45ea-b26c-06b2552c1833"},"vehicle_type_id":"4","last_reported":1740841684,"current_range_meters":9200,"station_id":"ce4bhu92rcd13ifvqi70","pricing_plan_id":"cebpf4jnsgd1na2vs0mg"},{"bike_id":"593edb3c-7add-4a3d-9dbe-95cef549de0d","system_id":"levelo_inurba_marseille","lat":43.23085,"lon":5.35485,"is_reserved":false,"is_disabled":false,"rental_uris":{"android":"levelo://app?vid=593edb3c-7add-4a3d-9dbe-95cef549de0d","ios":"levelo://app?vid=593edb3c-7add-4a3d-9dbe-95cef549de0d"},"vehicle_type_id":"4","last_reported":1740841684,"current_range_meters":9200,"station_id":"cpo3342slgdg3j2ifvpg","pricing_plan_id":"cebpf4jnsgd1na2vs0mg"},{"bike_id":"49e9cdc7-76a5-4b66-ae2d-61c73beb73a8","system_id":"levelo_inurba_marseille","lat":43.24172,"lon":5.36384,"is_reserved":false,"is_disabled":false,"rental_uris":{"android":"levelo://app?vid=49e9cdc7-76a5-4b66-ae2d-61c73beb73a8","ios":"levelo://app?vid=49e9cdc7-76a5-4b66-ae2d-61c73beb73a8"},"vehicle_type_id":"4","last_reported":1740841684,"current_range_meters":9200,"station_id":"cpo36qri1sfpv3e86is0","pricing_plan_id":"cebpf4jnsgd1na2vs0mg"},{"bike_id":"c22d4e9d-c054-439a-8927-6f10c34a78fd","system_id":"levelo_inurba_marseille","lat":43.29533,"lon":5.38551,"is_reserved":false,"is_disabled":false,"rental_uris":{"android":"levelo://app?vid=c22d4e9d-c054-439a-8927-6f10c34a78fd","ios":"levelo://app?vid=c22d4e9d-c054-439a-8927-6f10c34a78fd"},"vehicle_type_id":"4","last_reported":1740841684,"current_range_meters":9600,"station_id":"ce4bgih2rcd13ifvqba0","pricing_plan_id":"cebpf4jnsgd1na2vs0mg"},{"bike_id":"f52665a8-f9c4-4570-bda1-94b083719607","system_id":"levelo_inurba_marseille","lat":43.30931,"lon":5.40164,"is_reserved":false,"is_disabled":false,"rental_uris":{"android":"levelo://app?vid=f52665a8-f9c4-4570-bda1-94b083719607","ios":"levelo://app?vid=f52665a8-f9c4-4570-bda1-94b083719607"},"vehicle_type_id":"4","last_reported":1740841684,"current_range_meters":9600,"station_id":"ce4bgvp2rcd13ifvqct0","pricing_plan_id":"cebpf4jnsgd1na2vs0mg"},{"bike_id":"b777b4cf-3a59-4bd6-bbe8-877c47f15172","system_id":"levelo_inurba_marseille","lat":43.29285,"lon":5.36842,"is_reserved":false,"is_disabled":false,"rental_uris":{"android":"levelo://app?vid=b777b4cf-3a59-4bd6-bbe8-877c47f15172","ios":"levelo://app?vid=b777b4cf-3a59-4bd6-bbe8-877c47f15172"},"vehicle_type_id":"4","last_reported":1740841684,"current_range_meters":9600,"station_id":"ce4bhbp2rcd13ifvqesg","pricing_plan_id":"cebpf4jnsgd1na2vs0mg"},{"bike_id":"bddf37d4-a2ae-4c74-bcad-602e7e9ee614","system_id":"levelo_inurba_marseille","lat":43.24671,"lon":5.38167,"is_reserved":false,"is_disabled":false,"rental_uris":{"android":"levelo://app?vid=bddf37d4-a2ae-4c74-bcad-602e7e9ee614","ios":"levelo://app?vid=bddf37d4-a2ae-4c74-bcad-602e7e9ee614"},"vehicle_type_id":"4","last_reported":1740841684,"current_range_meters":9600,"station_id":"ce4bhih2rcd13ifvqfr0","pricing_plan_id":"cebpf4jnsgd1na2vs0mg"},{"bike_id":"a6b80584-6453-4fc7-9b63-74321c6e86a1","system_id":"levelo_inurba_marseille","lat":43.27059,"lon":5.42305,"is_reserved":false,"is_disabled":false,"rental_uris":{"android":"levelo://app?vid=a6b80584-6453-4fc7-9b63-74321c6e86a1","ios":"levelo://app?vid=a6b80584-6453-4fc7-9b63-74321c6e86a1"},"vehicle_type_id":"4","last_reported":1740841684,"current_range_meters":9600,"station_id":"ce4bhk92rcd13ifvqgb0","pricing_plan_id":"cebpf4jnsgd1na2vs0mg"},{"bike_id":"60d4e3af-a938-45a6-a89b-d7fe9130f2cc","system_id":"levelo_inurba_marseille","lat":43.24175,"lon":5.39723,"is_reserved":false,"is_disabled":false,"rental_uris":{"android":"levelo://app?vid=60d4e3af-a938-45a6-a89b-d7fe9130f2cc","ios":"levelo://app?vid=60d4e3af-a938-45a6-a89b-d7fe9130f2cc"},"vehicle_type_id":"4","last_reported":1740841684,"current_range_meters":9600,"station_id":"ce4bhn12rcd13ifvqgpg","pricing_plan_id":"cebpf4jnsgd1na2vs0mg"},{"bike_id":"ed8bb562-d048-4d97-a62c-052cc210d3b2","system_id":"levelo_inurba_marseille","lat":43.31729,"lon":5.43712,"is_reserved":false,"is_disabled":false,"rental_uris":{"android":"levelo://app?vid=ed8bb562-d048-4d97-a62c-052cc210d3b2","ios":"levelo://app?vid=ed8bb562-d048-4d97-a62c-052cc210d3b2"},"vehicle_type_id":"4","last_reported":1740841684,"current_range_meters":9600,"station_id":"ce4bhp92rcd13ifvqhcg","pricing_plan_id":"cebpf4jnsgd1na2vs0mg"},{"bike_id":"597c78d8-1097-48db-b3be-fafc8754eab9","system_id":"levelo_inurba_marseille","lat":43.241687,"lon":5.364017,"is_reserved":false,"is_disabled":false,"rental_uris":{"android":"levelo://app?vid=597c78d8-1097-48db-b3be-fafc8754eab9","ios":"levelo://app?vid=597c78d8-1097-48db-b3be-fafc8754eab9"},"vehicle_type_id":"4","last_reported":1740841684,"current_range_meters":9600,"station_id":"cpo36qri1sfpv3e86is0","pricing_plan_id":"cebpf4jnsgd1na2vs0mg"},{"bike_id":"7eb4ef2b-e878-49d6-a1f8-e4256d664897","system_id":"levelo_inurba_marseille","lat":43.2972,"lon":5.37686,"is_reserved":false,"is_disabled":false,"rental_uris":{"android":"levelo://app?vid=7eb4ef2b-e878-49d6-a1f8-e4256d664897","ios":"levelo://app?vid=7eb4ef2b-e878-49d6-a1f8-e4256d664897"},"vehicle_type_id":"4","last_reported":1740841684,"current_range_meters":10000,"station_id":"ce4bgkh2rcd13ifvqbl0","pricing_plan_id":"cebpf4jnsgd1na2vs0mg"},{"bike_id":"a0f4785f-b6c3-496b-9268-b69bebe4b0b2","system_id":"levelo_inurba_marseille","lat":43.29745,"lon":5.37665,"is_reserved":false,"is_disabled":false,"rental_uris":{"android":"levelo://app?vid=a0f4785f-b6c3-496b-9268-b69bebe4b0b2","ios":"levelo://app?vid=a0f4785f-b6c3-496b-9268-b69bebe4b0b2"},"vehicle_type_id":"4","last_reported":1740841684,"current_range_meters":10000,"station_id":"ce4bgkh2rcd13ifvqbl0","pricing_plan_id":"cebpf4jnsgd1na2vs0mg"},{"bike_id":"86ff155b-f568-4478-aec1-391de9e7a29e","system_id":"levelo_inurba_marseille","lat":43.29848,"lon":5.36289,"is_reserved":false,"is_disabled":false,"rental_uris":{"android":"levelo://app?vid=86ff155b-f568-4478-aec1-391de9e7a29e","ios":"levelo://app?vid=86ff155b-f568-4478-aec1-391de9e7a29e"},"vehicle_type_id":"4","last_reported":1740841684,"current_range_meters":10000,"station_id":"ce4bgpp2rcd13ifvqc3g","pricing_plan_id":"cebpf4jnsgd1na2vs0mg"},{"bike_id":"b628c6d4-9a4f-4c89-be66-f616f37ddd48","system_id":"levelo_inurba_marseille","lat":43.29428,"lon":5.38623,"is_reserved":false,"is_disabled":false,"rental_uris":{"android":"levelo://app?vid=b628c6d4-9a4f-4c89-be66-f616f37ddd48","ios":"levelo://app?vid=b628c6d4-9a4f-4c89-be66-f616f37ddd48"},"vehicle_type_id":"4","last_reported":1740841684,"current_range_meters":10000,"station_id":"ce4bh2h2rcd13ifvqdh0","pricing_plan_id":"cebpf4jnsgd1na2vs0mg"},{"bike_id":"c65e2549-0bd4-4200-87e8-04da94f3c3c4","system_id":"levelo_inurba_marseille","lat":43.28414,"lon":5.34986,"is_reserved":false,"is_disabled":false,"rental_uris":{"android":"levelo://app?vid=c65e2549-0bd4-4200-87e8-04da94f3c3c4","ios":"levelo://app?vid=c65e2549-0bd4-4200-87e8-04da94f3c3c4"},"vehicle_type_id":"4","last_reported":1740841684,"current_range_meters":10000,"station_id":"ce4bhbh2rcd13ifvqepg","pricing_plan_id":"cebpf4jnsgd1na2vs0mg"},{"bike_id":"60821833-f14f-43f9-80db-e4594e0e2886","system_id":"levelo_inurba_marseille","lat":43.2657,"lon":5.39015,"is_reserved":false,"is_disabled":false,"rental_uris":{"android":"levelo://app?vid=60821833-f14f-43f9-80db-e4594e0e2886","ios":"levelo://app?vid=60821833-f14f-43f9-80db-e4594e0e2886"},"vehicle_type_id":"4","last_reported":1740841684,"current_range_meters":10000,"station_id":"ce4bhe12rcd13ifvqf30","pricing_plan_id":"cebpf4jnsgd1na2vs0mg"},{"bike_id":"3252ce38-942a-44c1-8efc-f562cd340bf6","system_id":"levelo_inurba_marseille","lat":43.26932,"lon":5.40256,"is_reserved":false,"is_disabled":false,"rental_uris":{"android":"levelo://app?vid=3252ce38-942a-44c1-8efc-f562cd340bf6","ios":"levelo://app?vid=3252ce38-942a-44c1-8efc-f562cd340bf6"},"vehicle_type_id":"4","last_reported":1740841684,"current_range_meters":10000,"station_id":"cjm6bp8fraef2m0cb0m0","pricing_plan_id":"cebpf4jnsgd1na2vs0mg"},{"bike_id":"83164bde-4224-48b5-8b32-2015906c9129","system_id":"levelo_inurba_marseille","lat":43.29534,"lon":5.38544,"is_reserved":false,"is_disabled":false,"rental_uris":{"android":"levelo://app?vid=83164bde-4224-48b5-8b32-2015906c9129","ios":"levelo://app?vid=83164bde-4224-48b5-8b32-2015906c9129"},"vehicle_type_id":"4","last_reported":1740841684,"current_range_meters":10800,"station_id":"ce4bgih2rcd13ifvqba0","pricing_plan_id":"cebpf4jnsgd1na2vs0mg"},{"bike_id":"389c580f-a1e5-4b16-a1f8-80f559acc1ab","system_id":"levelo_inurba_marseille","lat":43.29977,"lon":5.38496,"is_reserved":false,"is_disabled":false,"rental_uris":{"android":"levelo://app?vid=389c580f-a1e5-4b16-a1f8-80f559acc1ab","ios":"levelo://app?vid=389c580f-a1e5-4b16-a1f8-80f559acc1ab"},"vehicle_type_id":"4","last_reported":1740841684,"current_range_meters":10800,"station_id":"ce4bgj92rcd13ifvqbd0","pricing_plan_id":"cebpf4jnsgd1na2vs0mg"},{"bike_id":"4173ab11-cfcd-47c2-852b-a3c8ad0413b4","system_id":"levelo_inurba_marseille","lat":43.29979,"lon":5.37184,"is_reserved":false,"is_disabled":false,"rental_uris":{"android":"levelo://app?vid=4173ab11-cfcd-47c2-852b-a3c8ad0413b4","ios":"levelo://app?vid=4173ab11-cfcd-47c2-852b-a3c8ad0413b4"},"vehicle_type_id":"4","last_reported":1740841684,"current_range_meters":10800,"station_id":"ce4bgr92rcd13ifvqc7g","pricing_plan_id":"cebpf4jnsgd1na2vs0mg"},{"bike_id":"f140038b-6259-40dd-bc28-a0612fbd43ae","system_id":"levelo_inurba_marseille","lat":43.30528,"lon":5.36676,"is_reserved":false,"is_disabled":false,"rental_uris":{"android":"levelo://app?vid=f140038b-6259-40dd-bc28-a0612fbd43ae","ios":"levelo://app?vid=f140038b-6259-40dd-bc28-a0612fbd43ae"},"vehicle_type_id":"4","last_reported":1740841684,"current_range_meters":10800,"station_id":"ce4bgrp2rcd13ifvqc9g","pricing_plan_id":"cebpf4jnsgd1na2vs0mg"},{"bike_id":"4bd4b995-1984-49fc-b229-218c3bec2a20","system_id":"levelo_inurba_marseille","lat":43.28429,"lon":5.34979,"is_reserved":false,"is_disabled":false,"rental_uris":{"android":"levelo://app?vid=4bd4b995-1984-49fc-b229-218c3bec2a20","ios":"levelo://app?vid=4bd4b995-1984-49fc-b229-218c3bec2a20"},"vehicle_type_id":"4","last_reported":1740841684,"current_range_meters":10800,"station_id":"ce4bhbh2rcd13ifvqepg","pricing_plan_id":"cebpf4jnsgd1na2vs0mg"},{"bike_id":"f8b03ded-bbb6-475c-984a-c8aea81559ad","system_id":"levelo_inurba_marseille","lat":43.2792,"lon":5.39582,"is_reserved":false,"is_disabled":false,"rental_uris":{"android":"levelo://app?vid=f8b03ded-bbb6-475c-984a-c8aea81559ad","ios":"levelo://app?vid=f8b03ded-bbb6-475c-984a-c8aea81559ad"},"vehicle_type_id":"4","last_reported":1740841684,"current_range_meters":10800,"station_id":"ce4bhf92rcd13ifvqf40","pricing_plan_id":"cebpf4jnsgd1na2vs0mg"},{"bike_id":"3ae43e61-e460-4942-a7d7-9a08b7b0118e","system_id":"levelo_inurba_marseille","lat":43.24813,"lon":5.37444,"is_reserved":false,"is_disabled":false,"rental_uris":{"android":"levelo://app?vid=3ae43e61-e460-4942-a7d7-9a08b7b0118e","ios":"levelo://app?vid=3ae43e61-e460-4942-a7d7-9a08b7b0118e"},"vehicle_type_id":"4","last_reported":1740841684,"current_range_meters":10800,"station_id":"ce4bhgh2rcd13ifvqfb0","pricing_plan_id":"cebpf4jnsgd1na2vs0mg"},{"bike_id":"7cffa7b1-295d-4263-8aa5-253ae59fbbf5","system_id":"levelo_inurba_marseille","lat":43.28004,"lon":5.41673,"is_reserved":false,"is_disabled":false,"rental_uris":{"android":"levelo://app?vid=7cffa7b1-295d-4263-8aa5-253ae59fbbf5","ios":"levelo://app?vid=7cffa7b1-295d-4263-8aa5-253ae59fbbf5"},"vehicle_type_id":"4","last_reported":1740841684,"current_range_meters":10800,"station_id":"ce4bho12rcd13ifvqh1g","pricing_plan_id":"cebpf4jnsgd1na2vs0mg"},{"bike_id":"43e1e04c-280b-4d54-bbb9-c3921d8e975b","system_id":"levelo_inurba_marseille","lat":43.29262,"lon":5.36857,"is_reserved":false,"is_disabled":false,"rental_uris":{"android":"levelo://app?vid=43e1e04c-280b-4d54-bbb9-c3921d8e975b","ios":"levelo://app?vid=43e1e04c-280b-4d54-bbb9-c3921d8e975b"},"vehicle_type_id":"4","last_reported":1740841684,"current_range_meters":11200,"station_id":"ce4bhbp2rcd13ifvqesg","pricing_plan_id":"cebpf4jnsgd1na2vs0mg"},{"bike_id":"8bb33282-5a35-4582-9cde-e53a3dbdbcc5","system_id":"levelo_inurba_marseille","lat":43.24391,"lon":5.37054,"is_reserved":false,"is_disabled":false,"rental_uris":{"android":"levelo://app?vid=8bb33282-5a35-4582-9cde-e53a3dbdbcc5","ios":"levelo://app?vid=8bb33282-5a35-4582-9cde-e53a3dbdbcc5"},"vehicle_type_id":"4","last_reported":1740841684,"current_range_meters":11200,"station_id":"ce4bhhh2rcd13ifvqfk0","pricing_plan_id":"cebpf4jnsgd1na2vs0mg"},{"bike_id":"161d70e9-e213-4bf5-bde1-9c3d7296d89c","system_id":"levelo_inurba_marseille","lat":43.27859,"lon":5.39195,"is_reserved":false,"is_disabled":false,"rental_uris":{"android":"levelo://app?vid=161d70e9-e213-4bf5-bde1-9c3d7296d89c","ios":"levelo://app?vid=161d70e9-e213-4bf5-bde1-9c3d7296d89c"},"vehicle_type_id":"4","last_reported":1740841684,"current_range_meters":11200,"station_id":"ce4bhjp2rcd13ifvqga0","pricing_plan_id":"cebpf4jnsgd1na2vs0mg"},{"bike_id":"05bc6e40-467b-4f1d-8eac-d202b7ce93b1","system_id":"levelo_inurba_marseille","lat":43.28154,"lon":5.42645,"is_reserved":false,"is_disabled":false,"rental_uris":{"android":"levelo://app?vid=05bc6e40-467b-4f1d-8eac-d202b7ce93b1","ios":"levelo://app?vid=05bc6e40-467b-4f1d-8eac-d202b7ce93b1"},"vehicle_type_id":"4","last_reported":1740841684,"current_range_meters":11200,"station_id":"ce4bhnh2rcd13ifvqgug","pricing_plan_id":"cebpf4jnsgd1na2vs0mg"},{"bike_id":"1a5afd5b-35dd-445f-ac39-bd3776858dd4","system_id":"levelo_inurba_marseille","lat":43.29299,"lon":5.37162,"is_reserved":false,"is_disabled":false,"rental_uris":{"android":"levelo://app?vid=1a5afd5b-35dd-445f-ac39-bd3776858dd4","ios":"levelo://app?vid=1a5afd5b-35dd-445f-ac39-bd3776858dd4"},"vehicle_type_id":"4","last_reported":1740841684,"current_range_meters":11600,"station_id":"ce4bgh92rcd13ifvqb40","pricing_plan_id":"cebpf4jnsgd1na2vs0mg"},{"bike_id":"2667b23c-67ae-471f-a157-93cd2283f666","system_id":"levelo_inurba_marseille","lat":43.29616,"lon":5.38104,"is_reserved":false,"is_disabled":false,"rental_uris":{"android":"levelo://app?vid=2667b23c-67ae-471f-a157-93cd2283f666","ios":"levelo://app?vid=2667b23c-67ae-471f-a157-93cd2283f666"},"vehicle_type_id":"4","last_reported":1740841684,"current_range_meters":11600,"station_id":"ce4bgl12rcd13ifvqbo0","pricing_plan_id":"cebpf4jnsgd1na2vs0mg"},{"bike_id":"69c431a2-1bda-4cef-a8fa-2ab0045a3eb1","system_id":"levelo_inurba_marseille","lat":43.28723,"lon":5.36095,"is_reserved":false,"is_disabled":false,"rental_uris":{"android":"levelo://app?vid=69c431a2-1bda-4cef-a8fa-2ab0045a3eb1","ios":"levelo://app?vid=69c431a2-1bda-4cef-a8fa-2ab0045a3eb1"},"vehicle_type_id":"4","last_reported":1740841684,"current_range_meters":11600,"station_id":"cki0cbj6b192h4jlfktg","pricing_plan_id":"cebpf4jnsgd1na2vs0mg"},{"bike_id":"505a5c09-19cf-44c6-90da-69c6fb277660","system_id":"levelo_inurba_marseille","lat":43.30305,"lon":5.39211,"is_reserved":false,"is_disabled":false,"rental_uris":{"android":"levelo://app?vid=505a5c09-19cf-44c6-90da-69c6fb277660","ios":"levelo://app?vid=505a5c09-19cf-44c6-90da-69c6fb277660"},"vehicle_type_id":"4","last_reported":1740841684,"current_range_meters":12000,"station_id":"ce4bgkh2rcd13ifvqbk0","pricing_plan_id":"cebpf4jnsgd1na2vs0mg"},{"bike_id":"4015c440-7267-44b4-8be2-f4b87cb51aa9","system_id":"levelo_inurba_marseille","lat":43.25582,"lon":5.38235,"is_reserved":false,"is_disabled":false,"rental_uris":{"android":"levelo://app?vid=4015c440-7267-44b4-8be2-f4b87cb51aa9","ios":"levelo://app?vid=4015c440-7267-44b4-8be2-f4b87cb51aa9"},"vehicle_type_id":"4","last_reported":1740841684,"current_range_meters":12000,"station_id":"ce4bhih2rcd13ifvqfs0","pricing_plan_id":"cebpf4jnsgd1na2vs0mg"},{"bike_id":"0693b9d6-4a9d-4e38-bfa2-80f934bcc2e3","system_id":"levelo_inurba_marseille","lat":43.241693,"lon":5.364088,"is_reserved":false,"is_disabled":false,"rental_uris":{"android":"levelo://app?vid=0693b9d6-4a9d-4e38-bfa2-80f934bcc2e3","ios":"levelo://app?vid=0693b9d6-4a9d-4e38-bfa2-80f934bcc2e3"},"vehicle_type_id":"4","last_reported":1740841684,"current_range_meters":12000,"station_id":"cpo36qri1sfpv3e86is0","pricing_plan_id":"cebpf4jnsgd1na2vs0mg"},{"bike_id":"3f1e6646-7284-48b5-bff7-7932a4aa8231","system_id":"levelo_inurba_marseille","lat":43.27949,"lon":5.41058,"is_reserved":false,"is_disabled":false,"rental_uris":{"android":"levelo://app?vid=3f1e6646-7284-48b5-bff7-7932a4aa8231","ios":"levelo://app?vid=3f1e6646-7284-48b5-bff7-7932a4aa8231"},"vehicle_type_id":"4","last_reported":1740841684,"current_range_meters":12400,"station_id":"ce4bhnp2rcd13ifvqh0g","pricing_plan_id":"cebpf4jnsgd1na2vs0mg"},{"bike_id":"e79e1fdd-40c0-4c37-869f-940638e2c87f","system_id":"levelo_inurba_marseille","lat":43.29803,"lon":5.38105,"is_reserved":false,"is_disabled":false,"rental_uris":{"android":"levelo://app?vid=e79e1fdd-40c0-4c37-869f-940638e2c87f","ios":"levelo://app?vid=e79e1fdd-40c0-4c37-869f-940638e2c87f"},"vehicle_type_id":"4","last_reported":1740841684,"current_range_meters":12800,"station_id":"ce4bgip2rcd13ifvqbb0","pricing_plan_id":"cebpf4jnsgd1na2vs0mg"},{"bike_id":"2b368b3d-d962-4c21-9c9d-5bc7c2351d31","system_id":"levelo_inurba_marseille","lat":43.3171,"lon":5.40456,"is_reserved":false,"is_disabled":false,"rental_uris":{"android":"levelo://app?vid=2b368b3d-d962-4c21-9c9d-5bc7c2351d31","ios":"levelo://app?vid=2b368b3d-d962-4c21-9c9d-5bc7c2351d31"},"vehicle_type_id":"4","last_reported":1740841684,"current_range_meters":12800,"station_id":"ce4bh012rcd13ifvqd00","pricing_plan_id":"cebpf4jnsgd1na2vs0mg"},{"bike_id":"28ab17da-4cc8-489a-a739-9b49f66a88dd","system_id":"levelo_inurba_marseille","lat":43.29223,"lon":5.36063,"is_reserved":false,"is_disabled":false,"rental_uris":{"android":"levelo://app?vid=28ab17da-4cc8-489a-a739-9b49f66a88dd","ios":"levelo://app?vid=28ab17da-4cc8-489a-a739-9b49f66a88dd"},"vehicle_type_id":"4","last_reported":1740841684,"current_range_meters":12800,"station_id":"ce4bhbh2rcd13ifvqeqg","pricing_plan_id":"cebpf4jnsgd1na2vs0mg"},{"bike_id":"3e89a7de-8c08-4c9b-bbc9-5e1d905d7df8","system_id":"levelo_inurba_marseille","lat":43.25115,"lon":5.40329,"is_reserved":false,"is_disabled":false,"rental_uris":{"android":"levelo://app?vid=3e89a7de-8c08-4c9b-bbc9-5e1d905d7df8","ios":"levelo://app?vid=3e89a7de-8c08-4c9b-bbc9-5e1d905d7df8"},"vehicle_type_id":"4","last_reported":1740841684,"current_range_meters":12800,"station_id":"ce4bhlh2rcd13ifvqgig","pricing_plan_id":"cebpf4jnsgd1na2vs0mg"},{"bike_id":"967f50ea-55fe-4e58-91f0-e6590a5d4f84","system_id":"levelo_inurba_marseille","lat":43.28151,"lon":5.42628,"is_reserved":false,"is_disabled":false,"rental_uris":{"android":"levelo://app?vid=967f50ea-55fe-4e58-91f0-e6590a5d4f84","ios":"levelo://app?vid=967f50ea-55fe-4e58-91f0-e6590a5d4f84"},"vehicle_type_id":"4","last_reported":1740841684,"current_range_meters":12800,"station_id":"ce4bhnh2rcd13ifvqgug","pricing_plan_id":"cebpf4jnsgd1na2vs0mg"},{"bike_id":"9e70006a-cdf2-4919-93a2-3c66955a3b59","system_id":"levelo_inurba_marseille","lat":43.32306,"lon":5.3669,"is_reserved":false,"is_disabled":false,"rental_uris":{"android":"levelo://app?vid=9e70006a-cdf2-4919-93a2-3c66955a3b59","ios":"levelo://app?vid=9e70006a-cdf2-4919-93a2-3c66955a3b59"},"vehicle_type_id":"4","last_reported":1740841684,"current_range_meters":12800,"station_id":"ce4bhsh2rcd13ifvqi2g","pricing_plan_id":"cebpf4jnsgd1na2vs0mg"},{"bike_id":"5536e9e9-9b45-4af7-a246-7743eb09920e","system_id":"levelo_inurba_marseille","lat":43.29292,"lon":5.37146,"is_reserved":false,"is_disabled":false,"rental_uris":{"android":"levelo://app?vid=5536e9e9-9b45-4af7-a246-7743eb09920e","ios":"levelo://app?vid=5536e9e9-9b45-4af7-a246-7743eb09920e"},"vehicle_type_id":"4","last_reported":1740841684,"current_range_meters":13600,"station_id":"ce4bgh92rcd13ifvqb40","pricing_plan_id":"cebpf4jnsgd1na2vs0mg"},{"bike_id":"f4a54146-4cf6-430c-bd1f-5008e5fce27d","system_id":"levelo_inurba_marseille","lat":43.29841,"lon":5.3627,"is_reserved":false,"is_disabled":false,"rental_uris":{"android":"levelo://app?vid=f4a54146-4cf6-430c-bd1f-5008e5fce27d","ios":"levelo://app?vid=f4a54146-4cf6-430c-bd1f-5008e5fce27d"},"vehicle_type_id":"4","last_reported":1740841684,"current_range_meters":13600,"station_id":"ce4bgpp2rcd13ifvqc3g","pricing_plan_id":"cebpf4jnsgd1na2vs0mg"},{"bike_id":"fb18759c-f3ca-4612-8704-baf08a44bab2","system_id":"levelo_inurba_marseille","lat":43.28427,"lon":5.34988,"is_reserved":false,"is_disabled":false,"rental_uris":{"android":"levelo://app?vid=fb18759c-f3ca-4612-8704-baf08a44bab2","ios":"levelo://app?vid=fb18759c-f3ca-4612-8704-baf08a44bab2"},"vehicle_type_id":"4","last_reported":1740841684,"current_range_meters":13600,"station_id":"ce4bhbh2rcd13ifvqepg","pricing_plan_id":"cebpf4jnsgd1na2vs0mg"},{"bike_id":"f29cf692-8c6d-4211-8104-375b5ebb9160","system_id":"levelo_inurba_marseille","lat":43.23147,"lon":5.43694,"is_reserved":false,"is_disabled":false,"rental_uris":{"android":"levelo://app?vid=f29cf692-8c6d-4211-8104-375b5ebb9160","ios":"levelo://app?vid=f29cf692-8c6d-4211-8104-375b5ebb9160"},"vehicle_type_id":"4","last_reported":1740841684,"current_range_meters":13600,"station_id":"ce4bhmp2rcd13ifvqgog","pricing_plan_id":"cebpf4jnsgd1na2vs0mg"},{"bike_id":"21b33391-bfc8-4308-9fb1-a6537ccd4d5e","system_id":"levelo_inurba_marseille","lat":43.2407,"lon":5.37762,"is_reserved":false,"is_disabled":false,"rental_uris":{"android":"levelo://app?vid=21b33391-bfc8-4308-9fb1-a6537ccd4d5e","ios":"levelo://app?vid=21b33391-bfc8-4308-9fb1-a6537ccd4d5e"},"vehicle_type_id":"4","last_reported":1740841684,"current_range_meters":13600,"station_id":"ce4bhnp2rcd13ifvqgvg","pricing_plan_id":"cebpf4jnsgd1na2vs0mg"},{"bike_id":"d876cf5d-2e50-4606-9f11-2ff62b9adc7b","system_id":"levelo_inurba_marseille","lat":43.23058,"lon":5.35492,"is_reserved":false,"is_disabled":false,"rental_uris":{"android":"levelo://app?vid=d876cf5d-2e50-4606-9f11-2ff62b9adc7b","ios":"levelo://app?vid=d876cf5d-2e50-4606-9f11-2ff62b9adc7b"},"vehicle_type_id":"4","last_reported":1740841684,"current_range_meters":13600,"station_id":"cpo3342slgdg3j2ifvpg","pricing_plan_id":"cebpf4jnsgd1na2vs0mg"},{"bike_id":"555693bd-3b1a-4f7c-96a4-b3450f2696ce","system_id":"levelo_inurba_marseille","lat":43.30585,"lon":5.37061,"is_reserved":false,"is_disabled":false,"rental_uris":{"android":"levelo://app?vid=555693bd-3b1a-4f7c-96a4-b3450f2696ce","ios":"levelo://app?vid=555693bd-3b1a-4f7c-96a4-b3450f2696ce"},"vehicle_type_id":"4","last_reported":1740841684,"current_range_meters":14000,"station_id":"","pricing_plan_id":"cebpf4jnsgd1na2vs0mg"},{"bike_id":"9fd706f0-2b52-41ea-bba4-526beed6e45b","system_id":"levelo_inurba_marseille","lat":43.30159,"lon":5.38098,"is_reserved":false,"is_disabled":false,"rental_uris":{"android":"levelo://app?vid=9fd706f0-2b52-41ea-bba4-526beed6e45b","ios":"levelo://app?vid=9fd706f0-2b52-41ea-bba4-526beed6e45b"},"vehicle_type_id":"4","last_reported":1740841684,"current_range_meters":14000,"station_id":"ce4bgjp2rcd13ifvqbh0","pricing_plan_id":"cebpf4jnsgd1na2vs0mg"},{"bike_id":"967d643f-01d0-4920-8c9f-27ddd8b6cf8d","system_id":"levelo_inurba_marseille","lat":43.29719,"lon":5.37694,"is_reserved":false,"is_disabled":false,"rental_uris":{"android":"levelo://app?vid=967d643f-01d0-4920-8c9f-27ddd8b6cf8d","ios":"levelo://app?vid=967d643f-01d0-4920-8c9f-27ddd8b6cf8d"},"vehicle_type_id":"4","last_reported":1740841684,"current_range_meters":14000,"station_id":"ce4bgkh2rcd13ifvqbl0","pricing_plan_id":"cebpf4jnsgd1na2vs0mg"},{"bike_id":"e0a413a7-bc6b-4647-8e86-c0926ac098ec","system_id":"levelo_inurba_marseille","lat":43.2928,"lon":5.36854,"is_reserved":false,"is_disabled":false,"rental_uris":{"android":"levelo://app?vid=e0a413a7-bc6b-4647-8e86-c0926ac098ec","ios":"levelo://app?vid=e0a413a7-bc6b-4647-8e86-c0926ac098ec"},"vehicle_type_id":"4","last_reported":1740841684,"current_range_meters":14000,"station_id":"ce4bhbp2rcd13ifvqesg","pricing_plan_id":"cebpf4jnsgd1na2vs0mg"},{"bike_id":"08a2d3ad-f2dd-4493-8549-3d6141caf513","system_id":"levelo_inurba_marseille","lat":43.29306,"lon":5.37176,"is_reserved":false,"is_disabled":false,"rental_uris":{"android":"levelo://app?vid=08a2d3ad-f2dd-4493-8549-3d6141caf513","ios":"levelo://app?vid=08a2d3ad-f2dd-4493-8549-3d6141caf513"},"vehicle_type_id":"4","last_reported":1740841684,"current_range_meters":14400,"station_id":"ce4bgh92rcd13ifvqb40","pricing_plan_id":"cebpf4jnsgd1na2vs0mg"},{"bike_id":"a0568a2d-5744-4393-a769-f8a4199ff590","system_id":"levelo_inurba_marseille","lat":43.29306,"lon":5.37171,"is_reserved":false,"is_disabled":false,"rental_uris":{"android":"levelo://app?vid=a0568a2d-5744-4393-a769-f8a4199ff590","ios":"levelo://app?vid=a0568a2d-5744-4393-a769-f8a4199ff590"},"vehicle_type_id":"4","last_reported":1740841684,"current_range_meters":14400,"station_id":"ce4bgh92rcd13ifvqb40","pricing_plan_id":"cebpf4jnsgd1na2vs0mg"},{"bike_id":"5d7c7708-0760-4884-8883-b9dd9eef0e36","system_id":"levelo_inurba_marseille","lat":43.29783,"lon":5.38122,"is_reserved":false,"is_disabled":false,"rental_uris":{"android":"levelo://app?vid=5d7c7708-0760-4884-8883-b9dd9eef0e36","ios":"levelo://app?vid=5d7c7708-0760-4884-8883-b9dd9eef0e36"},"vehicle_type_id":"4","last_reported":1740841684,"current_range_meters":14400,"station_id":"ce4bgip2rcd13ifvqbb0","pricing_plan_id":"cebpf4jnsgd1na2vs0mg"},{"bike_id":"8235333d-301f-40af-bcff-249a4ee0b3a0","system_id":"levelo_inurba_marseille","lat":43.296008,"lon":5.380961,"is_reserved":false,"is_disabled":false,"rental_uris":{"android":"levelo://app?vid=8235333d-301f-40af-bcff-249a4ee0b3a0","ios":"levelo://app?vid=8235333d-301f-40af-bcff-249a4ee0b3a0"},"vehicle_type_id":"4","last_reported":1740841684,"current_range_meters":14400,"station_id":"ce4bgl12rcd13ifvqbo0","pricing_plan_id":"cebpf4jnsgd1na2vs0mg"},{"bike_id":"34730a74-d9cd-4adf-8c32-1c95a1c402e8","system_id":"levelo_inurba_marseille","lat":43.31497,"lon":5.37319,"is_reserved":false,"is_disabled":false,"rental_uris":{"android":"levelo://app?vid=34730a74-d9cd-4adf-8c32-1c95a1c402e8","ios":"levelo://app?vid=34730a74-d9cd-4adf-8c32-1c95a1c402e8"},"vehicle_type_id":"4","last_reported":1740841684,"current_range_meters":14400,"station_id":"ce4bgt12rcd13ifvqcd0","pricing_plan_id":"cebpf4jnsgd1na2vs0mg"},{"bike_id":"e8e6831b-a529-4553-bd85-0d3ce372cee8","system_id":"levelo_inurba_marseille","lat":43.29864,"lon":5.39736,"is_reserved":false,"is_disabled":false,"rental_uris":{"android":"levelo://app?vid=e8e6831b-a529-4553-bd85-0d3ce372cee8","ios":"levelo://app?vid=e8e6831b-a529-4553-bd85-0d3ce372cee8"},"vehicle_type_id":"4","last_reported":1740841684,"current_range_meters":14800,"station_id":"","pricing_plan_id":"cebpf4jnsgd1na2vs0mg"},{"bike_id":"f6859461-eb1b-4285-a68c-bb639996eef9","system_id":"levelo_inurba_marseille","lat":43.28964,"lon":5.37837,"is_reserved":false,"is_disabled":false,"rental_uris":{"android":"levelo://app?vid=f6859461-eb1b-4285-a68c-bb639996eef9","ios":"levelo://app?vid=f6859461-eb1b-4285-a68c-bb639996eef9"},"vehicle_type_id":"4","last_reported":1740841684,"current_range_meters":14800,"station_id":"ce4bh9p2rcd13ifvqed0","pricing_plan_id":"cebpf4jnsgd1na2vs0mg"},{"bike_id":"5f886fbc-9b3b-48e4-87c6-9cf2df339add","system_id":"levelo_inurba_marseille","lat":43.30538,"lon":5.36536,"is_reserved":false,"is_disabled":false,"rental_uris":{"android":"levelo://app?vid=5f886fbc-9b3b-48e4-87c6-9cf2df339add","ios":"levelo://app?vid=5f886fbc-9b3b-48e4-87c6-9cf2df339add"},"vehicle_type_id":"4","last_reported":1740841684,"current_range_meters":15200,"station_id":"ce4bgs12rcd13ifvqcag","pricing_plan_id":"cebpf4jnsgd1na2vs0mg"},{"bike_id":"6d6b5d7c-cccb-47ff-a09b-89320b49c877","system_id":"levelo_inurba_marseille","lat":43.30327,"lon":5.40437,"is_reserved":false,"is_disabled":false,"rental_uris":{"android":"levelo://app?vid=6d6b5d7c-cccb-47ff-a09b-89320b49c877","ios":"levelo://app?vid=6d6b5d7c-cccb-47ff-a09b-89320b49c877"},"vehicle_type_id":"4","last_reported":1740841684,"current_range_meters":15200,"station_id":"ce4bh012rcd13ifvqd10","pricing_plan_id":"cebpf4jnsgd1na2vs0mg"},{"bike_id":"75cacdd1-032d-44f3-80c0-7c98daff7c98","system_id":"levelo_inurba_marseille","lat":43.29851,"lon":5.36269,"is_reserved":false,"is_disabled":false,"rental_uris":{"android":"levelo://app?vid=75cacdd1-032d-44f3-80c0-7c98daff7c98","ios":"levelo://app?vid=75cacdd1-032d-44f3-80c0-7c98daff7c98"},"vehicle_type_id":"4","last_reported":1740841684,"current_range_meters":16000,"station_id":"ce4bgpp2rcd13ifvqc3g","pricing_plan_id":"cebpf4jnsgd1na2vs0mg"},{"bike_id":"284ccf54-027c-46be-951e-e78156f52c46","system_id":"levelo_inurba_marseille","lat":43.29261,"lon":5.384495,"is_reserved":false,"is_disabled":false,"rental_uris":{"android":"levelo://app?vid=284ccf54-027c-46be-951e-e78156f52c46","ios":"levelo://app?vid=284ccf54-027c-46be-951e-e78156f52c46"},"vehicle_type_id":"4","last_reported":1740841684,"current_range_meters":16000,"station_id":"ce4bh692rcd13ifvqea0","pricing_plan_id":"cebpf4jnsgd1na2vs0mg"},{"bike_id":"dda53a8d-aa9b-4bb5-969e-cdd01d363119","system_id":"levelo_inurba_marseille","lat":43.26578,"lon":5.38998,"is_reserved":false,"is_disabled":false,"rental_uris":{"android":"levelo://app?vid=dda53a8d-aa9b-4bb5-969e-cdd01d363119","ios":"levelo://app?vid=dda53a8d-aa9b-4bb5-969e-cdd01d363119"},"vehicle_type_id":"4","last_reported":1740841684,"current_range_meters":16000,"station_id":"ce4bhe12rcd13ifvqf30","pricing_plan_id":"cebpf4jnsgd1na2vs0mg"},{"bike_id":"38a1c2e2-5c11-454e-a194-550050338f56","system_id":"levelo_inurba_marseille","lat":43.27211,"lon":5.39165,"is_reserved":false,"is_disabled":false,"rental_uris":{"android":"levelo://app?vid=38a1c2e2-5c11-454e-a194-550050338f56","ios":"levelo://app?vid=38a1c2e2-5c11-454e-a194-550050338f56"},"vehicle_type_id":"4","last_reported":1740841684,"current_range_meters":16000,"station_id":"ce4bhhp2rcd13ifvqfm0","pricing_plan_id":"cebpf4jnsgd1na2vs0mg"},{"bike_id":"3eea0f89-b137-40d9-a4fd-d1c6a11e78cf","system_id":"levelo_inurba_marseille","lat":43.25596,"lon":5.38246,"is_reserved":false,"is_disabled":false,"rental_uris":{"android":"levelo://app?vid=3eea0f89-b137-40d9-a4fd-d1c6a11e78cf","ios":"levelo://app?vid=3eea0f89-b137-40d9-a4fd-d1c6a11e78cf"},"vehicle_type_id":"4","last_reported":1740841684,"current_range_meters":16000,"station_id":"ce4bhih2rcd13ifvqfs0","pricing_plan_id":"cebpf4jnsgd1na2vs0mg"},{"bike_id":"97585fad-9490-4e57-b217-1b43f3a78e11","system_id":"levelo_inurba_marseille","lat":43.31087,"lon":5.42432,"is_reserved":false,"is_disabled":false,"rental_uris":{"android":"levelo://app?vid=97585fad-9490-4e57-b217-1b43f3a78e11","ios":"levelo://app?vid=97585fad-9490-4e57-b217-1b43f3a78e11"},"vehicle_type_id":"4","last_reported":1740841684,"current_range_meters":16000,"station_id":"ce4bhp92rcd13ifvqhag","pricing_plan_id":"cebpf4jnsgd1na2vs0mg"},{"bike_id":"27d57ba8-cb2b-4da3-bcfc-1efd3956d0fa","system_id":"levelo_inurba_marseille","lat":43.29552,"lon":5.42292,"is_reserved":false,"is_disabled":false,"rental_uris":{"android":"levelo://app?vid=27d57ba8-cb2b-4da3-bcfc-1efd3956d0fa","ios":"levelo://app?vid=27d57ba8-cb2b-4da3-bcfc-1efd3956d0fa"},"vehicle_type_id":"4","last_reported":1740841684,"current_range_meters":16000,"station_id":"ce4bhph2rcd13ifvqhdg","pricing_plan_id":"cebpf4jnsgd1na2vs0mg"},{"bike_id":"0f8dc723-f288-4ef9-a295-e1b7db86db79","system_id":"levelo_inurba_marseille","lat":43.26811,"lon":5.40264,"is_reserved":false,"is_disabled":false,"rental_uris":{"android":"levelo://app?vid=0f8dc723-f288-4ef9-a295-e1b7db86db79","ios":"levelo://app?vid=0f8dc723-f288-4ef9-a295-e1b7db86db79"},"vehicle_type_id":"4","last_reported":1740841684,"current_range_meters":16000,"station_id":"ce501612rcd8frsf0b60","pricing_plan_id":"cebpf4jnsgd1na2vs0mg"},{"bike_id":"f7c019bb-24d5-47dd-b673-042e5277a8f7","system_id":"levelo_inurba_marseille","lat":43.301504,"lon":5.380991,"is_reserved":false,"is_disabled":false,"rental_uris":{"android":"levelo://app?vid=f7c019bb-24d5-47dd-b673-042e5277a8f7","ios":"levelo://app?vid=f7c019bb-24d5-47dd-b673-042e5277a8f7"},"vehicle_type_id":"4","last_reported":1740841684,"current_range_meters":16400,"station_id":"ce4bgjp2rcd13ifvqbh0","pricing_plan_id":"cebpf4jnsgd1na2vs0mg"},{"bike_id":"eebb9498-6bb0-444e-9fd8-f97abcfc5646","system_id":"levelo_inurba_marseille","lat":43.29263,"lon":5.38443,"is_reserved":false,"is_disabled":false,"rental_uris":{"android":"levelo://app?vid=eebb9498-6bb0-444e-9fd8-f97abcfc5646","ios":"levelo://app?vid=eebb9498-6bb0-444e-9fd8-f97abcfc5646"},"vehicle_type_id":"4","last_reported":1740841684,"current_range_meters":16400,"station_id":"ce4bh692rcd13ifvqea0","pricing_plan_id":"cebpf4jnsgd1na2vs0mg"},{"bike_id":"9eb97c83-c48c-45a6-b87a-729212d56713","system_id":"levelo_inurba_marseille","lat":43.28929,"lon":5.36637,"is_reserved":false,"is_disabled":false,"rental_uris":{"android":"levelo://app?vid=9eb97c83-c48c-45a6-b87a-729212d56713","ios":"levelo://app?vid=9eb97c83-c48c-45a6-b87a-729212d56713"},"vehicle_type_id":"4","last_reported":1740841684,"current_range_meters":16400,"station_id":"ce4bhap2rcd13ifvqek0","pricing_plan_id":"cebpf4jnsgd1na2vs0mg"},{"bike_id":"b6a56fc0-b38c-40b6-8188-f131ec678eb2","system_id":"levelo_inurba_marseille","lat":43.26504,"lon":5.39541,"is_reserved":false,"is_disabled":false,"rental_uris":{"android":"levelo://app?vid=b6a56fc0-b38c-40b6-8188-f131ec678eb2","ios":"levelo://app?vid=b6a56fc0-b38c-40b6-8188-f131ec678eb2"},"vehicle_type_id":"4","last_reported":1740841684,"current_range_meters":16400,"station_id":"ce4bhi12rcd13ifvqfq0","pricing_plan_id":"cebpf4jnsgd1na2vs0mg"},{"bike_id":"b04fd336-72f8-426b-9bb3-be5f57f2937f","system_id":"levelo_inurba_marseille","lat":43.23205,"lon":5.35548,"is_reserved":false,"is_disabled":false,"rental_uris":{"android":"levelo://app?vid=b04fd336-72f8-426b-9bb3-be5f57f2937f","ios":"levelo://app?vid=b04fd336-72f8-426b-9bb3-be5f57f2937f"},"vehicle_type_id":"4","last_reported":1740841684,"current_range_meters":16400,"station_id":"ce4bhu92rcd13ifvqi70","pricing_plan_id":"cebpf4jnsgd1na2vs0mg"},{"bike_id":"a197c053-f495-4388-bb09-62f1a25a335b","system_id":"levelo_inurba_marseille","lat":43.23072,"lon":5.35497,"is_reserved":false,"is_disabled":false,"rental_uris":{"android":"levelo://app?vid=a197c053-f495-4388-bb09-62f1a25a335b","ios":"levelo://app?vid=a197c053-f495-4388-bb09-62f1a25a335b"},"vehicle_type_id":"4","last_reported":1740841684,"current_range_meters":16400,"station_id":"cpo3342slgdg3j2ifvpg","pricing_plan_id":"cebpf4jnsgd1na2vs0mg"},{"bike_id":"c8694e6f-92d4-4f83-b4ca-2552ef59703f","system_id":"levelo_inurba_marseille","lat":43.22944,"lon":5.35389,"is_reserved":false,"is_disabled":false,"rental_uris":{"android":"levelo://app?vid=c8694e6f-92d4-4f83-b4ca-2552ef59703f","ios":"levelo://app?vid=c8694e6f-92d4-4f83-b4ca-2552ef59703f"},"vehicle_type_id":"4","last_reported":1740841684,"current_range_meters":16400,"station_id":"cpo3532slgdg3j2ikp40","pricing_plan_id":"cebpf4jnsgd1na2vs0mg"},{"bike_id":"ae07f147-26ae-41a1-8aee-2851f6dcc9df","system_id":"levelo_inurba_marseille","lat":43.28106,"lon":5.39854,"is_reserved":false,"is_disabled":false,"rental_uris":{"android":"levelo://app?vid=ae07f147-26ae-41a1-8aee-2851f6dcc9df","ios":"levelo://app?vid=ae07f147-26ae-41a1-8aee-2851f6dcc9df"},"vehicle_type_id":"4","last_reported":1740841684,"current_range_meters":16800,"station_id":"","pricing_plan_id":"cebpf4jnsgd1na2vs0mg"},{"bike_id":"28735e1e-72d4-426f-8db9-d1047f137bab","system_id":"levelo_inurba_marseille","lat":43.31282,"lon":5.36891,"is_reserved":false,"is_disabled":false,"rental_uris":{"android":"levelo://app?vid=28735e1e-72d4-426f-8db9-d1047f137bab","ios":"levelo://app?vid=28735e1e-72d4-426f-8db9-d1047f137bab"},"vehicle_type_id":"4","last_reported":1740841684,"current_range_meters":16800,"station_id":"ce4bgl92rcd13ifvqbq0","pricing_plan_id":"cebpf4jnsgd1na2vs0mg"},{"bike_id":"ffe714ed-8c20-4a89-8de0-4dba1597b1d3","system_id":"levelo_inurba_marseille","lat":43.2963,"lon":5.37153,"is_reserved":false,"is_disabled":false,"rental_uris":{"android":"levelo://app?vid=ffe714ed-8c20-4a89-8de0-4dba1597b1d3","ios":"levelo://app?vid=ffe714ed-8c20-4a89-8de0-4dba1597b1d3"},"vehicle_type_id":"4","last_reported":1740841684,"current_range_meters":16800,"station_id":"ce4bgnh2rcd13ifvqc0g","pricing_plan_id":"cebpf4jnsgd1na2vs0mg"},{"bike_id":"05c77036-4d0a-4972-987f-ba6417300150","system_id":"levelo_inurba_marseille","lat":43.29974,"lon":5.37189,"is_reserved":false,"is_disabled":false,"rental_uris":{"android":"levelo://app?vid=05c77036-4d0a-4972-987f-ba6417300150","ios":"levelo://app?vid=05c77036-4d0a-4972-987f-ba6417300150"},"vehicle_type_id":"4","last_reported":1740841684,"current_range_meters":16800,"station_id":"ce4bgr92rcd13ifvqc7g","pricing_plan_id":"cebpf4jnsgd1na2vs0mg"},{"bike_id":"6beccde7-f926-477c-bb20-bf13069e0832","system_id":"levelo_inurba_marseille","lat":43.29019,"lon":5.37566,"is_reserved":false,"is_disabled":false,"rental_uris":{"android":"levelo://app?vid=6beccde7-f926-477c-bb20-bf13069e0832","ios":"levelo://app?vid=6beccde7-f926-477c-bb20-bf13069e0832"},"vehicle_type_id":"4","last_reported":1740841684,"current_range_meters":16800,"station_id":"ce4bh692rcd13ifvqe90","pricing_plan_id":"cebpf4jnsgd1na2vs0mg"},{"bike_id":"28094c26-ebf7-4f10-9752-a86036fd897f","system_id":"levelo_inurba_marseille","lat":43.2841,"lon":5.35,"is_reserved":false,"is_disabled":false,"rental_uris":{"android":"levelo://app?vid=28094c26-ebf7-4f10-9752-a86036fd897f","ios":"levelo://app?vid=28094c26-ebf7-4f10-9752-a86036fd897f"},"vehicle_type_id":"4","last_reported":1740841684,"current_range_meters":16800,"station_id":"ce4bhbh2rcd13ifvqepg","pricing_plan_id":"cebpf4jnsgd1na2vs0mg"},{"bike_id":"c272f144-1302-4356-8d7d-046dcce3b360","system_id":"levelo_inurba_marseille","lat":43.26214,"lon":5.37927,"is_reserved":false,"is_disabled":false,"rental_uris":{"android":"levelo://app?vid=c272f144-1302-4356-8d7d-046dcce3b360","ios":"levelo://app?vid=c272f144-1302-4356-8d7d-046dcce3b360"},"vehicle_type_id":"4","last_reported":1740841684,"current_range_meters":16800,"station_id":"ce4bhjp2rcd13ifvqg90","pricing_plan_id":"cebpf4jnsgd1na2vs0mg"},{"bike_id":"3c9c65ff-a2a8-4c52-a6f4-62bcc77556ef","system_id":"levelo_inurba_marseille","lat":43.24159,"lon":5.36401,"is_reserved":false,"is_disabled":false,"rental_uris":{"android":"levelo://app?vid=3c9c65ff-a2a8-4c52-a6f4-62bcc77556ef","ios":"levelo://app?vid=3c9c65ff-a2a8-4c52-a6f4-62bcc77556ef"},"vehicle_type_id":"4","last_reported":1740841684,"current_range_meters":16800,"station_id":"cpo36qri1sfpv3e86is0","pricing_plan_id":"cebpf4jnsgd1na2vs0mg"},{"bike_id":"18ed809a-93be-4ceb-a90d-b4661309b51d","system_id":"levelo_inurba_marseille","lat":43.30947,"lon":5.37456,"is_reserved":false,"is_disabled":false,"rental_uris":{"android":"levelo://app?vid=18ed809a-93be-4ceb-a90d-b4661309b51d","ios":"levelo://app?vid=18ed809a-93be-4ceb-a90d-b4661309b51d"},"vehicle_type_id":"4","last_reported":1740841684,"current_range_meters":17200,"station_id":"","pricing_plan_id":"cebpf4jnsgd1na2vs0mg"},{"bike_id":"ad12e513-ea2c-4d18-8616-e6e1bc9ee049","system_id":"levelo_inurba_marseille","lat":43.30328,"lon":5.40447,"is_reserved":false,"is_disabled":false,"rental_uris":{"android":"levelo://app?vid=ad12e513-ea2c-4d18-8616-e6e1bc9ee049","ios":"levelo://app?vid=ad12e513-ea2c-4d18-8616-e6e1bc9ee049"},"vehicle_type_id":"4","last_reported":1740841684,"current_range_meters":17200,"station_id":"ce4bh012rcd13ifvqd10","pricing_plan_id":"cebpf4jnsgd1na2vs0mg"},{"bike_id":"aeb528e9-2438-454c-b7a2-9b1c8d4e19e4","system_id":"levelo_inurba_marseille","lat":43.29029,"lon":5.38659,"is_reserved":false,"is_disabled":false,"rental_uris":{"android":"levelo://app?vid=aeb528e9-2438-454c-b7a2-9b1c8d4e19e4","ios":"levelo://app?vid=aeb528e9-2438-454c-b7a2-9b1c8d4e19e4"},"vehicle_type_id":"4","last_reported":1740841684,"current_range_meters":17200,"station_id":"ce4bh4p2rcd13ifvqe0g","pricing_plan_id":"cebpf4jnsgd1na2vs0mg"},{"bike_id":"57cd94f2-e7d7-48fa-948e-308f17077047","system_id":"levelo_inurba_marseille","lat":43.29115,"lon":5.38178,"is_reserved":false,"is_disabled":false,"rental_uris":{"android":"levelo://app?vid=57cd94f2-e7d7-48fa-948e-308f17077047","ios":"levelo://app?vid=57cd94f2-e7d7-48fa-948e-308f17077047"},"vehicle_type_id":"4","last_reported":1740841684,"current_range_meters":17200,"station_id":"ce4bh512rcd13ifvqe2g","pricing_plan_id":"cebpf4jnsgd1na2vs0mg"},{"bike_id":"9e5520b4-bf3a-4c93-8806-f068ef30cd9f","system_id":"levelo_inurba_marseille","lat":43.27377,"lon":5.36249,"is_reserved":false,"is_disabled":false,"rental_uris":{"android":"levelo://app?vid=9e5520b4-bf3a-4c93-8806-f068ef30cd9f","ios":"levelo://app?vid=9e5520b4-bf3a-4c93-8806-f068ef30cd9f"},"vehicle_type_id":"4","last_reported":1740841684,"current_range_meters":17200,"station_id":"ce4bhbh2rcd13ifvqeo0","pricing_plan_id":"cebpf4jnsgd1na2vs0mg"},{"bike_id":"3d3e1218-9db2-47a8-a44c-42be77ca5680","system_id":"levelo_inurba_marseille","lat":43.2931,"lon":5.36855,"is_reserved":false,"is_disabled":false,"rental_uris":{"android":"levelo://app?vid=3d3e1218-9db2-47a8-a44c-42be77ca5680","ios":"levelo://app?vid=3d3e1218-9db2-47a8-a44c-42be77ca5680"},"vehicle_type_id":"4","last_reported":1740841684,"current_range_meters":17200,"station_id":"ce4bhbp2rcd13ifvqesg","pricing_plan_id":"cebpf4jnsgd1na2vs0mg"},{"bike_id":"49645587-4897-47af-80cb-ea0df5af90cc","system_id":"levelo_inurba_marseille","lat":43.26206,"lon":5.37447,"is_reserved":false,"is_disabled":false,"rental_uris":{"android":"levelo://app?vid=49645587-4897-47af-80cb-ea0df5af90cc","ios":"levelo://app?vid=49645587-4897-47af-80cb-ea0df5af90cc"},"vehicle_type_id":"4","last_reported":1740841684,"current_range_meters":17200,"station_id":"ce4bhgp2rcd13ifvqfc0","pricing_plan_id":"cebpf4jnsgd1na2vs0mg"},{"bike_id":"dbd24d78-1e72-4b79-b29c-55756f89ecc8","system_id":"levelo_inurba_marseille","lat":43.25009,"lon":5.38947,"is_reserved":false,"is_disabled":false,"rental_uris":{"android":"levelo://app?vid=dbd24d78-1e72-4b79-b29c-55756f89ecc8","ios":"levelo://app?vid=dbd24d78-1e72-4b79-b29c-55756f89ecc8"},"vehicle_type_id":"4","last_reported":1740841684,"current_range_meters":17200,"station_id":"ce4bhgp2rcd13ifvqfd0","pricing_plan_id":"cebpf4jnsgd1na2vs0mg"},{"bike_id":"76d58a2e-82e7-4e1d-a98f-c6152e9b38bc","system_id":"levelo_inurba_marseille","lat":43.27329,"lon":5.39088,"is_reserved":false,"is_disabled":false,"rental_uris":{"android":"levelo://app?vid=76d58a2e-82e7-4e1d-a98f-c6152e9b38bc","ios":"levelo://app?vid=76d58a2e-82e7-4e1d-a98f-c6152e9b38bc"},"vehicle_type_id":"4","last_reported":1740841684,"current_range_meters":17200,"station_id":"ce4bhgp2rcd13ifvqfe0","pricing_plan_id":"cebpf4jnsgd1na2vs0mg"},{"bike_id":"7b535158-ffd2-4957-9a43-134b613ca4d6","system_id":"levelo_inurba_marseille","lat":43.316523,"lon":5.373311,"is_reserved":false,"is_disabled":false,"rental_uris":{"android":"levelo://app?vid=7b535158-ffd2-4957-9a43-134b613ca4d6","ios":"levelo://app?vid=7b535158-ffd2-4957-9a43-134b613ca4d6"},"vehicle_type_id":"4","last_reported":1740841684,"current_range_meters":17600,"station_id":"","pricing_plan_id":"cebpf4jnsgd1na2vs0mg"},{"bike_id":"d0338d15-401f-4f02-ad15-e1eebf71fa48","system_id":"levelo_inurba_marseille","lat":43.29618,"lon":5.3811,"is_reserved":false,"is_disabled":false,"rental_uris":{"android":"levelo://app?vid=d0338d15-401f-4f02-ad15-e1eebf71fa48","ios":"levelo://app?vid=d0338d15-401f-4f02-ad15-e1eebf71fa48"},"vehicle_type_id":"4","last_reported":1740841684,"current_range_meters":17600,"station_id":"ce4bgl12rcd13ifvqbo0","pricing_plan_id":"cebpf4jnsgd1na2vs0mg"},{"bike_id":"1a19f09d-0b6a-4b64-9d93-aa6bb1c37f46","system_id":"levelo_inurba_marseille","lat":43.29605,"lon":5.38095,"is_reserved":false,"is_disabled":false,"rental_uris":{"android":"levelo://app?vid=1a19f09d-0b6a-4b64-9d93-aa6bb1c37f46","ios":"levelo://app?vid=1a19f09d-0b6a-4b64-9d93-aa6bb1c37f46"},"vehicle_type_id":"4","last_reported":1740841684,"current_range_meters":17600,"station_id":"ce4bgl12rcd13ifvqbo0","pricing_plan_id":"cebpf4jnsgd1na2vs0mg"},{"bike_id":"51488355-cec3-4549-a8df-af618d811700","system_id":"levelo_inurba_marseille","lat":43.31705,"lon":5.4048,"is_reserved":false,"is_disabled":false,"rental_uris":{"android":"levelo://app?vid=51488355-cec3-4549-a8df-af618d811700","ios":"levelo://app?vid=51488355-cec3-4549-a8df-af618d811700"},"vehicle_type_id":"4","last_reported":1740841684,"current_range_meters":17600,"station_id":"ce4bh012rcd13ifvqd00","pricing_plan_id":"cebpf4jnsgd1na2vs0mg"},{"bike_id":"d5792e34-1a9b-4bc2-abd5-2c645e524662","system_id":"levelo_inurba_marseille","lat":43.31731,"lon":5.40456,"is_reserved":false,"is_disabled":false,"rental_uris":{"android":"levelo://app?vid=d5792e34-1a9b-4bc2-abd5-2c645e524662","ios":"levelo://app?vid=d5792e34-1a9b-4bc2-abd5-2c645e524662"},"vehicle_type_id":"4","last_reported":1740841684,"current_range_meters":17600,"station_id":"ce4bh012rcd13ifvqd00","pricing_plan_id":"cebpf4jnsgd1na2vs0mg"},{"bike_id":"7823a789-113a-40ae-a3f9-3b27eb5735e7","system_id":"levelo_inurba_marseille","lat":43.296,"lon":5.39949,"is_reserved":false,"is_disabled":false,"rental_uris":{"android":"levelo://app?vid=7823a789-113a-40ae-a3f9-3b27eb5735e7","ios":"levelo://app?vid=7823a789-113a-40ae-a3f9-3b27eb5735e7"},"vehicle_type_id":"4","last_reported":1740841684,"current_range_meters":17600,"station_id":"ce4bh312rcd13ifvqdj0","pricing_plan_id":"cebpf4jnsgd1na2vs0mg"},{"bike_id":"1a20f3ec-1fe9-4e18-af6d-e165155292ed","system_id":"levelo_inurba_marseille","lat":43.29102,"lon":5.38129,"is_reserved":false,"is_disabled":false,"rental_uris":{"android":"levelo://app?vid=1a20f3ec-1fe9-4e18-af6d-e165155292ed","ios":"levelo://app?vid=1a20f3ec-1fe9-4e18-af6d-e165155292ed"},"vehicle_type_id":"4","last_reported":1740841684,"current_range_meters":17600,"station_id":"ce4bh512rcd13ifvqe2g","pricing_plan_id":"cebpf4jnsgd1na2vs0mg"},{"bike_id":"8aac0fdb-8aa4-4ae7-a3e6-b651c1c999c2","system_id":"levelo_inurba_marseille","lat":43.28266,"lon":5.35077,"is_reserved":false,"is_disabled":false,"rental_uris":{"android":"levelo://app?vid=8aac0fdb-8aa4-4ae7-a3e6-b651c1c999c2","ios":"levelo://app?vid=8aac0fdb-8aa4-4ae7-a3e6-b651c1c999c2"},"vehicle_type_id":"4","last_reported":1740841684,"current_range_meters":17600,"station_id":"ce4bhbp2rcd13ifvqerg","pricing_plan_id":"cebpf4jnsgd1na2vs0mg"},{"bike_id":"e2b1a97c-05f9-4994-8c76-5c4c26614832","system_id":"levelo_inurba_marseille","lat":43.2657,"lon":5.37285,"is_reserved":false,"is_disabled":false,"rental_uris":{"android":"levelo://app?vid=e2b1a97c-05f9-4994-8c76-5c4c26614832","ios":"levelo://app?vid=e2b1a97c-05f9-4994-8c76-5c4c26614832"},"vehicle_type_id":"4","last_reported":1740841684,"current_range_meters":17600,"station_id":"ce4bhg12rcd13ifvqf70","pricing_plan_id":"cebpf4jnsgd1na2vs0mg"},{"bike_id":"3e0dfe8e-516c-45d2-9fb6-b841e772a05c","system_id":"levelo_inurba_marseille","lat":43.27195,"lon":5.39178,"is_reserved":false,"is_disabled":false,"rental_uris":{"android":"levelo://app?vid=3e0dfe8e-516c-45d2-9fb6-b841e772a05c","ios":"levelo://app?vid=3e0dfe8e-516c-45d2-9fb6-b841e772a05c"},"vehicle_type_id":"4","last_reported":1740841684,"current_range_meters":17600,"station_id":"ce4bhhp2rcd13ifvqfm0","pricing_plan_id":"cebpf4jnsgd1na2vs0mg"},{"bike_id":"e4c2d0d0-dd07-4d26-a7fb-6e520ae1c215","system_id":"levelo_inurba_marseille","lat":43.28703,"lon":5.4,"is_reserved":false,"is_disabled":false,"rental_uris":{"android":"levelo://app?vid=e4c2d0d0-dd07-4d26-a7fb-6e520ae1c215","ios":"levelo://app?vid=e4c2d0d0-dd07-4d26-a7fb-6e520ae1c215"},"vehicle_type_id":"4","last_reported":1740841684,"current_range_meters":17600,"station_id":"ce4bho92rcd13ifvqh3g","pricing_plan_id":"cebpf4jnsgd1na2vs0mg"},{"bike_id":"96090500-e92b-4618-a8ce-3e71815df01c","system_id":"levelo_inurba_marseille","lat":43.31067,"lon":5.38263,"is_reserved":false,"is_disabled":false,"rental_uris":{"android":"levelo://app?vid=96090500-e92b-4618-a8ce-3e71815df01c","ios":"levelo://app?vid=96090500-e92b-4618-a8ce-3e71815df01c"},"vehicle_type_id":"4","last_reported":1740841684,"current_range_meters":18000,"station_id":"","pricing_plan_id":"cebpf4jnsgd1na2vs0mg"},{"bike_id":"becc1179-b330-49e8-8c01-0081d3d2357e","system_id":"levelo_inurba_marseille","lat":43.29863,"lon":5.36288,"is_reserved":false,"is_disabled":false,"rental_uris":{"android":"levelo://app?vid=becc1179-b330-49e8-8c01-0081d3d2357e","ios":"levelo://app?vid=becc1179-b330-49e8-8c01-0081d3d2357e"},"vehicle_type_id":"4","last_reported":1740841684,"current_range_meters":18000,"station_id":"ce4bgpp2rcd13ifvqc3g","pricing_plan_id":"cebpf4jnsgd1na2vs0mg"},{"bike_id":"f3243cf1-5a1d-429a-96f2-cd79755acaa6","system_id":"levelo_inurba_marseille","lat":43.30939,"lon":5.40144,"is_reserved":false,"is_disabled":false,"rental_uris":{"android":"levelo://app?vid=f3243cf1-5a1d-429a-96f2-cd79755acaa6","ios":"levelo://app?vid=f3243cf1-5a1d-429a-96f2-cd79755acaa6"},"vehicle_type_id":"4","last_reported":1740841684,"current_range_meters":18000,"station_id":"ce4bgvp2rcd13ifvqct0","pricing_plan_id":"cebpf4jnsgd1na2vs0mg"},{"bike_id":"aee6f784-9031-4e59-82af-e3769b098ade","system_id":"levelo_inurba_marseille","lat":43.29036,"lon":5.37563,"is_reserved":false,"is_disabled":false,"rental_uris":{"android":"levelo://app?vid=aee6f784-9031-4e59-82af-e3769b098ade","ios":"levelo://app?vid=aee6f784-9031-4e59-82af-e3769b098ade"},"vehicle_type_id":"4","last_reported":1740841684,"current_range_meters":18000,"station_id":"ce4bh692rcd13ifvqe90","pricing_plan_id":"cebpf4jnsgd1na2vs0mg"},{"bike_id":"73022eae-0e6a-4873-bca7-f9caf82bcade","system_id":"levelo_inurba_marseille","lat":43.28412,"lon":5.34989,"is_reserved":false,"is_disabled":false,"rental_uris":{"android":"levelo://app?vid=73022eae-0e6a-4873-bca7-f9caf82bcade","ios":"levelo://app?vid=73022eae-0e6a-4873-bca7-f9caf82bcade"},"vehicle_type_id":"4","last_reported":1740841684,"current_range_meters":18000,"station_id":"ce4bhbh2rcd13ifvqepg","pricing_plan_id":"cebpf4jnsgd1na2vs0mg"},{"bike_id":"03f4218e-5cb7-4bb6-b01b-87d9fc537b0b","system_id":"levelo_inurba_marseille","lat":43.27208,"lon":5.3919,"is_reserved":false,"is_disabled":false,"rental_uris":{"android":"levelo://app?vid=03f4218e-5cb7-4bb6-b01b-87d9fc537b0b","ios":"levelo://app?vid=03f4218e-5cb7-4bb6-b01b-87d9fc537b0b"},"vehicle_type_id":"4","last_reported":1740841684,"current_range_meters":18000,"station_id":"ce4bhhp2rcd13ifvqfm0","pricing_plan_id":"cebpf4jnsgd1na2vs0mg"},{"bike_id":"785b2088-e997-4eaf-a2a1-57cc25d13a31","system_id":"levelo_inurba_marseille","lat":43.25571,"lon":5.38243,"is_reserved":false,"is_disabled":false,"rental_uris":{"android":"levelo://app?vid=785b2088-e997-4eaf-a2a1-57cc25d13a31","ios":"levelo://app?vid=785b2088-e997-4eaf-a2a1-57cc25d13a31"},"vehicle_type_id":"4","last_reported":1740841684,"current_range_meters":18000,"station_id":"ce4bhih2rcd13ifvqfs0","pricing_plan_id":"cebpf4jnsgd1na2vs0mg"},{"bike_id":"e795c277-030f-4fc6-80e3-73668cccaa32","system_id":"levelo_inurba_marseille","lat":43.27057,"lon":5.40276,"is_reserved":false,"is_disabled":false,"rental_uris":{"android":"levelo://app?vid=e795c277-030f-4fc6-80e3-73668cccaa32","ios":"levelo://app?vid=e795c277-030f-4fc6-80e3-73668cccaa32"},"vehicle_type_id":"4","last_reported":1740841684,"current_range_meters":18000,"station_id":"ce4bhk92rcd13ifvqgc0","pricing_plan_id":"cebpf4jnsgd1na2vs0mg"},{"bike_id":"31b70e1c-8f1c-400d-bcd4-ffdad39f4759","system_id":"levelo_inurba_marseille","lat":43.30161,"lon":5.38098,"is_reserved":false,"is_disabled":false,"rental_uris":{"android":"levelo://app?vid=31b70e1c-8f1c-400d-bcd4-ffdad39f4759","ios":"levelo://app?vid=31b70e1c-8f1c-400d-bcd4-ffdad39f4759"},"vehicle_type_id":"4","last_reported":1740841684,"current_range_meters":18800,"station_id":"ce4bgjp2rcd13ifvqbh0","pricing_plan_id":"cebpf4jnsgd1na2vs0mg"},{"bike_id":"82ce3d8e-f85f-4f5a-a45f-96b5ebaa8cc4","system_id":"levelo_inurba_marseille","lat":43.29624,"lon":5.37173,"is_reserved":false,"is_disabled":false,"rental_uris":{"android":"levelo://app?vid=82ce3d8e-f85f-4f5a-a45f-96b5ebaa8cc4","ios":"levelo://app?vid=82ce3d8e-f85f-4f5a-a45f-96b5ebaa8cc4"},"vehicle_type_id":"4","last_reported":1740841684,"current_range_meters":18800,"station_id":"ce4bgnh2rcd13ifvqc0g","pricing_plan_id":"cebpf4jnsgd1na2vs0mg"},{"bike_id":"4ee88e59-5949-4df8-ab95-08e26337d2da","system_id":"levelo_inurba_marseille","lat":43.30949,"lon":5.39077,"is_reserved":false,"is_disabled":false,"rental_uris":{"android":"levelo://app?vid=4ee88e59-5949-4df8-ab95-08e26337d2da","ios":"levelo://app?vid=4ee88e59-5949-4df8-ab95-08e26337d2da"},"vehicle_type_id":"4","last_reported":1740841684,"current_range_meters":18800,"station_id":"ce4bgup2rcd13ifvqco0","pricing_plan_id":"cebpf4jnsgd1na2vs0mg"},{"bike_id":"9d9ea3d7-9a8c-4118-bff6-a1dc51515da1","system_id":"levelo_inurba_marseille","lat":43.29823,"lon":5.40412,"is_reserved":false,"is_disabled":false,"rental_uris":{"android":"levelo://app?vid=9d9ea3d7-9a8c-4118-bff6-a1dc51515da1","ios":"levelo://app?vid=9d9ea3d7-9a8c-4118-bff6-a1dc51515da1"},"vehicle_type_id":"4","last_reported":1740841684,"current_range_meters":18800,"station_id":"ce4bh112rcd13ifvqd90","pricing_plan_id":"cebpf4jnsgd1na2vs0mg"},{"bike_id":"2d89f0a0-ce29-427b-9e22-0d94634bb6ff","system_id":"levelo_inurba_marseille","lat":43.29531,"lon":5.39056,"is_reserved":false,"is_disabled":false,"rental_uris":{"android":"levelo://app?vid=2d89f0a0-ce29-427b-9e22-0d94634bb6ff","ios":"levelo://app?vid=2d89f0a0-ce29-427b-9e22-0d94634bb6ff"},"vehicle_type_id":"4","last_reported":1740841684,"current_range_meters":18800,"station_id":"ce4bh3p2rcd13ifvqdp0","pricing_plan_id":"cebpf4jnsgd1na2vs0mg"},{"bike_id":"99b026e9-b37d-4d8a-abf2-e73b23e9c69f","system_id":"levelo_inurba_marseille","lat":43.2871,"lon":5.37401,"is_reserved":false,"is_disabled":false,"rental_uris":{"android":"levelo://app?vid=99b026e9-b37d-4d8a-abf2-e73b23e9c69f","ios":"levelo://app?vid=99b026e9-b37d-4d8a-abf2-e73b23e9c69f"},"vehicle_type_id":"4","last_reported":1740841684,"current_range_meters":18800,"station_id":"ce4bh3p2rcd13ifvqdq0","pricing_plan_id":"cebpf4jnsgd1na2vs0mg"},{"bike_id":"139e8c64-03b6-494e-a340-1c85533500e0","system_id":"levelo_inurba_marseille","lat":43.27056,"lon":5.40259,"is_reserved":false,"is_disabled":false,"rental_uris":{"android":"levelo://app?vid=139e8c64-03b6-494e-a340-1c85533500e0","ios":"levelo://app?vid=139e8c64-03b6-494e-a340-1c85533500e0"},"vehicle_type_id":"4","last_reported":1740841684,"current_range_meters":18800,"station_id":"ce4bhk92rcd13ifvqgc0","pricing_plan_id":"cebpf4jnsgd1na2vs0mg"},{"bike_id":"d7413954-b5d7-4971-a5e6-3c9f193a11ee","system_id":"levelo_inurba_marseille","lat":43.33609,"lon":5.40987,"is_reserved":false,"is_disabled":false,"rental_uris":{"android":"levelo://app?vid=d7413954-b5d7-4971-a5e6-3c9f193a11ee","ios":"levelo://app?vid=d7413954-b5d7-4971-a5e6-3c9f193a11ee"},"vehicle_type_id":"4","last_reported":1740841684,"current_range_meters":18800,"station_id":"ce4bhqh2rcd13ifvqhmg","pricing_plan_id":"cebpf4jnsgd1na2vs0mg"},{"bike_id":"632141b9-075a-4881-a50a-fcbb98112171","system_id":"levelo_inurba_marseille","lat":43.28472,"lon":5.3842,"is_reserved":false,"is_disabled":false,"rental_uris":{"android":"levelo://app?vid=632141b9-075a-4881-a50a-fcbb98112171","ios":"levelo://app?vid=632141b9-075a-4881-a50a-fcbb98112171"},"vehicle_type_id":"4","last_reported":1740841684,"current_range_meters":19200,"station_id":"ce4bh512rcd13ifvqe3g","pricing_plan_id":"cebpf4jnsgd1na2vs0mg"},{"bike_id":"7b40dee9-80a5-4823-9e13-33d665c3daed","system_id":"levelo_inurba_marseille","lat":43.2737,"lon":5.36269,"is_reserved":false,"is_disabled":false,"rental_uris":{"android":"levelo://app?vid=7b40dee9-80a5-4823-9e13-33d665c3daed","ios":"levelo://app?vid=7b40dee9-80a5-4823-9e13-33d665c3daed"},"vehicle_type_id":"4","last_reported":1740841684,"current_range_meters":19200,"station_id":"ce4bhbh2rcd13ifvqeo0","pricing_plan_id":"cebpf4jnsgd1na2vs0mg"},{"bike_id":"df5c4086-0eae-48b0-b3ce-fc47694423ac","system_id":"levelo_inurba_marseille","lat":43.27999,"lon":5.40027,"is_reserved":false,"is_disabled":false,"rental_uris":{"android":"levelo://app?vid=df5c4086-0eae-48b0-b3ce-fc47694423ac","ios":"levelo://app?vid=df5c4086-0eae-48b0-b3ce-fc47694423ac"},"vehicle_type_id":"4","last_reported":1740841684,"current_range_meters":19200,"station_id":"ce4bho92rcd13ifvqh4g","pricing_plan_id":"cebpf4jnsgd1na2vs0mg"},{"bike_id":"d66b749a-0808-469e-b143-0787b08d816b","system_id":"levelo_inurba_marseille","lat":43.26227,"lon":5.374373,"is_reserved":false,"is_disabled":false,"rental_uris":{"android":"levelo://app?vid=d66b749a-0808-469e-b143-0787b08d816b","ios":"levelo://app?vid=d66b749a-0808-469e-b143-0787b08d816b"},"vehicle_type_id":"4","last_reported":1740841684,"current_range_meters":19600,"station_id":"","pricing_plan_id":"cebpf4jnsgd1na2vs0mg"},{"bike_id":"cc836fe0-3cfd-4fe9-beb4-1fec15d76872","system_id":"levelo_inurba_marseille","lat":43.30419,"lon":5.37347,"is_reserved":false,"is_disabled":false,"rental_uris":{"android":"levelo://app?vid=cc836fe0-3cfd-4fe9-beb4-1fec15d76872","ios":"levelo://app?vid=cc836fe0-3cfd-4fe9-beb4-1fec15d76872"},"vehicle_type_id":"4","last_reported":1740841684,"current_range_meters":19600,"station_id":"","pricing_plan_id":"cebpf4jnsgd1na2vs0mg"},{"bike_id":"2e8b6152-019f-4678-b463-b1518e4b47b0","system_id":"levelo_inurba_marseille","lat":43.29844,"lon":5.36278,"is_reserved":false,"is_disabled":false,"rental_uris":{"android":"levelo://app?vid=2e8b6152-019f-4678-b463-b1518e4b47b0","ios":"levelo://app?vid=2e8b6152-019f-4678-b463-b1518e4b47b0"},"vehicle_type_id":"4","last_reported":1740841684,"current_range_meters":19600,"station_id":"ce4bgpp2rcd13ifvqc3g","pricing_plan_id":"cebpf4jnsgd1na2vs0mg"},{"bike_id":"f67f7f54-8bb8-4978-871a-dbc29c1f4ee8","system_id":"levelo_inurba_marseille","lat":43.31479,"lon":5.37311,"is_reserved":false,"is_disabled":false,"rental_uris":{"android":"levelo://app?vid=f67f7f54-8bb8-4978-871a-dbc29c1f4ee8","ios":"levelo://app?vid=f67f7f54-8bb8-4978-871a-dbc29c1f4ee8"},"vehicle_type_id":"4","last_reported":1740841684,"current_range_meters":19600,"station_id":"ce4bgt12rcd13ifvqcd0","pricing_plan_id":"cebpf4jnsgd1na2vs0mg"},{"bike_id":"e3e65e92-ca62-4146-ac60-29c4b8e015a0","system_id":"levelo_inurba_marseille","lat":43.28419,"lon":5.34994,"is_reserved":false,"is_disabled":false,"rental_uris":{"android":"levelo://app?vid=e3e65e92-ca62-4146-ac60-29c4b8e015a0","ios":"levelo://app?vid=e3e65e92-ca62-4146-ac60-29c4b8e015a0"},"vehicle_type_id":"4","last_reported":1740841684,"current_range_meters":19600,"station_id":"ce4bhbh2rcd13ifvqepg","pricing_plan_id":"cebpf4jnsgd1na2vs0mg"},{"bike_id":"5d8b8267-1b80-47a9-baf4-820d8d7551a2","system_id":"levelo_inurba_marseille","lat":43.26573,"lon":5.39012,"is_reserved":false,"is_disabled":false,"rental_uris":{"android":"levelo://app?vid=5d8b8267-1b80-47a9-baf4-820d8d7551a2","ios":"levelo://app?vid=5d8b8267-1b80-47a9-baf4-820d8d7551a2"},"vehicle_type_id":"4","last_reported":1740841684,"current_range_meters":19600,"station_id":"ce4bhe12rcd13ifvqf30","pricing_plan_id":"cebpf4jnsgd1na2vs0mg"},{"bike_id":"35de5d9e-453d-4b6e-a49a-d72de279088a","system_id":"levelo_inurba_marseille","lat":43.26209,"lon":5.37474,"is_reserved":false,"is_disabled":false,"rental_uris":{"android":"levelo://app?vid=35de5d9e-453d-4b6e-a49a-d72de279088a","ios":"levelo://app?vid=35de5d9e-453d-4b6e-a49a-d72de279088a"},"vehicle_type_id":"4","last_reported":1740841684,"current_range_meters":19600,"station_id":"ce4bhgp2rcd13ifvqfc0","pricing_plan_id":"cebpf4jnsgd1na2vs0mg"},{"bike_id":"219c3b0b-00a7-466e-b12d-57038ccef4f4","system_id":"levelo_inurba_marseille","lat":43.26215,"lon":5.3745,"is_reserved":false,"is_disabled":false,"rental_uris":{"android":"levelo://app?vid=219c3b0b-00a7-466e-b12d-57038ccef4f4","ios":"levelo://app?vid=219c3b0b-00a7-466e-b12d-57038ccef4f4"},"vehicle_type_id":"4","last_reported":1740841684,"current_range_meters":19600,"station_id":"ce4bhgp2rcd13ifvqfc0","pricing_plan_id":"cebpf4jnsgd1na2vs0mg"},{"bike_id":"6047a4c4-cf2e-4093-a08e-e17fe36769d3","system_id":"levelo_inurba_marseille","lat":43.24071,"lon":5.37763,"is_reserved":false,"is_disabled":false,"rental_uris":{"android":"levelo://app?vid=6047a4c4-cf2e-4093-a08e-e17fe36769d3","ios":"levelo://app?vid=6047a4c4-cf2e-4093-a08e-e17fe36769d3"},"vehicle_type_id":"4","last_reported":1740841684,"current_range_meters":19600,"station_id":"ce4bhnp2rcd13ifvqgvg","pricing_plan_id":"cebpf4jnsgd1na2vs0mg"},{"bike_id":"3cf39e80-44f4-48a5-b674-da9fd0e1b66d","system_id":"levelo_inurba_marseille","lat":43.29583,"lon":5.37498,"is_reserved":false,"is_disabled":false,"rental_uris":{"android":"levelo://app?vid=3cf39e80-44f4-48a5-b674-da9fd0e1b66d","ios":"levelo://app?vid=3cf39e80-44f4-48a5-b674-da9fd0e1b66d"},"vehicle_type_id":"4","last_reported":1740841684,"current_range_meters":20000,"station_id":"ce4bgh92rcd13ifvqb50","pricing_plan_id":"cebpf4jnsgd1na2vs0mg"},{"bike_id":"78d092b7-f055-4f67-8e95-fd1698f60ea8","system_id":"levelo_inurba_marseille","lat":43.29923,"lon":5.37502,"is_reserved":false,"is_disabled":false,"rental_uris":{"android":"levelo://app?vid=78d092b7-f055-4f67-8e95-fd1698f60ea8","ios":"levelo://app?vid=78d092b7-f055-4f67-8e95-fd1698f60ea8"},"vehicle_type_id":"4","last_reported":1740841684,"current_range_meters":20000,"station_id":"ce4bgjh2rcd13ifvqbg0","pricing_plan_id":"cebpf4jnsgd1na2vs0mg"},{"bike_id":"244595f1-0f06-48bf-afcf-1acd2408a26e","system_id":"levelo_inurba_marseille","lat":43.30913,"lon":5.36851,"is_reserved":false,"is_disabled":false,"rental_uris":{"android":"levelo://app?vid=244595f1-0f06-48bf-afcf-1acd2408a26e","ios":"levelo://app?vid=244595f1-0f06-48bf-afcf-1acd2408a26e"},"vehicle_type_id":"4","last_reported":1740841684,"current_range_meters":20000,"station_id":"ce4bgn92rcd13ifvqbvg","pricing_plan_id":"cebpf4jnsgd1na2vs0mg"},{"bike_id":"8bcf37d7-88e7-4c1c-ae9a-c89c7441be33","system_id":"levelo_inurba_marseille","lat":43.2998,"lon":5.37194,"is_reserved":false,"is_disabled":false,"rental_uris":{"android":"levelo://app?vid=8bcf37d7-88e7-4c1c-ae9a-c89c7441be33","ios":"levelo://app?vid=8bcf37d7-88e7-4c1c-ae9a-c89c7441be33"},"vehicle_type_id":"4","last_reported":1740841684,"current_range_meters":20000,"station_id":"ce4bgr92rcd13ifvqc7g","pricing_plan_id":"cebpf4jnsgd1na2vs0mg"},{"bike_id":"4bea4796-ad3b-4420-849c-6ca776a03ba1","system_id":"levelo_inurba_marseille","lat":43.26569,"lon":5.39001,"is_reserved":false,"is_disabled":false,"rental_uris":{"android":"levelo://app?vid=4bea4796-ad3b-4420-849c-6ca776a03ba1","ios":"levelo://app?vid=4bea4796-ad3b-4420-849c-6ca776a03ba1"},"vehicle_type_id":"4","last_reported":1740841684,"current_range_meters":20000,"station_id":"ce4bhe12rcd13ifvqf30","pricing_plan_id":"cebpf4jnsgd1na2vs0mg"},{"bike_id":"74203e79-c030-4c79-9c46-2ffaa6643481","system_id":"levelo_inurba_marseille","lat":43.24996,"lon":5.38967,"is_reserved":false,"is_disabled":false,"rental_uris":{"android":"levelo://app?vid=74203e79-c030-4c79-9c46-2ffaa6643481","ios":"levelo://app?vid=74203e79-c030-4c79-9c46-2ffaa6643481"},"vehicle_type_id":"4","last_reported":1740841684,"current_range_meters":20000,"station_id":"ce4bhgp2rcd13ifvqfd0","pricing_plan_id":"cebpf4jnsgd1na2vs0mg"},{"bike_id":"a1ed7fff-a7c6-4601-950e-4bc387f7db69","system_id":"levelo_inurba_marseille","lat":43.24659,"lon":5.38157,"is_reserved":false,"is_disabled":false,"rental_uris":{"android":"levelo://app?vid=a1ed7fff-a7c6-4601-950e-4bc387f7db69","ios":"levelo://app?vid=a1ed7fff-a7c6-4601-950e-4bc387f7db69"},"vehicle_type_id":"4","last_reported":1740841684,"current_range_meters":20000,"station_id":"ce4bhih2rcd13ifvqfr0","pricing_plan_id":"cebpf4jnsgd1na2vs0mg"},{"bike_id":"c5b35fc3-133b-4fcd-9bc1-000b1b46221f","system_id":"levelo_inurba_marseille","lat":43.24163,"lon":5.36405,"is_reserved":false,"is_disabled":false,"rental_uris":{"android":"levelo://app?vid=c5b35fc3-133b-4fcd-9bc1-000b1b46221f","ios":"levelo://app?vid=c5b35fc3-133b-4fcd-9bc1-000b1b46221f"},"vehicle_type_id":"4","last_reported":1740841684,"current_range_meters":20000,"station_id":"cpo36qri1sfpv3e86is0","pricing_plan_id":"cebpf4jnsgd1na2vs0mg"},{"bike_id":"12619477-24e5-4654-82ba-35b94d72a1cf","system_id":"levelo_inurba_marseille","lat":43.29308,"lon":5.37451,"is_reserved":false,"is_disabled":false,"rental_uris":{"android":"levelo://app?vid=12619477-24e5-4654-82ba-35b94d72a1cf","ios":"levelo://app?vid=12619477-24e5-4654-82ba-35b94d72a1cf"},"vehicle_type_id":"4","last_reported":1740841684,"current_range_meters":20400,"station_id":"ce4bgi12rcd13ifvqb70","pricing_plan_id":"cebpf4jnsgd1na2vs0mg"},{"bike_id":"5dbd8474-2489-4ad1-8875-2bb3ef708bb2","system_id":"levelo_inurba_marseille","lat":43.29846,"lon":5.36279,"is_reserved":false,"is_disabled":false,"rental_uris":{"android":"levelo://app?vid=5dbd8474-2489-4ad1-8875-2bb3ef708bb2","ios":"levelo://app?vid=5dbd8474-2489-4ad1-8875-2bb3ef708bb2"},"vehicle_type_id":"4","last_reported":1740841684,"current_range_meters":20400,"station_id":"ce4bgpp2rcd13ifvqc3g","pricing_plan_id":"cebpf4jnsgd1na2vs0mg"},{"bike_id":"d1eaf82d-7fb0-4066-8ceb-bceb481a3844","system_id":"levelo_inurba_marseille","lat":43.23182,"lon":5.39997,"is_reserved":false,"is_disabled":false,"rental_uris":{"android":"levelo://app?vid=d1eaf82d-7fb0-4066-8ceb-bceb481a3844","ios":"levelo://app?vid=d1eaf82d-7fb0-4066-8ceb-bceb481a3844"},"vehicle_type_id":"4","last_reported":1740841684,"current_range_meters":20400,"station_id":"ce4bhn12rcd13ifvqgqg","pricing_plan_id":"cebpf4jnsgd1na2vs0mg"},{"bike_id":"e1b66029-e7e3-48b7-8786-705bdedd90bf","system_id":"levelo_inurba_marseille","lat":43.29904,"lon":5.43663,"is_reserved":false,"is_disabled":false,"rental_uris":{"android":"levelo://app?vid=e1b66029-e7e3-48b7-8786-705bdedd90bf","ios":"levelo://app?vid=e1b66029-e7e3-48b7-8786-705bdedd90bf"},"vehicle_type_id":"4","last_reported":1740841684,"current_range_meters":20400,"station_id":"ce4bhpp2rcd13ifvqhfg","pricing_plan_id":"cebpf4jnsgd1na2vs0mg"},{"bike_id":"35a4782e-5d2e-4fb8-8175-5ce018572fa7","system_id":"levelo_inurba_marseille","lat":43.322999,"lon":5.382908,"is_reserved":false,"is_disabled":false,"rental_uris":{"android":"levelo://app?vid=35a4782e-5d2e-4fb8-8175-5ce018572fa7","ios":"levelo://app?vid=35a4782e-5d2e-4fb8-8175-5ce018572fa7"},"vehicle_type_id":"4","last_reported":1740841684,"current_range_meters":20400,"station_id":"ce4bhr12rcd13ifvqhqg","pricing_plan_id":"cebpf4jnsgd1na2vs0mg"},{"bike_id":"00ff0d13-d912-4937-a149-c0241cd25c68","system_id":"levelo_inurba_marseille","lat":43.22943,"lon":5.35388,"is_reserved":false,"is_disabled":false,"rental_uris":{"android":"levelo://app?vid=00ff0d13-d912-4937-a149-c0241cd25c68","ios":"levelo://app?vid=00ff0d13-d912-4937-a149-c0241cd25c68"},"vehicle_type_id":"4","last_reported":1740841684,"current_range_meters":20400,"station_id":"cpo3532slgdg3j2ikp40","pricing_plan_id":"cebpf4jnsgd1na2vs0mg"},{"bike_id":"fb0d3b60-e130-4413-a1e0-067fbd856d1a","system_id":"levelo_inurba_marseille","lat":43.29296,"lon":5.37443,"is_reserved":false,"is_disabled":false,"rental_uris":{"android":"levelo://app?vid=fb0d3b60-e130-4413-a1e0-067fbd856d1a","ios":"levelo://app?vid=fb0d3b60-e130-4413-a1e0-067fbd856d1a"},"vehicle_type_id":"4","last_reported":1740841684,"current_range_meters":20800,"station_id":"ce4bgi12rcd13ifvqb70","pricing_plan_id":"cebpf4jnsgd1na2vs0mg"},{"bike_id":"48eb5b2d-051b-4edc-9ee8-493b0c44d43c","system_id":"levelo_inurba_marseille","lat":43.27073,"lon":5.40253,"is_reserved":false,"is_disabled":false,"rental_uris":{"android":"levelo://app?vid=48eb5b2d-051b-4edc-9ee8-493b0c44d43c","ios":"levelo://app?vid=48eb5b2d-051b-4edc-9ee8-493b0c44d43c"},"vehicle_type_id":"4","last_reported":1740841684,"current_range_meters":20800,"station_id":"ce4bhk92rcd13ifvqgc0","pricing_plan_id":"cebpf4jnsgd1na2vs0mg"},{"bike_id":"0b85d778-5f42-41f6-99e6-93c2062ce94d","system_id":"levelo_inurba_marseille","lat":43.317,"lon":5.437,"is_reserved":false,"is_disabled":false,"rental_uris":{"android":"levelo://app?vid=0b85d778-5f42-41f6-99e6-93c2062ce94d","ios":"levelo://app?vid=0b85d778-5f42-41f6-99e6-93c2062ce94d"},"vehicle_type_id":"4","last_reported":1740841684,"current_range_meters":20800,"station_id":"ce4bhp92rcd13ifvqhcg","pricing_plan_id":"cebpf4jnsgd1na2vs0mg"},{"bike_id":"982a6c2e-2f14-45e6-81c3-569abb57b097","system_id":"levelo_inurba_marseille","lat":43.23066,"lon":5.35499,"is_reserved":false,"is_disabled":false,"rental_uris":{"android":"levelo://app?vid=982a6c2e-2f14-45e6-81c3-569abb57b097","ios":"levelo://app?vid=982a6c2e-2f14-45e6-81c3-569abb57b097"},"vehicle_type_id":"4","last_reported":1740841684,"current_range_meters":20800,"station_id":"cpo3342slgdg3j2ifvpg","pricing_plan_id":"cebpf4jnsgd1na2vs0mg"},{"bike_id":"e8a4174b-d864-40cb-846a-f39075f76a49","system_id":"levelo_inurba_marseille","lat":43.22948,"lon":5.35397,"is_reserved":false,"is_disabled":false,"rental_uris":{"android":"levelo://app?vid=e8a4174b-d864-40cb-846a-f39075f76a49","ios":"levelo://app?vid=e8a4174b-d864-40cb-846a-f39075f76a49"},"vehicle_type_id":"4","last_reported":1740841684,"current_range_meters":20800,"station_id":"cpo3532slgdg3j2ikp40","pricing_plan_id":"cebpf4jnsgd1na2vs0mg"},{"bike_id":"476112c9-3c40-48ac-9bab-1099ff64d6be","system_id":"levelo_inurba_marseille","lat":43.30158,"lon":5.38076,"is_reserved":false,"is_disabled":false,"rental_uris":{"android":"levelo://app?vid=476112c9-3c40-48ac-9bab-1099ff64d6be","ios":"levelo://app?vid=476112c9-3c40-48ac-9bab-1099ff64d6be"},"vehicle_type_id":"4","last_reported":1740841684,"current_range_meters":21600,"station_id":"ce4bgjp2rcd13ifvqbh0","pricing_plan_id":"cebpf4jnsgd1na2vs0mg"},{"bike_id":"631970f8-ff19-42b0-987c-90d9662fd4fd","system_id":"levelo_inurba_marseille","lat":43.29979,"lon":5.37189,"is_reserved":false,"is_disabled":false,"rental_uris":{"android":"levelo://app?vid=631970f8-ff19-42b0-987c-90d9662fd4fd","ios":"levelo://app?vid=631970f8-ff19-42b0-987c-90d9662fd4fd"},"vehicle_type_id":"4","last_reported":1740841684,"current_range_meters":21600,"station_id":"ce4bgr92rcd13ifvqc7g","pricing_plan_id":"cebpf4jnsgd1na2vs0mg"},{"bike_id":"cf5cfee5-8213-44ec-8690-50a197712031","system_id":"levelo_inurba_marseille","lat":43.30948,"lon":5.39026,"is_reserved":false,"is_disabled":false,"rental_uris":{"android":"levelo://app?vid=cf5cfee5-8213-44ec-8690-50a197712031","ios":"levelo://app?vid=cf5cfee5-8213-44ec-8690-50a197712031"},"vehicle_type_id":"4","last_reported":1740841684,"current_range_meters":21600,"station_id":"ce4bgup2rcd13ifvqco0","pricing_plan_id":"cebpf4jnsgd1na2vs0mg"},{"bike_id":"087c13c4-7b06-42c8-afa1-3eb7d673a5e9","system_id":"levelo_inurba_marseille","lat":43.29424,"lon":5.38625,"is_reserved":false,"is_disabled":false,"rental_uris":{"android":"levelo://app?vid=087c13c4-7b06-42c8-afa1-3eb7d673a5e9","ios":"levelo://app?vid=087c13c4-7b06-42c8-afa1-3eb7d673a5e9"},"vehicle_type_id":"4","last_reported":1740841684,"current_range_meters":21600,"station_id":"ce4bh2h2rcd13ifvqdh0","pricing_plan_id":"cebpf4jnsgd1na2vs0mg"},{"bike_id":"af049065-c9f0-4189-960c-caead01984c5","system_id":"levelo_inurba_marseille","lat":43.27319,"lon":5.39091,"is_reserved":false,"is_disabled":false,"rental_uris":{"android":"levelo://app?vid=af049065-c9f0-4189-960c-caead01984c5","ios":"levelo://app?vid=af049065-c9f0-4189-960c-caead01984c5"},"vehicle_type_id":"4","last_reported":1740841684,"current_range_meters":21600,"station_id":"ce4bhgp2rcd13ifvqfe0","pricing_plan_id":"cebpf4jnsgd1na2vs0mg"},{"bike_id":"cc4b29ba-c5e4-4b12-842a-46fdbb0988ee","system_id":"levelo_inurba_marseille","lat":43.27319,"lon":5.39103,"is_reserved":false,"is_disabled":false,"rental_uris":{"android":"levelo://app?vid=cc4b29ba-c5e4-4b12-842a-46fdbb0988ee","ios":"levelo://app?vid=cc4b29ba-c5e4-4b12-842a-46fdbb0988ee"},"vehicle_type_id":"4","last_reported":1740841684,"current_range_meters":21600,"station_id":"ce4bhgp2rcd13ifvqfe0","pricing_plan_id":"cebpf4jnsgd1na2vs0mg"},{"bike_id":"591e4c91-4ae2-48db-a850-e6bc66d7a323","system_id":"levelo_inurba_marseille","lat":43.29548,"lon":5.42261,"is_reserved":false,"is_disabled":false,"rental_uris":{"android":"levelo://app?vid=591e4c91-4ae2-48db-a850-e6bc66d7a323","ios":"levelo://app?vid=591e4c91-4ae2-48db-a850-e6bc66d7a323"},"vehicle_type_id":"4","last_reported":1740841684,"current_range_meters":21600,"station_id":"ce4bhph2rcd13ifvqhdg","pricing_plan_id":"cebpf4jnsgd1na2vs0mg"},{"bike_id":"91ea1b7d-b8c8-4a78-9b14-72cdef34b37b","system_id":"levelo_inurba_marseille","lat":43.32293,"lon":5.37443,"is_reserved":false,"is_disabled":false,"rental_uris":{"android":"levelo://app?vid=91ea1b7d-b8c8-4a78-9b14-72cdef34b37b","ios":"levelo://app?vid=91ea1b7d-b8c8-4a78-9b14-72cdef34b37b"},"vehicle_type_id":"4","last_reported":1740841684,"current_range_meters":22000,"station_id":"","pricing_plan_id":"cebpf4jnsgd1na2vs0mg"},{"bike_id":"815a184d-a890-4949-a5ab-49441c892d01","system_id":"levelo_inurba_marseille","lat":43.29304,"lon":5.37187,"is_reserved":false,"is_disabled":false,"rental_uris":{"android":"levelo://app?vid=815a184d-a890-4949-a5ab-49441c892d01","ios":"levelo://app?vid=815a184d-a890-4949-a5ab-49441c892d01"},"vehicle_type_id":"4","last_reported":1740841684,"current_range_meters":22000,"station_id":"ce4bgh92rcd13ifvqb40","pricing_plan_id":"cebpf4jnsgd1na2vs0mg"},{"bike_id":"c2df9f02-7727-4174-a6a3-d648105e009b","system_id":"levelo_inurba_marseille","lat":43.29647,"lon":5.37137,"is_reserved":false,"is_disabled":false,"rental_uris":{"android":"levelo://app?vid=c2df9f02-7727-4174-a6a3-d648105e009b","ios":"levelo://app?vid=c2df9f02-7727-4174-a6a3-d648105e009b"},"vehicle_type_id":"4","last_reported":1740841684,"current_range_meters":22000,"station_id":"ce4bgnh2rcd13ifvqc0g","pricing_plan_id":"cebpf4jnsgd1na2vs0mg"},{"bike_id":"6e439ba8-1945-411f-a122-900bb1e01925","system_id":"levelo_inurba_marseille","lat":43.29902,"lon":5.43673,"is_reserved":false,"is_disabled":false,"rental_uris":{"android":"levelo://app?vid=6e439ba8-1945-411f-a122-900bb1e01925","ios":"levelo://app?vid=6e439ba8-1945-411f-a122-900bb1e01925"},"vehicle_type_id":"4","last_reported":1740841684,"current_range_meters":22000,"station_id":"ce4bhpp2rcd13ifvqhfg","pricing_plan_id":"cebpf4jnsgd1na2vs0mg"},{"bike_id":"3bc4eda0-da4a-4b3b-86f5-756cd5b48c84","system_id":"levelo_inurba_marseille","lat":43.26807,"lon":5.40266,"is_reserved":false,"is_disabled":false,"rental_uris":{"android":"levelo://app?vid=3bc4eda0-da4a-4b3b-86f5-756cd5b48c84","ios":"levelo://app?vid=3bc4eda0-da4a-4b3b-86f5-756cd5b48c84"},"vehicle_type_id":"4","last_reported":1740841684,"current_range_meters":22000,"station_id":"ce501612rcd8frsf0b60","pricing_plan_id":"cebpf4jnsgd1na2vs0mg"},{"bike_id":"973a322e-84c9-4549-9723-05d80da3cb42","system_id":"levelo_inurba_marseille","lat":43.30164,"lon":5.3809,"is_reserved":false,"is_disabled":false,"rental_uris":{"android":"levelo://app?vid=973a322e-84c9-4549-9723-05d80da3cb42","ios":"levelo://app?vid=973a322e-84c9-4549-9723-05d80da3cb42"},"vehicle_type_id":"4","last_reported":1740841684,"current_range_meters":22400,"station_id":"ce4bgjp2rcd13ifvqbh0","pricing_plan_id":"cebpf4jnsgd1na2vs0mg"},{"bike_id":"c828f3db-16b8-4035-ab25-1eb08e1e89e3","system_id":"levelo_inurba_marseille","lat":43.3108,"lon":5.38357,"is_reserved":false,"is_disabled":false,"rental_uris":{"android":"levelo://app?vid=c828f3db-16b8-4035-ab25-1eb08e1e89e3","ios":"levelo://app?vid=c828f3db-16b8-4035-ab25-1eb08e1e89e3"},"vehicle_type_id":"4","last_reported":1740841684,"current_range_meters":22400,"station_id":"ce4bgv92rcd13ifvqcr0","pricing_plan_id":"cebpf4jnsgd1na2vs0mg"},{"bike_id":"417fbd7d-d6d8-4c3a-98dd-ce0156edb9f1","system_id":"levelo_inurba_marseille","lat":43.28441,"lon":5.34996,"is_reserved":false,"is_disabled":false,"rental_uris":{"android":"levelo://app?vid=417fbd7d-d6d8-4c3a-98dd-ce0156edb9f1","ios":"levelo://app?vid=417fbd7d-d6d8-4c3a-98dd-ce0156edb9f1"},"vehicle_type_id":"4","last_reported":1740841684,"current_range_meters":22400,"station_id":"ce4bhbh2rcd13ifvqepg","pricing_plan_id":"cebpf4jnsgd1na2vs0mg"},{"bike_id":"ceca30b5-c064-42b5-a0d3-be936c413dd1","system_id":"levelo_inurba_marseille","lat":43.25015,"lon":5.38941,"is_reserved":false,"is_disabled":false,"rental_uris":{"android":"levelo://app?vid=ceca30b5-c064-42b5-a0d3-be936c413dd1","ios":"levelo://app?vid=ceca30b5-c064-42b5-a0d3-be936c413dd1"},"vehicle_type_id":"4","last_reported":1740841684,"current_range_meters":22400,"station_id":"ce4bhgp2rcd13ifvqfd0","pricing_plan_id":"cebpf4jnsgd1na2vs0mg"},{"bike_id":"0e127e9b-ac12-485d-acd6-dd9a5109e9ac","system_id":"levelo_inurba_marseille","lat":43.27049,"lon":5.40245,"is_reserved":false,"is_disabled":false,"rental_uris":{"android":"levelo://app?vid=0e127e9b-ac12-485d-acd6-dd9a5109e9ac","ios":"levelo://app?vid=0e127e9b-ac12-485d-acd6-dd9a5109e9ac"},"vehicle_type_id":"4","last_reported":1740841684,"current_range_meters":22400,"station_id":"ce4bhk92rcd13ifvqgc0","pricing_plan_id":"cebpf4jnsgd1na2vs0mg"},