{"last_updated":1737094364,"ttl":60,"version":"2.2","data":{"bikes":[{"bike_id":"97285aa9-5761-409a-831f-0e86e3084153","system_id":"levelo_inurba_marseille","lat":43.31321,"lon":5.39717,"is_reserved":false,"is_disabled":false,"rental_uris":{"android":"levelo://app?vid=97285aa9-5761-409a-831f-0e86e3084153","ios":"levelo://app?vid=97285aa9-5761-409a-831f-0e86e3084153"},"vehicle_type_id":"4","last_reported":1737094364,"current_range_meters":38000,"station_id":"ce4bgvp2rcd13ifvqcu0","pricing_plan_id":"cebpf4jnsgd1na2vs0mg"},{"bike_id":"fbba789f-860c-4d62-8452-c64ff2ef0dd3","system_id":"levelo_inurba_marseille","lat":43.25117,"lon":5.40329,"is_reserved":false,"is_disabled":false,"rental_uris":{"android":"levelo://app?vid=fbba789f-860c-4d62-8452-c64ff2ef0dd3","ios":"levelo://app?vid=fbba789f-860c-4d62-8452-c64ff2ef0dd3"},"vehicle_type_id":"4","last_reported":1737094364,"current_range_meters":38800,"station_id":"ce4bhlh2rcd13ifvqgig","pricing_plan_id":"cebpf4jnsgd1na2vs0mg"},{"bike_id":"e40b7c60-2fc0-44af-954b-2ed7110cf526","system_id":"levelo_inurba_marseille","lat":43.28566,"lon":5.39476,"is_reserved":false,"is_disabled":false,"rental_uris":{"android":"levelo://app?vid=e40b7c60-2fc0-44af-954b-2ed7110cf526","ios":"levelo://app?vid=e40b7c60-2fc0-44af-954b-2ed7110cf526"},"vehicle_type_id":"4","last_reported":1737094364,"current_range_meters":19200,"station_id":"ce4bh292rcd13ifvqdg0","pricing_plan_id":"cebpf4jnsgd1na2vs0mg"},{"bike_id":"d1625a4a-8a24-47e6-97c9-23684f501ba7","system_id":"levelo_inurba_marseille","lat":43.258737,"lon":5.399005,"is_reserved":false,"is_disabled":false,"rental_uris":{"android":"levelo://app?vid=d1625a4a-8a24-47e6-97c9-23684f501ba7","ios":"levelo://app?vid=d1625a4a-8a24-47e6-97c9-23684f501ba7"},"vehicle_type_id":"4","last_reported":1737094364,"current_range_meters":18800,"station_id":"ce4bhl92rcd13ifvqghg","pricing_plan_id":"cebpf4jnsgd1na2vs0mg"},{"bike_id":"fcc7858f-7afc-4c13-b0d1-377955f56520","system_id":"levelo_inurba_marseille","lat":43.30416,"lon":5.41285,"is_reserved":false,"is_disabled":false,"rental_uris":{"android":"levelo://app?vid=fcc7858f-7afc-4c13-b0d1-377955f56520","ios":"levelo://app?vid=fcc7858f-7afc-4c13-b0d1-377955f56520"},"vehicle_type_id":"4","last_reported":1737094364,"current_range_meters":7200,"station_id":"ce4bhop2rcd13ifvqh8g","pricing_plan_id":"cebpf4jnsgd1na2vs0mg"},{"bike_id":"a39c946b-f215-435b-b58f-d6dc4c7b0aaf","system_id":"levelo_inurba_marseille","lat":43.28145,"lon":5.42652,"is_reserved":false,"is_disabled":true,"rental_uris":{"android":"levelo://app?vid=a39c946b-f215-435b-b58f-d6dc4c7b0aaf","ios":"levelo://app?vid=a39c946b-f215-435b-b58f-d6dc4c7b0aaf"},"vehicle_type_id":"4","last_reported":1737094364,"current_range_meters":35600,"station_id":"ce4bhnh2rcd13ifvqgug","pricing_plan_id":"cebpf4jnsgd1na2vs0mg"},{"bike_id":"f920b982-cf2b-4f22-a8e5-d4ce681958df","system_id":"levelo_inurba_marseille","lat":43.29845,"lon":5.40464,"is_reserved":false,"is_disabled":false,"rental_uris":{"android":"levelo://app?vid=f920b982-cf2b-4f22-a8e5-d4ce681958df","ios":"levelo://app?vid=f920b982-cf2b-4f22-a8e5-d4ce681958df"},"vehicle_type_id":"4","last_reported":1737094364,"current_range_meters":39200,"station_id":"ce4bh112rcd13ifvqd90","pricing_plan_id":"cebpf4jnsgd1na2vs0mg"},{"bike_id":"4526ff20-897a-402d-8ff0-907831075ba8","system_id":"levelo_inurba_marseille","lat":43.30811,"lon":5.38128,"is_reserved":false,"is_disabled":false,"rental_uris":{"android":"levelo://app?vid=4526ff20-897a-402d-8ff0-907831075ba8","ios":"levelo://app?vid=4526ff20-897a-402d-8ff0-907831075ba8"},"vehicle_type_id":"4","last_reported":1737094364,"current_range_meters":38000,"station_id":"ce4bgt12rcd13ifvqce0","pricing_plan_id":"cebpf4jnsgd1na2vs0mg"},{"bike_id":"5756557f-d524-4c5a-8f29-291d01811e0e","system_id":"levelo_inurba_marseille","lat":43.28477,"lon":5.38539,"is_reserved":false,"is_disabled":false,"rental_uris":{"android":"levelo://app?vid=5756557f-d524-4c5a-8f29-291d01811e0e","ios":"levelo://app?vid=5756557f-d524-4c5a-8f29-291d01811e0e"},"vehicle_type_id":"4","last_reported":1737094364,"current_range_meters":39200,"station_id":"ce4bh8p2rcd13ifvqeb0","pricing_plan_id":"cebpf4jnsgd1na2vs0mg"},{"bike_id":"37452161-8329-4f67-9abc-9c1324bfde65","system_id":"levelo_inurba_marseille","lat":43.30795,"lon":5.37648,"is_reserved":false,"is_disabled":false,"rental_uris":{"android":"levelo://app?vid=37452161-8329-4f67-9abc-9c1324bfde65","ios":"levelo://app?vid=37452161-8329-4f67-9abc-9c1324bfde65"},"vehicle_type_id":"4","last_reported":1737094364,"current_range_meters":11600,"station_id":"ce4bgv92rcd13ifvqcq0","pricing_plan_id":"cebpf4jnsgd1na2vs0mg"},{"bike_id":"25b01166-8b4c-49d6-8386-8f83eb8111f5","system_id":"levelo_inurba_marseille","lat":43.25829,"lon":5.39427,"is_reserved":false,"is_disabled":false,"rental_uris":{"android":"levelo://app?vid=25b01166-8b4c-49d6-8386-8f83eb8111f5","ios":"levelo://app?vid=25b01166-8b4c-49d6-8386-8f83eb8111f5"},"vehicle_type_id":"4","last_reported":1737094364,"current_range_meters":38800,"station_id":"ce4bhip2rcd13ifvqft0","pricing_plan_id":"cebpf4jnsgd1na2vs0mg"},{"bike_id":"f4e3e49e-ddf1-4319-b366-d0a56f98e36d","system_id":"levelo_inurba_marseille","lat":43.25578,"lon":5.3824,"is_reserved":false,"is_disabled":false,"rental_uris":{"android":"levelo://app?vid=f4e3e49e-ddf1-4319-b366-d0a56f98e36d","ios":"levelo://app?vid=f4e3e49e-ddf1-4319-b366-d0a56f98e36d"},"vehicle_type_id":"4","last_reported":1737094364,"current_range_meters":28400,"station_id":"ce4bhih2rcd13ifvqfs0","pricing_plan_id":"cebpf4jnsgd1na2vs0mg"},{"bike_id":"302ab681-9b5d-4689-8679-3cf53f5e36dc","system_id":"levelo_inurba_marseille","lat":43.28736,"lon":5.36081,"is_reserved":false,"is_disabled":false,"rental_uris":{"android":"levelo://app?vid=302ab681-9b5d-4689-8679-3cf53f5e36dc","ios":"levelo://app?vid=302ab681-9b5d-4689-8679-3cf53f5e36dc"},"vehicle_type_id":"4","last_reported":1737094364,"current_range_meters":32000,"station_id":"cki0cbj6b192h4jlfktg","pricing_plan_id":"cebpf4jnsgd1na2vs0mg"},{"bike_id":"a151f3dd-4e2c-4c83-89da-d32b02b922c5","system_id":"levelo_inurba_marseille","lat":43.27815,"lon":5.40708,"is_reserved":false,"is_disabled":false,"rental_uris":{"android":"levelo://app?vid=a151f3dd-4e2c-4c83-89da-d32b02b922c5","ios":"levelo://app?vid=a151f3dd-4e2c-4c83-89da-d32b02b922c5"},"vehicle_type_id":"4","last_reported":1737094364,"current_range_meters":36800,"station_id":"ce4bhnh2rcd13ifvqgtg","pricing_plan_id":"cebpf4jnsgd1na2vs0mg"},{"bike_id":"044de657-125b-44b9-a9ca-b96ab86f3594","system_id":"levelo_inurba_marseille","lat":43.27568,"lon":5.38393,"is_reserved":false,"is_disabled":false,"rental_uris":{"android":"levelo://app?vid=044de657-125b-44b9-a9ca-b96ab86f3594","ios":"levelo://app?vid=044de657-125b-44b9-a9ca-b96ab86f3594"},"vehicle_type_id":"4","last_reported":1737094364,"current_range_meters":36800,"station_id":"ce4bhh92rcd13ifvqfi0","pricing_plan_id":"cebpf4jnsgd1na2vs0mg"},{"bike_id":"3686f018-e558-4d62-9d71-c8b7629c3c1a","system_id":"levelo_inurba_marseille","lat":43.25887,"lon":5.39916,"is_reserved":false,"is_disabled":false,"rental_uris":{"android":"levelo://app?vid=3686f018-e558-4d62-9d71-c8b7629c3c1a","ios":"levelo://app?vid=3686f018-e558-4d62-9d71-c8b7629c3c1a"},"vehicle_type_id":"4","last_reported":1737094364,"current_range_meters":20800,"station_id":"ce4bhl92rcd13ifvqghg","pricing_plan_id":"cebpf4jnsgd1na2vs0mg"},{"bike_id":"d8522c69-8ae9-443b-aaf1-dbf92740d84f","system_id":"levelo_inurba_marseille","lat":43.231921,"lon":5.399771,"is_reserved":false,"is_disabled":false,"rental_uris":{"android":"levelo://app?vid=d8522c69-8ae9-443b-aaf1-dbf92740d84f","ios":"levelo://app?vid=d8522c69-8ae9-443b-aaf1-dbf92740d84f"},"vehicle_type_id":"4","last_reported":1737094364,"current_range_meters":24400,"station_id":"ce4bhn12rcd13ifvqgqg","pricing_plan_id":"cebpf4jnsgd1na2vs0mg"},{"bike_id":"2bf65692-cbc9-4581-916b-1c0b607a4dbb","system_id":"levelo_inurba_marseille","lat":43.28419,"lon":5.3919,"is_reserved":false,"is_disabled":false,"rental_uris":{"android":"levelo://app?vid=2bf65692-cbc9-4581-916b-1c0b607a4dbb","ios":"levelo://app?vid=2bf65692-cbc9-4581-916b-1c0b607a4dbb"},"vehicle_type_id":"4","last_reported":1737094364,"current_range_meters":24800,"station_id":"ce4bhoh2rcd13ifvqh5g","pricing_plan_id":"cebpf4jnsgd1na2vs0mg"},{"bike_id":"8800286a-027a-4841-87ae-71bd90fd9e19","system_id":"levelo_inurba_marseille","lat":43.28663,"lon":5.36347,"is_reserved":false,"is_disabled":false,"rental_uris":{"android":"levelo://app?vid=8800286a-027a-4841-87ae-71bd90fd9e19","ios":"levelo://app?vid=8800286a-027a-4841-87ae-71bd90fd9e19"},"vehicle_type_id":"4","last_reported":1737094364,"current_range_meters":38800,"station_id":"ce4bhah2rcd13ifvqej0","pricing_plan_id":"cebpf4jnsgd1na2vs0mg"},{"bike_id":"7f02950a-6af8-4077-8bd4-f17cb739a40e","system_id":"levelo_inurba_marseille","lat":43.27074,"lon":5.42273,"is_reserved":false,"is_disabled":false,"rental_uris":{"android":"levelo://app?vid=7f02950a-6af8-4077-8bd4-f17cb739a40e","ios":"levelo://app?vid=7f02950a-6af8-4077-8bd4-f17cb739a40e"},"vehicle_type_id":"4","last_reported":1737094364,"current_range_meters":17200,"station_id":"ce4bhk92rcd13ifvqgb0","pricing_plan_id":"cebpf4jnsgd1na2vs0mg"},{"bike_id":"98431729-94fb-4241-805d-8415886c3e70","system_id":"levelo_inurba_marseille","lat":43.282778,"lon":5.350702,"is_reserved":false,"is_disabled":false,"rental_uris":{"android":"levelo://app?vid=98431729-94fb-4241-805d-8415886c3e70","ios":"levelo://app?vid=98431729-94fb-4241-805d-8415886c3e70"},"vehicle_type_id":"4","last_reported":1737094364,"current_range_meters":22800,"station_id":"ce4bhbp2rcd13ifvqerg","pricing_plan_id":"cebpf4jnsgd1na2vs0mg"},{"bike_id":"718b07eb-688a-4df3-bacc-bf20940de13c","system_id":"levelo_inurba_marseille","lat":43.31537,"lon":5.38058,"is_reserved":false,"is_disabled":false,"rental_uris":{"android":"levelo://app?vid=718b07eb-688a-4df3-bacc-bf20940de13c","ios":"levelo://app?vid=718b07eb-688a-4df3-bacc-bf20940de13c"},"vehicle_type_id":"4","last_reported":1737094364,"current_range_meters":38800,"station_id":"ce4bhsp2rcd13ifvqi50","pricing_plan_id":"cebpf4jnsgd1na2vs0mg"},{"bike_id":"a920ddac-3c1b-47f2-a8b1-da6f51ba3922","system_id":"levelo_inurba_marseille","lat":43.28617,"lon":5.35105,"is_reserved":false,"is_disabled":false,"rental_uris":{"android":"levelo://app?vid=a920ddac-3c1b-47f2-a8b1-da6f51ba3922","ios":"levelo://app?vid=a920ddac-3c1b-47f2-a8b1-da6f51ba3922"},"vehicle_type_id":"4","last_reported":1737094364,"current_range_meters":4800,"station_id":"ce4bhch2rcd13ifvqeug","pricing_plan_id":"cebpf4jnsgd1na2vs0mg"},{"bike_id":"b8225691-11be-4983-9892-fd7f44abb870","system_id":"levelo_inurba_marseille","lat":43.25766,"lon":5.41061,"is_reserved":false,"is_disabled":false,"rental_uris":{"android":"levelo://app?vid=b8225691-11be-4983-9892-fd7f44abb870","ios":"levelo://app?vid=b8225691-11be-4983-9892-fd7f44abb870"},"vehicle_type_id":"4","last_reported":1737094364,"current_range_meters":37600,"station_id":"ce4bhkp2rcd13ifvqgd0","pricing_plan_id":"cebpf4jnsgd1na2vs0mg"},{"bike_id":"aa1c2cd9-ddaa-4aee-8c47-810e68694606","system_id":"levelo_inurba_marseille","lat":43.317077,"lon":5.377806,"is_reserved":false,"is_disabled":false,"rental_uris":{"android":"levelo://app?vid=aa1c2cd9-ddaa-4aee-8c47-810e68694606","ios":"levelo://app?vid=aa1c2cd9-ddaa-4aee-8c47-810e68694606"},"vehicle_type_id":"4","last_reported":1737094364,"current_range_meters":21600,"station_id":"ce4bgth2rcd13ifvqch0","pricing_plan_id":"cebpf4jnsgd1na2vs0mg"},{"bike_id":"94436272-347b-472b-8d27-53e5554457e3","system_id":"levelo_inurba_marseille","lat":43.272089,"lon":5.391852,"is_reserved":false,"is_disabled":false,"rental_uris":{"android":"levelo://app?vid=94436272-347b-472b-8d27-53e5554457e3","ios":"levelo://app?vid=94436272-347b-472b-8d27-53e5554457e3"},"vehicle_type_id":"4","last_reported":1737094364,"current_range_meters":38000,"station_id":"ce4bhhp2rcd13ifvqfm0","pricing_plan_id":"cebpf4jnsgd1na2vs0mg"},{"bike_id":"c4fc9679-1008-473b-9e9b-26f1ed62312e","system_id":"levelo_inurba_marseille","lat":43.229297,"lon":5.353871,"is_reserved":false,"is_disabled":false,"rental_uris":{"android":"levelo://app?vid=c4fc9679-1008-473b-9e9b-26f1ed62312e","ios":"levelo://app?vid=c4fc9679-1008-473b-9e9b-26f1ed62312e"},"vehicle_type_id":"4","last_reported":1737094364,"current_range_meters":19600,"station_id":"cpo3532slgdg3j2ikp40","pricing_plan_id":"cebpf4jnsgd1na2vs0mg"},{"bike_id":"87911755-e5ea-4b1c-85d9-7185179f27cb","system_id":"levelo_inurba_marseille","lat":43.28483,"lon":5.38423,"is_reserved":false,"is_disabled":false,"rental_uris":{"android":"levelo://app?vid=87911755-e5ea-4b1c-85d9-7185179f27cb","ios":"levelo://app?vid=87911755-e5ea-4b1c-85d9-7185179f27cb"},"vehicle_type_id":"4","last_reported":1737094364,"current_range_meters":39200,"station_id":"ce4bh512rcd13ifvqe3g","pricing_plan_id":"cebpf4jnsgd1na2vs0mg"},{"bike_id":"220ab61f-f38e-47e4-81a4-94aca747a8b9","system_id":"levelo_inurba_marseille","lat":43.2407,"lon":5.37735,"is_reserved":false,"is_disabled":false,"rental_uris":{"android":"levelo://app?vid=220ab61f-f38e-47e4-81a4-94aca747a8b9","ios":"levelo://app?vid=220ab61f-f38e-47e4-81a4-94aca747a8b9"},"vehicle_type_id":"4","last_reported":1737094364,"current_range_meters":38800,"station_id":"ce4bhnp2rcd13ifvqgvg","pricing_plan_id":"cebpf4jnsgd1na2vs0mg"},{"bike_id":"0e842b39-329d-48e2-b781-7e3babc96cf4","system_id":"levelo_inurba_marseille","lat":43.229323,"lon":5.353798,"is_reserved":false,"is_disabled":false,"rental_uris":{"android":"levelo://app?vid=0e842b39-329d-48e2-b781-7e3babc96cf4","ios":"levelo://app?vid=0e842b39-329d-48e2-b781-7e3babc96cf4"},"vehicle_type_id":"4","last_reported":1737094364,"current_range_meters":10000,"station_id":"cpo3532slgdg3j2ikp40","pricing_plan_id":"cebpf4jnsgd1na2vs0mg"},{"bike_id":"02d57b27-63b4-40a8-801a-daad74368e5a","system_id":"levelo_inurba_marseille","lat":43.28696,"lon":5.37399,"is_reserved":false,"is_disabled":false,"rental_uris":{"android":"levelo://app?vid=02d57b27-63b4-40a8-801a-daad74368e5a","ios":"levelo://app?vid=02d57b27-63b4-40a8-801a-daad74368e5a"},"vehicle_type_id":"4","last_reported":1737094364,"current_range_meters":35600,"station_id":"ce4bh3p2rcd13ifvqdq0","pricing_plan_id":"cebpf4jnsgd1na2vs0mg"},{"bike_id":"99edffd1-a5ba-4759-befa-f12a00faec89","system_id":"levelo_inurba_marseille","lat":43.28561,"lon":5.39488,"is_reserved":false,"is_disabled":true,"rental_uris":{"android":"levelo://app?vid=99edffd1-a5ba-4759-befa-f12a00faec89","ios":"levelo://app?vid=99edffd1-a5ba-4759-befa-f12a00faec89"},"vehicle_type_id":"4","last_reported":1737094364,"current_range_meters":10800,"station_id":"ce4bh292rcd13ifvqdg0","pricing_plan_id":"cebpf4jnsgd1na2vs0mg"},{"bike_id":"0ac8c9de-930b-4f5b-af4a-b48038f658a1","system_id":"levelo_inurba_marseille","lat":43.28028,"lon":5.36951,"is_reserved":false,"is_disabled":false,"rental_uris":{"android":"levelo://app?vid=0ac8c9de-930b-4f5b-af4a-b48038f658a1","ios":"levelo://app?vid=0ac8c9de-930b-4f5b-af4a-b48038f658a1"},"vehicle_type_id":"4","last_reported":1737094364,"current_range_meters":16000,"station_id":"ce4bha12rcd13ifvqef0","pricing_plan_id":"cebpf4jnsgd1na2vs0mg"},{"bike_id":"240793b7-2334-47eb-b07b-36073cab0422","system_id":"levelo_inurba_marseille","lat":43.2321,"lon":5.40017,"is_reserved":false,"is_disabled":false,"rental_uris":{"android":"levelo://app?vid=240793b7-2334-47eb-b07b-36073cab0422","ios":"levelo://app?vid=240793b7-2334-47eb-b07b-36073cab0422"},"vehicle_type_id":"4","last_reported":1737094364,"current_range_meters":39200,"station_id":"ce4bhn12rcd13ifvqgqg","pricing_plan_id":"cebpf4jnsgd1na2vs0mg"},{"bike_id":"4c95b24d-5e81-4bcc-9c3f-8e13fb6505af","system_id":"levelo_inurba_marseille","lat":43.27309,"lon":5.39953,"is_reserved":false,"is_disabled":false,"rental_uris":{"android":"levelo://app?vid=4c95b24d-5e81-4bcc-9c3f-8e13fb6505af","ios":"levelo://app?vid=4c95b24d-5e81-4bcc-9c3f-8e13fb6505af"},"vehicle_type_id":"4","last_reported":1737094364,"current_range_meters":36800,"station_id":"","pricing_plan_id":"cebpf4jnsgd1na2vs0mg"},{"bike_id":"8f67b9cc-1ed4-4e29-8a11-d155f996044f","system_id":"levelo_inurba_marseille","lat":43.29034,"lon":5.39975,"is_reserved":false,"is_disabled":false,"rental_uris":{"android":"levelo://app?vid=8f67b9cc-1ed4-4e29-8a11-d155f996044f","ios":"levelo://app?vid=8f67b9cc-1ed4-4e29-8a11-d155f996044f"},"vehicle_type_id":"4","last_reported":1737094364,"current_range_meters":27600,"station_id":"ce4bh392rcd13ifvqdm0","pricing_plan_id":"cebpf4jnsgd1na2vs0mg"},{"bike_id":"a262b8c3-1be1-4041-a54a-9049b3ba3668","system_id":"levelo_inurba_marseille","lat":43.28721,"lon":5.36112,"is_reserved":false,"is_disabled":false,"rental_uris":{"android":"levelo://app?vid=a262b8c3-1be1-4041-a54a-9049b3ba3668","ios":"levelo://app?vid=a262b8c3-1be1-4041-a54a-9049b3ba3668"},"vehicle_type_id":"4","last_reported":1737094364,"current_range_meters":39200,"station_id":"cki0cbj6b192h4jlfktg","pricing_plan_id":"cebpf4jnsgd1na2vs0mg"},{"bike_id":"8240d19d-0738-4c35-b97a-8d2f95fb533d","system_id":"levelo_inurba_marseille","lat":43.27617,"lon":5.36105,"is_reserved":false,"is_disabled":false,"rental_uris":{"android":"levelo://app?vid=8240d19d-0738-4c35-b97a-8d2f95fb533d","ios":"levelo://app?vid=8240d19d-0738-4c35-b97a-8d2f95fb533d"},"vehicle_type_id":"4","last_reported":1737094364,"current_range_meters":39200,"station_id":"ce4bgj92rcd13ifvqbe0","pricing_plan_id":"cebpf4jnsgd1na2vs0mg"},{"bike_id":"a8513bfd-4fd3-4342-a553-667ab2f2734a","system_id":"levelo_inurba_marseille","lat":43.31488,"lon":5.37302,"is_reserved":false,"is_disabled":false,"rental_uris":{"android":"levelo://app?vid=a8513bfd-4fd3-4342-a553-667ab2f2734a","ios":"levelo://app?vid=a8513bfd-4fd3-4342-a553-667ab2f2734a"},"vehicle_type_id":"4","last_reported":1737094364,"current_range_meters":30000,"station_id":"ce4bgt12rcd13ifvqcd0","pricing_plan_id":"cebpf4jnsgd1na2vs0mg"},{"bike_id":"70199fc2-df6a-4ec4-910c-a63d7bb31e5e","system_id":"levelo_inurba_marseille","lat":43.29199,"lon":5.35801,"is_reserved":false,"is_disabled":false,"rental_uris":{"android":"levelo://app?vid=70199fc2-df6a-4ec4-910c-a63d7bb31e5e","ios":"levelo://app?vid=70199fc2-df6a-4ec4-910c-a63d7bb31e5e"},"vehicle_type_id":"4","last_reported":1737094364,"current_range_meters":38800,"station_id":"ce4bhb12rcd13ifvqel0","pricing_plan_id":"cebpf4jnsgd1na2vs0mg"},{"bike_id":"7edfd060-522f-4e8d-bd3c-29a71f6f685e","system_id":"levelo_inurba_marseille","lat":43.2756,"lon":5.38387,"is_reserved":false,"is_disabled":false,"rental_uris":{"android":"levelo://app?vid=7edfd060-522f-4e8d-bd3c-29a71f6f685e","ios":"levelo://app?vid=7edfd060-522f-4e8d-bd3c-29a71f6f685e"},"vehicle_type_id":"4","last_reported":1737094364,"current_range_meters":38400,"station_id":"ce4bhh92rcd13ifvqfi0","pricing_plan_id":"cebpf4jnsgd1na2vs0mg"},{"bike_id":"66ec8711-3dbc-48f7-b091-25773ac6b77c","system_id":"levelo_inurba_marseille","lat":43.281424,"lon":5.442058,"is_reserved":false,"is_disabled":true,"rental_uris":{"android":"levelo://app?vid=66ec8711-3dbc-48f7-b091-25773ac6b77c","ios":"levelo://app?vid=66ec8711-3dbc-48f7-b091-25773ac6b77c"},"vehicle_type_id":"4","last_reported":1737094364,"current_range_meters":0,"station_id":"","pricing_plan_id":"cebpf4jnsgd1na2vs0mg"},{"bike_id":"de8d341a-7a63-48f7-8ea6-a2be755ab501","system_id":"levelo_inurba_marseille","lat":43.27177,"lon":5.40975,"is_reserved":false,"is_disabled":false,"rental_uris":{"android":"levelo://app?vid=de8d341a-7a63-48f7-8ea6-a2be755ab501","ios":"levelo://app?vid=de8d341a-7a63-48f7-8ea6-a2be755ab501"},"vehicle_type_id":"4","last_reported":1737094364,"current_range_meters":9200,"station_id":"ce4bhl12rcd13ifvqgf0","pricing_plan_id":"cebpf4jnsgd1na2vs0mg"},{"bike_id":"85b17b88-0932-436f-a3cd-d6633f9898b6","system_id":"levelo_inurba_marseille","lat":43.2319,"lon":5.39968,"is_reserved":false,"is_disabled":false,"rental_uris":{"android":"levelo://app?vid=85b17b88-0932-436f-a3cd-d6633f9898b6","ios":"levelo://app?vid=85b17b88-0932-436f-a3cd-d6633f9898b6"},"vehicle_type_id":"4","last_reported":1737094364,"current_range_meters":38800,"station_id":"ce4bhn12rcd13ifvqgqg","pricing_plan_id":"cebpf4jnsgd1na2vs0mg"},{"bike_id":"50692c1e-5037-4ae8-9c4a-b99b4adb247b","system_id":"levelo_inurba_marseille","lat":43.30158,"lon":5.38077,"is_reserved":false,"is_disabled":false,"rental_uris":{"android":"levelo://app?vid=50692c1e-5037-4ae8-9c4a-b99b4adb247b","ios":"levelo://app?vid=50692c1e-5037-4ae8-9c4a-b99b4adb247b"},"vehicle_type_id":"4","last_reported":1737094364,"current_range_meters":30800,"station_id":"ce4bgjp2rcd13ifvqbh0","pricing_plan_id":"cebpf4jnsgd1na2vs0mg"},{"bike_id":"d2ed35f8-7da5-4b4b-8781-01e92d76cd9e","system_id":"levelo_inurba_marseille","lat":43.284105,"lon":5.375179,"is_reserved":false,"is_disabled":false,"rental_uris":{"android":"levelo://app?vid=d2ed35f8-7da5-4b4b-8781-01e92d76cd9e","ios":"levelo://app?vid=d2ed35f8-7da5-4b4b-8781-01e92d76cd9e"},"vehicle_type_id":"4","last_reported":1737094364,"current_range_meters":38000,"station_id":"ce4bh412rcd13ifvqds0","pricing_plan_id":"cebpf4jnsgd1na2vs0mg"},{"bike_id":"18d8deee-1c5e-43f2-acc4-897789b5ade0","system_id":"levelo_inurba_marseille","lat":43.28433,"lon":5.39198,"is_reserved":false,"is_disabled":false,"rental_uris":{"android":"levelo://app?vid=18d8deee-1c5e-43f2-acc4-897789b5ade0","ios":"levelo://app?vid=18d8deee-1c5e-43f2-acc4-897789b5ade0"},"vehicle_type_id":"4","last_reported":1737094364,"current_range_meters":39200,"station_id":"ce4bhoh2rcd13ifvqh5g","pricing_plan_id":"cebpf4jnsgd1na2vs0mg"},{"bike_id":"09d51a14-46a9-4268-9e5f-24188260f5a5","system_id":"levelo_inurba_marseille","lat":43.31078,"lon":5.38342,"is_reserved":false,"is_disabled":false,"rental_uris":{"android":"levelo://app?vid=09d51a14-46a9-4268-9e5f-24188260f5a5","ios":"levelo://app?vid=09d51a14-46a9-4268-9e5f-24188260f5a5"},"vehicle_type_id":"4","last_reported":1737094364,"current_range_meters":32000,"station_id":"ce4bgv92rcd13ifvqcr0","pricing_plan_id":"cebpf4jnsgd1na2vs0mg"},{"bike_id":"a081f130-2639-43c2-92eb-70e044a75aa7","system_id":"levelo_inurba_marseille","lat":43.314934,"lon":5.372699,"is_reserved":false,"is_disabled":false,"rental_uris":{"android":"levelo://app?vid=a081f130-2639-43c2-92eb-70e044a75aa7","ios":"levelo://app?vid=a081f130-2639-43c2-92eb-70e044a75aa7"},"vehicle_type_id":"4","last_reported":1737094364,"current_range_meters":36800,"station_id":"ce4bgt12rcd13ifvqcd0","pricing_plan_id":"cebpf4jnsgd1na2vs0mg"},{"bike_id":"0321cd6b-aaff-46d7-aacd-a1fa403e5c50","system_id":"levelo_inurba_marseille","lat":43.33113,"lon":5.38216,"is_reserved":false,"is_disabled":false,"rental_uris":{"android":"levelo://app?vid=0321cd6b-aaff-46d7-aacd-a1fa403e5c50","ios":"levelo://app?vid=0321cd6b-aaff-46d7-aacd-a1fa403e5c50"},"vehicle_type_id":"4","last_reported":1737094364,"current_range_meters":2800,"station_id":"","pricing_plan_id":"cebpf4jnsgd1na2vs0mg"},{"bike_id":"5087d69b-ec3d-4a66-b52a-724f4a5d82fe","system_id":"levelo_inurba_marseille","lat":43.30279,"lon":5.37701,"is_reserved":false,"is_disabled":false,"rental_uris":{"android":"levelo://app?vid=5087d69b-ec3d-4a66-b52a-724f4a5d82fe","ios":"levelo://app?vid=5087d69b-ec3d-4a66-b52a-724f4a5d82fe"},"vehicle_type_id":"4","last_reported":1737094364,"current_range_meters":36800,"station_id":"ce4bguh2rcd13ifvqcj0","pricing_plan_id":"cebpf4jnsgd1na2vs0mg"},{"bike_id":"87707ecc-a555-4041-b4c9-046040370b07","system_id":"levelo_inurba_marseille","lat":43.32002,"lon":5.3814,"is_reserved":false,"is_disabled":false,"rental_uris":{"android":"levelo://app?vid=87707ecc-a555-4041-b4c9-046040370b07","ios":"levelo://app?vid=87707ecc-a555-4041-b4c9-046040370b07"},"vehicle_type_id":"4","last_reported":1737094364,"current_range_meters":38400,"station_id":"ce4bhr12rcd13ifvqhpg","pricing_plan_id":"cebpf4jnsgd1na2vs0mg"},{"bike_id":"1c8bd864-0efd-419e-86a4-cee1dd52b311","system_id":"levelo_inurba_marseille","lat":43.29049,"lon":5.39943,"is_reserved":false,"is_disabled":false,"rental_uris":{"android":"levelo://app?vid=1c8bd864-0efd-419e-86a4-cee1dd52b311","ios":"levelo://app?vid=1c8bd864-0efd-419e-86a4-cee1dd52b311"},"vehicle_type_id":"4","last_reported":1737094364,"current_range_meters":35200,"station_id":"ce4bh392rcd13ifvqdm0","pricing_plan_id":"cebpf4jnsgd1na2vs0mg"},{"bike_id":"f3a22efe-885e-4b13-9ca2-776fdd2f8daa","system_id":"levelo_inurba_marseille","lat":43.27912,"lon":5.39583,"is_reserved":false,"is_disabled":false,"rental_uris":{"android":"levelo://app?vid=f3a22efe-885e-4b13-9ca2-776fdd2f8daa","ios":"levelo://app?vid=f3a22efe-885e-4b13-9ca2-776fdd2f8daa"},"vehicle_type_id":"4","last_reported":1737094364,"current_range_meters":24400,"station_id":"ce4bhf92rcd13ifvqf40","pricing_plan_id":"cebpf4jnsgd1na2vs0mg"},{"bike_id":"4d21a537-3816-432c-8aec-6acfffac2e27","system_id":"levelo_inurba_marseille","lat":43.318876,"lon":5.407258,"is_reserved":false,"is_disabled":false,"rental_uris":{"android":"levelo://app?vid=4d21a537-3816-432c-8aec-6acfffac2e27","ios":"levelo://app?vid=4d21a537-3816-432c-8aec-6acfffac2e27"},"vehicle_type_id":"4","last_reported":1737094364,"current_range_meters":37600,"station_id":"ce4bhq12rcd13ifvqhig","pricing_plan_id":"cebpf4jnsgd1na2vs0mg"},{"bike_id":"e6bc1741-36d9-44de-83fb-05dadc8f1cb4","system_id":"levelo_inurba_marseille","lat":43.29803,"lon":5.38097,"is_reserved":false,"is_disabled":false,"rental_uris":{"android":"levelo://app?vid=e6bc1741-36d9-44de-83fb-05dadc8f1cb4","ios":"levelo://app?vid=e6bc1741-36d9-44de-83fb-05dadc8f1cb4"},"vehicle_type_id":"4","last_reported":1737094364,"current_range_meters":38800,"station_id":"ce4bgip2rcd13ifvqbb0","pricing_plan_id":"cebpf4jnsgd1na2vs0mg"},{"bike_id":"fa53afd0-c3c0-46c2-be7e-d056eb14f6b8","system_id":"levelo_inurba_marseille","lat":43.26079,"lon":5.39394,"is_reserved":false,"is_disabled":false,"rental_uris":{"android":"levelo://app?vid=fa53afd0-c3c0-46c2-be7e-d056eb14f6b8","ios":"levelo://app?vid=fa53afd0-c3c0-46c2-be7e-d056eb14f6b8"},"vehicle_type_id":"4","last_reported":1737094364,"current_range_meters":37600,"station_id":"ce4bhh92rcd13ifvqfj0","pricing_plan_id":"cebpf4jnsgd1na2vs0mg"},{"bike_id":"a47874b2-92b6-4162-9330-775ee9873e24","system_id":"levelo_inurba_marseille","lat":43.323481,"lon":5.406179,"is_reserved":false,"is_disabled":false,"rental_uris":{"android":"levelo://app?vid=a47874b2-92b6-4162-9330-775ee9873e24","ios":"levelo://app?vid=a47874b2-92b6-4162-9330-775ee9873e24"},"vehicle_type_id":"4","last_reported":1737094364,"current_range_meters":16400,"station_id":"ce4bhq92rcd13ifvqhjg","pricing_plan_id":"cebpf4jnsgd1na2vs0mg"},{"bike_id":"07a2cb33-2eed-4a29-8b19-b248e5658320","system_id":"levelo_inurba_marseille","lat":43.306444,"lon":5.400909,"is_reserved":false,"is_disabled":false,"rental_uris":{"android":"levelo://app?vid=07a2cb33-2eed-4a29-8b19-b248e5658320","ios":"levelo://app?vid=07a2cb33-2eed-4a29-8b19-b248e5658320"},"vehicle_type_id":"4","last_reported":1737094364,"current_range_meters":38800,"station_id":"ce4bh112rcd13ifvqda0","pricing_plan_id":"cebpf4jnsgd1na2vs0mg"},{"bike_id":"c8e3ea81-f477-49c4-a720-87f4f6251591","system_id":"levelo_inurba_marseille","lat":43.30887,"lon":5.39624,"is_reserved":false,"is_disabled":false,"rental_uris":{"android":"levelo://app?vid=c8e3ea81-f477-49c4-a720-87f4f6251591","ios":"levelo://app?vid=c8e3ea81-f477-49c4-a720-87f4f6251591"},"vehicle_type_id":"4","last_reported":1737094364,"current_range_meters":39200,"station_id":"ce4bh012rcd13ifvqcv0","pricing_plan_id":"cebpf4jnsgd1na2vs0mg"},{"bike_id":"46ce5eee-7728-4c53-9661-714af7e3c0a3","system_id":"levelo_inurba_marseille","lat":43.28495,"lon":5.38556,"is_reserved":false,"is_disabled":false,"rental_uris":{"android":"levelo://app?vid=46ce5eee-7728-4c53-9661-714af7e3c0a3","ios":"levelo://app?vid=46ce5eee-7728-4c53-9661-714af7e3c0a3"},"vehicle_type_id":"4","last_reported":1737094364,"current_range_meters":10000,"station_id":"ce4bh8p2rcd13ifvqeb0","pricing_plan_id":"cebpf4jnsgd1na2vs0mg"},{"bike_id":"155dbf4b-d6fe-46aa-9097-9994452a5158","system_id":"levelo_inurba_marseille","lat":43.23058,"lon":5.35495,"is_reserved":false,"is_disabled":false,"rental_uris":{"android":"levelo://app?vid=155dbf4b-d6fe-46aa-9097-9994452a5158","ios":"levelo://app?vid=155dbf4b-d6fe-46aa-9097-9994452a5158"},"vehicle_type_id":"4","last_reported":1737094364,"current_range_meters":6800,"station_id":"cpo3342slgdg3j2ifvpg","pricing_plan_id":"cebpf4jnsgd1na2vs0mg"},{"bike_id":"44d65a31-bb68-4e49-86bf-b4d0ff0902f2","system_id":"levelo_inurba_marseille","lat":43.28462,"lon":5.35885,"is_reserved":false,"is_disabled":false,"rental_uris":{"android":"levelo://app?vid=44d65a31-bb68-4e49-86bf-b4d0ff0902f2","ios":"levelo://app?vid=44d65a31-bb68-4e49-86bf-b4d0ff0902f2"},"vehicle_type_id":"4","last_reported":1737094364,"current_range_meters":38400,"station_id":"ce4bhah2rcd13ifvqei0","pricing_plan_id":"cebpf4jnsgd1na2vs0mg"},{"bike_id":"80bc6287-ce2b-4ae4-b9d5-67d3150daa6d","system_id":"levelo_inurba_marseille","lat":43.27152,"lon":5.41007,"is_reserved":false,"is_disabled":false,"rental_uris":{"android":"levelo://app?vid=80bc6287-ce2b-4ae4-b9d5-67d3150daa6d","ios":"levelo://app?vid=80bc6287-ce2b-4ae4-b9d5-67d3150daa6d"},"vehicle_type_id":"4","last_reported":1737094364,"current_range_meters":26000,"station_id":"ce4bhl12rcd13ifvqgf0","pricing_plan_id":"cebpf4jnsgd1na2vs0mg"},{"bike_id":"06a2e876-604b-4466-b27d-2e7dee553ec8","system_id":"levelo_inurba_marseille","lat":43.250899,"lon":5.395122,"is_reserved":false,"is_disabled":false,"rental_uris":{"android":"levelo://app?vid=06a2e876-604b-4466-b27d-2e7dee553ec8","ios":"levelo://app?vid=06a2e876-604b-4466-b27d-2e7dee553ec8"},"vehicle_type_id":"4","last_reported":1737094364,"current_range_meters":3600,"station_id":"ce4bhm12rcd13ifvqgkg","pricing_plan_id":"cebpf4jnsgd1na2vs0mg"},{"bike_id":"6c1eb061-4d0a-4ea5-acf9-07045a27131a","system_id":"levelo_inurba_marseille","lat":43.31368,"lon":5.38501,"is_reserved":false,"is_disabled":false,"rental_uris":{"android":"levelo://app?vid=6c1eb061-4d0a-4ea5-acf9-07045a27131a","ios":"levelo://app?vid=6c1eb061-4d0a-4ea5-acf9-07045a27131a"},"vehicle_type_id":"4","last_reported":1737094364,"current_range_meters":38800,"station_id":"ce4bgt92rcd13ifvqcf0","pricing_plan_id":"cebpf4jnsgd1na2vs0mg"},{"bike_id":"91dd189b-5adb-487a-9bc6-b2591da729ec","system_id":"levelo_inurba_marseille","lat":43.337329,"lon":5.391826,"is_reserved":false,"is_disabled":false,"rental_uris":{"android":"levelo://app?vid=91dd189b-5adb-487a-9bc6-b2591da729ec","ios":"levelo://app?vid=91dd189b-5adb-487a-9bc6-b2591da729ec"},"vehicle_type_id":"4","last_reported":1737094364,"current_range_meters":28400,"station_id":"ce4bhr92rcd13ifvqhsg","pricing_plan_id":"cebpf4jnsgd1na2vs0mg"},{"bike_id":"ca0daeb3-551a-47db-9568-cfb249748609","system_id":"levelo_inurba_marseille","lat":43.29982,"lon":5.38501,"is_reserved":false,"is_disabled":true,"rental_uris":{"android":"levelo://app?vid=ca0daeb3-551a-47db-9568-cfb249748609","ios":"levelo://app?vid=ca0daeb3-551a-47db-9568-cfb249748609"},"vehicle_type_id":"4","last_reported":1737094364,"current_range_meters":26800,"station_id":"ce4bgj92rcd13ifvqbd0","pricing_plan_id":"cebpf4jnsgd1na2vs0mg"},{"bike_id":"ef0a295e-6f2c-40d3-853b-67ee4b529971","system_id":"levelo_inurba_marseille","lat":43.295093,"lon":5.394063,"is_reserved":false,"is_disabled":false,"rental_uris":{"android":"levelo://app?vid=ef0a295e-6f2c-40d3-853b-67ee4b529971","ios":"levelo://app?vid=ef0a295e-6f2c-40d3-853b-67ee4b529971"},"vehicle_type_id":"4","last_reported":1737094364,"current_range_meters":6000,"station_id":"ce4bh292rcd13ifvqdf0","pricing_plan_id":"cebpf4jnsgd1na2vs0mg"},{"bike_id":"160c4de7-7f2e-4ddd-89ef-4765ad4546e8","system_id":"levelo_inurba_marseille","lat":43.289959,"lon":5.356003,"is_reserved":false,"is_disabled":false,"rental_uris":{"android":"levelo://app?vid=160c4de7-7f2e-4ddd-89ef-4765ad4546e8","ios":"levelo://app?vid=160c4de7-7f2e-4ddd-89ef-4765ad4546e8"},"vehicle_type_id":"4","last_reported":1737094364,"current_range_meters":35600,"station_id":"ce4bhb92rcd13ifvqen0","pricing_plan_id":"cebpf4jnsgd1na2vs0mg"},{"bike_id":"48797849-8121-4d6d-aaf8-da32dceb5e88","system_id":"levelo_inurba_marseille","lat":43.28576,"lon":5.39485,"is_reserved":false,"is_disabled":false,"rental_uris":{"android":"levelo://app?vid=48797849-8121-4d6d-aaf8-da32dceb5e88","ios":"levelo://app?vid=48797849-8121-4d6d-aaf8-da32dceb5e88"},"vehicle_type_id":"4","last_reported":1737094364,"current_range_meters":38800,"station_id":"ce4bh292rcd13ifvqdg0","pricing_plan_id":"cebpf4jnsgd1na2vs0mg"},{"bike_id":"f835befa-e0c4-4cbe-a2f0-932b8650c0b0","system_id":"levelo_inurba_marseille","lat":43.231866,"lon":5.399768,"is_reserved":false,"is_disabled":false,"rental_uris":{"android":"levelo://app?vid=f835befa-e0c4-4cbe-a2f0-932b8650c0b0","ios":"levelo://app?vid=f835befa-e0c4-4cbe-a2f0-932b8650c0b0"},"vehicle_type_id":"4","last_reported":1737094364,"current_range_meters":12800,"station_id":"ce4bhn12rcd13ifvqgqg","pricing_plan_id":"cebpf4jnsgd1na2vs0mg"},{"bike_id":"41b0b4ec-7526-4290-96f9-44cbe4cd1ada","system_id":"levelo_inurba_marseille","lat":43.26779,"lon":5.39419,"is_reserved":false,"is_disabled":true,"rental_uris":{"android":"levelo://app?vid=41b0b4ec-7526-4290-96f9-44cbe4cd1ada","ios":"levelo://app?vid=41b0b4ec-7526-4290-96f9-44cbe4cd1ada"},"vehicle_type_id":"4","last_reported":1737094364,"current_range_meters":18000,"station_id":"ce4bhh12rcd13ifvqfg0","pricing_plan_id":"cebpf4jnsgd1na2vs0mg"},{"bike_id":"dd83d1be-c2fa-4d27-a156-169c858b21cb","system_id":"levelo_inurba_marseille","lat":43.30649,"lon":5.4007,"is_reserved":false,"is_disabled":false,"rental_uris":{"android":"levelo://app?vid=dd83d1be-c2fa-4d27-a156-169c858b21cb","ios":"levelo://app?vid=dd83d1be-c2fa-4d27-a156-169c858b21cb"},"vehicle_type_id":"4","last_reported":1737094364,"current_range_meters":38800,"station_id":"ce4bh112rcd13ifvqda0","pricing_plan_id":"cebpf4jnsgd1na2vs0mg"},{"bike_id":"4d67d339-e8e1-4f5a-8086-1d6e90a5223c","system_id":"levelo_inurba_marseille","lat":43.314358,"lon":5.376055,"is_reserved":false,"is_disabled":false,"rental_uris":{"android":"levelo://app?vid=4d67d339-e8e1-4f5a-8086-1d6e90a5223c","ios":"levelo://app?vid=4d67d339-e8e1-4f5a-8086-1d6e90a5223c"},"vehicle_type_id":"4","last_reported":1737094364,"current_range_meters":37600,"station_id":"","pricing_plan_id":"cebpf4jnsgd1na2vs0mg"},{"bike_id":"04ab2eff-d3a3-4ed1-81e9-0dbaaed79129","system_id":"levelo_inurba_marseille","lat":43.31119,"lon":5.37783,"is_reserved":false,"is_disabled":false,"rental_uris":{"android":"levelo://app?vid=04ab2eff-d3a3-4ed1-81e9-0dbaaed79129","ios":"levelo://app?vid=04ab2eff-d3a3-4ed1-81e9-0dbaaed79129"},"vehicle_type_id":"4","last_reported":1737094364,"current_range_meters":35200,"station_id":"ce4bgt92rcd13ifvqcg0","pricing_plan_id":"cebpf4jnsgd1na2vs0mg"},{"bike_id":"4380f0ba-ebac-4c81-a1ad-fa15ed8c6bf4","system_id":"levelo_inurba_marseille","lat":43.292703,"lon":5.401353,"is_reserved":false,"is_disabled":false,"rental_uris":{"android":"levelo://app?vid=4380f0ba-ebac-4c81-a1ad-fa15ed8c6bf4","ios":"levelo://app?vid=4380f0ba-ebac-4c81-a1ad-fa15ed8c6bf4"},"vehicle_type_id":"4","last_reported":1737094364,"current_range_meters":12800,"station_id":"ce4bh312rcd13ifvqdk0","pricing_plan_id":"cebpf4jnsgd1na2vs0mg"},{"bike_id":"9dd5eb0e-e4b7-4224-8da7-7d77946e21bf","system_id":"levelo_inurba_marseille","lat":43.31043,"lon":5.38717,"is_reserved":false,"is_disabled":false,"rental_uris":{"android":"levelo://app?vid=9dd5eb0e-e4b7-4224-8da7-7d77946e21bf","ios":"levelo://app?vid=9dd5eb0e-e4b7-4224-8da7-7d77946e21bf"},"vehicle_type_id":"4","last_reported":1737094364,"current_range_meters":34800,"station_id":"","pricing_plan_id":"cebpf4jnsgd1na2vs0mg"},{"bike_id":"2c839bfc-228b-4afd-9c45-0e54b8f36672","system_id":"levelo_inurba_marseille","lat":43.24654,"lon":5.38892,"is_reserved":false,"is_disabled":false,"rental_uris":{"android":"levelo://app?vid=2c839bfc-228b-4afd-9c45-0e54b8f36672","ios":"levelo://app?vid=2c839bfc-228b-4afd-9c45-0e54b8f36672"},"vehicle_type_id":"4","last_reported":1737094364,"current_range_meters":38800,"station_id":"ce4bhg12rcd13ifvqf60","pricing_plan_id":"cebpf4jnsgd1na2vs0mg"},{"bike_id":"56731049-ada6-4d78-8757-9d28cdc6aacb","system_id":"levelo_inurba_marseille","lat":43.30144,"lon":5.38072,"is_reserved":false,"is_disabled":false,"rental_uris":{"android":"levelo://app?vid=56731049-ada6-4d78-8757-9d28cdc6aacb","ios":"levelo://app?vid=56731049-ada6-4d78-8757-9d28cdc6aacb"},"vehicle_type_id":"4","last_reported":1737094364,"current_range_meters":37600,"station_id":"ce4bgjp2rcd13ifvqbh0","pricing_plan_id":"cebpf4jnsgd1na2vs0mg"},{"bike_id":"0ffbb6d5-5f43-44c9-bcfe-382d025fc0c1","system_id":"levelo_inurba_marseille","lat":43.24668,"lon":5.381621,"is_reserved":false,"is_disabled":false,"rental_uris":{"android":"levelo://app?vid=0ffbb6d5-5f43-44c9-bcfe-382d025fc0c1","ios":"levelo://app?vid=0ffbb6d5-5f43-44c9-bcfe-382d025fc0c1"},"vehicle_type_id":"4","last_reported":1737094364,"current_range_meters":16400,"station_id":"ce4bhih2rcd13ifvqfr0","pricing_plan_id":"cebpf4jnsgd1na2vs0mg"},{"bike_id":"fed11d0f-977e-443b-a693-d5ff6345bfde","system_id":"levelo_inurba_marseille","lat":43.24069,"lon":5.37755,"is_reserved":false,"is_disabled":false,"rental_uris":{"android":"levelo://app?vid=fed11d0f-977e-443b-a693-d5ff6345bfde","ios":"levelo://app?vid=fed11d0f-977e-443b-a693-d5ff6345bfde"},"vehicle_type_id":"4","last_reported":1737094364,"current_range_meters":27200,"station_id":"ce4bhnp2rcd13ifvqgvg","pricing_plan_id":"cebpf4jnsgd1na2vs0mg"},{"bike_id":"36852f13-aa6c-409c-99d3-7142866f7549","system_id":"levelo_inurba_marseille","lat":43.30484,"lon":5.37906,"is_reserved":false,"is_disabled":false,"rental_uris":{"android":"levelo://app?vid=36852f13-aa6c-409c-99d3-7142866f7549","ios":"levelo://app?vid=36852f13-aa6c-409c-99d3-7142866f7549"},"vehicle_type_id":"4","last_reported":1737094364,"current_range_meters":36400,"station_id":"ce4bgup2rcd13ifvqcn0","pricing_plan_id":"cebpf4jnsgd1na2vs0mg"},{"bike_id":"647ff97c-778f-4d52-9f27-1a7403149c23","system_id":"levelo_inurba_marseille","lat":43.29807,"lon":5.40399,"is_reserved":false,"is_disabled":false,"rental_uris":{"android":"levelo://app?vid=647ff97c-778f-4d52-9f27-1a7403149c23","ios":"levelo://app?vid=647ff97c-778f-4d52-9f27-1a7403149c23"},"vehicle_type_id":"4","last_reported":1737094364,"current_range_meters":32400,"station_id":"ce4bh112rcd13ifvqd90","pricing_plan_id":"cebpf4jnsgd1na2vs0mg"},{"bike_id":"e1a3393e-ee05-4b1c-b9fb-3908e373ee14","system_id":"levelo_inurba_marseille","lat":43.26554,"lon":5.37334,"is_reserved":false,"is_disabled":true,"rental_uris":{"android":"levelo://app?vid=e1a3393e-ee05-4b1c-b9fb-3908e373ee14","ios":"levelo://app?vid=e1a3393e-ee05-4b1c-b9fb-3908e373ee14"},"vehicle_type_id":"4","last_reported":1737094364,"current_range_meters":4400,"station_id":"ce4bhg12rcd13ifvqf70","pricing_plan_id":"cebpf4jnsgd1na2vs0mg"},{"bike_id":"7c7fb340-91d3-481f-bef7-3c012bdf7da2","system_id":"levelo_inurba_marseille","lat":43.279906,"lon":5.416603,"is_reserved":false,"is_disabled":true,"rental_uris":{"android":"levelo://app?vid=7c7fb340-91d3-481f-bef7-3c012bdf7da2","ios":"levelo://app?vid=7c7fb340-91d3-481f-bef7-3c012bdf7da2"},"vehicle_type_id":"4","last_reported":1737094364,"current_range_meters":36800,"station_id":"ce4bho12rcd13ifvqh1g","pricing_plan_id":"cebpf4jnsgd1na2vs0mg"},{"bike_id":"d049be83-ab38-4bec-aeb8-0d3be3214f8e","system_id":"levelo_inurba_marseille","lat":43.28737,"lon":5.36078,"is_reserved":false,"is_disabled":false,"rental_uris":{"android":"levelo://app?vid=d049be83-ab38-4bec-aeb8-0d3be3214f8e","ios":"levelo://app?vid=d049be83-ab38-4bec-aeb8-0d3be3214f8e"},"vehicle_type_id":"4","last_reported":1737094364,"current_range_meters":9600,"station_id":"cki0cbj6b192h4jlfktg","pricing_plan_id":"cebpf4jnsgd1na2vs0mg"},{"bike_id":"7fa654ae-7830-4bb8-8064-8a9fb0bddebc","system_id":"levelo_inurba_marseille","lat":43.308803,"lon":5.396435,"is_reserved":false,"is_disabled":false,"rental_uris":{"android":"levelo://app?vid=7fa654ae-7830-4bb8-8064-8a9fb0bddebc","ios":"levelo://app?vid=7fa654ae-7830-4bb8-8064-8a9fb0bddebc"},"vehicle_type_id":"4","last_reported":1737094364,"current_range_meters":39200,"station_id":"ce4bh012rcd13ifvqcv0","pricing_plan_id":"cebpf4jnsgd1na2vs0mg"},{"bike_id":"25b90a90-681c-4a0d-a7c0-7d3d6738c181","system_id":"levelo_inurba_marseille","lat":43.31509,"lon":5.3729,"is_reserved":false,"is_disabled":false,"rental_uris":{"android":"levelo://app?vid=25b90a90-681c-4a0d-a7c0-7d3d6738c181","ios":"levelo://app?vid=25b90a90-681c-4a0d-a7c0-7d3d6738c181"},"vehicle_type_id":"4","last_reported":1737094364,"current_range_meters":26000,"station_id":"ce4bgt12rcd13ifvqcd0","pricing_plan_id":"cebpf4jnsgd1na2vs0mg"},{"bike_id":"57692b3a-b258-4369-8902-af7a7e41e7b7","system_id":"levelo_inurba_marseille","lat":43.29706,"lon":5.36608,"is_reserved":false,"is_disabled":false,"rental_uris":{"android":"levelo://app?vid=57692b3a-b258-4369-8902-af7a7e41e7b7","ios":"levelo://app?vid=57692b3a-b258-4369-8902-af7a7e41e7b7"},"vehicle_type_id":"4","last_reported":1737094364,"current_range_meters":39200,"station_id":"ce4bgn12rcd13ifvqbt0","pricing_plan_id":"cebpf4jnsgd1na2vs0mg"},{"bike_id":"46ba6b6d-9ee4-42b3-a0a1-c688f874954f","system_id":"levelo_inurba_marseille","lat":43.25085,"lon":5.39516,"is_reserved":false,"is_disabled":false,"rental_uris":{"android":"levelo://app?vid=46ba6b6d-9ee4-42b3-a0a1-c688f874954f","ios":"levelo://app?vid=46ba6b6d-9ee4-42b3-a0a1-c688f874954f"},"vehicle_type_id":"4","last_reported":1737094364,"current_range_meters":27600,"station_id":"ce4bhm12rcd13ifvqgkg","pricing_plan_id":"cebpf4jnsgd1na2vs0mg"},{"bike_id":"7e053760-c04f-4b13-9566-126be82540c4","system_id":"levelo_inurba_marseille","lat":43.31278,"lon":5.40168,"is_reserved":false,"is_disabled":false,"rental_uris":{"android":"levelo://app?vid=7e053760-c04f-4b13-9566-126be82540c4","ios":"levelo://app?vid=7e053760-c04f-4b13-9566-126be82540c4"},"vehicle_type_id":"4","last_reported":1737094364,"current_range_meters":38400,"station_id":"ce4bh092rcd13ifvqd30","pricing_plan_id":"cebpf4jnsgd1na2vs0mg"},{"bike_id":"3b2df4f8-614c-4fbc-a6c0-c04057981018","system_id":"levelo_inurba_marseille","lat":43.29629,"lon":5.40609,"is_reserved":false,"is_disabled":false,"rental_uris":{"android":"levelo://app?vid=3b2df4f8-614c-4fbc-a6c0-c04057981018","ios":"levelo://app?vid=3b2df4f8-614c-4fbc-a6c0-c04057981018"},"vehicle_type_id":"4","last_reported":1737094364,"current_range_meters":30800,"station_id":"ce4bh0h2rcd13ifvqd60","pricing_plan_id":"cebpf4jnsgd1na2vs0mg"},{"bike_id":"2bf14e65-d93d-45bb-bad1-71fdf26cad9f","system_id":"levelo_inurba_marseille","lat":43.25119,"lon":5.40326,"is_reserved":false,"is_disabled":false,"rental_uris":{"android":"levelo://app?vid=2bf14e65-d93d-45bb-bad1-71fdf26cad9f","ios":"levelo://app?vid=2bf14e65-d93d-45bb-bad1-71fdf26cad9f"},"vehicle_type_id":"4","last_reported":1737094364,"current_range_meters":8000,"station_id":"ce4bhlh2rcd13ifvqgig","pricing_plan_id":"cebpf4jnsgd1na2vs0mg"},{"bike_id":"116e7514-2e81-4563-a614-e60a431e2012","system_id":"levelo_inurba_marseille","lat":43.286556,"lon":5.363564,"is_reserved":false,"is_disabled":false,"rental_uris":{"android":"levelo://app?vid=116e7514-2e81-4563-a614-e60a431e2012","ios":"levelo://app?vid=116e7514-2e81-4563-a614-e60a431e2012"},"vehicle_type_id":"4","last_reported":1737094364,"current_range_meters":38800,"station_id":"ce4bhah2rcd13ifvqej0","pricing_plan_id":"cebpf4jnsgd1na2vs0mg"},{"bike_id":"e6d52744-fcef-4b04-b3e0-4aafb92377b1","system_id":"levelo_inurba_marseille","lat":43.3058,"lon":5.36747,"is_reserved":false,"is_disabled":true,"rental_uris":{"android":"levelo://app?vid=e6d52744-fcef-4b04-b3e0-4aafb92377b1","ios":"levelo://app?vid=e6d52744-fcef-4b04-b3e0-4aafb92377b1"},"vehicle_type_id":"4","last_reported":1737094364,"current_range_meters":33600,"station_id":"ce4bgrp2rcd13ifvqc9g","pricing_plan_id":"cebpf4jnsgd1na2vs0mg"},{"bike_id":"078fa2d8-b6e2-4689-814d-1564c1917c5d","system_id":"levelo_inurba_marseille","lat":43.240827,"lon":5.377365,"is_reserved":false,"is_disabled":false,"rental_uris":{"android":"levelo://app?vid=078fa2d8-b6e2-4689-814d-1564c1917c5d","ios":"levelo://app?vid=078fa2d8-b6e2-4689-814d-1564c1917c5d"},"vehicle_type_id":"4","last_reported":1737094364,"current_range_meters":38000,"station_id":"ce4bhnp2rcd13ifvqgvg","pricing_plan_id":"cebpf4jnsgd1na2vs0mg"},{"bike_id":"9be957d2-26d1-49a4-9f85-b06ee3432064","system_id":"levelo_inurba_marseille","lat":43.337341,"lon":5.391989,"is_reserved":false,"is_disabled":false,"rental_uris":{"android":"levelo://app?vid=9be957d2-26d1-49a4-9f85-b06ee3432064","ios":"levelo://app?vid=9be957d2-26d1-49a4-9f85-b06ee3432064"},"vehicle_type_id":"4","last_reported":1737094364,"current_range_meters":31200,"station_id":"ce4bhr92rcd13ifvqhsg","pricing_plan_id":"cebpf4jnsgd1na2vs0mg"},{"bike_id":"4488423e-fb64-4bbe-9192-9966dc0edac0","system_id":"levelo_inurba_marseille","lat":43.31713,"lon":5.37759,"is_reserved":false,"is_disabled":false,"rental_uris":{"android":"levelo://app?vid=4488423e-fb64-4bbe-9192-9966dc0edac0","ios":"levelo://app?vid=4488423e-fb64-4bbe-9192-9966dc0edac0"},"vehicle_type_id":"4","last_reported":1737094364,"current_range_meters":38800,"station_id":"ce4bgth2rcd13ifvqch0","pricing_plan_id":"cebpf4jnsgd1na2vs0mg"},{"bike_id":"99a31782-c2ee-4a27-b493-d0450f1fbc77","system_id":"levelo_inurba_marseille","lat":43.31509,"lon":5.37303,"is_reserved":false,"is_disabled":false,"rental_uris":{"android":"levelo://app?vid=99a31782-c2ee-4a27-b493-d0450f1fbc77","ios":"levelo://app?vid=99a31782-c2ee-4a27-b493-d0450f1fbc77"},"vehicle_type_id":"4","last_reported":1737094364,"current_range_meters":38800,"station_id":"ce4bgt12rcd13ifvqcd0","pricing_plan_id":"cebpf4jnsgd1na2vs0mg"},{"bike_id":"ece2ae38-fa22-411a-b4b6-2bec87a39b75","system_id":"levelo_inurba_marseille","lat":43.32543,"lon":5.41464,"is_reserved":false,"is_disabled":false,"rental_uris":{"android":"levelo://app?vid=ece2ae38-fa22-411a-b4b6-2bec87a39b75","ios":"levelo://app?vid=ece2ae38-fa22-411a-b4b6-2bec87a39b75"},"vehicle_type_id":"4","last_reported":1737094364,"current_range_meters":38400,"station_id":"ce4bhq12rcd13ifvqhhg","pricing_plan_id":"cebpf4jnsgd1na2vs0mg"},{"bike_id":"24cb9b07-a6e0-4af5-9357-127b22b317c9","system_id":"levelo_inurba_marseille","lat":43.28279,"lon":5.35065,"is_reserved":false,"is_disabled":false,"rental_uris":{"android":"levelo://app?vid=24cb9b07-a6e0-4af5-9357-127b22b317c9","ios":"levelo://app?vid=24cb9b07-a6e0-4af5-9357-127b22b317c9"},"vehicle_type_id":"4","last_reported":1737094364,"current_range_meters":8400,"station_id":"ce4bhbp2rcd13ifvqerg","pricing_plan_id":"cebpf4jnsgd1na2vs0mg"},{"bike_id":"4a4bdb5d-7f2d-4b22-a0dd-b6ee22b2db6e","system_id":"levelo_inurba_marseille","lat":43.25103,"lon":5.39526,"is_reserved":false,"is_disabled":false,"rental_uris":{"android":"levelo://app?vid=4a4bdb5d-7f2d-4b22-a0dd-b6ee22b2db6e","ios":"levelo://app?vid=4a4bdb5d-7f2d-4b22-a0dd-b6ee22b2db6e"},"vehicle_type_id":"4","last_reported":1737094364,"current_range_meters":38400,"station_id":"ce4bhm12rcd13ifvqgkg","pricing_plan_id":"cebpf4jnsgd1na2vs0mg"},{"bike_id":"f63ef32e-6a6d-4df7-ae8e-b5b84dd4ea09","system_id":"levelo_inurba_marseille","lat":43.29223,"lon":5.3606,"is_reserved":false,"is_disabled":false,"rental_uris":{"android":"levelo://app?vid=f63ef32e-6a6d-4df7-ae8e-b5b84dd4ea09","ios":"levelo://app?vid=f63ef32e-6a6d-4df7-ae8e-b5b84dd4ea09"},"vehicle_type_id":"4","last_reported":1737094364,"current_range_meters":30400,"station_id":"ce4bhbh2rcd13ifvqeqg","pricing_plan_id":"cebpf4jnsgd1na2vs0mg"},{"bike_id":"6691d7b5-893f-49fd-babf-60f7317b3915","system_id":"levelo_inurba_marseille","lat":43.318978,"lon":5.407393,"is_reserved":false,"is_disabled":false,"rental_uris":{"android":"levelo://app?vid=6691d7b5-893f-49fd-babf-60f7317b3915","ios":"levelo://app?vid=6691d7b5-893f-49fd-babf-60f7317b3915"},"vehicle_type_id":"4","last_reported":1737094364,"current_range_meters":34800,"station_id":"ce4bhq12rcd13ifvqhig","pricing_plan_id":"cebpf4jnsgd1na2vs0mg"},{"bike_id":"f8f6a9dd-52c2-425a-97d8-8f7f84c5ceae","system_id":"levelo_inurba_marseille","lat":43.33777,"lon":5.37434,"is_reserved":false,"is_disabled":false,"rental_uris":{"android":"levelo://app?vid=f8f6a9dd-52c2-425a-97d8-8f7f84c5ceae","ios":"levelo://app?vid=f8f6a9dd-52c2-425a-97d8-8f7f84c5ceae"},"vehicle_type_id":"4","last_reported":1737094364,"current_range_meters":26000,"station_id":"","pricing_plan_id":"cebpf4jnsgd1na2vs0mg"},{"bike_id":"03935354-1e7a-40f8-863c-0bdee5f978b9","system_id":"levelo_inurba_marseille","lat":43.298836,"lon":5.397375,"is_reserved":false,"is_disabled":false,"rental_uris":{"android":"levelo://app?vid=03935354-1e7a-40f8-863c-0bdee5f978b9","ios":"levelo://app?vid=03935354-1e7a-40f8-863c-0bdee5f978b9"},"vehicle_type_id":"4","last_reported":1737094364,"current_range_meters":6000,"station_id":"ce4bh0h2rcd13ifvqd50","pricing_plan_id":"cebpf4jnsgd1na2vs0mg"},{"bike_id":"61d33c90-a781-4a26-bf58-4b4a4778ca8e","system_id":"levelo_inurba_marseille","lat":43.240675,"lon":5.377549,"is_reserved":false,"is_disabled":false,"rental_uris":{"android":"levelo://app?vid=61d33c90-a781-4a26-bf58-4b4a4778ca8e","ios":"levelo://app?vid=61d33c90-a781-4a26-bf58-4b4a4778ca8e"},"vehicle_type_id":"4","last_reported":1737094364,"current_range_meters":12000,"station_id":"ce4bhnp2rcd13ifvqgvg","pricing_plan_id":"cebpf4jnsgd1na2vs0mg"},{"bike_id":"242e1a46-c878-4185-b387-d1a4f0fb8589","system_id":"levelo_inurba_marseille","lat":43.27652,"lon":5.42215,"is_reserved":false,"is_disabled":false,"rental_uris":{"android":"levelo://app?vid=242e1a46-c878-4185-b387-d1a4f0fb8589","ios":"levelo://app?vid=242e1a46-c878-4185-b387-d1a4f0fb8589"},"vehicle_type_id":"4","last_reported":1737094364,"current_range_meters":8000,"station_id":"","pricing_plan_id":"cebpf4jnsgd1na2vs0mg"},{"bike_id":"71845b4e-4f9c-4bb8-9a9c-5f8ddd03e282","system_id":"levelo_inurba_marseille","lat":43.28743,"lon":5.38905,"is_reserved":false,"is_disabled":false,"rental_uris":{"android":"levelo://app?vid=71845b4e-4f9c-4bb8-9a9c-5f8ddd03e282","ios":"levelo://app?vid=71845b4e-4f9c-4bb8-9a9c-5f8ddd03e282"},"vehicle_type_id":"4","last_reported":1737094364,"current_range_meters":22000,"station_id":"","pricing_plan_id":"cebpf4jnsgd1na2vs0mg"},{"bike_id":"b80209fa-721c-4585-b216-156fe1ee6cfe","system_id":"levelo_inurba_marseille","lat":43.30283,"lon":5.37714,"is_reserved":false,"is_disabled":false,"rental_uris":{"android":"levelo://app?vid=b80209fa-721c-4585-b216-156fe1ee6cfe","ios":"levelo://app?vid=b80209fa-721c-4585-b216-156fe1ee6cfe"},"vehicle_type_id":"4","last_reported":1737094364,"current_range_meters":38400,"station_id":"ce4bguh2rcd13ifvqcj0","pricing_plan_id":"cebpf4jnsgd1na2vs0mg"},{"bike_id":"da738d9e-7b5d-4b7d-a437-4d0a8b9a7557","system_id":"levelo_inurba_marseille","lat":43.2905,"lon":5.39942,"is_reserved":false,"is_disabled":false,"rental_uris":{"android":"levelo://app?vid=da738d9e-7b5d-4b7d-a437-4d0a8b9a7557","ios":"levelo://app?vid=da738d9e-7b5d-4b7d-a437-4d0a8b9a7557"},"vehicle_type_id":"4","last_reported":1737094364,"current_range_meters":7200,"station_id":"ce4bh392rcd13ifvqdm0","pricing_plan_id":"cebpf4jnsgd1na2vs0mg"},{"bike_id":"ceaa1458-83a9-43c8-aed6-e72ea07fb43a","system_id":"levelo_inurba_marseille","lat":43.31553,"lon":5.38979,"is_reserved":false,"is_disabled":false,"rental_uris":{"android":"levelo://app?vid=ceaa1458-83a9-43c8-aed6-e72ea07fb43a","ios":"levelo://app?vid=ceaa1458-83a9-43c8-aed6-e72ea07fb43a"},"vehicle_type_id":"4","last_reported":1737094364,"current_range_meters":10800,"station_id":"","pricing_plan_id":"cebpf4jnsgd1na2vs0mg"},{"bike_id":"c7b548c0-92b1-4b91-b606-2d963bec61ed","system_id":"levelo_inurba_marseille","lat":43.274945,"lon":5.424541,"is_reserved":false,"is_disabled":false,"rental_uris":{"android":"levelo://app?vid=c7b548c0-92b1-4b91-b606-2d963bec61ed","ios":"levelo://app?vid=c7b548c0-92b1-4b91-b606-2d963bec61ed"},"vehicle_type_id":"4","last_reported":1737094364,"current_range_meters":16800,"station_id":"ce4bhn92rcd13ifvqgrg","pricing_plan_id":"cebpf4jnsgd1na2vs0mg"},{"bike_id":"227e2104-9342-467a-bb13-dc81a29065f7","system_id":"levelo_inurba_marseille","lat":43.28466,"lon":5.39036,"is_reserved":false,"is_disabled":false,"rental_uris":{"android":"levelo://app?vid=227e2104-9342-467a-bb13-dc81a29065f7","ios":"levelo://app?vid=227e2104-9342-467a-bb13-dc81a29065f7"},"vehicle_type_id":"4","last_reported":1737094364,"current_range_meters":28000,"station_id":"","pricing_plan_id":"cebpf4jnsgd1na2vs0mg"},{"bike_id":"b2632576-d2f4-4f91-975b-2a6e65937421","system_id":"levelo_inurba_marseille","lat":43.25079,"lon":5.3951,"is_reserved":false,"is_disabled":false,"rental_uris":{"android":"levelo://app?vid=b2632576-d2f4-4f91-975b-2a6e65937421","ios":"levelo://app?vid=b2632576-d2f4-4f91-975b-2a6e65937421"},"vehicle_type_id":"4","last_reported":1737094364,"current_range_meters":30800,"station_id":"ce4bhm12rcd13ifvqgkg","pricing_plan_id":"cebpf4jnsgd1na2vs0mg"},{"bike_id":"00268844-800e-432e-9f56-0b567fb9e2a0","system_id":"levelo_inurba_marseille","lat":43.29781,"lon":5.38106,"is_reserved":false,"is_disabled":true,"rental_uris":{"android":"levelo://app?vid=00268844-800e-432e-9f56-0b567fb9e2a0","ios":"levelo://app?vid=00268844-800e-432e-9f56-0b567fb9e2a0"},"vehicle_type_id":"4","last_reported":1737094364,"current_range_meters":33600,"station_id":"ce4bgip2rcd13ifvqbb0","pricing_plan_id":"cebpf4jnsgd1na2vs0mg"},{"bike_id":"516e6204-9dad-4554-93fc-892569dbc06c","system_id":"levelo_inurba_marseille","lat":43.29056,"lon":5.39951,"is_reserved":false,"is_disabled":false,"rental_uris":{"android":"levelo://app?vid=516e6204-9dad-4554-93fc-892569dbc06c","ios":"levelo://app?vid=516e6204-9dad-4554-93fc-892569dbc06c"},"vehicle_type_id":"4","last_reported":1737094364,"current_range_meters":36800,"station_id":"ce4bh392rcd13ifvqdm0","pricing_plan_id":"cebpf4jnsgd1na2vs0mg"},{"bike_id":"c2baf212-3b5f-423e-ad6b-f367686975c3","system_id":"levelo_inurba_marseille","lat":43.32474,"lon":5.36537,"is_reserved":false,"is_disabled":false,"rental_uris":{"android":"levelo://app?vid=c2baf212-3b5f-423e-ad6b-f367686975c3","ios":"levelo://app?vid=c2baf212-3b5f-423e-ad6b-f367686975c3"},"vehicle_type_id":"4","last_reported":1737094364,"current_range_meters":37600,"station_id":"ce4bhs12rcd13ifvqhvg","pricing_plan_id":"cebpf4jnsgd1na2vs0mg"},{"bike_id":"9420b624-d9bf-4f1f-a95c-985e5844ac92","system_id":"levelo_inurba_marseille","lat":43.29185,"lon":5.35812,"is_reserved":false,"is_disabled":false,"rental_uris":{"android":"levelo://app?vid=9420b624-d9bf-4f1f-a95c-985e5844ac92","ios":"levelo://app?vid=9420b624-d9bf-4f1f-a95c-985e5844ac92"},"vehicle_type_id":"4","last_reported":1737094364,"current_range_meters":10000,"station_id":"ce4bhb12rcd13ifvqel0","pricing_plan_id":"cebpf4jnsgd1na2vs0mg"},{"bike_id":"c08d1f58-6fa2-4e60-a19e-3ea76daba073","system_id":"levelo_inurba_marseille","lat":43.29803,"lon":5.38097,"is_reserved":false,"is_disabled":false,"rental_uris":{"android":"levelo://app?vid=c08d1f58-6fa2-4e60-a19e-3ea76daba073","ios":"levelo://app?vid=c08d1f58-6fa2-4e60-a19e-3ea76daba073"},"vehicle_type_id":"4","last_reported":1737094364,"current_range_meters":37600,"station_id":"ce4bgip2rcd13ifvqbb0","pricing_plan_id":"cebpf4jnsgd1na2vs0mg"},{"bike_id":"06847a7c-81a3-47a7-969a-ce10f7980e65","system_id":"levelo_inurba_marseille","lat":43.23153,"lon":5.43698,"is_reserved":false,"is_disabled":true,"rental_uris":{"android":"levelo://app?vid=06847a7c-81a3-47a7-969a-ce10f7980e65","ios":"levelo://app?vid=06847a7c-81a3-47a7-969a-ce10f7980e65"},"vehicle_type_id":"4","last_reported":1737094364,"current_range_meters":35600,"station_id":"ce4bhmp2rcd13ifvqgog","pricing_plan_id":"cebpf4jnsgd1na2vs0mg"},{"bike_id":"02db88da-fe69-4240-835f-2138ef5342eb","system_id":"levelo_inurba_marseille","lat":43.31108,"lon":5.37792,"is_reserved":false,"is_disabled":false,"rental_uris":{"android":"levelo://app?vid=02db88da-fe69-4240-835f-2138ef5342eb","ios":"levelo://app?vid=02db88da-fe69-4240-835f-2138ef5342eb"},"vehicle_type_id":"4","last_reported":1737094364,"current_range_meters":28800,"station_id":"ce4bgt92rcd13ifvqcg0","pricing_plan_id":"cebpf4jnsgd1na2vs0mg"},{"bike_id":"13692a24-fa14-4270-86ad-88f1c1d9b123","system_id":"levelo_inurba_marseille","lat":43.29214,"lon":5.36079,"is_reserved":false,"is_disabled":false,"rental_uris":{"android":"levelo://app?vid=13692a24-fa14-4270-86ad-88f1c1d9b123","ios":"levelo://app?vid=13692a24-fa14-4270-86ad-88f1c1d9b123"},"vehicle_type_id":"4","last_reported":1737094364,"current_range_meters":19600,"station_id":"ce4bhbh2rcd13ifvqeqg","pricing_plan_id":"cebpf4jnsgd1na2vs0mg"},{"bike_id":"68d2aa27-7285-4898-92ae-751a441b0c6a","system_id":"levelo_inurba_marseille","lat":43.2921,"lon":5.36062,"is_reserved":false,"is_disabled":false,"rental_uris":{"android":"levelo://app?vid=68d2aa27-7285-4898-92ae-751a441b0c6a","ios":"levelo://app?vid=68d2aa27-7285-4898-92ae-751a441b0c6a"},"vehicle_type_id":"4","last_reported":1737094364,"current_range_meters":38800,"station_id":"ce4bhbh2rcd13ifvqeqg","pricing_plan_id":"cebpf4jnsgd1na2vs0mg"},{"bike_id":"cd193a81-b114-46fc-aa0b-4f8b297c5418","system_id":"levelo_inurba_marseille","lat":43.287366,"lon":5.360741,"is_reserved":false,"is_disabled":false,"rental_uris":{"android":"levelo://app?vid=cd193a81-b114-46fc-aa0b-4f8b297c5418","ios":"levelo://app?vid=cd193a81-b114-46fc-aa0b-4f8b297c5418"},"vehicle_type_id":"4","last_reported":1737094364,"current_range_meters":24800,"station_id":"cki0cbj6b192h4jlfktg","pricing_plan_id":"cebpf4jnsgd1na2vs0mg"},{"bike_id":"05f89a4d-9e49-4e51-8cbc-aa66933493cb","system_id":"levelo_inurba_marseille","lat":43.30442,"lon":5.38895,"is_reserved":false,"is_disabled":true,"rental_uris":{"android":"levelo://app?vid=05f89a4d-9e49-4e51-8cbc-aa66933493cb","ios":"levelo://app?vid=05f89a4d-9e49-4e51-8cbc-aa66933493cb"},"vehicle_type_id":"4","last_reported":1737094364,"current_range_meters":0,"station_id":"ce4bgk12rcd13ifvqbi0","pricing_plan_id":"cebpf4jnsgd1na2vs0mg"},{"bike_id":"7786dd35-d957-4483-98bb-dfc174ebf3e9","system_id":"levelo_inurba_marseille","lat":43.3088,"lon":5.37197,"is_reserved":false,"is_disabled":false,"rental_uris":{"android":"levelo://app?vid=7786dd35-d957-4483-98bb-dfc174ebf3e9","ios":"levelo://app?vid=7786dd35-d957-4483-98bb-dfc174ebf3e9"},"vehicle_type_id":"4","last_reported":1737094364,"current_range_meters":38000,"station_id":"ce4bguh2rcd13ifvqckg","pricing_plan_id":"cebpf4jnsgd1na2vs0mg"},{"bike_id":"450e4b2e-2717-46bb-9250-32754d000e21","system_id":"levelo_inurba_marseille","lat":43.317139,"lon":5.377643,"is_reserved":false,"is_disabled":false,"rental_uris":{"android":"levelo://app?vid=450e4b2e-2717-46bb-9250-32754d000e21","ios":"levelo://app?vid=450e4b2e-2717-46bb-9250-32754d000e21"},"vehicle_type_id":"4","last_reported":1737094364,"current_range_meters":38800,"station_id":"ce4bgth2rcd13ifvqch0","pricing_plan_id":"cebpf4jnsgd1na2vs0mg"},{"bike_id":"0d8b3f38-41dd-47ed-bfa6-3906b618d9f2","system_id":"levelo_inurba_marseille","lat":43.28258,"lon":5.35048,"is_reserved":false,"is_disabled":false,"rental_uris":{"android":"levelo://app?vid=0d8b3f38-41dd-47ed-bfa6-3906b618d9f2","ios":"levelo://app?vid=0d8b3f38-41dd-47ed-bfa6-3906b618d9f2"},"vehicle_type_id":"4","last_reported":1737094364,"current_range_meters":28400,"station_id":"ce4bhbp2rcd13ifvqerg","pricing_plan_id":"cebpf4jnsgd1na2vs0mg"},{"bike_id":"907763a0-f256-43b3-9d64-e58396652444","system_id":"levelo_inurba_marseille","lat":43.28659,"lon":5.36356,"is_reserved":false,"is_disabled":false,"rental_uris":{"android":"levelo://app?vid=907763a0-f256-43b3-9d64-e58396652444","ios":"levelo://app?vid=907763a0-f256-43b3-9d64-e58396652444"},"vehicle_type_id":"4","last_reported":1737094364,"current_range_meters":18000,"station_id":"ce4bhah2rcd13ifvqej0","pricing_plan_id":"cebpf4jnsgd1na2vs0mg"},{"bike_id":"f10dec5a-e383-4b22-8edc-5f22d333e2f5","system_id":"levelo_inurba_marseille","lat":43.27185,"lon":5.40986,"is_reserved":false,"is_disabled":false,"rental_uris":{"android":"levelo://app?vid=f10dec5a-e383-4b22-8edc-5f22d333e2f5","ios":"levelo://app?vid=f10dec5a-e383-4b22-8edc-5f22d333e2f5"},"vehicle_type_id":"4","last_reported":1737094364,"current_range_meters":12000,"station_id":"ce4bhl12rcd13ifvqgf0","pricing_plan_id":"cebpf4jnsgd1na2vs0mg"},{"bike_id":"efd05c32-4d50-4342-9945-bb25c7efcd6f","system_id":"levelo_inurba_marseille","lat":43.27984,"lon":5.38746,"is_reserved":false,"is_disabled":false,"rental_uris":{"android":"levelo://app?vid=efd05c32-4d50-4342-9945-bb25c7efcd6f","ios":"levelo://app?vid=efd05c32-4d50-4342-9945-bb25c7efcd6f"},"vehicle_type_id":"4","last_reported":1737094364,"current_range_meters":38800,"station_id":"ce4bhg12rcd13ifvqf80","pricing_plan_id":"cebpf4jnsgd1na2vs0mg"},{"bike_id":"aac2ecf2-9c1e-46b0-98dd-0e3058686375","system_id":"levelo_inurba_marseille","lat":43.301363,"lon":5.398608,"is_reserved":false,"is_disabled":false,"rental_uris":{"android":"levelo://app?vid=aac2ecf2-9c1e-46b0-98dd-0e3058686375","ios":"levelo://app?vid=aac2ecf2-9c1e-46b0-98dd-0e3058686375"},"vehicle_type_id":"4","last_reported":1737094364,"current_range_meters":38800,"station_id":"ce4bh0h2rcd13ifvqd40","pricing_plan_id":"cebpf4jnsgd1na2vs0mg"},{"bike_id":"101c61dc-ddec-40be-85b2-8ae79149e94c","system_id":"levelo_inurba_marseille","lat":43.28705,"lon":5.39987,"is_reserved":false,"is_disabled":false,"rental_uris":{"android":"levelo://app?vid=101c61dc-ddec-40be-85b2-8ae79149e94c","ios":"levelo://app?vid=101c61dc-ddec-40be-85b2-8ae79149e94c"},"vehicle_type_id":"4","last_reported":1737094364,"current_range_meters":18000,"station_id":"ce4bho92rcd13ifvqh3g","pricing_plan_id":"cebpf4jnsgd1na2vs0mg"},{"bike_id":"a4b779dc-e9f6-42d9-b786-46a4421bfccd","system_id":"levelo_inurba_marseille","lat":43.30595,"lon":5.37194,"is_reserved":false,"is_disabled":false,"rental_uris":{"android":"levelo://app?vid=a4b779dc-e9f6-42d9-b786-46a4421bfccd","ios":"levelo://app?vid=a4b779dc-e9f6-42d9-b786-46a4421bfccd"},"vehicle_type_id":"4","last_reported":1737094364,"current_range_meters":26000,"station_id":"ce4bgqh2rcd13ifvqc4g","pricing_plan_id":"cebpf4jnsgd1na2vs0mg"},{"bike_id":"0d6a002d-ca3d-4185-9493-09ae357dc4ef","system_id":"levelo_inurba_marseille","lat":43.3133,"lon":5.39679,"is_reserved":false,"is_disabled":false,"rental_uris":{"android":"levelo://app?vid=0d6a002d-ca3d-4185-9493-09ae357dc4ef","ios":"levelo://app?vid=0d6a002d-ca3d-4185-9493-09ae357dc4ef"},"vehicle_type_id":"4","last_reported":1737094364,"current_range_meters":27200,"station_id":"ce4bgvp2rcd13ifvqcu0","pricing_plan_id":"cebpf4jnsgd1na2vs0mg"},{"bike_id":"7f02ee37-da3b-42b9-9dc0-3eb4937746d3","system_id":"levelo_inurba_marseille","lat":43.29252,"lon":5.38436,"is_reserved":false,"is_disabled":false,"rental_uris":{"android":"levelo://app?vid=7f02ee37-da3b-42b9-9dc0-3eb4937746d3","ios":"levelo://app?vid=7f02ee37-da3b-42b9-9dc0-3eb4937746d3"},"vehicle_type_id":"4","last_reported":1737094364,"current_range_meters":30800,"station_id":"ce4bh692rcd13ifvqea0","pricing_plan_id":"cebpf4jnsgd1na2vs0mg"},{"bike_id":"f21955f8-a46c-4890-be70-66409620de02","system_id":"levelo_inurba_marseille","lat":43.23186,"lon":5.39981,"is_reserved":false,"is_disabled":false,"rental_uris":{"android":"levelo://app?vid=f21955f8-a46c-4890-be70-66409620de02","ios":"levelo://app?vid=f21955f8-a46c-4890-be70-66409620de02"},"vehicle_type_id":"4","last_reported":1737094364,"current_range_meters":7200,"station_id":"ce4bhn12rcd13ifvqgqg","pricing_plan_id":"cebpf4jnsgd1na2vs0mg"},{"bike_id":"34709e64-d1c8-4538-88a5-33805792c0a5","system_id":"levelo_inurba_marseille","lat":43.258323,"lon":5.394311,"is_reserved":false,"is_disabled":false,"rental_uris":{"android":"levelo://app?vid=34709e64-d1c8-4538-88a5-33805792c0a5","ios":"levelo://app?vid=34709e64-d1c8-4538-88a5-33805792c0a5"},"vehicle_type_id":"4","last_reported":1737094364,"current_range_meters":38800,"station_id":"ce4bhip2rcd13ifvqft0","pricing_plan_id":"cebpf4jnsgd1na2vs0mg"},{"bike_id":"deb05b1a-b900-4e6d-ae79-4bed81d3291f","system_id":"levelo_inurba_marseille","lat":43.27067,"lon":5.4227,"is_reserved":false,"is_disabled":true,"rental_uris":{"android":"levelo://app?vid=deb05b1a-b900-4e6d-ae79-4bed81d3291f","ios":"levelo://app?vid=deb05b1a-b900-4e6d-ae79-4bed81d3291f"},"vehicle_type_id":"4","last_reported":1737094364,"current_range_meters":800,"station_id":"ce4bhk92rcd13ifvqgb0","pricing_plan_id":"cebpf4jnsgd1na2vs0mg"},{"bike_id":"8016bb32-7427-4e1b-9c8a-c2b432c90bc1","system_id":"levelo_inurba_marseille","lat":43.28002,"lon":5.40009,"is_reserved":false,"is_disabled":false,"rental_uris":{"android":"levelo://app?vid=8016bb32-7427-4e1b-9c8a-c2b432c90bc1","ios":"levelo://app?vid=8016bb32-7427-4e1b-9c8a-c2b432c90bc1"},"vehicle_type_id":"4","last_reported":1737094364,"current_range_meters":30800,"station_id":"ce4bho92rcd13ifvqh4g","pricing_plan_id":"cebpf4jnsgd1na2vs0mg"},{"bike_id":"f2be7778-b6de-4880-adcb-065b4a5b8e7d","system_id":"levelo_inurba_marseille","lat":43.32347,"lon":5.40622,"is_reserved":false,"is_disabled":false,"rental_uris":{"android":"levelo://app?vid=f2be7778-b6de-4880-adcb-065b4a5b8e7d","ios":"levelo://app?vid=f2be7778-b6de-4880-adcb-065b4a5b8e7d"},"vehicle_type_id":"4","last_reported":1737094364,"current_range_meters":38400,"station_id":"ce4bhq92rcd13ifvqhjg","pricing_plan_id":"cebpf4jnsgd1na2vs0mg"},{"bike_id":"7a26b63c-652f-4d2d-8353-1a9dfb4e945a","system_id":"levelo_inurba_marseille","lat":43.337301,"lon":5.391863,"is_reserved":false,"is_disabled":false,"rental_uris":{"android":"levelo://app?vid=7a26b63c-652f-4d2d-8353-1a9dfb4e945a","ios":"levelo://app?vid=7a26b63c-652f-4d2d-8353-1a9dfb4e945a"},"vehicle_type_id":"4","last_reported":1737094364,"current_range_meters":38800,"station_id":"ce4bhr92rcd13ifvqhsg","pricing_plan_id":"cebpf4jnsgd1na2vs0mg"},{"bike_id":"5dc88dba-495e-484f-9b04-2299461d7f8a","system_id":"levelo_inurba_marseille","lat":43.26058,"lon":5.39388,"is_reserved":false,"is_disabled":false,"rental_uris":{"android":"levelo://app?vid=5dc88dba-495e-484f-9b04-2299461d7f8a","ios":"levelo://app?vid=5dc88dba-495e-484f-9b04-2299461d7f8a"},"vehicle_type_id":"4","last_reported":1737094364,"current_range_meters":24400,"station_id":"ce4bhh92rcd13ifvqfj0","pricing_plan_id":"cebpf4jnsgd1na2vs0mg"},{"bike_id":"d5bc3fc7-0eed-4839-b6d6-869ab1cdeef9","system_id":"levelo_inurba_marseille","lat":43.28733,"lon":5.3609,"is_reserved":false,"is_disabled":false,"rental_uris":{"android":"levelo://app?vid=d5bc3fc7-0eed-4839-b6d6-869ab1cdeef9","ios":"levelo://app?vid=d5bc3fc7-0eed-4839-b6d6-869ab1cdeef9"},"vehicle_type_id":"4","last_reported":1737094364,"current_range_meters":38000,"station_id":"cki0cbj6b192h4jlfktg","pricing_plan_id":"cebpf4jnsgd1na2vs0mg"},{"bike_id":"56b8e9bc-f750-4815-bc98-9098414d16db","system_id":"levelo_inurba_marseille","lat":43.2319,"lon":5.355555,"is_reserved":false,"is_disabled":true,"rental_uris":{"android":"levelo://app?vid=56b8e9bc-f750-4815-bc98-9098414d16db","ios":"levelo://app?vid=56b8e9bc-f750-4815-bc98-9098414d16db"},"vehicle_type_id":"4","last_reported":1737094364,"current_range_meters":0,"station_id":"ce4bhu92rcd13ifvqi70","pricing_plan_id":"cebpf4jnsgd1na2vs0mg"},{"bike_id":"91fc6ba3-f467-4b4f-b86f-00c0f05ad79b","system_id":"levelo_inurba_marseille","lat":43.29185,"lon":5.35784,"is_reserved":false,"is_disabled":false,"rental_uris":{"android":"levelo://app?vid=91fc6ba3-f467-4b4f-b86f-00c0f05ad79b","ios":"levelo://app?vid=91fc6ba3-f467-4b4f-b86f-00c0f05ad79b"},"vehicle_type_id":"4","last_reported":1737094364,"current_range_meters":37600,"station_id":"ce4bhb12rcd13ifvqel0","pricing_plan_id":"cebpf4jnsgd1na2vs0mg"},{"bike_id":"d63854c3-34d3-433b-ab9c-33fe7aa4d6d9","system_id":"levelo_inurba_marseille","lat":43.265642,"lon":5.39023,"is_reserved":false,"is_disabled":false,"rental_uris":{"android":"levelo://app?vid=d63854c3-34d3-433b-ab9c-33fe7aa4d6d9","ios":"levelo://app?vid=d63854c3-34d3-433b-ab9c-33fe7aa4d6d9"},"vehicle_type_id":"4","last_reported":1737094364,"current_range_meters":20400,"station_id":"ce4bhe12rcd13ifvqf30","pricing_plan_id":"cebpf4jnsgd1na2vs0mg"},{"bike_id":"d7a710b0-adff-4c5c-bf44-f4013363962c","system_id":"levelo_inurba_marseille","lat":43.24688,"lon":5.39417,"is_reserved":false,"is_disabled":false,"rental_uris":{"android":"levelo://app?vid=d7a710b0-adff-4c5c-bf44-f4013363962c","ios":"levelo://app?vid=d7a710b0-adff-4c5c-bf44-f4013363962c"},"vehicle_type_id":"4","last_reported":1737094364,"current_range_meters":38800,"station_id":"","pricing_plan_id":"cebpf4jnsgd1na2vs0mg"},{"bike_id":"fe7ba5aa-2295-4219-b011-ec35d891e374","system_id":"levelo_inurba_marseille","lat":43.29814,"lon":5.3932,"is_reserved":false,"is_disabled":false,"rental_uris":{"android":"levelo://app?vid=fe7ba5aa-2295-4219-b011-ec35d891e374","ios":"levelo://app?vid=fe7ba5aa-2295-4219-b011-ec35d891e374"},"vehicle_type_id":"4","last_reported":1737094364,"current_range_meters":24000,"station_id":"chh1huq6cuj3fo74tm60","pricing_plan_id":"cebpf4jnsgd1na2vs0mg"},{"bike_id":"5fe947e0-0768-4d0b-b66e-7dba1c4c7af8","system_id":"levelo_inurba_marseille","lat":43.31168,"lon":5.38697,"is_reserved":false,"is_disabled":false,"rental_uris":{"android":"levelo://app?vid=5fe947e0-0768-4d0b-b66e-7dba1c4c7af8","ios":"levelo://app?vid=5fe947e0-0768-4d0b-b66e-7dba1c4c7af8"},"vehicle_type_id":"4","last_reported":1737094364,"current_range_meters":30000,"station_id":"ce4bgv12rcd13ifvqcp0","pricing_plan_id":"cebpf4jnsgd1na2vs0mg"},{"bike_id":"796937da-d3c2-4907-8246-a357ef994094","system_id":"levelo_inurba_marseille","lat":43.31273,"lon":5.40159,"is_reserved":false,"is_disabled":false,"rental_uris":{"android":"levelo://app?vid=796937da-d3c2-4907-8246-a357ef994094","ios":"levelo://app?vid=796937da-d3c2-4907-8246-a357ef994094"},"vehicle_type_id":"4","last_reported":1737094364,"current_range_meters":24000,"station_id":"ce4bh092rcd13ifvqd30","pricing_plan_id":"cebpf4jnsgd1na2vs0mg"},{"bike_id":"60c469fc-3d82-43ea-8ec4-fc0b26db70e6","system_id":"levelo_inurba_marseille","lat":43.24181,"lon":5.39727,"is_reserved":false,"is_disabled":false,"rental_uris":{"android":"levelo://app?vid=60c469fc-3d82-43ea-8ec4-fc0b26db70e6","ios":"levelo://app?vid=60c469fc-3d82-43ea-8ec4-fc0b26db70e6"},"vehicle_type_id":"4","last_reported":1737094364,"current_range_meters":25600,"station_id":"ce4bhn12rcd13ifvqgpg","pricing_plan_id":"cebpf4jnsgd1na2vs0mg"},{"bike_id":"a1efa4cb-90b8-4ba7-95c5-9f7094dd45e5","system_id":"levelo_inurba_marseille","lat":43.25123,"lon":5.40337,"is_reserved":false,"is_disabled":false,"rental_uris":{"android":"levelo://app?vid=a1efa4cb-90b8-4ba7-95c5-9f7094dd45e5","ios":"levelo://app?vid=a1efa4cb-90b8-4ba7-95c5-9f7094dd45e5"},"vehicle_type_id":"4","last_reported":1737094364,"current_range_meters":24800,"station_id":"ce4bhlh2rcd13ifvqgig","pricing_plan_id":"cebpf4jnsgd1na2vs0mg"},{"bike_id":"3badb9dc-30c2-4fd6-ba97-722705a3b10c","system_id":"levelo_inurba_marseille","lat":43.3303,"lon":5.39034,"is_reserved":false,"is_disabled":false,"rental_uris":{"android":"levelo://app?vid=3badb9dc-30c2-4fd6-ba97-722705a3b10c","ios":"levelo://app?vid=3badb9dc-30c2-4fd6-ba97-722705a3b10c"},"vehicle_type_id":"4","last_reported":1737094364,"current_range_meters":8000,"station_id":"ce4bhr92rcd13ifvqhrg","pricing_plan_id":"cebpf4jnsgd1na2vs0mg"},{"bike_id":"2e70836a-a10f-4618-953a-21e9a7e8b8d7","system_id":"levelo_inurba_marseille","lat":43.28417,"lon":5.37491,"is_reserved":false,"is_disabled":false,"rental_uris":{"android":"levelo://app?vid=2e70836a-a10f-4618-953a-21e9a7e8b8d7","ios":"levelo://app?vid=2e70836a-a10f-4618-953a-21e9a7e8b8d7"},"vehicle_type_id":"4","last_reported":1737094364,"current_range_meters":27600,"station_id":"ce4bh412rcd13ifvqds0","pricing_plan_id":"cebpf4jnsgd1na2vs0mg"},{"bike_id":"7607e5e4-bfb0-479d-9bfe-af6a7bc68285","system_id":"levelo_inurba_marseille","lat":43.2803,"lon":5.36934,"is_reserved":false,"is_disabled":false,"rental_uris":{"android":"levelo://app?vid=7607e5e4-bfb0-479d-9bfe-af6a7bc68285","ios":"levelo://app?vid=7607e5e4-bfb0-479d-9bfe-af6a7bc68285"},"vehicle_type_id":"4","last_reported":1737094364,"current_range_meters":13600,"station_id":"ce4bha12rcd13ifvqef0","pricing_plan_id":"cebpf4jnsgd1na2vs0mg"},{"bike_id":"22465212-93af-4e0b-b803-6ee82bba56d5","system_id":"levelo_inurba_marseille","lat":43.33768,"lon":5.37471,"is_reserved":false,"is_disabled":false,"rental_uris":{"android":"levelo://app?vid=22465212-93af-4e0b-b803-6ee82bba56d5","ios":"levelo://app?vid=22465212-93af-4e0b-b803-6ee82bba56d5"},"vehicle_type_id":"4","last_reported":1737094364,"current_range_meters":32400,"station_id":"","pricing_plan_id":"cebpf4jnsgd1na2vs0mg"},{"bike_id":"c51cc554-db55-4370-8ce5-1d643e4f4fac","system_id":"levelo_inurba_marseille","lat":43.310733,"lon":5.383555,"is_reserved":false,"is_disabled":false,"rental_uris":{"android":"levelo://app?vid=c51cc554-db55-4370-8ce5-1d643e4f4fac","ios":"levelo://app?vid=c51cc554-db55-4370-8ce5-1d643e4f4fac"},"vehicle_type_id":"4","last_reported":1737094364,"current_range_meters":38400,"station_id":"ce4bgv92rcd13ifvqcr0","pricing_plan_id":"cebpf4jnsgd1na2vs0mg"},{"bike_id":"950bc21b-63fe-44c1-b3fa-5c243fc9e8a8","system_id":"levelo_inurba_marseille","lat":43.28269,"lon":5.35046,"is_reserved":false,"is_disabled":false,"rental_uris":{"android":"levelo://app?vid=950bc21b-63fe-44c1-b3fa-5c243fc9e8a8","ios":"levelo://app?vid=950bc21b-63fe-44c1-b3fa-5c243fc9e8a8"},"vehicle_type_id":"4","last_reported":1737094364,"current_range_meters":24800,"station_id":"ce4bhbp2rcd13ifvqerg","pricing_plan_id":"cebpf4jnsgd1na2vs0mg"},{"bike_id":"fc705563-96e6-45d0-adb3-8588f3962dd4","system_id":"levelo_inurba_marseille","lat":43.323657,"lon":5.388944,"is_reserved":false,"is_disabled":false,"rental_uris":{"android":"levelo://app?vid=fc705563-96e6-45d0-adb3-8588f3962dd4","ios":"levelo://app?vid=fc705563-96e6-45d0-adb3-8588f3962dd4"},"vehicle_type_id":"4","last_reported":1737094364,"current_range_meters":30000,"station_id":"ce4bhqp2rcd13ifvqhog","pricing_plan_id":"cebpf4jnsgd1na2vs0mg"},{"bike_id":"541ec499-7511-4d0b-9182-a1e4ef562117","system_id":"levelo_inurba_marseille","lat":43.27207,"lon":5.39173,"is_reserved":false,"is_disabled":false,"rental_uris":{"android":"levelo://app?vid=541ec499-7511-4d0b-9182-a1e4ef562117","ios":"levelo://app?vid=541ec499-7511-4d0b-9182-a1e4ef562117"},"vehicle_type_id":"4","last_reported":1737094364,"current_range_meters":38000,"station_id":"ce4bhhp2rcd13ifvqfm0","pricing_plan_id":"cebpf4jnsgd1na2vs0mg"},{"bike_id":"a8db5288-c1e8-4edb-9813-ff376462315e","system_id":"levelo_inurba_marseille","lat":43.295141,"lon":5.394034,"is_reserved":false,"is_disabled":false,"rental_uris":{"android":"levelo://app?vid=a8db5288-c1e8-4edb-9813-ff376462315e","ios":"levelo://app?vid=a8db5288-c1e8-4edb-9813-ff376462315e"},"vehicle_type_id":"4","last_reported":1737094364,"current_range_meters":16800,"station_id":"ce4bh292rcd13ifvqdf0","pricing_plan_id":"cebpf4jnsgd1na2vs0mg"},{"bike_id":"ec41b1e8-bba3-4e66-982f-aeea97468d8d","system_id":"levelo_inurba_marseille","lat":43.306449,"lon":5.400676,"is_reserved":false,"is_disabled":false,"rental_uris":{"android":"levelo://app?vid=ec41b1e8-bba3-4e66-982f-aeea97468d8d","ios":"levelo://app?vid=ec41b1e8-bba3-4e66-982f-aeea97468d8d"},"vehicle_type_id":"4","last_reported":1737094364,"current_range_meters":37600,"station_id":"ce4bh112rcd13ifvqda0","pricing_plan_id":"cebpf4jnsgd1na2vs0mg"},{"bike_id":"84708e74-0fe7-4fb2-addd-7c044bcdb32e","system_id":"levelo_inurba_marseille","lat":43.31995,"lon":5.38136,"is_reserved":false,"is_disabled":false,"rental_uris":{"android":"levelo://app?vid=84708e74-0fe7-4fb2-addd-7c044bcdb32e","ios":"levelo://app?vid=84708e74-0fe7-4fb2-addd-7c044bcdb32e"},"vehicle_type_id":"4","last_reported":1737094364,"current_range_meters":29600,"station_id":"ce4bhr12rcd13ifvqhpg","pricing_plan_id":"cebpf4jnsgd1na2vs0mg"},{"bike_id":"9b3f5263-092a-42a3-985e-303e3ee0becf","system_id":"levelo_inurba_marseille","lat":43.2651,"lon":5.3955,"is_reserved":false,"is_disabled":true,"rental_uris":{"android":"levelo://app?vid=9b3f5263-092a-42a3-985e-303e3ee0becf","ios":"levelo://app?vid=9b3f5263-092a-42a3-985e-303e3ee0becf"},"vehicle_type_id":"4","last_reported":1737094364,"current_range_meters":400,"station_id":"ce4bhi12rcd13ifvqfq0","pricing_plan_id":"cebpf4jnsgd1na2vs0mg"},{"bike_id":"03ceb659-62e9-480b-9c9d-2ee192b5c61e","system_id":"levelo_inurba_marseille","lat":43.30167,"lon":5.39877,"is_reserved":false,"is_disabled":false,"rental_uris":{"android":"levelo://app?vid=03ceb659-62e9-480b-9c9d-2ee192b5c61e","ios":"levelo://app?vid=03ceb659-62e9-480b-9c9d-2ee192b5c61e"},"vehicle_type_id":"4","last_reported":1737094364,"current_range_meters":38800,"station_id":"ce4bh0h2rcd13ifvqd40","pricing_plan_id":"cebpf4jnsgd1na2vs0mg"},{"bike_id":"12d1acc0-d47e-4031-b610-839a5a37f231","system_id":"levelo_inurba_marseille","lat":43.307779,"lon":5.3766,"is_reserved":false,"is_disabled":false,"rental_uris":{"android":"levelo://app?vid=12d1acc0-d47e-4031-b610-839a5a37f231","ios":"levelo://app?vid=12d1acc0-d47e-4031-b610-839a5a37f231"},"vehicle_type_id":"4","last_reported":1737094364,"current_range_meters":28800,"station_id":"ce4bgv92rcd13ifvqcq0","pricing_plan_id":"cebpf4jnsgd1na2vs0mg"},{"bike_id":"6b54765a-e657-4a02-9991-c6ec403a0067","system_id":"levelo_inurba_marseille","lat":43.27826,"lon":5.39192,"is_reserved":false,"is_disabled":false,"rental_uris":{"android":"levelo://app?vid=6b54765a-e657-4a02-9991-c6ec403a0067","ios":"levelo://app?vid=6b54765a-e657-4a02-9991-c6ec403a0067"},"vehicle_type_id":"4","last_reported":1737094364,"current_range_meters":16000,"station_id":"ce4bhjp2rcd13ifvqga0","pricing_plan_id":"cebpf4jnsgd1na2vs0mg"},{"bike_id":"84ea5426-3fce-4231-9bdf-a79c77ac6453","system_id":"levelo_inurba_marseille","lat":43.27912,"lon":5.3959,"is_reserved":false,"is_disabled":true,"rental_uris":{"android":"levelo://app?vid=84ea5426-3fce-4231-9bdf-a79c77ac6453","ios":"levelo://app?vid=84ea5426-3fce-4231-9bdf-a79c77ac6453"},"vehicle_type_id":"4","last_reported":1737094364,"current_range_meters":1600,"station_id":"ce4bhf92rcd13ifvqf40","pricing_plan_id":"cebpf4jnsgd1na2vs0mg"},{"bike_id":"e501bc45-b105-4431-b368-9d9682b80a8a","system_id":"levelo_inurba_marseille","lat":43.243932,"lon":5.370496,"is_reserved":false,"is_disabled":false,"rental_uris":{"android":"levelo://app?vid=e501bc45-b105-4431-b368-9d9682b80a8a","ios":"levelo://app?vid=e501bc45-b105-4431-b368-9d9682b80a8a"},"vehicle_type_id":"4","last_reported":1737094364,"current_range_meters":38800,"station_id":"ce4bhhh2rcd13ifvqfk0","pricing_plan_id":"cebpf4jnsgd1na2vs0mg"},{"bike_id":"24bcc0cf-8c95-40af-8068-dc3c48d5cf59","system_id":"levelo_inurba_marseille","lat":43.336054,"lon":5.410214,"is_reserved":false,"is_disabled":false,"rental_uris":{"android":"levelo://app?vid=24bcc0cf-8c95-40af-8068-dc3c48d5cf59","ios":"levelo://app?vid=24bcc0cf-8c95-40af-8068-dc3c48d5cf59"},"vehicle_type_id":"4","last_reported":1737094364,"current_range_meters":39200,"station_id":"ce4bhqh2rcd13ifvqhmg","pricing_plan_id":"cebpf4jnsgd1na2vs0mg"},{"bike_id":"88f06cab-f371-470b-85ff-7238b57cbcc5","system_id":"levelo_inurba_marseille","lat":43.25863,"lon":5.399,"is_reserved":false,"is_disabled":false,"rental_uris":{"android":"levelo://app?vid=88f06cab-f371-470b-85ff-7238b57cbcc5","ios":"levelo://app?vid=88f06cab-f371-470b-85ff-7238b57cbcc5"},"vehicle_type_id":"4","last_reported":1737094364,"current_range_meters":26800,"station_id":"ce4bhl92rcd13ifvqghg","pricing_plan_id":"cebpf4jnsgd1na2vs0mg"},{"bike_id":"6a7366d7-ed8c-4629-bf0c-70c2abcda36d","system_id":"levelo_inurba_marseille","lat":43.23187,"lon":5.3555,"is_reserved":false,"is_disabled":false,"rental_uris":{"android":"levelo://app?vid=6a7366d7-ed8c-4629-bf0c-70c2abcda36d","ios":"levelo://app?vid=6a7366d7-ed8c-4629-bf0c-70c2abcda36d"},"vehicle_type_id":"4","last_reported":1737094364,"current_range_meters":8400,"station_id":"ce4bhu92rcd13ifvqi70","pricing_plan_id":"cebpf4jnsgd1na2vs0mg"},{"bike_id":"fb728eb9-c6dd-478e-b742-f6d266b3696e","system_id":"levelo_inurba_marseille","lat":43.24074,"lon":5.37753,"is_reserved":false,"is_disabled":false,"rental_uris":{"android":"levelo://app?vid=fb728eb9-c6dd-478e-b742-f6d266b3696e","ios":"levelo://app?vid=fb728eb9-c6dd-478e-b742-f6d266b3696e"},"vehicle_type_id":"4","last_reported":1737094364,"current_range_meters":37600,"station_id":"ce4bhnp2rcd13ifvqgvg","pricing_plan_id":"cebpf4jnsgd1na2vs0mg"},{"bike_id":"2d7f3353-743b-41e1-85f2-e32181d4ae48","system_id":"levelo_inurba_marseille","lat":43.32036,"lon":5.38101,"is_reserved":false,"is_disabled":false,"rental_uris":{"android":"levelo://app?vid=2d7f3353-743b-41e1-85f2-e32181d4ae48","ios":"levelo://app?vid=2d7f3353-743b-41e1-85f2-e32181d4ae48"},"vehicle_type_id":"4","last_reported":1737094364,"current_range_meters":29600,"station_id":"ce4bhr12rcd13ifvqhpg","pricing_plan_id":"cebpf4jnsgd1na2vs0mg"},{"bike_id":"573076c8-1172-47e5-b129-cb987286e5ee","system_id":"levelo_inurba_marseille","lat":43.27827,"lon":5.40746,"is_reserved":false,"is_disabled":false,"rental_uris":{"android":"levelo://app?vid=573076c8-1172-47e5-b129-cb987286e5ee","ios":"levelo://app?vid=573076c8-1172-47e5-b129-cb987286e5ee"},"vehicle_type_id":"4","last_reported":1737094364,"current_range_meters":38800,"station_id":"ce4bhnh2rcd13ifvqgtg","pricing_plan_id":"cebpf4jnsgd1na2vs0mg"},{"bike_id":"dfe49980-a3aa-4a59-8079-82a869c76fb4","system_id":"levelo_inurba_marseille","lat":43.31104,"lon":5.37815,"is_reserved":false,"is_disabled":false,"rental_uris":{"android":"levelo://app?vid=dfe49980-a3aa-4a59-8079-82a869c76fb4","ios":"levelo://app?vid=dfe49980-a3aa-4a59-8079-82a869c76fb4"},"vehicle_type_id":"4","last_reported":1737094364,"current_range_meters":20400,"station_id":"ce4bgt92rcd13ifvqcg0","pricing_plan_id":"cebpf4jnsgd1na2vs0mg"},{"bike_id":"35deb437-7ef2-4ee7-9ea5-27ce0001ca7b","system_id":"levelo_inurba_marseille","lat":43.26075,"lon":5.39382,"is_reserved":false,"is_disabled":false,"rental_uris":{"android":"levelo://app?vid=35deb437-7ef2-4ee7-9ea5-27ce0001ca7b","ios":"levelo://app?vid=35deb437-7ef2-4ee7-9ea5-27ce0001ca7b"},"vehicle_type_id":"4","last_reported":1737094364,"current_range_meters":38000,"station_id":"ce4bhh92rcd13ifvqfj0","pricing_plan_id":"cebpf4jnsgd1na2vs0mg"},{"bike_id":"74dd2b96-e42e-4604-90a2-ea12934db450","system_id":"levelo_inurba_marseille","lat":43.28707,"lon":5.37393,"is_reserved":false,"is_disabled":false,"rental_uris":{"android":"levelo://app?vid=74dd2b96-e42e-4604-90a2-ea12934db450","ios":"levelo://app?vid=74dd2b96-e42e-4604-90a2-ea12934db450"},"vehicle_type_id":"4","last_reported":1737094364,"current_range_meters":26800,"station_id":"ce4bh3p2rcd13ifvqdq0","pricing_plan_id":"cebpf4jnsgd1na2vs0mg"},{"bike_id":"006eddf6-3b41-4a21-a985-f7a4350b5bf4","system_id":"levelo_inurba_marseille","lat":43.260601,"lon":5.393897,"is_reserved":false,"is_disabled":false,"rental_uris":{"android":"levelo://app?vid=006eddf6-3b41-4a21-a985-f7a4350b5bf4","ios":"levelo://app?vid=006eddf6-3b41-4a21-a985-f7a4350b5bf4"},"vehicle_type_id":"4","last_reported":1737094364,"current_range_meters":30000,"station_id":"ce4bhh92rcd13ifvqfj0","pricing_plan_id":"cebpf4jnsgd1na2vs0mg"},{"bike_id":"ed6fa31d-6e12-4552-91b0-03f764193d1c","system_id":"levelo_inurba_marseille","lat":43.30885,"lon":5.39648,"is_reserved":false,"is_disabled":false,"rental_uris":{"android":"levelo://app?vid=ed6fa31d-6e12-4552-91b0-03f764193d1c","ios":"levelo://app?vid=ed6fa31d-6e12-4552-91b0-03f764193d1c"},"vehicle_type_id":"4","last_reported":1737094364,"current_range_meters":17600,"station_id":"ce4bh012rcd13ifvqcv0","pricing_plan_id":"cebpf4jnsgd1na2vs0mg"},{"bike_id":"82abcddb-9f45-441d-9515-59961dce74b1","system_id":"levelo_inurba_marseille","lat":43.28472,"lon":5.38408,"is_reserved":false,"is_disabled":false,"rental_uris":{"android":"levelo://app?vid=82abcddb-9f45-441d-9515-59961dce74b1","ios":"levelo://app?vid=82abcddb-9f45-441d-9515-59961dce74b1"},"vehicle_type_id":"4","last_reported":1737094364,"current_range_meters":30800,"station_id":"ce4bh512rcd13ifvqe3g","pricing_plan_id":"cebpf4jnsgd1na2vs0mg"},{"bike_id":"e2b2f78a-aa43-4460-82ba-2098e62e5e5c","system_id":"levelo_inurba_marseille","lat":43.32332,"lon":5.40613,"is_reserved":false,"is_disabled":false,"rental_uris":{"android":"levelo://app?vid=e2b2f78a-aa43-4460-82ba-2098e62e5e5c","ios":"levelo://app?vid=e2b2f78a-aa43-4460-82ba-2098e62e5e5c"},"vehicle_type_id":"4","last_reported":1737094364,"current_range_meters":38400,"station_id":"ce4bhq92rcd13ifvqhjg","pricing_plan_id":"cebpf4jnsgd1na2vs0mg"},{"bike_id":"3c7eae7d-5d56-4a4e-b634-6ae607c41217","system_id":"levelo_inurba_marseille","lat":43.29858,"lon":5.397167,"is_reserved":false,"is_disabled":false,"rental_uris":{"android":"levelo://app?vid=3c7eae7d-5d56-4a4e-b634-6ae607c41217","ios":"levelo://app?vid=3c7eae7d-5d56-4a4e-b634-6ae607c41217"},"vehicle_type_id":"4","last_reported":1737094364,"current_range_meters":25200,"station_id":"ce4bh0h2rcd13ifvqd50","pricing_plan_id":"cebpf4jnsgd1na2vs0mg"},{"bike_id":"5d42a98e-bef8-43af-946e-751274f82d4c","system_id":"levelo_inurba_marseille","lat":43.236566,"lon":5.435939,"is_reserved":false,"is_disabled":true,"rental_uris":{"android":"levelo://app?vid=5d42a98e-bef8-43af-946e-751274f82d4c","ios":"levelo://app?vid=5d42a98e-bef8-43af-946e-751274f82d4c"},"vehicle_type_id":"4","last_reported":1737094364,"current_range_meters":28800,"station_id":"","pricing_plan_id":"cebpf4jnsgd1na2vs0mg"},{"bike_id":"f385db6a-7dcd-4b5c-81bf-ad5301981e68","system_id":"levelo_inurba_marseille","lat":43.29294,"lon":5.40118,"is_reserved":false,"is_disabled":false,"rental_uris":{"android":"levelo://app?vid=f385db6a-7dcd-4b5c-81bf-ad5301981e68","ios":"levelo://app?vid=f385db6a-7dcd-4b5c-81bf-ad5301981e68"},"vehicle_type_id":"4","last_reported":1737094364,"current_range_meters":38800,"station_id":"ce4bh312rcd13ifvqdk0","pricing_plan_id":"cebpf4jnsgd1na2vs0mg"},{"bike_id":"9fef62c1-09f6-4d53-ab83-76888bceebbd","system_id":"levelo_inurba_marseille","lat":43.261913,"lon":5.420719,"is_reserved":false,"is_disabled":false,"rental_uris":{"android":"levelo://app?vid=9fef62c1-09f6-4d53-ab83-76888bceebbd","ios":"levelo://app?vid=9fef62c1-09f6-4d53-ab83-76888bceebbd"},"vehicle_type_id":"4","last_reported":1737094364,"current_range_meters":26000,"station_id":"","pricing_plan_id":"cebpf4jnsgd1na2vs0mg"},{"bike_id":"e81fcb6d-fd74-41a0-9349-bad6277ce826","system_id":"levelo_inurba_marseille","lat":43.29259,"lon":5.40898,"is_reserved":false,"is_disabled":false,"rental_uris":{"android":"levelo://app?vid=e81fcb6d-fd74-41a0-9349-bad6277ce826","ios":"levelo://app?vid=e81fcb6d-fd74-41a0-9349-bad6277ce826"},"vehicle_type_id":"4","last_reported":1737094364,"current_range_meters":38800,"station_id":"ce4bh192rcd13ifvqdc0","pricing_plan_id":"cebpf4jnsgd1na2vs0mg"},{"bike_id":"28f470e6-004d-41dc-a451-c260ad329b1d","system_id":"levelo_inurba_marseille","lat":43.27577,"lon":5.38427,"is_reserved":false,"is_disabled":false,"rental_uris":{"android":"levelo://app?vid=28f470e6-004d-41dc-a451-c260ad329b1d","ios":"levelo://app?vid=28f470e6-004d-41dc-a451-c260ad329b1d"},"vehicle_type_id":"4","last_reported":1737094364,"current_range_meters":34800,"station_id":"ce4bhh92rcd13ifvqfi0","pricing_plan_id":"cebpf4jnsgd1na2vs0mg"},{"bike_id":"f82b49c3-eae7-4beb-9bf0-f2964a4e2408","system_id":"levelo_inurba_marseille","lat":43.258644,"lon":5.399058,"is_reserved":false,"is_disabled":false,"rental_uris":{"android":"levelo://app?vid=f82b49c3-eae7-4beb-9bf0-f2964a4e2408","ios":"levelo://app?vid=f82b49c3-eae7-4beb-9bf0-f2964a4e2408"},"vehicle_type_id":"4","last_reported":1737094364,"current_range_meters":38800,"station_id":"ce4bhl92rcd13ifvqghg","pricing_plan_id":"cebpf4jnsgd1na2vs0mg"},{"bike_id":"781610f3-1b32-40db-8861-69091e243170","system_id":"levelo_inurba_marseille","lat":43.30143,"lon":5.38801,"is_reserved":false,"is_disabled":false,"rental_uris":{"android":"levelo://app?vid=781610f3-1b32-40db-8861-69091e243170","ios":"levelo://app?vid=781610f3-1b32-40db-8861-69091e243170"},"vehicle_type_id":"4","last_reported":1737094364,"current_range_meters":38000,"station_id":"ce4bghh2rcd13ifvqb60","pricing_plan_id":"cebpf4jnsgd1na2vs0mg"},{"bike_id":"71b9d26b-1162-49db-b498-f140bd0e1c7d","system_id":"levelo_inurba_marseille","lat":43.29787,"lon":5.39344,"is_reserved":false,"is_disabled":false,"rental_uris":{"android":"levelo://app?vid=71b9d26b-1162-49db-b498-f140bd0e1c7d","ios":"levelo://app?vid=71b9d26b-1162-49db-b498-f140bd0e1c7d"},"vehicle_type_id":"4","last_reported":1737094364,"current_range_meters":30800,"station_id":"chh1huq6cuj3fo74tm60","pricing_plan_id":"cebpf4jnsgd1na2vs0mg"},{"bike_id":"66f16007-b1a5-436f-ac44-7c6e43289790","system_id":"levelo_inurba_marseille","lat":43.24687,"lon":5.38162,"is_reserved":false,"is_disabled":false,"rental_uris":{"android":"levelo://app?vid=66f16007-b1a5-436f-ac44-7c6e43289790","ios":"levelo://app?vid=66f16007-b1a5-436f-ac44-7c6e43289790"},"vehicle_type_id":"4","last_reported":1737094364,"current_range_meters":37600,"station_id":"ce4bhih2rcd13ifvqfr0","pricing_plan_id":"cebpf4jnsgd1na2vs0mg"},{"bike_id":"bb475463-9f40-4832-94e8-039b247d6f2c","system_id":"levelo_inurba_marseille","lat":43.30924,"lon":5.39571,"is_reserved":false,"is_disabled":false,"rental_uris":{"android":"levelo://app?vid=bb475463-9f40-4832-94e8-039b247d6f2c","ios":"levelo://app?vid=bb475463-9f40-4832-94e8-039b247d6f2c"},"vehicle_type_id":"4","last_reported":1737094364,"current_range_meters":39200,"station_id":"ce4bh012rcd13ifvqcv0","pricing_plan_id":"cebpf4jnsgd1na2vs0mg"},{"bike_id":"ea400eeb-e641-4dc5-ad96-ebeeae8838b9","system_id":"levelo_inurba_marseille","lat":43.311738,"lon":5.387138,"is_reserved":false,"is_disabled":false,"rental_uris":{"android":"levelo://app?vid=ea400eeb-e641-4dc5-ad96-ebeeae8838b9","ios":"levelo://app?vid=ea400eeb-e641-4dc5-ad96-ebeeae8838b9"},"vehicle_type_id":"4","last_reported":1737094364,"current_range_meters":30800,"station_id":"ce4bgv12rcd13ifvqcp0","pricing_plan_id":"cebpf4jnsgd1na2vs0mg"},{"bike_id":"d6a42346-a590-43c2-877e-f1bf8e8be9ea","system_id":"levelo_inurba_marseille","lat":43.23964,"lon":5.36614,"is_reserved":false,"is_disabled":false,"rental_uris":{"android":"levelo://app?vid=d6a42346-a590-43c2-877e-f1bf8e8be9ea","ios":"levelo://app?vid=d6a42346-a590-43c2-877e-f1bf8e8be9ea"},"vehicle_type_id":"4","last_reported":1737094364,"current_range_meters":29600,"station_id":"ce4bhi12rcd13ifvqfp0","pricing_plan_id":"cebpf4jnsgd1na2vs0mg"},{"bike_id":"e5bbf141-5a5e-4bd8-b46a-a4479bc4109c","system_id":"levelo_inurba_marseille","lat":43.30931,"lon":5.40142,"is_reserved":false,"is_disabled":false,"rental_uris":{"android":"levelo://app?vid=e5bbf141-5a5e-4bd8-b46a-a4479bc4109c","ios":"levelo://app?vid=e5bbf141-5a5e-4bd8-b46a-a4479bc4109c"},"vehicle_type_id":"4","last_reported":1737094364,"current_range_meters":38000,"station_id":"ce4bgvp2rcd13ifvqct0","pricing_plan_id":"cebpf4jnsgd1na2vs0mg"},{"bike_id":"ea68a76e-b4c6-4be9-ab98-1a2f34b18dea","system_id":"levelo_inurba_marseille","lat":43.24169,"lon":5.39741,"is_reserved":false,"is_disabled":false,"rental_uris":{"android":"levelo://app?vid=ea68a76e-b4c6-4be9-ab98-1a2f34b18dea","ios":"levelo://app?vid=ea68a76e-b4c6-4be9-ab98-1a2f34b18dea"},"vehicle_type_id":"4","last_reported":1737094364,"current_range_meters":16400,"station_id":"ce4bhn12rcd13ifvqgpg","pricing_plan_id":"cebpf4jnsgd1na2vs0mg"},{"bike_id":"c7b019f7-5d57-48a0-afbe-9c39028ab5f4","system_id":"levelo_inurba_marseille","lat":43.27571,"lon":5.38399,"is_reserved":false,"is_disabled":false,"rental_uris":{"android":"levelo://app?vid=c7b019f7-5d57-48a0-afbe-9c39028ab5f4","ios":"levelo://app?vid=c7b019f7-5d57-48a0-afbe-9c39028ab5f4"},"vehicle_type_id":"4","last_reported":1737094364,"current_range_meters":25200,"station_id":"ce4bhh92rcd13ifvqfi0","pricing_plan_id":"cebpf4jnsgd1na2vs0mg"},{"bike_id":"a486527d-ab61-4f0a-a481-7382e3f08ab1","system_id":"levelo_inurba_marseille","lat":43.28071,"lon":5.39653,"is_reserved":false,"is_disabled":false,"rental_uris":{"android":"levelo://app?vid=a486527d-ab61-4f0a-a481-7382e3f08ab1","ios":"levelo://app?vid=a486527d-ab61-4f0a-a481-7382e3f08ab1"},"vehicle_type_id":"4","last_reported":1737094364,"current_range_meters":16400,"station_id":"ce4bho12rcd13ifvqh2g","pricing_plan_id":"cebpf4jnsgd1na2vs0mg"},{"bike_id":"adcf948d-f764-4480-a63e-dadc9d72f803","system_id":"levelo_inurba_marseille","lat":43.31677,"lon":5.37733,"is_reserved":false,"is_disabled":false,"rental_uris":{"android":"levelo://app?vid=adcf948d-f764-4480-a63e-dadc9d72f803","ios":"levelo://app?vid=adcf948d-f764-4480-a63e-dadc9d72f803"},"vehicle_type_id":"4","last_reported":1737094364,"current_range_meters":26000,"station_id":"ce4bgth2rcd13ifvqch0","pricing_plan_id":"cebpf4jnsgd1na2vs0mg"},{"bike_id":"7383474c-b45a-4438-837c-99d7ae866fe7","system_id":"levelo_inurba_marseille","lat":43.26079,"lon":5.3939,"is_reserved":false,"is_disabled":false,"rental_uris":{"android":"levelo://app?vid=7383474c-b45a-4438-837c-99d7ae866fe7","ios":"levelo://app?vid=7383474c-b45a-4438-837c-99d7ae866fe7"},"vehicle_type_id":"4","last_reported":1737094364,"current_range_meters":38800,"station_id":"ce4bhh92rcd13ifvqfj0","pricing_plan_id":"cebpf4jnsgd1na2vs0mg"},{"bike_id":"732a7b0e-76ff-4586-af78-f3829e7ab96d","system_id":"levelo_inurba_marseille","lat":43.28372,"lon":5.38628,"is_reserved":false,"is_disabled":false,"rental_uris":{"android":"levelo://app?vid=732a7b0e-76ff-4586-af78-f3829e7ab96d","ios":"levelo://app?vid=732a7b0e-76ff-4586-af78-f3829e7ab96d"},"vehicle_type_id":"4","last_reported":1737094364,"current_range_meters":38400,"station_id":"ce4bh492rcd13ifvqdvg","pricing_plan_id":"cebpf4jnsgd1na2vs0mg"},{"bike_id":"69ae9584-9a03-4c67-af99-00b3bcfab561","system_id":"levelo_inurba_marseille","lat":43.278166,"lon":5.407109,"is_reserved":false,"is_disabled":false,"rental_uris":{"android":"levelo://app?vid=69ae9584-9a03-4c67-af99-00b3bcfab561","ios":"levelo://app?vid=69ae9584-9a03-4c67-af99-00b3bcfab561"},"vehicle_type_id":"4","last_reported":1737094364,"current_range_meters":28800,"station_id":"ce4bhnh2rcd13ifvqgtg","pricing_plan_id":"cebpf4jnsgd1na2vs0mg"},{"bike_id":"45a7bbd0-5ae5-423a-a26d-d8a9d414243f","system_id":"levelo_inurba_marseille","lat":43.25112,"lon":5.40323,"is_reserved":false,"is_disabled":false,"rental_uris":{"android":"levelo://app?vid=45a7bbd0-5ae5-423a-a26d-d8a9d414243f","ios":"levelo://app?vid=45a7bbd0-5ae5-423a-a26d-d8a9d414243f"},"vehicle_type_id":"4","last_reported":1737094364,"current_range_meters":32400,"station_id":"ce4bhlh2rcd13ifvqgig","pricing_plan_id":"cebpf4jnsgd1na2vs0mg"},{"bike_id":"8cd94151-adee-4f79-8761-b4ac5246f49e","system_id":"levelo_inurba_marseille","lat":43.31261,"lon":5.40154,"is_reserved":false,"is_disabled":false,"rental_uris":{"android":"levelo://app?vid=8cd94151-adee-4f79-8761-b4ac5246f49e","ios":"levelo://app?vid=8cd94151-adee-4f79-8761-b4ac5246f49e"},"vehicle_type_id":"4","last_reported":1737094364,"current_range_meters":38000,"station_id":"ce4bh092rcd13ifvqd30","pricing_plan_id":"cebpf4jnsgd1na2vs0mg"},{"bike_id":"dd8dca4c-a199-4405-9dd8-907e6d8df502","system_id":"levelo_inurba_marseille","lat":43.30468,"lon":5.37912,"is_reserved":false,"is_disabled":false,"rental_uris":{"android":"levelo://app?vid=dd8dca4c-a199-4405-9dd8-907e6d8df502","ios":"levelo://app?vid=dd8dca4c-a199-4405-9dd8-907e6d8df502"},"vehicle_type_id":"4","last_reported":1737094364,"current_range_meters":30400,"station_id":"ce4bgup2rcd13ifvqcn0","pricing_plan_id":"cebpf4jnsgd1na2vs0mg"},{"bike_id":"2437477f-81ad-4536-a69a-573e43db8531","system_id":"levelo_inurba_marseille","lat":43.31325,"lon":5.39675,"is_reserved":false,"is_disabled":false,"rental_uris":{"android":"levelo://app?vid=2437477f-81ad-4536-a69a-573e43db8531","ios":"levelo://app?vid=2437477f-81ad-4536-a69a-573e43db8531"},"vehicle_type_id":"4","last_reported":1737094364,"current_range_meters":6800,"station_id":"ce4bgvp2rcd13ifvqcu0","pricing_plan_id":"cebpf4jnsgd1na2vs0mg"},{"bike_id":"66ecc205-2fae-4213-9be3-91528272c1e6","system_id":"levelo_inurba_marseille","lat":43.23189,"lon":5.35567,"is_reserved":false,"is_disabled":false,"rental_uris":{"android":"levelo://app?vid=66ecc205-2fae-4213-9be3-91528272c1e6","ios":"levelo://app?vid=66ecc205-2fae-4213-9be3-91528272c1e6"},"vehicle_type_id":"4","last_reported":1737094364,"current_range_meters":37600,"station_id":"ce4bhu92rcd13ifvqi70","pricing_plan_id":"cebpf4jnsgd1na2vs0mg"},{"bike_id":"fcf1fa5f-2412-4a0a-a0f4-a80c6292d5a8","system_id":"levelo_inurba_marseille","lat":43.30889,"lon":5.39626,"is_reserved":false,"is_disabled":false,"rental_uris":{"android":"levelo://app?vid=fcf1fa5f-2412-4a0a-a0f4-a80c6292d5a8","ios":"levelo://app?vid=fcf1fa5f-2412-4a0a-a0f4-a80c6292d5a8"},"vehicle_type_id":"4","last_reported":1737094364,"current_range_meters":36400,"station_id":"ce4bh012rcd13ifvqcv0","pricing_plan_id":"cebpf4jnsgd1na2vs0mg"},{"bike_id":"22ccf45d-452d-45b0-ab56-995b2e477ec6","system_id":"levelo_inurba_marseille","lat":43.315046,"lon":5.372943,"is_reserved":false,"is_disabled":false,"rental_uris":{"android":"levelo://app?vid=22ccf45d-452d-45b0-ab56-995b2e477ec6","ios":"levelo://app?vid=22ccf45d-452d-45b0-ab56-995b2e477ec6"},"vehicle_type_id":"4","last_reported":1737094364,"current_range_meters":8800,"station_id":"ce4bgt12rcd13ifvqcd0","pricing_plan_id":"cebpf4jnsgd1na2vs0mg"},{"bike_id":"44721705-52d0-4eba-b0b2-b41ea9586411","system_id":"levelo_inurba_marseille","lat":43.23211,"lon":5.35578,"is_reserved":false,"is_disabled":false,"rental_uris":{"android":"levelo://app?vid=44721705-52d0-4eba-b0b2-b41ea9586411","ios":"levelo://app?vid=44721705-52d0-4eba-b0b2-b41ea9586411"},"vehicle_type_id":"4","last_reported":1737094364,"current_range_meters":31200,"station_id":"ce4bhu92rcd13ifvqi70","pricing_plan_id":"cebpf4jnsgd1na2vs0mg"},{"bike_id":"b1c76eb4-e5ec-4ec4-abcf-d9d0a5284616","system_id":"levelo_inurba_marseille","lat":43.28686,"lon":5.37387,"is_reserved":false,"is_disabled":false,"rental_uris":{"android":"levelo://app?vid=b1c76eb4-e5ec-4ec4-abcf-d9d0a5284616","ios":"levelo://app?vid=b1c76eb4-e5ec-4ec4-abcf-d9d0a5284616"},"vehicle_type_id":"4","last_reported":1737094364,"current_range_meters":36000,"station_id":"ce4bh3p2rcd13ifvqdq0","pricing_plan_id":"cebpf4jnsgd1na2vs0mg"},{"bike_id":"e5ec9bff-f396-47e1-bb83-9047625e0ba0","system_id":"levelo_inurba_marseille","lat":43.30412,"lon":5.38853,"is_reserved":false,"is_disabled":false,"rental_uris":{"android":"levelo://app?vid=e5ec9bff-f396-47e1-bb83-9047625e0ba0","ios":"levelo://app?vid=e5ec9bff-f396-47e1-bb83-9047625e0ba0"},"vehicle_type_id":"4","last_reported":1737094364,"current_range_meters":38800,"station_id":"ce4bgk12rcd13ifvqbi0","pricing_plan_id":"cebpf4jnsgd1na2vs0mg"},{"bike_id":"7138f953-e5b4-4a72-b4e7-3913f820a576","system_id":"levelo_inurba_marseille","lat":43.271824,"lon":5.409976,"is_reserved":false,"is_disabled":false,"rental_uris":{"android":"levelo://app?vid=7138f953-e5b4-4a72-b4e7-3913f820a576","ios":"levelo://app?vid=7138f953-e5b4-4a72-b4e7-3913f820a576"},"vehicle_type_id":"4","last_reported":1737094364,"current_range_meters":38800,"station_id":"ce4bhl12rcd13ifvqgf0","pricing_plan_id":"cebpf4jnsgd1na2vs0mg"},{"bike_id":"b3e7659c-1f26-47fe-8428-fde43c99ee1d","system_id":"levelo_inurba_marseille","lat":43.311738,"lon":5.387158,"is_reserved":false,"is_disabled":false,"rental_uris":{"android":"levelo://app?vid=b3e7659c-1f26-47fe-8428-fde43c99ee1d","ios":"levelo://app?vid=b3e7659c-1f26-47fe-8428-fde43c99ee1d"},"vehicle_type_id":"4","last_reported":1737094364,"current_range_meters":30800,"station_id":"ce4bgv12rcd13ifvqcp0","pricing_plan_id":"cebpf4jnsgd1na2vs0mg"},{"bike_id":"65ce034a-f255-430b-b7d5-7d708fcfda04","system_id":"levelo_inurba_marseille","lat":43.282694,"lon":5.350776,"is_reserved":false,"is_disabled":false,"rental_uris":{"android":"levelo://app?vid=65ce034a-f255-430b-b7d5-7d708fcfda04","ios":"levelo://app?vid=65ce034a-f255-430b-b7d5-7d708fcfda04"},"vehicle_type_id":"4","last_reported":1737094364,"current_range_meters":38800,"station_id":"ce4bhbp2rcd13ifvqerg","pricing_plan_id":"cebpf4jnsgd1na2vs0mg"},