{"last_updated":1728144617,"ttl":60,"version":"2.2","data":{"bikes":[{"bike_id":"967226e2-ac47-4164-9e98-e664d2329446","system_id":"levelo_inurba_marseille","lat":43.295246,"lon":5.390336,"is_reserved":false,"is_disabled":false,"rental_uris":{"android":"levelo://app?vid=967226e2-ac47-4164-9e98-e664d2329446","ios":"levelo://app?vid=967226e2-ac47-4164-9e98-e664d2329446"},"vehicle_type_id":"4","last_reported":1728144617,"current_range_meters":33200,"station_id":"ce4bh3p2rcd13ifvqdp0","pricing_plan_id":"cebpf4jnsgd1na2vs0mg"},{"bike_id":"3edccbad-c604-40df-acb2-6e9d91b67298","system_id":"levelo_inurba_marseille","lat":43.33761,"lon":5.37431,"is_reserved":false,"is_disabled":false,"rental_uris":{"android":"levelo://app?vid=3edccbad-c604-40df-acb2-6e9d91b67298","ios":"levelo://app?vid=3edccbad-c604-40df-acb2-6e9d91b67298"},"vehicle_type_id":"4","last_reported":1728144617,"current_range_meters":33600,"station_id":"","pricing_plan_id":"cebpf4jnsgd1na2vs0mg"},{"bike_id":"c3b11ea4-1e15-4775-8ca7-0b4d5971bcf5","system_id":"levelo_inurba_marseille","lat":43.29592,"lon":5.36736,"is_reserved":false,"is_disabled":false,"rental_uris":{"android":"levelo://app?vid=c3b11ea4-1e15-4775-8ca7-0b4d5971bcf5","ios":"levelo://app?vid=c3b11ea4-1e15-4775-8ca7-0b4d5971bcf5"},"vehicle_type_id":"4","last_reported":1728144617,"current_range_meters":38000,"station_id":"ce4bgph2rcd13ifvqc2g","pricing_plan_id":"cebpf4jnsgd1na2vs0mg"},{"bike_id":"7fad6fb9-d7f3-4616-a16f-1cb874e09d6e","system_id":"levelo_inurba_marseille","lat":43.294363,"lon":5.397511,"is_reserved":false,"is_disabled":false,"rental_uris":{"android":"levelo://app?vid=7fad6fb9-d7f3-4616-a16f-1cb874e09d6e","ios":"levelo://app?vid=7fad6fb9-d7f3-4616-a16f-1cb874e09d6e"},"vehicle_type_id":"4","last_reported":1728144617,"current_range_meters":20400,"station_id":"ce4bh3h2rcd13ifvqdo0","pricing_plan_id":"cebpf4jnsgd1na2vs0mg"},{"bike_id":"3b677ece-d108-4a26-9756-6b872922b1fd","system_id":"levelo_inurba_marseille","lat":43.26961,"lon":5.38637,"is_reserved":false,"is_disabled":false,"rental_uris":{"android":"levelo://app?vid=3b677ece-d108-4a26-9756-6b872922b1fd","ios":"levelo://app?vid=3b677ece-d108-4a26-9756-6b872922b1fd"},"vehicle_type_id":"4","last_reported":1728144617,"current_range_meters":18000,"station_id":"ce4bhh92rcd13ifvqfh0","pricing_plan_id":"cebpf4jnsgd1na2vs0mg"},{"bike_id":"e13d8ed4-5940-493d-88f8-87e4f9f1755b","system_id":"levelo_inurba_marseille","lat":43.29419,"lon":5.38627,"is_reserved":false,"is_disabled":false,"rental_uris":{"android":"levelo://app?vid=e13d8ed4-5940-493d-88f8-87e4f9f1755b","ios":"levelo://app?vid=e13d8ed4-5940-493d-88f8-87e4f9f1755b"},"vehicle_type_id":"4","last_reported":1728144617,"current_range_meters":19200,"station_id":"ce4bh2h2rcd13ifvqdh0","pricing_plan_id":"cebpf4jnsgd1na2vs0mg"},{"bike_id":"36f97602-9d57-4b2b-81d4-5badae4f6cc1","system_id":"levelo_inurba_marseille","lat":43.30888,"lon":5.39638,"is_reserved":false,"is_disabled":false,"rental_uris":{"android":"levelo://app?vid=36f97602-9d57-4b2b-81d4-5badae4f6cc1","ios":"levelo://app?vid=36f97602-9d57-4b2b-81d4-5badae4f6cc1"},"vehicle_type_id":"4","last_reported":1728144617,"current_range_meters":38000,"station_id":"ce4bh012rcd13ifvqcv0","pricing_plan_id":"cebpf4jnsgd1na2vs0mg"},{"bike_id":"50d61c0a-38e0-4f94-8578-5b67ac2d61d3","system_id":"levelo_inurba_marseille","lat":43.2808,"lon":5.39661,"is_reserved":false,"is_disabled":false,"rental_uris":{"android":"levelo://app?vid=50d61c0a-38e0-4f94-8578-5b67ac2d61d3","ios":"levelo://app?vid=50d61c0a-38e0-4f94-8578-5b67ac2d61d3"},"vehicle_type_id":"4","last_reported":1728144617,"current_range_meters":14400,"station_id":"ce4bho12rcd13ifvqh2g","pricing_plan_id":"cebpf4jnsgd1na2vs0mg"},{"bike_id":"2e6f73c0-f005-4789-b554-ab4c9349dfb0","system_id":"levelo_inurba_marseille","lat":43.29503,"lon":5.39404,"is_reserved":false,"is_disabled":false,"rental_uris":{"android":"levelo://app?vid=2e6f73c0-f005-4789-b554-ab4c9349dfb0","ios":"levelo://app?vid=2e6f73c0-f005-4789-b554-ab4c9349dfb0"},"vehicle_type_id":"4","last_reported":1728144617,"current_range_meters":9600,"station_id":"ce4bh292rcd13ifvqdf0","pricing_plan_id":"cebpf4jnsgd1na2vs0mg"},{"bike_id":"8becbe8c-5a99-4867-b3a2-ecd89524861f","system_id":"levelo_inurba_marseille","lat":43.28967,"lon":5.37841,"is_reserved":false,"is_disabled":false,"rental_uris":{"android":"levelo://app?vid=8becbe8c-5a99-4867-b3a2-ecd89524861f","ios":"levelo://app?vid=8becbe8c-5a99-4867-b3a2-ecd89524861f"},"vehicle_type_id":"4","last_reported":1728144617,"current_range_meters":29600,"station_id":"ce4bh9p2rcd13ifvqed0","pricing_plan_id":"cebpf4jnsgd1na2vs0mg"},{"bike_id":"a379db01-53a6-4c6c-bb1a-2c2d23cdbe75","system_id":"levelo_inurba_marseille","lat":43.26952,"lon":5.38638,"is_reserved":false,"is_disabled":false,"rental_uris":{"android":"levelo://app?vid=a379db01-53a6-4c6c-bb1a-2c2d23cdbe75","ios":"levelo://app?vid=a379db01-53a6-4c6c-bb1a-2c2d23cdbe75"},"vehicle_type_id":"4","last_reported":1728144617,"current_range_meters":27200,"station_id":"ce4bhh92rcd13ifvqfh0","pricing_plan_id":"cebpf4jnsgd1na2vs0mg"},{"bike_id":"03ebdfef-60b9-4383-b780-f6e10ef5dff9","system_id":"levelo_inurba_marseille","lat":43.33753,"lon":5.37446,"is_reserved":false,"is_disabled":false,"rental_uris":{"android":"levelo://app?vid=03ebdfef-60b9-4383-b780-f6e10ef5dff9","ios":"levelo://app?vid=03ebdfef-60b9-4383-b780-f6e10ef5dff9"},"vehicle_type_id":"4","last_reported":1728144617,"current_range_meters":32400,"station_id":"","pricing_plan_id":"cebpf4jnsgd1na2vs0mg"},{"bike_id":"1ddc3965-3b0d-408a-86d2-c49a21827ec6","system_id":"levelo_inurba_marseille","lat":43.28151,"lon":5.42643,"is_reserved":false,"is_disabled":false,"rental_uris":{"android":"levelo://app?vid=1ddc3965-3b0d-408a-86d2-c49a21827ec6","ios":"levelo://app?vid=1ddc3965-3b0d-408a-86d2-c49a21827ec6"},"vehicle_type_id":"4","last_reported":1728144617,"current_range_meters":38800,"station_id":"ce4bhnh2rcd13ifvqgug","pricing_plan_id":"cebpf4jnsgd1na2vs0mg"},{"bike_id":"a27d446f-0ef2-4b78-a839-8bd2ca48e967","system_id":"levelo_inurba_marseille","lat":43.249956,"lon":5.389263,"is_reserved":false,"is_disabled":false,"rental_uris":{"android":"levelo://app?vid=a27d446f-0ef2-4b78-a839-8bd2ca48e967","ios":"levelo://app?vid=a27d446f-0ef2-4b78-a839-8bd2ca48e967"},"vehicle_type_id":"4","last_reported":1728144617,"current_range_meters":24000,"station_id":"ce4bhgp2rcd13ifvqfd0","pricing_plan_id":"cebpf4jnsgd1na2vs0mg"},{"bike_id":"02083394-c94e-4a99-b766-2af4ea129e09","system_id":"levelo_inurba_marseille","lat":43.33027,"lon":5.39046,"is_reserved":false,"is_disabled":false,"rental_uris":{"android":"levelo://app?vid=02083394-c94e-4a99-b766-2af4ea129e09","ios":"levelo://app?vid=02083394-c94e-4a99-b766-2af4ea129e09"},"vehicle_type_id":"4","last_reported":1728144617,"current_range_meters":36400,"station_id":"ce4bhr92rcd13ifvqhrg","pricing_plan_id":"cebpf4jnsgd1na2vs0mg"},{"bike_id":"e6b2df58-b4a0-4aec-933d-a62e42f34d34","system_id":"levelo_inurba_marseille","lat":43.33725,"lon":5.39193,"is_reserved":false,"is_disabled":false,"rental_uris":{"android":"levelo://app?vid=e6b2df58-b4a0-4aec-933d-a62e42f34d34","ios":"levelo://app?vid=e6b2df58-b4a0-4aec-933d-a62e42f34d34"},"vehicle_type_id":"4","last_reported":1728144617,"current_range_meters":11600,"station_id":"ce4bhr92rcd13ifvqhsg","pricing_plan_id":"cebpf4jnsgd1na2vs0mg"},{"bike_id":"ca8a49f6-d7bf-4916-9ee8-8982cb06b6a1","system_id":"levelo_inurba_marseille","lat":43.295988,"lon":5.381092,"is_reserved":false,"is_disabled":false,"rental_uris":{"android":"levelo://app?vid=ca8a49f6-d7bf-4916-9ee8-8982cb06b6a1","ios":"levelo://app?vid=ca8a49f6-d7bf-4916-9ee8-8982cb06b6a1"},"vehicle_type_id":"4","last_reported":1728144617,"current_range_meters":24800,"station_id":"","pricing_plan_id":"cebpf4jnsgd1na2vs0mg"},{"bike_id":"060830c4-73a6-4368-84a7-ccec4efacb19","system_id":"levelo_inurba_marseille","lat":43.29632,"lon":5.40601,"is_reserved":false,"is_disabled":false,"rental_uris":{"android":"levelo://app?vid=060830c4-73a6-4368-84a7-ccec4efacb19","ios":"levelo://app?vid=060830c4-73a6-4368-84a7-ccec4efacb19"},"vehicle_type_id":"4","last_reported":1728144617,"current_range_meters":38800,"station_id":"ce4bh0h2rcd13ifvqd60","pricing_plan_id":"cebpf4jnsgd1na2vs0mg"},{"bike_id":"d77938b7-ff1e-465c-a8b9-4b07085a5cc9","system_id":"levelo_inurba_marseille","lat":43.23062,"lon":5.35488,"is_reserved":false,"is_disabled":false,"rental_uris":{"android":"levelo://app?vid=d77938b7-ff1e-465c-a8b9-4b07085a5cc9","ios":"levelo://app?vid=d77938b7-ff1e-465c-a8b9-4b07085a5cc9"},"vehicle_type_id":"4","last_reported":1728144617,"current_range_meters":11200,"station_id":"cpo3342slgdg3j2ifvpg","pricing_plan_id":"cebpf4jnsgd1na2vs0mg"},{"bike_id":"852457a1-813f-46b8-bb13-232384e208e9","system_id":"levelo_inurba_marseille","lat":43.33761,"lon":5.37426,"is_reserved":false,"is_disabled":false,"rental_uris":{"android":"levelo://app?vid=852457a1-813f-46b8-bb13-232384e208e9","ios":"levelo://app?vid=852457a1-813f-46b8-bb13-232384e208e9"},"vehicle_type_id":"4","last_reported":1728144617,"current_range_meters":32400,"station_id":"","pricing_plan_id":"cebpf4jnsgd1na2vs0mg"},{"bike_id":"0d79ef91-e03a-4511-b960-a6f350f28d65","system_id":"levelo_inurba_marseille","lat":43.23065,"lon":5.35499,"is_reserved":false,"is_disabled":false,"rental_uris":{"android":"levelo://app?vid=0d79ef91-e03a-4511-b960-a6f350f28d65","ios":"levelo://app?vid=0d79ef91-e03a-4511-b960-a6f350f28d65"},"vehicle_type_id":"4","last_reported":1728144617,"current_range_meters":18000,"station_id":"cpo3342slgdg3j2ifvpg","pricing_plan_id":"cebpf4jnsgd1na2vs0mg"},{"bike_id":"54d09a39-e79d-434c-8a05-a8f2660c6a94","system_id":"levelo_inurba_marseille","lat":43.29905,"lon":5.43671,"is_reserved":false,"is_disabled":false,"rental_uris":{"android":"levelo://app?vid=54d09a39-e79d-434c-8a05-a8f2660c6a94","ios":"levelo://app?vid=54d09a39-e79d-434c-8a05-a8f2660c6a94"},"vehicle_type_id":"4","last_reported":1728144617,"current_range_meters":9600,"station_id":"ce4bhpp2rcd13ifvqhfg","pricing_plan_id":"cebpf4jnsgd1na2vs0mg"},{"bike_id":"6548e544-7efd-4b96-8168-7c8eab7f53b9","system_id":"levelo_inurba_marseille","lat":43.32657,"lon":5.40993,"is_reserved":false,"is_disabled":false,"rental_uris":{"android":"levelo://app?vid=6548e544-7efd-4b96-8168-7c8eab7f53b9","ios":"levelo://app?vid=6548e544-7efd-4b96-8168-7c8eab7f53b9"},"vehicle_type_id":"4","last_reported":1728144617,"current_range_meters":36800,"station_id":"ce4bhpp2rcd13ifvqhgg","pricing_plan_id":"cebpf4jnsgd1na2vs0mg"},{"bike_id":"491813ec-5bcd-4eda-acb2-c01ccb4e9894","system_id":"levelo_inurba_marseille","lat":43.33755,"lon":5.37426,"is_reserved":false,"is_disabled":false,"rental_uris":{"android":"levelo://app?vid=491813ec-5bcd-4eda-acb2-c01ccb4e9894","ios":"levelo://app?vid=491813ec-5bcd-4eda-acb2-c01ccb4e9894"},"vehicle_type_id":"4","last_reported":1728144617,"current_range_meters":35600,"station_id":"","pricing_plan_id":"cebpf4jnsgd1na2vs0mg"},{"bike_id":"baba7691-81ff-4c7d-90d9-c89eba9696cb","system_id":"levelo_inurba_marseille","lat":43.25929,"lon":5.40912,"is_reserved":false,"is_disabled":false,"rental_uris":{"android":"levelo://app?vid=baba7691-81ff-4c7d-90d9-c89eba9696cb","ios":"levelo://app?vid=baba7691-81ff-4c7d-90d9-c89eba9696cb"},"vehicle_type_id":"4","last_reported":1728144617,"current_range_meters":36400,"station_id":"ce4bhm92rcd13ifvqglg","pricing_plan_id":"cebpf4jnsgd1na2vs0mg"},{"bike_id":"03fbec81-2a94-48dd-a306-be269f429402","system_id":"levelo_inurba_marseille","lat":43.2737,"lon":5.36259,"is_reserved":false,"is_disabled":false,"rental_uris":{"android":"levelo://app?vid=03fbec81-2a94-48dd-a306-be269f429402","ios":"levelo://app?vid=03fbec81-2a94-48dd-a306-be269f429402"},"vehicle_type_id":"4","last_reported":1728144617,"current_range_meters":38800,"station_id":"ce4bhbh2rcd13ifvqeo0","pricing_plan_id":"cebpf4jnsgd1na2vs0mg"},{"bike_id":"5c2ebb38-f02c-40fc-8029-ac964a27087f","system_id":"levelo_inurba_marseille","lat":43.28566,"lon":5.39495,"is_reserved":false,"is_disabled":false,"rental_uris":{"android":"levelo://app?vid=5c2ebb38-f02c-40fc-8029-ac964a27087f","ios":"levelo://app?vid=5c2ebb38-f02c-40fc-8029-ac964a27087f"},"vehicle_type_id":"4","last_reported":1728144617,"current_range_meters":36800,"station_id":"ce4bh292rcd13ifvqdg0","pricing_plan_id":"cebpf4jnsgd1na2vs0mg"},{"bike_id":"4af55307-045f-4c66-a045-a91d88bb4c16","system_id":"levelo_inurba_marseille","lat":43.3376,"lon":5.37437,"is_reserved":false,"is_disabled":false,"rental_uris":{"android":"levelo://app?vid=4af55307-045f-4c66-a045-a91d88bb4c16","ios":"levelo://app?vid=4af55307-045f-4c66-a045-a91d88bb4c16"},"vehicle_type_id":"4","last_reported":1728144617,"current_range_meters":35600,"station_id":"","pricing_plan_id":"cebpf4jnsgd1na2vs0mg"},{"bike_id":"13a35d1a-1c21-4cdd-9282-17040c700716","system_id":"levelo_inurba_marseille","lat":43.32537,"lon":5.4143,"is_reserved":false,"is_disabled":false,"rental_uris":{"android":"levelo://app?vid=13a35d1a-1c21-4cdd-9282-17040c700716","ios":"levelo://app?vid=13a35d1a-1c21-4cdd-9282-17040c700716"},"vehicle_type_id":"4","last_reported":1728144617,"current_range_meters":38000,"station_id":"ce4bhq12rcd13ifvqhhg","pricing_plan_id":"cebpf4jnsgd1na2vs0mg"},{"bike_id":"73509855-89fd-400e-9192-668fc257434d","system_id":"levelo_inurba_marseille","lat":43.23056,"lon":5.3549,"is_reserved":false,"is_disabled":false,"rental_uris":{"android":"levelo://app?vid=73509855-89fd-400e-9192-668fc257434d","ios":"levelo://app?vid=73509855-89fd-400e-9192-668fc257434d"},"vehicle_type_id":"4","last_reported":1728144617,"current_range_meters":12000,"station_id":"cpo3342slgdg3j2ifvpg","pricing_plan_id":"cebpf4jnsgd1na2vs0mg"},{"bike_id":"d83e3731-5d0a-4567-959b-e8e801dcdf27","system_id":"levelo_inurba_marseille","lat":43.30539,"lon":5.36703,"is_reserved":false,"is_disabled":false,"rental_uris":{"android":"levelo://app?vid=d83e3731-5d0a-4567-959b-e8e801dcdf27","ios":"levelo://app?vid=d83e3731-5d0a-4567-959b-e8e801dcdf27"},"vehicle_type_id":"4","last_reported":1728144617,"current_range_meters":24800,"station_id":"ce4bgrp2rcd13ifvqc9g","pricing_plan_id":"cebpf4jnsgd1na2vs0mg"},{"bike_id":"1b2d92d0-c3c0-4d7c-a47d-7f35a3850f2c","system_id":"levelo_inurba_marseille","lat":43.246521,"lon":5.389029,"is_reserved":false,"is_disabled":false,"rental_uris":{"android":"levelo://app?vid=1b2d92d0-c3c0-4d7c-a47d-7f35a3850f2c","ios":"levelo://app?vid=1b2d92d0-c3c0-4d7c-a47d-7f35a3850f2c"},"vehicle_type_id":"4","last_reported":1728144617,"current_range_meters":36800,"station_id":"ce4bhg12rcd13ifvqf60","pricing_plan_id":"cebpf4jnsgd1na2vs0mg"},{"bike_id":"0a1cfde3-5da8-457d-b504-20fc0403ce9c","system_id":"levelo_inurba_marseille","lat":43.29272,"lon":5.38437,"is_reserved":false,"is_disabled":false,"rental_uris":{"android":"levelo://app?vid=0a1cfde3-5da8-457d-b504-20fc0403ce9c","ios":"levelo://app?vid=0a1cfde3-5da8-457d-b504-20fc0403ce9c"},"vehicle_type_id":"4","last_reported":1728144617,"current_range_meters":38000,"station_id":"ce4bh692rcd13ifvqea0","pricing_plan_id":"cebpf4jnsgd1na2vs0mg"},{"bike_id":"b5b7e70d-4727-4e1b-b936-2d4a804b59a5","system_id":"levelo_inurba_marseille","lat":43.27308,"lon":5.39079,"is_reserved":false,"is_disabled":false,"rental_uris":{"android":"levelo://app?vid=b5b7e70d-4727-4e1b-b936-2d4a804b59a5","ios":"levelo://app?vid=b5b7e70d-4727-4e1b-b936-2d4a804b59a5"},"vehicle_type_id":"4","last_reported":1728144617,"current_range_meters":800,"station_id":"ce4bhgp2rcd13ifvqfe0","pricing_plan_id":"cebpf4jnsgd1na2vs0mg"},{"bike_id":"79b9780c-0672-46ff-af34-19be6dec4043","system_id":"levelo_inurba_marseille","lat":43.3171,"lon":5.43707,"is_reserved":false,"is_disabled":false,"rental_uris":{"android":"levelo://app?vid=79b9780c-0672-46ff-af34-19be6dec4043","ios":"levelo://app?vid=79b9780c-0672-46ff-af34-19be6dec4043"},"vehicle_type_id":"4","last_reported":1728144617,"current_range_meters":24000,"station_id":"ce4bhp92rcd13ifvqhcg","pricing_plan_id":"cebpf4jnsgd1na2vs0mg"},{"bike_id":"e2c941e9-1f49-47b9-8e8a-534599331426","system_id":"levelo_inurba_marseille","lat":43.298632,"lon":5.397253,"is_reserved":false,"is_disabled":false,"rental_uris":{"android":"levelo://app?vid=e2c941e9-1f49-47b9-8e8a-534599331426","ios":"levelo://app?vid=e2c941e9-1f49-47b9-8e8a-534599331426"},"vehicle_type_id":"4","last_reported":1728144617,"current_range_meters":27200,"station_id":"ce4bh0h2rcd13ifvqd50","pricing_plan_id":"cebpf4jnsgd1na2vs0mg"},{"bike_id":"84927da3-33fa-457a-ba40-a7c3d9f638a5","system_id":"levelo_inurba_marseille","lat":43.31272,"lon":5.40169,"is_reserved":false,"is_disabled":false,"rental_uris":{"android":"levelo://app?vid=84927da3-33fa-457a-ba40-a7c3d9f638a5","ios":"levelo://app?vid=84927da3-33fa-457a-ba40-a7c3d9f638a5"},"vehicle_type_id":"4","last_reported":1728144617,"current_range_meters":34000,"station_id":"ce4bh092rcd13ifvqd30","pricing_plan_id":"cebpf4jnsgd1na2vs0mg"},{"bike_id":"05b63064-10b5-4d37-bd90-faea4dddb68e","system_id":"levelo_inurba_marseille","lat":43.26498,"lon":5.39544,"is_reserved":false,"is_disabled":false,"rental_uris":{"android":"levelo://app?vid=05b63064-10b5-4d37-bd90-faea4dddb68e","ios":"levelo://app?vid=05b63064-10b5-4d37-bd90-faea4dddb68e"},"vehicle_type_id":"4","last_reported":1728144617,"current_range_meters":17200,"station_id":"ce4bhi12rcd13ifvqfq0","pricing_plan_id":"cebpf4jnsgd1na2vs0mg"},{"bike_id":"63b6da19-a598-4ba7-9cd8-30cc1998b503","system_id":"levelo_inurba_marseille","lat":43.296265,"lon":5.371706,"is_reserved":false,"is_disabled":false,"rental_uris":{"android":"levelo://app?vid=63b6da19-a598-4ba7-9cd8-30cc1998b503","ios":"levelo://app?vid=63b6da19-a598-4ba7-9cd8-30cc1998b503"},"vehicle_type_id":"4","last_reported":1728144617,"current_range_meters":28800,"station_id":"","pricing_plan_id":"cebpf4jnsgd1na2vs0mg"},{"bike_id":"64de2907-1d28-41ce-99d1-0f27ec677025","system_id":"levelo_inurba_marseille","lat":43.23197,"lon":5.35556,"is_reserved":false,"is_disabled":false,"rental_uris":{"android":"levelo://app?vid=64de2907-1d28-41ce-99d1-0f27ec677025","ios":"levelo://app?vid=64de2907-1d28-41ce-99d1-0f27ec677025"},"vehicle_type_id":"4","last_reported":1728144617,"current_range_meters":18800,"station_id":"ce4bhu92rcd13ifvqi70","pricing_plan_id":"cebpf4jnsgd1na2vs0mg"},{"bike_id":"e04e5431-207d-4263-8b72-762e4c4878e5","system_id":"levelo_inurba_marseille","lat":43.23061,"lon":5.35491,"is_reserved":false,"is_disabled":false,"rental_uris":{"android":"levelo://app?vid=e04e5431-207d-4263-8b72-762e4c4878e5","ios":"levelo://app?vid=e04e5431-207d-4263-8b72-762e4c4878e5"},"vehicle_type_id":"4","last_reported":1728144617,"current_range_meters":14800,"station_id":"cpo3342slgdg3j2ifvpg","pricing_plan_id":"cebpf4jnsgd1na2vs0mg"},{"bike_id":"4cfcba08-c4c2-4e68-9cfd-a26acf6194f9","system_id":"levelo_inurba_marseille","lat":43.27919,"lon":5.39579,"is_reserved":false,"is_disabled":false,"rental_uris":{"android":"levelo://app?vid=4cfcba08-c4c2-4e68-9cfd-a26acf6194f9","ios":"levelo://app?vid=4cfcba08-c4c2-4e68-9cfd-a26acf6194f9"},"vehicle_type_id":"4","last_reported":1728144617,"current_range_meters":6400,"station_id":"ce4bhf92rcd13ifvqf40","pricing_plan_id":"cebpf4jnsgd1na2vs0mg"},{"bike_id":"c35ab35d-f0ea-421b-b5be-46580d4eaf48","system_id":"levelo_inurba_marseille","lat":43.32086,"lon":5.41537,"is_reserved":false,"is_disabled":false,"rental_uris":{"android":"levelo://app?vid=c35ab35d-f0ea-421b-b5be-46580d4eaf48","ios":"levelo://app?vid=c35ab35d-f0ea-421b-b5be-46580d4eaf48"},"vehicle_type_id":"4","last_reported":1728144617,"current_range_meters":37600,"station_id":"ce4bhq92rcd13ifvqhkg","pricing_plan_id":"cebpf4jnsgd1na2vs0mg"},{"bike_id":"41c75022-5c4e-4b06-ba72-44c1f1df76db","system_id":"levelo_inurba_marseille","lat":43.31343,"lon":5.36719,"is_reserved":false,"is_disabled":false,"rental_uris":{"android":"levelo://app?vid=41c75022-5c4e-4b06-ba72-44c1f1df76db","ios":"levelo://app?vid=41c75022-5c4e-4b06-ba72-44c1f1df76db"},"vehicle_type_id":"4","last_reported":1728144617,"current_range_meters":10800,"station_id":"ce4bgr92rcd13ifvqc6g","pricing_plan_id":"cebpf4jnsgd1na2vs0mg"},{"bike_id":"a84a8bd2-a406-4caf-8044-0c3fe1111ee9","system_id":"levelo_inurba_marseille","lat":43.26031,"lon":5.37552,"is_reserved":false,"is_disabled":false,"rental_uris":{"android":"levelo://app?vid=a84a8bd2-a406-4caf-8044-0c3fe1111ee9","ios":"levelo://app?vid=a84a8bd2-a406-4caf-8044-0c3fe1111ee9"},"vehicle_type_id":"4","last_reported":1728144617,"current_range_meters":35200,"station_id":"ce4bhgh2rcd13ifvqfa0","pricing_plan_id":"cebpf4jnsgd1na2vs0mg"},{"bike_id":"44ffb353-579b-43f5-8874-2055d5a20372","system_id":"levelo_inurba_marseille","lat":43.29568,"lon":5.37525,"is_reserved":false,"is_disabled":false,"rental_uris":{"android":"levelo://app?vid=44ffb353-579b-43f5-8874-2055d5a20372","ios":"levelo://app?vid=44ffb353-579b-43f5-8874-2055d5a20372"},"vehicle_type_id":"4","last_reported":1728144617,"current_range_meters":36800,"station_id":"ce4bgh92rcd13ifvqb50","pricing_plan_id":"cebpf4jnsgd1na2vs0mg"},{"bike_id":"0e872a46-5e59-440a-9f11-8c5be8e7fd3e","system_id":"levelo_inurba_marseille","lat":43.24547,"lon":5.39525,"is_reserved":false,"is_disabled":false,"rental_uris":{"android":"levelo://app?vid=0e872a46-5e59-440a-9f11-8c5be8e7fd3e","ios":"levelo://app?vid=0e872a46-5e59-440a-9f11-8c5be8e7fd3e"},"vehicle_type_id":"4","last_reported":1728144617,"current_range_meters":9600,"station_id":"ce4bhlp2rcd13ifvqgjg","pricing_plan_id":"cebpf4jnsgd1na2vs0mg"},{"bike_id":"0ed68929-b970-4587-be36-76a6808fd757","system_id":"levelo_inurba_marseille","lat":43.29848,"lon":5.36286,"is_reserved":false,"is_disabled":false,"rental_uris":{"android":"levelo://app?vid=0ed68929-b970-4587-be36-76a6808fd757","ios":"levelo://app?vid=0ed68929-b970-4587-be36-76a6808fd757"},"vehicle_type_id":"4","last_reported":1728144617,"current_range_meters":39200,"station_id":"ce4bgpp2rcd13ifvqc3g","pricing_plan_id":"cebpf4jnsgd1na2vs0mg"},{"bike_id":"11f6232c-64f8-420d-9be6-d31a9075f209","system_id":"levelo_inurba_marseille","lat":43.286987,"lon":5.373827,"is_reserved":false,"is_disabled":false,"rental_uris":{"android":"levelo://app?vid=11f6232c-64f8-420d-9be6-d31a9075f209","ios":"levelo://app?vid=11f6232c-64f8-420d-9be6-d31a9075f209"},"vehicle_type_id":"4","last_reported":1728144617,"current_range_meters":10000,"station_id":"ce4bh3p2rcd13ifvqdq0","pricing_plan_id":"cebpf4jnsgd1na2vs0mg"},{"bike_id":"bb5f5452-4b9b-417d-b148-b396a874f3d9","system_id":"levelo_inurba_marseille","lat":43.33771,"lon":5.37438,"is_reserved":false,"is_disabled":false,"rental_uris":{"android":"levelo://app?vid=bb5f5452-4b9b-417d-b148-b396a874f3d9","ios":"levelo://app?vid=bb5f5452-4b9b-417d-b148-b396a874f3d9"},"vehicle_type_id":"4","last_reported":1728144617,"current_range_meters":30800,"station_id":"","pricing_plan_id":"cebpf4jnsgd1na2vs0mg"},{"bike_id":"ab83fadf-d068-4c8e-b6a0-a2c4cd43bc9b","system_id":"levelo_inurba_marseille","lat":43.31999,"lon":5.38162,"is_reserved":false,"is_disabled":false,"rental_uris":{"android":"levelo://app?vid=ab83fadf-d068-4c8e-b6a0-a2c4cd43bc9b","ios":"levelo://app?vid=ab83fadf-d068-4c8e-b6a0-a2c4cd43bc9b"},"vehicle_type_id":"4","last_reported":1728144617,"current_range_meters":32800,"station_id":"ce4bhr12rcd13ifvqhpg","pricing_plan_id":"cebpf4jnsgd1na2vs0mg"},{"bike_id":"d7a0298f-5c2b-438d-ab05-5d6a7ac83160","system_id":"levelo_inurba_marseille","lat":43.30801,"lon":5.43527,"is_reserved":false,"is_disabled":false,"rental_uris":{"android":"levelo://app?vid=d7a0298f-5c2b-438d-ab05-5d6a7ac83160","ios":"levelo://app?vid=d7a0298f-5c2b-438d-ab05-5d6a7ac83160"},"vehicle_type_id":"4","last_reported":1728144617,"current_range_meters":36400,"station_id":"ce4bhph2rcd13ifvqheg","pricing_plan_id":"cebpf4jnsgd1na2vs0mg"},{"bike_id":"d568e26b-3eac-45ad-a3f0-44fd43034530","system_id":"levelo_inurba_marseille","lat":43.29964,"lon":5.37171,"is_reserved":false,"is_disabled":false,"rental_uris":{"android":"levelo://app?vid=d568e26b-3eac-45ad-a3f0-44fd43034530","ios":"levelo://app?vid=d568e26b-3eac-45ad-a3f0-44fd43034530"},"vehicle_type_id":"4","last_reported":1728144617,"current_range_meters":32800,"station_id":"ce4bgr92rcd13ifvqc7g","pricing_plan_id":"cebpf4jnsgd1na2vs0mg"},{"bike_id":"027d34d8-1ed4-4f7e-ab10-62f82fe318bc","system_id":"levelo_inurba_marseille","lat":43.29642,"lon":5.37183,"is_reserved":false,"is_disabled":false,"rental_uris":{"android":"levelo://app?vid=027d34d8-1ed4-4f7e-ab10-62f82fe318bc","ios":"levelo://app?vid=027d34d8-1ed4-4f7e-ab10-62f82fe318bc"},"vehicle_type_id":"4","last_reported":1728144617,"current_range_meters":37600,"station_id":"ce4bgnh2rcd13ifvqc0g","pricing_plan_id":"cebpf4jnsgd1na2vs0mg"},{"bike_id":"608cc4ee-8991-410a-88e8-5b0a4dd3a35b","system_id":"levelo_inurba_marseille","lat":43.28664,"lon":5.36355,"is_reserved":false,"is_disabled":false,"rental_uris":{"android":"levelo://app?vid=608cc4ee-8991-410a-88e8-5b0a4dd3a35b","ios":"levelo://app?vid=608cc4ee-8991-410a-88e8-5b0a4dd3a35b"},"vehicle_type_id":"4","last_reported":1728144617,"current_range_meters":38000,"station_id":"ce4bhah2rcd13ifvqej0","pricing_plan_id":"cebpf4jnsgd1na2vs0mg"},{"bike_id":"c70d6da3-3018-45f1-a529-5cc8c68e0e56","system_id":"levelo_inurba_marseille","lat":43.26947,"lon":5.40252,"is_reserved":false,"is_disabled":false,"rental_uris":{"android":"levelo://app?vid=c70d6da3-3018-45f1-a529-5cc8c68e0e56","ios":"levelo://app?vid=c70d6da3-3018-45f1-a529-5cc8c68e0e56"},"vehicle_type_id":"4","last_reported":1728144617,"current_range_meters":6400,"station_id":"cjm6bp8fraef2m0cb0m0","pricing_plan_id":"cebpf4jnsgd1na2vs0mg"},{"bike_id":"7004eb12-69be-4a12-ba9f-56caddf26415","system_id":"levelo_inurba_marseille","lat":43.30932,"lon":5.4014,"is_reserved":false,"is_disabled":false,"rental_uris":{"android":"levelo://app?vid=7004eb12-69be-4a12-ba9f-56caddf26415","ios":"levelo://app?vid=7004eb12-69be-4a12-ba9f-56caddf26415"},"vehicle_type_id":"4","last_reported":1728144617,"current_range_meters":38800,"station_id":"ce4bgvp2rcd13ifvqct0","pricing_plan_id":"cebpf4jnsgd1na2vs0mg"},{"bike_id":"b8f14ead-e731-4248-b0f8-b5a874518bbb","system_id":"levelo_inurba_marseille","lat":43.2733,"lon":5.39123,"is_reserved":false,"is_disabled":false,"rental_uris":{"android":"levelo://app?vid=b8f14ead-e731-4248-b0f8-b5a874518bbb","ios":"levelo://app?vid=b8f14ead-e731-4248-b0f8-b5a874518bbb"},"vehicle_type_id":"4","last_reported":1728144617,"current_range_meters":16800,"station_id":"ce4bhgp2rcd13ifvqfe0","pricing_plan_id":"cebpf4jnsgd1na2vs0mg"},{"bike_id":"8d417569-3d12-46c8-8cc2-8721955ae207","system_id":"levelo_inurba_marseille","lat":43.30306,"lon":5.39216,"is_reserved":false,"is_disabled":false,"rental_uris":{"android":"levelo://app?vid=8d417569-3d12-46c8-8cc2-8721955ae207","ios":"levelo://app?vid=8d417569-3d12-46c8-8cc2-8721955ae207"},"vehicle_type_id":"4","last_reported":1728144617,"current_range_meters":12000,"station_id":"ce4bgkh2rcd13ifvqbk0","pricing_plan_id":"cebpf4jnsgd1na2vs0mg"},{"bike_id":"a45c5852-f993-434b-9e0e-aaf2278af56a","system_id":"levelo_inurba_marseille","lat":43.23195,"lon":5.35552,"is_reserved":false,"is_disabled":false,"rental_uris":{"android":"levelo://app?vid=a45c5852-f993-434b-9e0e-aaf2278af56a","ios":"levelo://app?vid=a45c5852-f993-434b-9e0e-aaf2278af56a"},"vehicle_type_id":"4","last_reported":1728144617,"current_range_meters":6800,"station_id":"ce4bhu92rcd13ifvqi70","pricing_plan_id":"cebpf4jnsgd1na2vs0mg"},{"bike_id":"b74e2f29-1ea3-4ff7-a148-23744c79609e","system_id":"levelo_inurba_marseille","lat":43.22931,"lon":5.35376,"is_reserved":false,"is_disabled":false,"rental_uris":{"android":"levelo://app?vid=b74e2f29-1ea3-4ff7-a148-23744c79609e","ios":"levelo://app?vid=b74e2f29-1ea3-4ff7-a148-23744c79609e"},"vehicle_type_id":"4","last_reported":1728144617,"current_range_meters":13600,"station_id":"cpo3532slgdg3j2ikp40","pricing_plan_id":"cebpf4jnsgd1na2vs0mg"},{"bike_id":"de306c39-54e3-4173-b6be-011ef9552564","system_id":"levelo_inurba_marseille","lat":43.30325,"lon":5.40445,"is_reserved":false,"is_disabled":false,"rental_uris":{"android":"levelo://app?vid=de306c39-54e3-4173-b6be-011ef9552564","ios":"levelo://app?vid=de306c39-54e3-4173-b6be-011ef9552564"},"vehicle_type_id":"4","last_reported":1728144617,"current_range_meters":38800,"station_id":"ce4bh012rcd13ifvqd10","pricing_plan_id":"cebpf4jnsgd1na2vs0mg"},{"bike_id":"1096f911-de3c-44d9-a87a-2a9409179a85","system_id":"levelo_inurba_marseille","lat":43.28037,"lon":5.36947,"is_reserved":false,"is_disabled":false,"rental_uris":{"android":"levelo://app?vid=1096f911-de3c-44d9-a87a-2a9409179a85","ios":"levelo://app?vid=1096f911-de3c-44d9-a87a-2a9409179a85"},"vehicle_type_id":"4","last_reported":1728144617,"current_range_meters":8000,"station_id":"ce4bgj92rcd13ifvqbe0","pricing_plan_id":"cebpf4jnsgd1na2vs0mg"},{"bike_id":"d9dbdf1b-8578-41c3-825d-ea06148f6354","system_id":"levelo_inurba_marseille","lat":43.30325,"lon":5.4045,"is_reserved":false,"is_disabled":false,"rental_uris":{"android":"levelo://app?vid=d9dbdf1b-8578-41c3-825d-ea06148f6354","ios":"levelo://app?vid=d9dbdf1b-8578-41c3-825d-ea06148f6354"},"vehicle_type_id":"4","last_reported":1728144617,"current_range_meters":38800,"station_id":"ce4bh012rcd13ifvqd10","pricing_plan_id":"cebpf4jnsgd1na2vs0mg"},{"bike_id":"928880f0-bc65-4cc9-9f46-a1792cd0060c","system_id":"levelo_inurba_marseille","lat":43.23189,"lon":5.35558,"is_reserved":false,"is_disabled":false,"rental_uris":{"android":"levelo://app?vid=928880f0-bc65-4cc9-9f46-a1792cd0060c","ios":"levelo://app?vid=928880f0-bc65-4cc9-9f46-a1792cd0060c"},"vehicle_type_id":"4","last_reported":1728144617,"current_range_meters":20000,"station_id":"ce4bhu92rcd13ifvqi70","pricing_plan_id":"cebpf4jnsgd1na2vs0mg"},{"bike_id":"d2b0596a-338c-475c-a27f-f53ce416452a","system_id":"levelo_inurba_marseille","lat":43.31066,"lon":5.40095,"is_reserved":false,"is_disabled":false,"rental_uris":{"android":"levelo://app?vid=d2b0596a-338c-475c-a27f-f53ce416452a","ios":"levelo://app?vid=d2b0596a-338c-475c-a27f-f53ce416452a"},"vehicle_type_id":"4","last_reported":1728144617,"current_range_meters":21600,"station_id":"","pricing_plan_id":"cebpf4jnsgd1na2vs0mg"},{"bike_id":"713def1b-67ce-4cfb-8dec-dcbcedc9901a","system_id":"levelo_inurba_marseille","lat":43.292145,"lon":5.379064,"is_reserved":false,"is_disabled":false,"rental_uris":{"android":"levelo://app?vid=713def1b-67ce-4cfb-8dec-dcbcedc9901a","ios":"levelo://app?vid=713def1b-67ce-4cfb-8dec-dcbcedc9901a"},"vehicle_type_id":"4","last_reported":1728144617,"current_range_meters":36000,"station_id":"","pricing_plan_id":"cebpf4jnsgd1na2vs0mg"},{"bike_id":"3f3c44f3-0b8b-41b2-b44f-82fc53d2b064","system_id":"levelo_inurba_marseille","lat":43.32286,"lon":5.38264,"is_reserved":false,"is_disabled":false,"rental_uris":{"android":"levelo://app?vid=3f3c44f3-0b8b-41b2-b44f-82fc53d2b064","ios":"levelo://app?vid=3f3c44f3-0b8b-41b2-b44f-82fc53d2b064"},"vehicle_type_id":"4","last_reported":1728144617,"current_range_meters":38800,"station_id":"ce4bhr12rcd13ifvqhqg","pricing_plan_id":"cebpf4jnsgd1na2vs0mg"},{"bike_id":"32ceac28-dacd-4d4c-9c55-d75f7e6d1aa1","system_id":"levelo_inurba_marseille","lat":43.30798,"lon":5.43532,"is_reserved":false,"is_disabled":false,"rental_uris":{"android":"levelo://app?vid=32ceac28-dacd-4d4c-9c55-d75f7e6d1aa1","ios":"levelo://app?vid=32ceac28-dacd-4d4c-9c55-d75f7e6d1aa1"},"vehicle_type_id":"4","last_reported":1728144617,"current_range_meters":9200,"station_id":"ce4bhph2rcd13ifvqheg","pricing_plan_id":"cebpf4jnsgd1na2vs0mg"},{"bike_id":"bccac98d-6256-49e9-9c03-cbc77e73e2e7","system_id":"levelo_inurba_marseille","lat":43.29522,"lon":5.39404,"is_reserved":false,"is_disabled":false,"rental_uris":{"android":"levelo://app?vid=bccac98d-6256-49e9-9c03-cbc77e73e2e7","ios":"levelo://app?vid=bccac98d-6256-49e9-9c03-cbc77e73e2e7"},"vehicle_type_id":"4","last_reported":1728144617,"current_range_meters":16800,"station_id":"ce4bh292rcd13ifvqdf0","pricing_plan_id":"cebpf4jnsgd1na2vs0mg"},{"bike_id":"ab818bb7-e39d-4902-8113-7452c7dbfb1a","system_id":"levelo_inurba_marseille","lat":43.23177,"lon":5.43678,"is_reserved":false,"is_disabled":false,"rental_uris":{"android":"levelo://app?vid=ab818bb7-e39d-4902-8113-7452c7dbfb1a","ios":"levelo://app?vid=ab818bb7-e39d-4902-8113-7452c7dbfb1a"},"vehicle_type_id":"4","last_reported":1728144617,"current_range_meters":23200,"station_id":"ce4bhmp2rcd13ifvqgog","pricing_plan_id":"cebpf4jnsgd1na2vs0mg"},{"bike_id":"133c19d5-3012-40be-a26c-949a97a6d62d","system_id":"levelo_inurba_marseille","lat":43.295969,"lon":5.376421,"is_reserved":false,"is_disabled":false,"rental_uris":{"android":"levelo://app?vid=133c19d5-3012-40be-a26c-949a97a6d62d","ios":"levelo://app?vid=133c19d5-3012-40be-a26c-949a97a6d62d"},"vehicle_type_id":"4","last_reported":1728144617,"current_range_meters":38000,"station_id":"ce4bgi92rcd13ifvqb90","pricing_plan_id":"cebpf4jnsgd1na2vs0mg"},{"bike_id":"24fdfdf9-16f4-49f8-b24b-ad50cd0713f5","system_id":"levelo_inurba_marseille","lat":43.295514,"lon":5.422886,"is_reserved":false,"is_disabled":false,"rental_uris":{"android":"levelo://app?vid=24fdfdf9-16f4-49f8-b24b-ad50cd0713f5","ios":"levelo://app?vid=24fdfdf9-16f4-49f8-b24b-ad50cd0713f5"},"vehicle_type_id":"4","last_reported":1728144617,"current_range_meters":38800,"station_id":"ce4bhph2rcd13ifvqhdg","pricing_plan_id":"cebpf4jnsgd1na2vs0mg"},{"bike_id":"1fce07fb-0437-4834-870d-74526309b92f","system_id":"levelo_inurba_marseille","lat":43.32494,"lon":5.41486,"is_reserved":false,"is_disabled":false,"rental_uris":{"android":"levelo://app?vid=1fce07fb-0437-4834-870d-74526309b92f","ios":"levelo://app?vid=1fce07fb-0437-4834-870d-74526309b92f"},"vehicle_type_id":"4","last_reported":1728144617,"current_range_meters":14000,"station_id":"ce4bhq92rcd13ifvqhkg","pricing_plan_id":"cebpf4jnsgd1na2vs0mg"},{"bike_id":"3dad62ec-c6f7-4f78-a9b7-22b323a52823","system_id":"levelo_inurba_marseille","lat":43.30935,"lon":5.40154,"is_reserved":false,"is_disabled":false,"rental_uris":{"android":"levelo://app?vid=3dad62ec-c6f7-4f78-a9b7-22b323a52823","ios":"levelo://app?vid=3dad62ec-c6f7-4f78-a9b7-22b323a52823"},"vehicle_type_id":"4","last_reported":1728144617,"current_range_meters":11200,"station_id":"ce4bgvp2rcd13ifvqct0","pricing_plan_id":"cebpf4jnsgd1na2vs0mg"},{"bike_id":"55e66259-5a94-4f9a-b623-e9efa598f5fe","system_id":"levelo_inurba_marseille","lat":43.28101,"lon":5.37843,"is_reserved":false,"is_disabled":false,"rental_uris":{"android":"levelo://app?vid=55e66259-5a94-4f9a-b623-e9efa598f5fe","ios":"levelo://app?vid=55e66259-5a94-4f9a-b623-e9efa598f5fe"},"vehicle_type_id":"4","last_reported":1728144617,"current_range_meters":19200,"station_id":"ce4bha12rcd13ifvqee0","pricing_plan_id":"cebpf4jnsgd1na2vs0mg"},{"bike_id":"090e20f5-7353-4c82-9d05-c16f8796f7ee","system_id":"levelo_inurba_marseille","lat":43.3107,"lon":5.38365,"is_reserved":false,"is_disabled":false,"rental_uris":{"android":"levelo://app?vid=090e20f5-7353-4c82-9d05-c16f8796f7ee","ios":"levelo://app?vid=090e20f5-7353-4c82-9d05-c16f8796f7ee"},"vehicle_type_id":"4","last_reported":1728144617,"current_range_meters":4400,"station_id":"ce4bgv92rcd13ifvqcr0","pricing_plan_id":"cebpf4jnsgd1na2vs0mg"},{"bike_id":"d9513a24-3235-43a7-b9a5-1c5cfe37603f","system_id":"levelo_inurba_marseille","lat":43.23052,"lon":5.35486,"is_reserved":false,"is_disabled":false,"rental_uris":{"android":"levelo://app?vid=d9513a24-3235-43a7-b9a5-1c5cfe37603f","ios":"levelo://app?vid=d9513a24-3235-43a7-b9a5-1c5cfe37603f"},"vehicle_type_id":"4","last_reported":1728144617,"current_range_meters":18800,"station_id":"cpo3342slgdg3j2ifvpg","pricing_plan_id":"cebpf4jnsgd1na2vs0mg"},{"bike_id":"009d6d0e-c1a8-4ddc-b330-ebf04e9c45b9","system_id":"levelo_inurba_marseille","lat":43.299,"lon":5.43679,"is_reserved":false,"is_disabled":false,"rental_uris":{"android":"levelo://app?vid=009d6d0e-c1a8-4ddc-b330-ebf04e9c45b9","ios":"levelo://app?vid=009d6d0e-c1a8-4ddc-b330-ebf04e9c45b9"},"vehicle_type_id":"4","last_reported":1728144617,"current_range_meters":19600,"station_id":"ce4bhpp2rcd13ifvqhfg","pricing_plan_id":"cebpf4jnsgd1na2vs0mg"},{"bike_id":"859b5d37-175d-4313-9d3b-4036d65b5429","system_id":"levelo_inurba_marseille","lat":43.23192,"lon":5.35556,"is_reserved":false,"is_disabled":false,"rental_uris":{"android":"levelo://app?vid=859b5d37-175d-4313-9d3b-4036d65b5429","ios":"levelo://app?vid=859b5d37-175d-4313-9d3b-4036d65b5429"},"vehicle_type_id":"4","last_reported":1728144617,"current_range_meters":10800,"station_id":"ce4bhu92rcd13ifvqi70","pricing_plan_id":"cebpf4jnsgd1na2vs0mg"},{"bike_id":"e801b355-6ede-41f3-aa7c-a02edf287c12","system_id":"levelo_inurba_marseille","lat":43.2319,"lon":5.35539,"is_reserved":false,"is_disabled":false,"rental_uris":{"android":"levelo://app?vid=e801b355-6ede-41f3-aa7c-a02edf287c12","ios":"levelo://app?vid=e801b355-6ede-41f3-aa7c-a02edf287c12"},"vehicle_type_id":"4","last_reported":1728144617,"current_range_meters":17200,"station_id":"ce4bhu92rcd13ifvqi70","pricing_plan_id":"cebpf4jnsgd1na2vs0mg"},{"bike_id":"8e864f4c-2b9d-44bc-b6bc-50ae745a63c1","system_id":"levelo_inurba_marseille","lat":43.29934,"lon":5.36553,"is_reserved":false,"is_disabled":false,"rental_uris":{"android":"levelo://app?vid=8e864f4c-2b9d-44bc-b6bc-50ae745a63c1","ios":"levelo://app?vid=8e864f4c-2b9d-44bc-b6bc-50ae745a63c1"},"vehicle_type_id":"4","last_reported":1728144617,"current_range_meters":38800,"station_id":"ce4bgm92rcd13ifvqbr0","pricing_plan_id":"cebpf4jnsgd1na2vs0mg"},{"bike_id":"f67e6b9e-f24d-4d1a-b37f-0b8c787738a7","system_id":"levelo_inurba_marseille","lat":43.28531,"lon":5.36009,"is_reserved":false,"is_disabled":false,"rental_uris":{"android":"levelo://app?vid=f67e6b9e-f24d-4d1a-b37f-0b8c787738a7","ios":"levelo://app?vid=f67e6b9e-f24d-4d1a-b37f-0b8c787738a7"},"vehicle_type_id":"4","last_reported":1728144617,"current_range_meters":12800,"station_id":"ce4bhah2rcd13ifvqei0","pricing_plan_id":"cebpf4jnsgd1na2vs0mg"},{"bike_id":"6a0dcba0-056e-43b2-bae1-bcfb03a64e1f","system_id":"levelo_inurba_marseille","lat":43.23191,"lon":5.3555,"is_reserved":false,"is_disabled":false,"rental_uris":{"android":"levelo://app?vid=6a0dcba0-056e-43b2-bae1-bcfb03a64e1f","ios":"levelo://app?vid=6a0dcba0-056e-43b2-bae1-bcfb03a64e1f"},"vehicle_type_id":"4","last_reported":1728144617,"current_range_meters":8800,"station_id":"ce4bhu92rcd13ifvqi70","pricing_plan_id":"cebpf4jnsgd1na2vs0mg"},{"bike_id":"4e0c83a2-b0c3-4894-8559-e509681998d3","system_id":"levelo_inurba_marseille","lat":43.31119,"lon":5.38332,"is_reserved":false,"is_disabled":false,"rental_uris":{"android":"levelo://app?vid=4e0c83a2-b0c3-4894-8559-e509681998d3","ios":"levelo://app?vid=4e0c83a2-b0c3-4894-8559-e509681998d3"},"vehicle_type_id":"4","last_reported":1728144617,"current_range_meters":16000,"station_id":"ce4bgv92rcd13ifvqcr0","pricing_plan_id":"cebpf4jnsgd1na2vs0mg"},{"bike_id":"3c797729-0364-42b3-8e58-4709c41c4a3c","system_id":"levelo_inurba_marseille","lat":43.30797,"lon":5.43522,"is_reserved":false,"is_disabled":false,"rental_uris":{"android":"levelo://app?vid=3c797729-0364-42b3-8e58-4709c41c4a3c","ios":"levelo://app?vid=3c797729-0364-42b3-8e58-4709c41c4a3c"},"vehicle_type_id":"4","last_reported":1728144617,"current_range_meters":24800,"station_id":"ce4bhph2rcd13ifvqheg","pricing_plan_id":"cebpf4jnsgd1na2vs0mg"},{"bike_id":"76291294-a0a7-48e8-9477-4baf61b8ad40","system_id":"levelo_inurba_marseille","lat":43.29796,"lon":5.40407,"is_reserved":false,"is_disabled":false,"rental_uris":{"android":"levelo://app?vid=76291294-a0a7-48e8-9477-4baf61b8ad40","ios":"levelo://app?vid=76291294-a0a7-48e8-9477-4baf61b8ad40"},"vehicle_type_id":"4","last_reported":1728144617,"current_range_meters":12000,"station_id":"ce4bh112rcd13ifvqd90","pricing_plan_id":"cebpf4jnsgd1na2vs0mg"},{"bike_id":"ead6e8d6-98f1-4343-b3d7-c6061d083cac","system_id":"levelo_inurba_marseille","lat":43.32339,"lon":5.40618,"is_reserved":false,"is_disabled":false,"rental_uris":{"android":"levelo://app?vid=ead6e8d6-98f1-4343-b3d7-c6061d083cac","ios":"levelo://app?vid=ead6e8d6-98f1-4343-b3d7-c6061d083cac"},"vehicle_type_id":"4","last_reported":1728144617,"current_range_meters":11200,"station_id":"ce4bhq92rcd13ifvqhjg","pricing_plan_id":"cebpf4jnsgd1na2vs0mg"},{"bike_id":"5c94b385-222d-4f34-915f-51ea582d0365","system_id":"levelo_inurba_marseille","lat":43.29,"lon":5.35609,"is_reserved":false,"is_disabled":false,"rental_uris":{"android":"levelo://app?vid=5c94b385-222d-4f34-915f-51ea582d0365","ios":"levelo://app?vid=5c94b385-222d-4f34-915f-51ea582d0365"},"vehicle_type_id":"4","last_reported":1728144617,"current_range_meters":3200,"station_id":"ce4bhb92rcd13ifvqen0","pricing_plan_id":"cebpf4jnsgd1na2vs0mg"},{"bike_id":"3b64c3b7-cfdb-41a7-b0be-5f6e1daf96e6","system_id":"levelo_inurba_marseille","lat":43.2319,"lon":5.35555,"is_reserved":false,"is_disabled":false,"rental_uris":{"android":"levelo://app?vid=3b64c3b7-cfdb-41a7-b0be-5f6e1daf96e6","ios":"levelo://app?vid=3b64c3b7-cfdb-41a7-b0be-5f6e1daf96e6"},"vehicle_type_id":"4","last_reported":1728144617,"current_range_meters":22000,"station_id":"ce4bhu92rcd13ifvqi70","pricing_plan_id":"cebpf4jnsgd1na2vs0mg"},{"bike_id":"bcc2d114-9ca9-4659-af65-fe82f8188dd3","system_id":"levelo_inurba_marseille","lat":43.28269,"lon":5.3507,"is_reserved":false,"is_disabled":false,"rental_uris":{"android":"levelo://app?vid=bcc2d114-9ca9-4659-af65-fe82f8188dd3","ios":"levelo://app?vid=bcc2d114-9ca9-4659-af65-fe82f8188dd3"},"vehicle_type_id":"4","last_reported":1728144617,"current_range_meters":30400,"station_id":"ce4bhbp2rcd13ifvqerg","pricing_plan_id":"cebpf4jnsgd1na2vs0mg"},{"bike_id":"3ed7afdf-627a-4c62-9ddc-af8538f5174b","system_id":"levelo_inurba_marseille","lat":43.27497,"lon":5.42451,"is_reserved":false,"is_disabled":false,"rental_uris":{"android":"levelo://app?vid=3ed7afdf-627a-4c62-9ddc-af8538f5174b","ios":"levelo://app?vid=3ed7afdf-627a-4c62-9ddc-af8538f5174b"},"vehicle_type_id":"4","last_reported":1728144617,"current_range_meters":6800,"station_id":"ce4bhn92rcd13ifvqgrg","pricing_plan_id":"cebpf4jnsgd1na2vs0mg"},{"bike_id":"c9d5b7c9-e1b1-4602-abf2-832ba9c0dac1","system_id":"levelo_inurba_marseille","lat":43.29003,"lon":5.35607,"is_reserved":false,"is_disabled":false,"rental_uris":{"android":"levelo://app?vid=c9d5b7c9-e1b1-4602-abf2-832ba9c0dac1","ios":"levelo://app?vid=c9d5b7c9-e1b1-4602-abf2-832ba9c0dac1"},"vehicle_type_id":"4","last_reported":1728144617,"current_range_meters":27200,"station_id":"ce4bhb92rcd13ifvqen0","pricing_plan_id":"cebpf4jnsgd1na2vs0mg"},{"bike_id":"5fb11fe0-0d8b-4ed2-bc81-1a7f65e783db","system_id":"levelo_inurba_marseille","lat":43.30324,"lon":5.40458,"is_reserved":false,"is_disabled":false,"rental_uris":{"android":"levelo://app?vid=5fb11fe0-0d8b-4ed2-bc81-1a7f65e783db","ios":"levelo://app?vid=5fb11fe0-0d8b-4ed2-bc81-1a7f65e783db"},"vehicle_type_id":"4","last_reported":1728144617,"current_range_meters":38800,"station_id":"ce4bh012rcd13ifvqd10","pricing_plan_id":"cebpf4jnsgd1na2vs0mg"},{"bike_id":"33d42501-3986-4499-b442-c3c7ba85d92d","system_id":"levelo_inurba_marseille","lat":43.29297,"lon":5.37454,"is_reserved":false,"is_disabled":false,"rental_uris":{"android":"levelo://app?vid=33d42501-3986-4499-b442-c3c7ba85d92d","ios":"levelo://app?vid=33d42501-3986-4499-b442-c3c7ba85d92d"},"vehicle_type_id":"4","last_reported":1728144617,"current_range_meters":38400,"station_id":"ce4bgi12rcd13ifvqb70","pricing_plan_id":"cebpf4jnsgd1na2vs0mg"},{"bike_id":"bdefae95-7cc5-4880-bfcb-b1af39586be0","system_id":"levelo_inurba_marseille","lat":43.32662,"lon":5.40995,"is_reserved":false,"is_disabled":false,"rental_uris":{"android":"levelo://app?vid=bdefae95-7cc5-4880-bfcb-b1af39586be0","ios":"levelo://app?vid=bdefae95-7cc5-4880-bfcb-b1af39586be0"},"vehicle_type_id":"4","last_reported":1728144617,"current_range_meters":38800,"station_id":"ce4bhpp2rcd13ifvqhgg","pricing_plan_id":"cebpf4jnsgd1na2vs0mg"},{"bike_id":"cf6e7575-69fe-41da-8916-745f8f355abb","system_id":"levelo_inurba_marseille","lat":43.24549,"lon":5.39517,"is_reserved":false,"is_disabled":false,"rental_uris":{"android":"levelo://app?vid=cf6e7575-69fe-41da-8916-745f8f355abb","ios":"levelo://app?vid=cf6e7575-69fe-41da-8916-745f8f355abb"},"vehicle_type_id":"4","last_reported":1728144617,"current_range_meters":38800,"station_id":"ce4bhlp2rcd13ifvqgjg","pricing_plan_id":"cebpf4jnsgd1na2vs0mg"},{"bike_id":"b0e82cfd-936d-4179-9645-caf6dd16d709","system_id":"levelo_inurba_marseille","lat":43.262,"lon":5.37929,"is_reserved":false,"is_disabled":false,"rental_uris":{"android":"levelo://app?vid=b0e82cfd-936d-4179-9645-caf6dd16d709","ios":"levelo://app?vid=b0e82cfd-936d-4179-9645-caf6dd16d709"},"vehicle_type_id":"4","last_reported":1728144617,"current_range_meters":38400,"station_id":"ce4bhjp2rcd13ifvqg90","pricing_plan_id":"cebpf4jnsgd1na2vs0mg"},{"bike_id":"e03c9d0c-17ae-4003-b903-fd8aa9951041","system_id":"levelo_inurba_marseille","lat":43.33754,"lon":5.37451,"is_reserved":false,"is_disabled":false,"rental_uris":{"android":"levelo://app?vid=e03c9d0c-17ae-4003-b903-fd8aa9951041","ios":"levelo://app?vid=e03c9d0c-17ae-4003-b903-fd8aa9951041"},"vehicle_type_id":"4","last_reported":1728144617,"current_range_meters":38400,"station_id":"","pricing_plan_id":"cebpf4jnsgd1na2vs0mg"},{"bike_id":"8c2ff4a9-feaf-4a44-8226-0b8b55177ea4","system_id":"levelo_inurba_marseille","lat":43.29745,"lon":5.37095,"is_reserved":false,"is_disabled":false,"rental_uris":{"android":"levelo://app?vid=8c2ff4a9-feaf-4a44-8226-0b8b55177ea4","ios":"levelo://app?vid=8c2ff4a9-feaf-4a44-8226-0b8b55177ea4"},"vehicle_type_id":"4","last_reported":1728144617,"current_range_meters":2800,"station_id":"ce4bgop2rcd13ifvqc1g","pricing_plan_id":"cebpf4jnsgd1na2vs0mg"},{"bike_id":"410fb360-36f2-4b39-9ed7-7eb235474bb2","system_id":"levelo_inurba_marseille","lat":43.28939,"lon":5.36638,"is_reserved":false,"is_disabled":false,"rental_uris":{"android":"levelo://app?vid=410fb360-36f2-4b39-9ed7-7eb235474bb2","ios":"levelo://app?vid=410fb360-36f2-4b39-9ed7-7eb235474bb2"},"vehicle_type_id":"4","last_reported":1728144617,"current_range_meters":11600,"station_id":"ce4bhap2rcd13ifvqek0","pricing_plan_id":"cebpf4jnsgd1na2vs0mg"},{"bike_id":"aaac7e81-9613-477c-9dbe-60327f589f91","system_id":"levelo_inurba_marseille","lat":43.31711,"lon":5.43704,"is_reserved":false,"is_disabled":false,"rental_uris":{"android":"levelo://app?vid=aaac7e81-9613-477c-9dbe-60327f589f91","ios":"levelo://app?vid=aaac7e81-9613-477c-9dbe-60327f589f91"},"vehicle_type_id":"4","last_reported":1728144617,"current_range_meters":38000,"station_id":"ce4bhp92rcd13ifvqhcg","pricing_plan_id":"cebpf4jnsgd1na2vs0mg"},{"bike_id":"7079ef21-91ce-4964-8468-cc3634144946","system_id":"levelo_inurba_marseille","lat":43.28439,"lon":5.39196,"is_reserved":false,"is_disabled":false,"rental_uris":{"android":"levelo://app?vid=7079ef21-91ce-4964-8468-cc3634144946","ios":"levelo://app?vid=7079ef21-91ce-4964-8468-cc3634144946"},"vehicle_type_id":"4","last_reported":1728144617,"current_range_meters":5600,"station_id":"ce4bhoh2rcd13ifvqh5g","pricing_plan_id":"cebpf4jnsgd1na2vs0mg"},{"bike_id":"2f65af92-a0a7-40f8-b601-a1926760aa1b","system_id":"levelo_inurba_marseille","lat":43.24169,"lon":5.36383,"is_reserved":false,"is_disabled":false,"rental_uris":{"android":"levelo://app?vid=2f65af92-a0a7-40f8-b601-a1926760aa1b","ios":"levelo://app?vid=2f65af92-a0a7-40f8-b601-a1926760aa1b"},"vehicle_type_id":"4","last_reported":1728144617,"current_range_meters":20000,"station_id":"cpo36qri1sfpv3e86is0","pricing_plan_id":"cebpf4jnsgd1na2vs0mg"},{"bike_id":"8aa5824b-b11c-4459-92d4-5d1c785a4120","system_id":"levelo_inurba_marseille","lat":43.26928,"lon":5.38914,"is_reserved":false,"is_disabled":false,"rental_uris":{"android":"levelo://app?vid=8aa5824b-b11c-4459-92d4-5d1c785a4120","ios":"levelo://app?vid=8aa5824b-b11c-4459-92d4-5d1c785a4120"},"vehicle_type_id":"4","last_reported":1728144617,"current_range_meters":24800,"station_id":"ce4bhhh2rcd13ifvqfl0","pricing_plan_id":"cebpf4jnsgd1na2vs0mg"},{"bike_id":"11b00550-6dd2-4296-807f-62bfeca3b30a","system_id":"levelo_inurba_marseille","lat":43.25109,"lon":5.40322,"is_reserved":false,"is_disabled":false,"rental_uris":{"android":"levelo://app?vid=11b00550-6dd2-4296-807f-62bfeca3b30a","ios":"levelo://app?vid=11b00550-6dd2-4296-807f-62bfeca3b30a"},"vehicle_type_id":"4","last_reported":1728144617,"current_range_meters":12000,"station_id":"","pricing_plan_id":"cebpf4jnsgd1na2vs0mg"},{"bike_id":"b6a817d8-5787-46a3-898e-0b46c75fc481","system_id":"levelo_inurba_marseille","lat":43.32965,"lon":5.40344,"is_reserved":false,"is_disabled":false,"rental_uris":{"android":"levelo://app?vid=b6a817d8-5787-46a3-898e-0b46c75fc481","ios":"levelo://app?vid=b6a817d8-5787-46a3-898e-0b46c75fc481"},"vehicle_type_id":"4","last_reported":1728144617,"current_range_meters":5600,"station_id":"","pricing_plan_id":"cebpf4jnsgd1na2vs0mg"},{"bike_id":"6856d22e-440d-40d9-809f-3167dacdbdc3","system_id":"levelo_inurba_marseille","lat":43.337444,"lon":5.374475,"is_reserved":false,"is_disabled":false,"rental_uris":{"android":"levelo://app?vid=6856d22e-440d-40d9-809f-3167dacdbdc3","ios":"levelo://app?vid=6856d22e-440d-40d9-809f-3167dacdbdc3"},"vehicle_type_id":"4","last_reported":1728144617,"current_range_meters":18800,"station_id":"","pricing_plan_id":"cebpf4jnsgd1na2vs0mg"},{"bike_id":"64bd957e-b978-44cb-a85c-928d627d24ec","system_id":"levelo_inurba_marseille","lat":43.35424,"lon":5.35869,"is_reserved":false,"is_disabled":false,"rental_uris":{"android":"levelo://app?vid=64bd957e-b978-44cb-a85c-928d627d24ec","ios":"levelo://app?vid=64bd957e-b978-44cb-a85c-928d627d24ec"},"vehicle_type_id":"4","last_reported":1728144617,"current_range_meters":6800,"station_id":"","pricing_plan_id":"cebpf4jnsgd1na2vs0mg"},{"bike_id":"64995d1a-0a95-43c1-8426-b3115325266b","system_id":"levelo_inurba_marseille","lat":43.27917,"lon":5.42309,"is_reserved":false,"is_disabled":false,"rental_uris":{"android":"levelo://app?vid=64995d1a-0a95-43c1-8426-b3115325266b","ios":"levelo://app?vid=64995d1a-0a95-43c1-8426-b3115325266b"},"vehicle_type_id":"4","last_reported":1728144617,"current_range_meters":16400,"station_id":"","pricing_plan_id":"cebpf4jnsgd1na2vs0mg"},{"bike_id":"19efa9c6-0eee-42bc-8288-1176feaeb485","system_id":"levelo_inurba_marseille","lat":43.2707,"lon":5.42286,"is_reserved":false,"is_disabled":false,"rental_uris":{"android":"levelo://app?vid=19efa9c6-0eee-42bc-8288-1176feaeb485","ios":"levelo://app?vid=19efa9c6-0eee-42bc-8288-1176feaeb485"},"vehicle_type_id":"4","last_reported":1728144617,"current_range_meters":22000,"station_id":"ce4bhk92rcd13ifvqgb0","pricing_plan_id":"cebpf4jnsgd1na2vs0mg"},{"bike_id":"f3564a94-4990-42e2-a0f5-829080a91016","system_id":"levelo_inurba_marseille","lat":43.32109,"lon":5.36774,"is_reserved":false,"is_disabled":false,"rental_uris":{"android":"levelo://app?vid=f3564a94-4990-42e2-a0f5-829080a91016","ios":"levelo://app?vid=f3564a94-4990-42e2-a0f5-829080a91016"},"vehicle_type_id":"4","last_reported":1728144617,"current_range_meters":24400,"station_id":"ce4bhrh2rcd13ifvqhug","pricing_plan_id":"cebpf4jnsgd1na2vs0mg"},{"bike_id":"79d4ce44-dde0-4856-adfb-9d048612b764","system_id":"levelo_inurba_marseille","lat":43.33762,"lon":5.37435,"is_reserved":false,"is_disabled":false,"rental_uris":{"android":"levelo://app?vid=79d4ce44-dde0-4856-adfb-9d048612b764","ios":"levelo://app?vid=79d4ce44-dde0-4856-adfb-9d048612b764"},"vehicle_type_id":"4","last_reported":1728144617,"current_range_meters":38000,"station_id":"","pricing_plan_id":"cebpf4jnsgd1na2vs0mg"},{"bike_id":"6362dd7e-711b-4b82-af8e-291ea8f6ea1e","system_id":"levelo_inurba_marseille","lat":43.33771,"lon":5.37421,"is_reserved":false,"is_disabled":false,"rental_uris":{"android":"levelo://app?vid=6362dd7e-711b-4b82-af8e-291ea8f6ea1e","ios":"levelo://app?vid=6362dd7e-711b-4b82-af8e-291ea8f6ea1e"},"vehicle_type_id":"4","last_reported":1728144617,"current_range_meters":36400,"station_id":"","pricing_plan_id":"cebpf4jnsgd1na2vs0mg"},{"bike_id":"cfedf7d8-a9ca-4d37-89ca-d47197c70202","system_id":"levelo_inurba_marseille","lat":43.27562,"lon":5.38428,"is_reserved":false,"is_disabled":false,"rental_uris":{"android":"levelo://app?vid=cfedf7d8-a9ca-4d37-89ca-d47197c70202","ios":"levelo://app?vid=cfedf7d8-a9ca-4d37-89ca-d47197c70202"},"vehicle_type_id":"4","last_reported":1728144617,"current_range_meters":2000,"station_id":"ce4bhh92rcd13ifvqfi0","pricing_plan_id":"cebpf4jnsgd1na2vs0mg"},{"bike_id":"5305316b-eb43-43cb-bedf-3a735be36892","system_id":"levelo_inurba_marseille","lat":43.31715,"lon":5.43706,"is_reserved":false,"is_disabled":false,"rental_uris":{"android":"levelo://app?vid=5305316b-eb43-43cb-bedf-3a735be36892","ios":"levelo://app?vid=5305316b-eb43-43cb-bedf-3a735be36892"},"vehicle_type_id":"4","last_reported":1728144617,"current_range_meters":36800,"station_id":"ce4bhp92rcd13ifvqhcg","pricing_plan_id":"cebpf4jnsgd1na2vs0mg"},{"bike_id":"5a70020c-4809-425f-aba5-4371bb378910","system_id":"levelo_inurba_marseille","lat":43.304077,"lon":5.388092,"is_reserved":false,"is_disabled":false,"rental_uris":{"android":"levelo://app?vid=5a70020c-4809-425f-aba5-4371bb378910","ios":"levelo://app?vid=5a70020c-4809-425f-aba5-4371bb378910"},"vehicle_type_id":"4","last_reported":1728144617,"current_range_meters":14800,"station_id":"ce4bgk12rcd13ifvqbi0","pricing_plan_id":"cebpf4jnsgd1na2vs0mg"},{"bike_id":"fbad9cbf-d2d3-4efc-be58-b0a7f0e779c7","system_id":"levelo_inurba_marseille","lat":43.231907,"lon":5.355532,"is_reserved":false,"is_disabled":false,"rental_uris":{"android":"levelo://app?vid=fbad9cbf-d2d3-4efc-be58-b0a7f0e779c7","ios":"levelo://app?vid=fbad9cbf-d2d3-4efc-be58-b0a7f0e779c7"},"vehicle_type_id":"4","last_reported":1728144617,"current_range_meters":24000,"station_id":"ce4bhu92rcd13ifvqi70","pricing_plan_id":"cebpf4jnsgd1na2vs0mg"},{"bike_id":"1065fa13-c96e-4ab3-bba9-3bc3a991f59d","system_id":"levelo_inurba_marseille","lat":43.33021,"lon":5.3904,"is_reserved":false,"is_disabled":false,"rental_uris":{"android":"levelo://app?vid=1065fa13-c96e-4ab3-bba9-3bc3a991f59d","ios":"levelo://app?vid=1065fa13-c96e-4ab3-bba9-3bc3a991f59d"},"vehicle_type_id":"4","last_reported":1728144617,"current_range_meters":24400,"station_id":"ce4bhr92rcd13ifvqhrg","pricing_plan_id":"cebpf4jnsgd1na2vs0mg"},{"bike_id":"f0b67e69-8f4b-4c63-be28-9e156e0a7181","system_id":"levelo_inurba_marseille","lat":43.3234,"lon":5.40617,"is_reserved":false,"is_disabled":false,"rental_uris":{"android":"levelo://app?vid=f0b67e69-8f4b-4c63-be28-9e156e0a7181","ios":"levelo://app?vid=f0b67e69-8f4b-4c63-be28-9e156e0a7181"},"vehicle_type_id":"4","last_reported":1728144617,"current_range_meters":32800,"station_id":"ce4bhq92rcd13ifvqhjg","pricing_plan_id":"cebpf4jnsgd1na2vs0mg"},{"bike_id":"f6b8e32a-dba2-47f7-92eb-b33953b900f8","system_id":"levelo_inurba_marseille","lat":43.24179,"lon":5.3973,"is_reserved":false,"is_disabled":false,"rental_uris":{"android":"levelo://app?vid=f6b8e32a-dba2-47f7-92eb-b33953b900f8","ios":"levelo://app?vid=f6b8e32a-dba2-47f7-92eb-b33953b900f8"},"vehicle_type_id":"4","last_reported":1728144617,"current_range_meters":38400,"station_id":"ce4bhn12rcd13ifvqgpg","pricing_plan_id":"cebpf4jnsgd1na2vs0mg"},{"bike_id":"49904e4a-8c4d-4816-9941-dc7b01d7baf3","system_id":"levelo_inurba_marseille","lat":43.29955,"lon":5.38499,"is_reserved":false,"is_disabled":false,"rental_uris":{"android":"levelo://app?vid=49904e4a-8c4d-4816-9941-dc7b01d7baf3","ios":"levelo://app?vid=49904e4a-8c4d-4816-9941-dc7b01d7baf3"},"vehicle_type_id":"4","last_reported":1728144617,"current_range_meters":3200,"station_id":"ce4bgj92rcd13ifvqbd0","pricing_plan_id":"cebpf4jnsgd1na2vs0mg"},{"bike_id":"0aab8c64-1ed5-42cc-b1e0-2d07d3e8bc16","system_id":"levelo_inurba_marseille","lat":43.2737,"lon":5.3625,"is_reserved":false,"is_disabled":false,"rental_uris":{"android":"levelo://app?vid=0aab8c64-1ed5-42cc-b1e0-2d07d3e8bc16","ios":"levelo://app?vid=0aab8c64-1ed5-42cc-b1e0-2d07d3e8bc16"},"vehicle_type_id":"4","last_reported":1728144617,"current_range_meters":36800,"station_id":"ce4bhbh2rcd13ifvqeo0","pricing_plan_id":"cebpf4jnsgd1na2vs0mg"},{"bike_id":"10e2cad8-5b87-4361-a750-816e7c888c91","system_id":"levelo_inurba_marseille","lat":43.33761,"lon":5.37442,"is_reserved":false,"is_disabled":false,"rental_uris":{"android":"levelo://app?vid=10e2cad8-5b87-4361-a750-816e7c888c91","ios":"levelo://app?vid=10e2cad8-5b87-4361-a750-816e7c888c91"},"vehicle_type_id":"4","last_reported":1728144617,"current_range_meters":35600,"station_id":"","pricing_plan_id":"cebpf4jnsgd1na2vs0mg"},{"bike_id":"dbc081ef-c965-4754-a7dd-55bed6ca14e4","system_id":"levelo_inurba_marseille","lat":43.33022,"lon":5.39049,"is_reserved":false,"is_disabled":false,"rental_uris":{"android":"levelo://app?vid=dbc081ef-c965-4754-a7dd-55bed6ca14e4","ios":"levelo://app?vid=dbc081ef-c965-4754-a7dd-55bed6ca14e4"},"vehicle_type_id":"4","last_reported":1728144617,"current_range_meters":7200,"station_id":"ce4bhr92rcd13ifvqhrg","pricing_plan_id":"cebpf4jnsgd1na2vs0mg"},{"bike_id":"a513ccaa-0c27-439e-bc69-84cf7ff60039","system_id":"levelo_inurba_marseille","lat":43.337444,"lon":5.374475,"is_reserved":false,"is_disabled":false,"rental_uris":{"android":"levelo://app?vid=a513ccaa-0c27-439e-bc69-84cf7ff60039","ios":"levelo://app?vid=a513ccaa-0c27-439e-bc69-84cf7ff60039"},"vehicle_type_id":"4","last_reported":1728144617,"current_range_meters":33600,"station_id":"","pricing_plan_id":"cebpf4jnsgd1na2vs0mg"},{"bike_id":"4fd87688-b8be-42ce-af55-a395281345d5","system_id":"levelo_inurba_marseille","lat":43.25491,"lon":5.37655,"is_reserved":false,"is_disabled":false,"rental_uris":{"android":"levelo://app?vid=4fd87688-b8be-42ce-af55-a395281345d5","ios":"levelo://app?vid=4fd87688-b8be-42ce-af55-a395281345d5"},"vehicle_type_id":"4","last_reported":1728144617,"current_range_meters":7200,"station_id":"ce4bhh12rcd13ifvqff0","pricing_plan_id":"cebpf4jnsgd1na2vs0mg"},{"bike_id":"1b3615db-3bd7-44d4-9254-4254caf3f96a","system_id":"levelo_inurba_marseille","lat":43.26941,"lon":5.40246,"is_reserved":false,"is_disabled":false,"rental_uris":{"android":"levelo://app?vid=1b3615db-3bd7-44d4-9254-4254caf3f96a","ios":"levelo://app?vid=1b3615db-3bd7-44d4-9254-4254caf3f96a"},"vehicle_type_id":"4","last_reported":1728144617,"current_range_meters":10800,"station_id":"cjm6bp8fraef2m0cb0m0","pricing_plan_id":"cebpf4jnsgd1na2vs0mg"},{"bike_id":"1a9fe545-c0ea-48a5-92b0-9f7f7d3cd847","system_id":"levelo_inurba_marseille","lat":43.29047,"lon":5.39962,"is_reserved":false,"is_disabled":false,"rental_uris":{"android":"levelo://app?vid=1a9fe545-c0ea-48a5-92b0-9f7f7d3cd847","ios":"levelo://app?vid=1a9fe545-c0ea-48a5-92b0-9f7f7d3cd847"},"vehicle_type_id":"4","last_reported":1728144617,"current_range_meters":7200,"station_id":"ce4bh392rcd13ifvqdm0","pricing_plan_id":"cebpf4jnsgd1na2vs0mg"},{"bike_id":"5c56a3bd-eee6-46f6-9565-18e2d60b4a2a","system_id":"levelo_inurba_marseille","lat":43.33756,"lon":5.37422,"is_reserved":false,"is_disabled":false,"rental_uris":{"android":"levelo://app?vid=5c56a3bd-eee6-46f6-9565-18e2d60b4a2a","ios":"levelo://app?vid=5c56a3bd-eee6-46f6-9565-18e2d60b4a2a"},"vehicle_type_id":"4","last_reported":1728144617,"current_range_meters":38400,"station_id":"","pricing_plan_id":"cebpf4jnsgd1na2vs0mg"},{"bike_id":"c317fd35-d700-43e1-bbef-13fa7bc5e41c","system_id":"levelo_inurba_marseille","lat":43.31265,"lon":5.40168,"is_reserved":false,"is_disabled":false,"rental_uris":{"android":"levelo://app?vid=c317fd35-d700-43e1-bbef-13fa7bc5e41c","ios":"levelo://app?vid=c317fd35-d700-43e1-bbef-13fa7bc5e41c"},"vehicle_type_id":"4","last_reported":1728144617,"current_range_meters":27200,"station_id":"ce4bh092rcd13ifvqd30","pricing_plan_id":"cebpf4jnsgd1na2vs0mg"},{"bike_id":"e315600c-3ff8-4893-abe5-0c310d48465d","system_id":"levelo_inurba_marseille","lat":43.33771,"lon":5.37457,"is_reserved":false,"is_disabled":false,"rental_uris":{"android":"levelo://app?vid=e315600c-3ff8-4893-abe5-0c310d48465d","ios":"levelo://app?vid=e315600c-3ff8-4893-abe5-0c310d48465d"},"vehicle_type_id":"4","last_reported":1728144617,"current_range_meters":32400,"station_id":"","pricing_plan_id":"cebpf4jnsgd1na2vs0mg"},{"bike_id":"de9e8a56-b437-4f39-9190-656d9397c6df","system_id":"levelo_inurba_marseille","lat":43.24167,"lon":5.36396,"is_reserved":false,"is_disabled":false,"rental_uris":{"android":"levelo://app?vid=de9e8a56-b437-4f39-9190-656d9397c6df","ios":"levelo://app?vid=de9e8a56-b437-4f39-9190-656d9397c6df"},"vehicle_type_id":"4","last_reported":1728144617,"current_range_meters":31200,"station_id":"cpo36qri1sfpv3e86is0","pricing_plan_id":"cebpf4jnsgd1na2vs0mg"},{"bike_id":"66553eb5-f2a5-494f-88c7-f208159c9b25","system_id":"levelo_inurba_marseille","lat":43.29622,"lon":5.37151,"is_reserved":false,"is_disabled":false,"rental_uris":{"android":"levelo://app?vid=66553eb5-f2a5-494f-88c7-f208159c9b25","ios":"levelo://app?vid=66553eb5-f2a5-494f-88c7-f208159c9b25"},"vehicle_type_id":"4","last_reported":1728144617,"current_range_meters":37600,"station_id":"ce4bgnh2rcd13ifvqc0g","pricing_plan_id":"cebpf4jnsgd1na2vs0mg"},{"bike_id":"7c445ca0-8121-4fdc-998a-2ba4a137cc97","system_id":"levelo_inurba_marseille","lat":43.23055,"lon":5.35493,"is_reserved":false,"is_disabled":false,"rental_uris":{"android":"levelo://app?vid=7c445ca0-8121-4fdc-998a-2ba4a137cc97","ios":"levelo://app?vid=7c445ca0-8121-4fdc-998a-2ba4a137cc97"},"vehicle_type_id":"4","last_reported":1728144617,"current_range_meters":35200,"station_id":"cpo3342slgdg3j2ifvpg","pricing_plan_id":"cebpf4jnsgd1na2vs0mg"},{"bike_id":"2ff0b89a-55d3-42d5-9b03-a8671db0ab9b","system_id":"levelo_inurba_marseille","lat":43.2942,"lon":5.38628,"is_reserved":false,"is_disabled":false,"rental_uris":{"android":"levelo://app?vid=2ff0b89a-55d3-42d5-9b03-a8671db0ab9b","ios":"levelo://app?vid=2ff0b89a-55d3-42d5-9b03-a8671db0ab9b"},"vehicle_type_id":"4","last_reported":1728144617,"current_range_meters":2000,"station_id":"ce4bh2h2rcd13ifvqdh0","pricing_plan_id":"cebpf4jnsgd1na2vs0mg"},{"bike_id":"6faf0e95-54a6-4a72-b8b0-0d992026fe14","system_id":"levelo_inurba_marseille","lat":43.24643,"lon":5.38894,"is_reserved":false,"is_disabled":false,"rental_uris":{"android":"levelo://app?vid=6faf0e95-54a6-4a72-b8b0-0d992026fe14","ios":"levelo://app?vid=6faf0e95-54a6-4a72-b8b0-0d992026fe14"},"vehicle_type_id":"4","last_reported":1728144617,"current_range_meters":13600,"station_id":"ce4bhg12rcd13ifvqf60","pricing_plan_id":"cebpf4jnsgd1na2vs0mg"},{"bike_id":"9bf9827e-76ca-403b-886e-8179bf12bb03","system_id":"levelo_inurba_marseille","lat":43.28426,"lon":5.34993,"is_reserved":false,"is_disabled":false,"rental_uris":{"android":"levelo://app?vid=9bf9827e-76ca-403b-886e-8179bf12bb03","ios":"levelo://app?vid=9bf9827e-76ca-403b-886e-8179bf12bb03"},"vehicle_type_id":"4","last_reported":1728144617,"current_range_meters":38800,"station_id":"ce4bhbh2rcd13ifvqepg","pricing_plan_id":"cebpf4jnsgd1na2vs0mg"},{"bike_id":"be72174a-c52b-4932-b135-421f56b6f8a6","system_id":"levelo_inurba_marseille","lat":43.29878,"lon":5.38901,"is_reserved":false,"is_disabled":false,"rental_uris":{"android":"levelo://app?vid=be72174a-c52b-4932-b135-421f56b6f8a6","ios":"levelo://app?vid=be72174a-c52b-4932-b135-421f56b6f8a6"},"vehicle_type_id":"4","last_reported":1728144617,"current_range_meters":18800,"station_id":"ce4bh492rcd13ifvqdug","pricing_plan_id":"cebpf4jnsgd1na2vs0mg"},{"bike_id":"740aa9b1-bf7f-495f-b4b6-8c44676bc674","system_id":"levelo_inurba_marseille","lat":43.33752,"lon":5.37444,"is_reserved":false,"is_disabled":false,"rental_uris":{"android":"levelo://app?vid=740aa9b1-bf7f-495f-b4b6-8c44676bc674","ios":"levelo://app?vid=740aa9b1-bf7f-495f-b4b6-8c44676bc674"},"vehicle_type_id":"4","last_reported":1728144617,"current_range_meters":4000,"station_id":"","pricing_plan_id":"cebpf4jnsgd1na2vs0mg"},{"bike_id":"0437c104-5ef2-446e-81e1-c9baca5c17df","system_id":"levelo_inurba_marseille","lat":43.25504,"lon":5.37657,"is_reserved":false,"is_disabled":false,"rental_uris":{"android":"levelo://app?vid=0437c104-5ef2-446e-81e1-c9baca5c17df","ios":"levelo://app?vid=0437c104-5ef2-446e-81e1-c9baca5c17df"},"vehicle_type_id":"4","last_reported":1728144617,"current_range_meters":19200,"station_id":"ce4bhh12rcd13ifvqff0","pricing_plan_id":"cebpf4jnsgd1na2vs0mg"},{"bike_id":"5ca248b0-c413-42f8-9407-c12494c2d1cd","system_id":"levelo_inurba_marseille","lat":43.31696,"lon":5.40474,"is_reserved":false,"is_disabled":false,"rental_uris":{"android":"levelo://app?vid=5ca248b0-c413-42f8-9407-c12494c2d1cd","ios":"levelo://app?vid=5ca248b0-c413-42f8-9407-c12494c2d1cd"},"vehicle_type_id":"4","last_reported":1728144617,"current_range_meters":38800,"station_id":"ce4bh012rcd13ifvqd00","pricing_plan_id":"cebpf4jnsgd1na2vs0mg"},{"bike_id":"77b9203a-0842-4b45-acd8-ada92dfc3441","system_id":"levelo_inurba_marseille","lat":43.29915,"lon":5.38168,"is_reserved":false,"is_disabled":false,"rental_uris":{"android":"levelo://app?vid=77b9203a-0842-4b45-acd8-ada92dfc3441","ios":"levelo://app?vid=77b9203a-0842-4b45-acd8-ada92dfc3441"},"vehicle_type_id":"4","last_reported":1728144617,"current_range_meters":11200,"station_id":"ce4bgj12rcd13ifvqbc0","pricing_plan_id":"cebpf4jnsgd1na2vs0mg"},{"bike_id":"8c61526c-2d67-4b1a-8f32-0018924d753f","system_id":"levelo_inurba_marseille","lat":43.337444,"lon":5.374475,"is_reserved":false,"is_disabled":false,"rental_uris":{"android":"levelo://app?vid=8c61526c-2d67-4b1a-8f32-0018924d753f","ios":"levelo://app?vid=8c61526c-2d67-4b1a-8f32-0018924d753f"},"vehicle_type_id":"4","last_reported":1728144617,"current_range_meters":34000,"station_id":"","pricing_plan_id":"cebpf4jnsgd1na2vs0mg"},{"bike_id":"18dfd22a-cc3a-4457-a9a6-578473897fe6","system_id":"levelo_inurba_marseille","lat":43.2292,"lon":5.35372,"is_reserved":false,"is_disabled":false,"rental_uris":{"android":"levelo://app?vid=18dfd22a-cc3a-4457-a9a6-578473897fe6","ios":"levelo://app?vid=18dfd22a-cc3a-4457-a9a6-578473897fe6"},"vehicle_type_id":"4","last_reported":1728144617,"current_range_meters":16800,"station_id":"cpo3532slgdg3j2ikp40","pricing_plan_id":"cebpf4jnsgd1na2vs0mg"},{"bike_id":"f14a9d4e-5024-441f-8516-20716acd7523","system_id":"levelo_inurba_marseille","lat":43.31708,"lon":5.43695,"is_reserved":false,"is_disabled":false,"rental_uris":{"android":"levelo://app?vid=f14a9d4e-5024-441f-8516-20716acd7523","ios":"levelo://app?vid=f14a9d4e-5024-441f-8516-20716acd7523"},"vehicle_type_id":"4","last_reported":1728144617,"current_range_meters":23200,"station_id":"ce4bhp92rcd13ifvqhcg","pricing_plan_id":"cebpf4jnsgd1na2vs0mg"},{"bike_id":"2ea3c65f-eb35-465e-a9bb-78634b530d14","system_id":"levelo_inurba_marseille","lat":43.28982,"lon":5.36601,"is_reserved":false,"is_disabled":false,"rental_uris":{"android":"levelo://app?vid=2ea3c65f-eb35-465e-a9bb-78634b530d14","ios":"levelo://app?vid=2ea3c65f-eb35-465e-a9bb-78634b530d14"},"vehicle_type_id":"4","last_reported":1728144617,"current_range_meters":16400,"station_id":"ce4bhap2rcd13ifvqek0","pricing_plan_id":"cebpf4jnsgd1na2vs0mg"},{"bike_id":"63547948-37a3-4f2e-8a1b-ef9860817887","system_id":"levelo_inurba_marseille","lat":43.3064,"lon":5.40103,"is_reserved":false,"is_disabled":false,"rental_uris":{"android":"levelo://app?vid=63547948-37a3-4f2e-8a1b-ef9860817887","ios":"levelo://app?vid=63547948-37a3-4f2e-8a1b-ef9860817887"},"vehicle_type_id":"4","last_reported":1728144617,"current_range_meters":38800,"station_id":"ce4bh112rcd13ifvqda0","pricing_plan_id":"cebpf4jnsgd1na2vs0mg"},{"bike_id":"372ec9d8-de28-4d0d-8197-e87731f4b2a9","system_id":"levelo_inurba_marseille","lat":43.29697,"lon":5.3661,"is_reserved":false,"is_disabled":false,"rental_uris":{"android":"levelo://app?vid=372ec9d8-de28-4d0d-8197-e87731f4b2a9","ios":"levelo://app?vid=372ec9d8-de28-4d0d-8197-e87731f4b2a9"},"vehicle_type_id":"4","last_reported":1728144617,"current_range_meters":38800,"station_id":"ce4bgn12rcd13ifvqbt0","pricing_plan_id":"cebpf4jnsgd1na2vs0mg"},{"bike_id":"6b315d99-3ae8-4acd-8c24-9531c7a83eb8","system_id":"levelo_inurba_marseille","lat":43.23068,"lon":5.35491,"is_reserved":false,"is_disabled":false,"rental_uris":{"android":"levelo://app?vid=6b315d99-3ae8-4acd-8c24-9531c7a83eb8","ios":"levelo://app?vid=6b315d99-3ae8-4acd-8c24-9531c7a83eb8"},"vehicle_type_id":"4","last_reported":1728144617,"current_range_meters":12400,"station_id":"cpo3342slgdg3j2ifvpg","pricing_plan_id":"cebpf4jnsgd1na2vs0mg"},{"bike_id":"95fc0da9-7b6e-403c-b4a8-5934766f57d2","system_id":"levelo_inurba_marseille","lat":43.26494,"lon":5.39543,"is_reserved":false,"is_disabled":false,"rental_uris":{"android":"levelo://app?vid=95fc0da9-7b6e-403c-b4a8-5934766f57d2","ios":"levelo://app?vid=95fc0da9-7b6e-403c-b4a8-5934766f57d2"},"vehicle_type_id":"4","last_reported":1728144617,"current_range_meters":8000,"station_id":"ce4bhi12rcd13ifvqfq0","pricing_plan_id":"cebpf4jnsgd1na2vs0mg"},{"bike_id":"683f58e6-db07-4a6d-9961-fff34692be53","system_id":"levelo_inurba_marseille","lat":43.27374,"lon":5.36257,"is_reserved":false,"is_disabled":false,"rental_uris":{"android":"levelo://app?vid=683f58e6-db07-4a6d-9961-fff34692be53","ios":"levelo://app?vid=683f58e6-db07-4a6d-9961-fff34692be53"},"vehicle_type_id":"4","last_reported":1728144617,"current_range_meters":38000,"station_id":"ce4bhbh2rcd13ifvqeo0","pricing_plan_id":"cebpf4jnsgd1na2vs0mg"},{"bike_id":"9eb53b89-7a05-44e2-923b-44f4ecd2f358","system_id":"levelo_inurba_marseille","lat":43.337444,"lon":5.374475,"is_reserved":false,"is_disabled":false,"rental_uris":{"android":"levelo://app?vid=9eb53b89-7a05-44e2-923b-44f4ecd2f358","ios":"levelo://app?vid=9eb53b89-7a05-44e2-923b-44f4ecd2f358"},"vehicle_type_id":"4","last_reported":1728144617,"current_range_meters":30000,"station_id":"","pricing_plan_id":"cebpf4jnsgd1na2vs0mg"},{"bike_id":"baef48f4-aa5b-4b9a-a9fa-7ec8c5cb3df1","system_id":"levelo_inurba_marseille","lat":43.30951,"lon":5.39053,"is_reserved":false,"is_disabled":false,"rental_uris":{"android":"levelo://app?vid=baef48f4-aa5b-4b9a-a9fa-7ec8c5cb3df1","ios":"levelo://app?vid=baef48f4-aa5b-4b9a-a9fa-7ec8c5cb3df1"},"vehicle_type_id":"4","last_reported":1728144617,"current_range_meters":2000,"station_id":"ce4bgup2rcd13ifvqco0","pricing_plan_id":"cebpf4jnsgd1na2vs0mg"},{"bike_id":"ceb60d62-385e-4837-9c20-c0df3e73b9b6","system_id":"levelo_inurba_marseille","lat":43.28936,"lon":5.36629,"is_reserved":false,"is_disabled":false,"rental_uris":{"android":"levelo://app?vid=ceb60d62-385e-4837-9c20-c0df3e73b9b6","ios":"levelo://app?vid=ceb60d62-385e-4837-9c20-c0df3e73b9b6"},"vehicle_type_id":"4","last_reported":1728144617,"current_range_meters":8000,"station_id":"ce4bhap2rcd13ifvqek0","pricing_plan_id":"cebpf4jnsgd1na2vs0mg"},{"bike_id":"2eb1180c-3c37-45a8-8c05-d2fd624d984f","system_id":"levelo_inurba_marseille","lat":43.33756,"lon":5.37443,"is_reserved":false,"is_disabled":false,"rental_uris":{"android":"levelo://app?vid=2eb1180c-3c37-45a8-8c05-d2fd624d984f","ios":"levelo://app?vid=2eb1180c-3c37-45a8-8c05-d2fd624d984f"},"vehicle_type_id":"4","last_reported":1728144617,"current_range_meters":36400,"station_id":"","pricing_plan_id":"cebpf4jnsgd1na2vs0mg"},{"bike_id":"ef61505a-f3df-44d9-8669-c09b90d9aac3","system_id":"levelo_inurba_marseille","lat":43.29615,"lon":5.37724,"is_reserved":false,"is_disabled":false,"rental_uris":{"android":"levelo://app?vid=ef61505a-f3df-44d9-8669-c09b90d9aac3","ios":"levelo://app?vid=ef61505a-f3df-44d9-8669-c09b90d9aac3"},"vehicle_type_id":"4","last_reported":1728144617,"current_range_meters":4000,"station_id":"ce4bgi92rcd13ifvqb90","pricing_plan_id":"cebpf4jnsgd1na2vs0mg"},{"bike_id":"109ac657-120d-4541-bdf2-05b3f8d623dc","system_id":"levelo_inurba_marseille","lat":43.26686,"lon":5.38274,"is_reserved":false,"is_disabled":false,"rental_uris":{"android":"levelo://app?vid=109ac657-120d-4541-bdf2-05b3f8d623dc","ios":"levelo://app?vid=109ac657-120d-4541-bdf2-05b3f8d623dc"},"vehicle_type_id":"4","last_reported":1728144617,"current_range_meters":4800,"station_id":"ce4bhg92rcd13ifvqf90","pricing_plan_id":"cebpf4jnsgd1na2vs0mg"},{"bike_id":"646f049a-bd58-4f89-9823-3458546cc112","system_id":"levelo_inurba_marseille","lat":43.275769,"lon":5.389215,"is_reserved":false,"is_disabled":false,"rental_uris":{"android":"levelo://app?vid=646f049a-bd58-4f89-9823-3458546cc112","ios":"levelo://app?vid=646f049a-bd58-4f89-9823-3458546cc112"},"vehicle_type_id":"4","last_reported":1728144617,"current_range_meters":4400,"station_id":"ce4bhi12rcd13ifvqfo0","pricing_plan_id":"cebpf4jnsgd1na2vs0mg"},{"bike_id":"e6b1c08e-8354-433a-b4a7-036567da6f65","system_id":"levelo_inurba_marseille","lat":43.31712,"lon":5.43706,"is_reserved":false,"is_disabled":false,"rental_uris":{"android":"levelo://app?vid=e6b1c08e-8354-433a-b4a7-036567da6f65","ios":"levelo://app?vid=e6b1c08e-8354-433a-b4a7-036567da6f65"},"vehicle_type_id":"4","last_reported":1728144617,"current_range_meters":36400,"station_id":"ce4bhp92rcd13ifvqhcg","pricing_plan_id":"cebpf4jnsgd1na2vs0mg"},{"bike_id":"f893ef82-247f-4700-b8ff-dcc6c5117532","system_id":"levelo_inurba_marseille","lat":43.28902,"lon":5.42922,"is_reserved":false,"is_disabled":false,"rental_uris":{"android":"levelo://app?vid=f893ef82-247f-4700-b8ff-dcc6c5117532","ios":"levelo://app?vid=f893ef82-247f-4700-b8ff-dcc6c5117532"},"vehicle_type_id":"4","last_reported":1728144617,"current_range_meters":14000,"station_id":"","pricing_plan_id":"cebpf4jnsgd1na2vs0mg"},{"bike_id":"9500b63d-34ef-40f1-864f-605753d1ed08","system_id":"levelo_inurba_marseille","lat":43.2738,"lon":5.36251,"is_reserved":false,"is_disabled":false,"rental_uris":{"android":"levelo://app?vid=9500b63d-34ef-40f1-864f-605753d1ed08","ios":"levelo://app?vid=9500b63d-34ef-40f1-864f-605753d1ed08"},"vehicle_type_id":"4","last_reported":1728144617,"current_range_meters":38000,"station_id":"ce4bhbh2rcd13ifvqeo0","pricing_plan_id":"cebpf4jnsgd1na2vs0mg"},{"bike_id":"2d547c7d-8538-4aeb-8dbe-bc9144600c89","system_id":"levelo_inurba_marseille","lat":43.22924,"lon":5.3537,"is_reserved":false,"is_disabled":false,"rental_uris":{"android":"levelo://app?vid=2d547c7d-8538-4aeb-8dbe-bc9144600c89","ios":"levelo://app?vid=2d547c7d-8538-4aeb-8dbe-bc9144600c89"},"vehicle_type_id":"4","last_reported":1728144617,"current_range_meters":21600,"station_id":"cpo3532slgdg3j2ikp40","pricing_plan_id":"cebpf4jnsgd1na2vs0mg"},{"bike_id":"18d382b1-9ab7-44fd-98b7-cf71e9b3c6bc","system_id":"levelo_inurba_marseille","lat":43.33028,"lon":5.39046,"is_reserved":false,"is_disabled":false,"rental_uris":{"android":"levelo://app?vid=18d382b1-9ab7-44fd-98b7-cf71e9b3c6bc","ios":"levelo://app?vid=18d382b1-9ab7-44fd-98b7-cf71e9b3c6bc"},"vehicle_type_id":"4","last_reported":1728144617,"current_range_meters":1600,"station_id":"ce4bhr92rcd13ifvqhrg","pricing_plan_id":"cebpf4jnsgd1na2vs0mg"},{"bike_id":"2f46e033-90b6-4a28-99ad-19cbf2a88814","system_id":"levelo_inurba_marseille","lat":43.25086,"lon":5.3952,"is_reserved":false,"is_disabled":false,"rental_uris":{"android":"levelo://app?vid=2f46e033-90b6-4a28-99ad-19cbf2a88814","ios":"levelo://app?vid=2f46e033-90b6-4a28-99ad-19cbf2a88814"},"vehicle_type_id":"4","last_reported":1728144617,"current_range_meters":18800,"station_id":"ce4bhm12rcd13ifvqgkg","pricing_plan_id":"cebpf4jnsgd1na2vs0mg"},{"bike_id":"fea12692-2a5c-4e15-a83e-def0d2eed64b","system_id":"levelo_inurba_marseille","lat":43.26936,"lon":5.38924,"is_reserved":false,"is_disabled":false,"rental_uris":{"android":"levelo://app?vid=fea12692-2a5c-4e15-a83e-def0d2eed64b","ios":"levelo://app?vid=fea12692-2a5c-4e15-a83e-def0d2eed64b"},"vehicle_type_id":"4","last_reported":1728144617,"current_range_meters":6000,"station_id":"ce4bhhh2rcd13ifvqfl0","pricing_plan_id":"cebpf4jnsgd1na2vs0mg"},{"bike_id":"045ee71b-00d0-4a60-a8fe-285c2fd72dc9","system_id":"levelo_inurba_marseille","lat":43.30573,"lon":5.3655,"is_reserved":false,"is_disabled":false,"rental_uris":{"android":"levelo://app?vid=045ee71b-00d0-4a60-a8fe-285c2fd72dc9","ios":"levelo://app?vid=045ee71b-00d0-4a60-a8fe-285c2fd72dc9"},"vehicle_type_id":"4","last_reported":1728144617,"current_range_meters":10800,"station_id":"ce4bgs12rcd13ifvqcag","pricing_plan_id":"cebpf4jnsgd1na2vs0mg"},{"bike_id":"846984a2-b212-4bbb-a13a-656e47b7f4d4","system_id":"levelo_inurba_marseille","lat":43.291237,"lon":5.360563,"is_reserved":false,"is_disabled":false,"rental_uris":{"android":"levelo://app?vid=846984a2-b212-4bbb-a13a-656e47b7f4d4","ios":"levelo://app?vid=846984a2-b212-4bbb-a13a-656e47b7f4d4"},"vehicle_type_id":"4","last_reported":1728144617,"current_range_meters":16000,"station_id":"","pricing_plan_id":"cebpf4jnsgd1na2vs0mg"},{"bike_id":"e32a3735-2581-4f5c-b7a2-14129a3cb4fb","system_id":"levelo_inurba_marseille","lat":43.305389,"lon":5.36544,"is_reserved":false,"is_disabled":false,"rental_uris":{"android":"levelo://app?vid=e32a3735-2581-4f5c-b7a2-14129a3cb4fb","ios":"levelo://app?vid=e32a3735-2581-4f5c-b7a2-14129a3cb4fb"},"vehicle_type_id":"4","last_reported":1728144617,"current_range_meters":15200,"station_id":"ce4bgs12rcd13ifvqcag","pricing_plan_id":"cebpf4jnsgd1na2vs0mg"},{"bike_id":"d23a4f03-6ec0-4ece-81ea-75a978d5b687","system_id":"levelo_inurba_marseille","lat":43.3377,"lon":5.37463,"is_reserved":false,"is_disabled":false,"rental_uris":{"android":"levelo://app?vid=d23a4f03-6ec0-4ece-81ea-75a978d5b687","ios":"levelo://app?vid=d23a4f03-6ec0-4ece-81ea-75a978d5b687"},"vehicle_type_id":"4","last_reported":1728144617,"current_range_meters":32400,"station_id":"","pricing_plan_id":"cebpf4jnsgd1na2vs0mg"},{"bike_id":"de126acc-09fc-4c0e-977a-1087e93f6bec","system_id":"levelo_inurba_marseille","lat":43.23197,"lon":5.35555,"is_reserved":false,"is_disabled":false,"rental_uris":{"android":"levelo://app?vid=de126acc-09fc-4c0e-977a-1087e93f6bec","ios":"levelo://app?vid=de126acc-09fc-4c0e-977a-1087e93f6bec"},"vehicle_type_id":"4","last_reported":1728144617,"current_range_meters":38800,"station_id":"ce4bhu92rcd13ifvqi70","pricing_plan_id":"cebpf4jnsgd1na2vs0mg"},{"bike_id":"b1715461-dd3d-481a-8284-e9e3153feba3","system_id":"levelo_inurba_marseille","lat":43.24079,"lon":5.3775,"is_reserved":false,"is_disabled":false,"rental_uris":{"android":"levelo://app?vid=b1715461-dd3d-481a-8284-e9e3153feba3","ios":"levelo://app?vid=b1715461-dd3d-481a-8284-e9e3153feba3"},"vehicle_type_id":"4","last_reported":1728144617,"current_range_meters":16400,"station_id":"ce4bhnp2rcd13ifvqgvg","pricing_plan_id":"cebpf4jnsgd1na2vs0mg"},{"bike_id":"33e2abcb-6309-404e-a282-2a31f7fa0536","system_id":"levelo_inurba_marseille","lat":43.26806,"lon":5.40263,"is_reserved":false,"is_disabled":false,"rental_uris":{"android":"levelo://app?vid=33e2abcb-6309-404e-a282-2a31f7fa0536","ios":"levelo://app?vid=33e2abcb-6309-404e-a282-2a31f7fa0536"},"vehicle_type_id":"4","last_reported":1728144617,"current_range_meters":19600,"station_id":"ce501612rcd8frsf0b60","pricing_plan_id":"cebpf4jnsgd1na2vs0mg"},{"bike_id":"2fc5050f-b036-4255-a193-23eec2fec7cc","system_id":"levelo_inurba_marseille","lat":43.23061,"lon":5.35487,"is_reserved":false,"is_disabled":false,"rental_uris":{"android":"levelo://app?vid=2fc5050f-b036-4255-a193-23eec2fec7cc","ios":"levelo://app?vid=2fc5050f-b036-4255-a193-23eec2fec7cc"},"vehicle_type_id":"4","last_reported":1728144617,"current_range_meters":33200,"station_id":"cpo3342slgdg3j2ifvpg","pricing_plan_id":"cebpf4jnsgd1na2vs0mg"},{"bike_id":"ea689063-878e-4920-9027-f9ba73cbb66f","system_id":"levelo_inurba_marseille","lat":43.23191,"lon":5.35558,"is_reserved":false,"is_disabled":false,"rental_uris":{"android":"levelo://app?vid=ea689063-878e-4920-9027-f9ba73cbb66f","ios":"levelo://app?vid=ea689063-878e-4920-9027-f9ba73cbb66f"},"vehicle_type_id":"4","last_reported":1728144617,"current_range_meters":16000,"station_id":"ce4bhu92rcd13ifvqi70","pricing_plan_id":"cebpf4jnsgd1na2vs0mg"},{"bike_id":"90d63c3c-7227-4cd8-8b04-c61f67f74543","system_id":"levelo_inurba_marseille","lat":43.337444,"lon":5.374475,"is_reserved":false,"is_disabled":false,"rental_uris":{"android":"levelo://app?vid=90d63c3c-7227-4cd8-8b04-c61f67f74543","ios":"levelo://app?vid=90d63c3c-7227-4cd8-8b04-c61f67f74543"},"vehicle_type_id":"4","last_reported":1728144617,"current_range_meters":16800,"station_id":"","pricing_plan_id":"cebpf4jnsgd1na2vs0mg"},{"bike_id":"03321d55-5448-41b6-86cb-edb801d88e7b","system_id":"levelo_inurba_marseille","lat":43.23058,"lon":5.35494,"is_reserved":false,"is_disabled":false,"rental_uris":{"android":"levelo://app?vid=03321d55-5448-41b6-86cb-edb801d88e7b","ios":"levelo://app?vid=03321d55-5448-41b6-86cb-edb801d88e7b"},"vehicle_type_id":"4","last_reported":1728144617,"current_range_meters":6800,"station_id":"cpo3342slgdg3j2ifvpg","pricing_plan_id":"cebpf4jnsgd1na2vs0mg"},{"bike_id":"808afd5a-4f53-48e9-a3c7-740f8376e87d","system_id":"levelo_inurba_marseille","lat":43.31331,"lon":5.39691,"is_reserved":false,"is_disabled":false,"rental_uris":{"android":"levelo://app?vid=808afd5a-4f53-48e9-a3c7-740f8376e87d","ios":"levelo://app?vid=808afd5a-4f53-48e9-a3c7-740f8376e87d"},"vehicle_type_id":"4","last_reported":1728144617,"current_range_meters":13600,"station_id":"ce4bgvp2rcd13ifvqcu0","pricing_plan_id":"cebpf4jnsgd1na2vs0mg"},{"bike_id":"93c139e8-9d29-4aa3-953c-9e34f514bf47","system_id":"levelo_inurba_marseille","lat":43.28156,"lon":5.42644,"is_reserved":false,"is_disabled":false,"rental_uris":{"android":"levelo://app?vid=93c139e8-9d29-4aa3-953c-9e34f514bf47","ios":"levelo://app?vid=93c139e8-9d29-4aa3-953c-9e34f514bf47"},"vehicle_type_id":"4","last_reported":1728144617,"current_range_meters":7200,"station_id":"ce4bhnh2rcd13ifvqgug","pricing_plan_id":"cebpf4jnsgd1na2vs0mg"},{"bike_id":"2419ddca-0d8d-4103-9615-072df250ec0a","system_id":"levelo_inurba_marseille","lat":43.29423,"lon":5.38623,"is_reserved":false,"is_disabled":false,"rental_uris":{"android":"levelo://app?vid=2419ddca-0d8d-4103-9615-072df250ec0a","ios":"levelo://app?vid=2419ddca-0d8d-4103-9615-072df250ec0a"},"vehicle_type_id":"4","last_reported":1728144617,"current_range_meters":22000,"station_id":"ce4bh2h2rcd13ifvqdh0","pricing_plan_id":"cebpf4jnsgd1na2vs0mg"},{"bike_id":"90aa7124-0c03-4462-ad45-877719dc95ac","system_id":"levelo_inurba_marseille","lat":43.31994,"lon":5.38157,"is_reserved":false,"is_disabled":false,"rental_uris":{"android":"levelo://app?vid=90aa7124-0c03-4462-ad45-877719dc95ac","ios":"levelo://app?vid=90aa7124-0c03-4462-ad45-877719dc95ac"},"vehicle_type_id":"4","last_reported":1728144617,"current_range_meters":32400,"station_id":"ce4bhr12rcd13ifvqhpg","pricing_plan_id":"cebpf4jnsgd1na2vs0mg"},{"bike_id":"ed77d97c-f53a-4bba-99e9-9224aff56b03","system_id":"levelo_inurba_marseille","lat":43.2997,"lon":5.38484,"is_reserved":false,"is_disabled":false,"rental_uris":{"android":"levelo://app?vid=ed77d97c-f53a-4bba-99e9-9224aff56b03","ios":"levelo://app?vid=ed77d97c-f53a-4bba-99e9-9224aff56b03"},"vehicle_type_id":"4","last_reported":1728144617,"current_range_meters":30800,"station_id":"ce4bgj92rcd13ifvqbd0","pricing_plan_id":"cebpf4jnsgd1na2vs0mg"},{"bike_id":"b061ddf8-45a6-46a3-83a8-45dfbcfa1514","system_id":"levelo_inurba_marseille","lat":43.277069,"lon":5.388531,"is_reserved":false,"is_disabled":false,"rental_uris":{"android":"levelo://app?vid=b061ddf8-45a6-46a3-83a8-45dfbcfa1514","ios":"levelo://app?vid=b061ddf8-45a6-46a3-83a8-45dfbcfa1514"},"vehicle_type_id":"4","last_reported":1728144617,"current_range_meters":9200,"station_id":"ce4bhi12rcd13ifvqfo0","pricing_plan_id":"cebpf4jnsgd1na2vs0mg"},{"bike_id":"b6615ae2-888c-4a3d-8f51-ebaad8d49251","system_id":"levelo_inurba_marseille","lat":43.30274,"lon":5.37715,"is_reserved":false,"is_disabled":false,"rental_uris":{"android":"levelo://app?vid=b6615ae2-888c-4a3d-8f51-ebaad8d49251","ios":"levelo://app?vid=b6615ae2-888c-4a3d-8f51-ebaad8d49251"},"vehicle_type_id":"4","last_reported":1728144617,"current_range_meters":16400,"station_id":"ce4bguh2rcd13ifvqcj0","pricing_plan_id":"cebpf4jnsgd1na2vs0mg"},{"bike_id":"199c18c7-77fd-44f3-95d9-8d7b04ccab44","system_id":"levelo_inurba_marseille","lat":43.33757,"lon":5.37447,"is_reserved":false,"is_disabled":false,"rental_uris":{"android":"levelo://app?vid=199c18c7-77fd-44f3-95d9-8d7b04ccab44","ios":"levelo://app?vid=199c18c7-77fd-44f3-95d9-8d7b04ccab44"},"vehicle_type_id":"4","last_reported":1728144617,"current_range_meters":38000,"station_id":"","pricing_plan_id":"cebpf4jnsgd1na2vs0mg"},{"bike_id":"8fac16df-4260-4e5a-aff6-2a1ae407f264","system_id":"levelo_inurba_marseille","lat":43.27841,"lon":5.39216,"is_reserved":false,"is_disabled":false,"rental_uris":{"android":"levelo://app?vid=8fac16df-4260-4e5a-aff6-2a1ae407f264","ios":"levelo://app?vid=8fac16df-4260-4e5a-aff6-2a1ae407f264"},"vehicle_type_id":"4","last_reported":1728144617,"current_range_meters":5600,"station_id":"ce4bhjp2rcd13ifvqga0","pricing_plan_id":"cebpf4jnsgd1na2vs0mg"},{"bike_id":"883d44cf-cb8b-43de-b53a-de5363c15da8","system_id":"levelo_inurba_marseille","lat":43.31696,"lon":5.37749,"is_reserved":false,"is_disabled":false,"rental_uris":{"android":"levelo://app?vid=883d44cf-cb8b-43de-b53a-de5363c15da8","ios":"levelo://app?vid=883d44cf-cb8b-43de-b53a-de5363c15da8"},"vehicle_type_id":"4","last_reported":1728144617,"current_range_meters":32400,"station_id":"ce4bgth2rcd13ifvqch0","pricing_plan_id":"cebpf4jnsgd1na2vs0mg"},{"bike_id":"cd6ad76e-c73e-4ff8-8d21-be2d3d9e7164","system_id":"levelo_inurba_marseille","lat":43.27375,"lon":5.36255,"is_reserved":false,"is_disabled":false,"rental_uris":{"android":"levelo://app?vid=cd6ad76e-c73e-4ff8-8d21-be2d3d9e7164","ios":"levelo://app?vid=cd6ad76e-c73e-4ff8-8d21-be2d3d9e7164"},"vehicle_type_id":"4","last_reported":1728144617,"current_range_meters":36800,"station_id":"ce4bhbh2rcd13ifvqeo0","pricing_plan_id":"cebpf4jnsgd1na2vs0mg"},{"bike_id":"c9f5ce71-4694-43a4-b54f-93707da65a3d","system_id":"levelo_inurba_marseille","lat":43.2972,"lon":5.3769,"is_reserved":false,"is_disabled":false,"rental_uris":{"android":"levelo://app?vid=c9f5ce71-4694-43a4-b54f-93707da65a3d","ios":"levelo://app?vid=c9f5ce71-4694-43a4-b54f-93707da65a3d"},"vehicle_type_id":"4","last_reported":1728144617,"current_range_meters":38800,"station_id":"ce4bgkh2rcd13ifvqbl0","pricing_plan_id":"cebpf4jnsgd1na2vs0mg"},{"bike_id":"d713615d-dacd-4fcb-9fda-e73e32bbdf61","system_id":"levelo_inurba_marseille","lat":43.3377,"lon":5.37444,"is_reserved":false,"is_disabled":false,"rental_uris":{"android":"levelo://app?vid=d713615d-dacd-4fcb-9fda-e73e32bbdf61","ios":"levelo://app?vid=d713615d-dacd-4fcb-9fda-e73e32bbdf61"},"vehicle_type_id":"4","last_reported":1728144617,"current_range_meters":35600,"station_id":"","pricing_plan_id":"cebpf4jnsgd1na2vs0mg"},{"bike_id":"44d078af-1354-4a46-b3ef-5f9b5308e91f","system_id":"levelo_inurba_marseille","lat":43.2396,"lon":5.3662,"is_reserved":false,"is_disabled":false,"rental_uris":{"android":"levelo://app?vid=44d078af-1354-4a46-b3ef-5f9b5308e91f","ios":"levelo://app?vid=44d078af-1354-4a46-b3ef-5f9b5308e91f"},"vehicle_type_id":"4","last_reported":1728144617,"current_range_meters":6400,"station_id":"ce4bhi12rcd13ifvqfp0","pricing_plan_id":"cebpf4jnsgd1na2vs0mg"},{"bike_id":"3eb0ffbe-c5c9-4d53-a823-d62aae1d7ff7","system_id":"levelo_inurba_marseille","lat":43.29528,"lon":5.37504,"is_reserved":false,"is_disabled":false,"rental_uris":{"android":"levelo://app?vid=3eb0ffbe-c5c9-4d53-a823-d62aae1d7ff7","ios":"levelo://app?vid=3eb0ffbe-c5c9-4d53-a823-d62aae1d7ff7"},"vehicle_type_id":"4","last_reported":1728144617,"current_range_meters":36400,"station_id":"ce4bgkp2rcd13ifvqbmg","pricing_plan_id":"cebpf4jnsgd1na2vs0mg"},{"bike_id":"c99ac05d-cf84-426c-9fdb-238ee6b78a30","system_id":"levelo_inurba_marseille","lat":43.26051,"lon":5.39398,"is_reserved":false,"is_disabled":false,"rental_uris":{"android":"levelo://app?vid=c99ac05d-cf84-426c-9fdb-238ee6b78a30","ios":"levelo://app?vid=c99ac05d-cf84-426c-9fdb-238ee6b78a30"},"vehicle_type_id":"4","last_reported":1728144617,"current_range_meters":23200,"station_id":"ce4bhh92rcd13ifvqfj0","pricing_plan_id":"cebpf4jnsgd1na2vs0mg"},{"bike_id":"81a1dfa8-7fad-4d7a-b1eb-1c5a93f70207","system_id":"levelo_inurba_marseille","lat":43.32384,"lon":5.38914,"is_reserved":false,"is_disabled":false,"rental_uris":{"android":"levelo://app?vid=81a1dfa8-7fad-4d7a-b1eb-1c5a93f70207","ios":"levelo://app?vid=81a1dfa8-7fad-4d7a-b1eb-1c5a93f70207"},"vehicle_type_id":"4","last_reported":1728144617,"current_range_meters":33200,"station_id":"ce4bhqp2rcd13ifvqhog","pricing_plan_id":"cebpf4jnsgd1na2vs0mg"},{"bike_id":"6e7041f8-f6bb-4a55-943f-ce455145cffb","system_id":"levelo_inurba_marseille","lat":43.30795,"lon":5.43517,"is_reserved":false,"is_disabled":false,"rental_uris":{"android":"levelo://app?vid=6e7041f8-f6bb-4a55-943f-ce455145cffb","ios":"levelo://app?vid=6e7041f8-f6bb-4a55-943f-ce455145cffb"},"vehicle_type_id":"4","last_reported":1728144617,"current_range_meters":4400,"station_id":"ce4bhph2rcd13ifvqheg","pricing_plan_id":"cebpf4jnsgd1na2vs0mg"},{"bike_id":"4b9cdb61-fa3b-40ce-bfef-8149f1040432","system_id":"levelo_inurba_marseille","lat":43.23063,"lon":5.35488,"is_reserved":false,"is_disabled":false,"rental_uris":{"android":"levelo://app?vid=4b9cdb61-fa3b-40ce-bfef-8149f1040432","ios":"levelo://app?vid=4b9cdb61-fa3b-40ce-bfef-8149f1040432"},"vehicle_type_id":"4","last_reported":1728144617,"current_range_meters":14400,"station_id":"cpo3342slgdg3j2ifvpg","pricing_plan_id":"cebpf4jnsgd1na2vs0mg"},{"bike_id":"a23e41f9-7047-4d3e-8d8c-8287d3e0d59b","system_id":"levelo_inurba_marseille","lat":43.25,"lon":5.38923,"is_reserved":false,"is_disabled":false,"rental_uris":{"android":"levelo://app?vid=a23e41f9-7047-4d3e-8d8c-8287d3e0d59b","ios":"levelo://app?vid=a23e41f9-7047-4d3e-8d8c-8287d3e0d59b"},"vehicle_type_id":"4","last_reported":1728144617,"current_range_meters":35200,"station_id":"ce4bhgp2rcd13ifvqfd0","pricing_plan_id":"cebpf4jnsgd1na2vs0mg"},{"bike_id":"00d90f90-2db9-4f03-97bd-adfc513f78cb","system_id":"levelo_inurba_marseille","lat":43.32529,"lon":5.41442,"is_reserved":false,"is_disabled":false,"rental_uris":{"android":"levelo://app?vid=00d90f90-2db9-4f03-97bd-adfc513f78cb","ios":"levelo://app?vid=00d90f90-2db9-4f03-97bd-adfc513f78cb"},"vehicle_type_id":"4","last_reported":1728144617,"current_range_meters":38800,"station_id":"ce4bhq12rcd13ifvqhhg","pricing_plan_id":"cebpf4jnsgd1na2vs0mg"},{"bike_id":"416229d2-1fd6-4763-832a-3f30c2408b99","system_id":"levelo_inurba_marseille","lat":43.28421,"lon":5.34979,"is_reserved":false,"is_disabled":false,"rental_uris":{"android":"levelo://app?vid=416229d2-1fd6-4763-832a-3f30c2408b99","ios":"levelo://app?vid=416229d2-1fd6-4763-832a-3f30c2408b99"},"vehicle_type_id":"4","last_reported":1728144617,"current_range_meters":26000,"station_id":"ce4bhbh2rcd13ifvqepg","pricing_plan_id":"cebpf4jnsgd1na2vs0mg"},{"bike_id":"cf806379-21cd-45d3-b6ec-060a98f8334d","system_id":"levelo_inurba_marseille","lat":43.23068,"lon":5.35491,"is_reserved":false,"is_disabled":false,"rental_uris":{"android":"levelo://app?vid=cf806379-21cd-45d3-b6ec-060a98f8334d","ios":"levelo://app?vid=cf806379-21cd-45d3-b6ec-060a98f8334d"},"vehicle_type_id":"4","last_reported":1728144617,"current_range_meters":20000,"station_id":"cpo3342slgdg3j2ifvpg","pricing_plan_id":"cebpf4jnsgd1na2vs0mg"},{"bike_id":"f2d097ae-30d3-4204-a966-e3ea08853967","system_id":"levelo_inurba_marseille","lat":43.33757,"lon":5.37456,"is_reserved":false,"is_disabled":false,"rental_uris":{"android":"levelo://app?vid=f2d097ae-30d3-4204-a966-e3ea08853967","ios":"levelo://app?vid=f2d097ae-30d3-4204-a966-e3ea08853967"},"vehicle_type_id":"4","last_reported":1728144617,"current_range_meters":34800,"station_id":"","pricing_plan_id":"cebpf4jnsgd1na2vs0mg"},{"bike_id":"65730025-6705-4d70-9f06-0f12f0bc298a","system_id":"levelo_inurba_marseille","lat":43.31349,"lon":5.36735,"is_reserved":false,"is_disabled":false,"rental_uris":{"android":"levelo://app?vid=65730025-6705-4d70-9f06-0f12f0bc298a","ios":"levelo://app?vid=65730025-6705-4d70-9f06-0f12f0bc298a"},"vehicle_type_id":"4","last_reported":1728144617,"current_range_meters":36400,"station_id":"ce4bgr92rcd13ifvqc6g","pricing_plan_id":"cebpf4jnsgd1na2vs0mg"},{"bike_id":"9e14cc51-96c5-46d5-a215-0db44e8cff3e","system_id":"levelo_inurba_marseille","lat":43.30933,"lon":5.40146,"is_reserved":false,"is_disabled":false,"rental_uris":{"android":"levelo://app?vid=9e14cc51-96c5-46d5-a215-0db44e8cff3e","ios":"levelo://app?vid=9e14cc51-96c5-46d5-a215-0db44e8cff3e"},"vehicle_type_id":"4","last_reported":1728144617,"current_range_meters":38800,"station_id":"ce4bgvp2rcd13ifvqct0","pricing_plan_id":"cebpf4jnsgd1na2vs0mg"},{"bike_id":"b8636285-5b40-4b96-8d9a-9e4593c5e972","system_id":"levelo_inurba_marseille","lat":43.29846,"lon":5.36274,"is_reserved":false,"is_disabled":false,"rental_uris":{"android":"levelo://app?vid=b8636285-5b40-4b96-8d9a-9e4593c5e972","ios":"levelo://app?vid=b8636285-5b40-4b96-8d9a-9e4593c5e972"},"vehicle_type_id":"4","last_reported":1728144617,"current_range_meters":38000,"station_id":"ce4bgpp2rcd13ifvqc3g","pricing_plan_id":"cebpf4jnsgd1na2vs0mg"},{"bike_id":"efeab72f-3ca4-4890-b62c-a807ac1f1670","system_id":"levelo_inurba_marseille","lat":43.27373,"lon":5.36258,"is_reserved":false,"is_disabled":false,"rental_uris":{"android":"levelo://app?vid=efeab72f-3ca4-4890-b62c-a807ac1f1670","ios":"levelo://app?vid=efeab72f-3ca4-4890-b62c-a807ac1f1670"},"vehicle_type_id":"4","last_reported":1728144617,"current_range_meters":38800,"station_id":"ce4bhbh2rcd13ifvqeo0","pricing_plan_id":"cebpf4jnsgd1na2vs0mg"},{"bike_id":"a0c66670-67af-4f9b-ac1a-be048a7eb929","system_id":"levelo_inurba_marseille","lat":43.26058,"lon":5.39394,"is_reserved":false,"is_disabled":false,"rental_uris":{"android":"levelo://app?vid=a0c66670-67af-4f9b-ac1a-be048a7eb929","ios":"levelo://app?vid=a0c66670-67af-4f9b-ac1a-be048a7eb929"},"vehicle_type_id":"4","last_reported":1728144617,"current_range_meters":38800,"station_id":"ce4bhh92rcd13ifvqfj0","pricing_plan_id":"cebpf4jnsgd1na2vs0mg"},{"bike_id":"5a116246-a805-4253-b446-435ed8fd9e67","system_id":"levelo_inurba_marseille","lat":43.33752,"lon":5.37443,"is_reserved":false,"is_disabled":false,"rental_uris":{"android":"levelo://app?vid=5a116246-a805-4253-b446-435ed8fd9e67","ios":"levelo://app?vid=5a116246-a805-4253-b446-435ed8fd9e67"},"vehicle_type_id":"4","last_reported":1728144617,"current_range_meters":38000,"station_id":"","pricing_plan_id":"cebpf4jnsgd1na2vs0mg"},{"bike_id":"1d0ee75e-39c7-42c6-b931-bf7f2c0124cc","system_id":"levelo_inurba_marseille","lat":43.2737,"lon":5.36259,"is_reserved":false,"is_disabled":false,"rental_uris":{"android":"levelo://app?vid=1d0ee75e-39c7-42c6-b931-bf7f2c0124cc","ios":"levelo://app?vid=1d0ee75e-39c7-42c6-b931-bf7f2c0124cc"},"vehicle_type_id":"4","last_reported":1728144617,"current_range_meters":38800,"station_id":"ce4bhbh2rcd13ifvqeo0","pricing_plan_id":"cebpf4jnsgd1na2vs0mg"},{"bike_id":"9b541f3f-91bf-46d1-b40a-4f0ae8dd4635","system_id":"levelo_inurba_marseille","lat":43.32538,"lon":5.41446,"is_reserved":false,"is_disabled":false,"rental_uris":{"android":"levelo://app?vid=9b541f3f-91bf-46d1-b40a-4f0ae8dd4635","ios":"levelo://app?vid=9b541f3f-91bf-46d1-b40a-4f0ae8dd4635"},"vehicle_type_id":"4","last_reported":1728144617,"current_range_meters":38800,"station_id":"ce4bhq12rcd13ifvqhhg","pricing_plan_id":"cebpf4jnsgd1na2vs0mg"},{"bike_id":"b0d30a37-45d1-4e8d-8f1a-b2b2c68ca415","system_id":"levelo_inurba_marseille","lat":43.23194,"lon":5.3555,"is_reserved":false,"is_disabled":false,"rental_uris":{"android":"levelo://app?vid=b0d30a37-45d1-4e8d-8f1a-b2b2c68ca415","ios":"levelo://app?vid=b0d30a37-45d1-4e8d-8f1a-b2b2c68ca415"},"vehicle_type_id":"4","last_reported":1728144617,"current_range_meters":16400,"station_id":"ce4bhu92rcd13ifvqi70","pricing_plan_id":"cebpf4jnsgd1na2vs0mg"},{"bike_id":"5558aca3-fa7d-4b4b-adf8-3d330144e57a","system_id":"levelo_inurba_marseille","lat":43.25072,"lon":5.39518,"is_reserved":false,"is_disabled":false,"rental_uris":{"android":"levelo://app?vid=5558aca3-fa7d-4b4b-adf8-3d330144e57a","ios":"levelo://app?vid=5558aca3-fa7d-4b4b-adf8-3d330144e57a"},"vehicle_type_id":"4","last_reported":1728144617,"current_range_meters":20800,"station_id":"ce4bhm12rcd13ifvqgkg","pricing_plan_id":"cebpf4jnsgd1na2vs0mg"},{"bike_id":"d8278a21-609d-444c-a1bb-c628b32ce1dd","system_id":"levelo_inurba_marseille","lat":43.3253,"lon":5.41456,"is_reserved":false,"is_disabled":false,"rental_uris":{"android":"levelo://app?vid=d8278a21-609d-444c-a1bb-c628b32ce1dd","ios":"levelo://app?vid=d8278a21-609d-444c-a1bb-c628b32ce1dd"},"vehicle_type_id":"4","last_reported":1728144617,"current_range_meters":8800,"station_id":"ce4bhq12rcd13ifvqhhg","pricing_plan_id":"cebpf4jnsgd1na2vs0mg"},{"bike_id":"fd2d5259-8d59-487e-b3a3-f2e37ba507e6","system_id":"levelo_inurba_marseille","lat":43.22924,"lon":5.35373,"is_reserved":false,"is_disabled":false,"rental_uris":{"android":"levelo://app?vid=fd2d5259-8d59-487e-b3a3-f2e37ba507e6","ios":"levelo://app?vid=fd2d5259-8d59-487e-b3a3-f2e37ba507e6"},"vehicle_type_id":"4","last_reported":1728144617,"current_range_meters":32800,"station_id":"cpo3532slgdg3j2ikp40","pricing_plan_id":"cebpf4jnsgd1na2vs0mg"},{"bike_id":"8be1d12e-e7e2-4826-955e-9380b4789a55","system_id":"levelo_inurba_marseille","lat":43.28345,"lon":5.38106,"is_reserved":false,"is_disabled":false,"rental_uris":{"android":"levelo://app?vid=8be1d12e-e7e2-4826-955e-9380b4789a55","ios":"levelo://app?vid=8be1d12e-e7e2-4826-955e-9380b4789a55"},"vehicle_type_id":"4","last_reported":1728144617,"current_range_meters":12800,"station_id":"ce4bh412rcd13ifvqdr0","pricing_plan_id":"cebpf4jnsgd1na2vs0mg"},{"bike_id":"62581040-035c-4cf5-ad1a-7a0c779308e9","system_id":"levelo_inurba_marseille","lat":43.29258,"lon":5.40906,"is_reserved":false,"is_disabled":false,"rental_uris":{"android":"levelo://app?vid=62581040-035c-4cf5-ad1a-7a0c779308e9","ios":"levelo://app?vid=62581040-035c-4cf5-ad1a-7a0c779308e9"},"vehicle_type_id":"4","last_reported":1728144617,"current_range_meters":27600,"station_id":"ce4bh192rcd13ifvqdc0","pricing_plan_id":"cebpf4jnsgd1na2vs0mg"},{"bike_id":"e6a279df-12a2-4b07-8344-074c11cb16e9","system_id":"levelo_inurba_marseille","lat":43.24646,"lon":5.38902,"is_reserved":false,"is_disabled":false,"rental_uris":{"android":"levelo://app?vid=e6a279df-12a2-4b07-8344-074c11cb16e9","ios":"levelo://app?vid=e6a279df-12a2-4b07-8344-074c11cb16e9"},"vehicle_type_id":"4","last_reported":1728144617,"current_range_meters":31200,"station_id":"ce4bhg12rcd13ifvqf60","pricing_plan_id":"cebpf4jnsgd1na2vs0mg"},{"bike_id":"fd7739a8-ee58-46e1-bd70-499a6eb0f8e3","system_id":"levelo_inurba_marseille","lat":43.26937,"lon":5.38919,"is_reserved":false,"is_disabled":false,"rental_uris":{"android":"levelo://app?vid=fd7739a8-ee58-46e1-bd70-499a6eb0f8e3","ios":"levelo://app?vid=fd7739a8-ee58-46e1-bd70-499a6eb0f8e3"},"vehicle_type_id":"4","last_reported":1728144617,"current_range_meters":38000,"station_id":"ce4bhhh2rcd13ifvqfl0","pricing_plan_id":"cebpf4jnsgd1na2vs0mg"},{"bike_id":"af986020-d927-4e99-94de-a06822abfda2","system_id":"levelo_inurba_marseille","lat":43.31994,"lon":5.38166,"is_reserved":false,"is_disabled":false,"rental_uris":{"android":"levelo://app?vid=af986020-d927-4e99-94de-a06822abfda2","ios":"levelo://app?vid=af986020-d927-4e99-94de-a06822abfda2"},"vehicle_type_id":"4","last_reported":1728144617,"current_range_meters":6800,"station_id":"ce4bhr12rcd13ifvqhpg","pricing_plan_id":"cebpf4jnsgd1na2vs0mg"},{"bike_id":"6087a0e7-07e0-409b-9cd9-ffeae257c3b2","system_id":"levelo_inurba_marseille","lat":43.29229,"lon":5.37224,"is_reserved":false,"is_disabled":false,"rental_uris":{"android":"levelo://app?vid=6087a0e7-07e0-409b-9cd9-ffeae257c3b2","ios":"levelo://app?vid=6087a0e7-07e0-409b-9cd9-ffeae257c3b2"},"vehicle_type_id":"4","last_reported":1728144617,"current_range_meters":19200,"station_id":"","pricing_plan_id":"cebpf4jnsgd1na2vs0mg"},{"bike_id":"b4b2c194-8091-4fec-801f-124230ef220c","system_id":"levelo_inurba_marseille","lat":43.29192,"lon":5.39331,"is_reserved":false,"is_disabled":false,"rental_uris":{"android":"levelo://app?vid=b4b2c194-8091-4fec-801f-124230ef220c","ios":"levelo://app?vid=b4b2c194-8091-4fec-801f-124230ef220c"},"vehicle_type_id":"4","last_reported":1728144617,"current_range_meters":36000,"station_id":"ce4bh192rcd13ifvqdd0","pricing_plan_id":"cebpf4jnsgd1na2vs0mg"},