{"last_updated":1751977314,"ttl":60,"version":"2.2","data":{"bikes":[{"bike_id":"cd20cfea-2f2f-444d-a882-a49b6cf370eb","system_id":"levelo_inurba_marseille","lat":43.337444,"lon":5.374475,"is_reserved":false,"is_disabled":true,"rental_uris":{"android":"levelo://app?vid=cd20cfea-2f2f-444d-a882-a49b6cf370eb","ios":"levelo://app?vid=cd20cfea-2f2f-444d-a882-a49b6cf370eb"},"vehicle_type_id":"4","last_reported":1751977314,"current_range_meters":0,"station_id":"","pricing_plan_id":"cebpf4jnsgd1na2vs0mg"},{"bike_id":"3da29fb8-fc97-44c6-b9ac-31dd456b2fd4","system_id":"levelo_inurba_marseille","lat":43.33771,"lon":5.37424,"is_reserved":false,"is_disabled":true,"rental_uris":{"android":"levelo://app?vid=3da29fb8-fc97-44c6-b9ac-31dd456b2fd4","ios":"levelo://app?vid=3da29fb8-fc97-44c6-b9ac-31dd456b2fd4"},"vehicle_type_id":"4","last_reported":1751977314,"current_range_meters":0,"station_id":"","pricing_plan_id":"cebpf4jnsgd1na2vs0mg"},{"bike_id":"01861ad8-a8d7-4be6-816e-651927c87584","system_id":"levelo_inurba_marseille","lat":43.33751,"lon":5.37456,"is_reserved":false,"is_disabled":true,"rental_uris":{"android":"levelo://app?vid=01861ad8-a8d7-4be6-816e-651927c87584","ios":"levelo://app?vid=01861ad8-a8d7-4be6-816e-651927c87584"},"vehicle_type_id":"4","last_reported":1751977314,"current_range_meters":0,"station_id":"","pricing_plan_id":"cebpf4jnsgd1na2vs0mg"},{"bike_id":"3d508917-55ee-42b6-894b-89c2a444dc06","system_id":"levelo_inurba_marseille","lat":43.33738,"lon":5.37493,"is_reserved":false,"is_disabled":true,"rental_uris":{"android":"levelo://app?vid=3d508917-55ee-42b6-894b-89c2a444dc06","ios":"levelo://app?vid=3d508917-55ee-42b6-894b-89c2a444dc06"},"vehicle_type_id":"4","last_reported":1751977314,"current_range_meters":0,"station_id":"","pricing_plan_id":"cebpf4jnsgd1na2vs0mg"},{"bike_id":"8501b28f-a69a-47fc-abe2-60cea85a9b64","system_id":"levelo_inurba_marseille","lat":43.305628,"lon":5.367234,"is_reserved":false,"is_disabled":true,"rental_uris":{"android":"levelo://app?vid=8501b28f-a69a-47fc-abe2-60cea85a9b64","ios":"levelo://app?vid=8501b28f-a69a-47fc-abe2-60cea85a9b64"},"vehicle_type_id":"4","last_reported":1751977314,"current_range_meters":0,"station_id":"ce4bgrp2rcd13ifvqc9g","pricing_plan_id":"cebpf4jnsgd1na2vs0mg"},{"bike_id":"e28d9fca-8654-4158-8626-b0295be2db4e","system_id":"levelo_inurba_marseille","lat":43.2668,"lon":5.38254,"is_reserved":false,"is_disabled":true,"rental_uris":{"android":"levelo://app?vid=e28d9fca-8654-4158-8626-b0295be2db4e","ios":"levelo://app?vid=e28d9fca-8654-4158-8626-b0295be2db4e"},"vehicle_type_id":"4","last_reported":1751977314,"current_range_meters":0,"station_id":"ce4bhg92rcd13ifvqf90","pricing_plan_id":"cebpf4jnsgd1na2vs0mg"},{"bike_id":"2db1b37c-342a-4b93-bec6-bf92617633be","system_id":"levelo_inurba_marseille","lat":43.27688,"lon":5.38917,"is_reserved":false,"is_disabled":true,"rental_uris":{"android":"levelo://app?vid=2db1b37c-342a-4b93-bec6-bf92617633be","ios":"levelo://app?vid=2db1b37c-342a-4b93-bec6-bf92617633be"},"vehicle_type_id":"4","last_reported":1751977314,"current_range_meters":0,"station_id":"ce4bhi12rcd13ifvqfo0","pricing_plan_id":"cebpf4jnsgd1na2vs0mg"},{"bike_id":"3fa60b66-7123-4290-8ce2-567d218498c6","system_id":"levelo_inurba_marseille","lat":43.25719,"lon":5.41152,"is_reserved":false,"is_disabled":true,"rental_uris":{"android":"levelo://app?vid=3fa60b66-7123-4290-8ce2-567d218498c6","ios":"levelo://app?vid=3fa60b66-7123-4290-8ce2-567d218498c6"},"vehicle_type_id":"4","last_reported":1751977314,"current_range_meters":0,"station_id":"ce4bhkp2rcd13ifvqgd0","pricing_plan_id":"cebpf4jnsgd1na2vs0mg"},{"bike_id":"d5677444-d26f-45f5-84d9-a37e6d9b2f41","system_id":"levelo_inurba_marseille","lat":43.25916,"lon":5.40863,"is_reserved":false,"is_disabled":true,"rental_uris":{"android":"levelo://app?vid=d5677444-d26f-45f5-84d9-a37e6d9b2f41","ios":"levelo://app?vid=d5677444-d26f-45f5-84d9-a37e6d9b2f41"},"vehicle_type_id":"4","last_reported":1751977314,"current_range_meters":0,"station_id":"ce4bhm92rcd13ifvqglg","pricing_plan_id":"cebpf4jnsgd1na2vs0mg"},{"bike_id":"d2866ccd-e3dd-415c-9c91-4093a42f7191","system_id":"levelo_inurba_marseille","lat":43.32358,"lon":5.36778,"is_reserved":false,"is_disabled":true,"rental_uris":{"android":"levelo://app?vid=d2866ccd-e3dd-415c-9c91-4093a42f7191","ios":"levelo://app?vid=d2866ccd-e3dd-415c-9c91-4093a42f7191"},"vehicle_type_id":"4","last_reported":1751977314,"current_range_meters":0,"station_id":"ce4bhsh2rcd13ifvqi2g","pricing_plan_id":"cebpf4jnsgd1na2vs0mg"},{"bike_id":"6d412f8b-f1c0-414a-82a1-35b511a619d8","system_id":"levelo_inurba_marseille","lat":43.30473,"lon":5.3791,"is_reserved":false,"is_disabled":true,"rental_uris":{"android":"levelo://app?vid=6d412f8b-f1c0-414a-82a1-35b511a619d8","ios":"levelo://app?vid=6d412f8b-f1c0-414a-82a1-35b511a619d8"},"vehicle_type_id":"4","last_reported":1751977314,"current_range_meters":800,"station_id":"ce4bgup2rcd13ifvqcn0","pricing_plan_id":"cebpf4jnsgd1na2vs0mg"},{"bike_id":"77515c47-72ed-4c95-9778-b8f5f78dae7e","system_id":"levelo_inurba_marseille","lat":43.28479,"lon":5.384287,"is_reserved":false,"is_disabled":true,"rental_uris":{"android":"levelo://app?vid=77515c47-72ed-4c95-9778-b8f5f78dae7e","ios":"levelo://app?vid=77515c47-72ed-4c95-9778-b8f5f78dae7e"},"vehicle_type_id":"4","last_reported":1751977314,"current_range_meters":800,"station_id":"ce4bh512rcd13ifvqe3g","pricing_plan_id":"cebpf4jnsgd1na2vs0mg"},{"bike_id":"4a7de409-843d-4d77-9143-29276488e474","system_id":"levelo_inurba_marseille","lat":43.28273,"lon":5.35057,"is_reserved":false,"is_disabled":true,"rental_uris":{"android":"levelo://app?vid=4a7de409-843d-4d77-9143-29276488e474","ios":"levelo://app?vid=4a7de409-843d-4d77-9143-29276488e474"},"vehicle_type_id":"4","last_reported":1751977314,"current_range_meters":800,"station_id":"ce4bhbp2rcd13ifvqerg","pricing_plan_id":"cebpf4jnsgd1na2vs0mg"},{"bike_id":"b3613048-d304-4e70-a92e-3d769fe736f0","system_id":"levelo_inurba_marseille","lat":43.323568,"lon":5.367573,"is_reserved":false,"is_disabled":true,"rental_uris":{"android":"levelo://app?vid=b3613048-d304-4e70-a92e-3d769fe736f0","ios":"levelo://app?vid=b3613048-d304-4e70-a92e-3d769fe736f0"},"vehicle_type_id":"4","last_reported":1751977314,"current_range_meters":800,"station_id":"ce4bhsh2rcd13ifvqi2g","pricing_plan_id":"cebpf4jnsgd1na2vs0mg"},{"bike_id":"a886009b-9829-4c6b-bddb-a74791028c4f","system_id":"levelo_inurba_marseille","lat":43.25225,"lon":5.39458,"is_reserved":false,"is_disabled":true,"rental_uris":{"android":"levelo://app?vid=a886009b-9829-4c6b-bddb-a74791028c4f","ios":"levelo://app?vid=a886009b-9829-4c6b-bddb-a74791028c4f"},"vehicle_type_id":"4","last_reported":1751977314,"current_range_meters":1200,"station_id":"","pricing_plan_id":"cebpf4jnsgd1na2vs0mg"},{"bike_id":"a5994280-b5f2-40ce-9603-ef6d581f26c8","system_id":"levelo_inurba_marseille","lat":43.32118,"lon":5.36792,"is_reserved":false,"is_disabled":true,"rental_uris":{"android":"levelo://app?vid=a5994280-b5f2-40ce-9603-ef6d581f26c8","ios":"levelo://app?vid=a5994280-b5f2-40ce-9603-ef6d581f26c8"},"vehicle_type_id":"4","last_reported":1751977314,"current_range_meters":1600,"station_id":"ce4bhrh2rcd13ifvqhug","pricing_plan_id":"cebpf4jnsgd1na2vs0mg"},{"bike_id":"2072a38b-d404-4717-bb2f-38480334872d","system_id":"levelo_inurba_marseille","lat":43.3153,"lon":5.38038,"is_reserved":false,"is_disabled":true,"rental_uris":{"android":"levelo://app?vid=2072a38b-d404-4717-bb2f-38480334872d","ios":"levelo://app?vid=2072a38b-d404-4717-bb2f-38480334872d"},"vehicle_type_id":"4","last_reported":1751977314,"current_range_meters":1600,"station_id":"ce4bhsp2rcd13ifvqi50","pricing_plan_id":"cebpf4jnsgd1na2vs0mg"},{"bike_id":"0f1c7783-be1c-44d4-b7fe-6b4cc56b45ce","system_id":"levelo_inurba_marseille","lat":43.3123,"lon":5.36862,"is_reserved":false,"is_disabled":true,"rental_uris":{"android":"levelo://app?vid=0f1c7783-be1c-44d4-b7fe-6b4cc56b45ce","ios":"levelo://app?vid=0f1c7783-be1c-44d4-b7fe-6b4cc56b45ce"},"vehicle_type_id":"4","last_reported":1751977314,"current_range_meters":2000,"station_id":"ce4bgl92rcd13ifvqbq0","pricing_plan_id":"cebpf4jnsgd1na2vs0mg"},{"bike_id":"ac3f187e-9530-4c96-9d46-ed3e26f4d602","system_id":"levelo_inurba_marseille","lat":43.29059,"lon":5.37156,"is_reserved":false,"is_disabled":true,"rental_uris":{"android":"levelo://app?vid=ac3f187e-9530-4c96-9d46-ed3e26f4d602","ios":"levelo://app?vid=ac3f187e-9530-4c96-9d46-ed3e26f4d602"},"vehicle_type_id":"4","last_reported":1751977314,"current_range_meters":2000,"station_id":"ce4bh5p2rcd13ifvqe4g","pricing_plan_id":"cebpf4jnsgd1na2vs0mg"},{"bike_id":"8d1f2db5-6f2a-4427-9928-c8663920cbad","system_id":"levelo_inurba_marseille","lat":43.32489,"lon":5.3655,"is_reserved":false,"is_disabled":true,"rental_uris":{"android":"levelo://app?vid=8d1f2db5-6f2a-4427-9928-c8663920cbad","ios":"levelo://app?vid=8d1f2db5-6f2a-4427-9928-c8663920cbad"},"vehicle_type_id":"4","last_reported":1751977314,"current_range_meters":2000,"station_id":"ce4bhs12rcd13ifvqhvg","pricing_plan_id":"cebpf4jnsgd1na2vs0mg"},{"bike_id":"ed290504-6948-4f69-8584-2e2b0286febf","system_id":"levelo_inurba_marseille","lat":43.2119,"lon":5.35079,"is_reserved":false,"is_disabled":true,"rental_uris":{"android":"levelo://app?vid=ed290504-6948-4f69-8584-2e2b0286febf","ios":"levelo://app?vid=ed290504-6948-4f69-8584-2e2b0286febf"},"vehicle_type_id":"4","last_reported":1751977314,"current_range_meters":2000,"station_id":"st_cvj6sg6p6f1abm77japg","pricing_plan_id":"cebpf4jnsgd1na2vs0mg"},{"bike_id":"f019955e-f7a1-4a35-8f42-1fdf08ee12bc","system_id":"levelo_inurba_marseille","lat":43.29691,"lon":5.3781,"is_reserved":false,"is_disabled":false,"rental_uris":{"android":"levelo://app?vid=f019955e-f7a1-4a35-8f42-1fdf08ee12bc","ios":"levelo://app?vid=f019955e-f7a1-4a35-8f42-1fdf08ee12bc"},"vehicle_type_id":"4","last_reported":1751977314,"current_range_meters":2800,"station_id":"","pricing_plan_id":"cebpf4jnsgd1na2vs0mg"},{"bike_id":"de3c7479-ad03-448f-a78e-88898eddd51a","system_id":"levelo_inurba_marseille","lat":43.32968,"lon":5.39722,"is_reserved":false,"is_disabled":false,"rental_uris":{"android":"levelo://app?vid=de3c7479-ad03-448f-a78e-88898eddd51a","ios":"levelo://app?vid=de3c7479-ad03-448f-a78e-88898eddd51a"},"vehicle_type_id":"4","last_reported":1751977314,"current_range_meters":3200,"station_id":"","pricing_plan_id":"cebpf4jnsgd1na2vs0mg"},{"bike_id":"3b638e02-6a55-403d-b500-cc62d0041fbc","system_id":"levelo_inurba_marseille","lat":43.265764,"lon":5.39006,"is_reserved":false,"is_disabled":false,"rental_uris":{"android":"levelo://app?vid=3b638e02-6a55-403d-b500-cc62d0041fbc","ios":"levelo://app?vid=3b638e02-6a55-403d-b500-cc62d0041fbc"},"vehicle_type_id":"4","last_reported":1751977314,"current_range_meters":3200,"station_id":"","pricing_plan_id":"cebpf4jnsgd1na2vs0mg"},{"bike_id":"294f4097-dd0e-4cbe-a996-1a7ebe52df88","system_id":"levelo_inurba_marseille","lat":43.30561,"lon":5.36553,"is_reserved":false,"is_disabled":false,"rental_uris":{"android":"levelo://app?vid=294f4097-dd0e-4cbe-a996-1a7ebe52df88","ios":"levelo://app?vid=294f4097-dd0e-4cbe-a996-1a7ebe52df88"},"vehicle_type_id":"4","last_reported":1751977314,"current_range_meters":3200,"station_id":"ce4bgs12rcd13ifvqcag","pricing_plan_id":"cebpf4jnsgd1na2vs0mg"},{"bike_id":"deb28a5e-65c4-45b7-91e3-aa99ed36129e","system_id":"levelo_inurba_marseille","lat":43.28415,"lon":5.37516,"is_reserved":false,"is_disabled":false,"rental_uris":{"android":"levelo://app?vid=deb28a5e-65c4-45b7-91e3-aa99ed36129e","ios":"levelo://app?vid=deb28a5e-65c4-45b7-91e3-aa99ed36129e"},"vehicle_type_id":"4","last_reported":1751977314,"current_range_meters":3200,"station_id":"ce4bh412rcd13ifvqds0","pricing_plan_id":"cebpf4jnsgd1na2vs0mg"},{"bike_id":"9def0ec1-138e-43cf-8384-2b31b614d8bb","system_id":"levelo_inurba_marseille","lat":43.25017,"lon":5.3893,"is_reserved":false,"is_disabled":false,"rental_uris":{"android":"levelo://app?vid=9def0ec1-138e-43cf-8384-2b31b614d8bb","ios":"levelo://app?vid=9def0ec1-138e-43cf-8384-2b31b614d8bb"},"vehicle_type_id":"4","last_reported":1751977314,"current_range_meters":3200,"station_id":"ce4bhgp2rcd13ifvqfd0","pricing_plan_id":"cebpf4jnsgd1na2vs0mg"},{"bike_id":"616336cc-0c91-47ba-88e7-9d04794daa36","system_id":"levelo_inurba_marseille","lat":43.25736,"lon":5.41141,"is_reserved":false,"is_disabled":false,"rental_uris":{"android":"levelo://app?vid=616336cc-0c91-47ba-88e7-9d04794daa36","ios":"levelo://app?vid=616336cc-0c91-47ba-88e7-9d04794daa36"},"vehicle_type_id":"4","last_reported":1751977314,"current_range_meters":3200,"station_id":"ce4bhkp2rcd13ifvqgd0","pricing_plan_id":"cebpf4jnsgd1na2vs0mg"},{"bike_id":"5b996a11-70ef-4c3a-bebf-8d5bab66df22","system_id":"levelo_inurba_marseille","lat":43.23181,"lon":5.39991,"is_reserved":false,"is_disabled":false,"rental_uris":{"android":"levelo://app?vid=5b996a11-70ef-4c3a-bebf-8d5bab66df22","ios":"levelo://app?vid=5b996a11-70ef-4c3a-bebf-8d5bab66df22"},"vehicle_type_id":"4","last_reported":1751977314,"current_range_meters":3200,"station_id":"ce4bhn12rcd13ifvqgqg","pricing_plan_id":"cebpf4jnsgd1na2vs0mg"},{"bike_id":"47cc12e9-1f9d-4b29-b948-db655857089a","system_id":"levelo_inurba_marseille","lat":43.22509,"lon":5.34795,"is_reserved":false,"is_disabled":false,"rental_uris":{"android":"levelo://app?vid=47cc12e9-1f9d-4b29-b948-db655857089a","ios":"levelo://app?vid=47cc12e9-1f9d-4b29-b948-db655857089a"},"vehicle_type_id":"4","last_reported":1751977314,"current_range_meters":3200,"station_id":"st_cvj5dfep6f1abm77gieg","pricing_plan_id":"cebpf4jnsgd1na2vs0mg"},{"bike_id":"cb3b4dbb-8716-4b0f-a3be-fe3f3dbbd7a9","system_id":"levelo_inurba_marseille","lat":43.2656,"lon":5.37306,"is_reserved":false,"is_disabled":false,"rental_uris":{"android":"levelo://app?vid=cb3b4dbb-8716-4b0f-a3be-fe3f3dbbd7a9","ios":"levelo://app?vid=cb3b4dbb-8716-4b0f-a3be-fe3f3dbbd7a9"},"vehicle_type_id":"4","last_reported":1751977314,"current_range_meters":3600,"station_id":"ce4bhg12rcd13ifvqf70","pricing_plan_id":"cebpf4jnsgd1na2vs0mg"},{"bike_id":"ff6969fc-5512-4edf-a61d-6936ccb9a278","system_id":"levelo_inurba_marseille","lat":43.330142,"lon":5.36378,"is_reserved":false,"is_disabled":false,"rental_uris":{"android":"levelo://app?vid=ff6969fc-5512-4edf-a61d-6936ccb9a278","ios":"levelo://app?vid=ff6969fc-5512-4edf-a61d-6936ccb9a278"},"vehicle_type_id":"4","last_reported":1751977314,"current_range_meters":4000,"station_id":"","pricing_plan_id":"cebpf4jnsgd1na2vs0mg"},{"bike_id":"a541948e-a778-4071-9734-57c8820278e5","system_id":"levelo_inurba_marseille","lat":43.2931,"lon":5.3745,"is_reserved":false,"is_disabled":false,"rental_uris":{"android":"levelo://app?vid=a541948e-a778-4071-9734-57c8820278e5","ios":"levelo://app?vid=a541948e-a778-4071-9734-57c8820278e5"},"vehicle_type_id":"4","last_reported":1751977314,"current_range_meters":4000,"station_id":"ce4bgi12rcd13ifvqb70","pricing_plan_id":"cebpf4jnsgd1na2vs0mg"},{"bike_id":"38a4a8df-162a-4b86-9a43-49c86599ab60","system_id":"levelo_inurba_marseille","lat":43.3056,"lon":5.36569,"is_reserved":false,"is_disabled":false,"rental_uris":{"android":"levelo://app?vid=38a4a8df-162a-4b86-9a43-49c86599ab60","ios":"levelo://app?vid=38a4a8df-162a-4b86-9a43-49c86599ab60"},"vehicle_type_id":"4","last_reported":1751977314,"current_range_meters":4000,"station_id":"ce4bgs12rcd13ifvqcag","pricing_plan_id":"cebpf4jnsgd1na2vs0mg"},{"bike_id":"c4cf9d50-6072-4d44-baf5-56815c87a74d","system_id":"levelo_inurba_marseille","lat":43.30803,"lon":5.38154,"is_reserved":false,"is_disabled":false,"rental_uris":{"android":"levelo://app?vid=c4cf9d50-6072-4d44-baf5-56815c87a74d","ios":"levelo://app?vid=c4cf9d50-6072-4d44-baf5-56815c87a74d"},"vehicle_type_id":"4","last_reported":1751977314,"current_range_meters":4000,"station_id":"ce4bgt12rcd13ifvqce0","pricing_plan_id":"cebpf4jnsgd1na2vs0mg"},{"bike_id":"c3eff9a7-7dda-48bc-91e2-94cb9f8b6b85","system_id":"levelo_inurba_marseille","lat":43.26504,"lon":5.39539,"is_reserved":false,"is_disabled":false,"rental_uris":{"android":"levelo://app?vid=c3eff9a7-7dda-48bc-91e2-94cb9f8b6b85","ios":"levelo://app?vid=c3eff9a7-7dda-48bc-91e2-94cb9f8b6b85"},"vehicle_type_id":"4","last_reported":1751977314,"current_range_meters":4800,"station_id":"ce4bhi12rcd13ifvqfq0","pricing_plan_id":"cebpf4jnsgd1na2vs0mg"},{"bike_id":"abbd7030-6213-424f-916a-bcb0234d6197","system_id":"levelo_inurba_marseille","lat":43.26959,"lon":5.40294,"is_reserved":false,"is_disabled":false,"rental_uris":{"android":"levelo://app?vid=abbd7030-6213-424f-916a-bcb0234d6197","ios":"levelo://app?vid=abbd7030-6213-424f-916a-bcb0234d6197"},"vehicle_type_id":"4","last_reported":1751977314,"current_range_meters":4800,"station_id":"cjm6bp8fraef2m0cb0m0","pricing_plan_id":"cebpf4jnsgd1na2vs0mg"},{"bike_id":"7ae32b87-7a0b-489d-823c-18c48e3a0576","system_id":"levelo_inurba_marseille","lat":43.24169,"lon":5.36402,"is_reserved":false,"is_disabled":false,"rental_uris":{"android":"levelo://app?vid=7ae32b87-7a0b-489d-823c-18c48e3a0576","ios":"levelo://app?vid=7ae32b87-7a0b-489d-823c-18c48e3a0576"},"vehicle_type_id":"4","last_reported":1751977314,"current_range_meters":4800,"station_id":"cpo36qri1sfpv3e86is0","pricing_plan_id":"cebpf4jnsgd1na2vs0mg"},{"bike_id":"f99ef65c-202c-49b5-8edf-b515f9a1d71a","system_id":"levelo_inurba_marseille","lat":43.29621,"lon":5.37165,"is_reserved":false,"is_disabled":false,"rental_uris":{"android":"levelo://app?vid=f99ef65c-202c-49b5-8edf-b515f9a1d71a","ios":"levelo://app?vid=f99ef65c-202c-49b5-8edf-b515f9a1d71a"},"vehicle_type_id":"4","last_reported":1751977314,"current_range_meters":5600,"station_id":"ce4bgnh2rcd13ifvqc0g","pricing_plan_id":"cebpf4jnsgd1na2vs0mg"},{"bike_id":"24179c3b-cd31-468a-9827-e21f2e4d46c8","system_id":"levelo_inurba_marseille","lat":43.29165,"lon":5.37154,"is_reserved":false,"is_disabled":false,"rental_uris":{"android":"levelo://app?vid=24179c3b-cd31-468a-9827-e21f2e4d46c8","ios":"levelo://app?vid=24179c3b-cd31-468a-9827-e21f2e4d46c8"},"vehicle_type_id":"4","last_reported":1751977314,"current_range_meters":5600,"station_id":"ce4bha92rcd13ifvqeh0","pricing_plan_id":"cebpf4jnsgd1na2vs0mg"},{"bike_id":"cec146fc-ad31-4afc-8f9d-c1ea9031e2b9","system_id":"levelo_inurba_marseille","lat":43.30935,"lon":5.40153,"is_reserved":false,"is_disabled":false,"rental_uris":{"android":"levelo://app?vid=cec146fc-ad31-4afc-8f9d-c1ea9031e2b9","ios":"levelo://app?vid=cec146fc-ad31-4afc-8f9d-c1ea9031e2b9"},"vehicle_type_id":"4","last_reported":1751977314,"current_range_meters":6000,"station_id":"ce4bgvp2rcd13ifvqct0","pricing_plan_id":"cebpf4jnsgd1na2vs0mg"},{"bike_id":"f386750a-c2ec-4f5d-9a50-0178b32ef1fc","system_id":"levelo_inurba_marseille","lat":43.29001,"lon":5.3563,"is_reserved":false,"is_disabled":false,"rental_uris":{"android":"levelo://app?vid=f386750a-c2ec-4f5d-9a50-0178b32ef1fc","ios":"levelo://app?vid=f386750a-c2ec-4f5d-9a50-0178b32ef1fc"},"vehicle_type_id":"4","last_reported":1751977314,"current_range_meters":6000,"station_id":"ce4bhb92rcd13ifvqen0","pricing_plan_id":"cebpf4jnsgd1na2vs0mg"},{"bike_id":"7b527f00-f6ea-4963-b59d-8da04a2feedb","system_id":"levelo_inurba_marseille","lat":43.320906,"lon":5.401231,"is_reserved":false,"is_disabled":false,"rental_uris":{"android":"levelo://app?vid=7b527f00-f6ea-4963-b59d-8da04a2feedb","ios":"levelo://app?vid=7b527f00-f6ea-4963-b59d-8da04a2feedb"},"vehicle_type_id":"4","last_reported":1751977314,"current_range_meters":6400,"station_id":"","pricing_plan_id":"cebpf4jnsgd1na2vs0mg"},{"bike_id":"e97ee5c0-87e5-403c-92ed-929b14d6ff8f","system_id":"levelo_inurba_marseille","lat":43.28334,"lon":5.385,"is_reserved":false,"is_disabled":false,"rental_uris":{"android":"levelo://app?vid=e97ee5c0-87e5-403c-92ed-929b14d6ff8f","ios":"levelo://app?vid=e97ee5c0-87e5-403c-92ed-929b14d6ff8f"},"vehicle_type_id":"4","last_reported":1751977314,"current_range_meters":6800,"station_id":"","pricing_plan_id":"cebpf4jnsgd1na2vs0mg"},{"bike_id":"88ea42cb-cf0f-4e4a-8442-732645bc4ba5","system_id":"levelo_inurba_marseille","lat":43.31073,"lon":5.36673,"is_reserved":false,"is_disabled":false,"rental_uris":{"android":"levelo://app?vid=88ea42cb-cf0f-4e4a-8442-732645bc4ba5","ios":"levelo://app?vid=88ea42cb-cf0f-4e4a-8442-732645bc4ba5"},"vehicle_type_id":"4","last_reported":1751977314,"current_range_meters":6800,"station_id":"","pricing_plan_id":"cebpf4jnsgd1na2vs0mg"},{"bike_id":"d62c7dd8-96a5-48d5-a184-46f9cdb11d9f","system_id":"levelo_inurba_marseille","lat":43.3055,"lon":5.36712,"is_reserved":false,"is_disabled":false,"rental_uris":{"android":"levelo://app?vid=d62c7dd8-96a5-48d5-a184-46f9cdb11d9f","ios":"levelo://app?vid=d62c7dd8-96a5-48d5-a184-46f9cdb11d9f"},"vehicle_type_id":"4","last_reported":1751977314,"current_range_meters":6800,"station_id":"ce4bgrp2rcd13ifvqc9g","pricing_plan_id":"cebpf4jnsgd1na2vs0mg"},{"bike_id":"3b22f952-d0bc-4c00-8fd3-7e27b88aea23","system_id":"levelo_inurba_marseille","lat":43.29659,"lon":5.36245,"is_reserved":false,"is_disabled":false,"rental_uris":{"android":"levelo://app?vid=3b22f952-d0bc-4c00-8fd3-7e27b88aea23","ios":"levelo://app?vid=3b22f952-d0bc-4c00-8fd3-7e27b88aea23"},"vehicle_type_id":"4","last_reported":1751977314,"current_range_meters":7200,"station_id":"","pricing_plan_id":"cebpf4jnsgd1na2vs0mg"},{"bike_id":"12e7795a-94f7-440a-a76d-8ff86272a459","system_id":"levelo_inurba_marseille","lat":43.296221,"lon":5.405886,"is_reserved":false,"is_disabled":false,"rental_uris":{"android":"levelo://app?vid=12e7795a-94f7-440a-a76d-8ff86272a459","ios":"levelo://app?vid=12e7795a-94f7-440a-a76d-8ff86272a459"},"vehicle_type_id":"4","last_reported":1751977314,"current_range_meters":7200,"station_id":"ce4bh0h2rcd13ifvqd60","pricing_plan_id":"cebpf4jnsgd1na2vs0mg"},{"bike_id":"7e05648e-acbf-40e5-a1f0-f3ba6c0bd0e1","system_id":"levelo_inurba_marseille","lat":43.26983,"lon":5.40264,"is_reserved":false,"is_disabled":false,"rental_uris":{"android":"levelo://app?vid=7e05648e-acbf-40e5-a1f0-f3ba6c0bd0e1","ios":"levelo://app?vid=7e05648e-acbf-40e5-a1f0-f3ba6c0bd0e1"},"vehicle_type_id":"4","last_reported":1751977314,"current_range_meters":7200,"station_id":"cjm6bp8fraef2m0cb0m0","pricing_plan_id":"cebpf4jnsgd1na2vs0mg"},{"bike_id":"d9af8011-b181-4105-8941-372c6f5279f6","system_id":"levelo_inurba_marseille","lat":43.25942,"lon":5.40906,"is_reserved":false,"is_disabled":false,"rental_uris":{"android":"levelo://app?vid=d9af8011-b181-4105-8941-372c6f5279f6","ios":"levelo://app?vid=d9af8011-b181-4105-8941-372c6f5279f6"},"vehicle_type_id":"4","last_reported":1751977314,"current_range_meters":8000,"station_id":"ce4bhm92rcd13ifvqglg","pricing_plan_id":"cebpf4jnsgd1na2vs0mg"},{"bike_id":"8ca8021e-6684-4f1e-8d41-b77694dce596","system_id":"levelo_inurba_marseille","lat":43.28077,"lon":5.39662,"is_reserved":false,"is_disabled":false,"rental_uris":{"android":"levelo://app?vid=8ca8021e-6684-4f1e-8d41-b77694dce596","ios":"levelo://app?vid=8ca8021e-6684-4f1e-8d41-b77694dce596"},"vehicle_type_id":"4","last_reported":1751977314,"current_range_meters":8000,"station_id":"ce4bho12rcd13ifvqh2g","pricing_plan_id":"cebpf4jnsgd1na2vs0mg"},{"bike_id":"36a4043f-c99d-49ba-b44d-87df801e923e","system_id":"levelo_inurba_marseille","lat":43.2694,"lon":5.40255,"is_reserved":false,"is_disabled":false,"rental_uris":{"android":"levelo://app?vid=36a4043f-c99d-49ba-b44d-87df801e923e","ios":"levelo://app?vid=36a4043f-c99d-49ba-b44d-87df801e923e"},"vehicle_type_id":"4","last_reported":1751977314,"current_range_meters":8000,"station_id":"cjm6bp8fraef2m0cb0m0","pricing_plan_id":"cebpf4jnsgd1na2vs0mg"},{"bike_id":"37f2becd-23f9-4f13-a711-38b8024eeec7","system_id":"levelo_inurba_marseille","lat":43.33768,"lon":5.37516,"is_reserved":false,"is_disabled":false,"rental_uris":{"android":"levelo://app?vid=37f2becd-23f9-4f13-a711-38b8024eeec7","ios":"levelo://app?vid=37f2becd-23f9-4f13-a711-38b8024eeec7"},"vehicle_type_id":"4","last_reported":1751977314,"current_range_meters":8400,"station_id":"","pricing_plan_id":"cebpf4jnsgd1na2vs0mg"},{"bike_id":"95e00ab6-eb5a-42cb-8961-30b357fe2e8b","system_id":"levelo_inurba_marseille","lat":43.30133,"lon":5.38783,"is_reserved":false,"is_disabled":false,"rental_uris":{"android":"levelo://app?vid=95e00ab6-eb5a-42cb-8961-30b357fe2e8b","ios":"levelo://app?vid=95e00ab6-eb5a-42cb-8961-30b357fe2e8b"},"vehicle_type_id":"4","last_reported":1751977314,"current_range_meters":8400,"station_id":"ce4bghh2rcd13ifvqb60","pricing_plan_id":"cebpf4jnsgd1na2vs0mg"},{"bike_id":"9132f8ff-3763-41ad-b09a-53f35d8cb50c","system_id":"levelo_inurba_marseille","lat":43.29718,"lon":5.36621,"is_reserved":false,"is_disabled":false,"rental_uris":{"android":"levelo://app?vid=9132f8ff-3763-41ad-b09a-53f35d8cb50c","ios":"levelo://app?vid=9132f8ff-3763-41ad-b09a-53f35d8cb50c"},"vehicle_type_id":"4","last_reported":1751977314,"current_range_meters":8400,"station_id":"ce4bgn12rcd13ifvqbt0","pricing_plan_id":"cebpf4jnsgd1na2vs0mg"},{"bike_id":"114cb2b1-807c-4922-af8d-5005993fb831","system_id":"levelo_inurba_marseille","lat":43.2849,"lon":5.38429,"is_reserved":false,"is_disabled":false,"rental_uris":{"android":"levelo://app?vid=114cb2b1-807c-4922-af8d-5005993fb831","ios":"levelo://app?vid=114cb2b1-807c-4922-af8d-5005993fb831"},"vehicle_type_id":"4","last_reported":1751977314,"current_range_meters":8400,"station_id":"ce4bh512rcd13ifvqe3g","pricing_plan_id":"cebpf4jnsgd1na2vs0mg"},{"bike_id":"a177d90b-566f-413a-91bb-13fbc5ecf461","system_id":"levelo_inurba_marseille","lat":43.26198,"lon":5.3796,"is_reserved":false,"is_disabled":false,"rental_uris":{"android":"levelo://app?vid=a177d90b-566f-413a-91bb-13fbc5ecf461","ios":"levelo://app?vid=a177d90b-566f-413a-91bb-13fbc5ecf461"},"vehicle_type_id":"4","last_reported":1751977314,"current_range_meters":8400,"station_id":"ce4bhjp2rcd13ifvqg90","pricing_plan_id":"cebpf4jnsgd1na2vs0mg"},{"bike_id":"625cf6e2-53ad-48e8-8f2b-c97a61b545be","system_id":"levelo_inurba_marseille","lat":43.23191,"lon":5.39991,"is_reserved":false,"is_disabled":false,"rental_uris":{"android":"levelo://app?vid=625cf6e2-53ad-48e8-8f2b-c97a61b545be","ios":"levelo://app?vid=625cf6e2-53ad-48e8-8f2b-c97a61b545be"},"vehicle_type_id":"4","last_reported":1751977314,"current_range_meters":8400,"station_id":"ce4bhn12rcd13ifvqgqg","pricing_plan_id":"cebpf4jnsgd1na2vs0mg"},{"bike_id":"d7fa2b06-2d35-445b-abd2-e0a35d5c8fd1","system_id":"levelo_inurba_marseille","lat":43.31118,"lon":5.37771,"is_reserved":false,"is_disabled":false,"rental_uris":{"android":"levelo://app?vid=d7fa2b06-2d35-445b-abd2-e0a35d5c8fd1","ios":"levelo://app?vid=d7fa2b06-2d35-445b-abd2-e0a35d5c8fd1"},"vehicle_type_id":"4","last_reported":1751977314,"current_range_meters":8800,"station_id":"ce4bgt92rcd13ifvqcg0","pricing_plan_id":"cebpf4jnsgd1na2vs0mg"},{"bike_id":"af29126f-2579-44d6-8776-09b1459b60e4","system_id":"levelo_inurba_marseille","lat":43.26832,"lon":5.39435,"is_reserved":false,"is_disabled":false,"rental_uris":{"android":"levelo://app?vid=af29126f-2579-44d6-8776-09b1459b60e4","ios":"levelo://app?vid=af29126f-2579-44d6-8776-09b1459b60e4"},"vehicle_type_id":"4","last_reported":1751977314,"current_range_meters":8800,"station_id":"ce4bhh12rcd13ifvqfg0","pricing_plan_id":"cebpf4jnsgd1na2vs0mg"},{"bike_id":"8bacfb03-eb9f-4b74-877c-b3c57300424f","system_id":"levelo_inurba_marseille","lat":43.23963,"lon":5.36633,"is_reserved":false,"is_disabled":false,"rental_uris":{"android":"levelo://app?vid=8bacfb03-eb9f-4b74-877c-b3c57300424f","ios":"levelo://app?vid=8bacfb03-eb9f-4b74-877c-b3c57300424f"},"vehicle_type_id":"4","last_reported":1751977314,"current_range_meters":8800,"station_id":"ce4bhi12rcd13ifvqfp0","pricing_plan_id":"cebpf4jnsgd1na2vs0mg"},{"bike_id":"608bac89-0c16-45d5-9fbe-13e016f70edc","system_id":"levelo_inurba_marseille","lat":43.32097,"lon":5.36769,"is_reserved":false,"is_disabled":false,"rental_uris":{"android":"levelo://app?vid=608bac89-0c16-45d5-9fbe-13e016f70edc","ios":"levelo://app?vid=608bac89-0c16-45d5-9fbe-13e016f70edc"},"vehicle_type_id":"4","last_reported":1751977314,"current_range_meters":8800,"station_id":"ce4bhrh2rcd13ifvqhug","pricing_plan_id":"cebpf4jnsgd1na2vs0mg"},{"bike_id":"2c423baa-ecca-420a-87d7-ad0b7e0b9ebb","system_id":"levelo_inurba_marseille","lat":43.280388,"lon":5.353568,"is_reserved":false,"is_disabled":false,"rental_uris":{"android":"levelo://app?vid=2c423baa-ecca-420a-87d7-ad0b7e0b9ebb","ios":"levelo://app?vid=2c423baa-ecca-420a-87d7-ad0b7e0b9ebb"},"vehicle_type_id":"4","last_reported":1751977314,"current_range_meters":9200,"station_id":"","pricing_plan_id":"cebpf4jnsgd1na2vs0mg"},{"bike_id":"32eaf038-c12f-46fb-8729-c98b163bce4f","system_id":"levelo_inurba_marseille","lat":43.29592,"lon":5.3678,"is_reserved":false,"is_disabled":false,"rental_uris":{"android":"levelo://app?vid=32eaf038-c12f-46fb-8729-c98b163bce4f","ios":"levelo://app?vid=32eaf038-c12f-46fb-8729-c98b163bce4f"},"vehicle_type_id":"4","last_reported":1751977314,"current_range_meters":9200,"station_id":"ce4bgph2rcd13ifvqc2g","pricing_plan_id":"cebpf4jnsgd1na2vs0mg"},{"bike_id":"5f0d8196-0e04-4be1-b9b2-a5672512e2a5","system_id":"levelo_inurba_marseille","lat":43.30323,"lon":5.40432,"is_reserved":false,"is_disabled":false,"rental_uris":{"android":"levelo://app?vid=5f0d8196-0e04-4be1-b9b2-a5672512e2a5","ios":"levelo://app?vid=5f0d8196-0e04-4be1-b9b2-a5672512e2a5"},"vehicle_type_id":"4","last_reported":1751977314,"current_range_meters":9200,"station_id":"ce4bh012rcd13ifvqd10","pricing_plan_id":"cebpf4jnsgd1na2vs0mg"},{"bike_id":"39fdf1c3-e1a4-4685-bf55-1aec55e42a10","system_id":"levelo_inurba_marseille","lat":43.28883,"lon":5.3932,"is_reserved":false,"is_disabled":false,"rental_uris":{"android":"levelo://app?vid=39fdf1c3-e1a4-4685-bf55-1aec55e42a10","ios":"levelo://app?vid=39fdf1c3-e1a4-4685-bf55-1aec55e42a10"},"vehicle_type_id":"4","last_reported":1751977314,"current_range_meters":9200,"station_id":"ce4bh2p2rcd13ifvqdi0","pricing_plan_id":"cebpf4jnsgd1na2vs0mg"},{"bike_id":"5cecda58-ac45-4188-a931-12d668824aa9","system_id":"levelo_inurba_marseille","lat":43.261904,"lon":5.374499,"is_reserved":false,"is_disabled":false,"rental_uris":{"android":"levelo://app?vid=5cecda58-ac45-4188-a931-12d668824aa9","ios":"levelo://app?vid=5cecda58-ac45-4188-a931-12d668824aa9"},"vehicle_type_id":"4","last_reported":1751977314,"current_range_meters":9200,"station_id":"ce4bhgp2rcd13ifvqfc0","pricing_plan_id":"cebpf4jnsgd1na2vs0mg"},{"bike_id":"4e4b4bae-754f-4338-8b73-59306991585a","system_id":"levelo_inurba_marseille","lat":43.26946,"lon":5.38653,"is_reserved":false,"is_disabled":false,"rental_uris":{"android":"levelo://app?vid=4e4b4bae-754f-4338-8b73-59306991585a","ios":"levelo://app?vid=4e4b4bae-754f-4338-8b73-59306991585a"},"vehicle_type_id":"4","last_reported":1751977314,"current_range_meters":9200,"station_id":"ce4bhh92rcd13ifvqfh0","pricing_plan_id":"cebpf4jnsgd1na2vs0mg"},{"bike_id":"a70cfab5-f447-4d61-b80a-343a49825360","system_id":"levelo_inurba_marseille","lat":43.31716,"lon":5.37634,"is_reserved":false,"is_disabled":false,"rental_uris":{"android":"levelo://app?vid=a70cfab5-f447-4d61-b80a-343a49825360","ios":"levelo://app?vid=a70cfab5-f447-4d61-b80a-343a49825360"},"vehicle_type_id":"4","last_reported":1751977314,"current_range_meters":9600,"station_id":"","pricing_plan_id":"cebpf4jnsgd1na2vs0mg"},{"bike_id":"2a927385-b9ca-420f-9ee1-20065bd2d168","system_id":"levelo_inurba_marseille","lat":43.30899,"lon":5.37196,"is_reserved":false,"is_disabled":false,"rental_uris":{"android":"levelo://app?vid=2a927385-b9ca-420f-9ee1-20065bd2d168","ios":"levelo://app?vid=2a927385-b9ca-420f-9ee1-20065bd2d168"},"vehicle_type_id":"4","last_reported":1751977314,"current_range_meters":9600,"station_id":"ce4bguh2rcd13ifvqckg","pricing_plan_id":"cebpf4jnsgd1na2vs0mg"},{"bike_id":"50fe8f16-7b67-43df-8d85-b575609f03d7","system_id":"levelo_inurba_marseille","lat":43.29255,"lon":5.384493,"is_reserved":false,"is_disabled":false,"rental_uris":{"android":"levelo://app?vid=50fe8f16-7b67-43df-8d85-b575609f03d7","ios":"levelo://app?vid=50fe8f16-7b67-43df-8d85-b575609f03d7"},"vehicle_type_id":"4","last_reported":1751977314,"current_range_meters":9600,"station_id":"ce4bh692rcd13ifvqea0","pricing_plan_id":"cebpf4jnsgd1na2vs0mg"},{"bike_id":"80a7045d-d2d5-4d16-9719-94a91994e4d9","system_id":"levelo_inurba_marseille","lat":43.2696,"lon":5.38638,"is_reserved":false,"is_disabled":false,"rental_uris":{"android":"levelo://app?vid=80a7045d-d2d5-4d16-9719-94a91994e4d9","ios":"levelo://app?vid=80a7045d-d2d5-4d16-9719-94a91994e4d9"},"vehicle_type_id":"4","last_reported":1751977314,"current_range_meters":9600,"station_id":"ce4bhh92rcd13ifvqfh0","pricing_plan_id":"cebpf4jnsgd1na2vs0mg"},{"bike_id":"744884f6-5a9f-4d58-9401-4e825729e979","system_id":"levelo_inurba_marseille","lat":43.320462,"lon":5.415446,"is_reserved":false,"is_disabled":false,"rental_uris":{"android":"levelo://app?vid=744884f6-5a9f-4d58-9401-4e825729e979","ios":"levelo://app?vid=744884f6-5a9f-4d58-9401-4e825729e979"},"vehicle_type_id":"4","last_reported":1751977314,"current_range_meters":9600,"station_id":"ce4bhq92rcd13ifvqhkg","pricing_plan_id":"cebpf4jnsgd1na2vs0mg"},{"bike_id":"a31d7b1d-f875-4f27-b8f6-640a4ac62493","system_id":"levelo_inurba_marseille","lat":43.33723,"lon":5.39184,"is_reserved":false,"is_disabled":false,"rental_uris":{"android":"levelo://app?vid=a31d7b1d-f875-4f27-b8f6-640a4ac62493","ios":"levelo://app?vid=a31d7b1d-f875-4f27-b8f6-640a4ac62493"},"vehicle_type_id":"4","last_reported":1751977314,"current_range_meters":9600,"station_id":"ce4bhr92rcd13ifvqhsg","pricing_plan_id":"cebpf4jnsgd1na2vs0mg"},{"bike_id":"7647f350-463c-48de-a42a-197c506c46be","system_id":"levelo_inurba_marseille","lat":43.29844,"lon":5.36273,"is_reserved":false,"is_disabled":false,"rental_uris":{"android":"levelo://app?vid=7647f350-463c-48de-a42a-197c506c46be","ios":"levelo://app?vid=7647f350-463c-48de-a42a-197c506c46be"},"vehicle_type_id":"4","last_reported":1751977314,"current_range_meters":10000,"station_id":"ce4bgpp2rcd13ifvqc3g","pricing_plan_id":"cebpf4jnsgd1na2vs0mg"},{"bike_id":"1beb9811-25b2-4378-9566-9af6e47206ed","system_id":"levelo_inurba_marseille","lat":43.30543,"lon":5.36556,"is_reserved":false,"is_disabled":false,"rental_uris":{"android":"levelo://app?vid=1beb9811-25b2-4378-9566-9af6e47206ed","ios":"levelo://app?vid=1beb9811-25b2-4378-9566-9af6e47206ed"},"vehicle_type_id":"4","last_reported":1751977314,"current_range_meters":10000,"station_id":"ce4bgs12rcd13ifvqcag","pricing_plan_id":"cebpf4jnsgd1na2vs0mg"},{"bike_id":"f8dc89b9-88e1-4d80-8f23-ae9007f5be9c","system_id":"levelo_inurba_marseille","lat":43.30555,"lon":5.36551,"is_reserved":false,"is_disabled":false,"rental_uris":{"android":"levelo://app?vid=f8dc89b9-88e1-4d80-8f23-ae9007f5be9c","ios":"levelo://app?vid=f8dc89b9-88e1-4d80-8f23-ae9007f5be9c"},"vehicle_type_id":"4","last_reported":1751977314,"current_range_meters":10000,"station_id":"ce4bgs12rcd13ifvqcag","pricing_plan_id":"cebpf4jnsgd1na2vs0mg"},{"bike_id":"97344729-916a-4198-8b1d-f432fa0c3a47","system_id":"levelo_inurba_marseille","lat":43.29276,"lon":5.40116,"is_reserved":false,"is_disabled":false,"rental_uris":{"android":"levelo://app?vid=97344729-916a-4198-8b1d-f432fa0c3a47","ios":"levelo://app?vid=97344729-916a-4198-8b1d-f432fa0c3a47"},"vehicle_type_id":"4","last_reported":1751977314,"current_range_meters":10000,"station_id":"ce4bh312rcd13ifvqdk0","pricing_plan_id":"cebpf4jnsgd1na2vs0mg"},{"bike_id":"072aef18-8c4c-41ca-9032-1b5fba7539b3","system_id":"levelo_inurba_marseille","lat":43.31992,"lon":5.36752,"is_reserved":false,"is_disabled":false,"rental_uris":{"android":"levelo://app?vid=072aef18-8c4c-41ca-9032-1b5fba7539b3","ios":"levelo://app?vid=072aef18-8c4c-41ca-9032-1b5fba7539b3"},"vehicle_type_id":"4","last_reported":1751977314,"current_range_meters":10000,"station_id":"ce4bhrh2rcd13ifvqhug","pricing_plan_id":"cebpf4jnsgd1na2vs0mg"},{"bike_id":"18e2cad1-26f9-46d6-a89f-63408c082aca","system_id":"levelo_inurba_marseille","lat":43.32474,"lon":5.36581,"is_reserved":false,"is_disabled":false,"rental_uris":{"android":"levelo://app?vid=18e2cad1-26f9-46d6-a89f-63408c082aca","ios":"levelo://app?vid=18e2cad1-26f9-46d6-a89f-63408c082aca"},"vehicle_type_id":"4","last_reported":1751977314,"current_range_meters":10000,"station_id":"ce4bhs12rcd13ifvqhvg","pricing_plan_id":"cebpf4jnsgd1na2vs0mg"},{"bike_id":"044e77fa-4679-4fa3-8c05-af8b0e584d50","system_id":"levelo_inurba_marseille","lat":43.31358,"lon":5.36773,"is_reserved":false,"is_disabled":false,"rental_uris":{"android":"levelo://app?vid=044e77fa-4679-4fa3-8c05-af8b0e584d50","ios":"levelo://app?vid=044e77fa-4679-4fa3-8c05-af8b0e584d50"},"vehicle_type_id":"4","last_reported":1751977314,"current_range_meters":10800,"station_id":"","pricing_plan_id":"cebpf4jnsgd1na2vs0mg"},{"bike_id":"31bd6179-ef4a-4a7f-983e-7d415758ce41","system_id":"levelo_inurba_marseille","lat":43.25933,"lon":5.40966,"is_reserved":false,"is_disabled":false,"rental_uris":{"android":"levelo://app?vid=31bd6179-ef4a-4a7f-983e-7d415758ce41","ios":"levelo://app?vid=31bd6179-ef4a-4a7f-983e-7d415758ce41"},"vehicle_type_id":"4","last_reported":1751977314,"current_range_meters":10800,"station_id":"","pricing_plan_id":"cebpf4jnsgd1na2vs0mg"},{"bike_id":"23a5d465-23e8-43ad-bea3-539fbe730c8f","system_id":"levelo_inurba_marseille","lat":43.28418,"lon":5.350027,"is_reserved":false,"is_disabled":false,"rental_uris":{"android":"levelo://app?vid=23a5d465-23e8-43ad-bea3-539fbe730c8f","ios":"levelo://app?vid=23a5d465-23e8-43ad-bea3-539fbe730c8f"},"vehicle_type_id":"4","last_reported":1751977314,"current_range_meters":10800,"station_id":"ce4bhbh2rcd13ifvqepg","pricing_plan_id":"cebpf4jnsgd1na2vs0mg"},{"bike_id":"1a096bfe-aa2d-48b0-9089-869ea6c51cb6","system_id":"levelo_inurba_marseille","lat":43.32657,"lon":5.41005,"is_reserved":false,"is_disabled":false,"rental_uris":{"android":"levelo://app?vid=1a096bfe-aa2d-48b0-9089-869ea6c51cb6","ios":"levelo://app?vid=1a096bfe-aa2d-48b0-9089-869ea6c51cb6"},"vehicle_type_id":"4","last_reported":1751977314,"current_range_meters":10800,"station_id":"ce4bhpp2rcd13ifvqhgg","pricing_plan_id":"cebpf4jnsgd1na2vs0mg"},{"bike_id":"373f7154-05e4-4923-8d21-eb4b99691656","system_id":"levelo_inurba_marseille","lat":43.31496,"lon":5.38606,"is_reserved":false,"is_disabled":false,"rental_uris":{"android":"levelo://app?vid=373f7154-05e4-4923-8d21-eb4b99691656","ios":"levelo://app?vid=373f7154-05e4-4923-8d21-eb4b99691656"},"vehicle_type_id":"4","last_reported":1751977314,"current_range_meters":11200,"station_id":"","pricing_plan_id":"cebpf4jnsgd1na2vs0mg"},{"bike_id":"51729ad6-58fe-4dd5-ba02-40d4afe081d1","system_id":"levelo_inurba_marseille","lat":43.29666,"lon":5.37159,"is_reserved":false,"is_disabled":false,"rental_uris":{"android":"levelo://app?vid=51729ad6-58fe-4dd5-ba02-40d4afe081d1","ios":"levelo://app?vid=51729ad6-58fe-4dd5-ba02-40d4afe081d1"},"vehicle_type_id":"4","last_reported":1751977314,"current_range_meters":11200,"station_id":"","pricing_plan_id":"cebpf4jnsgd1na2vs0mg"},{"bike_id":"7d596757-dd24-4146-a6fc-a18ae3046100","system_id":"levelo_inurba_marseille","lat":43.30807,"lon":5.38158,"is_reserved":false,"is_disabled":false,"rental_uris":{"android":"levelo://app?vid=7d596757-dd24-4146-a6fc-a18ae3046100","ios":"levelo://app?vid=7d596757-dd24-4146-a6fc-a18ae3046100"},"vehicle_type_id":"4","last_reported":1751977314,"current_range_meters":11200,"station_id":"ce4bgt12rcd13ifvqce0","pricing_plan_id":"cebpf4jnsgd1na2vs0mg"},{"bike_id":"2a701c8c-1f67-4961-8b42-a2c6bf5bd241","system_id":"levelo_inurba_marseille","lat":43.25126,"lon":5.40318,"is_reserved":false,"is_disabled":false,"rental_uris":{"android":"levelo://app?vid=2a701c8c-1f67-4961-8b42-a2c6bf5bd241","ios":"levelo://app?vid=2a701c8c-1f67-4961-8b42-a2c6bf5bd241"},"vehicle_type_id":"4","last_reported":1751977314,"current_range_meters":11200,"station_id":"ce4bhlh2rcd13ifvqgig","pricing_plan_id":"cebpf4jnsgd1na2vs0mg"},{"bike_id":"c2ee7d66-374b-44cd-b9d7-9ad64301293b","system_id":"levelo_inurba_marseille","lat":43.27978,"lon":5.35384,"is_reserved":false,"is_disabled":false,"rental_uris":{"android":"levelo://app?vid=c2ee7d66-374b-44cd-b9d7-9ad64301293b","ios":"levelo://app?vid=c2ee7d66-374b-44cd-b9d7-9ad64301293b"},"vehicle_type_id":"4","last_reported":1751977314,"current_range_meters":11600,"station_id":"","pricing_plan_id":"cebpf4jnsgd1na2vs0mg"},{"bike_id":"3dbd1760-20e6-44bd-a384-30f19a861f72","system_id":"levelo_inurba_marseille","lat":43.29539,"lon":5.38541,"is_reserved":false,"is_disabled":false,"rental_uris":{"android":"levelo://app?vid=3dbd1760-20e6-44bd-a384-30f19a861f72","ios":"levelo://app?vid=3dbd1760-20e6-44bd-a384-30f19a861f72"},"vehicle_type_id":"4","last_reported":1751977314,"current_range_meters":11600,"station_id":"ce4bgih2rcd13ifvqba0","pricing_plan_id":"cebpf4jnsgd1na2vs0mg"},{"bike_id":"744827df-96cb-4424-8440-33eb4104eefd","system_id":"levelo_inurba_marseille","lat":43.29886,"lon":5.3891,"is_reserved":false,"is_disabled":false,"rental_uris":{"android":"levelo://app?vid=744827df-96cb-4424-8440-33eb4104eefd","ios":"levelo://app?vid=744827df-96cb-4424-8440-33eb4104eefd"},"vehicle_type_id":"4","last_reported":1751977314,"current_range_meters":11600,"station_id":"ce4bh392rcd13ifvqdl0","pricing_plan_id":"cebpf4jnsgd1na2vs0mg"},{"bike_id":"9f17762a-490c-4bc8-b945-dea851282250","system_id":"levelo_inurba_marseille","lat":43.29037,"lon":5.399998,"is_reserved":false,"is_disabled":false,"rental_uris":{"android":"levelo://app?vid=9f17762a-490c-4bc8-b945-dea851282250","ios":"levelo://app?vid=9f17762a-490c-4bc8-b945-dea851282250"},"vehicle_type_id":"4","last_reported":1751977314,"current_range_meters":11600,"station_id":"ce4bh392rcd13ifvqdm0","pricing_plan_id":"cebpf4jnsgd1na2vs0mg"},{"bike_id":"624cb722-0a96-4b62-8eb0-82852e21331a","system_id":"levelo_inurba_marseille","lat":43.28994,"lon":5.37843,"is_reserved":false,"is_disabled":false,"rental_uris":{"android":"levelo://app?vid=624cb722-0a96-4b62-8eb0-82852e21331a","ios":"levelo://app?vid=624cb722-0a96-4b62-8eb0-82852e21331a"},"vehicle_type_id":"4","last_reported":1751977314,"current_range_meters":11600,"station_id":"ce4bh9p2rcd13ifvqed0","pricing_plan_id":"cebpf4jnsgd1na2vs0mg"},{"bike_id":"5c97b68e-c0e4-4780-8a41-7f6f3056f8f9","system_id":"levelo_inurba_marseille","lat":43.23186,"lon":5.39985,"is_reserved":false,"is_disabled":false,"rental_uris":{"android":"levelo://app?vid=5c97b68e-c0e4-4780-8a41-7f6f3056f8f9","ios":"levelo://app?vid=5c97b68e-c0e4-4780-8a41-7f6f3056f8f9"},"vehicle_type_id":"4","last_reported":1751977314,"current_range_meters":11600,"station_id":"ce4bhn12rcd13ifvqgqg","pricing_plan_id":"cebpf4jnsgd1na2vs0mg"},{"bike_id":"a9fd3e12-457b-4213-a7e1-b92703b095cb","system_id":"levelo_inurba_marseille","lat":43.27158,"lon":5.391998,"is_reserved":false,"is_disabled":false,"rental_uris":{"android":"levelo://app?vid=a9fd3e12-457b-4213-a7e1-b92703b095cb","ios":"levelo://app?vid=a9fd3e12-457b-4213-a7e1-b92703b095cb"},"vehicle_type_id":"4","last_reported":1751977314,"current_range_meters":11600,"station_id":"ce4bhnh2rcd13ifvqgtg","pricing_plan_id":"cebpf4jnsgd1na2vs0mg"},{"bike_id":"2090512e-543d-4a55-b888-2423e2f84234","system_id":"levelo_inurba_marseille","lat":43.24061,"lon":5.37693,"is_reserved":false,"is_disabled":false,"rental_uris":{"android":"levelo://app?vid=2090512e-543d-4a55-b888-2423e2f84234","ios":"levelo://app?vid=2090512e-543d-4a55-b888-2423e2f84234"},"vehicle_type_id":"4","last_reported":1751977314,"current_range_meters":11600,"station_id":"ce4bhnp2rcd13ifvqgvg","pricing_plan_id":"cebpf4jnsgd1na2vs0mg"},{"bike_id":"0e400d37-5159-4e46-912d-62ee145e4a44","system_id":"levelo_inurba_marseille","lat":43.32668,"lon":5.41009,"is_reserved":false,"is_disabled":false,"rental_uris":{"android":"levelo://app?vid=0e400d37-5159-4e46-912d-62ee145e4a44","ios":"levelo://app?vid=0e400d37-5159-4e46-912d-62ee145e4a44"},"vehicle_type_id":"4","last_reported":1751977314,"current_range_meters":11600,"station_id":"ce4bhpp2rcd13ifvqhgg","pricing_plan_id":"cebpf4jnsgd1na2vs0mg"},{"bike_id":"bac13eb2-75b6-43a2-8750-65111fd6394f","system_id":"levelo_inurba_marseille","lat":43.32115,"lon":5.36774,"is_reserved":false,"is_disabled":false,"rental_uris":{"android":"levelo://app?vid=bac13eb2-75b6-43a2-8750-65111fd6394f","ios":"levelo://app?vid=bac13eb2-75b6-43a2-8750-65111fd6394f"},"vehicle_type_id":"4","last_reported":1751977314,"current_range_meters":11600,"station_id":"ce4bhrh2rcd13ifvqhug","pricing_plan_id":"cebpf4jnsgd1na2vs0mg"},{"bike_id":"ceefb4df-f38a-4c0f-a943-fed521cb543f","system_id":"levelo_inurba_marseille","lat":43.3248,"lon":5.366,"is_reserved":false,"is_disabled":false,"rental_uris":{"android":"levelo://app?vid=ceefb4df-f38a-4c0f-a943-fed521cb543f","ios":"levelo://app?vid=ceefb4df-f38a-4c0f-a943-fed521cb543f"},"vehicle_type_id":"4","last_reported":1751977314,"current_range_meters":11600,"station_id":"ce4bhs12rcd13ifvqhvg","pricing_plan_id":"cebpf4jnsgd1na2vs0mg"},{"bike_id":"98f46642-8fdc-43be-8379-a5bf33d8441b","system_id":"levelo_inurba_marseille","lat":43.21196,"lon":5.35075,"is_reserved":false,"is_disabled":false,"rental_uris":{"android":"levelo://app?vid=98f46642-8fdc-43be-8379-a5bf33d8441b","ios":"levelo://app?vid=98f46642-8fdc-43be-8379-a5bf33d8441b"},"vehicle_type_id":"4","last_reported":1751977314,"current_range_meters":11600,"station_id":"st_cvj6sg6p6f1abm77japg","pricing_plan_id":"cebpf4jnsgd1na2vs0mg"},{"bike_id":"2f590f15-c9d2-454d-b8ca-1df7e26472f7","system_id":"levelo_inurba_marseille","lat":43.30259,"lon":5.38777,"is_reserved":false,"is_disabled":false,"rental_uris":{"android":"levelo://app?vid=2f590f15-c9d2-454d-b8ca-1df7e26472f7","ios":"levelo://app?vid=2f590f15-c9d2-454d-b8ca-1df7e26472f7"},"vehicle_type_id":"4","last_reported":1751977314,"current_range_meters":12000,"station_id":"ce4bgjp2rcd13ifvqbh0","pricing_plan_id":"cebpf4jnsgd1na2vs0mg"},{"bike_id":"eb518bb0-5dd5-4762-bf58-5c5db5fd85f4","system_id":"levelo_inurba_marseille","lat":43.31501,"lon":5.372965,"is_reserved":false,"is_disabled":false,"rental_uris":{"android":"levelo://app?vid=eb518bb0-5dd5-4762-bf58-5c5db5fd85f4","ios":"levelo://app?vid=eb518bb0-5dd5-4762-bf58-5c5db5fd85f4"},"vehicle_type_id":"4","last_reported":1751977314,"current_range_meters":12000,"station_id":"ce4bgt12rcd13ifvqcd0","pricing_plan_id":"cebpf4jnsgd1na2vs0mg"},{"bike_id":"b9a2d8d5-1c12-4f14-9379-d905fdc3c148","system_id":"levelo_inurba_marseille","lat":43.28562,"lon":5.39485,"is_reserved":false,"is_disabled":false,"rental_uris":{"android":"levelo://app?vid=b9a2d8d5-1c12-4f14-9379-d905fdc3c148","ios":"levelo://app?vid=b9a2d8d5-1c12-4f14-9379-d905fdc3c148"},"vehicle_type_id":"4","last_reported":1751977314,"current_range_meters":12000,"station_id":"ce4bh292rcd13ifvqdg0","pricing_plan_id":"cebpf4jnsgd1na2vs0mg"},{"bike_id":"f9f6c926-4090-4e61-a32e-3d8283ad4548","system_id":"levelo_inurba_marseille","lat":43.27354,"lon":5.39121,"is_reserved":false,"is_disabled":false,"rental_uris":{"android":"levelo://app?vid=f9f6c926-4090-4e61-a32e-3d8283ad4548","ios":"levelo://app?vid=f9f6c926-4090-4e61-a32e-3d8283ad4548"},"vehicle_type_id":"4","last_reported":1751977314,"current_range_meters":12000,"station_id":"ce4bhgp2rcd13ifvqfe0","pricing_plan_id":"cebpf4jnsgd1na2vs0mg"},{"bike_id":"8696ae5c-7046-4b80-b671-54f1f745fe73","system_id":"levelo_inurba_marseille","lat":43.26204,"lon":5.37932,"is_reserved":false,"is_disabled":false,"rental_uris":{"android":"levelo://app?vid=8696ae5c-7046-4b80-b671-54f1f745fe73","ios":"levelo://app?vid=8696ae5c-7046-4b80-b671-54f1f745fe73"},"vehicle_type_id":"4","last_reported":1751977314,"current_range_meters":12000,"station_id":"ce4bhjp2rcd13ifvqg90","pricing_plan_id":"cebpf4jnsgd1na2vs0mg"},{"bike_id":"361c5398-2978-4873-882e-a3172612449b","system_id":"levelo_inurba_marseille","lat":43.262178,"lon":5.40442,"is_reserved":false,"is_disabled":false,"rental_uris":{"android":"levelo://app?vid=361c5398-2978-4873-882e-a3172612449b","ios":"levelo://app?vid=361c5398-2978-4873-882e-a3172612449b"},"vehicle_type_id":"4","last_reported":1751977314,"current_range_meters":12000,"station_id":"ce4bhmh2rcd13ifvqgmg","pricing_plan_id":"cebpf4jnsgd1na2vs0mg"},{"bike_id":"910e7672-d724-4195-a4e9-ffc3ceef0d80","system_id":"levelo_inurba_marseille","lat":43.30789,"lon":5.4353,"is_reserved":false,"is_disabled":false,"rental_uris":{"android":"levelo://app?vid=910e7672-d724-4195-a4e9-ffc3ceef0d80","ios":"levelo://app?vid=910e7672-d724-4195-a4e9-ffc3ceef0d80"},"vehicle_type_id":"4","last_reported":1751977314,"current_range_meters":12000,"station_id":"ce4bhph2rcd13ifvqheg","pricing_plan_id":"cebpf4jnsgd1na2vs0mg"},{"bike_id":"e54a69bc-634c-4579-91a1-2ea1e7521c68","system_id":"levelo_inurba_marseille","lat":43.30158,"lon":5.37216,"is_reserved":false,"is_disabled":false,"rental_uris":{"android":"levelo://app?vid=e54a69bc-634c-4579-91a1-2ea1e7521c68","ios":"levelo://app?vid=e54a69bc-634c-4579-91a1-2ea1e7521c68"},"vehicle_type_id":"4","last_reported":1751977314,"current_range_meters":12400,"station_id":"","pricing_plan_id":"cebpf4jnsgd1na2vs0mg"},{"bike_id":"6ffc31bf-be63-440b-8353-4ff83386083b","system_id":"levelo_inurba_marseille","lat":43.29828,"lon":5.36446,"is_reserved":false,"is_disabled":false,"rental_uris":{"android":"levelo://app?vid=6ffc31bf-be63-440b-8353-4ff83386083b","ios":"levelo://app?vid=6ffc31bf-be63-440b-8353-4ff83386083b"},"vehicle_type_id":"4","last_reported":1751977314,"current_range_meters":12400,"station_id":"","pricing_plan_id":"cebpf4jnsgd1na2vs0mg"},{"bike_id":"b9eaa9e0-d579-4b4e-81e1-d1d2de5c4b17","system_id":"levelo_inurba_marseille","lat":43.30313,"lon":5.36896,"is_reserved":false,"is_disabled":false,"rental_uris":{"android":"levelo://app?vid=b9eaa9e0-d579-4b4e-81e1-d1d2de5c4b17","ios":"levelo://app?vid=b9eaa9e0-d579-4b4e-81e1-d1d2de5c4b17"},"vehicle_type_id":"4","last_reported":1751977314,"current_range_meters":12400,"station_id":"ce4bgqh2rcd13ifvqc5g","pricing_plan_id":"cebpf4jnsgd1na2vs0mg"},{"bike_id":"558c27cf-0296-44ad-81a4-527b14fd9bdb","system_id":"levelo_inurba_marseille","lat":43.31381,"lon":5.367175,"is_reserved":false,"is_disabled":false,"rental_uris":{"android":"levelo://app?vid=558c27cf-0296-44ad-81a4-527b14fd9bdb","ios":"levelo://app?vid=558c27cf-0296-44ad-81a4-527b14fd9bdb"},"vehicle_type_id":"4","last_reported":1751977314,"current_range_meters":12400,"station_id":"ce4bgr92rcd13ifvqc6g","pricing_plan_id":"cebpf4jnsgd1na2vs0mg"},{"bike_id":"4d35e398-5b08-4e83-b014-8e7bce333d78","system_id":"levelo_inurba_marseille","lat":43.28707,"lon":5.37399,"is_reserved":false,"is_disabled":false,"rental_uris":{"android":"levelo://app?vid=4d35e398-5b08-4e83-b014-8e7bce333d78","ios":"levelo://app?vid=4d35e398-5b08-4e83-b014-8e7bce333d78"},"vehicle_type_id":"4","last_reported":1751977314,"current_range_meters":12400,"station_id":"ce4bh3p2rcd13ifvqdq0","pricing_plan_id":"cebpf4jnsgd1na2vs0mg"},{"bike_id":"d6b5e40a-0bb1-4676-b2b3-6806492e21c7","system_id":"levelo_inurba_marseille","lat":43.28041,"lon":5.36953,"is_reserved":false,"is_disabled":false,"rental_uris":{"android":"levelo://app?vid=d6b5e40a-0bb1-4676-b2b3-6806492e21c7","ios":"levelo://app?vid=d6b5e40a-0bb1-4676-b2b3-6806492e21c7"},"vehicle_type_id":"4","last_reported":1751977314,"current_range_meters":12400,"station_id":"ce4bha12rcd13ifvqef0","pricing_plan_id":"cebpf4jnsgd1na2vs0mg"},{"bike_id":"b3b2a3f2-3128-41d1-ab95-950a743d83dc","system_id":"levelo_inurba_marseille","lat":43.27305,"lon":5.39078,"is_reserved":false,"is_disabled":false,"rental_uris":{"android":"levelo://app?vid=b3b2a3f2-3128-41d1-ab95-950a743d83dc","ios":"levelo://app?vid=b3b2a3f2-3128-41d1-ab95-950a743d83dc"},"vehicle_type_id":"4","last_reported":1751977314,"current_range_meters":12400,"station_id":"ce4bhgp2rcd13ifvqfe0","pricing_plan_id":"cebpf4jnsgd1na2vs0mg"},{"bike_id":"ef37d4e2-0ac0-46be-951e-4995a78ba684","system_id":"levelo_inurba_marseille","lat":43.25492,"lon":5.37672,"is_reserved":false,"is_disabled":false,"rental_uris":{"android":"levelo://app?vid=ef37d4e2-0ac0-46be-951e-4995a78ba684","ios":"levelo://app?vid=ef37d4e2-0ac0-46be-951e-4995a78ba684"},"vehicle_type_id":"4","last_reported":1751977314,"current_range_meters":12400,"station_id":"ce4bhh12rcd13ifvqff0","pricing_plan_id":"cebpf4jnsgd1na2vs0mg"},{"bike_id":"d0c5d792-0761-4141-a0b1-6f288f3c6fc1","system_id":"levelo_inurba_marseille","lat":43.27188,"lon":5.39225,"is_reserved":false,"is_disabled":false,"rental_uris":{"android":"levelo://app?vid=d0c5d792-0761-4141-a0b1-6f288f3c6fc1","ios":"levelo://app?vid=d0c5d792-0761-4141-a0b1-6f288f3c6fc1"},"vehicle_type_id":"4","last_reported":1751977314,"current_range_meters":12400,"station_id":"ce4bhhp2rcd13ifvqfm0","pricing_plan_id":"cebpf4jnsgd1na2vs0mg"},{"bike_id":"888522e3-39b6-4ff3-ad74-ff6c6f771157","system_id":"levelo_inurba_marseille","lat":43.295,"lon":5.4025,"is_reserved":false,"is_disabled":false,"rental_uris":{"android":"levelo://app?vid=888522e3-39b6-4ff3-ad74-ff6c6f771157","ios":"levelo://app?vid=888522e3-39b6-4ff3-ad74-ff6c6f771157"},"vehicle_type_id":"4","last_reported":1751977314,"current_range_meters":12800,"station_id":"","pricing_plan_id":"cebpf4jnsgd1na2vs0mg"},{"bike_id":"5060a4e9-16aa-46c2-b98e-60fefe3b35a9","system_id":"levelo_inurba_marseille","lat":43.29533,"lon":5.37513,"is_reserved":false,"is_disabled":false,"rental_uris":{"android":"levelo://app?vid=5060a4e9-16aa-46c2-b98e-60fefe3b35a9","ios":"levelo://app?vid=5060a4e9-16aa-46c2-b98e-60fefe3b35a9"},"vehicle_type_id":"4","last_reported":1751977314,"current_range_meters":12800,"station_id":"ce4bgkp2rcd13ifvqbmg","pricing_plan_id":"cebpf4jnsgd1na2vs0mg"},{"bike_id":"45494ad2-30f6-4e83-954c-21c771da2655","system_id":"levelo_inurba_marseille","lat":43.26215,"lon":5.37445,"is_reserved":false,"is_disabled":false,"rental_uris":{"android":"levelo://app?vid=45494ad2-30f6-4e83-954c-21c771da2655","ios":"levelo://app?vid=45494ad2-30f6-4e83-954c-21c771da2655"},"vehicle_type_id":"4","last_reported":1751977314,"current_range_meters":12800,"station_id":"ce4bhgp2rcd13ifvqfc0","pricing_plan_id":"cebpf4jnsgd1na2vs0mg"},{"bike_id":"4e6ba48a-4bc2-4b50-9119-854ca11e9db0","system_id":"levelo_inurba_marseille","lat":43.24077,"lon":5.37776,"is_reserved":false,"is_disabled":false,"rental_uris":{"android":"levelo://app?vid=4e6ba48a-4bc2-4b50-9119-854ca11e9db0","ios":"levelo://app?vid=4e6ba48a-4bc2-4b50-9119-854ca11e9db0"},"vehicle_type_id":"4","last_reported":1751977314,"current_range_meters":12800,"station_id":"ce4bhnp2rcd13ifvqgvg","pricing_plan_id":"cebpf4jnsgd1na2vs0mg"},{"bike_id":"bcbe3056-9c38-4ff8-b15c-86a1f9a52cd9","system_id":"levelo_inurba_marseille","lat":43.311926,"lon":5.401866,"is_reserved":false,"is_disabled":false,"rental_uris":{"android":"levelo://app?vid=bcbe3056-9c38-4ff8-b15c-86a1f9a52cd9","ios":"levelo://app?vid=bcbe3056-9c38-4ff8-b15c-86a1f9a52cd9"},"vehicle_type_id":"4","last_reported":1751977314,"current_range_meters":13600,"station_id":"","pricing_plan_id":"cebpf4jnsgd1na2vs0mg"},{"bike_id":"82f40aca-214c-480a-99d7-4df294448107","system_id":"levelo_inurba_marseille","lat":43.254894,"lon":5.376452,"is_reserved":false,"is_disabled":false,"rental_uris":{"android":"levelo://app?vid=82f40aca-214c-480a-99d7-4df294448107","ios":"levelo://app?vid=82f40aca-214c-480a-99d7-4df294448107"},"vehicle_type_id":"4","last_reported":1751977314,"current_range_meters":13600,"station_id":"ce4bhh12rcd13ifvqff0","pricing_plan_id":"cebpf4jnsgd1na2vs0mg"},{"bike_id":"a3653a29-bef8-4d42-8540-9b2bbd5cd893","system_id":"levelo_inurba_marseille","lat":43.3248,"lon":5.36565,"is_reserved":false,"is_disabled":false,"rental_uris":{"android":"levelo://app?vid=a3653a29-bef8-4d42-8540-9b2bbd5cd893","ios":"levelo://app?vid=a3653a29-bef8-4d42-8540-9b2bbd5cd893"},"vehicle_type_id":"4","last_reported":1751977314,"current_range_meters":13600,"station_id":"ce4bhs12rcd13ifvqhvg","pricing_plan_id":"cebpf4jnsgd1na2vs0mg"},{"bike_id":"b287377f-3d0b-47ac-86fe-9e0dfc1563de","system_id":"levelo_inurba_marseille","lat":43.22498,"lon":5.34787,"is_reserved":false,"is_disabled":false,"rental_uris":{"android":"levelo://app?vid=b287377f-3d0b-47ac-86fe-9e0dfc1563de","ios":"levelo://app?vid=b287377f-3d0b-47ac-86fe-9e0dfc1563de"},"vehicle_type_id":"4","last_reported":1751977314,"current_range_meters":13600,"station_id":"st_cvj5dfep6f1abm77gieg","pricing_plan_id":"cebpf4jnsgd1na2vs0mg"},{"bike_id":"77c63ecf-8ec4-46ab-b695-3fed0ff0fb70","system_id":"levelo_inurba_marseille","lat":43.29922,"lon":5.43703,"is_reserved":false,"is_disabled":false,"rental_uris":{"android":"levelo://app?vid=77c63ecf-8ec4-46ab-b695-3fed0ff0fb70","ios":"levelo://app?vid=77c63ecf-8ec4-46ab-b695-3fed0ff0fb70"},"vehicle_type_id":"4","last_reported":1751977314,"current_range_meters":14000,"station_id":"","pricing_plan_id":"cebpf4jnsgd1na2vs0mg"},{"bike_id":"2f82a57b-30f3-4db6-8d1b-a11f19eb1349","system_id":"levelo_inurba_marseille","lat":43.27495,"lon":5.42457,"is_reserved":false,"is_disabled":false,"rental_uris":{"android":"levelo://app?vid=2f82a57b-30f3-4db6-8d1b-a11f19eb1349","ios":"levelo://app?vid=2f82a57b-30f3-4db6-8d1b-a11f19eb1349"},"vehicle_type_id":"4","last_reported":1751977314,"current_range_meters":14000,"station_id":"ce4bhn92rcd13ifvqgrg","pricing_plan_id":"cebpf4jnsgd1na2vs0mg"},{"bike_id":"a0f0525f-f61e-47da-a3d5-53d229b31754","system_id":"levelo_inurba_marseille","lat":43.33608,"lon":5.41033,"is_reserved":false,"is_disabled":false,"rental_uris":{"android":"levelo://app?vid=a0f0525f-f61e-47da-a3d5-53d229b31754","ios":"levelo://app?vid=a0f0525f-f61e-47da-a3d5-53d229b31754"},"vehicle_type_id":"4","last_reported":1751977314,"current_range_meters":14000,"station_id":"ce4bhqh2rcd13ifvqhmg","pricing_plan_id":"cebpf4jnsgd1na2vs0mg"},{"bike_id":"34420465-ef1c-453f-9f3d-5edec9e76b2f","system_id":"levelo_inurba_marseille","lat":43.21197,"lon":5.35073,"is_reserved":false,"is_disabled":false,"rental_uris":{"android":"levelo://app?vid=34420465-ef1c-453f-9f3d-5edec9e76b2f","ios":"levelo://app?vid=34420465-ef1c-453f-9f3d-5edec9e76b2f"},"vehicle_type_id":"4","last_reported":1751977314,"current_range_meters":14000,"station_id":"st_cvj6sg6p6f1abm77japg","pricing_plan_id":"cebpf4jnsgd1na2vs0mg"},{"bike_id":"d5ef770d-9759-47e3-b3a5-7d2785ef76db","system_id":"levelo_inurba_marseille","lat":43.32929,"lon":5.39031,"is_reserved":false,"is_disabled":false,"rental_uris":{"android":"levelo://app?vid=d5ef770d-9759-47e3-b3a5-7d2785ef76db","ios":"levelo://app?vid=d5ef770d-9759-47e3-b3a5-7d2785ef76db"},"vehicle_type_id":"4","last_reported":1751977314,"current_range_meters":14400,"station_id":"","pricing_plan_id":"cebpf4jnsgd1na2vs0mg"},{"bike_id":"afd2c671-b274-4716-95f7-9abfdfc6dc55","system_id":"levelo_inurba_marseille","lat":43.31428,"lon":5.37539,"is_reserved":false,"is_disabled":false,"rental_uris":{"android":"levelo://app?vid=afd2c671-b274-4716-95f7-9abfdfc6dc55","ios":"levelo://app?vid=afd2c671-b274-4716-95f7-9abfdfc6dc55"},"vehicle_type_id":"4","last_reported":1751977314,"current_range_meters":14400,"station_id":"","pricing_plan_id":"cebpf4jnsgd1na2vs0mg"},{"bike_id":"f55e4238-4a40-432c-9ed1-3a649d4698bf","system_id":"levelo_inurba_marseille","lat":43.313662,"lon":5.367238,"is_reserved":false,"is_disabled":false,"rental_uris":{"android":"levelo://app?vid=f55e4238-4a40-432c-9ed1-3a649d4698bf","ios":"levelo://app?vid=f55e4238-4a40-432c-9ed1-3a649d4698bf"},"vehicle_type_id":"4","last_reported":1751977314,"current_range_meters":14400,"station_id":"ce4bgr92rcd13ifvqc6g","pricing_plan_id":"cebpf4jnsgd1na2vs0mg"},{"bike_id":"cc233e37-29e8-4861-89b7-694fc9eea2af","system_id":"levelo_inurba_marseille","lat":43.30567,"lon":5.36546,"is_reserved":false,"is_disabled":false,"rental_uris":{"android":"levelo://app?vid=cc233e37-29e8-4861-89b7-694fc9eea2af","ios":"levelo://app?vid=cc233e37-29e8-4861-89b7-694fc9eea2af"},"vehicle_type_id":"4","last_reported":1751977314,"current_range_meters":14400,"station_id":"ce4bgs12rcd13ifvqcag","pricing_plan_id":"cebpf4jnsgd1na2vs0mg"},{"bike_id":"e1c079d6-1a20-4586-abbc-ed021e3f038b","system_id":"levelo_inurba_marseille","lat":43.29196,"lon":5.35805,"is_reserved":false,"is_disabled":false,"rental_uris":{"android":"levelo://app?vid=e1c079d6-1a20-4586-abbc-ed021e3f038b","ios":"levelo://app?vid=e1c079d6-1a20-4586-abbc-ed021e3f038b"},"vehicle_type_id":"4","last_reported":1751977314,"current_range_meters":14400,"station_id":"ce4bhb12rcd13ifvqel0","pricing_plan_id":"cebpf4jnsgd1na2vs0mg"},{"bike_id":"f5c5d48c-b7cf-48a8-84f0-a80044871d04","system_id":"levelo_inurba_marseille","lat":43.264907,"lon":5.395394,"is_reserved":false,"is_disabled":false,"rental_uris":{"android":"levelo://app?vid=f5c5d48c-b7cf-48a8-84f0-a80044871d04","ios":"levelo://app?vid=f5c5d48c-b7cf-48a8-84f0-a80044871d04"},"vehicle_type_id":"4","last_reported":1751977314,"current_range_meters":14800,"station_id":"","pricing_plan_id":"cebpf4jnsgd1na2vs0mg"},{"bike_id":"1da263b4-3493-4902-bc96-1904fe35a309","system_id":"levelo_inurba_marseille","lat":43.29238,"lon":5.376,"is_reserved":false,"is_disabled":false,"rental_uris":{"android":"levelo://app?vid=1da263b4-3493-4902-bc96-1904fe35a309","ios":"levelo://app?vid=1da263b4-3493-4902-bc96-1904fe35a309"},"vehicle_type_id":"4","last_reported":1751977314,"current_range_meters":14800,"station_id":"ce4bgi12rcd13ifvqb80","pricing_plan_id":"cebpf4jnsgd1na2vs0mg"},{"bike_id":"5b93a917-df50-4531-840f-51484277f792","system_id":"levelo_inurba_marseille","lat":43.29524,"lon":5.37519,"is_reserved":false,"is_disabled":false,"rental_uris":{"android":"levelo://app?vid=5b93a917-df50-4531-840f-51484277f792","ios":"levelo://app?vid=5b93a917-df50-4531-840f-51484277f792"},"vehicle_type_id":"4","last_reported":1751977314,"current_range_meters":14800,"station_id":"ce4bgkp2rcd13ifvqbmg","pricing_plan_id":"cebpf4jnsgd1na2vs0mg"},{"bike_id":"0ce9eca2-309b-408a-9efc-9d715883a596","system_id":"levelo_inurba_marseille","lat":43.2827,"lon":5.35065,"is_reserved":false,"is_disabled":false,"rental_uris":{"android":"levelo://app?vid=0ce9eca2-309b-408a-9efc-9d715883a596","ios":"levelo://app?vid=0ce9eca2-309b-408a-9efc-9d715883a596"},"vehicle_type_id":"4","last_reported":1751977314,"current_range_meters":14800,"station_id":"ce4bhbp2rcd13ifvqerg","pricing_plan_id":"cebpf4jnsgd1na2vs0mg"},{"bike_id":"fdf771a5-42ef-44ea-b212-e829441fbe7a","system_id":"levelo_inurba_marseille","lat":43.24807,"lon":5.37459,"is_reserved":false,"is_disabled":false,"rental_uris":{"android":"levelo://app?vid=fdf771a5-42ef-44ea-b212-e829441fbe7a","ios":"levelo://app?vid=fdf771a5-42ef-44ea-b212-e829441fbe7a"},"vehicle_type_id":"4","last_reported":1751977314,"current_range_meters":14800,"station_id":"ce4bhgh2rcd13ifvqfb0","pricing_plan_id":"cebpf4jnsgd1na2vs0mg"},{"bike_id":"927ac511-dc0f-48cd-adb2-188a4536841b","system_id":"levelo_inurba_marseille","lat":43.24143,"lon":5.36392,"is_reserved":false,"is_disabled":false,"rental_uris":{"android":"levelo://app?vid=927ac511-dc0f-48cd-adb2-188a4536841b","ios":"levelo://app?vid=927ac511-dc0f-48cd-adb2-188a4536841b"},"vehicle_type_id":"4","last_reported":1751977314,"current_range_meters":14800,"station_id":"cpo36qri1sfpv3e86is0","pricing_plan_id":"cebpf4jnsgd1na2vs0mg"},{"bike_id":"87c2d236-4978-4760-be77-27d7f5a212e4","system_id":"levelo_inurba_marseille","lat":43.29644,"lon":5.36205,"is_reserved":false,"is_disabled":false,"rental_uris":{"android":"levelo://app?vid=87c2d236-4978-4760-be77-27d7f5a212e4","ios":"levelo://app?vid=87c2d236-4978-4760-be77-27d7f5a212e4"},"vehicle_type_id":"4","last_reported":1751977314,"current_range_meters":15200,"station_id":"","pricing_plan_id":"cebpf4jnsgd1na2vs0mg"},{"bike_id":"7830fcfa-9207-4eac-8ab1-b62cc738bcb6","system_id":"levelo_inurba_marseille","lat":43.30761,"lon":5.39212,"is_reserved":false,"is_disabled":false,"rental_uris":{"android":"levelo://app?vid=7830fcfa-9207-4eac-8ab1-b62cc738bcb6","ios":"levelo://app?vid=7830fcfa-9207-4eac-8ab1-b62cc738bcb6"},"vehicle_type_id":"4","last_reported":1751977314,"current_range_meters":15200,"station_id":"ce4bgkh2rcd13ifvqbl0","pricing_plan_id":"cebpf4jnsgd1na2vs0mg"},{"bike_id":"46d3466b-5c02-4369-8fe0-0447959b7d32","system_id":"levelo_inurba_marseille","lat":43.29623,"lon":5.37165,"is_reserved":false,"is_disabled":false,"rental_uris":{"android":"levelo://app?vid=46d3466b-5c02-4369-8fe0-0447959b7d32","ios":"levelo://app?vid=46d3466b-5c02-4369-8fe0-0447959b7d32"},"vehicle_type_id":"4","last_reported":1751977314,"current_range_meters":15200,"station_id":"ce4bgnh2rcd13ifvqc0g","pricing_plan_id":"cebpf4jnsgd1na2vs0mg"},{"bike_id":"15104377-e15b-4766-a259-a16fc72605d8","system_id":"levelo_inurba_marseille","lat":43.26031,"lon":5.37556,"is_reserved":false,"is_disabled":false,"rental_uris":{"android":"levelo://app?vid=15104377-e15b-4766-a259-a16fc72605d8","ios":"levelo://app?vid=15104377-e15b-4766-a259-a16fc72605d8"},"vehicle_type_id":"4","last_reported":1751977314,"current_range_meters":15200,"station_id":"ce4bhgh2rcd13ifvqfa0","pricing_plan_id":"cebpf4jnsgd1na2vs0mg"},{"bike_id":"f44d72d3-54a0-4ac5-8391-4e5632430f2d","system_id":"levelo_inurba_marseille","lat":43.26232,"lon":5.37921,"is_reserved":false,"is_disabled":false,"rental_uris":{"android":"levelo://app?vid=f44d72d3-54a0-4ac5-8391-4e5632430f2d","ios":"levelo://app?vid=f44d72d3-54a0-4ac5-8391-4e5632430f2d"},"vehicle_type_id":"4","last_reported":1751977314,"current_range_meters":15200,"station_id":"ce4bhjp2rcd13ifvqg90","pricing_plan_id":"cebpf4jnsgd1na2vs0mg"},{"bike_id":"940f04f4-5dec-4ff8-8d1b-fd8eb1722f45","system_id":"levelo_inurba_marseille","lat":43.27498,"lon":5.42461,"is_reserved":false,"is_disabled":false,"rental_uris":{"android":"levelo://app?vid=940f04f4-5dec-4ff8-8d1b-fd8eb1722f45","ios":"levelo://app?vid=940f04f4-5dec-4ff8-8d1b-fd8eb1722f45"},"vehicle_type_id":"4","last_reported":1751977314,"current_range_meters":15200,"station_id":"ce4bhn92rcd13ifvqgrg","pricing_plan_id":"cebpf4jnsgd1na2vs0mg"},{"bike_id":"a3a3043d-c808-4263-8f68-f97fde7e86c0","system_id":"levelo_inurba_marseille","lat":43.30099,"lon":5.38057,"is_reserved":false,"is_disabled":false,"rental_uris":{"android":"levelo://app?vid=a3a3043d-c808-4263-8f68-f97fde7e86c0","ios":"levelo://app?vid=a3a3043d-c808-4263-8f68-f97fde7e86c0"},"vehicle_type_id":"4","last_reported":1751977314,"current_range_meters":16000,"station_id":"","pricing_plan_id":"cebpf4jnsgd1na2vs0mg"},{"bike_id":"13c84df3-55fc-4465-b582-17389625d267","system_id":"levelo_inurba_marseille","lat":43.26019,"lon":5.41746,"is_reserved":false,"is_disabled":false,"rental_uris":{"android":"levelo://app?vid=13c84df3-55fc-4465-b582-17389625d267","ios":"levelo://app?vid=13c84df3-55fc-4465-b582-17389625d267"},"vehicle_type_id":"4","last_reported":1751977314,"current_range_meters":16000,"station_id":"","pricing_plan_id":"cebpf4jnsgd1na2vs0mg"},{"bike_id":"56bf2479-7a70-4c6e-a49f-faa0f8299799","system_id":"levelo_inurba_marseille","lat":43.30276,"lon":5.37728,"is_reserved":false,"is_disabled":false,"rental_uris":{"android":"levelo://app?vid=56bf2479-7a70-4c6e-a49f-faa0f8299799","ios":"levelo://app?vid=56bf2479-7a70-4c6e-a49f-faa0f8299799"},"vehicle_type_id":"4","last_reported":1751977314,"current_range_meters":16000,"station_id":"ce4bguh2rcd13ifvqcj0","pricing_plan_id":"cebpf4jnsgd1na2vs0mg"},{"bike_id":"865797cd-3648-4678-90af-fdb3236e61f3","system_id":"levelo_inurba_marseille","lat":43.30602,"lon":5.36733,"is_reserved":false,"is_disabled":false,"rental_uris":{"android":"levelo://app?vid=865797cd-3648-4678-90af-fdb3236e61f3","ios":"levelo://app?vid=865797cd-3648-4678-90af-fdb3236e61f3"},"vehicle_type_id":"4","last_reported":1751977314,"current_range_meters":16400,"station_id":"","pricing_plan_id":"cebpf4jnsgd1na2vs0mg"},{"bike_id":"5d9902ba-8980-4933-a40e-f57376044a16","system_id":"levelo_inurba_marseille","lat":43.29983,"lon":5.37172,"is_reserved":false,"is_disabled":false,"rental_uris":{"android":"levelo://app?vid=5d9902ba-8980-4933-a40e-f57376044a16","ios":"levelo://app?vid=5d9902ba-8980-4933-a40e-f57376044a16"},"vehicle_type_id":"4","last_reported":1751977314,"current_range_meters":16400,"station_id":"ce4bgr92rcd13ifvqc7g","pricing_plan_id":"cebpf4jnsgd1na2vs0mg"},{"bike_id":"0420115f-72db-46da-8bec-400dc4b80fd8","system_id":"levelo_inurba_marseille","lat":43.28619,"lon":5.35115,"is_reserved":false,"is_disabled":false,"rental_uris":{"android":"levelo://app?vid=0420115f-72db-46da-8bec-400dc4b80fd8","ios":"levelo://app?vid=0420115f-72db-46da-8bec-400dc4b80fd8"},"vehicle_type_id":"4","last_reported":1751977314,"current_range_meters":16400,"station_id":"ce4bhch2rcd13ifvqeug","pricing_plan_id":"cebpf4jnsgd1na2vs0mg"},{"bike_id":"9f21e03d-cffe-46b2-9143-fb9e955e75e0","system_id":"levelo_inurba_marseille","lat":43.25929,"lon":5.40904,"is_reserved":false,"is_disabled":false,"rental_uris":{"android":"levelo://app?vid=9f21e03d-cffe-46b2-9143-fb9e955e75e0","ios":"levelo://app?vid=9f21e03d-cffe-46b2-9143-fb9e955e75e0"},"vehicle_type_id":"4","last_reported":1751977314,"current_range_meters":16400,"station_id":"ce4bhm92rcd13ifvqglg","pricing_plan_id":"cebpf4jnsgd1na2vs0mg"},{"bike_id":"3a921cbb-4a2b-4a20-99db-7585fd9dff10","system_id":"levelo_inurba_marseille","lat":43.30381,"lon":5.4249,"is_reserved":false,"is_disabled":false,"rental_uris":{"android":"levelo://app?vid=3a921cbb-4a2b-4a20-99db-7585fd9dff10","ios":"levelo://app?vid=3a921cbb-4a2b-4a20-99db-7585fd9dff10"},"vehicle_type_id":"4","last_reported":1751977314,"current_range_meters":16400,"station_id":"ce4bhoh2rcd13ifvqh6g","pricing_plan_id":"cebpf4jnsgd1na2vs0mg"},{"bike_id":"49709df2-b9f3-4fed-9179-5c5e81bf7720","system_id":"levelo_inurba_marseille","lat":43.30212,"lon":5.39463,"is_reserved":false,"is_disabled":false,"rental_uris":{"android":"levelo://app?vid=49709df2-b9f3-4fed-9179-5c5e81bf7720","ios":"levelo://app?vid=49709df2-b9f3-4fed-9179-5c5e81bf7720"},"vehicle_type_id":"4","last_reported":1751977314,"current_range_meters":16800,"station_id":"ce4bh0p2rcd13ifvqd70","pricing_plan_id":"cebpf4jnsgd1na2vs0mg"},{"bike_id":"5922694b-6551-43e1-914a-72128fda599c","system_id":"levelo_inurba_marseille","lat":43.25807,"lon":5.39446,"is_reserved":false,"is_disabled":false,"rental_uris":{"android":"levelo://app?vid=5922694b-6551-43e1-914a-72128fda599c","ios":"levelo://app?vid=5922694b-6551-43e1-914a-72128fda599c"},"vehicle_type_id":"4","last_reported":1751977314,"current_range_meters":16800,"station_id":"ce4bhip2rcd13ifvqft0","pricing_plan_id":"cebpf4jnsgd1na2vs0mg"},{"bike_id":"da9e0cc6-b739-410b-895b-cad8f90bf164","system_id":"levelo_inurba_marseille","lat":43.26195,"lon":5.37984,"is_reserved":false,"is_disabled":false,"rental_uris":{"android":"levelo://app?vid=da9e0cc6-b739-410b-895b-cad8f90bf164","ios":"levelo://app?vid=da9e0cc6-b739-410b-895b-cad8f90bf164"},"vehicle_type_id":"4","last_reported":1751977314,"current_range_meters":16800,"station_id":"ce4bhjp2rcd13ifvqg90","pricing_plan_id":"cebpf4jnsgd1na2vs0mg"},{"bike_id":"3dd42689-ec1f-47ef-aece-1ca8d3442682","system_id":"levelo_inurba_marseille","lat":43.23205,"lon":5.40016,"is_reserved":false,"is_disabled":false,"rental_uris":{"android":"levelo://app?vid=3dd42689-ec1f-47ef-aece-1ca8d3442682","ios":"levelo://app?vid=3dd42689-ec1f-47ef-aece-1ca8d3442682"},"vehicle_type_id":"4","last_reported":1751977314,"current_range_meters":16800,"station_id":"ce4bhn12rcd13ifvqgqg","pricing_plan_id":"cebpf4jnsgd1na2vs0mg"},{"bike_id":"a0967684-aa48-48c0-a325-5bbf21808b32","system_id":"levelo_inurba_marseille","lat":43.3247,"lon":5.36586,"is_reserved":false,"is_disabled":false,"rental_uris":{"android":"levelo://app?vid=a0967684-aa48-48c0-a325-5bbf21808b32","ios":"levelo://app?vid=a0967684-aa48-48c0-a325-5bbf21808b32"},"vehicle_type_id":"4","last_reported":1751977314,"current_range_meters":16800,"station_id":"ce4bhs12rcd13ifvqhvg","pricing_plan_id":"cebpf4jnsgd1na2vs0mg"},{"bike_id":"ea7df389-5dc0-4c58-88fe-80a5af035925","system_id":"levelo_inurba_marseille","lat":43.29834,"lon":5.36399,"is_reserved":false,"is_disabled":false,"rental_uris":{"android":"levelo://app?vid=ea7df389-5dc0-4c58-88fe-80a5af035925","ios":"levelo://app?vid=ea7df389-5dc0-4c58-88fe-80a5af035925"},"vehicle_type_id":"4","last_reported":1751977314,"current_range_meters":17200,"station_id":"","pricing_plan_id":"cebpf4jnsgd1na2vs0mg"},{"bike_id":"66540e04-318c-431d-b686-c1943a0ae406","system_id":"levelo_inurba_marseille","lat":43.299498,"lon":5.365323,"is_reserved":false,"is_disabled":false,"rental_uris":{"android":"levelo://app?vid=66540e04-318c-431d-b686-c1943a0ae406","ios":"levelo://app?vid=66540e04-318c-431d-b686-c1943a0ae406"},"vehicle_type_id":"4","last_reported":1751977314,"current_range_meters":17200,"station_id":"ce4bgm92rcd13ifvqbr0","pricing_plan_id":"cebpf4jnsgd1na2vs0mg"},{"bike_id":"dc6aa8ed-171a-411d-8ce9-8847acb1ad2b","system_id":"levelo_inurba_marseille","lat":43.29869,"lon":5.36335,"is_reserved":false,"is_disabled":false,"rental_uris":{"android":"levelo://app?vid=dc6aa8ed-171a-411d-8ce9-8847acb1ad2b","ios":"levelo://app?vid=dc6aa8ed-171a-411d-8ce9-8847acb1ad2b"},"vehicle_type_id":"4","last_reported":1751977314,"current_range_meters":17200,"station_id":"ce4bgpp2rcd13ifvqc3g","pricing_plan_id":"cebpf4jnsgd1na2vs0mg"},{"bike_id":"ae1c09a4-18ca-4bb2-bade-c4d4c7092cd3","system_id":"levelo_inurba_marseille","lat":43.28025,"lon":5.36954,"is_reserved":false,"is_disabled":false,"rental_uris":{"android":"levelo://app?vid=ae1c09a4-18ca-4bb2-bade-c4d4c7092cd3","ios":"levelo://app?vid=ae1c09a4-18ca-4bb2-bade-c4d4c7092cd3"},"vehicle_type_id":"4","last_reported":1751977314,"current_range_meters":17200,"station_id":"ce4bha12rcd13ifvqef0","pricing_plan_id":"cebpf4jnsgd1na2vs0mg"},{"bike_id":"89f9fbf4-3f79-4991-b058-9c22f0ac1ce1","system_id":"levelo_inurba_marseille","lat":43.28616,"lon":5.35111,"is_reserved":false,"is_disabled":false,"rental_uris":{"android":"levelo://app?vid=89f9fbf4-3f79-4991-b058-9c22f0ac1ce1","ios":"levelo://app?vid=89f9fbf4-3f79-4991-b058-9c22f0ac1ce1"},"vehicle_type_id":"4","last_reported":1751977314,"current_range_meters":17200,"station_id":"ce4bhch2rcd13ifvqeug","pricing_plan_id":"cebpf4jnsgd1na2vs0mg"},{"bike_id":"4753f49c-41f4-48a3-be64-8f764b3a1b04","system_id":"levelo_inurba_marseille","lat":43.25865,"lon":5.39899,"is_reserved":false,"is_disabled":false,"rental_uris":{"android":"levelo://app?vid=4753f49c-41f4-48a3-be64-8f764b3a1b04","ios":"levelo://app?vid=4753f49c-41f4-48a3-be64-8f764b3a1b04"},"vehicle_type_id":"4","last_reported":1751977314,"current_range_meters":17200,"station_id":"ce4bhl92rcd13ifvqghg","pricing_plan_id":"cebpf4jnsgd1na2vs0mg"},{"bike_id":"3030cb07-c041-4d87-a253-8c849c24aa85","system_id":"levelo_inurba_marseille","lat":43.32648,"lon":5.36253,"is_reserved":false,"is_disabled":false,"rental_uris":{"android":"levelo://app?vid=3030cb07-c041-4d87-a253-8c849c24aa85","ios":"levelo://app?vid=3030cb07-c041-4d87-a253-8c849c24aa85"},"vehicle_type_id":"4","last_reported":1751977314,"current_range_meters":17600,"station_id":"","pricing_plan_id":"cebpf4jnsgd1na2vs0mg"},{"bike_id":"37d56fa7-94f6-47ca-a8f2-ed084b7cb5f6","system_id":"levelo_inurba_marseille","lat":43.297433,"lon":5.366448,"is_reserved":false,"is_disabled":false,"rental_uris":{"android":"levelo://app?vid=37d56fa7-94f6-47ca-a8f2-ed084b7cb5f6","ios":"levelo://app?vid=37d56fa7-94f6-47ca-a8f2-ed084b7cb5f6"},"vehicle_type_id":"4","last_reported":1751977314,"current_range_meters":17600,"station_id":"","pricing_plan_id":"cebpf4jnsgd1na2vs0mg"},{"bike_id":"f2b65277-5e9e-4858-8618-889c539a2a37","system_id":"levelo_inurba_marseille","lat":43.30644,"lon":5.40094,"is_reserved":false,"is_disabled":false,"rental_uris":{"android":"levelo://app?vid=f2b65277-5e9e-4858-8618-889c539a2a37","ios":"levelo://app?vid=f2b65277-5e9e-4858-8618-889c539a2a37"},"vehicle_type_id":"4","last_reported":1751977314,"current_range_meters":17600,"station_id":"ce4bh112rcd13ifvqda0","pricing_plan_id":"cebpf4jnsgd1na2vs0mg"},{"bike_id":"e79346c8-86fc-4daa-86ef-e1e68b65043e","system_id":"levelo_inurba_marseille","lat":43.24083,"lon":5.37773,"is_reserved":false,"is_disabled":false,"rental_uris":{"android":"levelo://app?vid=e79346c8-86fc-4daa-86ef-e1e68b65043e","ios":"levelo://app?vid=e79346c8-86fc-4daa-86ef-e1e68b65043e"},"vehicle_type_id":"4","last_reported":1751977314,"current_range_meters":17600,"station_id":"ce4bhnp2rcd13ifvqgvg","pricing_plan_id":"cebpf4jnsgd1na2vs0mg"},{"bike_id":"9b78b258-0b37-4b47-b89e-63a23af64a74","system_id":"levelo_inurba_marseille","lat":43.29383,"lon":5.37845,"is_reserved":false,"is_disabled":false,"rental_uris":{"android":"levelo://app?vid=9b78b258-0b37-4b47-b89e-63a23af64a74","ios":"levelo://app?vid=9b78b258-0b37-4b47-b89e-63a23af64a74"},"vehicle_type_id":"4","last_reported":1751977314,"current_range_meters":18000,"station_id":"ce4bgjh2rcd13ifvqbf0","pricing_plan_id":"cebpf4jnsgd1na2vs0mg"},{"bike_id":"e6f9be4b-dc5c-4ea3-a2ff-7b8e3fa023d2","system_id":"levelo_inurba_marseille","lat":43.295278,"lon":5.374897,"is_reserved":false,"is_disabled":false,"rental_uris":{"android":"levelo://app?vid=e6f9be4b-dc5c-4ea3-a2ff-7b8e3fa023d2","ios":"levelo://app?vid=e6f9be4b-dc5c-4ea3-a2ff-7b8e3fa023d2"},"vehicle_type_id":"4","last_reported":1751977314,"current_range_meters":18000,"station_id":"ce4bgkp2rcd13ifvqbmg","pricing_plan_id":"cebpf4jnsgd1na2vs0mg"},{"bike_id":"1d7fac14-2cca-4632-8110-30634afef477","system_id":"levelo_inurba_marseille","lat":43.30916,"lon":5.3686,"is_reserved":false,"is_disabled":false,"rental_uris":{"android":"levelo://app?vid=1d7fac14-2cca-4632-8110-30634afef477","ios":"levelo://app?vid=1d7fac14-2cca-4632-8110-30634afef477"},"vehicle_type_id":"4","last_reported":1751977314,"current_range_meters":18000,"station_id":"ce4bgn92rcd13ifvqbvg","pricing_plan_id":"cebpf4jnsgd1na2vs0mg"},{"bike_id":"f5993312-df83-434b-8105-91efbfa1e2bc","system_id":"levelo_inurba_marseille","lat":43.305667,"lon":5.365487,"is_reserved":false,"is_disabled":false,"rental_uris":{"android":"levelo://app?vid=f5993312-df83-434b-8105-91efbfa1e2bc","ios":"levelo://app?vid=f5993312-df83-434b-8105-91efbfa1e2bc"},"vehicle_type_id":"4","last_reported":1751977314,"current_range_meters":18000,"station_id":"ce4bgs12rcd13ifvqcag","pricing_plan_id":"cebpf4jnsgd1na2vs0mg"},{"bike_id":"58f0133a-283f-49e7-ad88-bbd5a4b22160","system_id":"levelo_inurba_marseille","lat":43.29263,"lon":5.38444,"is_reserved":false,"is_disabled":false,"rental_uris":{"android":"levelo://app?vid=58f0133a-283f-49e7-ad88-bbd5a4b22160","ios":"levelo://app?vid=58f0133a-283f-49e7-ad88-bbd5a4b22160"},"vehicle_type_id":"4","last_reported":1751977314,"current_range_meters":18000,"station_id":"ce4bh692rcd13ifvqea0","pricing_plan_id":"cebpf4jnsgd1na2vs0mg"},{"bike_id":"1e112a52-32ff-42af-8077-893c4a6d3611","system_id":"levelo_inurba_marseille","lat":43.28427,"lon":5.3503,"is_reserved":false,"is_disabled":false,"rental_uris":{"android":"levelo://app?vid=1e112a52-32ff-42af-8077-893c4a6d3611","ios":"levelo://app?vid=1e112a52-32ff-42af-8077-893c4a6d3611"},"vehicle_type_id":"4","last_reported":1751977314,"current_range_meters":18000,"station_id":"ce4bhbh2rcd13ifvqepg","pricing_plan_id":"cebpf4jnsgd1na2vs0mg"},{"bike_id":"9959d7fa-4898-43a5-a1ec-b9fed544cad3","system_id":"levelo_inurba_marseille","lat":43.28416,"lon":5.3497,"is_reserved":false,"is_disabled":false,"rental_uris":{"android":"levelo://app?vid=9959d7fa-4898-43a5-a1ec-b9fed544cad3","ios":"levelo://app?vid=9959d7fa-4898-43a5-a1ec-b9fed544cad3"},"vehicle_type_id":"4","last_reported":1751977314,"current_range_meters":18000,"station_id":"ce4bhbh2rcd13ifvqepg","pricing_plan_id":"cebpf4jnsgd1na2vs0mg"},{"bike_id":"e706b1ef-3be3-4882-bdd6-4549e8294ee9","system_id":"levelo_inurba_marseille","lat":43.26216,"lon":5.37446,"is_reserved":false,"is_disabled":false,"rental_uris":{"android":"levelo://app?vid=e706b1ef-3be3-4882-bdd6-4549e8294ee9","ios":"levelo://app?vid=e706b1ef-3be3-4882-bdd6-4549e8294ee9"},"vehicle_type_id":"4","last_reported":1751977314,"current_range_meters":18000,"station_id":"ce4bhgp2rcd13ifvqfc0","pricing_plan_id":"cebpf4jnsgd1na2vs0mg"},{"bike_id":"537ae664-491b-4af7-9081-62566cf8f1c2","system_id":"levelo_inurba_marseille","lat":43.25913,"lon":5.4088,"is_reserved":false,"is_disabled":false,"rental_uris":{"android":"levelo://app?vid=537ae664-491b-4af7-9081-62566cf8f1c2","ios":"levelo://app?vid=537ae664-491b-4af7-9081-62566cf8f1c2"},"vehicle_type_id":"4","last_reported":1751977314,"current_range_meters":18000,"station_id":"ce4bhm92rcd13ifvqglg","pricing_plan_id":"cebpf4jnsgd1na2vs0mg"},{"bike_id":"d0f90c24-dd03-411b-9731-55305f76b7c8","system_id":"levelo_inurba_marseille","lat":43.21198,"lon":5.35077,"is_reserved":false,"is_disabled":false,"rental_uris":{"android":"levelo://app?vid=d0f90c24-dd03-411b-9731-55305f76b7c8","ios":"levelo://app?vid=d0f90c24-dd03-411b-9731-55305f76b7c8"},"vehicle_type_id":"4","last_reported":1751977314,"current_range_meters":18000,"station_id":"st_cvj6sg6p6f1abm77japg","pricing_plan_id":"cebpf4jnsgd1na2vs0mg"},{"bike_id":"e4793d5e-b4cd-4c12-b9d4-446cb97752b9","system_id":"levelo_inurba_marseille","lat":43.292747,"lon":5.390767,"is_reserved":false,"is_disabled":false,"rental_uris":{"android":"levelo://app?vid=e4793d5e-b4cd-4c12-b9d4-446cb97752b9","ios":"levelo://app?vid=e4793d5e-b4cd-4c12-b9d4-446cb97752b9"},"vehicle_type_id":"4","last_reported":1751977314,"current_range_meters":18800,"station_id":"","pricing_plan_id":"cebpf4jnsgd1na2vs0mg"},{"bike_id":"1c72f75c-b66d-4970-b5e9-36cd607a7582","system_id":"levelo_inurba_marseille","lat":43.30916,"lon":5.36849,"is_reserved":false,"is_disabled":false,"rental_uris":{"android":"levelo://app?vid=1c72f75c-b66d-4970-b5e9-36cd607a7582","ios":"levelo://app?vid=1c72f75c-b66d-4970-b5e9-36cd607a7582"},"vehicle_type_id":"4","last_reported":1751977314,"current_range_meters":18800,"station_id":"ce4bgn92rcd13ifvqbvg","pricing_plan_id":"cebpf4jnsgd1na2vs0mg"},{"bike_id":"4c3d70a9-6d6d-4f71-b06d-aa7894c5eeac","system_id":"levelo_inurba_marseille","lat":43.2958,"lon":5.36744,"is_reserved":false,"is_disabled":false,"rental_uris":{"android":"levelo://app?vid=4c3d70a9-6d6d-4f71-b06d-aa7894c5eeac","ios":"levelo://app?vid=4c3d70a9-6d6d-4f71-b06d-aa7894c5eeac"},"vehicle_type_id":"4","last_reported":1751977314,"current_range_meters":18800,"station_id":"ce4bgph2rcd13ifvqc2g","pricing_plan_id":"cebpf4jnsgd1na2vs0mg"},{"bike_id":"26812e33-22a3-4fc3-949c-b7f90e72e55a","system_id":"levelo_inurba_marseille","lat":43.30617,"lon":5.37232,"is_reserved":false,"is_disabled":false,"rental_uris":{"android":"levelo://app?vid=26812e33-22a3-4fc3-949c-b7f90e72e55a","ios":"levelo://app?vid=26812e33-22a3-4fc3-949c-b7f90e72e55a"},"vehicle_type_id":"4","last_reported":1751977314,"current_range_meters":18800,"station_id":"ce4bgqh2rcd13ifvqc4g","pricing_plan_id":"cebpf4jnsgd1na2vs0mg"},{"bike_id":"093c6075-fb95-4ea5-ae3c-9ebd2aedeaa8","system_id":"levelo_inurba_marseille","lat":43.31373,"lon":5.36731,"is_reserved":false,"is_disabled":false,"rental_uris":{"android":"levelo://app?vid=093c6075-fb95-4ea5-ae3c-9ebd2aedeaa8","ios":"levelo://app?vid=093c6075-fb95-4ea5-ae3c-9ebd2aedeaa8"},"vehicle_type_id":"4","last_reported":1751977314,"current_range_meters":18800,"station_id":"ce4bgr92rcd13ifvqc6g","pricing_plan_id":"cebpf4jnsgd1na2vs0mg"},{"bike_id":"c2b72fe0-bae6-4c7b-ad48-9e771b203dc8","system_id":"levelo_inurba_marseille","lat":43.313578,"lon":5.384618,"is_reserved":false,"is_disabled":false,"rental_uris":{"android":"levelo://app?vid=c2b72fe0-bae6-4c7b-ad48-9e771b203dc8","ios":"levelo://app?vid=c2b72fe0-bae6-4c7b-ad48-9e771b203dc8"},"vehicle_type_id":"4","last_reported":1751977314,"current_range_meters":18800,"station_id":"ce4bgt92rcd13ifvqcf0","pricing_plan_id":"cebpf4jnsgd1na2vs0mg"},{"bike_id":"753fd713-3e51-4242-8e50-ab0223581cb9","system_id":"levelo_inurba_marseille","lat":43.26686,"lon":5.38266,"is_reserved":false,"is_disabled":false,"rental_uris":{"android":"levelo://app?vid=753fd713-3e51-4242-8e50-ab0223581cb9","ios":"levelo://app?vid=753fd713-3e51-4242-8e50-ab0223581cb9"},"vehicle_type_id":"4","last_reported":1751977314,"current_range_meters":18800,"station_id":"ce4bhg92rcd13ifvqf90","pricing_plan_id":"cebpf4jnsgd1na2vs0mg"},{"bike_id":"a31c0b34-c030-43cf-8d0a-8af3e22ac15f","system_id":"levelo_inurba_marseille","lat":43.27845,"lon":5.39219,"is_reserved":false,"is_disabled":false,"rental_uris":{"android":"levelo://app?vid=a31c0b34-c030-43cf-8d0a-8af3e22ac15f","ios":"levelo://app?vid=a31c0b34-c030-43cf-8d0a-8af3e22ac15f"},"vehicle_type_id":"4","last_reported":1751977314,"current_range_meters":18800,"station_id":"ce4bhjp2rcd13ifvqga0","pricing_plan_id":"cebpf4jnsgd1na2vs0mg"},{"bike_id":"1e91cee9-7d4a-458c-9805-68ef6c30eb40","system_id":"levelo_inurba_marseille","lat":43.217413,"lon":5.346008,"is_reserved":false,"is_disabled":false,"rental_uris":{"android":"levelo://app?vid=1e91cee9-7d4a-458c-9805-68ef6c30eb40","ios":"levelo://app?vid=1e91cee9-7d4a-458c-9805-68ef6c30eb40"},"vehicle_type_id":"4","last_reported":1751977314,"current_range_meters":18800,"station_id":"st_cvj6r9ubvosntc0bgbag","pricing_plan_id":"cebpf4jnsgd1na2vs0mg"},{"bike_id":"18cc1aff-754f-4758-a56e-ac01c6bb4fed","system_id":"levelo_inurba_marseille","lat":43.30645,"lon":5.38025,"is_reserved":false,"is_disabled":false,"rental_uris":{"android":"levelo://app?vid=18cc1aff-754f-4758-a56e-ac01c6bb4fed","ios":"levelo://app?vid=18cc1aff-754f-4758-a56e-ac01c6bb4fed"},"vehicle_type_id":"4","last_reported":1751977314,"current_range_meters":19200,"station_id":"","pricing_plan_id":"cebpf4jnsgd1na2vs0mg"},{"bike_id":"5e4b110f-4f34-4a9e-a5f5-7ace7520bbd5","system_id":"levelo_inurba_marseille","lat":43.29676,"lon":5.37424,"is_reserved":false,"is_disabled":false,"rental_uris":{"android":"levelo://app?vid=5e4b110f-4f34-4a9e-a5f5-7ace7520bbd5","ios":"levelo://app?vid=5e4b110f-4f34-4a9e-a5f5-7ace7520bbd5"},"vehicle_type_id":"4","last_reported":1751977314,"current_range_meters":19200,"station_id":"","pricing_plan_id":"cebpf4jnsgd1na2vs0mg"},{"bike_id":"f5c16f07-bc6f-4121-91a7-5ad90eec4f34","system_id":"levelo_inurba_marseille","lat":43.312123,"lon":5.373158,"is_reserved":false,"is_disabled":false,"rental_uris":{"android":"levelo://app?vid=f5c16f07-bc6f-4121-91a7-5ad90eec4f34","ios":"levelo://app?vid=f5c16f07-bc6f-4121-91a7-5ad90eec4f34"},"vehicle_type_id":"4","last_reported":1751977314,"current_range_meters":19200,"station_id":"","pricing_plan_id":"cebpf4jnsgd1na2vs0mg"},{"bike_id":"49ae7981-30bc-4e75-8bfb-5d60970f0c37","system_id":"levelo_inurba_marseille","lat":43.29253,"lon":5.37644,"is_reserved":false,"is_disabled":false,"rental_uris":{"android":"levelo://app?vid=49ae7981-30bc-4e75-8bfb-5d60970f0c37","ios":"levelo://app?vid=49ae7981-30bc-4e75-8bfb-5d60970f0c37"},"vehicle_type_id":"4","last_reported":1751977314,"current_range_meters":19200,"station_id":"ce4bgi12rcd13ifvqb80","pricing_plan_id":"cebpf4jnsgd1na2vs0mg"},{"bike_id":"0c505ed0-6f21-404c-a3d1-264c9a7d40d5","system_id":"levelo_inurba_marseille","lat":43.28263,"lon":5.35078,"is_reserved":false,"is_disabled":false,"rental_uris":{"android":"levelo://app?vid=0c505ed0-6f21-404c-a3d1-264c9a7d40d5","ios":"levelo://app?vid=0c505ed0-6f21-404c-a3d1-264c9a7d40d5"},"vehicle_type_id":"4","last_reported":1751977314,"current_range_meters":19200,"station_id":"ce4bhbp2rcd13ifvqerg","pricing_plan_id":"cebpf4jnsgd1na2vs0mg"},{"bike_id":"fb4122cd-0277-4297-8cd5-1b777b465e3e","system_id":"levelo_inurba_marseille","lat":43.24097,"lon":5.37776,"is_reserved":false,"is_disabled":false,"rental_uris":{"android":"levelo://app?vid=fb4122cd-0277-4297-8cd5-1b777b465e3e","ios":"levelo://app?vid=fb4122cd-0277-4297-8cd5-1b777b465e3e"},"vehicle_type_id":"4","last_reported":1751977314,"current_range_meters":19200,"station_id":"ce4bhnp2rcd13ifvqgvg","pricing_plan_id":"cebpf4jnsgd1na2vs0mg"},{"bike_id":"bddcbd8f-77a6-482f-8833-b4b97d47379f","system_id":"levelo_inurba_marseille","lat":43.323676,"lon":5.388853,"is_reserved":false,"is_disabled":false,"rental_uris":{"android":"levelo://app?vid=bddcbd8f-77a6-482f-8833-b4b97d47379f","ios":"levelo://app?vid=bddcbd8f-77a6-482f-8833-b4b97d47379f"},"vehicle_type_id":"4","last_reported":1751977314,"current_range_meters":19200,"station_id":"ce4bhqp2rcd13ifvqhog","pricing_plan_id":"cebpf4jnsgd1na2vs0mg"},{"bike_id":"7f0c405c-cebd-402f-b8ba-98e46b99f50b","system_id":"levelo_inurba_marseille","lat":43.211866,"lon":5.350629,"is_reserved":false,"is_disabled":false,"rental_uris":{"android":"levelo://app?vid=7f0c405c-cebd-402f-b8ba-98e46b99f50b","ios":"levelo://app?vid=7f0c405c-cebd-402f-b8ba-98e46b99f50b"},"vehicle_type_id":"4","last_reported":1751977314,"current_range_meters":19200,"station_id":"st_cvj6sg6p6f1abm77japg","pricing_plan_id":"cebpf4jnsgd1na2vs0mg"},{"bike_id":"4acaf512-a7d4-403d-9669-da010a61428f","system_id":"levelo_inurba_marseille","lat":43.30534,"lon":5.365408,"is_reserved":false,"is_disabled":false,"rental_uris":{"android":"levelo://app?vid=4acaf512-a7d4-403d-9669-da010a61428f","ios":"levelo://app?vid=4acaf512-a7d4-403d-9669-da010a61428f"},"vehicle_type_id":"4","last_reported":1751977314,"current_range_meters":19600,"station_id":"ce4bgs12rcd13ifvqcag","pricing_plan_id":"cebpf4jnsgd1na2vs0mg"},{"bike_id":"a779e552-2f6d-4ea3-a10d-6785fff4b78f","system_id":"levelo_inurba_marseille","lat":43.29034,"lon":5.37571,"is_reserved":false,"is_disabled":false,"rental_uris":{"android":"levelo://app?vid=a779e552-2f6d-4ea3-a10d-6785fff4b78f","ios":"levelo://app?vid=a779e552-2f6d-4ea3-a10d-6785fff4b78f"},"vehicle_type_id":"4","last_reported":1751977314,"current_range_meters":19600,"station_id":"ce4bh692rcd13ifvqe90","pricing_plan_id":"cebpf4jnsgd1na2vs0mg"},{"bike_id":"9677daf7-4270-4184-8cfd-1b929bdcb087","system_id":"levelo_inurba_marseille","lat":43.3109,"lon":5.42432,"is_reserved":false,"is_disabled":false,"rental_uris":{"android":"levelo://app?vid=9677daf7-4270-4184-8cfd-1b929bdcb087","ios":"levelo://app?vid=9677daf7-4270-4184-8cfd-1b929bdcb087"},"vehicle_type_id":"4","last_reported":1751977314,"current_range_meters":19600,"station_id":"ce4bhp92rcd13ifvqhag","pricing_plan_id":"cebpf4jnsgd1na2vs0mg"},{"bike_id":"56eb3fdf-ea87-4fcf-85df-3680fa66363e","system_id":"levelo_inurba_marseille","lat":43.22509,"lon":5.34758,"is_reserved":false,"is_disabled":false,"rental_uris":{"android":"levelo://app?vid=56eb3fdf-ea87-4fcf-85df-3680fa66363e","ios":"levelo://app?vid=56eb3fdf-ea87-4fcf-85df-3680fa66363e"},"vehicle_type_id":"4","last_reported":1751977314,"current_range_meters":19600,"station_id":"st_cvj5dfep6f1abm77gieg","pricing_plan_id":"cebpf4jnsgd1na2vs0mg"},{"bike_id":"b757ffbb-2b71-4330-9f60-5f8a9d46d16e","system_id":"levelo_inurba_marseille","lat":43.296656,"lon":5.37102,"is_reserved":false,"is_disabled":false,"rental_uris":{"android":"levelo://app?vid=b757ffbb-2b71-4330-9f60-5f8a9d46d16e","ios":"levelo://app?vid=b757ffbb-2b71-4330-9f60-5f8a9d46d16e"},"vehicle_type_id":"4","last_reported":1751977314,"current_range_meters":20000,"station_id":"","pricing_plan_id":"cebpf4jnsgd1na2vs0mg"},{"bike_id":"b2caa530-bb19-4cc6-a6bd-61e3e1d7432e","system_id":"levelo_inurba_marseille","lat":43.33763,"lon":5.37461,"is_reserved":false,"is_disabled":false,"rental_uris":{"android":"levelo://app?vid=b2caa530-bb19-4cc6-a6bd-61e3e1d7432e","ios":"levelo://app?vid=b2caa530-bb19-4cc6-a6bd-61e3e1d7432e"},"vehicle_type_id":"4","last_reported":1751977314,"current_range_meters":20000,"station_id":"","pricing_plan_id":"cebpf4jnsgd1na2vs0mg"},{"bike_id":"b28aa0a0-791c-4a08-9a16-c7bf6ea0ed5a","system_id":"levelo_inurba_marseille","lat":43.22513,"lon":5.34793,"is_reserved":false,"is_disabled":false,"rental_uris":{"android":"levelo://app?vid=b28aa0a0-791c-4a08-9a16-c7bf6ea0ed5a","ios":"levelo://app?vid=b28aa0a0-791c-4a08-9a16-c7bf6ea0ed5a"},"vehicle_type_id":"4","last_reported":1751977314,"current_range_meters":20000,"station_id":"st_cvj5dfep6f1abm77gieg","pricing_plan_id":"cebpf4jnsgd1na2vs0mg"},{"bike_id":"697d5fc4-b988-4a4e-8323-c1ce5ed61a61","system_id":"levelo_inurba_marseille","lat":43.2122,"lon":5.35067,"is_reserved":false,"is_disabled":false,"rental_uris":{"android":"levelo://app?vid=697d5fc4-b988-4a4e-8323-c1ce5ed61a61","ios":"levelo://app?vid=697d5fc4-b988-4a4e-8323-c1ce5ed61a61"},"vehicle_type_id":"4","last_reported":1751977314,"current_range_meters":20000,"station_id":"st_cvj6sg6p6f1abm77japg","pricing_plan_id":"cebpf4jnsgd1na2vs0mg"},{"bike_id":"b6d9b946-f66a-4c6f-96e5-5d23e176360c","system_id":"levelo_inurba_marseille","lat":43.31315,"lon":5.38172,"is_reserved":false,"is_disabled":false,"rental_uris":{"android":"levelo://app?vid=b6d9b946-f66a-4c6f-96e5-5d23e176360c","ios":"levelo://app?vid=b6d9b946-f66a-4c6f-96e5-5d23e176360c"},"vehicle_type_id":"4","last_reported":1751977314,"current_range_meters":20400,"station_id":"","pricing_plan_id":"cebpf4jnsgd1na2vs0mg"},{"bike_id":"91caa7cf-da48-4b77-92af-de77619dbcc7","system_id":"levelo_inurba_marseille","lat":43.30555,"lon":5.36672,"is_reserved":false,"is_disabled":false,"rental_uris":{"android":"levelo://app?vid=91caa7cf-da48-4b77-92af-de77619dbcc7","ios":"levelo://app?vid=91caa7cf-da48-4b77-92af-de77619dbcc7"},"vehicle_type_id":"4","last_reported":1751977314,"current_range_meters":20400,"station_id":"","pricing_plan_id":"cebpf4jnsgd1na2vs0mg"},{"bike_id":"91521152-c001-4125-8f7e-86537670b1c4","system_id":"levelo_inurba_marseille","lat":43.27498,"lon":5.42456,"is_reserved":false,"is_disabled":false,"rental_uris":{"android":"levelo://app?vid=91521152-c001-4125-8f7e-86537670b1c4","ios":"levelo://app?vid=91521152-c001-4125-8f7e-86537670b1c4"},"vehicle_type_id":"4","last_reported":1751977314,"current_range_meters":20400,"station_id":"ce4bhn92rcd13ifvqgrg","pricing_plan_id":"cebpf4jnsgd1na2vs0mg"},{"bike_id":"15286feb-5dfb-498c-a584-add36819e4ef","system_id":"levelo_inurba_marseille","lat":43.21192,"lon":5.35103,"is_reserved":false,"is_disabled":false,"rental_uris":{"android":"levelo://app?vid=15286feb-5dfb-498c-a584-add36819e4ef","ios":"levelo://app?vid=15286feb-5dfb-498c-a584-add36819e4ef"},"vehicle_type_id":"4","last_reported":1751977314,"current_range_meters":20400,"station_id":"st_cvj6sg6p6f1abm77japg","pricing_plan_id":"cebpf4jnsgd1na2vs0mg"},{"bike_id":"1be39311-cfa5-4cbb-b93d-fb0870d6e611","system_id":"levelo_inurba_marseille","lat":43.21204,"lon":5.35075,"is_reserved":false,"is_disabled":false,"rental_uris":{"android":"levelo://app?vid=1be39311-cfa5-4cbb-b93d-fb0870d6e611","ios":"levelo://app?vid=1be39311-cfa5-4cbb-b93d-fb0870d6e611"},"vehicle_type_id":"4","last_reported":1751977314,"current_range_meters":20400,"station_id":"st_cvj6sg6p6f1abm77japg","pricing_plan_id":"cebpf4jnsgd1na2vs0mg"},{"bike_id":"320f2a33-deaa-4e0a-a3d5-c39ce8ad680a","system_id":"levelo_inurba_marseille","lat":43.3157,"lon":5.37471,"is_reserved":false,"is_disabled":false,"rental_uris":{"android":"levelo://app?vid=320f2a33-deaa-4e0a-a3d5-c39ce8ad680a","ios":"levelo://app?vid=320f2a33-deaa-4e0a-a3d5-c39ce8ad680a"},"vehicle_type_id":"4","last_reported":1751977314,"current_range_meters":20800,"station_id":"","pricing_plan_id":"cebpf4jnsgd1na2vs0mg"},{"bike_id":"5a5872c6-a97c-4e06-96d5-1828b33141df","system_id":"levelo_inurba_marseille","lat":43.31314,"lon":5.36865,"is_reserved":false,"is_disabled":false,"rental_uris":{"android":"levelo://app?vid=5a5872c6-a97c-4e06-96d5-1828b33141df","ios":"levelo://app?vid=5a5872c6-a97c-4e06-96d5-1828b33141df"},"vehicle_type_id":"4","last_reported":1751977314,"current_range_meters":20800,"station_id":"","pricing_plan_id":"cebpf4jnsgd1na2vs0mg"},{"bike_id":"6e17cbd9-182d-4642-84af-791538894fd8","system_id":"levelo_inurba_marseille","lat":43.30556,"lon":5.38451,"is_reserved":false,"is_disabled":false,"rental_uris":{"android":"levelo://app?vid=6e17cbd9-182d-4642-84af-791538894fd8","ios":"levelo://app?vid=6e17cbd9-182d-4642-84af-791538894fd8"},"vehicle_type_id":"4","last_reported":1751977314,"current_range_meters":20800,"station_id":"ce4bgg92rcd13ifvqb30","pricing_plan_id":"cebpf4jnsgd1na2vs0mg"},{"bike_id":"6440dbf7-b508-4bfc-a421-3c2e56f91e67","system_id":"levelo_inurba_marseille","lat":43.30567,"lon":5.36536,"is_reserved":false,"is_disabled":false,"rental_uris":{"android":"levelo://app?vid=6440dbf7-b508-4bfc-a421-3c2e56f91e67","ios":"levelo://app?vid=6440dbf7-b508-4bfc-a421-3c2e56f91e67"},"vehicle_type_id":"4","last_reported":1751977314,"current_range_meters":20800,"station_id":"ce4bgs12rcd13ifvqcag","pricing_plan_id":"cebpf4jnsgd1na2vs0mg"},{"bike_id":"08c4616f-4e6a-4f3f-9c41-4e98b83a19a3","system_id":"levelo_inurba_marseille","lat":43.28686,"lon":5.38668,"is_reserved":false,"is_disabled":false,"rental_uris":{"android":"levelo://app?vid=08c4616f-4e6a-4f3f-9c41-4e98b83a19a3","ios":"levelo://app?vid=08c4616f-4e6a-4f3f-9c41-4e98b83a19a3"},"vehicle_type_id":"4","last_reported":1751977314,"current_range_meters":20800,"station_id":"ce4bh492rcd13ifvqdug","pricing_plan_id":"cebpf4jnsgd1na2vs0mg"},{"bike_id":"65789dd8-982f-4eb9-a7a0-0c86c0d8e01c","system_id":"levelo_inurba_marseille","lat":43.26568,"lon":5.39012,"is_reserved":false,"is_disabled":false,"rental_uris":{"android":"levelo://app?vid=65789dd8-982f-4eb9-a7a0-0c86c0d8e01c","ios":"levelo://app?vid=65789dd8-982f-4eb9-a7a0-0c86c0d8e01c"},"vehicle_type_id":"4","last_reported":1751977314,"current_range_meters":20800,"station_id":"ce4bhe12rcd13ifvqf30","pricing_plan_id":"cebpf4jnsgd1na2vs0mg"},{"bike_id":"fd7d08d0-d8e9-446a-9f54-3e0aa7641460","system_id":"levelo_inurba_marseille","lat":43.24392,"lon":5.37064,"is_reserved":false,"is_disabled":false,"rental_uris":{"android":"levelo://app?vid=fd7d08d0-d8e9-446a-9f54-3e0aa7641460","ios":"levelo://app?vid=fd7d08d0-d8e9-446a-9f54-3e0aa7641460"},"vehicle_type_id":"4","last_reported":1751977314,"current_range_meters":20800,"station_id":"ce4bhhh2rcd13ifvqfk0","pricing_plan_id":"cebpf4jnsgd1na2vs0mg"},{"bike_id":"7ed38ed9-cc92-4938-9ea8-2968b65d99c6","system_id":"levelo_inurba_marseille","lat":43.27079,"lon":5.40282,"is_reserved":false,"is_disabled":false,"rental_uris":{"android":"levelo://app?vid=7ed38ed9-cc92-4938-9ea8-2968b65d99c6","ios":"levelo://app?vid=7ed38ed9-cc92-4938-9ea8-2968b65d99c6"},"vehicle_type_id":"4","last_reported":1751977314,"current_range_meters":20800,"station_id":"ce4bhk92rcd13ifvqgc0","pricing_plan_id":"cebpf4jnsgd1na2vs0mg"},{"bike_id":"ab04b546-2504-413f-96d8-08d15739aeed","system_id":"levelo_inurba_marseille","lat":43.2593,"lon":5.40899,"is_reserved":false,"is_disabled":false,"rental_uris":{"android":"levelo://app?vid=ab04b546-2504-413f-96d8-08d15739aeed","ios":"levelo://app?vid=ab04b546-2504-413f-96d8-08d15739aeed"},"vehicle_type_id":"4","last_reported":1751977314,"current_range_meters":20800,"station_id":"ce4bhm92rcd13ifvqglg","pricing_plan_id":"cebpf4jnsgd1na2vs0mg"},{"bike_id":"acba8ba0-fad8-48e5-925e-4680861847ca","system_id":"levelo_inurba_marseille","lat":43.26239,"lon":5.4048,"is_reserved":false,"is_disabled":false,"rental_uris":{"android":"levelo://app?vid=acba8ba0-fad8-48e5-925e-4680861847ca","ios":"levelo://app?vid=acba8ba0-fad8-48e5-925e-4680861847ca"},"vehicle_type_id":"4","last_reported":1751977314,"current_range_meters":20800,"station_id":"ce4bhmh2rcd13ifvqgmg","pricing_plan_id":"cebpf4jnsgd1na2vs0mg"},{"bike_id":"dd4b7e5b-2617-4a29-a909-13ea85140105","system_id":"levelo_inurba_marseille","lat":43.30378,"lon":5.42499,"is_reserved":false,"is_disabled":false,"rental_uris":{"android":"levelo://app?vid=dd4b7e5b-2617-4a29-a909-13ea85140105","ios":"levelo://app?vid=dd4b7e5b-2617-4a29-a909-13ea85140105"},"vehicle_type_id":"4","last_reported":1751977314,"current_range_meters":20800,"station_id":"ce4bhoh2rcd13ifvqh6g","pricing_plan_id":"cebpf4jnsgd1na2vs0mg"},{"bike_id":"840a0add-eede-44cd-b961-4ca982b1e356","system_id":"levelo_inurba_marseille","lat":43.29571,"lon":5.37504,"is_reserved":false,"is_disabled":false,"rental_uris":{"android":"levelo://app?vid=840a0add-eede-44cd-b961-4ca982b1e356","ios":"levelo://app?vid=840a0add-eede-44cd-b961-4ca982b1e356"},"vehicle_type_id":"4","last_reported":1751977314,"current_range_meters":21600,"station_id":"ce4bgh92rcd13ifvqb50","pricing_plan_id":"cebpf4jnsgd1na2vs0mg"},{"bike_id":"e983fd8e-3134-4478-b0a2-6a068ae0bf20","system_id":"levelo_inurba_marseille","lat":43.30601,"lon":5.39366,"is_reserved":false,"is_disabled":false,"rental_uris":{"android":"levelo://app?vid=e983fd8e-3134-4478-b0a2-6a068ae0bf20","ios":"levelo://app?vid=e983fd8e-3134-4478-b0a2-6a068ae0bf20"},