{"last_updated":1723655255,"ttl":30,"version":"2.2","data":{"bikes":[{"bike_id":"0d7153db-3e87-4f30-b34d-9f2743d4107e","system_id":"levelo_inurba_marseille","lat":43.31335,"lon":5.36711,"is_reserved":false,"is_disabled":false,"rental_uris":{"android":"levelo://app?vid=0d7153db-3e87-4f30-b34d-9f2743d4107e","ios":"levelo://app?vid=0d7153db-3e87-4f30-b34d-9f2743d4107e"},"vehicle_type_id":"4","last_reported":1723655255,"current_range_meters":0,"station_id":"ce4bgr92rcd13ifvqc6g","pricing_plan_id":"cebpf4jnsgd1na2vs0mg"},{"bike_id":"687d4c65-bd2b-4659-a41c-c11b1ebceb52","system_id":"levelo_inurba_marseille","lat":43.312239,"lon":5.368562,"is_reserved":false,"is_disabled":false,"rental_uris":{"android":"levelo://app?vid=687d4c65-bd2b-4659-a41c-c11b1ebceb52","ios":"levelo://app?vid=687d4c65-bd2b-4659-a41c-c11b1ebceb52"},"vehicle_type_id":"4","last_reported":1723655255,"current_range_meters":26000,"station_id":"ce4bgl92rcd13ifvqbq0","pricing_plan_id":"cebpf4jnsgd1na2vs0mg"},{"bike_id":"c2474936-2f7d-4be4-b43d-a64a60107534","system_id":"levelo_inurba_marseille","lat":43.31485,"lon":5.37311,"is_reserved":false,"is_disabled":false,"rental_uris":{"android":"levelo://app?vid=c2474936-2f7d-4be4-b43d-a64a60107534","ios":"levelo://app?vid=c2474936-2f7d-4be4-b43d-a64a60107534"},"vehicle_type_id":"4","last_reported":1723655255,"current_range_meters":0,"station_id":"ce4bgt12rcd13ifvqcd0","pricing_plan_id":"cebpf4jnsgd1na2vs0mg"},{"bike_id":"6f98a237-4b2f-4235-b0fb-58167508e15c","system_id":"levelo_inurba_marseille","lat":43.314811,"lon":5.373103,"is_reserved":false,"is_disabled":false,"rental_uris":{"android":"levelo://app?vid=6f98a237-4b2f-4235-b0fb-58167508e15c","ios":"levelo://app?vid=6f98a237-4b2f-4235-b0fb-58167508e15c"},"vehicle_type_id":"4","last_reported":1723655255,"current_range_meters":0,"station_id":"ce4bgt12rcd13ifvqcd0","pricing_plan_id":"cebpf4jnsgd1na2vs0mg"},{"bike_id":"4df72678-078d-4dd9-8229-5da183be9a58","system_id":"levelo_inurba_marseille","lat":43.309039,"lon":5.371797,"is_reserved":false,"is_disabled":false,"rental_uris":{"android":"levelo://app?vid=4df72678-078d-4dd9-8229-5da183be9a58","ios":"levelo://app?vid=4df72678-078d-4dd9-8229-5da183be9a58"},"vehicle_type_id":"4","last_reported":1723655255,"current_range_meters":29200,"station_id":"ce4bguh2rcd13ifvqckg","pricing_plan_id":"cebpf4jnsgd1na2vs0mg"},{"bike_id":"ad5c0e25-28c8-4989-b789-809a516030da","system_id":"levelo_inurba_marseille","lat":43.309039,"lon":5.371797,"is_reserved":false,"is_disabled":false,"rental_uris":{"android":"levelo://app?vid=ad5c0e25-28c8-4989-b789-809a516030da","ios":"levelo://app?vid=ad5c0e25-28c8-4989-b789-809a516030da"},"vehicle_type_id":"4","last_reported":1723655255,"current_range_meters":16800,"station_id":"ce4bguh2rcd13ifvqckg","pricing_plan_id":"cebpf4jnsgd1na2vs0mg"},{"bike_id":"5252081d-25e1-4d30-966f-ef29b8656cde","system_id":"levelo_inurba_marseille","lat":43.309034,"lon":5.371783,"is_reserved":false,"is_disabled":false,"rental_uris":{"android":"levelo://app?vid=5252081d-25e1-4d30-966f-ef29b8656cde","ios":"levelo://app?vid=5252081d-25e1-4d30-966f-ef29b8656cde"},"vehicle_type_id":"4","last_reported":1723655255,"current_range_meters":3600,"station_id":"ce4bguh2rcd13ifvqckg","pricing_plan_id":"cebpf4jnsgd1na2vs0mg"},{"bike_id":"c30425e3-1dbf-4e48-aeb4-1f65ad2594cc","system_id":"levelo_inurba_marseille","lat":43.305712,"lon":5.365641,"is_reserved":false,"is_disabled":false,"rental_uris":{"android":"levelo://app?vid=c30425e3-1dbf-4e48-aeb4-1f65ad2594cc","ios":"levelo://app?vid=c30425e3-1dbf-4e48-aeb4-1f65ad2594cc"},"vehicle_type_id":"4","last_reported":1723655255,"current_range_meters":3200,"station_id":"ce4bgs12rcd13ifvqcag","pricing_plan_id":"cebpf4jnsgd1na2vs0mg"},{"bike_id":"16ce72aa-e515-462a-a798-442ca174bc87","system_id":"levelo_inurba_marseille","lat":43.31596,"lon":5.37609,"is_reserved":false,"is_disabled":false,"rental_uris":{"android":"levelo://app?vid=16ce72aa-e515-462a-a798-442ca174bc87","ios":"levelo://app?vid=16ce72aa-e515-462a-a798-442ca174bc87"},"vehicle_type_id":"4","last_reported":1723655255,"current_range_meters":0,"station_id":"","pricing_plan_id":"cebpf4jnsgd1na2vs0mg"},{"bike_id":"7cc5f9ad-9266-4fab-bed7-fe8d25573fac","system_id":"levelo_inurba_marseille","lat":43.305714,"lon":5.365633,"is_reserved":false,"is_disabled":false,"rental_uris":{"android":"levelo://app?vid=7cc5f9ad-9266-4fab-bed7-fe8d25573fac","ios":"levelo://app?vid=7cc5f9ad-9266-4fab-bed7-fe8d25573fac"},"vehicle_type_id":"4","last_reported":1723655255,"current_range_meters":22000,"station_id":"ce4bgs12rcd13ifvqcag","pricing_plan_id":"cebpf4jnsgd1na2vs0mg"},{"bike_id":"303665e2-894b-4637-adf6-3cd8f6069a01","system_id":"levelo_inurba_marseille","lat":43.305368,"lon":5.367343,"is_reserved":false,"is_disabled":false,"rental_uris":{"android":"levelo://app?vid=303665e2-894b-4637-adf6-3cd8f6069a01","ios":"levelo://app?vid=303665e2-894b-4637-adf6-3cd8f6069a01"},"vehicle_type_id":"4","last_reported":1723655255,"current_range_meters":3600,"station_id":"ce4bgrp2rcd13ifvqc9g","pricing_plan_id":"cebpf4jnsgd1na2vs0mg"},{"bike_id":"bf6ae298-dbe0-4a0d-a049-b852f3f0fcd3","system_id":"levelo_inurba_marseille","lat":43.3112,"lon":5.37767,"is_reserved":false,"is_disabled":false,"rental_uris":{"android":"levelo://app?vid=bf6ae298-dbe0-4a0d-a049-b852f3f0fcd3","ios":"levelo://app?vid=bf6ae298-dbe0-4a0d-a049-b852f3f0fcd3"},"vehicle_type_id":"4","last_reported":1723655255,"current_range_meters":0,"station_id":"ce4bgt92rcd13ifvqcg0","pricing_plan_id":"cebpf4jnsgd1na2vs0mg"},{"bike_id":"9a6189b1-5935-442c-81de-b01fe42663a3","system_id":"levelo_inurba_marseille","lat":43.317075,"lon":5.377367,"is_reserved":false,"is_disabled":false,"rental_uris":{"android":"levelo://app?vid=9a6189b1-5935-442c-81de-b01fe42663a3","ios":"levelo://app?vid=9a6189b1-5935-442c-81de-b01fe42663a3"},"vehicle_type_id":"4","last_reported":1723655255,"current_range_meters":4400,"station_id":"ce4bgth2rcd13ifvqch0","pricing_plan_id":"cebpf4jnsgd1na2vs0mg"},{"bike_id":"3eb04d60-a52f-4863-8c1b-6d1114dc2310","system_id":"levelo_inurba_marseille","lat":43.315215,"lon":5.380355,"is_reserved":false,"is_disabled":false,"rental_uris":{"android":"levelo://app?vid=3eb04d60-a52f-4863-8c1b-6d1114dc2310","ios":"levelo://app?vid=3eb04d60-a52f-4863-8c1b-6d1114dc2310"},"vehicle_type_id":"4","last_reported":1723655255,"current_range_meters":30000,"station_id":"ce4bhsp2rcd13ifvqi50","pricing_plan_id":"cebpf4jnsgd1na2vs0mg"},{"bike_id":"daee7db2-87e7-4a3e-855f-71378b163dce","system_id":"levelo_inurba_marseille","lat":43.301939,"lon":5.366286,"is_reserved":false,"is_disabled":false,"rental_uris":{"android":"levelo://app?vid=daee7db2-87e7-4a3e-855f-71378b163dce","ios":"levelo://app?vid=daee7db2-87e7-4a3e-855f-71378b163dce"},"vehicle_type_id":"4","last_reported":1723655255,"current_range_meters":12400,"station_id":"ce4bgrh2rcd13ifvqc8g","pricing_plan_id":"cebpf4jnsgd1na2vs0mg"},{"bike_id":"440e9582-2b1d-4b26-872d-05c17aca61a7","system_id":"levelo_inurba_marseille","lat":43.30804,"lon":5.38148,"is_reserved":false,"is_disabled":false,"rental_uris":{"android":"levelo://app?vid=440e9582-2b1d-4b26-872d-05c17aca61a7","ios":"levelo://app?vid=440e9582-2b1d-4b26-872d-05c17aca61a7"},"vehicle_type_id":"4","last_reported":1723655255,"current_range_meters":0,"station_id":"ce4bgt12rcd13ifvqce0","pricing_plan_id":"cebpf4jnsgd1na2vs0mg"},{"bike_id":"4fd800eb-a12a-4757-822d-acade359085e","system_id":"levelo_inurba_marseille","lat":43.304606,"lon":5.379026,"is_reserved":false,"is_disabled":false,"rental_uris":{"android":"levelo://app?vid=4fd800eb-a12a-4757-822d-acade359085e","ios":"levelo://app?vid=4fd800eb-a12a-4757-822d-acade359085e"},"vehicle_type_id":"4","last_reported":1723655255,"current_range_meters":0,"station_id":"ce4bgup2rcd13ifvqcn0","pricing_plan_id":"cebpf4jnsgd1na2vs0mg"},{"bike_id":"7a42f9fb-ab87-4d29-890a-60f5de93af2a","system_id":"levelo_inurba_marseille","lat":43.301297,"lon":5.371937,"is_reserved":false,"is_disabled":false,"rental_uris":{"android":"levelo://app?vid=7a42f9fb-ab87-4d29-890a-60f5de93af2a","ios":"levelo://app?vid=7a42f9fb-ab87-4d29-890a-60f5de93af2a"},"vehicle_type_id":"4","last_reported":1723655255,"current_range_meters":20000,"station_id":"","pricing_plan_id":"cebpf4jnsgd1na2vs0mg"},{"bike_id":"2cb1bea5-3dca-4a80-b1fa-1e304ed8121a","system_id":"levelo_inurba_marseille","lat":43.324737,"lon":5.365623,"is_reserved":false,"is_disabled":false,"rental_uris":{"android":"levelo://app?vid=2cb1bea5-3dca-4a80-b1fa-1e304ed8121a","ios":"levelo://app?vid=2cb1bea5-3dca-4a80-b1fa-1e304ed8121a"},"vehicle_type_id":"4","last_reported":1723655255,"current_range_meters":1600,"station_id":"ce4bhs12rcd13ifvqhvg","pricing_plan_id":"cebpf4jnsgd1na2vs0mg"},{"bike_id":"509a30cd-91a9-46bc-9332-08b97e7e5c43","system_id":"levelo_inurba_marseille","lat":43.324771,"lon":5.36557,"is_reserved":false,"is_disabled":false,"rental_uris":{"android":"levelo://app?vid=509a30cd-91a9-46bc-9332-08b97e7e5c43","ios":"levelo://app?vid=509a30cd-91a9-46bc-9332-08b97e7e5c43"},"vehicle_type_id":"4","last_reported":1723655255,"current_range_meters":8000,"station_id":"ce4bhs12rcd13ifvqhvg","pricing_plan_id":"cebpf4jnsgd1na2vs0mg"},{"bike_id":"66bbb261-ffbc-4d1f-91a1-292fd5ab5a28","system_id":"levelo_inurba_marseille","lat":43.324771,"lon":5.36557,"is_reserved":false,"is_disabled":false,"rental_uris":{"android":"levelo://app?vid=66bbb261-ffbc-4d1f-91a1-292fd5ab5a28","ios":"levelo://app?vid=66bbb261-ffbc-4d1f-91a1-292fd5ab5a28"},"vehicle_type_id":"4","last_reported":1723655255,"current_range_meters":10800,"station_id":"ce4bhs12rcd13ifvqhvg","pricing_plan_id":"cebpf4jnsgd1na2vs0mg"},{"bike_id":"fff97d24-6f11-4a81-83e3-60cca19db482","system_id":"levelo_inurba_marseille","lat":43.324771,"lon":5.36557,"is_reserved":false,"is_disabled":false,"rental_uris":{"android":"levelo://app?vid=fff97d24-6f11-4a81-83e3-60cca19db482","ios":"levelo://app?vid=fff97d24-6f11-4a81-83e3-60cca19db482"},"vehicle_type_id":"4","last_reported":1723655255,"current_range_meters":15200,"station_id":"ce4bhs12rcd13ifvqhvg","pricing_plan_id":"cebpf4jnsgd1na2vs0mg"},{"bike_id":"27ea9797-f891-4d99-be0c-2c02bc0c959d","system_id":"levelo_inurba_marseille","lat":43.324771,"lon":5.36557,"is_reserved":false,"is_disabled":false,"rental_uris":{"android":"levelo://app?vid=27ea9797-f891-4d99-be0c-2c02bc0c959d","ios":"levelo://app?vid=27ea9797-f891-4d99-be0c-2c02bc0c959d"},"vehicle_type_id":"4","last_reported":1723655255,"current_range_meters":19600,"station_id":"ce4bhs12rcd13ifvqhvg","pricing_plan_id":"cebpf4jnsgd1na2vs0mg"},{"bike_id":"a53c443b-dae5-46e3-82e4-e460aba67b1e","system_id":"levelo_inurba_marseille","lat":43.30285,"lon":5.37708,"is_reserved":false,"is_disabled":false,"rental_uris":{"android":"levelo://app?vid=a53c443b-dae5-46e3-82e4-e460aba67b1e","ios":"levelo://app?vid=a53c443b-dae5-46e3-82e4-e460aba67b1e"},"vehicle_type_id":"4","last_reported":1723655255,"current_range_meters":0,"station_id":"ce4bguh2rcd13ifvqcj0","pricing_plan_id":"cebpf4jnsgd1na2vs0mg"},{"bike_id":"a776f9f6-5cd7-4e92-947b-aa3ac5c26ddd","system_id":"levelo_inurba_marseille","lat":43.30573,"lon":5.3816,"is_reserved":false,"is_disabled":false,"rental_uris":{"android":"levelo://app?vid=a776f9f6-5cd7-4e92-947b-aa3ac5c26ddd","ios":"levelo://app?vid=a776f9f6-5cd7-4e92-947b-aa3ac5c26ddd"},"vehicle_type_id":"4","last_reported":1723655255,"current_range_meters":22400,"station_id":"","pricing_plan_id":"cebpf4jnsgd1na2vs0mg"},{"bike_id":"f3a2bbea-a20d-401d-bfa2-540065729c33","system_id":"levelo_inurba_marseille","lat":43.319935,"lon":5.381699,"is_reserved":false,"is_disabled":false,"rental_uris":{"android":"levelo://app?vid=f3a2bbea-a20d-401d-bfa2-540065729c33","ios":"levelo://app?vid=f3a2bbea-a20d-401d-bfa2-540065729c33"},"vehicle_type_id":"4","last_reported":1723655255,"current_range_meters":14800,"station_id":"ce4bhr12rcd13ifvqhpg","pricing_plan_id":"cebpf4jnsgd1na2vs0mg"},{"bike_id":"9a1fc124-e25a-408f-a97e-a128f908aa20","system_id":"levelo_inurba_marseille","lat":43.319935,"lon":5.381699,"is_reserved":false,"is_disabled":false,"rental_uris":{"android":"levelo://app?vid=9a1fc124-e25a-408f-a97e-a128f908aa20","ios":"levelo://app?vid=9a1fc124-e25a-408f-a97e-a128f908aa20"},"vehicle_type_id":"4","last_reported":1723655255,"current_range_meters":26000,"station_id":"ce4bhr12rcd13ifvqhpg","pricing_plan_id":"cebpf4jnsgd1na2vs0mg"},{"bike_id":"19a8517d-156c-4636-a142-1c78513cd84c","system_id":"levelo_inurba_marseille","lat":43.313571,"lon":5.384829,"is_reserved":false,"is_disabled":false,"rental_uris":{"android":"levelo://app?vid=19a8517d-156c-4636-a142-1c78513cd84c","ios":"levelo://app?vid=19a8517d-156c-4636-a142-1c78513cd84c"},"vehicle_type_id":"4","last_reported":1723655255,"current_range_meters":0,"station_id":"ce4bgt92rcd13ifvqcf0","pricing_plan_id":"cebpf4jnsgd1na2vs0mg"},{"bike_id":"43aece2c-3330-4ca5-bdfd-583c4800a3d9","system_id":"levelo_inurba_marseille","lat":43.313571,"lon":5.384829,"is_reserved":false,"is_disabled":false,"rental_uris":{"android":"levelo://app?vid=43aece2c-3330-4ca5-bdfd-583c4800a3d9","ios":"levelo://app?vid=43aece2c-3330-4ca5-bdfd-583c4800a3d9"},"vehicle_type_id":"4","last_reported":1723655255,"current_range_meters":6000,"station_id":"ce4bgt92rcd13ifvqcf0","pricing_plan_id":"cebpf4jnsgd1na2vs0mg"},{"bike_id":"93cdedf4-4993-4dad-bc7d-e3000252dbe3","system_id":"levelo_inurba_marseille","lat":43.30642,"lon":5.401031,"is_reserved":false,"is_disabled":false,"rental_uris":{"android":"levelo://app?vid=93cdedf4-4993-4dad-bc7d-e3000252dbe3","ios":"levelo://app?vid=93cdedf4-4993-4dad-bc7d-e3000252dbe3"},"vehicle_type_id":"4","last_reported":1723655255,"current_range_meters":11600,"station_id":"ce4bh112rcd13ifvqda0","pricing_plan_id":"cebpf4jnsgd1na2vs0mg"},{"bike_id":"4dc1bcae-d0b3-41eb-b209-0446ee567a86","system_id":"levelo_inurba_marseille","lat":43.29935,"lon":5.36536,"is_reserved":false,"is_disabled":false,"rental_uris":{"android":"levelo://app?vid=4dc1bcae-d0b3-41eb-b209-0446ee567a86","ios":"levelo://app?vid=4dc1bcae-d0b3-41eb-b209-0446ee567a86"},"vehicle_type_id":"4","last_reported":1723655255,"current_range_meters":0,"station_id":"ce4bgm92rcd13ifvqbr0","pricing_plan_id":"cebpf4jnsgd1na2vs0mg"},{"bike_id":"71c81e38-35c8-4cbc-ad6e-8d448b98005d","system_id":"levelo_inurba_marseille","lat":43.299222,"lon":5.365554,"is_reserved":false,"is_disabled":false,"rental_uris":{"android":"levelo://app?vid=71c81e38-35c8-4cbc-ad6e-8d448b98005d","ios":"levelo://app?vid=71c81e38-35c8-4cbc-ad6e-8d448b98005d"},"vehicle_type_id":"4","last_reported":1723655255,"current_range_meters":10000,"station_id":"ce4bgm92rcd13ifvqbr0","pricing_plan_id":"cebpf4jnsgd1na2vs0mg"},{"bike_id":"d3a9d9b7-41ab-4f04-bbf3-0c03906e8f0e","system_id":"levelo_inurba_marseille","lat":43.299724,"lon":5.371829,"is_reserved":false,"is_disabled":false,"rental_uris":{"android":"levelo://app?vid=d3a9d9b7-41ab-4f04-bbf3-0c03906e8f0e","ios":"levelo://app?vid=d3a9d9b7-41ab-4f04-bbf3-0c03906e8f0e"},"vehicle_type_id":"4","last_reported":1723655255,"current_range_meters":29600,"station_id":"ce4bgr92rcd13ifvqc7g","pricing_plan_id":"cebpf4jnsgd1na2vs0mg"},{"bike_id":"be881f1a-1f7f-46a4-b464-7d2e5f3950c3","system_id":"levelo_inurba_marseille","lat":43.305364,"lon":5.384119,"is_reserved":false,"is_disabled":false,"rental_uris":{"android":"levelo://app?vid=be881f1a-1f7f-46a4-b464-7d2e5f3950c3","ios":"levelo://app?vid=be881f1a-1f7f-46a4-b464-7d2e5f3950c3"},"vehicle_type_id":"4","last_reported":1723655255,"current_range_meters":22800,"station_id":"ce4bgg92rcd13ifvqb30","pricing_plan_id":"cebpf4jnsgd1na2vs0mg"},{"bike_id":"ccbb5d70-8f7c-42ab-8139-59bd921c9162","system_id":"levelo_inurba_marseille","lat":43.305364,"lon":5.384119,"is_reserved":false,"is_disabled":false,"rental_uris":{"android":"levelo://app?vid=ccbb5d70-8f7c-42ab-8139-59bd921c9162","ios":"levelo://app?vid=ccbb5d70-8f7c-42ab-8139-59bd921c9162"},"vehicle_type_id":"4","last_reported":1723655255,"current_range_meters":0,"station_id":"ce4bgg92rcd13ifvqb30","pricing_plan_id":"cebpf4jnsgd1na2vs0mg"},{"bike_id":"ce666108-d8f7-48b9-a936-064117fb0225","system_id":"levelo_inurba_marseille","lat":43.298433,"lon":5.362774,"is_reserved":false,"is_disabled":false,"rental_uris":{"android":"levelo://app?vid=ce666108-d8f7-48b9-a936-064117fb0225","ios":"levelo://app?vid=ce666108-d8f7-48b9-a936-064117fb0225"},"vehicle_type_id":"4","last_reported":1723655255,"current_range_meters":9600,"station_id":"ce4bgpp2rcd13ifvqc3g","pricing_plan_id":"cebpf4jnsgd1na2vs0mg"},{"bike_id":"51d932e2-9a17-460d-9f52-1b6badf995c2","system_id":"levelo_inurba_marseille","lat":43.298433,"lon":5.362774,"is_reserved":false,"is_disabled":false,"rental_uris":{"android":"levelo://app?vid=51d932e2-9a17-460d-9f52-1b6badf995c2","ios":"levelo://app?vid=51d932e2-9a17-460d-9f52-1b6badf995c2"},"vehicle_type_id":"4","last_reported":1723655255,"current_range_meters":14800,"station_id":"ce4bgpp2rcd13ifvqc3g","pricing_plan_id":"cebpf4jnsgd1na2vs0mg"},{"bike_id":"ec92c635-a191-41be-8a06-f556f5e025e5","system_id":"levelo_inurba_marseille","lat":43.298433,"lon":5.362774,"is_reserved":false,"is_disabled":false,"rental_uris":{"android":"levelo://app?vid=ec92c635-a191-41be-8a06-f556f5e025e5","ios":"levelo://app?vid=ec92c635-a191-41be-8a06-f556f5e025e5"},"vehicle_type_id":"4","last_reported":1723655255,"current_range_meters":19200,"station_id":"ce4bgpp2rcd13ifvqc3g","pricing_plan_id":"cebpf4jnsgd1na2vs0mg"},{"bike_id":"a0836ef9-905d-44f5-b58c-cb3f7c13913c","system_id":"levelo_inurba_marseille","lat":43.298433,"lon":5.362774,"is_reserved":false,"is_disabled":false,"rental_uris":{"android":"levelo://app?vid=a0836ef9-905d-44f5-b58c-cb3f7c13913c","ios":"levelo://app?vid=a0836ef9-905d-44f5-b58c-cb3f7c13913c"},"vehicle_type_id":"4","last_reported":1723655255,"current_range_meters":0,"station_id":"ce4bgpp2rcd13ifvqc3g","pricing_plan_id":"cebpf4jnsgd1na2vs0mg"},{"bike_id":"5478ac29-3b3e-4f2d-88fd-5ec2bc5e56fe","system_id":"levelo_inurba_marseille","lat":43.298433,"lon":5.362774,"is_reserved":false,"is_disabled":false,"rental_uris":{"android":"levelo://app?vid=5478ac29-3b3e-4f2d-88fd-5ec2bc5e56fe","ios":"levelo://app?vid=5478ac29-3b3e-4f2d-88fd-5ec2bc5e56fe"},"vehicle_type_id":"4","last_reported":1723655255,"current_range_meters":0,"station_id":"ce4bgpp2rcd13ifvqc3g","pricing_plan_id":"cebpf4jnsgd1na2vs0mg"},{"bike_id":"982bc50c-ef53-475c-adca-de52425e539d","system_id":"levelo_inurba_marseille","lat":43.299243,"lon":5.374807,"is_reserved":false,"is_disabled":false,"rental_uris":{"android":"levelo://app?vid=982bc50c-ef53-475c-adca-de52425e539d","ios":"levelo://app?vid=982bc50c-ef53-475c-adca-de52425e539d"},"vehicle_type_id":"4","last_reported":1723655255,"current_range_meters":2400,"station_id":"ce4bgjh2rcd13ifvqbg0","pricing_plan_id":"cebpf4jnsgd1na2vs0mg"},{"bike_id":"2649721f-d08b-4a09-9e33-752fe7a55c87","system_id":"levelo_inurba_marseille","lat":43.298433,"lon":5.362774,"is_reserved":false,"is_disabled":false,"rental_uris":{"android":"levelo://app?vid=2649721f-d08b-4a09-9e33-752fe7a55c87","ios":"levelo://app?vid=2649721f-d08b-4a09-9e33-752fe7a55c87"},"vehicle_type_id":"4","last_reported":1723655255,"current_range_meters":5200,"station_id":"ce4bgpp2rcd13ifvqc3g","pricing_plan_id":"cebpf4jnsgd1na2vs0mg"},{"bike_id":"f8802cef-6193-4a8c-b0b6-3b455194514b","system_id":"levelo_inurba_marseille","lat":43.305364,"lon":5.384119,"is_reserved":false,"is_disabled":false,"rental_uris":{"android":"levelo://app?vid=f8802cef-6193-4a8c-b0b6-3b455194514b","ios":"levelo://app?vid=f8802cef-6193-4a8c-b0b6-3b455194514b"},"vehicle_type_id":"4","last_reported":1723655255,"current_range_meters":14400,"station_id":"ce4bgg92rcd13ifvqb30","pricing_plan_id":"cebpf4jnsgd1na2vs0mg"},{"bike_id":"11a157cf-8577-4bba-bd18-266547fce82d","system_id":"levelo_inurba_marseille","lat":43.298433,"lon":5.362774,"is_reserved":false,"is_disabled":false,"rental_uris":{"android":"levelo://app?vid=11a157cf-8577-4bba-bd18-266547fce82d","ios":"levelo://app?vid=11a157cf-8577-4bba-bd18-266547fce82d"},"vehicle_type_id":"4","last_reported":1723655255,"current_range_meters":26800,"station_id":"ce4bgpp2rcd13ifvqc3g","pricing_plan_id":"cebpf4jnsgd1na2vs0mg"},{"bike_id":"27828176-5f0d-4972-8215-29e083570571","system_id":"levelo_inurba_marseille","lat":43.298433,"lon":5.362774,"is_reserved":false,"is_disabled":false,"rental_uris":{"android":"levelo://app?vid=27828176-5f0d-4972-8215-29e083570571","ios":"levelo://app?vid=27828176-5f0d-4972-8215-29e083570571"},"vehicle_type_id":"4","last_reported":1723655255,"current_range_meters":14000,"station_id":"ce4bgpp2rcd13ifvqc3g","pricing_plan_id":"cebpf4jnsgd1na2vs0mg"},{"bike_id":"015b4b35-b89a-43a7-bacb-5c9a828ca0bd","system_id":"levelo_inurba_marseille","lat":43.299243,"lon":5.374807,"is_reserved":false,"is_disabled":false,"rental_uris":{"android":"levelo://app?vid=015b4b35-b89a-43a7-bacb-5c9a828ca0bd","ios":"levelo://app?vid=015b4b35-b89a-43a7-bacb-5c9a828ca0bd"},"vehicle_type_id":"4","last_reported":1723655255,"current_range_meters":14400,"station_id":"ce4bgjh2rcd13ifvqbg0","pricing_plan_id":"cebpf4jnsgd1na2vs0mg"},{"bike_id":"ad05422c-f894-4ecb-bf91-7770f55bc048","system_id":"levelo_inurba_marseille","lat":43.298433,"lon":5.362774,"is_reserved":false,"is_disabled":false,"rental_uris":{"android":"levelo://app?vid=ad05422c-f894-4ecb-bf91-7770f55bc048","ios":"levelo://app?vid=ad05422c-f894-4ecb-bf91-7770f55bc048"},"vehicle_type_id":"4","last_reported":1723655255,"current_range_meters":24800,"station_id":"ce4bgpp2rcd13ifvqc3g","pricing_plan_id":"cebpf4jnsgd1na2vs0mg"},{"bike_id":"7e43e315-1500-488e-96be-52ce0ff9d616","system_id":"levelo_inurba_marseille","lat":43.298433,"lon":5.362774,"is_reserved":false,"is_disabled":false,"rental_uris":{"android":"levelo://app?vid=7e43e315-1500-488e-96be-52ce0ff9d616","ios":"levelo://app?vid=7e43e315-1500-488e-96be-52ce0ff9d616"},"vehicle_type_id":"4","last_reported":1723655255,"current_range_meters":4800,"station_id":"ce4bgpp2rcd13ifvqc3g","pricing_plan_id":"cebpf4jnsgd1na2vs0mg"},{"bike_id":"189ec3c2-e10e-45ab-8340-d9705b4be6f7","system_id":"levelo_inurba_marseille","lat":43.297794,"lon":5.370888,"is_reserved":false,"is_disabled":false,"rental_uris":{"android":"levelo://app?vid=189ec3c2-e10e-45ab-8340-d9705b4be6f7","ios":"levelo://app?vid=189ec3c2-e10e-45ab-8340-d9705b4be6f7"},"vehicle_type_id":"4","last_reported":1723655255,"current_range_meters":30400,"station_id":"ce4bgop2rcd13ifvqc1g","pricing_plan_id":"cebpf4jnsgd1na2vs0mg"},{"bike_id":"5046cc75-73a0-46b9-b501-10a13d053d73","system_id":"levelo_inurba_marseille","lat":43.297794,"lon":5.370888,"is_reserved":false,"is_disabled":false,"rental_uris":{"android":"levelo://app?vid=5046cc75-73a0-46b9-b501-10a13d053d73","ios":"levelo://app?vid=5046cc75-73a0-46b9-b501-10a13d053d73"},"vehicle_type_id":"4","last_reported":1723655255,"current_range_meters":16400,"station_id":"ce4bgop2rcd13ifvqc1g","pricing_plan_id":"cebpf4jnsgd1na2vs0mg"},{"bike_id":"df188007-b402-4674-bc2c-e85e97e37036","system_id":"levelo_inurba_marseille","lat":43.297774,"lon":5.370875,"is_reserved":false,"is_disabled":false,"rental_uris":{"android":"levelo://app?vid=df188007-b402-4674-bc2c-e85e97e37036","ios":"levelo://app?vid=df188007-b402-4674-bc2c-e85e97e37036"},"vehicle_type_id":"4","last_reported":1723655255,"current_range_meters":16400,"station_id":"ce4bgop2rcd13ifvqc1g","pricing_plan_id":"cebpf4jnsgd1na2vs0mg"},{"bike_id":"922d56c4-7836-4ece-856c-ddf97021e2bb","system_id":"levelo_inurba_marseille","lat":43.297163,"lon":5.365866,"is_reserved":false,"is_disabled":false,"rental_uris":{"android":"levelo://app?vid=922d56c4-7836-4ece-856c-ddf97021e2bb","ios":"levelo://app?vid=922d56c4-7836-4ece-856c-ddf97021e2bb"},"vehicle_type_id":"4","last_reported":1723655255,"current_range_meters":9600,"station_id":"ce4bgn12rcd13ifvqbt0","pricing_plan_id":"cebpf4jnsgd1na2vs0mg"},{"bike_id":"dda1b2b8-f425-44cb-8f6a-e58c179f956c","system_id":"levelo_inurba_marseille","lat":43.296692,"lon":5.368577,"is_reserved":false,"is_disabled":false,"rental_uris":{"android":"levelo://app?vid=dda1b2b8-f425-44cb-8f6a-e58c179f956c","ios":"levelo://app?vid=dda1b2b8-f425-44cb-8f6a-e58c179f956c"},"vehicle_type_id":"4","last_reported":1723655255,"current_range_meters":4000,"station_id":"","pricing_plan_id":"cebpf4jnsgd1na2vs0mg"},{"bike_id":"83725c55-1bed-4c09-9eee-f4eecc37da73","system_id":"levelo_inurba_marseille","lat":43.296738,"lon":5.370428,"is_reserved":false,"is_disabled":false,"rental_uris":{"android":"levelo://app?vid=83725c55-1bed-4c09-9eee-f4eecc37da73","ios":"levelo://app?vid=83725c55-1bed-4c09-9eee-f4eecc37da73"},"vehicle_type_id":"4","last_reported":1723655255,"current_range_meters":800,"station_id":"","pricing_plan_id":"cebpf4jnsgd1na2vs0mg"},{"bike_id":"b1a9671f-f861-4a26-ae5f-1a5c557f6f63","system_id":"levelo_inurba_marseille","lat":43.29622,"lon":5.37165,"is_reserved":false,"is_disabled":false,"rental_uris":{"android":"levelo://app?vid=b1a9671f-f861-4a26-ae5f-1a5c557f6f63","ios":"levelo://app?vid=b1a9671f-f861-4a26-ae5f-1a5c557f6f63"},"vehicle_type_id":"4","last_reported":1723655255,"current_range_meters":0,"station_id":"ce4bgnh2rcd13ifvqc0g","pricing_plan_id":"cebpf4jnsgd1na2vs0mg"},{"bike_id":"afb3bf5f-263d-46b6-ace0-602fcdfa1fa9","system_id":"levelo_inurba_marseille","lat":43.298037,"lon":5.381066,"is_reserved":false,"is_disabled":false,"rental_uris":{"android":"levelo://app?vid=afb3bf5f-263d-46b6-ace0-602fcdfa1fa9","ios":"levelo://app?vid=afb3bf5f-263d-46b6-ace0-602fcdfa1fa9"},"vehicle_type_id":"4","last_reported":1723655255,"current_range_meters":30800,"station_id":"ce4bgip2rcd13ifvqbb0","pricing_plan_id":"cebpf4jnsgd1na2vs0mg"},{"bike_id":"499cd331-5a22-417b-a614-99aeddc70b72","system_id":"levelo_inurba_marseille","lat":43.298037,"lon":5.381066,"is_reserved":false,"is_disabled":false,"rental_uris":{"android":"levelo://app?vid=499cd331-5a22-417b-a614-99aeddc70b72","ios":"levelo://app?vid=499cd331-5a22-417b-a614-99aeddc70b72"},"vehicle_type_id":"4","last_reported":1723655255,"current_range_meters":31200,"station_id":"ce4bgip2rcd13ifvqbb0","pricing_plan_id":"cebpf4jnsgd1na2vs0mg"},{"bike_id":"2cfdaeae-4d5c-4aa5-86f5-296c8cb18e36","system_id":"levelo_inurba_marseille","lat":43.295814,"lon":5.375212,"is_reserved":false,"is_disabled":false,"rental_uris":{"android":"levelo://app?vid=2cfdaeae-4d5c-4aa5-86f5-296c8cb18e36","ios":"levelo://app?vid=2cfdaeae-4d5c-4aa5-86f5-296c8cb18e36"},"vehicle_type_id":"4","last_reported":1723655255,"current_range_meters":8800,"station_id":"ce4bgop2rcd13ifvqc1g","pricing_plan_id":"cebpf4jnsgd1na2vs0mg"},{"bike_id":"3e466944-bd87-40d3-a267-0bf5f38aedf7","system_id":"levelo_inurba_marseille","lat":43.29576,"lon":5.37507,"is_reserved":false,"is_disabled":false,"rental_uris":{"android":"levelo://app?vid=3e466944-bd87-40d3-a267-0bf5f38aedf7","ios":"levelo://app?vid=3e466944-bd87-40d3-a267-0bf5f38aedf7"},"vehicle_type_id":"4","last_reported":1723655255,"current_range_meters":12000,"station_id":"ce4bgh92rcd13ifvqb50","pricing_plan_id":"cebpf4jnsgd1na2vs0mg"},{"bike_id":"39c98e7e-07c7-4448-b2a8-4b73d8800dbf","system_id":"levelo_inurba_marseille","lat":43.295748,"lon":5.37522,"is_reserved":false,"is_disabled":false,"rental_uris":{"android":"levelo://app?vid=39c98e7e-07c7-4448-b2a8-4b73d8800dbf","ios":"levelo://app?vid=39c98e7e-07c7-4448-b2a8-4b73d8800dbf"},"vehicle_type_id":"4","last_reported":1723655255,"current_range_meters":15200,"station_id":"ce4bgh92rcd13ifvqb50","pricing_plan_id":"cebpf4jnsgd1na2vs0mg"},{"bike_id":"aff8be52-375e-4cd6-b802-88c33a337ee7","system_id":"levelo_inurba_marseille","lat":43.295748,"lon":5.37522,"is_reserved":false,"is_disabled":false,"rental_uris":{"android":"levelo://app?vid=aff8be52-375e-4cd6-b802-88c33a337ee7","ios":"levelo://app?vid=aff8be52-375e-4cd6-b802-88c33a337ee7"},"vehicle_type_id":"4","last_reported":1723655255,"current_range_meters":0,"station_id":"ce4bgh92rcd13ifvqb50","pricing_plan_id":"cebpf4jnsgd1na2vs0mg"},{"bike_id":"0651839a-b273-4871-a656-ff18c476539a","system_id":"levelo_inurba_marseille","lat":43.295748,"lon":5.37522,"is_reserved":false,"is_disabled":false,"rental_uris":{"android":"levelo://app?vid=0651839a-b273-4871-a656-ff18c476539a","ios":"levelo://app?vid=0651839a-b273-4871-a656-ff18c476539a"},"vehicle_type_id":"4","last_reported":1723655255,"current_range_meters":10400,"station_id":"ce4bgh92rcd13ifvqb50","pricing_plan_id":"cebpf4jnsgd1na2vs0mg"},{"bike_id":"53b103d6-2f36-48fa-bf07-ee2d5fc7d4ee","system_id":"levelo_inurba_marseille","lat":43.295748,"lon":5.37522,"is_reserved":false,"is_disabled":false,"rental_uris":{"android":"levelo://app?vid=53b103d6-2f36-48fa-bf07-ee2d5fc7d4ee","ios":"levelo://app?vid=53b103d6-2f36-48fa-bf07-ee2d5fc7d4ee"},"vehicle_type_id":"4","last_reported":1723655255,"current_range_meters":9200,"station_id":"ce4bgh92rcd13ifvqb50","pricing_plan_id":"cebpf4jnsgd1na2vs0mg"},{"bike_id":"88fb42b6-7d0c-42a7-9b47-c59a5e2063e6","system_id":"levelo_inurba_marseille","lat":43.304278,"lon":5.388868,"is_reserved":false,"is_disabled":false,"rental_uris":{"android":"levelo://app?vid=88fb42b6-7d0c-42a7-9b47-c59a5e2063e6","ios":"levelo://app?vid=88fb42b6-7d0c-42a7-9b47-c59a5e2063e6"},"vehicle_type_id":"4","last_reported":1723655255,"current_range_meters":0,"station_id":"ce4bgk12rcd13ifvqbi0","pricing_plan_id":"cebpf4jnsgd1na2vs0mg"},{"bike_id":"fefc80c0-3a47-466d-83ee-9e41afc60dc1","system_id":"levelo_inurba_marseille","lat":43.296277,"lon":5.377108,"is_reserved":false,"is_disabled":false,"rental_uris":{"android":"levelo://app?vid=fefc80c0-3a47-466d-83ee-9e41afc60dc1","ios":"levelo://app?vid=fefc80c0-3a47-466d-83ee-9e41afc60dc1"},"vehicle_type_id":"4","last_reported":1723655255,"current_range_meters":26400,"station_id":"ce4bgi92rcd13ifvqb90","pricing_plan_id":"cebpf4jnsgd1na2vs0mg"},{"bike_id":"9ad98f21-26f1-4122-a044-3b1a46183fd6","system_id":"levelo_inurba_marseille","lat":43.299717,"lon":5.384845,"is_reserved":false,"is_disabled":false,"rental_uris":{"android":"levelo://app?vid=9ad98f21-26f1-4122-a044-3b1a46183fd6","ios":"levelo://app?vid=9ad98f21-26f1-4122-a044-3b1a46183fd6"},"vehicle_type_id":"4","last_reported":1723655255,"current_range_meters":0,"station_id":"ce4bgj92rcd13ifvqbd0","pricing_plan_id":"cebpf4jnsgd1na2vs0mg"},{"bike_id":"43c285a8-411b-4b2f-88e3-4be31d295f77","system_id":"levelo_inurba_marseille","lat":43.29973,"lon":5.384808,"is_reserved":false,"is_disabled":false,"rental_uris":{"android":"levelo://app?vid=43c285a8-411b-4b2f-88e3-4be31d295f77","ios":"levelo://app?vid=43c285a8-411b-4b2f-88e3-4be31d295f77"},"vehicle_type_id":"4","last_reported":1723655255,"current_range_meters":0,"station_id":"","pricing_plan_id":"cebpf4jnsgd1na2vs0mg"},{"bike_id":"21685ef2-71d8-477e-a0c9-7ee7ef18e9ae","system_id":"levelo_inurba_marseille","lat":43.299724,"lon":5.384848,"is_reserved":false,"is_disabled":false,"rental_uris":{"android":"levelo://app?vid=21685ef2-71d8-477e-a0c9-7ee7ef18e9ae","ios":"levelo://app?vid=21685ef2-71d8-477e-a0c9-7ee7ef18e9ae"},"vehicle_type_id":"4","last_reported":1723655255,"current_range_meters":0,"station_id":"ce4bgj92rcd13ifvqbd0","pricing_plan_id":"cebpf4jnsgd1na2vs0mg"},{"bike_id":"f801c11b-547a-42a0-b2d2-ac120f32b420","system_id":"levelo_inurba_marseille","lat":43.29968,"lon":5.38496,"is_reserved":false,"is_disabled":false,"rental_uris":{"android":"levelo://app?vid=f801c11b-547a-42a0-b2d2-ac120f32b420","ios":"levelo://app?vid=f801c11b-547a-42a0-b2d2-ac120f32b420"},"vehicle_type_id":"4","last_reported":1723655255,"current_range_meters":19600,"station_id":"","pricing_plan_id":"cebpf4jnsgd1na2vs0mg"},{"bike_id":"c71648e7-e8d9-4644-a80f-a5918399c46c","system_id":"levelo_inurba_marseille","lat":43.301396,"lon":5.387812,"is_reserved":false,"is_disabled":false,"rental_uris":{"android":"levelo://app?vid=c71648e7-e8d9-4644-a80f-a5918399c46c","ios":"levelo://app?vid=c71648e7-e8d9-4644-a80f-a5918399c46c"},"vehicle_type_id":"4","last_reported":1723655255,"current_range_meters":5200,"station_id":"ce4bghh2rcd13ifvqb60","pricing_plan_id":"cebpf4jnsgd1na2vs0mg"},{"bike_id":"d6ad820c-9a1e-44fc-80b6-b54a96b4173a","system_id":"levelo_inurba_marseille","lat":43.301396,"lon":5.387812,"is_reserved":false,"is_disabled":false,"rental_uris":{"android":"levelo://app?vid=d6ad820c-9a1e-44fc-80b6-b54a96b4173a","ios":"levelo://app?vid=d6ad820c-9a1e-44fc-80b6-b54a96b4173a"},"vehicle_type_id":"4","last_reported":1723655255,"current_range_meters":0,"station_id":"ce4bghh2rcd13ifvqb60","pricing_plan_id":"cebpf4jnsgd1na2vs0mg"},{"bike_id":"a0a63124-ad18-4dd6-9b2a-bc78a29a7435","system_id":"levelo_inurba_marseille","lat":43.32367,"lon":5.388836,"is_reserved":false,"is_disabled":false,"rental_uris":{"android":"levelo://app?vid=a0a63124-ad18-4dd6-9b2a-bc78a29a7435","ios":"levelo://app?vid=a0a63124-ad18-4dd6-9b2a-bc78a29a7435"},"vehicle_type_id":"4","last_reported":1723655255,"current_range_meters":0,"station_id":"ce4bhqp2rcd13ifvqhog","pricing_plan_id":"cebpf4jnsgd1na2vs0mg"},{"bike_id":"17bfcd30-3280-4651-874a-15f9a8f57df2","system_id":"levelo_inurba_marseille","lat":43.29277,"lon":5.36837,"is_reserved":false,"is_disabled":false,"rental_uris":{"android":"levelo://app?vid=17bfcd30-3280-4651-874a-15f9a8f57df2","ios":"levelo://app?vid=17bfcd30-3280-4651-874a-15f9a8f57df2"},"vehicle_type_id":"4","last_reported":1723655255,"current_range_meters":0,"station_id":"ce4bhbp2rcd13ifvqesg","pricing_plan_id":"cebpf4jnsgd1na2vs0mg"},{"bike_id":"af0b84f1-0f01-4238-8216-854dccabdc3d","system_id":"levelo_inurba_marseille","lat":43.292749,"lon":5.368398,"is_reserved":false,"is_disabled":false,"rental_uris":{"android":"levelo://app?vid=af0b84f1-0f01-4238-8216-854dccabdc3d","ios":"levelo://app?vid=af0b84f1-0f01-4238-8216-854dccabdc3d"},"vehicle_type_id":"4","last_reported":1723655255,"current_range_meters":400,"station_id":"ce4bhbp2rcd13ifvqesg","pricing_plan_id":"cebpf4jnsgd1na2vs0mg"},{"bike_id":"2f43dd6e-2fbe-4a29-9d17-ec49b6dd0b95","system_id":"levelo_inurba_marseille","lat":43.292749,"lon":5.368402,"is_reserved":false,"is_disabled":false,"rental_uris":{"android":"levelo://app?vid=2f43dd6e-2fbe-4a29-9d17-ec49b6dd0b95","ios":"levelo://app?vid=2f43dd6e-2fbe-4a29-9d17-ec49b6dd0b95"},"vehicle_type_id":"4","last_reported":1723655255,"current_range_meters":0,"station_id":"ce4bhbp2rcd13ifvqesg","pricing_plan_id":"cebpf4jnsgd1na2vs0mg"},{"bike_id":"9beaf757-0c36-4015-b5f7-c2a6b5461ce0","system_id":"levelo_inurba_marseille","lat":43.29274,"lon":5.36844,"is_reserved":false,"is_disabled":false,"rental_uris":{"android":"levelo://app?vid=9beaf757-0c36-4015-b5f7-c2a6b5461ce0","ios":"levelo://app?vid=9beaf757-0c36-4015-b5f7-c2a6b5461ce0"},"vehicle_type_id":"4","last_reported":1723655255,"current_range_meters":14400,"station_id":"ce4bhbp2rcd13ifvqesg","pricing_plan_id":"cebpf4jnsgd1na2vs0mg"},{"bike_id":"8dd92b46-e2d5-4f81-9b44-d3c825063839","system_id":"levelo_inurba_marseille","lat":43.292749,"lon":5.368398,"is_reserved":false,"is_disabled":false,"rental_uris":{"android":"levelo://app?vid=8dd92b46-e2d5-4f81-9b44-d3c825063839","ios":"levelo://app?vid=8dd92b46-e2d5-4f81-9b44-d3c825063839"},"vehicle_type_id":"4","last_reported":1723655255,"current_range_meters":14000,"station_id":"ce4bhbp2rcd13ifvqesg","pricing_plan_id":"cebpf4jnsgd1na2vs0mg"},{"bike_id":"4a4a2cba-c065-462d-9bcb-a96409a54a5a","system_id":"levelo_inurba_marseille","lat":43.29273,"lon":5.368383,"is_reserved":false,"is_disabled":false,"rental_uris":{"android":"levelo://app?vid=4a4a2cba-c065-462d-9bcb-a96409a54a5a","ios":"levelo://app?vid=4a4a2cba-c065-462d-9bcb-a96409a54a5a"},"vehicle_type_id":"4","last_reported":1723655255,"current_range_meters":0,"station_id":"ce4bhbp2rcd13ifvqesg","pricing_plan_id":"cebpf4jnsgd1na2vs0mg"},{"bike_id":"30bed275-fd1c-4d44-8696-f209a01a5e3f","system_id":"levelo_inurba_marseille","lat":43.292749,"lon":5.368402,"is_reserved":false,"is_disabled":false,"rental_uris":{"android":"levelo://app?vid=30bed275-fd1c-4d44-8696-f209a01a5e3f","ios":"levelo://app?vid=30bed275-fd1c-4d44-8696-f209a01a5e3f"},"vehicle_type_id":"4","last_reported":1723655255,"current_range_meters":13600,"station_id":"ce4bhbp2rcd13ifvqesg","pricing_plan_id":"cebpf4jnsgd1na2vs0mg"},{"bike_id":"832c088a-f229-4de5-88e2-fc5702b13d0b","system_id":"levelo_inurba_marseille","lat":43.292749,"lon":5.368398,"is_reserved":false,"is_disabled":false,"rental_uris":{"android":"levelo://app?vid=832c088a-f229-4de5-88e2-fc5702b13d0b","ios":"levelo://app?vid=832c088a-f229-4de5-88e2-fc5702b13d0b"},"vehicle_type_id":"4","last_reported":1723655255,"current_range_meters":2000,"station_id":"ce4bhbp2rcd13ifvqesg","pricing_plan_id":"cebpf4jnsgd1na2vs0mg"},{"bike_id":"9b34f732-83a1-4e24-a725-31cb1680da92","system_id":"levelo_inurba_marseille","lat":43.292749,"lon":5.368402,"is_reserved":false,"is_disabled":false,"rental_uris":{"android":"levelo://app?vid=9b34f732-83a1-4e24-a725-31cb1680da92","ios":"levelo://app?vid=9b34f732-83a1-4e24-a725-31cb1680da92"},"vehicle_type_id":"4","last_reported":1723655255,"current_range_meters":6400,"station_id":"ce4bhbp2rcd13ifvqesg","pricing_plan_id":"cebpf4jnsgd1na2vs0mg"},{"bike_id":"357b4e04-9642-4030-9f2c-4dda4f326366","system_id":"levelo_inurba_marseille","lat":43.305994,"lon":5.393687,"is_reserved":false,"is_disabled":false,"rental_uris":{"android":"levelo://app?vid=357b4e04-9642-4030-9f2c-4dda4f326366","ios":"levelo://app?vid=357b4e04-9642-4030-9f2c-4dda4f326366"},"vehicle_type_id":"4","last_reported":1723655255,"current_range_meters":0,"station_id":"ce4bh0p2rcd13ifvqd80","pricing_plan_id":"cebpf4jnsgd1na2vs0mg"},{"bike_id":"16af62ec-6478-4269-8282-c80ad5a49e58","system_id":"levelo_inurba_marseille","lat":43.3059,"lon":5.39357,"is_reserved":false,"is_disabled":false,"rental_uris":{"android":"levelo://app?vid=16af62ec-6478-4269-8282-c80ad5a49e58","ios":"levelo://app?vid=16af62ec-6478-4269-8282-c80ad5a49e58"},"vehicle_type_id":"4","last_reported":1723655255,"current_range_meters":16400,"station_id":"ce4bh0p2rcd13ifvqd80","pricing_plan_id":"cebpf4jnsgd1na2vs0mg"},{"bike_id":"bf374313-72ca-45ff-b111-15a90e99ba8b","system_id":"levelo_inurba_marseille","lat":43.305994,"lon":5.393687,"is_reserved":false,"is_disabled":false,"rental_uris":{"android":"levelo://app?vid=bf374313-72ca-45ff-b111-15a90e99ba8b","ios":"levelo://app?vid=bf374313-72ca-45ff-b111-15a90e99ba8b"},"vehicle_type_id":"4","last_reported":1723655255,"current_range_meters":8400,"station_id":"ce4bh0p2rcd13ifvqd80","pricing_plan_id":"cebpf4jnsgd1na2vs0mg"},{"bike_id":"bd40aad2-2ef2-4cf2-bbe5-856b8ebd78a5","system_id":"levelo_inurba_marseille","lat":43.303002,"lon":5.392142,"is_reserved":false,"is_disabled":false,"rental_uris":{"android":"levelo://app?vid=bd40aad2-2ef2-4cf2-bbe5-856b8ebd78a5","ios":"levelo://app?vid=bd40aad2-2ef2-4cf2-bbe5-856b8ebd78a5"},"vehicle_type_id":"4","last_reported":1723655255,"current_range_meters":0,"station_id":"ce4bgkh2rcd13ifvqbk0","pricing_plan_id":"cebpf4jnsgd1na2vs0mg"},{"bike_id":"f4b750f1-50b6-48f5-96bd-0f98555e01ff","system_id":"levelo_inurba_marseille","lat":43.30085,"lon":5.390856,"is_reserved":false,"is_disabled":false,"rental_uris":{"android":"levelo://app?vid=f4b750f1-50b6-48f5-96bd-0f98555e01ff","ios":"levelo://app?vid=f4b750f1-50b6-48f5-96bd-0f98555e01ff"},"vehicle_type_id":"4","last_reported":1723655255,"current_range_meters":20800,"station_id":"ce4bh192rcd13ifvqdb0","pricing_plan_id":"cebpf4jnsgd1na2vs0mg"},{"bike_id":"2c648af5-597b-49f5-96ab-6c87942a43b2","system_id":"levelo_inurba_marseille","lat":43.292311,"lon":5.360731,"is_reserved":false,"is_disabled":false,"rental_uris":{"android":"levelo://app?vid=2c648af5-597b-49f5-96ab-6c87942a43b2","ios":"levelo://app?vid=2c648af5-597b-49f5-96ab-6c87942a43b2"},"vehicle_type_id":"4","last_reported":1723655255,"current_range_meters":17600,"station_id":"ce4bhbh2rcd13ifvqeqg","pricing_plan_id":"cebpf4jnsgd1na2vs0mg"},{"bike_id":"93e6b2b0-1b1f-499b-ae15-76ebcf60ac8f","system_id":"levelo_inurba_marseille","lat":43.292311,"lon":5.360731,"is_reserved":false,"is_disabled":false,"rental_uris":{"android":"levelo://app?vid=93e6b2b0-1b1f-499b-ae15-76ebcf60ac8f","ios":"levelo://app?vid=93e6b2b0-1b1f-499b-ae15-76ebcf60ac8f"},"vehicle_type_id":"4","last_reported":1723655255,"current_range_meters":16800,"station_id":"ce4bhbh2rcd13ifvqeqg","pricing_plan_id":"cebpf4jnsgd1na2vs0mg"},{"bike_id":"a378c6b5-d806-4724-ae8d-18acf020c890","system_id":"levelo_inurba_marseille","lat":43.292311,"lon":5.360731,"is_reserved":false,"is_disabled":false,"rental_uris":{"android":"levelo://app?vid=a378c6b5-d806-4724-ae8d-18acf020c890","ios":"levelo://app?vid=a378c6b5-d806-4724-ae8d-18acf020c890"},"vehicle_type_id":"4","last_reported":1723655255,"current_range_meters":0,"station_id":"ce4bhbh2rcd13ifvqeqg","pricing_plan_id":"cebpf4jnsgd1na2vs0mg"},{"bike_id":"b8bcc203-ee4f-48de-9012-88be09aa2768","system_id":"levelo_inurba_marseille","lat":43.292311,"lon":5.360731,"is_reserved":false,"is_disabled":false,"rental_uris":{"android":"levelo://app?vid=b8bcc203-ee4f-48de-9012-88be09aa2768","ios":"levelo://app?vid=b8bcc203-ee4f-48de-9012-88be09aa2768"},"vehicle_type_id":"4","last_reported":1723655255,"current_range_meters":26000,"station_id":"ce4bhbh2rcd13ifvqeqg","pricing_plan_id":"cebpf4jnsgd1na2vs0mg"},{"bike_id":"90a14408-f21f-4543-8e51-3ad19a2611b8","system_id":"levelo_inurba_marseille","lat":43.292311,"lon":5.360731,"is_reserved":false,"is_disabled":false,"rental_uris":{"android":"levelo://app?vid=90a14408-f21f-4543-8e51-3ad19a2611b8","ios":"levelo://app?vid=90a14408-f21f-4543-8e51-3ad19a2611b8"},"vehicle_type_id":"4","last_reported":1723655255,"current_range_meters":27200,"station_id":"ce4bhbh2rcd13ifvqeqg","pricing_plan_id":"cebpf4jnsgd1na2vs0mg"},{"bike_id":"ac7fc7ee-4bb1-4f97-ba28-c48ea83f1ee5","system_id":"levelo_inurba_marseille","lat":43.292005,"lon":5.357875,"is_reserved":false,"is_disabled":false,"rental_uris":{"android":"levelo://app?vid=ac7fc7ee-4bb1-4f97-ba28-c48ea83f1ee5","ios":"levelo://app?vid=ac7fc7ee-4bb1-4f97-ba28-c48ea83f1ee5"},"vehicle_type_id":"4","last_reported":1723655255,"current_range_meters":29200,"station_id":"ce4bhb12rcd13ifvqel0","pricing_plan_id":"cebpf4jnsgd1na2vs0mg"},{"bike_id":"46844b7a-a734-4ff4-9478-1d933963e955","system_id":"levelo_inurba_marseille","lat":43.31331,"lon":5.39691,"is_reserved":false,"is_disabled":false,"rental_uris":{"android":"levelo://app?vid=46844b7a-a734-4ff4-9478-1d933963e955","ios":"levelo://app?vid=46844b7a-a734-4ff4-9478-1d933963e955"},"vehicle_type_id":"4","last_reported":1723655255,"current_range_meters":18000,"station_id":"ce4bgvp2rcd13ifvqcu0","pricing_plan_id":"cebpf4jnsgd1na2vs0mg"},{"bike_id":"c4fef161-ef05-408e-90c4-894653255f90","system_id":"levelo_inurba_marseille","lat":43.29191,"lon":5.35797,"is_reserved":false,"is_disabled":false,"rental_uris":{"android":"levelo://app?vid=c4fef161-ef05-408e-90c4-894653255f90","ios":"levelo://app?vid=c4fef161-ef05-408e-90c4-894653255f90"},"vehicle_type_id":"4","last_reported":1723655255,"current_range_meters":0,"station_id":"ce4bhb12rcd13ifvqel0","pricing_plan_id":"cebpf4jnsgd1na2vs0mg"},{"bike_id":"a804f92a-1d44-4d21-b18a-60611e5c7d60","system_id":"levelo_inurba_marseille","lat":43.31331,"lon":5.39696,"is_reserved":false,"is_disabled":false,"rental_uris":{"android":"levelo://app?vid=a804f92a-1d44-4d21-b18a-60611e5c7d60","ios":"levelo://app?vid=a804f92a-1d44-4d21-b18a-60611e5c7d60"},"vehicle_type_id":"4","last_reported":1723655255,"current_range_meters":18400,"station_id":"ce4bgvp2rcd13ifvqcu0","pricing_plan_id":"cebpf4jnsgd1na2vs0mg"},{"bike_id":"6f433fe1-7803-417a-9f4c-6408d04482a1","system_id":"levelo_inurba_marseille","lat":43.309038,"lon":5.396546,"is_reserved":false,"is_disabled":false,"rental_uris":{"android":"levelo://app?vid=6f433fe1-7803-417a-9f4c-6408d04482a1","ios":"levelo://app?vid=6f433fe1-7803-417a-9f4c-6408d04482a1"},"vehicle_type_id":"4","last_reported":1723655255,"current_range_meters":5200,"station_id":"ce4bh012rcd13ifvqcv0","pricing_plan_id":"cebpf4jnsgd1na2vs0mg"},{"bike_id":"333b709b-5a95-4c25-8489-6db20a2aa2d4","system_id":"levelo_inurba_marseille","lat":43.29529,"lon":5.385581,"is_reserved":false,"is_disabled":false,"rental_uris":{"android":"levelo://app?vid=333b709b-5a95-4c25-8489-6db20a2aa2d4","ios":"levelo://app?vid=333b709b-5a95-4c25-8489-6db20a2aa2d4"},"vehicle_type_id":"4","last_reported":1723655255,"current_range_meters":25200,"station_id":"ce4bgih2rcd13ifvqba0","pricing_plan_id":"cebpf4jnsgd1na2vs0mg"},{"bike_id":"7ccfa66d-a0f9-4a6b-9591-b1a20114c9a9","system_id":"levelo_inurba_marseille","lat":43.29533,"lon":5.38543,"is_reserved":false,"is_disabled":false,"rental_uris":{"android":"levelo://app?vid=7ccfa66d-a0f9-4a6b-9591-b1a20114c9a9","ios":"levelo://app?vid=7ccfa66d-a0f9-4a6b-9591-b1a20114c9a9"},"vehicle_type_id":"4","last_reported":1723655255,"current_range_meters":0,"station_id":"ce4bgih2rcd13ifvqba0","pricing_plan_id":"cebpf4jnsgd1na2vs0mg"},{"bike_id":"cfb6e70d-914d-408e-8adb-cbecc6e6a097","system_id":"levelo_inurba_marseille","lat":43.290779,"lon":5.371482,"is_reserved":false,"is_disabled":false,"rental_uris":{"android":"levelo://app?vid=cfb6e70d-914d-408e-8adb-cbecc6e6a097","ios":"levelo://app?vid=cfb6e70d-914d-408e-8adb-cbecc6e6a097"},"vehicle_type_id":"4","last_reported":1723655255,"current_range_meters":22400,"station_id":"ce4bh5p2rcd13ifvqe4g","pricing_plan_id":"cebpf4jnsgd1na2vs0mg"},{"bike_id":"e786e543-f050-4506-9d40-4165a69a0528","system_id":"levelo_inurba_marseille","lat":43.290779,"lon":5.371482,"is_reserved":false,"is_disabled":false,"rental_uris":{"android":"levelo://app?vid=e786e543-f050-4506-9d40-4165a69a0528","ios":"levelo://app?vid=e786e543-f050-4506-9d40-4165a69a0528"},"vehicle_type_id":"4","last_reported":1723655255,"current_range_meters":28400,"station_id":"ce4bh5p2rcd13ifvqe4g","pricing_plan_id":"cebpf4jnsgd1na2vs0mg"},{"bike_id":"8078ed9a-dbb0-472e-8901-e0dc5cdabcc6","system_id":"levelo_inurba_marseille","lat":43.290779,"lon":5.371482,"is_reserved":false,"is_disabled":false,"rental_uris":{"android":"levelo://app?vid=8078ed9a-dbb0-472e-8901-e0dc5cdabcc6","ios":"levelo://app?vid=8078ed9a-dbb0-472e-8901-e0dc5cdabcc6"},"vehicle_type_id":"4","last_reported":1723655255,"current_range_meters":28800,"station_id":"ce4bh5p2rcd13ifvqe4g","pricing_plan_id":"cebpf4jnsgd1na2vs0mg"},{"bike_id":"2789e3cf-f6aa-4d43-bfa3-b6cf1d8324dd","system_id":"levelo_inurba_marseille","lat":43.290779,"lon":5.371482,"is_reserved":false,"is_disabled":false,"rental_uris":{"android":"levelo://app?vid=2789e3cf-f6aa-4d43-bfa3-b6cf1d8324dd","ios":"levelo://app?vid=2789e3cf-f6aa-4d43-bfa3-b6cf1d8324dd"},"vehicle_type_id":"4","last_reported":1723655255,"current_range_meters":30800,"station_id":"ce4bh5p2rcd13ifvqe4g","pricing_plan_id":"cebpf4jnsgd1na2vs0mg"},{"bike_id":"4ae016f5-fe39-4ff0-8537-9a2641a40421","system_id":"levelo_inurba_marseille","lat":43.290779,"lon":5.371482,"is_reserved":false,"is_disabled":false,"rental_uris":{"android":"levelo://app?vid=4ae016f5-fe39-4ff0-8537-9a2641a40421","ios":"levelo://app?vid=4ae016f5-fe39-4ff0-8537-9a2641a40421"},"vehicle_type_id":"4","last_reported":1723655255,"current_range_meters":14800,"station_id":"ce4bh5p2rcd13ifvqe4g","pricing_plan_id":"cebpf4jnsgd1na2vs0mg"},{"bike_id":"b7fc1692-40b1-40aa-9636-ef1f1c840945","system_id":"levelo_inurba_marseille","lat":43.290631,"lon":5.359244,"is_reserved":false,"is_disabled":false,"rental_uris":{"android":"levelo://app?vid=b7fc1692-40b1-40aa-9636-ef1f1c840945","ios":"levelo://app?vid=b7fc1692-40b1-40aa-9636-ef1f1c840945"},"vehicle_type_id":"4","last_reported":1723655255,"current_range_meters":19600,"station_id":"ce4bha92rcd13ifvqeg0","pricing_plan_id":"cebpf4jnsgd1na2vs0mg"},{"bike_id":"71f88d6b-401e-4429-8bec-b890ada99697","system_id":"levelo_inurba_marseille","lat":43.290319,"lon":5.375732,"is_reserved":false,"is_disabled":false,"rental_uris":{"android":"levelo://app?vid=71f88d6b-401e-4429-8bec-b890ada99697","ios":"levelo://app?vid=71f88d6b-401e-4429-8bec-b890ada99697"},"vehicle_type_id":"4","last_reported":1723655255,"current_range_meters":0,"station_id":"ce4bh692rcd13ifvqe90","pricing_plan_id":"cebpf4jnsgd1na2vs0mg"},{"bike_id":"6d933bbd-7d8e-4034-8ece-a58fb5598d3b","system_id":"levelo_inurba_marseille","lat":43.294162,"lon":5.386292,"is_reserved":false,"is_disabled":false,"rental_uris":{"android":"levelo://app?vid=6d933bbd-7d8e-4034-8ece-a58fb5598d3b","ios":"levelo://app?vid=6d933bbd-7d8e-4034-8ece-a58fb5598d3b"},"vehicle_type_id":"4","last_reported":1723655255,"current_range_meters":14000,"station_id":"ce4bh2h2rcd13ifvqdh0","pricing_plan_id":"cebpf4jnsgd1na2vs0mg"},{"bike_id":"437ee71f-514b-454c-97c9-76fa41f08a50","system_id":"levelo_inurba_marseille","lat":43.290319,"lon":5.375732,"is_reserved":false,"is_disabled":false,"rental_uris":{"android":"levelo://app?vid=437ee71f-514b-454c-97c9-76fa41f08a50","ios":"levelo://app?vid=437ee71f-514b-454c-97c9-76fa41f08a50"},"vehicle_type_id":"4","last_reported":1723655255,"current_range_meters":11200,"station_id":"ce4bh692rcd13ifvqe90","pricing_plan_id":"cebpf4jnsgd1na2vs0mg"},{"bike_id":"85ffeb44-d58b-4ee1-9d17-7abb3bf8ac9f","system_id":"levelo_inurba_marseille","lat":43.290327,"lon":5.375711,"is_reserved":false,"is_disabled":false,"rental_uris":{"android":"levelo://app?vid=85ffeb44-d58b-4ee1-9d17-7abb3bf8ac9f","ios":"levelo://app?vid=85ffeb44-d58b-4ee1-9d17-7abb3bf8ac9f"},"vehicle_type_id":"4","last_reported":1723655255,"current_range_meters":30800,"station_id":"ce4bh692rcd13ifvqe90","pricing_plan_id":"cebpf4jnsgd1na2vs0mg"},{"bike_id":"9d476cbf-408b-442d-8810-50276b0d65bf","system_id":"levelo_inurba_marseille","lat":43.29422,"lon":5.38625,"is_reserved":false,"is_disabled":false,"rental_uris":{"android":"levelo://app?vid=9d476cbf-408b-442d-8810-50276b0d65bf","ios":"levelo://app?vid=9d476cbf-408b-442d-8810-50276b0d65bf"},"vehicle_type_id":"4","last_reported":1723655255,"current_range_meters":0,"station_id":"ce4bh2h2rcd13ifvqdh0","pricing_plan_id":"cebpf4jnsgd1na2vs0mg"},{"bike_id":"7655701f-083d-434c-90dc-5c52e3a57fe2","system_id":"levelo_inurba_marseille","lat":43.294162,"lon":5.386292,"is_reserved":false,"is_disabled":false,"rental_uris":{"android":"levelo://app?vid=7655701f-083d-434c-90dc-5c52e3a57fe2","ios":"levelo://app?vid=7655701f-083d-434c-90dc-5c52e3a57fe2"},"vehicle_type_id":"4","last_reported":1723655255,"current_range_meters":16000,"station_id":"ce4bh2h2rcd13ifvqdh0","pricing_plan_id":"cebpf4jnsgd1na2vs0mg"},{"bike_id":"edf11db3-6ab2-4706-a5cf-78db596cecac","system_id":"levelo_inurba_marseille","lat":43.290319,"lon":5.375732,"is_reserved":false,"is_disabled":false,"rental_uris":{"android":"levelo://app?vid=edf11db3-6ab2-4706-a5cf-78db596cecac","ios":"levelo://app?vid=edf11db3-6ab2-4706-a5cf-78db596cecac"},"vehicle_type_id":"4","last_reported":1723655255,"current_range_meters":27200,"station_id":"ce4bh692rcd13ifvqe90","pricing_plan_id":"cebpf4jnsgd1na2vs0mg"},{"bike_id":"3ef61e70-3314-405a-8bab-b587a9956094","system_id":"levelo_inurba_marseille","lat":43.289387,"lon":5.366293,"is_reserved":false,"is_disabled":false,"rental_uris":{"android":"levelo://app?vid=3ef61e70-3314-405a-8bab-b587a9956094","ios":"levelo://app?vid=3ef61e70-3314-405a-8bab-b587a9956094"},"vehicle_type_id":"4","last_reported":1723655255,"current_range_meters":0,"station_id":"ce4bhap2rcd13ifvqek0","pricing_plan_id":"cebpf4jnsgd1na2vs0mg"},{"bike_id":"b5b96a08-60c3-412e-b6e1-bd5c9d6cc0e5","system_id":"levelo_inurba_marseille","lat":43.289184,"lon":5.366408,"is_reserved":false,"is_disabled":false,"rental_uris":{"android":"levelo://app?vid=b5b96a08-60c3-412e-b6e1-bd5c9d6cc0e5","ios":"levelo://app?vid=b5b96a08-60c3-412e-b6e1-bd5c9d6cc0e5"},"vehicle_type_id":"4","last_reported":1723655255,"current_range_meters":16000,"station_id":"ce4bhap2rcd13ifvqek0","pricing_plan_id":"cebpf4jnsgd1na2vs0mg"},{"bike_id":"40fec1a2-e4e1-4e3e-92f1-9aaeb4930875","system_id":"levelo_inurba_marseille","lat":43.28937,"lon":5.3662,"is_reserved":false,"is_disabled":false,"rental_uris":{"android":"levelo://app?vid=40fec1a2-e4e1-4e3e-92f1-9aaeb4930875","ios":"levelo://app?vid=40fec1a2-e4e1-4e3e-92f1-9aaeb4930875"},"vehicle_type_id":"4","last_reported":1723655255,"current_range_meters":0,"station_id":"ce4bhap2rcd13ifvqek0","pricing_plan_id":"cebpf4jnsgd1na2vs0mg"},{"bike_id":"86bf62c7-bb4e-4136-86c6-d19478ef03e9","system_id":"levelo_inurba_marseille","lat":43.289184,"lon":5.366408,"is_reserved":false,"is_disabled":false,"rental_uris":{"android":"levelo://app?vid=86bf62c7-bb4e-4136-86c6-d19478ef03e9","ios":"levelo://app?vid=86bf62c7-bb4e-4136-86c6-d19478ef03e9"},"vehicle_type_id":"4","last_reported":1723655255,"current_range_meters":19200,"station_id":"ce4bhap2rcd13ifvqek0","pricing_plan_id":"cebpf4jnsgd1na2vs0mg"},{"bike_id":"fb01db6e-9966-4fcc-93b6-f822a88662df","system_id":"levelo_inurba_marseille","lat":43.289468,"lon":5.363719,"is_reserved":false,"is_disabled":false,"rental_uris":{"android":"levelo://app?vid=fb01db6e-9966-4fcc-93b6-f822a88662df","ios":"levelo://app?vid=fb01db6e-9966-4fcc-93b6-f822a88662df"},"vehicle_type_id":"4","last_reported":1723655255,"current_range_meters":0,"station_id":"ce4bhc92rcd13ifvqetg","pricing_plan_id":"cebpf4jnsgd1na2vs0mg"},{"bike_id":"658fc07a-22f5-44cc-b4c6-4ca1cbe182b2","system_id":"levelo_inurba_marseille","lat":43.292642,"lon":5.384254,"is_reserved":false,"is_disabled":false,"rental_uris":{"android":"levelo://app?vid=658fc07a-22f5-44cc-b4c6-4ca1cbe182b2","ios":"levelo://app?vid=658fc07a-22f5-44cc-b4c6-4ca1cbe182b2"},"vehicle_type_id":"4","last_reported":1723655255,"current_range_meters":13600,"station_id":"ce4bh692rcd13ifvqea0","pricing_plan_id":"cebpf4jnsgd1na2vs0mg"},{"bike_id":"763aea0c-a157-40ef-b81b-ca11bec004ce","system_id":"levelo_inurba_marseille","lat":43.292644,"lon":5.384257,"is_reserved":false,"is_disabled":false,"rental_uris":{"android":"levelo://app?vid=763aea0c-a157-40ef-b81b-ca11bec004ce","ios":"levelo://app?vid=763aea0c-a157-40ef-b81b-ca11bec004ce"},"vehicle_type_id":"4","last_reported":1723655255,"current_range_meters":5200,"station_id":"ce4bh692rcd13ifvqea0","pricing_plan_id":"cebpf4jnsgd1na2vs0mg"},{"bike_id":"4dfa4741-54af-4380-bd1f-9c8aa76b204b","system_id":"levelo_inurba_marseille","lat":43.29272,"lon":5.38439,"is_reserved":false,"is_disabled":false,"rental_uris":{"android":"levelo://app?vid=4dfa4741-54af-4380-bd1f-9c8aa76b204b","ios":"levelo://app?vid=4dfa4741-54af-4380-bd1f-9c8aa76b204b"},"vehicle_type_id":"4","last_reported":1723655255,"current_range_meters":0,"station_id":"ce4bh692rcd13ifvqea0","pricing_plan_id":"cebpf4jnsgd1na2vs0mg"},{"bike_id":"6affef22-9119-402c-b6ff-9b84e2a99dc5","system_id":"levelo_inurba_marseille","lat":43.29265,"lon":5.38448,"is_reserved":false,"is_disabled":false,"rental_uris":{"android":"levelo://app?vid=6affef22-9119-402c-b6ff-9b84e2a99dc5","ios":"levelo://app?vid=6affef22-9119-402c-b6ff-9b84e2a99dc5"},"vehicle_type_id":"4","last_reported":1723655255,"current_range_meters":0,"station_id":"ce4bh692rcd13ifvqea0","pricing_plan_id":"cebpf4jnsgd1na2vs0mg"},{"bike_id":"b5d6f653-78aa-41a9-8508-c14d1b765ca6","system_id":"levelo_inurba_marseille","lat":43.290103,"lon":5.356114,"is_reserved":false,"is_disabled":false,"rental_uris":{"android":"levelo://app?vid=b5d6f653-78aa-41a9-8508-c14d1b765ca6","ios":"levelo://app?vid=b5d6f653-78aa-41a9-8508-c14d1b765ca6"},"vehicle_type_id":"4","last_reported":1723655255,"current_range_meters":12000,"station_id":"ce4bhb92rcd13ifvqen0","pricing_plan_id":"cebpf4jnsgd1na2vs0mg"},{"bike_id":"09e27305-c889-475c-9ca3-13a95357ed04","system_id":"levelo_inurba_marseille","lat":43.290104,"lon":5.356111,"is_reserved":false,"is_disabled":false,"rental_uris":{"android":"levelo://app?vid=09e27305-c889-475c-9ca3-13a95357ed04","ios":"levelo://app?vid=09e27305-c889-475c-9ca3-13a95357ed04"},"vehicle_type_id":"4","last_reported":1723655255,"current_range_meters":400,"station_id":"ce4bhb92rcd13ifvqen0","pricing_plan_id":"cebpf4jnsgd1na2vs0mg"},{"bike_id":"2b1b1f88-eea6-47f8-a66a-ac2306b60460","system_id":"levelo_inurba_marseille","lat":43.29004,"lon":5.35618,"is_reserved":false,"is_disabled":false,"rental_uris":{"android":"levelo://app?vid=2b1b1f88-eea6-47f8-a66a-ac2306b60460","ios":"levelo://app?vid=2b1b1f88-eea6-47f8-a66a-ac2306b60460"},"vehicle_type_id":"4","last_reported":1723655255,"current_range_meters":31200,"station_id":"ce4bhb92rcd13ifvqen0","pricing_plan_id":"cebpf4jnsgd1na2vs0mg"},{"bike_id":"0b63aa1a-2cf1-4c65-841b-56ced8484701","system_id":"levelo_inurba_marseille","lat":43.29004,"lon":5.35612,"is_reserved":false,"is_disabled":false,"rental_uris":{"android":"levelo://app?vid=0b63aa1a-2cf1-4c65-841b-56ced8484701","ios":"levelo://app?vid=0b63aa1a-2cf1-4c65-841b-56ced8484701"},"vehicle_type_id":"4","last_reported":1723655255,"current_range_meters":800,"station_id":"ce4bhb92rcd13ifvqen0","pricing_plan_id":"cebpf4jnsgd1na2vs0mg"},{"bike_id":"0200f6f7-9270-4b00-9b4b-71404d27518c","system_id":"levelo_inurba_marseille","lat":43.290103,"lon":5.356114,"is_reserved":false,"is_disabled":false,"rental_uris":{"android":"levelo://app?vid=0200f6f7-9270-4b00-9b4b-71404d27518c","ios":"levelo://app?vid=0200f6f7-9270-4b00-9b4b-71404d27518c"},"vehicle_type_id":"4","last_reported":1723655255,"current_range_meters":5200,"station_id":"ce4bhb92rcd13ifvqen0","pricing_plan_id":"cebpf4jnsgd1na2vs0mg"},{"bike_id":"01d0a5ee-2549-4afc-b203-c8e6dd142666","system_id":"levelo_inurba_marseille","lat":43.290104,"lon":5.356111,"is_reserved":false,"is_disabled":false,"rental_uris":{"android":"levelo://app?vid=01d0a5ee-2549-4afc-b203-c8e6dd142666","ios":"levelo://app?vid=01d0a5ee-2549-4afc-b203-c8e6dd142666"},"vehicle_type_id":"4","last_reported":1723655255,"current_range_meters":24800,"station_id":"ce4bhb92rcd13ifvqen0","pricing_plan_id":"cebpf4jnsgd1na2vs0mg"},{"bike_id":"ec87324f-6db6-4cdf-a63b-c5854c5f1646","system_id":"levelo_inurba_marseille","lat":43.290103,"lon":5.356114,"is_reserved":false,"is_disabled":false,"rental_uris":{"android":"levelo://app?vid=ec87324f-6db6-4cdf-a63b-c5854c5f1646","ios":"levelo://app?vid=ec87324f-6db6-4cdf-a63b-c5854c5f1646"},"vehicle_type_id":"4","last_reported":1723655255,"current_range_meters":1200,"station_id":"ce4bhb92rcd13ifvqen0","pricing_plan_id":"cebpf4jnsgd1na2vs0mg"},{"bike_id":"d4721e2c-ddd5-4a8c-9c4c-447bc7b026af","system_id":"levelo_inurba_marseille","lat":43.290104,"lon":5.356111,"is_reserved":false,"is_disabled":false,"rental_uris":{"android":"levelo://app?vid=d4721e2c-ddd5-4a8c-9c4c-447bc7b026af","ios":"levelo://app?vid=d4721e2c-ddd5-4a8c-9c4c-447bc7b026af"},"vehicle_type_id":"4","last_reported":1723655255,"current_range_meters":0,"station_id":"ce4bhb92rcd13ifvqen0","pricing_plan_id":"cebpf4jnsgd1na2vs0mg"},{"bike_id":"429956e2-a939-43d8-96a6-1ed39fd1c181","system_id":"levelo_inurba_marseille","lat":43.290104,"lon":5.356111,"is_reserved":false,"is_disabled":false,"rental_uris":{"android":"levelo://app?vid=429956e2-a939-43d8-96a6-1ed39fd1c181","ios":"levelo://app?vid=429956e2-a939-43d8-96a6-1ed39fd1c181"},"vehicle_type_id":"4","last_reported":1723655255,"current_range_meters":0,"station_id":"ce4bhb92rcd13ifvqen0","pricing_plan_id":"cebpf4jnsgd1na2vs0mg"},{"bike_id":"749c6e3e-fa0f-44d8-b66e-7548d78eadba","system_id":"levelo_inurba_marseille","lat":43.290995,"lon":5.381361,"is_reserved":false,"is_disabled":false,"rental_uris":{"android":"levelo://app?vid=749c6e3e-fa0f-44d8-b66e-7548d78eadba","ios":"levelo://app?vid=749c6e3e-fa0f-44d8-b66e-7548d78eadba"},"vehicle_type_id":"4","last_reported":1723655255,"current_range_meters":24000,"station_id":"ce4bh512rcd13ifvqe2g","pricing_plan_id":"cebpf4jnsgd1na2vs0mg"},{"bike_id":"08169581-12eb-47a7-b413-0f86ee763b0f","system_id":"levelo_inurba_marseille","lat":43.295169,"lon":5.390426,"is_reserved":false,"is_disabled":false,"rental_uris":{"android":"levelo://app?vid=08169581-12eb-47a7-b413-0f86ee763b0f","ios":"levelo://app?vid=08169581-12eb-47a7-b413-0f86ee763b0f"},"vehicle_type_id":"4","last_reported":1723655255,"current_range_meters":18000,"station_id":"ce4bh3p2rcd13ifvqdp0","pricing_plan_id":"cebpf4jnsgd1na2vs0mg"},{"bike_id":"0105d04b-ea1c-4b48-8847-c1736b3f16f4","system_id":"levelo_inurba_marseille","lat":43.295169,"lon":5.390426,"is_reserved":false,"is_disabled":false,"rental_uris":{"android":"levelo://app?vid=0105d04b-ea1c-4b48-8847-c1736b3f16f4","ios":"levelo://app?vid=0105d04b-ea1c-4b48-8847-c1736b3f16f4"},"vehicle_type_id":"4","last_reported":1723655255,"current_range_meters":15200,"station_id":"ce4bh3p2rcd13ifvqdp0","pricing_plan_id":"cebpf4jnsgd1na2vs0mg"},{"bike_id":"569379f6-870c-49b9-85f4-db44e7c59941","system_id":"levelo_inurba_marseille","lat":43.330442,"lon":5.389148,"is_reserved":false,"is_disabled":false,"rental_uris":{"android":"levelo://app?vid=569379f6-870c-49b9-85f4-db44e7c59941","ios":"levelo://app?vid=569379f6-870c-49b9-85f4-db44e7c59941"},"vehicle_type_id":"4","last_reported":1723655255,"current_range_meters":4400,"station_id":"ce4bhr92rcd13ifvqhrg","pricing_plan_id":"cebpf4jnsgd1na2vs0mg"},{"bike_id":"a6e54d94-e322-4087-bd28-9df1d06c94a9","system_id":"levelo_inurba_marseille","lat":43.330442,"lon":5.389148,"is_reserved":false,"is_disabled":false,"rental_uris":{"android":"levelo://app?vid=a6e54d94-e322-4087-bd28-9df1d06c94a9","ios":"levelo://app?vid=a6e54d94-e322-4087-bd28-9df1d06c94a9"},"vehicle_type_id":"4","last_reported":1723655255,"current_range_meters":6000,"station_id":"ce4bhr92rcd13ifvqhrg","pricing_plan_id":"cebpf4jnsgd1na2vs0mg"},{"bike_id":"482cedaa-dc41-4d14-9d4c-80549902b68b","system_id":"levelo_inurba_marseille","lat":43.28825,"lon":5.36424,"is_reserved":false,"is_disabled":false,"rental_uris":{"android":"levelo://app?vid=482cedaa-dc41-4d14-9d4c-80549902b68b","ios":"levelo://app?vid=482cedaa-dc41-4d14-9d4c-80549902b68b"},"vehicle_type_id":"4","last_reported":1723655255,"current_range_meters":7600,"station_id":"","pricing_plan_id":"cebpf4jnsgd1na2vs0mg"},{"bike_id":"32d16554-5951-49e2-895e-f955294c99aa","system_id":"levelo_inurba_marseille","lat":43.31073,"lon":5.401,"is_reserved":false,"is_disabled":false,"rental_uris":{"android":"levelo://app?vid=32d16554-5951-49e2-895e-f955294c99aa","ios":"levelo://app?vid=32d16554-5951-49e2-895e-f955294c99aa"},"vehicle_type_id":"4","last_reported":1723655255,"current_range_meters":30800,"station_id":"","pricing_plan_id":"cebpf4jnsgd1na2vs0mg"},{"bike_id":"2c44c6fd-c7f5-408f-9053-f54472bb1e8c","system_id":"levelo_inurba_marseille","lat":43.2885,"lon":5.35851,"is_reserved":false,"is_disabled":false,"rental_uris":{"android":"levelo://app?vid=2c44c6fd-c7f5-408f-9053-f54472bb1e8c","ios":"levelo://app?vid=2c44c6fd-c7f5-408f-9053-f54472bb1e8c"},"vehicle_type_id":"4","last_reported":1723655255,"current_range_meters":0,"station_id":"ce4bhb12rcd13ifvqem0","pricing_plan_id":"cebpf4jnsgd1na2vs0mg"},{"bike_id":"2e2d2365-4c2c-4cee-b67b-9f8a0c4ddb48","system_id":"levelo_inurba_marseille","lat":43.28856,"lon":5.358371,"is_reserved":false,"is_disabled":false,"rental_uris":{"android":"levelo://app?vid=2e2d2365-4c2c-4cee-b67b-9f8a0c4ddb48","ios":"levelo://app?vid=2e2d2365-4c2c-4cee-b67b-9f8a0c4ddb48"},"vehicle_type_id":"4","last_reported":1723655255,"current_range_meters":0,"station_id":"ce4bhb12rcd13ifvqem0","pricing_plan_id":"cebpf4jnsgd1na2vs0mg"},{"bike_id":"f2e000d6-6cb1-4396-9ce4-5c0e76f07b90","system_id":"levelo_inurba_marseille","lat":43.312609,"lon":5.401662,"is_reserved":false,"is_disabled":false,"rental_uris":{"android":"levelo://app?vid=f2e000d6-6cb1-4396-9ce4-5c0e76f07b90","ios":"levelo://app?vid=f2e000d6-6cb1-4396-9ce4-5c0e76f07b90"},"vehicle_type_id":"4","last_reported":1723655255,"current_range_meters":2400,"station_id":"ce4bh092rcd13ifvqd30","pricing_plan_id":"cebpf4jnsgd1na2vs0mg"},{"bike_id":"6522ce4f-26fd-44cf-9930-104cf7d70a62","system_id":"levelo_inurba_marseille","lat":43.312609,"lon":5.401662,"is_reserved":false,"is_disabled":false,"rental_uris":{"android":"levelo://app?vid=6522ce4f-26fd-44cf-9930-104cf7d70a62","ios":"levelo://app?vid=6522ce4f-26fd-44cf-9930-104cf7d70a62"},"vehicle_type_id":"4","last_reported":1723655255,"current_range_meters":4400,"station_id":"ce4bh092rcd13ifvqd30","pricing_plan_id":"cebpf4jnsgd1na2vs0mg"},{"bike_id":"0b7780d6-ef49-4cb6-a8b6-ebe10d8e5a23","system_id":"levelo_inurba_marseille","lat":43.312609,"lon":5.401662,"is_reserved":false,"is_disabled":false,"rental_uris":{"android":"levelo://app?vid=0b7780d6-ef49-4cb6-a8b6-ebe10d8e5a23","ios":"levelo://app?vid=0b7780d6-ef49-4cb6-a8b6-ebe10d8e5a23"},"vehicle_type_id":"4","last_reported":1723655255,"current_range_meters":2800,"station_id":"ce4bh092rcd13ifvqd30","pricing_plan_id":"cebpf4jnsgd1na2vs0mg"},{"bike_id":"fbf2fbd7-adb1-4aff-8fa4-e91b4266e1c5","system_id":"levelo_inurba_marseille","lat":43.312609,"lon":5.401662,"is_reserved":false,"is_disabled":false,"rental_uris":{"android":"levelo://app?vid=fbf2fbd7-adb1-4aff-8fa4-e91b4266e1c5","ios":"levelo://app?vid=fbf2fbd7-adb1-4aff-8fa4-e91b4266e1c5"},"vehicle_type_id":"4","last_reported":1723655255,"current_range_meters":10000,"station_id":"ce4bh092rcd13ifvqd30","pricing_plan_id":"cebpf4jnsgd1na2vs0mg"},{"bike_id":"ac75d8e5-5139-4e43-a64e-51e7994c2517","system_id":"levelo_inurba_marseille","lat":43.337444,"lon":5.374475,"is_reserved":false,"is_disabled":false,"rental_uris":{"android":"levelo://app?vid=ac75d8e5-5139-4e43-a64e-51e7994c2517","ios":"levelo://app?vid=ac75d8e5-5139-4e43-a64e-51e7994c2517"},"vehicle_type_id":"3","last_reported":1723655255,"current_range_meters":24800,"station_id":"","pricing_plan_id":"cebpf4jnsgd1na2vs0mg"},{"bike_id":"65c637fb-522c-4a91-8b75-7ef81fc71ba0","system_id":"levelo_inurba_marseille","lat":43.309371,"lon":5.401449,"is_reserved":false,"is_disabled":false,"rental_uris":{"android":"levelo://app?vid=65c637fb-522c-4a91-8b75-7ef81fc71ba0","ios":"levelo://app?vid=65c637fb-522c-4a91-8b75-7ef81fc71ba0"},"vehicle_type_id":"4","last_reported":1723655255,"current_range_meters":20800,"station_id":"ce4bgvp2rcd13ifvqct0","pricing_plan_id":"cebpf4jnsgd1na2vs0mg"},{"bike_id":"1a348eaf-4ee0-433f-8795-d4702a26d557","system_id":"levelo_inurba_marseille","lat":43.309371,"lon":5.401449,"is_reserved":false,"is_disabled":false,"rental_uris":{"android":"levelo://app?vid=1a348eaf-4ee0-433f-8795-d4702a26d557","ios":"levelo://app?vid=1a348eaf-4ee0-433f-8795-d4702a26d557"},"vehicle_type_id":"4","last_reported":1723655255,"current_range_meters":0,"station_id":"ce4bgvp2rcd13ifvqct0","pricing_plan_id":"cebpf4jnsgd1na2vs0mg"},{"bike_id":"2cc3b7e5-71dd-4272-8506-078556e6e25f","system_id":"levelo_inurba_marseille","lat":43.309393,"lon":5.401433,"is_reserved":false,"is_disabled":false,"rental_uris":{"android":"levelo://app?vid=2cc3b7e5-71dd-4272-8506-078556e6e25f","ios":"levelo://app?vid=2cc3b7e5-71dd-4272-8506-078556e6e25f"},"vehicle_type_id":"4","last_reported":1723655255,"current_range_meters":0,"station_id":"ce4bgvp2rcd13ifvqct0","pricing_plan_id":"cebpf4jnsgd1na2vs0mg"},{"bike_id":"66d99851-d439-4103-868d-51a852494189","system_id":"levelo_inurba_marseille","lat":43.312609,"lon":5.401662,"is_reserved":false,"is_disabled":false,"rental_uris":{"android":"levelo://app?vid=66d99851-d439-4103-868d-51a852494189","ios":"levelo://app?vid=66d99851-d439-4103-868d-51a852494189"},"vehicle_type_id":"4","last_reported":1723655255,"current_range_meters":5200,"station_id":"ce4bh092rcd13ifvqd30","pricing_plan_id":"cebpf4jnsgd1na2vs0mg"},{"bike_id":"c9a48a2b-dc66-4ef2-9dce-2dba31590017","system_id":"levelo_inurba_marseille","lat":43.33749,"lon":5.37459,"is_reserved":false,"is_disabled":false,"rental_uris":{"android":"levelo://app?vid=c9a48a2b-dc66-4ef2-9dce-2dba31590017","ios":"levelo://app?vid=c9a48a2b-dc66-4ef2-9dce-2dba31590017"},"vehicle_type_id":"4","last_reported":1723655255,"current_range_meters":29600,"station_id":"","pricing_plan_id":"cebpf4jnsgd1na2vs0mg"},{"bike_id":"fb600241-fa90-4cc6-903b-65f79aa5a8a4","system_id":"levelo_inurba_marseille","lat":43.301117,"lon":5.398795,"is_reserved":false,"is_disabled":false,"rental_uris":{"android":"levelo://app?vid=fb600241-fa90-4cc6-903b-65f79aa5a8a4","ios":"levelo://app?vid=fb600241-fa90-4cc6-903b-65f79aa5a8a4"},"vehicle_type_id":"4","last_reported":1723655255,"current_range_meters":8800,"station_id":"ce4bh0h2rcd13ifvqd40","pricing_plan_id":"cebpf4jnsgd1na2vs0mg"},{"bike_id":"96a6b429-91bc-4dd1-99b8-3fde6664147b","system_id":"levelo_inurba_marseille","lat":43.28727,"lon":5.36078,"is_reserved":false,"is_disabled":false,"rental_uris":{"android":"levelo://app?vid=96a6b429-91bc-4dd1-99b8-3fde6664147b","ios":"levelo://app?vid=96a6b429-91bc-4dd1-99b8-3fde6664147b"},"vehicle_type_id":"4","last_reported":1723655255,"current_range_meters":16400,"station_id":"cki0cbj6b192h4jlfktg","pricing_plan_id":"cebpf4jnsgd1na2vs0mg"},{"bike_id":"25f637bb-d760-4b8b-9641-1741d4e2f62c","system_id":"levelo_inurba_marseille","lat":43.298681,"lon":5.397225,"is_reserved":false,"is_disabled":false,"rental_uris":{"android":"levelo://app?vid=25f637bb-d760-4b8b-9641-1741d4e2f62c","ios":"levelo://app?vid=25f637bb-d760-4b8b-9641-1741d4e2f62c"},"vehicle_type_id":"4","last_reported":1723655255,"current_range_meters":4000,"station_id":"ce4bh0h2rcd13ifvqd50","pricing_plan_id":"cebpf4jnsgd1na2vs0mg"},{"bike_id":"07a04284-c9fb-453b-a22c-d9b12e86e410","system_id":"levelo_inurba_marseille","lat":43.298681,"lon":5.397225,"is_reserved":false,"is_disabled":false,"rental_uris":{"android":"levelo://app?vid=07a04284-c9fb-453b-a22c-d9b12e86e410","ios":"levelo://app?vid=07a04284-c9fb-453b-a22c-d9b12e86e410"},"vehicle_type_id":"4","last_reported":1723655255,"current_range_meters":5600,"station_id":"ce4bh0h2rcd13ifvqd50","pricing_plan_id":"cebpf4jnsgd1na2vs0mg"},{"bike_id":"5d7e5dcd-3675-4a2b-a7ec-47b054e1bd07","system_id":"levelo_inurba_marseille","lat":43.286591,"lon":5.363346,"is_reserved":false,"is_disabled":false,"rental_uris":{"android":"levelo://app?vid=5d7e5dcd-3675-4a2b-a7ec-47b054e1bd07","ios":"levelo://app?vid=5d7e5dcd-3675-4a2b-a7ec-47b054e1bd07"},"vehicle_type_id":"4","last_reported":1723655255,"current_range_meters":20000,"station_id":"ce4bhah2rcd13ifvqej0","pricing_plan_id":"cebpf4jnsgd1na2vs0mg"},{"bike_id":"48e4fbf5-d3a3-4629-9615-611992d099c1","system_id":"levelo_inurba_marseille","lat":43.286961,"lon":5.373785,"is_reserved":false,"is_disabled":false,"rental_uris":{"android":"levelo://app?vid=48e4fbf5-d3a3-4629-9615-611992d099c1","ios":"levelo://app?vid=48e4fbf5-d3a3-4629-9615-611992d099c1"},"vehicle_type_id":"4","last_reported":1723655255,"current_range_meters":1200,"station_id":"ce4bh3p2rcd13ifvqdq0","pricing_plan_id":"cebpf4jnsgd1na2vs0mg"},{"bike_id":"f85b765c-0c06-4154-aef4-66ca155565ca","system_id":"levelo_inurba_marseille","lat":43.298681,"lon":5.397225,"is_reserved":false,"is_disabled":false,"rental_uris":{"android":"levelo://app?vid=f85b765c-0c06-4154-aef4-66ca155565ca","ios":"levelo://app?vid=f85b765c-0c06-4154-aef4-66ca155565ca"},"vehicle_type_id":"4","last_reported":1723655255,"current_range_meters":1200,"station_id":"ce4bh0h2rcd13ifvqd50","pricing_plan_id":"cebpf4jnsgd1na2vs0mg"},{"bike_id":"86015a1c-1510-480d-961e-d45ab5e75627","system_id":"levelo_inurba_marseille","lat":43.289307,"lon":5.38406,"is_reserved":false,"is_disabled":false,"rental_uris":{"android":"levelo://app?vid=86015a1c-1510-480d-961e-d45ab5e75627","ios":"levelo://app?vid=86015a1c-1510-480d-961e-d45ab5e75627"},"vehicle_type_id":"4","last_reported":1723655255,"current_range_meters":800,"station_id":"ce4bh612rcd13ifvqe6g","pricing_plan_id":"cebpf4jnsgd1na2vs0mg"},{"bike_id":"2b1ca1a6-c775-4fba-9c85-c71af3fd46be","system_id":"levelo_inurba_marseille","lat":43.289307,"lon":5.38406,"is_reserved":false,"is_disabled":false,"rental_uris":{"android":"levelo://app?vid=2b1ca1a6-c775-4fba-9c85-c71af3fd46be","ios":"levelo://app?vid=2b1ca1a6-c775-4fba-9c85-c71af3fd46be"},"vehicle_type_id":"4","last_reported":1723655255,"current_range_meters":26800,"station_id":"ce4bh612rcd13ifvqe6g","pricing_plan_id":"cebpf4jnsgd1na2vs0mg"},{"bike_id":"69951cdf-4d5e-4a64-9848-92bda1fcfb0f","system_id":"levelo_inurba_marseille","lat":43.289307,"lon":5.38406,"is_reserved":false,"is_disabled":false,"rental_uris":{"android":"levelo://app?vid=69951cdf-4d5e-4a64-9848-92bda1fcfb0f","ios":"levelo://app?vid=69951cdf-4d5e-4a64-9848-92bda1fcfb0f"},"vehicle_type_id":"4","last_reported":1723655255,"current_range_meters":3200,"station_id":"ce4bh612rcd13ifvqe6g","pricing_plan_id":"cebpf4jnsgd1na2vs0mg"},{"bike_id":"fec93653-5c70-4b3a-b35a-b98dd5359a50","system_id":"levelo_inurba_marseille","lat":43.290336,"lon":5.386425,"is_reserved":false,"is_disabled":false,"rental_uris":{"android":"levelo://app?vid=fec93653-5c70-4b3a-b35a-b98dd5359a50","ios":"levelo://app?vid=fec93653-5c70-4b3a-b35a-b98dd5359a50"},"vehicle_type_id":"4","last_reported":1723655255,"current_range_meters":0,"station_id":"ce4bh4p2rcd13ifvqe0g","pricing_plan_id":"cebpf4jnsgd1na2vs0mg"},{"bike_id":"d890aa6c-4959-4343-860e-2005e1d8abdc","system_id":"levelo_inurba_marseille","lat":43.290336,"lon":5.386425,"is_reserved":false,"is_disabled":false,"rental_uris":{"android":"levelo://app?vid=d890aa6c-4959-4343-860e-2005e1d8abdc","ios":"levelo://app?vid=d890aa6c-4959-4343-860e-2005e1d8abdc"},"vehicle_type_id":"4","last_reported":1723655255,"current_range_meters":12000,"station_id":"ce4bh4p2rcd13ifvqe0g","pricing_plan_id":"cebpf4jnsgd1na2vs0mg"},{"bike_id":"ecc7dc1c-1ec1-46d0-971d-b01e38b3b9f6","system_id":"levelo_inurba_marseille","lat":43.290336,"lon":5.386425,"is_reserved":false,"is_disabled":false,"rental_uris":{"android":"levelo://app?vid=ecc7dc1c-1ec1-46d0-971d-b01e38b3b9f6","ios":"levelo://app?vid=ecc7dc1c-1ec1-46d0-971d-b01e38b3b9f6"},"vehicle_type_id":"4","last_reported":1723655255,"current_range_meters":0,"station_id":"ce4bh4p2rcd13ifvqe0g","pricing_plan_id":"cebpf4jnsgd1na2vs0mg"},{"bike_id":"79db06d7-66d0-4590-b603-e2b3875bbc8d","system_id":"levelo_inurba_marseille","lat":43.287184,"lon":5.37937,"is_reserved":false,"is_disabled":false,"rental_uris":{"android":"levelo://app?vid=79db06d7-66d0-4590-b603-e2b3875bbc8d","ios":"levelo://app?vid=79db06d7-66d0-4590-b603-e2b3875bbc8d"},"vehicle_type_id":"4","last_reported":1723655255,"current_range_meters":16800,"station_id":"ce4bh9p2rcd13ifvqec0","pricing_plan_id":"cebpf4jnsgd1na2vs0mg"},{"bike_id":"0306a6ed-8cb2-4106-a463-6418102a59c0","system_id":"levelo_inurba_marseille","lat":43.287184,"lon":5.37937,"is_reserved":false,"is_disabled":false,"rental_uris":{"android":"levelo://app?vid=0306a6ed-8cb2-4106-a463-6418102a59c0","ios":"levelo://app?vid=0306a6ed-8cb2-4106-a463-6418102a59c0"},"vehicle_type_id":"4","last_reported":1723655255,"current_range_meters":6800,"station_id":"ce4bh9p2rcd13ifvqec0","pricing_plan_id":"cebpf4jnsgd1na2vs0mg"},{"bike_id":"ba213bee-addf-42f5-8f62-981481a04b55","system_id":"levelo_inurba_marseille","lat":43.285924,"lon":5.374489,"is_reserved":false,"is_disabled":false,"rental_uris":{"android":"levelo://app?vid=ba213bee-addf-42f5-8f62-981481a04b55","ios":"levelo://app?vid=ba213bee-addf-42f5-8f62-981481a04b55"},"vehicle_type_id":"4","last_reported":1723655255,"current_range_meters":0,"station_id":"ce4bh412rcd13ifvqds0","pricing_plan_id":"cebpf4jnsgd1na2vs0mg"},{"bike_id":"e6e96ab3-2164-4853-b178-be08cac050de","system_id":"levelo_inurba_marseille","lat":43.29576,"lon":5.39654,"is_reserved":false,"is_disabled":false,"rental_uris":{"android":"levelo://app?vid=e6e96ab3-2164-4853-b178-be08cac050de","ios":"levelo://app?vid=e6e96ab3-2164-4853-b178-be08cac050de"},"vehicle_type_id":"4","last_reported":1723655255,"current_range_meters":0,"station_id":"","pricing_plan_id":"cebpf4jnsgd1na2vs0mg"},{"bike_id":"ce6c8fb3-e2bc-481b-9e75-f1a9cc64ca79","system_id":"levelo_inurba_marseille","lat":43.31692,"lon":5.40466,"is_reserved":false,"is_disabled":false,"rental_uris":{"android":"levelo://app?vid=ce6c8fb3-e2bc-481b-9e75-f1a9cc64ca79","ios":"levelo://app?vid=ce6c8fb3-e2bc-481b-9e75-f1a9cc64ca79"},"vehicle_type_id":"4","last_reported":1723655255,"current_range_meters":1200,"station_id":"ce4bh012rcd13ifvqd00","pricing_plan_id":"cebpf4jnsgd1na2vs0mg"},{"bike_id":"e9c094b9-a8bf-49a5-b396-e40015571fc8","system_id":"levelo_inurba_marseille","lat":43.316821,"lon":5.404737,"is_reserved":false,"is_disabled":false,"rental_uris":{"android":"levelo://app?vid=e9c094b9-a8bf-49a5-b396-e40015571fc8","ios":"levelo://app?vid=e9c094b9-a8bf-49a5-b396-e40015571fc8"},"vehicle_type_id":"4","last_reported":1723655255,"current_range_meters":24800,"station_id":"ce4bh012rcd13ifvqd00","pricing_plan_id":"cebpf4jnsgd1na2vs0mg"},{"bike_id":"0ba78522-7b7c-4244-ad90-0e72b165b242","system_id":"levelo_inurba_marseille","lat":43.291994,"lon":5.392907,"is_reserved":false,"is_disabled":false,"rental_uris":{"android":"levelo://app?vid=0ba78522-7b7c-4244-ad90-0e72b165b242","ios":"levelo://app?vid=0ba78522-7b7c-4244-ad90-0e72b165b242"},"vehicle_type_id":"4","last_reported":1723655255,"current_range_meters":13600,"station_id":"ce4bh192rcd13ifvqdd0","pricing_plan_id":"cebpf4jnsgd1na2vs0mg"},{"bike_id":"6e43315f-32f9-4ea0-9a0a-aab29727cd93","system_id":"levelo_inurba_marseille","lat":43.291994,"lon":5.392907,"is_reserved":false,"is_disabled":false,"rental_uris":{"android":"levelo://app?vid=6e43315f-32f9-4ea0-9a0a-aab29727cd93","ios":"levelo://app?vid=6e43315f-32f9-4ea0-9a0a-aab29727cd93"},"vehicle_type_id":"4","last_reported":1723655255,"current_range_meters":2400,"station_id":"ce4bh192rcd13ifvqdd0","pricing_plan_id":"cebpf4jnsgd1na2vs0mg"},{"bike_id":"64be28bb-4c5e-40f6-810e-7d0683da2ebb","system_id":"levelo_inurba_marseille","lat":43.291994,"lon":5.392907,"is_reserved":false,"is_disabled":false,"rental_uris":{"android":"levelo://app?vid=64be28bb-4c5e-40f6-810e-7d0683da2ebb","ios":"levelo://app?vid=64be28bb-4c5e-40f6-810e-7d0683da2ebb"},"vehicle_type_id":"4","last_reported":1723655255,"current_range_meters":1200,"station_id":"ce4bh192rcd13ifvqdd0","pricing_plan_id":"cebpf4jnsgd1na2vs0mg"},{"bike_id":"49fc9222-3a93-4607-8640-b4b206faebfa","system_id":"levelo_inurba_marseille","lat":43.284538,"lon":5.358657,"is_reserved":false,"is_disabled":false,"rental_uris":{"android":"levelo://app?vid=49fc9222-3a93-4607-8640-b4b206faebfa","ios":"levelo://app?vid=49fc9222-3a93-4607-8640-b4b206faebfa"},"vehicle_type_id":"4","last_reported":1723655255,"current_range_meters":6400,"station_id":"ce4bhah2rcd13ifvqei0","pricing_plan_id":"cebpf4jnsgd1na2vs0mg"},{"bike_id":"b0ffba3c-0af8-4117-8808-773bed03b5ff","system_id":"levelo_inurba_marseille","lat":43.286363,"lon":5.351292,"is_reserved":false,"is_disabled":false,"rental_uris":{"android":"levelo://app?vid=b0ffba3c-0af8-4117-8808-773bed03b5ff","ios":"levelo://app?vid=b0ffba3c-0af8-4117-8808-773bed03b5ff"},"vehicle_type_id":"4","last_reported":1723655255,"current_range_meters":17600,"station_id":"ce4bgkp2rcd13ifvqbmg","pricing_plan_id":"cebpf4jnsgd1na2vs0mg"},{"bike_id":"500b9b51-9871-4fe6-89db-1bb4e3803322","system_id":"levelo_inurba_marseille","lat":43.284534,"lon":5.358662,"is_reserved":false,"is_disabled":false,"rental_uris":{"android":"levelo://app?vid=500b9b51-9871-4fe6-89db-1bb4e3803322","ios":"levelo://app?vid=500b9b51-9871-4fe6-89db-1bb4e3803322"},"vehicle_type_id":"4","last_reported":1723655255,"current_range_meters":0,"station_id":"ce4bhah2rcd13ifvqei0","pricing_plan_id":"cebpf4jnsgd1na2vs0mg"},{"bike_id":"aa67db73-87c2-4af1-ab6a-1456b095bc2c","system_id":"levelo_inurba_marseille","lat":43.284538,"lon":5.358657,"is_reserved":false,"is_disabled":false,"rental_uris":{"android":"levelo://app?vid=aa67db73-87c2-4af1-ab6a-1456b095bc2c","ios":"levelo://app?vid=aa67db73-87c2-4af1-ab6a-1456b095bc2c"},"vehicle_type_id":"4","last_reported":1723655255,"current_range_meters":31200,"station_id":"ce4bhah2rcd13ifvqei0","pricing_plan_id":"cebpf4jnsgd1na2vs0mg"},{"bike_id":"cbdd2a9a-7a78-4aa3-a34f-9a427a867861","system_id":"levelo_inurba_marseille","lat":43.294314,"lon":5.397498,"is_reserved":false,"is_disabled":false,"rental_uris":{"android":"levelo://app?vid=cbdd2a9a-7a78-4aa3-a34f-9a427a867861","ios":"levelo://app?vid=cbdd2a9a-7a78-4aa3-a34f-9a427a867861"},"vehicle_type_id":"4","last_reported":1723655255,"current_range_meters":5600,"station_id":"ce4bh3h2rcd13ifvqdo0","pricing_plan_id":"cebpf4jnsgd1na2vs0mg"},{"bike_id":"17f60981-f38c-4b1e-b630-c2afd55cd109","system_id":"levelo_inurba_marseille","lat":43.294314,"lon":5.397498,"is_reserved":false,"is_disabled":false,"rental_uris":{"android":"levelo://app?vid=17f60981-f38c-4b1e-b630-c2afd55cd109","ios":"levelo://app?vid=17f60981-f38c-4b1e-b630-c2afd55cd109"},"vehicle_type_id":"4","last_reported":1723655255,"current_range_meters":9600,"station_id":"ce4bh3h2rcd13ifvqdo0","pricing_plan_id":"cebpf4jnsgd1na2vs0mg"},{"bike_id":"b6a2d7c1-177c-4709-9cb6-c845bf2fc27e","system_id":"levelo_inurba_marseille","lat":43.294314,"lon":5.397498,"is_reserved":false,"is_disabled":false,"rental_uris":{"android":"levelo://app?vid=b6a2d7c1-177c-4709-9cb6-c845bf2fc27e","ios":"levelo://app?vid=b6a2d7c1-177c-4709-9cb6-c845bf2fc27e"},"vehicle_type_id":"4","last_reported":1723655255,"current_range_meters":0,"station_id":"ce4bh3h2rcd13ifvqdo0","pricing_plan_id":"cebpf4jnsgd1na2vs0mg"},{"bike_id":"121e6703-0623-465d-b285-2f93a402c406","system_id":"levelo_inurba_marseille","lat":43.285848,"lon":5.350787,"is_reserved":false,"is_disabled":false,"rental_uris":{"android":"levelo://app?vid=121e6703-0623-465d-b285-2f93a402c406","ios":"levelo://app?vid=121e6703-0623-465d-b285-2f93a402c406"},"vehicle_type_id":"4","last_reported":1723655255,"current_range_meters":28800,"station_id":"ce4bhch2rcd13ifvqeug","pricing_plan_id":"cebpf4jnsgd1na2vs0mg"},{"bike_id":"18ea306e-7e17-44c1-943d-c11faefc7b62","system_id":"levelo_inurba_marseille","lat":43.28617,"lon":5.35109,"is_reserved":false,"is_disabled":false,"rental_uris":{"android":"levelo://app?vid=18ea306e-7e17-44c1-943d-c11faefc7b62","ios":"levelo://app?vid=18ea306e-7e17-44c1-943d-c11faefc7b62"},"vehicle_type_id":"4","last_reported":1723655255,"current_range_meters":14000,"station_id":"ce4bhch2rcd13ifvqeug","pricing_plan_id":"cebpf4jnsgd1na2vs0mg"},{"bike_id":"a74fb6ac-c540-4826-ba0f-ffb26da9e3a1","system_id":"levelo_inurba_marseille","lat":43.28618,"lon":5.35105,"is_reserved":false,"is_disabled":false,"rental_uris":{"android":"levelo://app?vid=a74fb6ac-c540-4826-ba0f-ffb26da9e3a1","ios":"levelo://app?vid=a74fb6ac-c540-4826-ba0f-ffb26da9e3a1"},"vehicle_type_id":"4","last_reported":1723655255,"current_range_meters":27200,"station_id":"ce4bhch2rcd13ifvqeug","pricing_plan_id":"cebpf4jnsgd1na2vs0mg"},{"bike_id":"f1912ddf-0ce4-4382-8dba-79aabcf0e7a5","system_id":"levelo_inurba_marseille","lat":43.28617,"lon":5.35104,"is_reserved":false,"is_disabled":false,"rental_uris":{"android":"levelo://app?vid=f1912ddf-0ce4-4382-8dba-79aabcf0e7a5","ios":"levelo://app?vid=f1912ddf-0ce4-4382-8dba-79aabcf0e7a5"},"vehicle_type_id":"4","last_reported":1723655255,"current_range_meters":18800,"station_id":"ce4bhch2rcd13ifvqeug","pricing_plan_id":"cebpf4jnsgd1na2vs0mg"},{"bike_id":"7cec6ffd-9cb3-4671-be4c-ad4b4a22f25a","system_id":"levelo_inurba_marseille","lat":43.28619,"lon":5.35097,"is_reserved":false,"is_disabled":false,"rental_uris":{"android":"levelo://app?vid=7cec6ffd-9cb3-4671-be4c-ad4b4a22f25a","ios":"levelo://app?vid=7cec6ffd-9cb3-4671-be4c-ad4b4a22f25a"},"vehicle_type_id":"4","last_reported":1723655255,"current_range_meters":25200,"station_id":"ce4bhch2rcd13ifvqeug","pricing_plan_id":"cebpf4jnsgd1na2vs0mg"},{"bike_id":"19c69424-4979-4f7e-9f2e-24a3ce976360","system_id":"levelo_inurba_marseille","lat":43.28617,"lon":5.351,"is_reserved":false,"is_disabled":false,"rental_uris":{"android":"levelo://app?vid=19c69424-4979-4f7e-9f2e-24a3ce976360","ios":"levelo://app?vid=19c69424-4979-4f7e-9f2e-24a3ce976360"},"vehicle_type_id":"4","last_reported":1723655255,"current_range_meters":8800,"station_id":"ce4bhch2rcd13ifvqeug","pricing_plan_id":"cebpf4jnsgd1na2vs0mg"},{"bike_id":"7456ff88-1cc2-41b7-8cea-e56f22e3fce5","system_id":"levelo_inurba_marseille","lat":43.28617,"lon":5.35099,"is_reserved":false,"is_disabled":false,"rental_uris":{"android":"levelo://app?vid=7456ff88-1cc2-41b7-8cea-e56f22e3fce5","ios":"levelo://app?vid=7456ff88-1cc2-41b7-8cea-e56f22e3fce5"},"vehicle_type_id":"4","last_reported":1723655255,"current_range_meters":4400,"station_id":"ce4bhch2rcd13ifvqeug","pricing_plan_id":"cebpf4jnsgd1na2vs0mg"},{"bike_id":"cd1cd192-47f6-4e8a-80c8-ef761988ef10","system_id":"levelo_inurba_marseille","lat":43.28616,"lon":5.351,"is_reserved":false,"is_disabled":false,"rental_uris":{"android":"levelo://app?vid=cd1cd192-47f6-4e8a-80c8-ef761988ef10","ios":"levelo://app?vid=cd1cd192-47f6-4e8a-80c8-ef761988ef10"},"vehicle_type_id":"4","last_reported":1723655255,"current_range_meters":27200,"station_id":"ce4bhch2rcd13ifvqeug","pricing_plan_id":"cebpf4jnsgd1na2vs0mg"},{"bike_id":"2e0b86c6-6ff0-43f8-9058-a972d3299268","system_id":"levelo_inurba_marseille","lat":43.28613,"lon":5.35106,"is_reserved":false,"is_disabled":false,"rental_uris":{"android":"levelo://app?vid=2e0b86c6-6ff0-43f8-9058-a972d3299268","ios":"levelo://app?vid=2e0b86c6-6ff0-43f8-9058-a972d3299268"},"vehicle_type_id":"4","last_reported":1723655255,"current_range_meters":800,"station_id":"ce4bhch2rcd13ifvqeug","pricing_plan_id":"cebpf4jnsgd1na2vs0mg"},{"bike_id":"a05b9899-264b-45c0-b378-fbd345681dbd","system_id":"levelo_inurba_marseille","lat":43.28613,"lon":5.35105,"is_reserved":false,"is_disabled":false,"rental_uris":{"android":"levelo://app?vid=a05b9899-264b-45c0-b378-fbd345681dbd","ios":"levelo://app?vid=a05b9899-264b-45c0-b378-fbd345681dbd"},"vehicle_type_id":"4","last_reported":1723655255,"current_range_meters":26000,"station_id":"ce4bhch2rcd13ifvqeug","pricing_plan_id":"cebpf4jnsgd1na2vs0mg"},{"bike_id":"10d6d8e1-faf6-4f9f-a749-d9dfb986432c","system_id":"levelo_inurba_marseille","lat":43.28615,"lon":5.35098,"is_reserved":false,"is_disabled":false,"rental_uris":{"android":"levelo://app?vid=10d6d8e1-faf6-4f9f-a749-d9dfb986432c","ios":"levelo://app?vid=10d6d8e1-faf6-4f9f-a749-d9dfb986432c"},"vehicle_type_id":"4","last_reported":1723655255,"current_range_meters":20800,"station_id":"ce4bhch2rcd13ifvqeug","pricing_plan_id":"cebpf4jnsgd1na2vs0mg"},{"bike_id":"1448f1f1-7681-4923-9931-f1543059ca1e","system_id":"levelo_inurba_marseille","lat":43.28612,"lon":5.35107,"is_reserved":false,"is_disabled":false,"rental_uris":{"android":"levelo://app?vid=1448f1f1-7681-4923-9931-f1543059ca1e","ios":"levelo://app?vid=1448f1f1-7681-4923-9931-f1543059ca1e"},"vehicle_type_id":"4","last_reported":1723655255,"current_range_meters":0,"station_id":"ce4bhch2rcd13ifvqeug","pricing_plan_id":"cebpf4jnsgd1na2vs0mg"},{"bike_id":"ba969ca1-fe3d-44fc-ba6f-e2d7dc5943b3","system_id":"levelo_inurba_marseille","lat":43.28614,"lon":5.35099,"is_reserved":false,"is_disabled":false,"rental_uris":{"android":"levelo://app?vid=ba969ca1-fe3d-44fc-ba6f-e2d7dc5943b3","ios":"levelo://app?vid=ba969ca1-fe3d-44fc-ba6f-e2d7dc5943b3"},"vehicle_type_id":"4","last_reported":1723655255,"current_range_meters":21600,"station_id":"ce4bhch2rcd13ifvqeug","pricing_plan_id":"cebpf4jnsgd1na2vs0mg"},{"bike_id":"44d03ee8-44c5-48e5-81ee-9f6d3bb4b83a","system_id":"levelo_inurba_marseille","lat":43.28611,"lon":5.35104,"is_reserved":false,"is_disabled":false,"rental_uris":{"android":"levelo://app?vid=44d03ee8-44c5-48e5-81ee-9f6d3bb4b83a","ios":"levelo://app?vid=44d03ee8-44c5-48e5-81ee-9f6d3bb4b83a"},"vehicle_type_id":"4","last_reported":1723655255,"current_range_meters":19200,"station_id":"ce4bhch2rcd13ifvqeug","pricing_plan_id":"cebpf4jnsgd1na2vs0mg"},{"bike_id":"3d5fb662-a8e2-4f1a-8f1d-4c9a288f7e13","system_id":"levelo_inurba_marseille","lat":43.286116,"lon":5.351017,"is_reserved":false,"is_disabled":false,"rental_uris":{"android":"levelo://app?vid=3d5fb662-a8e2-4f1a-8f1d-4c9a288f7e13","ios":"levelo://app?vid=3d5fb662-a8e2-4f1a-8f1d-4c9a288f7e13"},"vehicle_type_id":"4","last_reported":1723655255,"current_range_meters":0,"station_id":"ce4bhch2rcd13ifvqeug","pricing_plan_id":"cebpf4jnsgd1na2vs0mg"},{"bike_id":"da9ada02-c627-4e42-928c-1ed26e2e233f","system_id":"levelo_inurba_marseille","lat":43.285848,"lon":5.350787,"is_reserved":false,"is_disabled":false,"rental_uris":{"android":"levelo://app?vid=da9ada02-c627-4e42-928c-1ed26e2e233f","ios":"levelo://app?vid=da9ada02-c627-4e42-928c-1ed26e2e233f"},"vehicle_type_id":"4","last_reported":1723655255,"current_range_meters":25600,"station_id":"ce4bhch2rcd13ifvqeug","pricing_plan_id":"cebpf4jnsgd1na2vs0mg"},{"bike_id":"d0c0ff14-f16e-44bd-bdff-358d986e3061","system_id":"levelo_inurba_marseille","lat":43.28609,"lon":5.35107,"is_reserved":false,"is_disabled":false,"rental_uris":{"android":"levelo://app?vid=d0c0ff14-f16e-44bd-bdff-358d986e3061","ios":"levelo://app?vid=d0c0ff14-f16e-44bd-bdff-358d986e3061"},"vehicle_type_id":"4","last_reported":1723655255,"current_range_meters":27200,"station_id":"ce4bhch2rcd13ifvqeug","pricing_plan_id":"cebpf4jnsgd1na2vs0mg"},{"bike_id":"b2d465ac-655e-4917-8899-9ea2e19f13a7","system_id":"levelo_inurba_marseille","lat":43.28612,"lon":5.35096,"is_reserved":false,"is_disabled":false,"rental_uris":{"android":"levelo://app?vid=b2d465ac-655e-4917-8899-9ea2e19f13a7","ios":"levelo://app?vid=b2d465ac-655e-4917-8899-9ea2e19f13a7"},"vehicle_type_id":"4","last_reported":1723655255,"current_range_meters":25600,"station_id":"ce4bhch2rcd13ifvqeug","pricing_plan_id":"cebpf4jnsgd1na2vs0mg"},{"bike_id":"f887b8b1-a991-47f0-ab7a-4a896999fd0c","system_id":"levelo_inurba_marseille","lat":43.283998,"lon":5.375062,"is_reserved":false,"is_disabled":false,"rental_uris":{"android":"levelo://app?vid=f887b8b1-a991-47f0-ab7a-4a896999fd0c","ios":"levelo://app?vid=f887b8b1-a991-47f0-ab7a-4a896999fd0c"},"vehicle_type_id":"4","last_reported":1723655255,"current_range_meters":0,"station_id":"ce4bh412rcd13ifvqds0","pricing_plan_id":"cebpf4jnsgd1na2vs0mg"},{"bike_id":"713a1449-51cc-4b05-a17f-7b6ad2c255c7","system_id":"levelo_inurba_marseille","lat":43.283998,"lon":5.375062,"is_reserved":false,"is_disabled":false,"rental_uris":{"android":"levelo://app?vid=713a1449-51cc-4b05-a17f-7b6ad2c255c7","ios":"levelo://app?vid=713a1449-51cc-4b05-a17f-7b6ad2c255c7"},"vehicle_type_id":"4","last_reported":1723655255,"current_range_meters":2400,"station_id":"ce4bh412rcd13ifvqds0","pricing_plan_id":"cebpf4jnsgd1na2vs0mg"},{"bike_id":"44c5d860-00be-45a9-b845-367432ec064d","system_id":"levelo_inurba_marseille","lat":43.28402,"lon":5.37506,"is_reserved":false,"is_disabled":false,"rental_uris":{"android":"levelo://app?vid=44c5d860-00be-45a9-b845-367432ec064d","ios":"levelo://app?vid=44c5d860-00be-45a9-b845-367432ec064d"},"vehicle_type_id":"4","last_reported":1723655255,"current_range_meters":9200,"station_id":"ce4bh412rcd13ifvqds0","pricing_plan_id":"cebpf4jnsgd1na2vs0mg"},{"bike_id":"cb0adb3a-d547-46e2-b9fb-2d391d61d547","system_id":"levelo_inurba_marseille","lat":43.28403,"lon":5.37517,"is_reserved":false,"is_disabled":false,"rental_uris":{"android":"levelo://app?vid=cb0adb3a-d547-46e2-b9fb-2d391d61d547","ios":"levelo://app?vid=cb0adb3a-d547-46e2-b9fb-2d391d61d547"},"vehicle_type_id":"4","last_reported":1723655255,"current_range_meters":25200,"station_id":"ce4bh412rcd13ifvqds0","pricing_plan_id":"cebpf4jnsgd1na2vs0mg"},{"bike_id":"a7722164-e867-48b5-9692-03666b2dcdb9","system_id":"levelo_inurba_marseille","lat":43.283998,"lon":5.375062,"is_reserved":false,"is_disabled":false,"rental_uris":{"android":"levelo://app?vid=a7722164-e867-48b5-9692-03666b2dcdb9","ios":"levelo://app?vid=a7722164-e867-48b5-9692-03666b2dcdb9"},"vehicle_type_id":"4","last_reported":1723655255,"current_range_meters":0,"station_id":"ce4bh412rcd13ifvqds0","pricing_plan_id":"cebpf4jnsgd1na2vs0mg"},{"bike_id":"92f60064-1e39-4eab-b543-4d76f1c4e106","system_id":"levelo_inurba_marseille","lat":43.319179,"lon":5.407725,"is_reserved":false,"is_disabled":false,"rental_uris":{"android":"levelo://app?vid=92f60064-1e39-4eab-b543-4d76f1c4e106","ios":"levelo://app?vid=92f60064-1e39-4eab-b543-4d76f1c4e106"},"vehicle_type_id":"4","last_reported":1723655255,"current_range_meters":28800,"station_id":"ce4bhq12rcd13ifvqhig","pricing_plan_id":"cebpf4jnsgd1na2vs0mg"},{"bike_id":"5b8ce141-668f-4990-8fc2-9bdac4c0295c","system_id":"levelo_inurba_marseille","lat":43.319179,"lon":5.407725,"is_reserved":false,"is_disabled":false,"rental_uris":{"android":"levelo://app?vid=5b8ce141-668f-4990-8fc2-9bdac4c0295c","ios":"levelo://app?vid=5b8ce141-668f-4990-8fc2-9bdac4c0295c"},"vehicle_type_id":"4","last_reported":1723655255,"current_range_meters":17200,"station_id":"ce4bhq12rcd13ifvqhig","pricing_plan_id":"cebpf4jnsgd1na2vs0mg"},{"bike_id":"6f401775-1d8f-4f6e-a17f-e8587f7604f5","system_id":"levelo_inurba_marseille","lat":43.319179,"lon":5.407725,"is_reserved":false,"is_disabled":false,"rental_uris":{"android":"levelo://app?vid=6f401775-1d8f-4f6e-a17f-e8587f7604f5","ios":"levelo://app?vid=6f401775-1d8f-4f6e-a17f-e8587f7604f5"},"vehicle_type_id":"4","last_reported":1723655255,"current_range_meters":11600,"station_id":"ce4bhq12rcd13ifvqhig","pricing_plan_id":"cebpf4jnsgd1na2vs0mg"},{"bike_id":"d6686fcd-f6f6-44eb-83a5-a7dd03d1a3da","system_id":"levelo_inurba_marseille","lat":43.323464,"lon":5.406297,"is_reserved":false,"is_disabled":false,"rental_uris":{"android":"levelo://app?vid=d6686fcd-f6f6-44eb-83a5-a7dd03d1a3da","ios":"levelo://app?vid=d6686fcd-f6f6-44eb-83a5-a7dd03d1a3da"},"vehicle_type_id":"4","last_reported":1723655255,"current_range_meters":31200,"station_id":"ce4bhq92rcd13ifvqhjg","pricing_plan_id":"cebpf4jnsgd1na2vs0mg"},{"bike_id":"47c37e0d-d9e0-4351-ab25-1f038e0d3880","system_id":"levelo_inurba_marseille","lat":43.323464,"lon":5.406297,"is_reserved":false,"is_disabled":false,"rental_uris":{"android":"levelo://app?vid=47c37e0d-d9e0-4351-ab25-1f038e0d3880","ios":"levelo://app?vid=47c37e0d-d9e0-4351-ab25-1f038e0d3880"},"vehicle_type_id":"4","last_reported":1723655255,"current_range_meters":18400,"station_id":"ce4bhq92rcd13ifvqhjg","pricing_plan_id":"cebpf4jnsgd1na2vs0mg"},{"bike_id":"e88c5e85-96da-4ab1-98f7-6d936641a364","system_id":"levelo_inurba_marseille","lat":43.323464,"lon":5.406297,"is_reserved":false,"is_disabled":false,"rental_uris":{"android":"levelo://app?vid=e88c5e85-96da-4ab1-98f7-6d936641a364","ios":"levelo://app?vid=e88c5e85-96da-4ab1-98f7-6d936641a364"},"vehicle_type_id":"4","last_reported":1723655255,"current_range_meters":8400,"station_id":"ce4bhq92rcd13ifvqhjg","pricing_plan_id":"cebpf4jnsgd1na2vs0mg"},{"bike_id":"06be2165-9951-484c-a324-033fd4c22f6b","system_id":"levelo_inurba_marseille","lat":43.33724,"lon":5.392,"is_reserved":false,"is_disabled":false,"rental_uris":{"android":"levelo://app?vid=06be2165-9951-484c-a324-033fd4c22f6b","ios":"levelo://app?vid=06be2165-9951-484c-a324-033fd4c22f6b"},"vehicle_type_id":"4","last_reported":1723655255,"current_range_meters":26800,"station_id":"ce4bhr92rcd13ifvqhsg","pricing_plan_id":"cebpf4jnsgd1na2vs0mg"},{"bike_id":"e831bd7a-2ef5-4ff7-be14-99abaddf9879","system_id":"levelo_inurba_marseille","lat":43.32346,"lon":5.40627,"is_reserved":false,"is_disabled":false,"rental_uris":{"android":"levelo://app?vid=e831bd7a-2ef5-4ff7-be14-99abaddf9879","ios":"levelo://app?vid=e831bd7a-2ef5-4ff7-be14-99abaddf9879"},"vehicle_type_id":"4","last_reported":1723655255,"current_range_meters":3600,"station_id":"ce4bhq92rcd13ifvqhjg","pricing_plan_id":"cebpf4jnsgd1na2vs0mg"},{"bike_id":"2968ff03-9809-44e9-81cf-db0d8569131b","system_id":"levelo_inurba_marseille","lat":43.284793,"lon":5.384113,"is_reserved":false,"is_disabled":false,"rental_uris":{"android":"levelo://app?vid=2968ff03-9809-44e9-81cf-db0d8569131b","ios":"levelo://app?vid=2968ff03-9809-44e9-81cf-db0d8569131b"},"vehicle_type_id":"4","last_reported":1723655255,"current_range_meters":19600,"station_id":"ce4bh512rcd13ifvqe3g","pricing_plan_id":"cebpf4jnsgd1na2vs0mg"},{"bike_id":"319d7631-5a04-47f2-86ee-5266d01015aa","system_id":"levelo_inurba_marseille","lat":43.284793,"lon":5.384113,"is_reserved":false,"is_disabled":false,"rental_uris":{"android":"levelo://app?vid=319d7631-5a04-47f2-86ee-5266d01015aa","ios":"levelo://app?vid=319d7631-5a04-47f2-86ee-5266d01015aa"},"vehicle_type_id":"4","last_reported":1723655255,"current_range_meters":21600,"station_id":"ce4bh512rcd13ifvqe3g","pricing_plan_id":"cebpf4jnsgd1na2vs0mg"},{"bike_id":"26056145-3913-4636-99ce-c9450c5ba785","system_id":"levelo_inurba_marseille","lat":43.284793,"lon":5.384113,"is_reserved":false,"is_disabled":false,"rental_uris":{"android":"levelo://app?vid=26056145-3913-4636-99ce-c9450c5ba785","ios":"levelo://app?vid=26056145-3913-4636-99ce-c9450c5ba785"},"vehicle_type_id":"4","last_reported":1723655255,"current_range_meters":7600,"station_id":"ce4bh512rcd13ifvqe3g","pricing_plan_id":"cebpf4jnsgd1na2vs0mg"},{"bike_id":"6ff52443-f7fb-4762-91e1-002cbb35478b","system_id":"levelo_inurba_marseille","lat":43.284787,"lon":5.384116,"is_reserved":false,"is_disabled":false,"rental_uris":{"android":"levelo://app?vid=6ff52443-f7fb-4762-91e1-002cbb35478b","ios":"levelo://app?vid=6ff52443-f7fb-4762-91e1-002cbb35478b"},"vehicle_type_id":"4","last_reported":1723655255,"current_range_meters":14000,"station_id":"ce4bh512rcd13ifvqe3g","pricing_plan_id":"cebpf4jnsgd1na2vs0mg"},{"bike_id":"ca2715b9-26c0-4966-9fe0-0098a703f7da","system_id":"levelo_inurba_marseille","lat":43.284793,"lon":5.384113,"is_reserved":false,"is_disabled":false,"rental_uris":{"android":"levelo://app?vid=ca2715b9-26c0-4966-9fe0-0098a703f7da","ios":"levelo://app?vid=ca2715b9-26c0-4966-9fe0-0098a703f7da"},"vehicle_type_id":"4","last_reported":1723655255,"current_range_meters":16000,"station_id":"ce4bh512rcd13ifvqe3g","pricing_plan_id":"cebpf4jnsgd1na2vs0mg"},{"bike_id":"833d721b-ac6e-4ce8-8261-afd1a3aeab83","system_id":"levelo_inurba_marseille","lat":43.284787,"lon":5.384116,"is_reserved":false,"is_disabled":false,"rental_uris":{"android":"levelo://app?vid=833d721b-ac6e-4ce8-8261-afd1a3aeab83","ios":"levelo://app?vid=833d721b-ac6e-4ce8-8261-afd1a3aeab83"},"vehicle_type_id":"4","last_reported":1723655255,"current_range_meters":13600,"station_id":"ce4bh512rcd13ifvqe3g","pricing_plan_id":"cebpf4jnsgd1na2vs0mg"},{"bike_id":"84ea40a9-fd6e-4e6c-9cf2-0ffee63e1d03","system_id":"levelo_inurba_marseille","lat":43.284787,"lon":5.384116,"is_reserved":false,"is_disabled":false,"rental_uris":{"android":"levelo://app?vid=84ea40a9-fd6e-4e6c-9cf2-0ffee63e1d03","ios":"levelo://app?vid=84ea40a9-fd6e-4e6c-9cf2-0ffee63e1d03"},"vehicle_type_id":"4","last_reported":1723655255,"current_range_meters":6400,"station_id":"ce4bh512rcd13ifvqe3g","pricing_plan_id":"cebpf4jnsgd1na2vs0mg"},{"bike_id":"868c2255-12a8-4ddd-be7f-216f3e977259","system_id":"levelo_inurba_marseille","lat":43.29795,"lon":5.404086,"is_reserved":false,"is_disabled":false,"rental_uris":{"android":"levelo://app?vid=868c2255-12a8-4ddd-be7f-216f3e977259","ios":"levelo://app?vid=868c2255-12a8-4ddd-be7f-216f3e977259"},"vehicle_type_id":"4","last_reported":1723655255,"current_range_meters":22400,"station_id":"ce4bh112rcd13ifvqd90","pricing_plan_id":"cebpf4jnsgd1na2vs0mg"},{"bike_id":"bb497e1e-4429-46e4-9aa5-8ede8425bc68","system_id":"levelo_inurba_marseille","lat":43.288501,"lon":5.393087,"is_reserved":false,"is_disabled":false,"rental_uris":{"android":"levelo://app?vid=bb497e1e-4429-46e4-9aa5-8ede8425bc68","ios":"levelo://app?vid=bb497e1e-4429-46e4-9aa5-8ede8425bc68"},"vehicle_type_id":"4","last_reported":1723655255,"current_range_meters":16000,"station_id":"ce4bh2p2rcd13ifvqdi0","pricing_plan_id":"cebpf4jnsgd1na2vs0mg"},{"bike_id":"7bd6ad99-09f0-4dfb-92be-3a3eee7c0319","system_id":"levelo_inurba_marseille","lat":43.28421,"lon":5.34998,"is_reserved":false,"is_disabled":false,"rental_uris":{"android":"levelo://app?vid=7bd6ad99-09f0-4dfb-92be-3a3eee7c0319","ios":"levelo://app?vid=7bd6ad99-09f0-4dfb-92be-3a3eee7c0319"},"vehicle_type_id":"4","last_reported":1723655255,"current_range_meters":28800,"station_id":"ce4bhbh2rcd13ifvqepg","pricing_plan_id":"cebpf4jnsgd1na2vs0mg"},{"bike_id":"501fb85d-b481-43df-ab68-70405ac1e855","system_id":"levelo_inurba_marseille","lat":43.28427,"lon":5.34977,"is_reserved":false,"is_disabled":false,"rental_uris":{"android":"levelo://app?vid=501fb85d-b481-43df-ab68-70405ac1e855","ios":"levelo://app?vid=501fb85d-b481-43df-ab68-70405ac1e855"},"vehicle_type_id":"4","last_reported":1723655255,"current_range_meters":7200,"station_id":"ce4bhbh2rcd13ifvqepg","pricing_plan_id":"cebpf4jnsgd1na2vs0mg"},