{"last_updated":1712948769,"ttl":30,"version":"2.2","data":{"bikes":[{"bike_id":"8b53e686-fd47-4044-b4b5-bf977f9c8297","system_id":"levelo_inurba_marseille","lat":43.31341,"lon":5.367098,"is_reserved":false,"is_disabled":false,"rental_uris":{"android":"levelo://app?vid=8b53e686-fd47-4044-b4b5-bf977f9c8297","ios":"levelo://app?vid=8b53e686-fd47-4044-b4b5-bf977f9c8297"},"vehicle_type_id":"4","last_reported":1712948769,"current_range_meters":2000,"station_id":"ce4bgr92rcd13ifvqc6g","pricing_plan_id":"cebpf4jnsgd1na2vs0mg"},{"bike_id":"9c73d5fe-c979-4383-b793-ad97758b9626","system_id":"levelo_inurba_marseille","lat":43.312239,"lon":5.368562,"is_reserved":false,"is_disabled":false,"rental_uris":{"android":"levelo://app?vid=9c73d5fe-c979-4383-b793-ad97758b9626","ios":"levelo://app?vid=9c73d5fe-c979-4383-b793-ad97758b9626"},"vehicle_type_id":"4","last_reported":1712948769,"current_range_meters":0,"station_id":"ce4bgl92rcd13ifvqbq0","pricing_plan_id":"cebpf4jnsgd1na2vs0mg"},{"bike_id":"9afcbfdd-b06a-4354-8eea-d8d689b8551c","system_id":"levelo_inurba_marseille","lat":43.312239,"lon":5.368562,"is_reserved":false,"is_disabled":false,"rental_uris":{"android":"levelo://app?vid=9afcbfdd-b06a-4354-8eea-d8d689b8551c","ios":"levelo://app?vid=9afcbfdd-b06a-4354-8eea-d8d689b8551c"},"vehicle_type_id":"4","last_reported":1712948769,"current_range_meters":2000,"station_id":"ce4bgl92rcd13ifvqbq0","pricing_plan_id":"cebpf4jnsgd1na2vs0mg"},{"bike_id":"91379bab-1df1-4cc1-b25d-7242bd44210b","system_id":"levelo_inurba_marseille","lat":43.309076,"lon":5.368465,"is_reserved":false,"is_disabled":false,"rental_uris":{"android":"levelo://app?vid=91379bab-1df1-4cc1-b25d-7242bd44210b","ios":"levelo://app?vid=91379bab-1df1-4cc1-b25d-7242bd44210b"},"vehicle_type_id":"4","last_reported":1712948769,"current_range_meters":24800,"station_id":"ce4bgn92rcd13ifvqbvg","pricing_plan_id":"cebpf4jnsgd1na2vs0mg"},{"bike_id":"e181a133-3990-480a-98e3-8f73b763e094","system_id":"levelo_inurba_marseille","lat":43.309039,"lon":5.371797,"is_reserved":false,"is_disabled":false,"rental_uris":{"android":"levelo://app?vid=e181a133-3990-480a-98e3-8f73b763e094","ios":"levelo://app?vid=e181a133-3990-480a-98e3-8f73b763e094"},"vehicle_type_id":"4","last_reported":1712948769,"current_range_meters":0,"station_id":"ce4bguh2rcd13ifvqckg","pricing_plan_id":"cebpf4jnsgd1na2vs0mg"},{"bike_id":"9da03811-c206-4d3a-a353-de3d8511b4b2","system_id":"levelo_inurba_marseille","lat":43.309039,"lon":5.371797,"is_reserved":false,"is_disabled":false,"rental_uris":{"android":"levelo://app?vid=9da03811-c206-4d3a-a353-de3d8511b4b2","ios":"levelo://app?vid=9da03811-c206-4d3a-a353-de3d8511b4b2"},"vehicle_type_id":"4","last_reported":1712948769,"current_range_meters":2000,"station_id":"ce4bguh2rcd13ifvqckg","pricing_plan_id":"cebpf4jnsgd1na2vs0mg"},{"bike_id":"004c5497-786f-4002-8623-e4ce3feb2828","system_id":"levelo_inurba_marseille","lat":43.305714,"lon":5.365633,"is_reserved":false,"is_disabled":false,"rental_uris":{"android":"levelo://app?vid=004c5497-786f-4002-8623-e4ce3feb2828","ios":"levelo://app?vid=004c5497-786f-4002-8623-e4ce3feb2828"},"vehicle_type_id":"4","last_reported":1712948769,"current_range_meters":6800,"station_id":"ce4bgs12rcd13ifvqcag","pricing_plan_id":"cebpf4jnsgd1na2vs0mg"},{"bike_id":"30b6b36a-719e-442a-91c7-497d2264bbab","system_id":"levelo_inurba_marseille","lat":43.305368,"lon":5.367343,"is_reserved":false,"is_disabled":false,"rental_uris":{"android":"levelo://app?vid=30b6b36a-719e-442a-91c7-497d2264bbab","ios":"levelo://app?vid=30b6b36a-719e-442a-91c7-497d2264bbab"},"vehicle_type_id":"4","last_reported":1712948769,"current_range_meters":800,"station_id":"ce4bgrp2rcd13ifvqc9g","pricing_plan_id":"cebpf4jnsgd1na2vs0mg"},{"bike_id":"ff8edecb-e077-4f7e-a02d-2fb999db6683","system_id":"levelo_inurba_marseille","lat":43.311125,"lon":5.377624,"is_reserved":false,"is_disabled":false,"rental_uris":{"android":"levelo://app?vid=ff8edecb-e077-4f7e-a02d-2fb999db6683","ios":"levelo://app?vid=ff8edecb-e077-4f7e-a02d-2fb999db6683"},"vehicle_type_id":"4","last_reported":1712948769,"current_range_meters":0,"station_id":"ce4bgt92rcd13ifvqcg0","pricing_plan_id":"cebpf4jnsgd1na2vs0mg"},{"bike_id":"48212635-08e0-410c-a777-f14d4a862655","system_id":"levelo_inurba_marseille","lat":43.311125,"lon":5.377624,"is_reserved":false,"is_disabled":false,"rental_uris":{"android":"levelo://app?vid=48212635-08e0-410c-a777-f14d4a862655","ios":"levelo://app?vid=48212635-08e0-410c-a777-f14d4a862655"},"vehicle_type_id":"4","last_reported":1712948769,"current_range_meters":4400,"station_id":"ce4bgt92rcd13ifvqcg0","pricing_plan_id":"cebpf4jnsgd1na2vs0mg"},{"bike_id":"b7739872-e2ed-48b8-bc8e-f0aa9bddb24b","system_id":"levelo_inurba_marseille","lat":43.311125,"lon":5.377624,"is_reserved":false,"is_disabled":false,"rental_uris":{"android":"levelo://app?vid=b7739872-e2ed-48b8-bc8e-f0aa9bddb24b","ios":"levelo://app?vid=b7739872-e2ed-48b8-bc8e-f0aa9bddb24b"},"vehicle_type_id":"4","last_reported":1712948769,"current_range_meters":11600,"station_id":"ce4bgt92rcd13ifvqcg0","pricing_plan_id":"cebpf4jnsgd1na2vs0mg"},{"bike_id":"5ac9792a-3020-48ab-bba8-339adaa8e804","system_id":"levelo_inurba_marseille","lat":43.311125,"lon":5.377624,"is_reserved":false,"is_disabled":false,"rental_uris":{"android":"levelo://app?vid=5ac9792a-3020-48ab-bba8-339adaa8e804","ios":"levelo://app?vid=5ac9792a-3020-48ab-bba8-339adaa8e804"},"vehicle_type_id":"4","last_reported":1712948769,"current_range_meters":2400,"station_id":"ce4bgt92rcd13ifvqcg0","pricing_plan_id":"cebpf4jnsgd1na2vs0mg"},{"bike_id":"4e4b1239-ed21-4436-b930-e7e8fbd417f8","system_id":"levelo_inurba_marseille","lat":43.307945,"lon":5.376487,"is_reserved":false,"is_disabled":false,"rental_uris":{"android":"levelo://app?vid=4e4b1239-ed21-4436-b930-e7e8fbd417f8","ios":"levelo://app?vid=4e4b1239-ed21-4436-b930-e7e8fbd417f8"},"vehicle_type_id":"4","last_reported":1712948769,"current_range_meters":12000,"station_id":"ce4bgv92rcd13ifvqcq0","pricing_plan_id":"cebpf4jnsgd1na2vs0mg"},{"bike_id":"aeda716d-e3d7-4c46-affe-c0feeb20e8a7","system_id":"levelo_inurba_marseille","lat":43.316905,"lon":5.3774,"is_reserved":false,"is_disabled":false,"rental_uris":{"android":"levelo://app?vid=aeda716d-e3d7-4c46-affe-c0feeb20e8a7","ios":"levelo://app?vid=aeda716d-e3d7-4c46-affe-c0feeb20e8a7"},"vehicle_type_id":"4","last_reported":1712948769,"current_range_meters":0,"station_id":"ce4bgth2rcd13ifvqch0","pricing_plan_id":"cebpf4jnsgd1na2vs0mg"},{"bike_id":"b0844a06-8170-471a-b02f-af8814041b2f","system_id":"levelo_inurba_marseille","lat":43.317075,"lon":5.377367,"is_reserved":false,"is_disabled":false,"rental_uris":{"android":"levelo://app?vid=b0844a06-8170-471a-b02f-af8814041b2f","ios":"levelo://app?vid=b0844a06-8170-471a-b02f-af8814041b2f"},"vehicle_type_id":"4","last_reported":1712948769,"current_range_meters":6000,"station_id":"ce4bgth2rcd13ifvqch0","pricing_plan_id":"cebpf4jnsgd1na2vs0mg"},{"bike_id":"37493ad0-20dd-4941-8828-fdd672f44ae5","system_id":"levelo_inurba_marseille","lat":43.30304,"lon":5.368987,"is_reserved":false,"is_disabled":false,"rental_uris":{"android":"levelo://app?vid=37493ad0-20dd-4941-8828-fdd672f44ae5","ios":"levelo://app?vid=37493ad0-20dd-4941-8828-fdd672f44ae5"},"vehicle_type_id":"4","last_reported":1712948769,"current_range_meters":0,"station_id":"ce4bgqh2rcd13ifvqc5g","pricing_plan_id":"cebpf4jnsgd1na2vs0mg"},{"bike_id":"ee7d43e3-45f1-4b3f-a000-d09ea3d6050d","system_id":"levelo_inurba_marseille","lat":43.315293,"lon":5.380349,"is_reserved":false,"is_disabled":false,"rental_uris":{"android":"levelo://app?vid=ee7d43e3-45f1-4b3f-a000-d09ea3d6050d","ios":"levelo://app?vid=ee7d43e3-45f1-4b3f-a000-d09ea3d6050d"},"vehicle_type_id":"4","last_reported":1712948769,"current_range_meters":8000,"station_id":"ce4bhsp2rcd13ifvqi50","pricing_plan_id":"cebpf4jnsgd1na2vs0mg"},{"bike_id":"212d858e-6a55-4dbb-a77f-3eba515cbeb0","system_id":"levelo_inurba_marseille","lat":43.315289,"lon":5.380349,"is_reserved":false,"is_disabled":false,"rental_uris":{"android":"levelo://app?vid=212d858e-6a55-4dbb-a77f-3eba515cbeb0","ios":"levelo://app?vid=212d858e-6a55-4dbb-a77f-3eba515cbeb0"},"vehicle_type_id":"4","last_reported":1712948769,"current_range_meters":15600,"station_id":"ce4bhsp2rcd13ifvqi50","pricing_plan_id":"cebpf4jnsgd1na2vs0mg"},{"bike_id":"56064c5c-e74c-450c-9677-e55770db837a","system_id":"levelo_inurba_marseille","lat":43.315289,"lon":5.380349,"is_reserved":false,"is_disabled":false,"rental_uris":{"android":"levelo://app?vid=56064c5c-e74c-450c-9677-e55770db837a","ios":"levelo://app?vid=56064c5c-e74c-450c-9677-e55770db837a"},"vehicle_type_id":"4","last_reported":1712948769,"current_range_meters":21200,"station_id":"ce4bhsp2rcd13ifvqi50","pricing_plan_id":"cebpf4jnsgd1na2vs0mg"},{"bike_id":"2946653f-3593-4b73-b058-3e7d37f76f06","system_id":"levelo_inurba_marseille","lat":43.301939,"lon":5.366286,"is_reserved":false,"is_disabled":false,"rental_uris":{"android":"levelo://app?vid=2946653f-3593-4b73-b058-3e7d37f76f06","ios":"levelo://app?vid=2946653f-3593-4b73-b058-3e7d37f76f06"},"vehicle_type_id":"4","last_reported":1712948769,"current_range_meters":0,"station_id":"ce4bgrh2rcd13ifvqc8g","pricing_plan_id":"cebpf4jnsgd1na2vs0mg"},{"bike_id":"c973c696-6cf3-4ef6-9922-20142626237f","system_id":"levelo_inurba_marseille","lat":43.30282,"lon":5.37259,"is_reserved":false,"is_disabled":false,"rental_uris":{"android":"levelo://app?vid=c973c696-6cf3-4ef6-9922-20142626237f","ios":"levelo://app?vid=c973c696-6cf3-4ef6-9922-20142626237f"},"vehicle_type_id":"4","last_reported":1712948769,"current_range_meters":18000,"station_id":"","pricing_plan_id":"cebpf4jnsgd1na2vs0mg"},{"bike_id":"55d280b3-3edf-424d-a072-33a765b43467","system_id":"levelo_inurba_marseille","lat":43.301939,"lon":5.366286,"is_reserved":false,"is_disabled":false,"rental_uris":{"android":"levelo://app?vid=55d280b3-3edf-424d-a072-33a765b43467","ios":"levelo://app?vid=55d280b3-3edf-424d-a072-33a765b43467"},"vehicle_type_id":"4","last_reported":1712948769,"current_range_meters":0,"station_id":"ce4bgrh2rcd13ifvqc8g","pricing_plan_id":"cebpf4jnsgd1na2vs0mg"},{"bike_id":"e7611b4f-686e-4464-a980-0525baf322a2","system_id":"levelo_inurba_marseille","lat":43.310629,"lon":5.381787,"is_reserved":false,"is_disabled":false,"rental_uris":{"android":"levelo://app?vid=e7611b4f-686e-4464-a980-0525baf322a2","ios":"levelo://app?vid=e7611b4f-686e-4464-a980-0525baf322a2"},"vehicle_type_id":"4","last_reported":1712948769,"current_range_meters":0,"station_id":"","pricing_plan_id":"cebpf4jnsgd1na2vs0mg"},{"bike_id":"6bfd0e51-866a-46e8-8402-1e69d52d3e12","system_id":"levelo_inurba_marseille","lat":43.3081,"lon":5.381513,"is_reserved":false,"is_disabled":false,"rental_uris":{"android":"levelo://app?vid=6bfd0e51-866a-46e8-8402-1e69d52d3e12","ios":"levelo://app?vid=6bfd0e51-866a-46e8-8402-1e69d52d3e12"},"vehicle_type_id":"4","last_reported":1712948769,"current_range_meters":0,"station_id":"ce4bgt12rcd13ifvqce0","pricing_plan_id":"cebpf4jnsgd1na2vs0mg"},{"bike_id":"b7fd508a-b862-40fc-80ec-b3f61c6122a1","system_id":"levelo_inurba_marseille","lat":43.308012,"lon":5.381511,"is_reserved":false,"is_disabled":false,"rental_uris":{"android":"levelo://app?vid=b7fd508a-b862-40fc-80ec-b3f61c6122a1","ios":"levelo://app?vid=b7fd508a-b862-40fc-80ec-b3f61c6122a1"},"vehicle_type_id":"4","last_reported":1712948769,"current_range_meters":5200,"station_id":"ce4bgt12rcd13ifvqce0","pricing_plan_id":"cebpf4jnsgd1na2vs0mg"},{"bike_id":"b49ad2bc-e85a-4701-85dd-9bd7e2aa43cf","system_id":"levelo_inurba_marseille","lat":43.308012,"lon":5.381511,"is_reserved":false,"is_disabled":false,"rental_uris":{"android":"levelo://app?vid=b49ad2bc-e85a-4701-85dd-9bd7e2aa43cf","ios":"levelo://app?vid=b49ad2bc-e85a-4701-85dd-9bd7e2aa43cf"},"vehicle_type_id":"4","last_reported":1712948769,"current_range_meters":1600,"station_id":"ce4bgt12rcd13ifvqce0","pricing_plan_id":"cebpf4jnsgd1na2vs0mg"},{"bike_id":"d24e0b16-8c0e-4246-9630-a8a63f0a0dd6","system_id":"levelo_inurba_marseille","lat":43.30467,"lon":5.37899,"is_reserved":false,"is_disabled":false,"rental_uris":{"android":"levelo://app?vid=d24e0b16-8c0e-4246-9630-a8a63f0a0dd6","ios":"levelo://app?vid=d24e0b16-8c0e-4246-9630-a8a63f0a0dd6"},"vehicle_type_id":"4","last_reported":1712948769,"current_range_meters":0,"station_id":"ce4bgup2rcd13ifvqcn0","pricing_plan_id":"cebpf4jnsgd1na2vs0mg"},{"bike_id":"8233e652-c11d-4da5-8d18-f06b3c5caa11","system_id":"levelo_inurba_marseille","lat":43.324771,"lon":5.36557,"is_reserved":false,"is_disabled":false,"rental_uris":{"android":"levelo://app?vid=8233e652-c11d-4da5-8d18-f06b3c5caa11","ios":"levelo://app?vid=8233e652-c11d-4da5-8d18-f06b3c5caa11"},"vehicle_type_id":"4","last_reported":1712948769,"current_range_meters":10800,"station_id":"ce4bhs12rcd13ifvqhvg","pricing_plan_id":"cebpf4jnsgd1na2vs0mg"},{"bike_id":"059dcd77-b156-4846-a2f6-dcc7ed292848","system_id":"levelo_inurba_marseille","lat":43.304658,"lon":5.379124,"is_reserved":false,"is_disabled":false,"rental_uris":{"android":"levelo://app?vid=059dcd77-b156-4846-a2f6-dcc7ed292848","ios":"levelo://app?vid=059dcd77-b156-4846-a2f6-dcc7ed292848"},"vehicle_type_id":"4","last_reported":1712948769,"current_range_meters":0,"station_id":"ce4bgup2rcd13ifvqcn0","pricing_plan_id":"cebpf4jnsgd1na2vs0mg"},{"bike_id":"a2d05945-0201-4925-9af9-f6239a00d807","system_id":"levelo_inurba_marseille","lat":43.304606,"lon":5.379026,"is_reserved":false,"is_disabled":false,"rental_uris":{"android":"levelo://app?vid=a2d05945-0201-4925-9af9-f6239a00d807","ios":"levelo://app?vid=a2d05945-0201-4925-9af9-f6239a00d807"},"vehicle_type_id":"4","last_reported":1712948769,"current_range_meters":0,"station_id":"ce4bgup2rcd13ifvqcn0","pricing_plan_id":"cebpf4jnsgd1na2vs0mg"},{"bike_id":"6fcac34d-4b8b-4ea1-8b39-2196ca6d95b7","system_id":"levelo_inurba_marseille","lat":43.324771,"lon":5.36557,"is_reserved":false,"is_disabled":false,"rental_uris":{"android":"levelo://app?vid=6fcac34d-4b8b-4ea1-8b39-2196ca6d95b7","ios":"levelo://app?vid=6fcac34d-4b8b-4ea1-8b39-2196ca6d95b7"},"vehicle_type_id":"4","last_reported":1712948769,"current_range_meters":6400,"station_id":"ce4bhs12rcd13ifvqhvg","pricing_plan_id":"cebpf4jnsgd1na2vs0mg"},{"bike_id":"7575019c-31af-4ed2-af41-0123e5e3e10e","system_id":"levelo_inurba_marseille","lat":43.324771,"lon":5.36557,"is_reserved":false,"is_disabled":false,"rental_uris":{"android":"levelo://app?vid=7575019c-31af-4ed2-af41-0123e5e3e10e","ios":"levelo://app?vid=7575019c-31af-4ed2-af41-0123e5e3e10e"},"vehicle_type_id":"4","last_reported":1712948769,"current_range_meters":24400,"station_id":"ce4bhs12rcd13ifvqhvg","pricing_plan_id":"cebpf4jnsgd1na2vs0mg"},{"bike_id":"aab8218e-5ae5-4259-8cfc-82eea594431c","system_id":"levelo_inurba_marseille","lat":43.324771,"lon":5.36557,"is_reserved":false,"is_disabled":false,"rental_uris":{"android":"levelo://app?vid=aab8218e-5ae5-4259-8cfc-82eea594431c","ios":"levelo://app?vid=aab8218e-5ae5-4259-8cfc-82eea594431c"},"vehicle_type_id":"4","last_reported":1712948769,"current_range_meters":12000,"station_id":"ce4bhs12rcd13ifvqhvg","pricing_plan_id":"cebpf4jnsgd1na2vs0mg"},{"bike_id":"3da179fd-ba6d-4ac5-8ae9-a73ee0c6d3ee","system_id":"levelo_inurba_marseille","lat":43.3108,"lon":5.38347,"is_reserved":false,"is_disabled":false,"rental_uris":{"android":"levelo://app?vid=3da179fd-ba6d-4ac5-8ae9-a73ee0c6d3ee","ios":"levelo://app?vid=3da179fd-ba6d-4ac5-8ae9-a73ee0c6d3ee"},"vehicle_type_id":"4","last_reported":1712948769,"current_range_meters":0,"station_id":"ce4bgv92rcd13ifvqcr0","pricing_plan_id":"cebpf4jnsgd1na2vs0mg"},{"bike_id":"15885d66-8294-406d-8563-3366eede4a1c","system_id":"levelo_inurba_marseille","lat":43.31074,"lon":5.383475,"is_reserved":false,"is_disabled":false,"rental_uris":{"android":"levelo://app?vid=15885d66-8294-406d-8563-3366eede4a1c","ios":"levelo://app?vid=15885d66-8294-406d-8563-3366eede4a1c"},"vehicle_type_id":"4","last_reported":1712948769,"current_range_meters":0,"station_id":"ce4bgv92rcd13ifvqcr0","pricing_plan_id":"cebpf4jnsgd1na2vs0mg"},{"bike_id":"b3fc18e3-9720-4ce0-b8e3-e0046dca812a","system_id":"levelo_inurba_marseille","lat":43.310605,"lon":5.383472,"is_reserved":false,"is_disabled":false,"rental_uris":{"android":"levelo://app?vid=b3fc18e3-9720-4ce0-b8e3-e0046dca812a","ios":"levelo://app?vid=b3fc18e3-9720-4ce0-b8e3-e0046dca812a"},"vehicle_type_id":"4","last_reported":1712948769,"current_range_meters":26000,"station_id":"ce4bgv92rcd13ifvqcr0","pricing_plan_id":"cebpf4jnsgd1na2vs0mg"},{"bike_id":"aed4348a-9f11-4ded-8b1d-73054865a975","system_id":"levelo_inurba_marseille","lat":43.31074,"lon":5.38355,"is_reserved":false,"is_disabled":false,"rental_uris":{"android":"levelo://app?vid=aed4348a-9f11-4ded-8b1d-73054865a975","ios":"levelo://app?vid=aed4348a-9f11-4ded-8b1d-73054865a975"},"vehicle_type_id":"4","last_reported":1712948769,"current_range_meters":8800,"station_id":"ce4bgv92rcd13ifvqcr0","pricing_plan_id":"cebpf4jnsgd1na2vs0mg"},{"bike_id":"c993dfcd-cb50-4b3a-be12-1c12f97a547b","system_id":"levelo_inurba_marseille","lat":43.30143,"lon":5.37413,"is_reserved":false,"is_disabled":false,"rental_uris":{"android":"levelo://app?vid=c993dfcd-cb50-4b3a-be12-1c12f97a547b","ios":"levelo://app?vid=c993dfcd-cb50-4b3a-be12-1c12f97a547b"},"vehicle_type_id":"4","last_reported":1712948769,"current_range_meters":12400,"station_id":"ce4bgs92rcd13ifvqcc0","pricing_plan_id":"cebpf4jnsgd1na2vs0mg"},{"bike_id":"9cda2c79-868a-425d-b2ec-e2a625a9806c","system_id":"levelo_inurba_marseille","lat":43.301429,"lon":5.37413,"is_reserved":false,"is_disabled":false,"rental_uris":{"android":"levelo://app?vid=9cda2c79-868a-425d-b2ec-e2a625a9806c","ios":"levelo://app?vid=9cda2c79-868a-425d-b2ec-e2a625a9806c"},"vehicle_type_id":"4","last_reported":1712948769,"current_range_meters":4000,"station_id":"ce4bgs92rcd13ifvqcc0","pricing_plan_id":"cebpf4jnsgd1na2vs0mg"},{"bike_id":"31d436d2-22f4-444b-92ad-c36128c84b47","system_id":"levelo_inurba_marseille","lat":43.31992,"lon":5.38136,"is_reserved":false,"is_disabled":false,"rental_uris":{"android":"levelo://app?vid=31d436d2-22f4-444b-92ad-c36128c84b47","ios":"levelo://app?vid=31d436d2-22f4-444b-92ad-c36128c84b47"},"vehicle_type_id":"4","last_reported":1712948769,"current_range_meters":0,"station_id":"ce4bhr12rcd13ifvqhpg","pricing_plan_id":"cebpf4jnsgd1na2vs0mg"},{"bike_id":"4e55ca64-fe78-48a2-9719-7902d95f15e6","system_id":"levelo_inurba_marseille","lat":43.319935,"lon":5.381699,"is_reserved":false,"is_disabled":false,"rental_uris":{"android":"levelo://app?vid=4e55ca64-fe78-48a2-9719-7902d95f15e6","ios":"levelo://app?vid=4e55ca64-fe78-48a2-9719-7902d95f15e6"},"vehicle_type_id":"4","last_reported":1712948769,"current_range_meters":3600,"station_id":"ce4bhr12rcd13ifvqhpg","pricing_plan_id":"cebpf4jnsgd1na2vs0mg"},{"bike_id":"387b7c6f-c287-4395-823a-85058889ede8","system_id":"levelo_inurba_marseille","lat":43.319935,"lon":5.381699,"is_reserved":false,"is_disabled":false,"rental_uris":{"android":"levelo://app?vid=387b7c6f-c287-4395-823a-85058889ede8","ios":"levelo://app?vid=387b7c6f-c287-4395-823a-85058889ede8"},"vehicle_type_id":"4","last_reported":1712948769,"current_range_meters":0,"station_id":"ce4bhr12rcd13ifvqhpg","pricing_plan_id":"cebpf4jnsgd1na2vs0mg"},{"bike_id":"331abbbb-86c3-45df-ad98-59d7bc423672","system_id":"levelo_inurba_marseille","lat":43.313571,"lon":5.384829,"is_reserved":false,"is_disabled":false,"rental_uris":{"android":"levelo://app?vid=331abbbb-86c3-45df-ad98-59d7bc423672","ios":"levelo://app?vid=331abbbb-86c3-45df-ad98-59d7bc423672"},"vehicle_type_id":"4","last_reported":1712948769,"current_range_meters":5200,"station_id":"ce4bgt92rcd13ifvqcf0","pricing_plan_id":"cebpf4jnsgd1na2vs0mg"},{"bike_id":"88c0dc9d-894f-429a-afdf-8eac473890d8","system_id":"levelo_inurba_marseille","lat":43.299222,"lon":5.365554,"is_reserved":false,"is_disabled":false,"rental_uris":{"android":"levelo://app?vid=88c0dc9d-894f-429a-afdf-8eac473890d8","ios":"levelo://app?vid=88c0dc9d-894f-429a-afdf-8eac473890d8"},"vehicle_type_id":"4","last_reported":1712948769,"current_range_meters":0,"station_id":"ce4bgm92rcd13ifvqbr0","pricing_plan_id":"cebpf4jnsgd1na2vs0mg"},{"bike_id":"d70e73b3-4fb8-419b-b0cb-1742338b14df","system_id":"levelo_inurba_marseille","lat":43.299222,"lon":5.365554,"is_reserved":false,"is_disabled":false,"rental_uris":{"android":"levelo://app?vid=d70e73b3-4fb8-419b-b0cb-1742338b14df","ios":"levelo://app?vid=d70e73b3-4fb8-419b-b0cb-1742338b14df"},"vehicle_type_id":"4","last_reported":1712948769,"current_range_meters":6800,"station_id":"ce4bgm92rcd13ifvqbr0","pricing_plan_id":"cebpf4jnsgd1na2vs0mg"},{"bike_id":"21635619-3c29-44af-b290-f71a32d5d14e","system_id":"levelo_inurba_marseille","lat":43.298433,"lon":5.362774,"is_reserved":false,"is_disabled":false,"rental_uris":{"android":"levelo://app?vid=21635619-3c29-44af-b290-f71a32d5d14e","ios":"levelo://app?vid=21635619-3c29-44af-b290-f71a32d5d14e"},"vehicle_type_id":"4","last_reported":1712948769,"current_range_meters":2000,"station_id":"ce4bgpp2rcd13ifvqc3g","pricing_plan_id":"cebpf4jnsgd1na2vs0mg"},{"bike_id":"6c91aeb1-c1ac-4b0b-927a-209ee6aedd6d","system_id":"levelo_inurba_marseille","lat":43.3117,"lon":5.38706,"is_reserved":false,"is_disabled":false,"rental_uris":{"android":"levelo://app?vid=6c91aeb1-c1ac-4b0b-927a-209ee6aedd6d","ios":"levelo://app?vid=6c91aeb1-c1ac-4b0b-927a-209ee6aedd6d"},"vehicle_type_id":"4","last_reported":1712948769,"current_range_meters":0,"station_id":"ce4bgv12rcd13ifvqcp0","pricing_plan_id":"cebpf4jnsgd1na2vs0mg"},{"bike_id":"bb3496c8-b57e-4e40-a10a-4cfa93d84ca7","system_id":"levelo_inurba_marseille","lat":43.312239,"lon":5.368562,"is_reserved":false,"is_disabled":false,"rental_uris":{"android":"levelo://app?vid=bb3496c8-b57e-4e40-a10a-4cfa93d84ca7","ios":"levelo://app?vid=bb3496c8-b57e-4e40-a10a-4cfa93d84ca7"},"vehicle_type_id":"4","last_reported":1712948769,"current_range_meters":0,"station_id":"ce4bgl92rcd13ifvqbq0","pricing_plan_id":"cebpf4jnsgd1na2vs0mg"},{"bike_id":"943492db-71e6-4b1f-9982-609db29a8fd8","system_id":"levelo_inurba_marseille","lat":43.297794,"lon":5.370888,"is_reserved":false,"is_disabled":false,"rental_uris":{"android":"levelo://app?vid=943492db-71e6-4b1f-9982-609db29a8fd8","ios":"levelo://app?vid=943492db-71e6-4b1f-9982-609db29a8fd8"},"vehicle_type_id":"4","last_reported":1712948769,"current_range_meters":21200,"station_id":"ce4bgop2rcd13ifvqc1g","pricing_plan_id":"cebpf4jnsgd1na2vs0mg"},{"bike_id":"40e13188-26ee-46ac-9099-190eddcc5368","system_id":"levelo_inurba_marseille","lat":43.297774,"lon":5.370875,"is_reserved":false,"is_disabled":false,"rental_uris":{"android":"levelo://app?vid=40e13188-26ee-46ac-9099-190eddcc5368","ios":"levelo://app?vid=40e13188-26ee-46ac-9099-190eddcc5368"},"vehicle_type_id":"4","last_reported":1712948769,"current_range_meters":24400,"station_id":"ce4bgop2rcd13ifvqc1g","pricing_plan_id":"cebpf4jnsgd1na2vs0mg"},{"bike_id":"2cd32c27-c9bb-4122-9f84-72c6f94df928","system_id":"levelo_inurba_marseille","lat":43.322872,"lon":5.382756,"is_reserved":false,"is_disabled":false,"rental_uris":{"android":"levelo://app?vid=2cd32c27-c9bb-4122-9f84-72c6f94df928","ios":"levelo://app?vid=2cd32c27-c9bb-4122-9f84-72c6f94df928"},"vehicle_type_id":"4","last_reported":1712948769,"current_range_meters":22400,"station_id":"ce4bhr12rcd13ifvqhqg","pricing_plan_id":"cebpf4jnsgd1na2vs0mg"},{"bike_id":"af0a9bb6-7aa0-46d8-91bc-7af3d1fc3f75","system_id":"levelo_inurba_marseille","lat":43.297794,"lon":5.370888,"is_reserved":false,"is_disabled":false,"rental_uris":{"android":"levelo://app?vid=af0a9bb6-7aa0-46d8-91bc-7af3d1fc3f75","ios":"levelo://app?vid=af0a9bb6-7aa0-46d8-91bc-7af3d1fc3f75"},"vehicle_type_id":"4","last_reported":1712948769,"current_range_meters":2800,"station_id":"ce4bgop2rcd13ifvqc1g","pricing_plan_id":"cebpf4jnsgd1na2vs0mg"},{"bike_id":"33f9ec6c-35e4-4b80-9ccb-f932f44e8847","system_id":"levelo_inurba_marseille","lat":43.322872,"lon":5.382756,"is_reserved":false,"is_disabled":false,"rental_uris":{"android":"levelo://app?vid=33f9ec6c-35e4-4b80-9ccb-f932f44e8847","ios":"levelo://app?vid=33f9ec6c-35e4-4b80-9ccb-f932f44e8847"},"vehicle_type_id":"4","last_reported":1712948769,"current_range_meters":8400,"station_id":"ce4bhr12rcd13ifvqhqg","pricing_plan_id":"cebpf4jnsgd1na2vs0mg"},{"bike_id":"62f70c15-673b-4b5f-8664-4716e8ac8804","system_id":"levelo_inurba_marseille","lat":43.322872,"lon":5.382756,"is_reserved":false,"is_disabled":false,"rental_uris":{"android":"levelo://app?vid=62f70c15-673b-4b5f-8664-4716e8ac8804","ios":"levelo://app?vid=62f70c15-673b-4b5f-8664-4716e8ac8804"},"vehicle_type_id":"4","last_reported":1712948769,"current_range_meters":13600,"station_id":"ce4bhr12rcd13ifvqhqg","pricing_plan_id":"cebpf4jnsgd1na2vs0mg"},{"bike_id":"471f6dc1-72d2-49b3-a8bb-13ca96ae22c1","system_id":"levelo_inurba_marseille","lat":43.322872,"lon":5.382756,"is_reserved":false,"is_disabled":false,"rental_uris":{"android":"levelo://app?vid=471f6dc1-72d2-49b3-a8bb-13ca96ae22c1","ios":"levelo://app?vid=471f6dc1-72d2-49b3-a8bb-13ca96ae22c1"},"vehicle_type_id":"4","last_reported":1712948769,"current_range_meters":5600,"station_id":"ce4bhr12rcd13ifvqhqg","pricing_plan_id":"cebpf4jnsgd1na2vs0mg"},{"bike_id":"59e100ed-da50-4a3e-9006-d56c9ad9155e","system_id":"levelo_inurba_marseille","lat":43.322872,"lon":5.382756,"is_reserved":false,"is_disabled":false,"rental_uris":{"android":"levelo://app?vid=59e100ed-da50-4a3e-9006-d56c9ad9155e","ios":"levelo://app?vid=59e100ed-da50-4a3e-9006-d56c9ad9155e"},"vehicle_type_id":"4","last_reported":1712948769,"current_range_meters":1200,"station_id":"ce4bhr12rcd13ifvqhqg","pricing_plan_id":"cebpf4jnsgd1na2vs0mg"},{"bike_id":"78e2448b-9d63-4014-9821-a5ed4ea701cc","system_id":"levelo_inurba_marseille","lat":43.322872,"lon":5.382756,"is_reserved":false,"is_disabled":false,"rental_uris":{"android":"levelo://app?vid=78e2448b-9d63-4014-9821-a5ed4ea701cc","ios":"levelo://app?vid=78e2448b-9d63-4014-9821-a5ed4ea701cc"},"vehicle_type_id":"4","last_reported":1712948769,"current_range_meters":27200,"station_id":"ce4bhr12rcd13ifvqhqg","pricing_plan_id":"cebpf4jnsgd1na2vs0mg"},{"bike_id":"29fc5b50-1cff-46be-80fb-38e796292df6","system_id":"levelo_inurba_marseille","lat":43.322872,"lon":5.382756,"is_reserved":false,"is_disabled":false,"rental_uris":{"android":"levelo://app?vid=29fc5b50-1cff-46be-80fb-38e796292df6","ios":"levelo://app?vid=29fc5b50-1cff-46be-80fb-38e796292df6"},"vehicle_type_id":"4","last_reported":1712948769,"current_range_meters":20000,"station_id":"ce4bhr12rcd13ifvqhqg","pricing_plan_id":"cebpf4jnsgd1na2vs0mg"},{"bike_id":"7202b349-cdb2-4fd2-b3f3-0ba946f2e8f8","system_id":"levelo_inurba_marseille","lat":43.29717,"lon":5.36609,"is_reserved":false,"is_disabled":false,"rental_uris":{"android":"levelo://app?vid=7202b349-cdb2-4fd2-b3f3-0ba946f2e8f8","ios":"levelo://app?vid=7202b349-cdb2-4fd2-b3f3-0ba946f2e8f8"},"vehicle_type_id":"4","last_reported":1712948769,"current_range_meters":0,"station_id":"ce4bgn12rcd13ifvqbt0","pricing_plan_id":"cebpf4jnsgd1na2vs0mg"},{"bike_id":"372c21aa-b7d4-446c-a4e2-c00058386246","system_id":"levelo_inurba_marseille","lat":43.29708,"lon":5.3661,"is_reserved":false,"is_disabled":false,"rental_uris":{"android":"levelo://app?vid=372c21aa-b7d4-446c-a4e2-c00058386246","ios":"levelo://app?vid=372c21aa-b7d4-446c-a4e2-c00058386246"},"vehicle_type_id":"4","last_reported":1712948769,"current_range_meters":0,"station_id":"ce4bgn12rcd13ifvqbt0","pricing_plan_id":"cebpf4jnsgd1na2vs0mg"},{"bike_id":"f3f74507-47ec-4ab8-b8ff-124bf471bfb5","system_id":"levelo_inurba_marseille","lat":43.297163,"lon":5.365866,"is_reserved":false,"is_disabled":false,"rental_uris":{"android":"levelo://app?vid=f3f74507-47ec-4ab8-b8ff-124bf471bfb5","ios":"levelo://app?vid=f3f74507-47ec-4ab8-b8ff-124bf471bfb5"},"vehicle_type_id":"4","last_reported":1712948769,"current_range_meters":23600,"station_id":"ce4bgn12rcd13ifvqbt0","pricing_plan_id":"cebpf4jnsgd1na2vs0mg"},{"bike_id":"01c3422d-8d5c-41eb-a8b1-2c81fafcb1e7","system_id":"levelo_inurba_marseille","lat":43.29703,"lon":5.36598,"is_reserved":false,"is_disabled":false,"rental_uris":{"android":"levelo://app?vid=01c3422d-8d5c-41eb-a8b1-2c81fafcb1e7","ios":"levelo://app?vid=01c3422d-8d5c-41eb-a8b1-2c81fafcb1e7"},"vehicle_type_id":"4","last_reported":1712948769,"current_range_meters":17200,"station_id":"","pricing_plan_id":"cebpf4jnsgd1na2vs0mg"},{"bike_id":"bd092c5e-6beb-4a21-96b9-29751d5cfa4b","system_id":"levelo_inurba_marseille","lat":43.29693,"lon":5.36584,"is_reserved":false,"is_disabled":false,"rental_uris":{"android":"levelo://app?vid=bd092c5e-6beb-4a21-96b9-29751d5cfa4b","ios":"levelo://app?vid=bd092c5e-6beb-4a21-96b9-29751d5cfa4b"},"vehicle_type_id":"4","last_reported":1712948769,"current_range_meters":0,"station_id":"ce4bgn12rcd13ifvqbt0","pricing_plan_id":"cebpf4jnsgd1na2vs0mg"},{"bike_id":"df832497-a626-4d79-a96f-9b08363bdce5","system_id":"levelo_inurba_marseille","lat":43.296483,"lon":5.36549,"is_reserved":false,"is_disabled":false,"rental_uris":{"android":"levelo://app?vid=df832497-a626-4d79-a96f-9b08363bdce5","ios":"levelo://app?vid=df832497-a626-4d79-a96f-9b08363bdce5"},"vehicle_type_id":"4","last_reported":1712948769,"current_range_meters":4800,"station_id":"","pricing_plan_id":"cebpf4jnsgd1na2vs0mg"},{"bike_id":"22ed4ae4-2434-4eb8-b448-5d31ebcf1bde","system_id":"levelo_inurba_marseille","lat":43.296921,"lon":5.376579,"is_reserved":false,"is_disabled":false,"rental_uris":{"android":"levelo://app?vid=22ed4ae4-2434-4eb8-b448-5d31ebcf1bde","ios":"levelo://app?vid=22ed4ae4-2434-4eb8-b448-5d31ebcf1bde"},"vehicle_type_id":"4","last_reported":1712948769,"current_range_meters":2800,"station_id":"ce4bgkh2rcd13ifvqbl0","pricing_plan_id":"cebpf4jnsgd1na2vs0mg"},{"bike_id":"27dccb54-c0cc-4999-abf4-08488d4132c2","system_id":"levelo_inurba_marseille","lat":43.2968,"lon":5.37291,"is_reserved":false,"is_disabled":false,"rental_uris":{"android":"levelo://app?vid=27dccb54-c0cc-4999-abf4-08488d4132c2","ios":"levelo://app?vid=27dccb54-c0cc-4999-abf4-08488d4132c2"},"vehicle_type_id":"4","last_reported":1712948769,"current_range_meters":2400,"station_id":"ce4bgk12rcd13ifvqbj0","pricing_plan_id":"cebpf4jnsgd1na2vs0mg"},{"bike_id":"4dfa4569-0b13-4b89-9466-2b0480c095dd","system_id":"levelo_inurba_marseille","lat":43.296131,"lon":5.370773,"is_reserved":false,"is_disabled":false,"rental_uris":{"android":"levelo://app?vid=4dfa4569-0b13-4b89-9466-2b0480c095dd","ios":"levelo://app?vid=4dfa4569-0b13-4b89-9466-2b0480c095dd"},"vehicle_type_id":"4","last_reported":1712948769,"current_range_meters":0,"station_id":"ce4bgnh2rcd13ifvqc0g","pricing_plan_id":"cebpf4jnsgd1na2vs0mg"},{"bike_id":"88688c95-49ab-46b1-b210-da5b2873ddaf","system_id":"levelo_inurba_marseille","lat":43.296131,"lon":5.370773,"is_reserved":false,"is_disabled":false,"rental_uris":{"android":"levelo://app?vid=88688c95-49ab-46b1-b210-da5b2873ddaf","ios":"levelo://app?vid=88688c95-49ab-46b1-b210-da5b2873ddaf"},"vehicle_type_id":"4","last_reported":1712948769,"current_range_meters":0,"station_id":"ce4bgnh2rcd13ifvqc0g","pricing_plan_id":"cebpf4jnsgd1na2vs0mg"},{"bike_id":"f47bea11-f894-465d-ac76-377e7e18fbfa","system_id":"levelo_inurba_marseille","lat":43.296131,"lon":5.370791,"is_reserved":false,"is_disabled":false,"rental_uris":{"android":"levelo://app?vid=f47bea11-f894-465d-ac76-377e7e18fbfa","ios":"levelo://app?vid=f47bea11-f894-465d-ac76-377e7e18fbfa"},"vehicle_type_id":"4","last_reported":1712948769,"current_range_meters":3200,"station_id":"ce4bgnh2rcd13ifvqc0g","pricing_plan_id":"cebpf4jnsgd1na2vs0mg"},{"bike_id":"f61c5dee-2650-498f-a694-5e78e9a5cb65","system_id":"levelo_inurba_marseille","lat":43.29573,"lon":5.367355,"is_reserved":false,"is_disabled":false,"rental_uris":{"android":"levelo://app?vid=f61c5dee-2650-498f-a694-5e78e9a5cb65","ios":"levelo://app?vid=f61c5dee-2650-498f-a694-5e78e9a5cb65"},"vehicle_type_id":"4","last_reported":1712948769,"current_range_meters":6800,"station_id":"ce4bgph2rcd13ifvqc2g","pricing_plan_id":"cebpf4jnsgd1na2vs0mg"},{"bike_id":"752c29a6-b912-475e-b9b8-ba4684d4c9e9","system_id":"levelo_inurba_marseille","lat":43.296935,"lon":5.376544,"is_reserved":false,"is_disabled":false,"rental_uris":{"android":"levelo://app?vid=752c29a6-b912-475e-b9b8-ba4684d4c9e9","ios":"levelo://app?vid=752c29a6-b912-475e-b9b8-ba4684d4c9e9"},"vehicle_type_id":"4","last_reported":1712948769,"current_range_meters":800,"station_id":"ce4bgkh2rcd13ifvqbl0","pricing_plan_id":"cebpf4jnsgd1na2vs0mg"},{"bike_id":"0cdc816a-472a-4362-be85-fdace7024b2c","system_id":"levelo_inurba_marseille","lat":43.29709,"lon":5.37692,"is_reserved":false,"is_disabled":false,"rental_uris":{"android":"levelo://app?vid=0cdc816a-472a-4362-be85-fdace7024b2c","ios":"levelo://app?vid=0cdc816a-472a-4362-be85-fdace7024b2c"},"vehicle_type_id":"4","last_reported":1712948769,"current_range_meters":0,"station_id":"ce4bgkh2rcd13ifvqbl0","pricing_plan_id":"cebpf4jnsgd1na2vs0mg"},{"bike_id":"2998dd02-aca4-4435-82cc-41a8a33790b4","system_id":"levelo_inurba_marseille","lat":43.299,"lon":5.38143,"is_reserved":false,"is_disabled":false,"rental_uris":{"android":"levelo://app?vid=2998dd02-aca4-4435-82cc-41a8a33790b4","ios":"levelo://app?vid=2998dd02-aca4-4435-82cc-41a8a33790b4"},"vehicle_type_id":"4","last_reported":1712948769,"current_range_meters":0,"station_id":"ce4bgj12rcd13ifvqbc0","pricing_plan_id":"cebpf4jnsgd1na2vs0mg"},{"bike_id":"5cfa88e7-7750-49ee-8fb6-40799b0fbec7","system_id":"levelo_inurba_marseille","lat":43.297049,"lon":5.377045,"is_reserved":false,"is_disabled":false,"rental_uris":{"android":"levelo://app?vid=5cfa88e7-7750-49ee-8fb6-40799b0fbec7","ios":"levelo://app?vid=5cfa88e7-7750-49ee-8fb6-40799b0fbec7"},"vehicle_type_id":"4","last_reported":1712948769,"current_range_meters":0,"station_id":"ce4bgj92rcd13ifvqbd0","pricing_plan_id":"cebpf4jnsgd1na2vs0mg"},{"bike_id":"8caaffb7-a852-42b3-b793-7a58f89bb34b","system_id":"levelo_inurba_marseille","lat":43.317557,"lon":5.390173,"is_reserved":false,"is_disabled":false,"rental_uris":{"android":"levelo://app?vid=8caaffb7-a852-42b3-b793-7a58f89bb34b","ios":"levelo://app?vid=8caaffb7-a852-42b3-b793-7a58f89bb34b"},"vehicle_type_id":"4","last_reported":1712948769,"current_range_meters":10800,"station_id":"ce4bhqp2rcd13ifvqhng","pricing_plan_id":"cebpf4jnsgd1na2vs0mg"},{"bike_id":"ed517da0-d814-43a2-9cae-0588c67e9505","system_id":"levelo_inurba_marseille","lat":43.317557,"lon":5.390173,"is_reserved":false,"is_disabled":false,"rental_uris":{"android":"levelo://app?vid=ed517da0-d814-43a2-9cae-0588c67e9505","ios":"levelo://app?vid=ed517da0-d814-43a2-9cae-0588c67e9505"},"vehicle_type_id":"4","last_reported":1712948769,"current_range_meters":12000,"station_id":"ce4bhqp2rcd13ifvqhng","pricing_plan_id":"cebpf4jnsgd1na2vs0mg"},{"bike_id":"05152ef4-fe53-4c14-8d18-f844bd45d004","system_id":"levelo_inurba_marseille","lat":43.317557,"lon":5.390173,"is_reserved":false,"is_disabled":false,"rental_uris":{"android":"levelo://app?vid=05152ef4-fe53-4c14-8d18-f844bd45d004","ios":"levelo://app?vid=05152ef4-fe53-4c14-8d18-f844bd45d004"},"vehicle_type_id":"4","last_reported":1712948769,"current_range_meters":0,"station_id":"ce4bhqp2rcd13ifvqhng","pricing_plan_id":"cebpf4jnsgd1na2vs0mg"},{"bike_id":"1353979a-a377-4553-ad62-b2c43b4732d1","system_id":"levelo_inurba_marseille","lat":43.317557,"lon":5.390173,"is_reserved":false,"is_disabled":false,"rental_uris":{"android":"levelo://app?vid=1353979a-a377-4553-ad62-b2c43b4732d1","ios":"levelo://app?vid=1353979a-a377-4553-ad62-b2c43b4732d1"},"vehicle_type_id":"4","last_reported":1712948769,"current_range_meters":400,"station_id":"ce4bhqp2rcd13ifvqhng","pricing_plan_id":"cebpf4jnsgd1na2vs0mg"},{"bike_id":"eabed10c-1d21-4e7e-b8d8-bca4a2577198","system_id":"levelo_inurba_marseille","lat":43.298037,"lon":5.381066,"is_reserved":false,"is_disabled":false,"rental_uris":{"android":"levelo://app?vid=eabed10c-1d21-4e7e-b8d8-bca4a2577198","ios":"levelo://app?vid=eabed10c-1d21-4e7e-b8d8-bca4a2577198"},"vehicle_type_id":"4","last_reported":1712948769,"current_range_meters":6800,"station_id":"ce4bgip2rcd13ifvqbb0","pricing_plan_id":"cebpf4jnsgd1na2vs0mg"},{"bike_id":"093178c0-eb1e-46c6-8814-272b12e2ab2e","system_id":"levelo_inurba_marseille","lat":43.298005,"lon":5.380825,"is_reserved":false,"is_disabled":false,"rental_uris":{"android":"levelo://app?vid=093178c0-eb1e-46c6-8814-272b12e2ab2e","ios":"levelo://app?vid=093178c0-eb1e-46c6-8814-272b12e2ab2e"},"vehicle_type_id":"4","last_reported":1712948769,"current_range_meters":0,"station_id":"ce4bgip2rcd13ifvqbb0","pricing_plan_id":"cebpf4jnsgd1na2vs0mg"},{"bike_id":"bc8ab68b-68cf-4281-9de2-afc21ea40861","system_id":"levelo_inurba_marseille","lat":43.298037,"lon":5.381066,"is_reserved":false,"is_disabled":false,"rental_uris":{"android":"levelo://app?vid=bc8ab68b-68cf-4281-9de2-afc21ea40861","ios":"levelo://app?vid=bc8ab68b-68cf-4281-9de2-afc21ea40861"},"vehicle_type_id":"4","last_reported":1712948769,"current_range_meters":1200,"station_id":"ce4bgip2rcd13ifvqbb0","pricing_plan_id":"cebpf4jnsgd1na2vs0mg"},{"bike_id":"a6a79e2f-7538-4a61-846e-6b5d107f5b65","system_id":"levelo_inurba_marseille","lat":43.298037,"lon":5.381066,"is_reserved":false,"is_disabled":false,"rental_uris":{"android":"levelo://app?vid=a6a79e2f-7538-4a61-846e-6b5d107f5b65","ios":"levelo://app?vid=a6a79e2f-7538-4a61-846e-6b5d107f5b65"},"vehicle_type_id":"4","last_reported":1712948769,"current_range_meters":800,"station_id":"ce4bgip2rcd13ifvqbb0","pricing_plan_id":"cebpf4jnsgd1na2vs0mg"},{"bike_id":"c15b30bf-48af-4b11-9d34-0a6367df60c3","system_id":"levelo_inurba_marseille","lat":43.298037,"lon":5.381066,"is_reserved":false,"is_disabled":false,"rental_uris":{"android":"levelo://app?vid=c15b30bf-48af-4b11-9d34-0a6367df60c3","ios":"levelo://app?vid=c15b30bf-48af-4b11-9d34-0a6367df60c3"},"vehicle_type_id":"4","last_reported":1712948769,"current_range_meters":24000,"station_id":"ce4bgip2rcd13ifvqbb0","pricing_plan_id":"cebpf4jnsgd1na2vs0mg"},{"bike_id":"5b93242d-8338-4ae4-97dc-c8cdbae77dd7","system_id":"levelo_inurba_marseille","lat":43.298037,"lon":5.381066,"is_reserved":false,"is_disabled":false,"rental_uris":{"android":"levelo://app?vid=5b93242d-8338-4ae4-97dc-c8cdbae77dd7","ios":"levelo://app?vid=5b93242d-8338-4ae4-97dc-c8cdbae77dd7"},"vehicle_type_id":"4","last_reported":1712948769,"current_range_meters":3200,"station_id":"ce4bgip2rcd13ifvqbb0","pricing_plan_id":"cebpf4jnsgd1na2vs0mg"},{"bike_id":"7fc78741-c5a6-44ea-9b6c-42aaccfa1ab7","system_id":"levelo_inurba_marseille","lat":43.298037,"lon":5.381066,"is_reserved":false,"is_disabled":false,"rental_uris":{"android":"levelo://app?vid=7fc78741-c5a6-44ea-9b6c-42aaccfa1ab7","ios":"levelo://app?vid=7fc78741-c5a6-44ea-9b6c-42aaccfa1ab7"},"vehicle_type_id":"4","last_reported":1712948769,"current_range_meters":0,"station_id":"ce4bgip2rcd13ifvqbb0","pricing_plan_id":"cebpf4jnsgd1na2vs0mg"},{"bike_id":"aa178782-0987-48ba-b0b6-d5bba04a531f","system_id":"levelo_inurba_marseille","lat":43.298037,"lon":5.381066,"is_reserved":false,"is_disabled":false,"rental_uris":{"android":"levelo://app?vid=aa178782-0987-48ba-b0b6-d5bba04a531f","ios":"levelo://app?vid=aa178782-0987-48ba-b0b6-d5bba04a531f"},"vehicle_type_id":"4","last_reported":1712948769,"current_range_meters":6000,"station_id":"ce4bgip2rcd13ifvqbb0","pricing_plan_id":"cebpf4jnsgd1na2vs0mg"},{"bike_id":"e9c07c33-4f17-438f-ae49-9c14aab3d3c5","system_id":"levelo_inurba_marseille","lat":43.297974,"lon":5.380905,"is_reserved":false,"is_disabled":false,"rental_uris":{"android":"levelo://app?vid=e9c07c33-4f17-438f-ae49-9c14aab3d3c5","ios":"levelo://app?vid=e9c07c33-4f17-438f-ae49-9c14aab3d3c5"},"vehicle_type_id":"4","last_reported":1712948769,"current_range_meters":0,"station_id":"ce4bgip2rcd13ifvqbb0","pricing_plan_id":"cebpf4jnsgd1na2vs0mg"},{"bike_id":"cb931339-bad9-4ad9-bd18-afa851c52737","system_id":"levelo_inurba_marseille","lat":43.298037,"lon":5.381066,"is_reserved":false,"is_disabled":false,"rental_uris":{"android":"levelo://app?vid=cb931339-bad9-4ad9-bd18-afa851c52737","ios":"levelo://app?vid=cb931339-bad9-4ad9-bd18-afa851c52737"},"vehicle_type_id":"4","last_reported":1712948769,"current_range_meters":18800,"station_id":"ce4bgip2rcd13ifvqbb0","pricing_plan_id":"cebpf4jnsgd1na2vs0mg"},{"bike_id":"42e9ad8a-87ce-4f96-94f3-0dd09feed033","system_id":"levelo_inurba_marseille","lat":43.29577,"lon":5.37496,"is_reserved":false,"is_disabled":false,"rental_uris":{"android":"levelo://app?vid=42e9ad8a-87ce-4f96-94f3-0dd09feed033","ios":"levelo://app?vid=42e9ad8a-87ce-4f96-94f3-0dd09feed033"},"vehicle_type_id":"4","last_reported":1712948769,"current_range_meters":0,"station_id":"ce4bgh92rcd13ifvqb50","pricing_plan_id":"cebpf4jnsgd1na2vs0mg"},{"bike_id":"a6ad659c-00d5-496c-ab92-d8c1a9930c68","system_id":"levelo_inurba_marseille","lat":43.295748,"lon":5.37522,"is_reserved":false,"is_disabled":false,"rental_uris":{"android":"levelo://app?vid=a6ad659c-00d5-496c-ab92-d8c1a9930c68","ios":"levelo://app?vid=a6ad659c-00d5-496c-ab92-d8c1a9930c68"},"vehicle_type_id":"4","last_reported":1712948769,"current_range_meters":0,"station_id":"ce4bgh92rcd13ifvqb50","pricing_plan_id":"cebpf4jnsgd1na2vs0mg"},{"bike_id":"6d994eed-7d75-46d2-9db8-9515454f2438","system_id":"levelo_inurba_marseille","lat":43.29793,"lon":5.38091,"is_reserved":false,"is_disabled":false,"rental_uris":{"android":"levelo://app?vid=6d994eed-7d75-46d2-9db8-9515454f2438","ios":"levelo://app?vid=6d994eed-7d75-46d2-9db8-9515454f2438"},"vehicle_type_id":"4","last_reported":1712948769,"current_range_meters":0,"station_id":"ce4bgip2rcd13ifvqbb0","pricing_plan_id":"cebpf4jnsgd1na2vs0mg"},{"bike_id":"ef0f8fe6-6584-4509-aa94-13c51c2f3c69","system_id":"levelo_inurba_marseille","lat":43.298037,"lon":5.381066,"is_reserved":false,"is_disabled":false,"rental_uris":{"android":"levelo://app?vid=ef0f8fe6-6584-4509-aa94-13c51c2f3c69","ios":"levelo://app?vid=ef0f8fe6-6584-4509-aa94-13c51c2f3c69"},"vehicle_type_id":"4","last_reported":1712948769,"current_range_meters":14400,"station_id":"ce4bgip2rcd13ifvqbb0","pricing_plan_id":"cebpf4jnsgd1na2vs0mg"},{"bike_id":"d433836b-1887-4811-b8d9-9d121f95c189","system_id":"levelo_inurba_marseille","lat":43.298037,"lon":5.381066,"is_reserved":false,"is_disabled":false,"rental_uris":{"android":"levelo://app?vid=d433836b-1887-4811-b8d9-9d121f95c189","ios":"levelo://app?vid=d433836b-1887-4811-b8d9-9d121f95c189"},"vehicle_type_id":"4","last_reported":1712948769,"current_range_meters":0,"station_id":"ce4bgip2rcd13ifvqbb0","pricing_plan_id":"cebpf4jnsgd1na2vs0mg"},{"bike_id":"a5a2fd92-bb05-4ef8-90cb-7324e79e4b40","system_id":"levelo_inurba_marseille","lat":43.295748,"lon":5.37522,"is_reserved":false,"is_disabled":false,"rental_uris":{"android":"levelo://app?vid=a5a2fd92-bb05-4ef8-90cb-7324e79e4b40","ios":"levelo://app?vid=a5a2fd92-bb05-4ef8-90cb-7324e79e4b40"},"vehicle_type_id":"4","last_reported":1712948769,"current_range_meters":2000,"station_id":"ce4bgh92rcd13ifvqb50","pricing_plan_id":"cebpf4jnsgd1na2vs0mg"},{"bike_id":"a6a1011e-0ef3-43cc-a641-9d7b76d85a1e","system_id":"levelo_inurba_marseille","lat":43.29571,"lon":5.37514,"is_reserved":false,"is_disabled":false,"rental_uris":{"android":"levelo://app?vid=a6a1011e-0ef3-43cc-a641-9d7b76d85a1e","ios":"levelo://app?vid=a6a1011e-0ef3-43cc-a641-9d7b76d85a1e"},"vehicle_type_id":"4","last_reported":1712948769,"current_range_meters":0,"station_id":"ce4bgh92rcd13ifvqb50","pricing_plan_id":"cebpf4jnsgd1na2vs0mg"},{"bike_id":"3d59b799-7a55-42d9-bcfc-25c56c0b73d5","system_id":"levelo_inurba_marseille","lat":43.295748,"lon":5.37522,"is_reserved":false,"is_disabled":false,"rental_uris":{"android":"levelo://app?vid=3d59b799-7a55-42d9-bcfc-25c56c0b73d5","ios":"levelo://app?vid=3d59b799-7a55-42d9-bcfc-25c56c0b73d5"},"vehicle_type_id":"4","last_reported":1712948769,"current_range_meters":0,"station_id":"ce4bgh92rcd13ifvqb50","pricing_plan_id":"cebpf4jnsgd1na2vs0mg"},{"bike_id":"a3403e64-840f-429d-ace4-9923660122a0","system_id":"levelo_inurba_marseille","lat":43.29571,"lon":5.37523,"is_reserved":false,"is_disabled":false,"rental_uris":{"android":"levelo://app?vid=a3403e64-840f-429d-ace4-9923660122a0","ios":"levelo://app?vid=a3403e64-840f-429d-ace4-9923660122a0"},"vehicle_type_id":"4","last_reported":1712948769,"current_range_meters":14000,"station_id":"ce4bgh92rcd13ifvqb50","pricing_plan_id":"cebpf4jnsgd1na2vs0mg"},{"bike_id":"bd3fff4e-d628-467e-a8d1-3f28af8f5fbf","system_id":"levelo_inurba_marseille","lat":43.29559,"lon":5.37508,"is_reserved":false,"is_disabled":false,"rental_uris":{"android":"levelo://app?vid=bd3fff4e-d628-467e-a8d1-3f28af8f5fbf","ios":"levelo://app?vid=bd3fff4e-d628-467e-a8d1-3f28af8f5fbf"},"vehicle_type_id":"4","last_reported":1712948769,"current_range_meters":0,"station_id":"ce4bgh92rcd13ifvqb50","pricing_plan_id":"cebpf4jnsgd1na2vs0mg"},{"bike_id":"06d6304b-22c5-4213-8558-74ce22349713","system_id":"levelo_inurba_marseille","lat":43.296263,"lon":5.377094,"is_reserved":false,"is_disabled":false,"rental_uris":{"android":"levelo://app?vid=06d6304b-22c5-4213-8558-74ce22349713","ios":"levelo://app?vid=06d6304b-22c5-4213-8558-74ce22349713"},"vehicle_type_id":"4","last_reported":1712948769,"current_range_meters":20400,"station_id":"ce4bgi92rcd13ifvqb90","pricing_plan_id":"cebpf4jnsgd1na2vs0mg"},{"bike_id":"c664e63c-29ce-4caf-acb5-99f3e1d6c74e","system_id":"levelo_inurba_marseille","lat":43.296277,"lon":5.377108,"is_reserved":false,"is_disabled":false,"rental_uris":{"android":"levelo://app?vid=c664e63c-29ce-4caf-acb5-99f3e1d6c74e","ios":"levelo://app?vid=c664e63c-29ce-4caf-acb5-99f3e1d6c74e"},"vehicle_type_id":"4","last_reported":1712948769,"current_range_meters":0,"station_id":"ce4bgi92rcd13ifvqb90","pricing_plan_id":"cebpf4jnsgd1na2vs0mg"},{"bike_id":"4bdec6c8-81dd-4837-9ea2-11e0c2e9e151","system_id":"levelo_inurba_marseille","lat":43.298037,"lon":5.381066,"is_reserved":false,"is_disabled":false,"rental_uris":{"android":"levelo://app?vid=4bdec6c8-81dd-4837-9ea2-11e0c2e9e151","ios":"levelo://app?vid=4bdec6c8-81dd-4837-9ea2-11e0c2e9e151"},"vehicle_type_id":"4","last_reported":1712948769,"current_range_meters":0,"station_id":"ce4bgip2rcd13ifvqbb0","pricing_plan_id":"cebpf4jnsgd1na2vs0mg"},{"bike_id":"24c4c1e3-3985-47e8-97ac-10551960b047","system_id":"levelo_inurba_marseille","lat":43.296277,"lon":5.377108,"is_reserved":false,"is_disabled":false,"rental_uris":{"android":"levelo://app?vid=24c4c1e3-3985-47e8-97ac-10551960b047","ios":"levelo://app?vid=24c4c1e3-3985-47e8-97ac-10551960b047"},"vehicle_type_id":"4","last_reported":1712948769,"current_range_meters":0,"station_id":"ce4bgi92rcd13ifvqb90","pricing_plan_id":"cebpf4jnsgd1na2vs0mg"},{"bike_id":"1e43e3c0-dd17-4a35-8a50-d71dae553703","system_id":"levelo_inurba_marseille","lat":43.29605,"lon":5.37707,"is_reserved":false,"is_disabled":false,"rental_uris":{"android":"levelo://app?vid=1e43e3c0-dd17-4a35-8a50-d71dae553703","ios":"levelo://app?vid=1e43e3c0-dd17-4a35-8a50-d71dae553703"},"vehicle_type_id":"4","last_reported":1712948769,"current_range_meters":0,"station_id":"ce4bgi92rcd13ifvqb90","pricing_plan_id":"cebpf4jnsgd1na2vs0mg"},{"bike_id":"55f53b6f-6a8e-4100-974d-7b062a231f59","system_id":"levelo_inurba_marseille","lat":43.296263,"lon":5.377094,"is_reserved":false,"is_disabled":false,"rental_uris":{"android":"levelo://app?vid=55f53b6f-6a8e-4100-974d-7b062a231f59","ios":"levelo://app?vid=55f53b6f-6a8e-4100-974d-7b062a231f59"},"vehicle_type_id":"4","last_reported":1712948769,"current_range_meters":7200,"station_id":"ce4bgi92rcd13ifvqb90","pricing_plan_id":"cebpf4jnsgd1na2vs0mg"},{"bike_id":"189d9a98-2f6f-4556-94bf-4f0aa5a7d539","system_id":"levelo_inurba_marseille","lat":43.296074,"lon":5.37726,"is_reserved":false,"is_disabled":false,"rental_uris":{"android":"levelo://app?vid=189d9a98-2f6f-4556-94bf-4f0aa5a7d539","ios":"levelo://app?vid=189d9a98-2f6f-4556-94bf-4f0aa5a7d539"},"vehicle_type_id":"4","last_reported":1712948769,"current_range_meters":0,"station_id":"ce4bgi92rcd13ifvqb90","pricing_plan_id":"cebpf4jnsgd1na2vs0mg"},{"bike_id":"ffe02d82-65dc-4802-9b42-d7e2d3cba48e","system_id":"levelo_inurba_marseille","lat":43.29528,"lon":5.37449,"is_reserved":false,"is_disabled":false,"rental_uris":{"android":"levelo://app?vid=ffe02d82-65dc-4802-9b42-d7e2d3cba48e","ios":"levelo://app?vid=ffe02d82-65dc-4802-9b42-d7e2d3cba48e"},"vehicle_type_id":"4","last_reported":1712948769,"current_range_meters":0,"station_id":"ce4bgkp2rcd13ifvqbmg","pricing_plan_id":"cebpf4jnsgd1na2vs0mg"},{"bike_id":"77465f3a-b862-4165-9448-800ddd4447a1","system_id":"levelo_inurba_marseille","lat":43.29972,"lon":5.384934,"is_reserved":false,"is_disabled":false,"rental_uris":{"android":"levelo://app?vid=77465f3a-b862-4165-9448-800ddd4447a1","ios":"levelo://app?vid=77465f3a-b862-4165-9448-800ddd4447a1"},"vehicle_type_id":"4","last_reported":1712948769,"current_range_meters":0,"station_id":"ce4bgj92rcd13ifvqbd0","pricing_plan_id":"cebpf4jnsgd1na2vs0mg"},{"bike_id":"60f00e24-4356-4885-99f0-8e1ee7d6d8a6","system_id":"levelo_inurba_marseille","lat":43.29967,"lon":5.38491,"is_reserved":false,"is_disabled":false,"rental_uris":{"android":"levelo://app?vid=60f00e24-4356-4885-99f0-8e1ee7d6d8a6","ios":"levelo://app?vid=60f00e24-4356-4885-99f0-8e1ee7d6d8a6"},"vehicle_type_id":"4","last_reported":1712948769,"current_range_meters":6000,"station_id":"ce4bgj92rcd13ifvqbd0","pricing_plan_id":"cebpf4jnsgd1na2vs0mg"},{"bike_id":"52e72cb5-471c-41ee-96bb-d4755c759af5","system_id":"levelo_inurba_marseille","lat":43.295279,"lon":5.375048,"is_reserved":false,"is_disabled":false,"rental_uris":{"android":"levelo://app?vid=52e72cb5-471c-41ee-96bb-d4755c759af5","ios":"levelo://app?vid=52e72cb5-471c-41ee-96bb-d4755c759af5"},"vehicle_type_id":"4","last_reported":1712948769,"current_range_meters":0,"station_id":"ce4bgkp2rcd13ifvqbmg","pricing_plan_id":"cebpf4jnsgd1na2vs0mg"},{"bike_id":"ad52804c-688c-473c-b170-e1ede7e74202","system_id":"levelo_inurba_marseille","lat":43.299717,"lon":5.384845,"is_reserved":false,"is_disabled":false,"rental_uris":{"android":"levelo://app?vid=ad52804c-688c-473c-b170-e1ede7e74202","ios":"levelo://app?vid=ad52804c-688c-473c-b170-e1ede7e74202"},"vehicle_type_id":"4","last_reported":1712948769,"current_range_meters":400,"station_id":"ce4bgj92rcd13ifvqbd0","pricing_plan_id":"cebpf4jnsgd1na2vs0mg"},{"bike_id":"4057e055-ee30-43cc-ad36-717b2de114bd","system_id":"levelo_inurba_marseille","lat":43.299724,"lon":5.384848,"is_reserved":false,"is_disabled":false,"rental_uris":{"android":"levelo://app?vid=4057e055-ee30-43cc-ad36-717b2de114bd","ios":"levelo://app?vid=4057e055-ee30-43cc-ad36-717b2de114bd"},"vehicle_type_id":"4","last_reported":1712948769,"current_range_meters":0,"station_id":"ce4bgj92rcd13ifvqbd0","pricing_plan_id":"cebpf4jnsgd1na2vs0mg"},{"bike_id":"6a4809be-df63-467c-9aea-871bbf6073f2","system_id":"levelo_inurba_marseille","lat":43.299707,"lon":5.384859,"is_reserved":false,"is_disabled":false,"rental_uris":{"android":"levelo://app?vid=6a4809be-df63-467c-9aea-871bbf6073f2","ios":"levelo://app?vid=6a4809be-df63-467c-9aea-871bbf6073f2"},"vehicle_type_id":"4","last_reported":1712948769,"current_range_meters":400,"station_id":"ce4bgj92rcd13ifvqbd0","pricing_plan_id":"cebpf4jnsgd1na2vs0mg"},{"bike_id":"3b844a20-b9ee-4a36-b054-ca434d5f614d","system_id":"levelo_inurba_marseille","lat":43.29967,"lon":5.38503,"is_reserved":false,"is_disabled":false,"rental_uris":{"android":"levelo://app?vid=3b844a20-b9ee-4a36-b054-ca434d5f614d","ios":"levelo://app?vid=3b844a20-b9ee-4a36-b054-ca434d5f614d"},"vehicle_type_id":"4","last_reported":1712948769,"current_range_meters":20000,"station_id":"ce4bgj92rcd13ifvqbd0","pricing_plan_id":"cebpf4jnsgd1na2vs0mg"},{"bike_id":"460f3a42-9ed7-49a8-b7df-a07ecee2d3e0","system_id":"levelo_inurba_marseille","lat":43.299724,"lon":5.384848,"is_reserved":false,"is_disabled":false,"rental_uris":{"android":"levelo://app?vid=460f3a42-9ed7-49a8-b7df-a07ecee2d3e0","ios":"levelo://app?vid=460f3a42-9ed7-49a8-b7df-a07ecee2d3e0"},"vehicle_type_id":"4","last_reported":1712948769,"current_range_meters":0,"station_id":"ce4bgj92rcd13ifvqbd0","pricing_plan_id":"cebpf4jnsgd1na2vs0mg"},{"bike_id":"78c2abf1-cc1f-4b28-bcb0-234d12481091","system_id":"levelo_inurba_marseille","lat":43.32362,"lon":5.38884,"is_reserved":false,"is_disabled":false,"rental_uris":{"android":"levelo://app?vid=78c2abf1-cc1f-4b28-bcb0-234d12481091","ios":"levelo://app?vid=78c2abf1-cc1f-4b28-bcb0-234d12481091"},"vehicle_type_id":"4","last_reported":1712948769,"current_range_meters":0,"station_id":"ce4bhqp2rcd13ifvqhog","pricing_plan_id":"cebpf4jnsgd1na2vs0mg"},{"bike_id":"9a00ae2a-1c9f-4e59-b6f9-d966724d15d9","system_id":"levelo_inurba_marseille","lat":43.295279,"lon":5.375048,"is_reserved":false,"is_disabled":false,"rental_uris":{"android":"levelo://app?vid=9a00ae2a-1c9f-4e59-b6f9-d966724d15d9","ios":"levelo://app?vid=9a00ae2a-1c9f-4e59-b6f9-d966724d15d9"},"vehicle_type_id":"4","last_reported":1712948769,"current_range_meters":27600,"station_id":"ce4bgkp2rcd13ifvqbmg","pricing_plan_id":"cebpf4jnsgd1na2vs0mg"},{"bike_id":"f92879e8-6d15-46d6-a097-d8e8ae205312","system_id":"levelo_inurba_marseille","lat":43.32365,"lon":5.38888,"is_reserved":false,"is_disabled":false,"rental_uris":{"android":"levelo://app?vid=f92879e8-6d15-46d6-a097-d8e8ae205312","ios":"levelo://app?vid=f92879e8-6d15-46d6-a097-d8e8ae205312"},"vehicle_type_id":"4","last_reported":1712948769,"current_range_meters":4000,"station_id":"ce4bhqp2rcd13ifvqhog","pricing_plan_id":"cebpf4jnsgd1na2vs0mg"},{"bike_id":"fe02a49c-c55e-40d0-a225-4ae35f043698","system_id":"levelo_inurba_marseille","lat":43.32367,"lon":5.388836,"is_reserved":false,"is_disabled":false,"rental_uris":{"android":"levelo://app?vid=fe02a49c-c55e-40d0-a225-4ae35f043698","ios":"levelo://app?vid=fe02a49c-c55e-40d0-a225-4ae35f043698"},"vehicle_type_id":"4","last_reported":1712948769,"current_range_meters":0,"station_id":"ce4bhqp2rcd13ifvqhog","pricing_plan_id":"cebpf4jnsgd1na2vs0mg"},{"bike_id":"59044c88-2704-431d-afc2-bf9cc7aacbc4","system_id":"levelo_inurba_marseille","lat":43.29602,"lon":5.381084,"is_reserved":false,"is_disabled":false,"rental_uris":{"android":"levelo://app?vid=59044c88-2704-431d-afc2-bf9cc7aacbc4","ios":"levelo://app?vid=59044c88-2704-431d-afc2-bf9cc7aacbc4"},"vehicle_type_id":"4","last_reported":1712948769,"current_range_meters":3600,"station_id":"ce4bgl12rcd13ifvqbo0","pricing_plan_id":"cebpf4jnsgd1na2vs0mg"},{"bike_id":"af256b64-910a-4655-b7dc-19b4902424cb","system_id":"levelo_inurba_marseille","lat":43.29602,"lon":5.381084,"is_reserved":false,"is_disabled":false,"rental_uris":{"android":"levelo://app?vid=af256b64-910a-4655-b7dc-19b4902424cb","ios":"levelo://app?vid=af256b64-910a-4655-b7dc-19b4902424cb"},"vehicle_type_id":"4","last_reported":1712948769,"current_range_meters":7200,"station_id":"ce4bgl12rcd13ifvqbo0","pricing_plan_id":"cebpf4jnsgd1na2vs0mg"},{"bike_id":"9188750a-8179-4229-b11a-c7d30a99aa63","system_id":"levelo_inurba_marseille","lat":43.292995,"lon":5.371095,"is_reserved":false,"is_disabled":false,"rental_uris":{"android":"levelo://app?vid=9188750a-8179-4229-b11a-c7d30a99aa63","ios":"levelo://app?vid=9188750a-8179-4229-b11a-c7d30a99aa63"},"vehicle_type_id":"4","last_reported":1712948769,"current_range_meters":0,"station_id":"","pricing_plan_id":"cebpf4jnsgd1na2vs0mg"},{"bike_id":"8f3ea1b8-4336-45a7-94df-cd9899d795cc","system_id":"levelo_inurba_marseille","lat":43.29307,"lon":5.37175,"is_reserved":false,"is_disabled":false,"rental_uris":{"android":"levelo://app?vid=8f3ea1b8-4336-45a7-94df-cd9899d795cc","ios":"levelo://app?vid=8f3ea1b8-4336-45a7-94df-cd9899d795cc"},"vehicle_type_id":"4","last_reported":1712948769,"current_range_meters":0,"station_id":"ce4bgh92rcd13ifvqb40","pricing_plan_id":"cebpf4jnsgd1na2vs0mg"},{"bike_id":"678c5173-6f30-4fa6-83a1-3293dd342bcc","system_id":"levelo_inurba_marseille","lat":43.292749,"lon":5.368402,"is_reserved":false,"is_disabled":false,"rental_uris":{"android":"levelo://app?vid=678c5173-6f30-4fa6-83a1-3293dd342bcc","ios":"levelo://app?vid=678c5173-6f30-4fa6-83a1-3293dd342bcc"},"vehicle_type_id":"4","last_reported":1712948769,"current_range_meters":0,"station_id":"ce4bhbp2rcd13ifvqesg","pricing_plan_id":"cebpf4jnsgd1na2vs0mg"},{"bike_id":"354d3de3-7e10-456b-8649-661008f4290b","system_id":"levelo_inurba_marseille","lat":43.293249,"lon":5.371578,"is_reserved":false,"is_disabled":false,"rental_uris":{"android":"levelo://app?vid=354d3de3-7e10-456b-8649-661008f4290b","ios":"levelo://app?vid=354d3de3-7e10-456b-8649-661008f4290b"},"vehicle_type_id":"4","last_reported":1712948769,"current_range_meters":0,"station_id":"ce4bgh92rcd13ifvqb40","pricing_plan_id":"cebpf4jnsgd1na2vs0mg"},{"bike_id":"836134fe-5e3a-4238-a397-984fbc12033a","system_id":"levelo_inurba_marseille","lat":43.293249,"lon":5.371578,"is_reserved":false,"is_disabled":false,"rental_uris":{"android":"levelo://app?vid=836134fe-5e3a-4238-a397-984fbc12033a","ios":"levelo://app?vid=836134fe-5e3a-4238-a397-984fbc12033a"},"vehicle_type_id":"4","last_reported":1712948769,"current_range_meters":0,"station_id":"ce4bgh92rcd13ifvqb40","pricing_plan_id":"cebpf4jnsgd1na2vs0mg"},{"bike_id":"b9536f79-2f97-47ed-9709-77496d949f5d","system_id":"levelo_inurba_marseille","lat":43.293038,"lon":5.374533,"is_reserved":false,"is_disabled":false,"rental_uris":{"android":"levelo://app?vid=b9536f79-2f97-47ed-9709-77496d949f5d","ios":"levelo://app?vid=b9536f79-2f97-47ed-9709-77496d949f5d"},"vehicle_type_id":"4","last_reported":1712948769,"current_range_meters":0,"station_id":"ce4bgi12rcd13ifvqb70","pricing_plan_id":"cebpf4jnsgd1na2vs0mg"},{"bike_id":"ebddf9dc-4725-42d9-8c44-cb4b3cefd1ab","system_id":"levelo_inurba_marseille","lat":43.305994,"lon":5.393687,"is_reserved":false,"is_disabled":false,"rental_uris":{"android":"levelo://app?vid=ebddf9dc-4725-42d9-8c44-cb4b3cefd1ab","ios":"levelo://app?vid=ebddf9dc-4725-42d9-8c44-cb4b3cefd1ab"},"vehicle_type_id":"4","last_reported":1712948769,"current_range_meters":0,"station_id":"ce4bh0p2rcd13ifvqd80","pricing_plan_id":"cebpf4jnsgd1na2vs0mg"},{"bike_id":"40ec0142-b67f-45ec-b223-a8073c2e29b9","system_id":"levelo_inurba_marseille","lat":43.293009,"lon":5.374584,"is_reserved":false,"is_disabled":false,"rental_uris":{"android":"levelo://app?vid=40ec0142-b67f-45ec-b223-a8073c2e29b9","ios":"levelo://app?vid=40ec0142-b67f-45ec-b223-a8073c2e29b9"},"vehicle_type_id":"4","last_reported":1712948769,"current_range_meters":0,"station_id":"ce4bgi12rcd13ifvqb70","pricing_plan_id":"cebpf4jnsgd1na2vs0mg"},{"bike_id":"36a60d3d-6bb5-4b16-bc10-c71596a112b0","system_id":"levelo_inurba_marseille","lat":43.29292,"lon":5.37458,"is_reserved":false,"is_disabled":false,"rental_uris":{"android":"levelo://app?vid=36a60d3d-6bb5-4b16-bc10-c71596a112b0","ios":"levelo://app?vid=36a60d3d-6bb5-4b16-bc10-c71596a112b0"},"vehicle_type_id":"4","last_reported":1712948769,"current_range_meters":0,"station_id":"ce4bgi12rcd13ifvqb70","pricing_plan_id":"cebpf4jnsgd1na2vs0mg"},{"bike_id":"8db23a51-c831-4c11-a753-5c16e9330335","system_id":"levelo_inurba_marseille","lat":43.31518,"lon":5.39525,"is_reserved":false,"is_disabled":false,"rental_uris":{"android":"levelo://app?vid=8db23a51-c831-4c11-a753-5c16e9330335","ios":"levelo://app?vid=8db23a51-c831-4c11-a753-5c16e9330335"},"vehicle_type_id":"4","last_reported":1712948769,"current_range_meters":6800,"station_id":"","pricing_plan_id":"cebpf4jnsgd1na2vs0mg"},{"bike_id":"e0791a56-a4a6-40e9-8bad-9d1b421815a7","system_id":"levelo_inurba_marseille","lat":43.29385,"lon":5.378803,"is_reserved":false,"is_disabled":false,"rental_uris":{"android":"levelo://app?vid=e0791a56-a4a6-40e9-8bad-9d1b421815a7","ios":"levelo://app?vid=e0791a56-a4a6-40e9-8bad-9d1b421815a7"},"vehicle_type_id":"4","last_reported":1712948769,"current_range_meters":0,"station_id":"ce4bgjh2rcd13ifvqbf0","pricing_plan_id":"cebpf4jnsgd1na2vs0mg"},{"bike_id":"b1b90e52-bb28-4d37-a56f-4a22270b5709","system_id":"levelo_inurba_marseille","lat":43.30085,"lon":5.390856,"is_reserved":false,"is_disabled":false,"rental_uris":{"android":"levelo://app?vid=b1b90e52-bb28-4d37-a56f-4a22270b5709","ios":"levelo://app?vid=b1b90e52-bb28-4d37-a56f-4a22270b5709"},"vehicle_type_id":"4","last_reported":1712948769,"current_range_meters":11600,"station_id":"ce4bh192rcd13ifvqdb0","pricing_plan_id":"cebpf4jnsgd1na2vs0mg"},{"bike_id":"fdbfcc4c-c0c1-4d80-b0d1-c6c7324cc435","system_id":"levelo_inurba_marseille","lat":43.29157,"lon":5.37153,"is_reserved":false,"is_disabled":false,"rental_uris":{"android":"levelo://app?vid=fdbfcc4c-c0c1-4d80-b0d1-c6c7324cc435","ios":"levelo://app?vid=fdbfcc4c-c0c1-4d80-b0d1-c6c7324cc435"},"vehicle_type_id":"4","last_reported":1712948769,"current_range_meters":0,"station_id":"ce4bha92rcd13ifvqeh0","pricing_plan_id":"cebpf4jnsgd1na2vs0mg"},{"bike_id":"2397688c-6d80-47d4-a6a7-cfda44fbc2b1","system_id":"levelo_inurba_marseille","lat":43.31331,"lon":5.39686,"is_reserved":false,"is_disabled":false,"rental_uris":{"android":"levelo://app?vid=2397688c-6d80-47d4-a6a7-cfda44fbc2b1","ios":"levelo://app?vid=2397688c-6d80-47d4-a6a7-cfda44fbc2b1"},"vehicle_type_id":"4","last_reported":1712948769,"current_range_meters":11600,"station_id":"ce4bgvp2rcd13ifvqcu0","pricing_plan_id":"cebpf4jnsgd1na2vs0mg"},{"bike_id":"e2fcb3f6-55de-4794-9888-697ce284073b","system_id":"levelo_inurba_marseille","lat":43.292005,"lon":5.357875,"is_reserved":false,"is_disabled":false,"rental_uris":{"android":"levelo://app?vid=e2fcb3f6-55de-4794-9888-697ce284073b","ios":"levelo://app?vid=e2fcb3f6-55de-4794-9888-697ce284073b"},"vehicle_type_id":"4","last_reported":1712948769,"current_range_meters":0,"station_id":"ce4bhb12rcd13ifvqel0","pricing_plan_id":"cebpf4jnsgd1na2vs0mg"},{"bike_id":"59d11e35-dba7-45e3-9763-36848ea0e4e4","system_id":"levelo_inurba_marseille","lat":43.313291,"lon":5.396838,"is_reserved":false,"is_disabled":false,"rental_uris":{"android":"levelo://app?vid=59d11e35-dba7-45e3-9763-36848ea0e4e4","ios":"levelo://app?vid=59d11e35-dba7-45e3-9763-36848ea0e4e4"},"vehicle_type_id":"4","last_reported":1712948769,"current_range_meters":18000,"station_id":"ce4bgvp2rcd13ifvqcu0","pricing_plan_id":"cebpf4jnsgd1na2vs0mg"},{"bike_id":"5ebe0251-3709-4060-b643-9a655be0fc36","system_id":"levelo_inurba_marseille","lat":43.291994,"lon":5.357886,"is_reserved":false,"is_disabled":false,"rental_uris":{"android":"levelo://app?vid=5ebe0251-3709-4060-b643-9a655be0fc36","ios":"levelo://app?vid=5ebe0251-3709-4060-b643-9a655be0fc36"},"vehicle_type_id":"4","last_reported":1712948769,"current_range_meters":0,"station_id":"ce4bhb12rcd13ifvqel0","pricing_plan_id":"cebpf4jnsgd1na2vs0mg"},{"bike_id":"8dd8c3cb-eeb2-4f74-a7cf-f1b82037c930","system_id":"levelo_inurba_marseille","lat":43.296277,"lon":5.377108,"is_reserved":false,"is_disabled":false,"rental_uris":{"android":"levelo://app?vid=8dd8c3cb-eeb2-4f74-a7cf-f1b82037c930","ios":"levelo://app?vid=8dd8c3cb-eeb2-4f74-a7cf-f1b82037c930"},"vehicle_type_id":"4","last_reported":1712948769,"current_range_meters":0,"station_id":"ce4bgi92rcd13ifvqb90","pricing_plan_id":"cebpf4jnsgd1na2vs0mg"},{"bike_id":"067acf3e-7713-4e79-a9ca-d9c321ee4778","system_id":"levelo_inurba_marseille","lat":43.29185,"lon":5.35808,"is_reserved":false,"is_disabled":false,"rental_uris":{"android":"levelo://app?vid=067acf3e-7713-4e79-a9ca-d9c321ee4778","ios":"levelo://app?vid=067acf3e-7713-4e79-a9ca-d9c321ee4778"},"vehicle_type_id":"4","last_reported":1712948769,"current_range_meters":0,"station_id":"ce4bhb12rcd13ifvqel0","pricing_plan_id":"cebpf4jnsgd1na2vs0mg"},{"bike_id":"b3afa7ad-ec3c-47b8-a275-c8a6cd354115","system_id":"levelo_inurba_marseille","lat":43.291994,"lon":5.357886,"is_reserved":false,"is_disabled":false,"rental_uris":{"android":"levelo://app?vid=b3afa7ad-ec3c-47b8-a275-c8a6cd354115","ios":"levelo://app?vid=b3afa7ad-ec3c-47b8-a275-c8a6cd354115"},"vehicle_type_id":"4","last_reported":1712948769,"current_range_meters":0,"station_id":"ce4bhb12rcd13ifvqel0","pricing_plan_id":"cebpf4jnsgd1na2vs0mg"},{"bike_id":"bd8b0ec4-8b90-4914-83f8-be279a3eb7cd","system_id":"levelo_inurba_marseille","lat":43.291786,"lon":5.358053,"is_reserved":false,"is_disabled":false,"rental_uris":{"android":"levelo://app?vid=bd8b0ec4-8b90-4914-83f8-be279a3eb7cd","ios":"levelo://app?vid=bd8b0ec4-8b90-4914-83f8-be279a3eb7cd"},"vehicle_type_id":"4","last_reported":1712948769,"current_range_meters":0,"station_id":"ce4bhb12rcd13ifvqel0","pricing_plan_id":"cebpf4jnsgd1na2vs0mg"},{"bike_id":"e95fe647-da7b-4c2d-ab74-595a77e20de2","system_id":"levelo_inurba_marseille","lat":43.29538,"lon":5.3854,"is_reserved":false,"is_disabled":false,"rental_uris":{"android":"levelo://app?vid=e95fe647-da7b-4c2d-ab74-595a77e20de2","ios":"levelo://app?vid=e95fe647-da7b-4c2d-ab74-595a77e20de2"},"vehicle_type_id":"4","last_reported":1712948769,"current_range_meters":0,"station_id":"ce4bgih2rcd13ifvqba0","pricing_plan_id":"cebpf4jnsgd1na2vs0mg"},{"bike_id":"b4df95cd-e653-4663-9189-5201eb468cc7","system_id":"levelo_inurba_marseille","lat":43.29527,"lon":5.385287,"is_reserved":false,"is_disabled":false,"rental_uris":{"android":"levelo://app?vid=b4df95cd-e653-4663-9189-5201eb468cc7","ios":"levelo://app?vid=b4df95cd-e653-4663-9189-5201eb468cc7"},"vehicle_type_id":"4","last_reported":1712948769,"current_range_meters":18400,"station_id":"ce4bgih2rcd13ifvqba0","pricing_plan_id":"cebpf4jnsgd1na2vs0mg"},{"bike_id":"ce3598e7-84f7-42e4-bfb7-fe27519caf9f","system_id":"levelo_inurba_marseille","lat":43.29539,"lon":5.38554,"is_reserved":false,"is_disabled":false,"rental_uris":{"android":"levelo://app?vid=ce3598e7-84f7-42e4-bfb7-fe27519caf9f","ios":"levelo://app?vid=ce3598e7-84f7-42e4-bfb7-fe27519caf9f"},"vehicle_type_id":"4","last_reported":1712948769,"current_range_meters":0,"station_id":"ce4bgih2rcd13ifvqba0","pricing_plan_id":"cebpf4jnsgd1na2vs0mg"},{"bike_id":"e215e887-dd15-44e3-a04a-bab608c7d9cc","system_id":"levelo_inurba_marseille","lat":43.290387,"lon":5.366323,"is_reserved":false,"is_disabled":false,"rental_uris":{"android":"levelo://app?vid=e215e887-dd15-44e3-a04a-bab608c7d9cc","ios":"levelo://app?vid=e215e887-dd15-44e3-a04a-bab608c7d9cc"},"vehicle_type_id":"4","last_reported":1712948769,"current_range_meters":0,"station_id":"ce4bhap2rcd13ifvqek0","pricing_plan_id":"cebpf4jnsgd1na2vs0mg"},{"bike_id":"c0298621-a3a2-4ed1-a12e-dd94d8bc8505","system_id":"levelo_inurba_marseille","lat":43.29054,"lon":5.37154,"is_reserved":false,"is_disabled":false,"rental_uris":{"android":"levelo://app?vid=c0298621-a3a2-4ed1-a12e-dd94d8bc8505","ios":"levelo://app?vid=c0298621-a3a2-4ed1-a12e-dd94d8bc8505"},"vehicle_type_id":"4","last_reported":1712948769,"current_range_meters":0,"station_id":"ce4bh5p2rcd13ifvqe4g","pricing_plan_id":"cebpf4jnsgd1na2vs0mg"},{"bike_id":"bbc9e26a-7c39-4b47-91df-ed612831f88c","system_id":"levelo_inurba_marseille","lat":43.303002,"lon":5.392142,"is_reserved":false,"is_disabled":false,"rental_uris":{"android":"levelo://app?vid=bbc9e26a-7c39-4b47-91df-ed612831f88c","ios":"levelo://app?vid=bbc9e26a-7c39-4b47-91df-ed612831f88c"},"vehicle_type_id":"4","last_reported":1712948769,"current_range_meters":0,"station_id":"ce4bgkh2rcd13ifvqbk0","pricing_plan_id":"cebpf4jnsgd1na2vs0mg"},{"bike_id":"3e4fe3f6-4a7f-4a9f-8a1f-4f04242c853f","system_id":"levelo_inurba_marseille","lat":43.302992,"lon":5.392136,"is_reserved":false,"is_disabled":false,"rental_uris":{"android":"levelo://app?vid=3e4fe3f6-4a7f-4a9f-8a1f-4f04242c853f","ios":"levelo://app?vid=3e4fe3f6-4a7f-4a9f-8a1f-4f04242c853f"},"vehicle_type_id":"4","last_reported":1712948769,"current_range_meters":8000,"station_id":"ce4bgkh2rcd13ifvqbk0","pricing_plan_id":"cebpf4jnsgd1na2vs0mg"},{"bike_id":"eea54417-5c27-4cbd-8195-9fcb031efcc5","system_id":"levelo_inurba_marseille","lat":43.30211,"lon":5.39458,"is_reserved":false,"is_disabled":false,"rental_uris":{"android":"levelo://app?vid=eea54417-5c27-4cbd-8195-9fcb031efcc5","ios":"levelo://app?vid=eea54417-5c27-4cbd-8195-9fcb031efcc5"},"vehicle_type_id":"4","last_reported":1712948769,"current_range_meters":0,"station_id":"ce4bh0p2rcd13ifvqd70","pricing_plan_id":"cebpf4jnsgd1na2vs0mg"},{"bike_id":"81cfba5e-b6d9-4fac-8fc9-c8e7094de355","system_id":"levelo_inurba_marseille","lat":43.30212,"lon":5.39461,"is_reserved":false,"is_disabled":false,"rental_uris":{"android":"levelo://app?vid=81cfba5e-b6d9-4fac-8fc9-c8e7094de355","ios":"levelo://app?vid=81cfba5e-b6d9-4fac-8fc9-c8e7094de355"},"vehicle_type_id":"4","last_reported":1712948769,"current_range_meters":0,"station_id":"ce4bh0p2rcd13ifvqd70","pricing_plan_id":"cebpf4jnsgd1na2vs0mg"},{"bike_id":"dfb8c76d-3447-45ca-b769-062cb70f40f4","system_id":"levelo_inurba_marseille","lat":43.302008,"lon":5.394694,"is_reserved":false,"is_disabled":false,"rental_uris":{"android":"levelo://app?vid=dfb8c76d-3447-45ca-b769-062cb70f40f4","ios":"levelo://app?vid=dfb8c76d-3447-45ca-b769-062cb70f40f4"},"vehicle_type_id":"4","last_reported":1712948769,"current_range_meters":0,"station_id":"ce4bh0p2rcd13ifvqd70","pricing_plan_id":"cebpf4jnsgd1na2vs0mg"},{"bike_id":"b8125401-0d8d-4106-98e9-26066e62d019","system_id":"levelo_inurba_marseille","lat":43.294153,"lon":5.386305,"is_reserved":false,"is_disabled":false,"rental_uris":{"android":"levelo://app?vid=b8125401-0d8d-4106-98e9-26066e62d019","ios":"levelo://app?vid=b8125401-0d8d-4106-98e9-26066e62d019"},"vehicle_type_id":"4","last_reported":1712948769,"current_range_meters":0,"station_id":"ce4bh2h2rcd13ifvqdh0","pricing_plan_id":"cebpf4jnsgd1na2vs0mg"},{"bike_id":"ab8f67b3-1e06-432d-8f79-15c4b830ba62","system_id":"levelo_inurba_marseille","lat":43.294314,"lon":5.397498,"is_reserved":false,"is_disabled":false,"rental_uris":{"android":"levelo://app?vid=ab8f67b3-1e06-432d-8f79-15c4b830ba62","ios":"levelo://app?vid=ab8f67b3-1e06-432d-8f79-15c4b830ba62"},"vehicle_type_id":"4","last_reported":1712948769,"current_range_meters":14000,"station_id":"ce4bh3h2rcd13ifvqdo0","pricing_plan_id":"cebpf4jnsgd1na2vs0mg"},{"bike_id":"643a01ed-5446-4857-9114-95c3f452be89","system_id":"levelo_inurba_marseille","lat":43.29419,"lon":5.38619,"is_reserved":false,"is_disabled":false,"rental_uris":{"android":"levelo://app?vid=643a01ed-5446-4857-9114-95c3f452be89","ios":"levelo://app?vid=643a01ed-5446-4857-9114-95c3f452be89"},"vehicle_type_id":"4","last_reported":1712948769,"current_range_meters":0,"station_id":"ce4bh2h2rcd13ifvqdh0","pricing_plan_id":"cebpf4jnsgd1na2vs0mg"},{"bike_id":"de552ee5-6b84-4197-8c34-1af3c39b663a","system_id":"levelo_inurba_marseille","lat":43.29421,"lon":5.386253,"is_reserved":false,"is_disabled":false,"rental_uris":{"android":"levelo://app?vid=de552ee5-6b84-4197-8c34-1af3c39b663a","ios":"levelo://app?vid=de552ee5-6b84-4197-8c34-1af3c39b663a"},"vehicle_type_id":"4","last_reported":1712948769,"current_range_meters":0,"station_id":"ce4bh2h2rcd13ifvqdh0","pricing_plan_id":"cebpf4jnsgd1na2vs0mg"},{"bike_id":"ea710b33-a0b3-4463-a503-856db4480784","system_id":"levelo_inurba_marseille","lat":43.294232,"lon":5.386301,"is_reserved":false,"is_disabled":false,"rental_uris":{"android":"levelo://app?vid=ea710b33-a0b3-4463-a503-856db4480784","ios":"levelo://app?vid=ea710b33-a0b3-4463-a503-856db4480784"},"vehicle_type_id":"4","last_reported":1712948769,"current_range_meters":2800,"station_id":"ce4bh2h2rcd13ifvqdh0","pricing_plan_id":"cebpf4jnsgd1na2vs0mg"},{"bike_id":"befb64b0-5951-49ab-b1b5-76d0fe2c098b","system_id":"levelo_inurba_marseille","lat":43.29415,"lon":5.3862,"is_reserved":false,"is_disabled":false,"rental_uris":{"android":"levelo://app?vid=befb64b0-5951-49ab-b1b5-76d0fe2c098b","ios":"levelo://app?vid=befb64b0-5951-49ab-b1b5-76d0fe2c098b"},"vehicle_type_id":"4","last_reported":1712948769,"current_range_meters":0,"station_id":"ce4bh2h2rcd13ifvqdh0","pricing_plan_id":"cebpf4jnsgd1na2vs0mg"},{"bike_id":"19eede97-aee2-40fa-9678-d1d45cd5cea3","system_id":"levelo_inurba_marseille","lat":43.294162,"lon":5.386292,"is_reserved":false,"is_disabled":false,"rental_uris":{"android":"levelo://app?vid=19eede97-aee2-40fa-9678-d1d45cd5cea3","ios":"levelo://app?vid=19eede97-aee2-40fa-9678-d1d45cd5cea3"},"vehicle_type_id":"4","last_reported":1712948769,"current_range_meters":800,"station_id":"ce4bh2h2rcd13ifvqdh0","pricing_plan_id":"cebpf4jnsgd1na2vs0mg"},{"bike_id":"64101a31-c0a1-45fa-9a9f-efdd3a242839","system_id":"levelo_inurba_marseille","lat":43.29037,"lon":5.37583,"is_reserved":false,"is_disabled":false,"rental_uris":{"android":"levelo://app?vid=64101a31-c0a1-45fa-9a9f-efdd3a242839","ios":"levelo://app?vid=64101a31-c0a1-45fa-9a9f-efdd3a242839"},"vehicle_type_id":"4","last_reported":1712948769,"current_range_meters":400,"station_id":"ce4bh692rcd13ifvqe90","pricing_plan_id":"cebpf4jnsgd1na2vs0mg"},{"bike_id":"89329170-ab55-49b8-9a62-64e647e065b5","system_id":"levelo_inurba_marseille","lat":43.294166,"lon":5.386274,"is_reserved":false,"is_disabled":false,"rental_uris":{"android":"levelo://app?vid=89329170-ab55-49b8-9a62-64e647e065b5","ios":"levelo://app?vid=89329170-ab55-49b8-9a62-64e647e065b5"},"vehicle_type_id":"4","last_reported":1712948769,"current_range_meters":0,"station_id":"ce4bh2h2rcd13ifvqdh0","pricing_plan_id":"cebpf4jnsgd1na2vs0mg"},{"bike_id":"fc2fb8b3-939f-4334-926a-bed9e5716320","system_id":"levelo_inurba_marseille","lat":43.29419,"lon":5.38632,"is_reserved":false,"is_disabled":false,"rental_uris":{"android":"levelo://app?vid=fc2fb8b3-939f-4334-926a-bed9e5716320","ios":"levelo://app?vid=fc2fb8b3-939f-4334-926a-bed9e5716320"},"vehicle_type_id":"4","last_reported":1712948769,"current_range_meters":0,"station_id":"ce4bh2h2rcd13ifvqdh0","pricing_plan_id":"cebpf4jnsgd1na2vs0mg"},{"bike_id":"04e2da91-07bf-4f61-b13f-45d8666b881c","system_id":"levelo_inurba_marseille","lat":43.29411,"lon":5.3862,"is_reserved":false,"is_disabled":false,"rental_uris":{"android":"levelo://app?vid=04e2da91-07bf-4f61-b13f-45d8666b881c","ios":"levelo://app?vid=04e2da91-07bf-4f61-b13f-45d8666b881c"},"vehicle_type_id":"4","last_reported":1712948769,"current_range_meters":0,"station_id":"ce4bh2h2rcd13ifvqdh0","pricing_plan_id":"cebpf4jnsgd1na2vs0mg"},{"bike_id":"7d976dfa-9f6d-40cb-a24c-b7eb245fc2a6","system_id":"levelo_inurba_marseille","lat":43.28942,"lon":5.36637,"is_reserved":false,"is_disabled":false,"rental_uris":{"android":"levelo://app?vid=7d976dfa-9f6d-40cb-a24c-b7eb245fc2a6","ios":"levelo://app?vid=7d976dfa-9f6d-40cb-a24c-b7eb245fc2a6"},"vehicle_type_id":"4","last_reported":1712948769,"current_range_meters":0,"station_id":"ce4bhap2rcd13ifvqek0","pricing_plan_id":"cebpf4jnsgd1na2vs0mg"},{"bike_id":"5bb9fcab-ab0e-4aac-a41f-3c9be67a9866","system_id":"levelo_inurba_marseille","lat":43.294162,"lon":5.386292,"is_reserved":false,"is_disabled":false,"rental_uris":{"android":"levelo://app?vid=5bb9fcab-ab0e-4aac-a41f-3c9be67a9866","ios":"levelo://app?vid=5bb9fcab-ab0e-4aac-a41f-3c9be67a9866"},"vehicle_type_id":"4","last_reported":1712948769,"current_range_meters":0,"station_id":"ce4bh2h2rcd13ifvqdh0","pricing_plan_id":"cebpf4jnsgd1na2vs0mg"},{"bike_id":"e93dba11-29ea-489e-aa68-79002c97c8be","system_id":"levelo_inurba_marseille","lat":43.294132,"lon":5.386288,"is_reserved":false,"is_disabled":false,"rental_uris":{"android":"levelo://app?vid=e93dba11-29ea-489e-aa68-79002c97c8be","ios":"levelo://app?vid=e93dba11-29ea-489e-aa68-79002c97c8be"},"vehicle_type_id":"4","last_reported":1712948769,"current_range_meters":0,"station_id":"ce4bh2h2rcd13ifvqdh0","pricing_plan_id":"cebpf4jnsgd1na2vs0mg"},{"bike_id":"57d5d154-ede2-4af3-b2a0-e6658763008d","system_id":"levelo_inurba_marseille","lat":43.294117,"lon":5.386277,"is_reserved":false,"is_disabled":false,"rental_uris":{"android":"levelo://app?vid=57d5d154-ede2-4af3-b2a0-e6658763008d","ios":"levelo://app?vid=57d5d154-ede2-4af3-b2a0-e6658763008d"},"vehicle_type_id":"4","last_reported":1712948769,"current_range_meters":0,"station_id":"ce4bh2h2rcd13ifvqdh0","pricing_plan_id":"cebpf4jnsgd1na2vs0mg"},{"bike_id":"c5830832-f684-448d-ad79-a5be09c419df","system_id":"levelo_inurba_marseille","lat":43.2941,"lon":5.38631,"is_reserved":false,"is_disabled":false,"rental_uris":{"android":"levelo://app?vid=c5830832-f684-448d-ad79-a5be09c419df","ios":"levelo://app?vid=c5830832-f684-448d-ad79-a5be09c419df"},"vehicle_type_id":"4","last_reported":1712948769,"current_range_meters":22000,"station_id":"ce4bh2h2rcd13ifvqdh0","pricing_plan_id":"cebpf4jnsgd1na2vs0mg"},{"bike_id":"99f307c4-19ce-433a-806c-9c744a5300ad","system_id":"levelo_inurba_marseille","lat":43.2941,"lon":5.38632,"is_reserved":false,"is_disabled":false,"rental_uris":{"android":"levelo://app?vid=99f307c4-19ce-433a-806c-9c744a5300ad","ios":"levelo://app?vid=99f307c4-19ce-433a-806c-9c744a5300ad"},"vehicle_type_id":"4","last_reported":1712948769,"current_range_meters":10000,"station_id":"ce4bh2h2rcd13ifvqdh0","pricing_plan_id":"cebpf4jnsgd1na2vs0mg"},{"bike_id":"cd7e9fdd-dd68-4f81-97a1-a3505542dcaf","system_id":"levelo_inurba_marseille","lat":43.289184,"lon":5.366408,"is_reserved":false,"is_disabled":false,"rental_uris":{"android":"levelo://app?vid=cd7e9fdd-dd68-4f81-97a1-a3505542dcaf","ios":"levelo://app?vid=cd7e9fdd-dd68-4f81-97a1-a3505542dcaf"},"vehicle_type_id":"4","last_reported":1712948769,"current_range_meters":0,"station_id":"ce4bhap2rcd13ifvqek0","pricing_plan_id":"cebpf4jnsgd1na2vs0mg"},{"bike_id":"79b031fe-f4a8-44cc-b538-ef0a7c8f39ae","system_id":"levelo_inurba_marseille","lat":43.289184,"lon":5.366408,"is_reserved":false,"is_disabled":false,"rental_uris":{"android":"levelo://app?vid=79b031fe-f4a8-44cc-b538-ef0a7c8f39ae","ios":"levelo://app?vid=79b031fe-f4a8-44cc-b538-ef0a7c8f39ae"},"vehicle_type_id":"4","last_reported":1712948769,"current_range_meters":0,"station_id":"ce4bhap2rcd13ifvqek0","pricing_plan_id":"cebpf4jnsgd1na2vs0mg"},{"bike_id":"e6ce9407-952f-4aad-bc8e-17bffbcbcc1a","system_id":"levelo_inurba_marseille","lat":43.28928,"lon":5.36632,"is_reserved":false,"is_disabled":false,"rental_uris":{"android":"levelo://app?vid=e6ce9407-952f-4aad-bc8e-17bffbcbcc1a","ios":"levelo://app?vid=e6ce9407-952f-4aad-bc8e-17bffbcbcc1a"},"vehicle_type_id":"4","last_reported":1712948769,"current_range_meters":0,"station_id":"ce4bhap2rcd13ifvqek0","pricing_plan_id":"cebpf4jnsgd1na2vs0mg"},{"bike_id":"a6d03044-5f55-48a2-80fc-267d75eb5dc4","system_id":"levelo_inurba_marseille","lat":43.289277,"lon":5.366435,"is_reserved":false,"is_disabled":false,"rental_uris":{"android":"levelo://app?vid=a6d03044-5f55-48a2-80fc-267d75eb5dc4","ios":"levelo://app?vid=a6d03044-5f55-48a2-80fc-267d75eb5dc4"},"vehicle_type_id":"4","last_reported":1712948769,"current_range_meters":8800,"station_id":"ce4bhap2rcd13ifvqek0","pricing_plan_id":"cebpf4jnsgd1na2vs0mg"},{"bike_id":"a9e0cf09-8e8b-40a6-a616-b61fa4489801","system_id":"levelo_inurba_marseille","lat":43.289468,"lon":5.363719,"is_reserved":false,"is_disabled":false,"rental_uris":{"android":"levelo://app?vid=a9e0cf09-8e8b-40a6-a616-b61fa4489801","ios":"levelo://app?vid=a9e0cf09-8e8b-40a6-a616-b61fa4489801"},"vehicle_type_id":"4","last_reported":1712948769,"current_range_meters":0,"station_id":"ce4bhc92rcd13ifvqetg","pricing_plan_id":"cebpf4jnsgd1na2vs0mg"},{"bike_id":"1726d2c2-bf74-42e2-a79d-9573df07d23c","system_id":"levelo_inurba_marseille","lat":43.296921,"lon":5.376579,"is_reserved":false,"is_disabled":false,"rental_uris":{"android":"levelo://app?vid=1726d2c2-bf74-42e2-a79d-9573df07d23c","ios":"levelo://app?vid=1726d2c2-bf74-42e2-a79d-9573df07d23c"},"vehicle_type_id":"4","last_reported":1712948769,"current_range_meters":7600,"station_id":"ce4bgkh2rcd13ifvqbl0","pricing_plan_id":"cebpf4jnsgd1na2vs0mg"},{"bike_id":"2474db0b-27af-4807-bb7c-5e495a6f8f8f","system_id":"levelo_inurba_marseille","lat":43.292644,"lon":5.384257,"is_reserved":false,"is_disabled":false,"rental_uris":{"android":"levelo://app?vid=2474db0b-27af-4807-bb7c-5e495a6f8f8f","ios":"levelo://app?vid=2474db0b-27af-4807-bb7c-5e495a6f8f8f"},"vehicle_type_id":"4","last_reported":1712948769,"current_range_meters":0,"station_id":"ce4bh692rcd13ifvqea0","pricing_plan_id":"cebpf4jnsgd1na2vs0mg"},{"bike_id":"13cc0629-b54d-4791-8b34-5ce5b0ec84c4","system_id":"levelo_inurba_marseille","lat":43.29278,"lon":5.3846,"is_reserved":false,"is_disabled":false,"rental_uris":{"android":"levelo://app?vid=13cc0629-b54d-4791-8b34-5ce5b0ec84c4","ios":"levelo://app?vid=13cc0629-b54d-4791-8b34-5ce5b0ec84c4"},"vehicle_type_id":"4","last_reported":1712948769,"current_range_meters":0,"station_id":"ce4bh692rcd13ifvqea0","pricing_plan_id":"cebpf4jnsgd1na2vs0mg"},{"bike_id":"55b6525e-1dd2-4ce1-bed1-2c2f0ac5adf3","system_id":"levelo_inurba_marseille","lat":43.29273,"lon":5.38456,"is_reserved":false,"is_disabled":false,"rental_uris":{"android":"levelo://app?vid=55b6525e-1dd2-4ce1-bed1-2c2f0ac5adf3","ios":"levelo://app?vid=55b6525e-1dd2-4ce1-bed1-2c2f0ac5adf3"},"vehicle_type_id":"4","last_reported":1712948769,"current_range_meters":21600,"station_id":"ce4bh692rcd13ifvqea0","pricing_plan_id":"cebpf4jnsgd1na2vs0mg"},{"bike_id":"f5f55ec4-ca31-4a69-bb44-227d5e428761","system_id":"levelo_inurba_marseille","lat":43.292648,"lon":5.38439,"is_reserved":false,"is_disabled":false,"rental_uris":{"android":"levelo://app?vid=f5f55ec4-ca31-4a69-bb44-227d5e428761","ios":"levelo://app?vid=f5f55ec4-ca31-4a69-bb44-227d5e428761"},"vehicle_type_id":"4","last_reported":1712948769,"current_range_meters":12000,"station_id":"ce4bh692rcd13ifvqea0","pricing_plan_id":"cebpf4jnsgd1na2vs0mg"},{"bike_id":"377ba472-f9a9-45a0-8d28-2230eea8f498","system_id":"levelo_inurba_marseille","lat":43.29267,"lon":5.38445,"is_reserved":false,"is_disabled":false,"rental_uris":{"android":"levelo://app?vid=377ba472-f9a9-45a0-8d28-2230eea8f498","ios":"levelo://app?vid=377ba472-f9a9-45a0-8d28-2230eea8f498"},"vehicle_type_id":"4","last_reported":1712948769,"current_range_meters":12000,"station_id":"ce4bh692rcd13ifvqea0","pricing_plan_id":"cebpf4jnsgd1na2vs0mg"},{"bike_id":"a675528b-8ce7-48b6-bc6c-d41ccd861875","system_id":"levelo_inurba_marseille","lat":43.292657,"lon":5.384433,"is_reserved":false,"is_disabled":false,"rental_uris":{"android":"levelo://app?vid=a675528b-8ce7-48b6-bc6c-d41ccd861875","ios":"levelo://app?vid=a675528b-8ce7-48b6-bc6c-d41ccd861875"},"vehicle_type_id":"4","last_reported":1712948769,"current_range_meters":0,"station_id":"ce4bh692rcd13ifvqea0","pricing_plan_id":"cebpf4jnsgd1na2vs0mg"},{"bike_id":"c4a810e4-39d4-4697-b6cf-680fad22d5e8","system_id":"levelo_inurba_marseille","lat":43.2926,"lon":5.38432,"is_reserved":false,"is_disabled":false,"rental_uris":{"android":"levelo://app?vid=c4a810e4-39d4-4697-b6cf-680fad22d5e8","ios":"levelo://app?vid=c4a810e4-39d4-4697-b6cf-680fad22d5e8"},"vehicle_type_id":"4","last_reported":1712948769,"current_range_meters":0,"station_id":"ce4bh692rcd13ifvqea0","pricing_plan_id":"cebpf4jnsgd1na2vs0mg"},{"bike_id":"f9e06589-7c88-42ae-91ff-ed49174021e5","system_id":"levelo_inurba_marseille","lat":43.29261,"lon":5.38439,"is_reserved":false,"is_disabled":false,"rental_uris":{"android":"levelo://app?vid=f9e06589-7c88-42ae-91ff-ed49174021e5","ios":"levelo://app?vid=f9e06589-7c88-42ae-91ff-ed49174021e5"},"vehicle_type_id":"4","last_reported":1712948769,"current_range_meters":0,"station_id":"ce4bh692rcd13ifvqea0","pricing_plan_id":"cebpf4jnsgd1na2vs0mg"},{"bike_id":"9b1af769-5fcf-4dd4-aa07-83c67bf8f7e8","system_id":"levelo_inurba_marseille","lat":43.29257,"lon":5.38433,"is_reserved":false,"is_disabled":false,"rental_uris":{"android":"levelo://app?vid=9b1af769-5fcf-4dd4-aa07-83c67bf8f7e8","ios":"levelo://app?vid=9b1af769-5fcf-4dd4-aa07-83c67bf8f7e8"},"vehicle_type_id":"4","last_reported":1712948769,"current_range_meters":0,"station_id":"ce4bh692rcd13ifvqea0","pricing_plan_id":"cebpf4jnsgd1na2vs0mg"},{"bike_id":"b5e57ef2-9069-4e3d-b31d-e0034e1a830a","system_id":"levelo_inurba_marseille","lat":43.29264,"lon":5.38449,"is_reserved":false,"is_disabled":false,"rental_uris":{"android":"levelo://app?vid=b5e57ef2-9069-4e3d-b31d-e0034e1a830a","ios":"levelo://app?vid=b5e57ef2-9069-4e3d-b31d-e0034e1a830a"},"vehicle_type_id":"4","last_reported":1712948769,"current_range_meters":19200,"station_id":"ce4bh692rcd13ifvqea0","pricing_plan_id":"cebpf4jnsgd1na2vs0mg"},{"bike_id":"be522965-508b-48dc-af37-c1adf6236284","system_id":"levelo_inurba_marseille","lat":43.292652,"lon":5.384565,"is_reserved":false,"is_disabled":false,"rental_uris":{"android":"levelo://app?vid=be522965-508b-48dc-af37-c1adf6236284","ios":"levelo://app?vid=be522965-508b-48dc-af37-c1adf6236284"},"vehicle_type_id":"4","last_reported":1712948769,"current_range_meters":0,"station_id":"ce4bh692rcd13ifvqea0","pricing_plan_id":"cebpf4jnsgd1na2vs0mg"},{"bike_id":"bb8de010-9c80-4b6d-aa68-3df192ed7974","system_id":"levelo_inurba_marseille","lat":43.29259,"lon":5.38444,"is_reserved":false,"is_disabled":false,"rental_uris":{"android":"levelo://app?vid=bb8de010-9c80-4b6d-aa68-3df192ed7974","ios":"levelo://app?vid=bb8de010-9c80-4b6d-aa68-3df192ed7974"},"vehicle_type_id":"4","last_reported":1712948769,"current_range_meters":0,"station_id":"ce4bh692rcd13ifvqea0","pricing_plan_id":"cebpf4jnsgd1na2vs0mg"},{"bike_id":"3697205e-93e1-41f7-bcc1-2b8d218d8183","system_id":"levelo_inurba_marseille","lat":43.29261,"lon":5.384493,"is_reserved":false,"is_disabled":false,"rental_uris":{"android":"levelo://app?vid=3697205e-93e1-41f7-bcc1-2b8d218d8183","ios":"levelo://app?vid=3697205e-93e1-41f7-bcc1-2b8d218d8183"},"vehicle_type_id":"4","last_reported":1712948769,"current_range_meters":0,"station_id":"ce4bh692rcd13ifvqea0","pricing_plan_id":"cebpf4jnsgd1na2vs0mg"},{"bike_id":"b1c82a1e-daf7-43ec-ba59-2b5bcf4ca258","system_id":"levelo_inurba_marseille","lat":43.29025,"lon":5.378294,"is_reserved":false,"is_disabled":false,"rental_uris":{"android":"levelo://app?vid=b1c82a1e-daf7-43ec-ba59-2b5bcf4ca258","ios":"levelo://app?vid=b1c82a1e-daf7-43ec-ba59-2b5bcf4ca258"},"vehicle_type_id":"4","last_reported":1712948769,"current_range_meters":0,"station_id":"","pricing_plan_id":"cebpf4jnsgd1na2vs0mg"},{"bike_id":"62fdaf7d-44a9-4c1a-bbcd-447a0605d9d9","system_id":"levelo_inurba_marseille","lat":43.290995,"lon":5.381361,"is_reserved":false,"is_disabled":false,"rental_uris":{"android":"levelo://app?vid=62fdaf7d-44a9-4c1a-bbcd-447a0605d9d9","ios":"levelo://app?vid=62fdaf7d-44a9-4c1a-bbcd-447a0605d9d9"},"vehicle_type_id":"4","last_reported":1712948769,"current_range_meters":7600,"station_id":"ce4bh512rcd13ifvqe2g","pricing_plan_id":"cebpf4jnsgd1na2vs0mg"},{"bike_id":"3a141ae0-ad8f-47ad-849a-62e05e5db828","system_id":"levelo_inurba_marseille","lat":43.290995,"lon":5.381361,"is_reserved":false,"is_disabled":false,"rental_uris":{"android":"levelo://app?vid=3a141ae0-ad8f-47ad-849a-62e05e5db828","ios":"levelo://app?vid=3a141ae0-ad8f-47ad-849a-62e05e5db828"},"vehicle_type_id":"4","last_reported":1712948769,"current_range_meters":6800,"station_id":"ce4bh512rcd13ifvqe2g","pricing_plan_id":"cebpf4jnsgd1na2vs0mg"},{"bike_id":"87d3f451-19af-40f0-9548-c7c26d6efaf2","system_id":"levelo_inurba_marseille","lat":43.290996,"lon":5.381416,"is_reserved":false,"is_disabled":false,"rental_uris":{"android":"levelo://app?vid=87d3f451-19af-40f0-9548-c7c26d6efaf2","ios":"levelo://app?vid=87d3f451-19af-40f0-9548-c7c26d6efaf2"},"vehicle_type_id":"4","last_reported":1712948769,"current_range_meters":0,"station_id":"ce4bh512rcd13ifvqe2g","pricing_plan_id":"cebpf4jnsgd1na2vs0mg"},{"bike_id":"c15ff315-2545-48a9-a0f2-33174a690b74","system_id":"levelo_inurba_marseille","lat":43.304296,"lon":5.397513,"is_reserved":false,"is_disabled":false,"rental_uris":{"android":"levelo://app?vid=c15ff315-2545-48a9-a0f2-33174a690b74","ios":"levelo://app?vid=c15ff315-2545-48a9-a0f2-33174a690b74"},"vehicle_type_id":"4","last_reported":1712948769,"current_range_meters":800,"station_id":"ce4bh092rcd13ifvqd20","pricing_plan_id":"cebpf4jnsgd1na2vs0mg"},{"bike_id":"e50e2151-5f76-481c-9ccf-876933839519","system_id":"levelo_inurba_marseille","lat":43.290995,"lon":5.381361,"is_reserved":false,"is_disabled":false,"rental_uris":{"android":"levelo://app?vid=e50e2151-5f76-481c-9ccf-876933839519","ios":"levelo://app?vid=e50e2151-5f76-481c-9ccf-876933839519"},"vehicle_type_id":"4","last_reported":1712948769,"current_range_meters":4000,"station_id":"ce4bh512rcd13ifvqe2g","pricing_plan_id":"cebpf4jnsgd1na2vs0mg"},{"bike_id":"c8f7519b-ba58-42fc-89e2-6ca73e7bf565","system_id":"levelo_inurba_marseille","lat":43.29099,"lon":5.38151,"is_reserved":false,"is_disabled":false,"rental_uris":{"android":"levelo://app?vid=c8f7519b-ba58-42fc-89e2-6ca73e7bf565","ios":"levelo://app?vid=c8f7519b-ba58-42fc-89e2-6ca73e7bf565"},"vehicle_type_id":"4","last_reported":1712948769,"current_range_meters":22000,"station_id":"ce4bh512rcd13ifvqe2g","pricing_plan_id":"cebpf4jnsgd1na2vs0mg"},{"bike_id":"c7e06d7e-0e8e-48f9-9949-ddcc81e8a67f","system_id":"levelo_inurba_marseille","lat":43.290995,"lon":5.381361,"is_reserved":false,"is_disabled":false,"rental_uris":{"android":"levelo://app?vid=c7e06d7e-0e8e-48f9-9949-ddcc81e8a67f","ios":"levelo://app?vid=c7e06d7e-0e8e-48f9-9949-ddcc81e8a67f"},"vehicle_type_id":"4","last_reported":1712948769,"current_range_meters":4400,"station_id":"ce4bh512rcd13ifvqe2g","pricing_plan_id":"cebpf4jnsgd1na2vs0mg"},{"bike_id":"4ea6120d-c090-493b-b9b8-6b376029cddb","system_id":"levelo_inurba_marseille","lat":43.297815,"lon":5.393548,"is_reserved":false,"is_disabled":false,"rental_uris":{"android":"levelo://app?vid=4ea6120d-c090-493b-b9b8-6b376029cddb","ios":"levelo://app?vid=4ea6120d-c090-493b-b9b8-6b376029cddb"},"vehicle_type_id":"4","last_reported":1712948769,"current_range_meters":2800,"station_id":"chh1huq6cuj3fo74tm60","pricing_plan_id":"cebpf4jnsgd1na2vs0mg"},{"bike_id":"ad9efc8f-4769-4c52-a387-fce41491e324","system_id":"levelo_inurba_marseille","lat":43.33016,"lon":5.390313,"is_reserved":false,"is_disabled":false,"rental_uris":{"android":"levelo://app?vid=ad9efc8f-4769-4c52-a387-fce41491e324","ios":"levelo://app?vid=ad9efc8f-4769-4c52-a387-fce41491e324"},"vehicle_type_id":"4","last_reported":1712948769,"current_range_meters":1200,"station_id":"ce4bhr92rcd13ifvqhrg","pricing_plan_id":"cebpf4jnsgd1na2vs0mg"},{"bike_id":"7d89b750-a91f-49c0-98fb-41fabc150325","system_id":"levelo_inurba_marseille","lat":43.290995,"lon":5.381361,"is_reserved":false,"is_disabled":false,"rental_uris":{"android":"levelo://app?vid=7d89b750-a91f-49c0-98fb-41fabc150325","ios":"levelo://app?vid=7d89b750-a91f-49c0-98fb-41fabc150325"},"vehicle_type_id":"4","last_reported":1712948769,"current_range_meters":16400,"station_id":"ce4bh512rcd13ifvqe2g","pricing_plan_id":"cebpf4jnsgd1na2vs0mg"},{"bike_id":"5ee884de-7103-4117-a5a6-d79681b21e71","system_id":"levelo_inurba_marseille","lat":43.297815,"lon":5.393548,"is_reserved":false,"is_disabled":false,"rental_uris":{"android":"levelo://app?vid=5ee884de-7103-4117-a5a6-d79681b21e71","ios":"levelo://app?vid=5ee884de-7103-4117-a5a6-d79681b21e71"},"vehicle_type_id":"4","last_reported":1712948769,"current_range_meters":2000,"station_id":"chh1huq6cuj3fo74tm60","pricing_plan_id":"cebpf4jnsgd1na2vs0mg"},{"bike_id":"5dae9644-dd0f-410d-abb5-524a29880aec","system_id":"levelo_inurba_marseille","lat":43.297814,"lon":5.393513,"is_reserved":false,"is_disabled":false,"rental_uris":{"android":"levelo://app?vid=5dae9644-dd0f-410d-abb5-524a29880aec","ios":"levelo://app?vid=5dae9644-dd0f-410d-abb5-524a29880aec"},"vehicle_type_id":"4","last_reported":1712948769,"current_range_meters":0,"station_id":"chh1huq6cuj3fo74tm60","pricing_plan_id":"cebpf4jnsgd1na2vs0mg"},{"bike_id":"e6c2a6d3-83a4-4387-9656-3f4593963178","system_id":"levelo_inurba_marseille","lat":43.295169,"lon":5.390426,"is_reserved":false,"is_disabled":false,"rental_uris":{"android":"levelo://app?vid=e6c2a6d3-83a4-4387-9656-3f4593963178","ios":"levelo://app?vid=e6c2a6d3-83a4-4387-9656-3f4593963178"},"vehicle_type_id":"4","last_reported":1712948769,"current_range_meters":0,"station_id":"ce4bh3p2rcd13ifvqdp0","pricing_plan_id":"cebpf4jnsgd1na2vs0mg"},{"bike_id":"7f1310d8-bfd6-4bcb-bd16-afdf636513a6","system_id":"levelo_inurba_marseille","lat":43.295169,"lon":5.390426,"is_reserved":false,"is_disabled":false,"rental_uris":{"android":"levelo://app?vid=7f1310d8-bfd6-4bcb-bd16-afdf636513a6","ios":"levelo://app?vid=7f1310d8-bfd6-4bcb-bd16-afdf636513a6"},"vehicle_type_id":"4","last_reported":1712948769,"current_range_meters":0,"station_id":"ce4bh3p2rcd13ifvqdp0","pricing_plan_id":"cebpf4jnsgd1na2vs0mg"},{"bike_id":"9a4b4bbc-d8d5-438d-9ff7-d235b0ae9e2f","system_id":"levelo_inurba_marseille","lat":43.28973,"lon":5.37831,"is_reserved":false,"is_disabled":false,"rental_uris":{"android":"levelo://app?vid=9a4b4bbc-d8d5-438d-9ff7-d235b0ae9e2f","ios":"levelo://app?vid=9a4b4bbc-d8d5-438d-9ff7-d235b0ae9e2f"},"vehicle_type_id":"4","last_reported":1712948769,"current_range_meters":6400,"station_id":"ce4bh9p2rcd13ifvqed0","pricing_plan_id":"cebpf4jnsgd1na2vs0mg"},{"bike_id":"1fe14998-fbed-46f5-b7a0-afe41a3307d6","system_id":"levelo_inurba_marseille","lat":43.295169,"lon":5.390426,"is_reserved":false,"is_disabled":false,"rental_uris":{"android":"levelo://app?vid=1fe14998-fbed-46f5-b7a0-afe41a3307d6","ios":"levelo://app?vid=1fe14998-fbed-46f5-b7a0-afe41a3307d6"},"vehicle_type_id":"4","last_reported":1712948769,"current_range_meters":9200,"station_id":"ce4bh3p2rcd13ifvqdp0","pricing_plan_id":"cebpf4jnsgd1na2vs0mg"},{"bike_id":"5faed940-b5d5-4c87-a06a-43e02ed50209","system_id":"levelo_inurba_marseille","lat":43.297815,"lon":5.393548,"is_reserved":false,"is_disabled":false,"rental_uris":{"android":"levelo://app?vid=5faed940-b5d5-4c87-a06a-43e02ed50209","ios":"levelo://app?vid=5faed940-b5d5-4c87-a06a-43e02ed50209"},"vehicle_type_id":"4","last_reported":1712948769,"current_range_meters":7600,"station_id":"chh1huq6cuj3fo74tm60","pricing_plan_id":"cebpf4jnsgd1na2vs0mg"},{"bike_id":"998e53b0-c8b4-4e20-b0fe-c3da51333478","system_id":"levelo_inurba_marseille","lat":43.33028,"lon":5.39048,"is_reserved":false,"is_disabled":false,"rental_uris":{"android":"levelo://app?vid=998e53b0-c8b4-4e20-b0fe-c3da51333478","ios":"levelo://app?vid=998e53b0-c8b4-4e20-b0fe-c3da51333478"},"vehicle_type_id":"4","last_reported":1712948769,"current_range_meters":20800,"station_id":"ce4bhr92rcd13ifvqhrg","pricing_plan_id":"cebpf4jnsgd1na2vs0mg"},{"bike_id":"d8641095-2343-4660-9560-8d15a376c480","system_id":"levelo_inurba_marseille","lat":43.290227,"lon":5.381393,"is_reserved":false,"is_disabled":false,"rental_uris":{"android":"levelo://app?vid=d8641095-2343-4660-9560-8d15a376c480","ios":"levelo://app?vid=d8641095-2343-4660-9560-8d15a376c480"},"vehicle_type_id":"4","last_reported":1712948769,"current_range_meters":0,"station_id":"ce4bh4p2rcd13ifvqe1g","pricing_plan_id":"cebpf4jnsgd1na2vs0mg"},{"bike_id":"adb63794-1fce-4f38-8a41-97dc8002b0de","system_id":"levelo_inurba_marseille","lat":43.2902,"lon":5.3814,"is_reserved":false,"is_disabled":false,"rental_uris":{"android":"levelo://app?vid=adb63794-1fce-4f38-8a41-97dc8002b0de","ios":"levelo://app?vid=adb63794-1fce-4f38-8a41-97dc8002b0de"},"vehicle_type_id":"4","last_reported":1712948769,"current_range_meters":16400,"station_id":"ce4bh4p2rcd13ifvqe1g","pricing_plan_id":"cebpf4jnsgd1na2vs0mg"},{"bike_id":"ac0303c5-f354-4b9c-a0ae-c17734f09d8c","system_id":"levelo_inurba_marseille","lat":43.29012,"lon":5.38128,"is_reserved":false,"is_disabled":false,"rental_uris":{"android":"levelo://app?vid=ac0303c5-f354-4b9c-a0ae-c17734f09d8c","ios":"levelo://app?vid=ac0303c5-f354-4b9c-a0ae-c17734f09d8c"},"vehicle_type_id":"4","last_reported":1712948769,"current_range_meters":0,"station_id":"ce4bh4p2rcd13ifvqe1g","pricing_plan_id":"cebpf4jnsgd1na2vs0mg"},{"bike_id":"4000d6d8-bcbd-481e-a13b-16a46642931b","system_id":"levelo_inurba_marseille","lat":43.288547,"lon":5.358557,"is_reserved":false,"is_disabled":false,"rental_uris":{"android":"levelo://app?vid=4000d6d8-bcbd-481e-a13b-16a46642931b","ios":"levelo://app?vid=4000d6d8-bcbd-481e-a13b-16a46642931b"},"vehicle_type_id":"4","last_reported":1712948769,"current_range_meters":0,"station_id":"ce4bhb12rcd13ifvqem0","pricing_plan_id":"cebpf4jnsgd1na2vs0mg"},{"bike_id":"4bf3e806-7d2d-41eb-a92b-8f294d86849c","system_id":"levelo_inurba_marseille","lat":43.2885,"lon":5.35836,"is_reserved":false,"is_disabled":false,"rental_uris":{"android":"levelo://app?vid=4bf3e806-7d2d-41eb-a92b-8f294d86849c","ios":"levelo://app?vid=4bf3e806-7d2d-41eb-a92b-8f294d86849c"},"vehicle_type_id":"4","last_reported":1712948769,"current_range_meters":0,"station_id":"ce4bhb12rcd13ifvqem0","pricing_plan_id":"cebpf4jnsgd1na2vs0mg"},{"bike_id":"0944e3b1-571b-48be-a674-03378eb3ea02","system_id":"levelo_inurba_marseille","lat":43.28916,"lon":5.3546,"is_reserved":false,"is_disabled":false,"rental_uris":{"android":"levelo://app?vid=0944e3b1-571b-48be-a674-03378eb3ea02","ios":"levelo://app?vid=0944e3b1-571b-48be-a674-03378eb3ea02"},"vehicle_type_id":"4","last_reported":1712948769,"current_range_meters":8000,"station_id":"","pricing_plan_id":"cebpf4jnsgd1na2vs0mg"},{"bike_id":"1931e38e-e67e-422f-b2ab-23e2d5552a31","system_id":"levelo_inurba_marseille","lat":43.309371,"lon":5.401449,"is_reserved":false,"is_disabled":false,"rental_uris":{"android":"levelo://app?vid=1931e38e-e67e-422f-b2ab-23e2d5552a31","ios":"levelo://app?vid=1931e38e-e67e-422f-b2ab-23e2d5552a31"},"vehicle_type_id":"4","last_reported":1712948769,"current_range_meters":27600,"station_id":"ce4bgvp2rcd13ifvqct0","pricing_plan_id":"cebpf4jnsgd1na2vs0mg"},{"bike_id":"97551275-dfbe-403e-aacb-4be4223f6313","system_id":"levelo_inurba_marseille","lat":43.309349,"lon":5.4014,"is_reserved":false,"is_disabled":false,"rental_uris":{"android":"levelo://app?vid=97551275-dfbe-403e-aacb-4be4223f6313","ios":"levelo://app?vid=97551275-dfbe-403e-aacb-4be4223f6313"},"vehicle_type_id":"4","last_reported":1712948769,"current_range_meters":0,"station_id":"","pricing_plan_id":"cebpf4jnsgd1na2vs0mg"},{"bike_id":"91d01cf8-1bbb-4cb8-9b33-d1dddd7fba11","system_id":"levelo_inurba_marseille","lat":43.312609,"lon":5.401662,"is_reserved":false,"is_disabled":false,"rental_uris":{"android":"levelo://app?vid=91d01cf8-1bbb-4cb8-9b33-d1dddd7fba11","ios":"levelo://app?vid=91d01cf8-1bbb-4cb8-9b33-d1dddd7fba11"},"vehicle_type_id":"4","last_reported":1712948769,"current_range_meters":20000,"station_id":"ce4bh092rcd13ifvqd30","pricing_plan_id":"cebpf4jnsgd1na2vs0mg"},{"bike_id":"023abc25-1d24-4636-b81d-fe92182081f6","system_id":"levelo_inurba_marseille","lat":43.28727,"lon":5.36078,"is_reserved":false,"is_disabled":false,"rental_uris":{"android":"levelo://app?vid=023abc25-1d24-4636-b81d-fe92182081f6","ios":"levelo://app?vid=023abc25-1d24-4636-b81d-fe92182081f6"},"vehicle_type_id":"4","last_reported":1712948769,"current_range_meters":0,"station_id":"cki0cbj6b192h4jlfktg","pricing_plan_id":"cebpf4jnsgd1na2vs0mg"},{"bike_id":"a337a3f1-764e-4ead-a8b7-9779c5acdb28","system_id":"levelo_inurba_marseille","lat":43.33753,"lon":5.3745,"is_reserved":false,"is_disabled":false,"rental_uris":{"android":"levelo://app?vid=a337a3f1-764e-4ead-a8b7-9779c5acdb28","ios":"levelo://app?vid=a337a3f1-764e-4ead-a8b7-9779c5acdb28"},"vehicle_type_id":"4","last_reported":1712948769,"current_range_meters":26800,"station_id":"","pricing_plan_id":"cebpf4jnsgd1na2vs0mg"},{"bike_id":"a2213d62-01de-4e05-89e9-71d02344b678","system_id":"levelo_inurba_marseille","lat":43.309297,"lon":5.401536,"is_reserved":false,"is_disabled":false,"rental_uris":{"android":"levelo://app?vid=a2213d62-01de-4e05-89e9-71d02344b678","ios":"levelo://app?vid=a2213d62-01de-4e05-89e9-71d02344b678"},"vehicle_type_id":"4","last_reported":1712948769,"current_range_meters":0,"station_id":"ce4bgvp2rcd13ifvqct0","pricing_plan_id":"cebpf4jnsgd1na2vs0mg"},{"bike_id":"d3ea26f4-7d4d-45b7-8172-0133ecd9329b","system_id":"levelo_inurba_marseille","lat":43.337552,"lon":5.374552,"is_reserved":false,"is_disabled":false,"rental_uris":{"android":"levelo://app?vid=d3ea26f4-7d4d-45b7-8172-0133ecd9329b","ios":"levelo://app?vid=d3ea26f4-7d4d-45b7-8172-0133ecd9329b"},"vehicle_type_id":"4","last_reported":1712948769,"current_range_meters":26400,"station_id":"","pricing_plan_id":"cebpf4jnsgd1na2vs0mg"},{"bike_id":"ff676b80-9ad6-4def-a9d2-f82e554dddce","system_id":"levelo_inurba_marseille","lat":43.309371,"lon":5.401449,"is_reserved":false,"is_disabled":false,"rental_uris":{"android":"levelo://app?vid=ff676b80-9ad6-4def-a9d2-f82e554dddce","ios":"levelo://app?vid=ff676b80-9ad6-4def-a9d2-f82e554dddce"},