{"last_updated":1712639211,"ttl":30,"version":"2.2","data":{"bikes":[{"bike_id":"84f3c8f3-0172-47fb-a95f-2fbe76640065","system_id":"levelo_inurba_marseille","lat":43.313391,"lon":5.36706,"is_reserved":false,"is_disabled":false,"rental_uris":{"android":"levelo://app?vid=84f3c8f3-0172-47fb-a95f-2fbe76640065","ios":"levelo://app?vid=84f3c8f3-0172-47fb-a95f-2fbe76640065"},"vehicle_type_id":"4","last_reported":1712639211,"current_range_meters":32000,"station_id":"ce4bgr92rcd13ifvqc6g","pricing_plan_id":"cebpf4jnsgd1na2vs0mg"},{"bike_id":"c8e7e700-1ef4-4a23-b2fb-305be86e0f37","system_id":"levelo_inurba_marseille","lat":43.31341,"lon":5.367098,"is_reserved":false,"is_disabled":false,"rental_uris":{"android":"levelo://app?vid=c8e7e700-1ef4-4a23-b2fb-305be86e0f37","ios":"levelo://app?vid=c8e7e700-1ef4-4a23-b2fb-305be86e0f37"},"vehicle_type_id":"4","last_reported":1712639211,"current_range_meters":28800,"station_id":"ce4bgr92rcd13ifvqc6g","pricing_plan_id":"cebpf4jnsgd1na2vs0mg"},{"bike_id":"72c5a49b-aae5-458f-b9f2-100cf696d469","system_id":"levelo_inurba_marseille","lat":43.313391,"lon":5.36706,"is_reserved":false,"is_disabled":false,"rental_uris":{"android":"levelo://app?vid=72c5a49b-aae5-458f-b9f2-100cf696d469","ios":"levelo://app?vid=72c5a49b-aae5-458f-b9f2-100cf696d469"},"vehicle_type_id":"4","last_reported":1712639211,"current_range_meters":22800,"station_id":"ce4bgr92rcd13ifvqc6g","pricing_plan_id":"cebpf4jnsgd1na2vs0mg"},{"bike_id":"32f95aad-3ad6-4fb0-9903-be87ae298d2e","system_id":"levelo_inurba_marseille","lat":43.313391,"lon":5.36706,"is_reserved":false,"is_disabled":false,"rental_uris":{"android":"levelo://app?vid=32f95aad-3ad6-4fb0-9903-be87ae298d2e","ios":"levelo://app?vid=32f95aad-3ad6-4fb0-9903-be87ae298d2e"},"vehicle_type_id":"4","last_reported":1712639211,"current_range_meters":19200,"station_id":"ce4bgr92rcd13ifvqc6g","pricing_plan_id":"cebpf4jnsgd1na2vs0mg"},{"bike_id":"31f100c6-5cae-424d-acd7-ea9fb073d0d8","system_id":"levelo_inurba_marseille","lat":43.313391,"lon":5.36706,"is_reserved":false,"is_disabled":false,"rental_uris":{"android":"levelo://app?vid=31f100c6-5cae-424d-acd7-ea9fb073d0d8","ios":"levelo://app?vid=31f100c6-5cae-424d-acd7-ea9fb073d0d8"},"vehicle_type_id":"4","last_reported":1712639211,"current_range_meters":23600,"station_id":"ce4bgr92rcd13ifvqc6g","pricing_plan_id":"cebpf4jnsgd1na2vs0mg"},{"bike_id":"41dd09d9-6c9c-4491-927c-e2f760b5b800","system_id":"levelo_inurba_marseille","lat":43.312441,"lon":5.368621,"is_reserved":false,"is_disabled":false,"rental_uris":{"android":"levelo://app?vid=41dd09d9-6c9c-4491-927c-e2f760b5b800","ios":"levelo://app?vid=41dd09d9-6c9c-4491-927c-e2f760b5b800"},"vehicle_type_id":"4","last_reported":1712639211,"current_range_meters":30800,"station_id":"ce4bgl92rcd13ifvqbq0","pricing_plan_id":"cebpf4jnsgd1na2vs0mg"},{"bike_id":"dda7e229-fe86-4a53-93c5-51714ce935cf","system_id":"levelo_inurba_marseille","lat":43.312239,"lon":5.368562,"is_reserved":false,"is_disabled":false,"rental_uris":{"android":"levelo://app?vid=dda7e229-fe86-4a53-93c5-51714ce935cf","ios":"levelo://app?vid=dda7e229-fe86-4a53-93c5-51714ce935cf"},"vehicle_type_id":"4","last_reported":1712639211,"current_range_meters":29200,"station_id":"ce4bgl92rcd13ifvqbq0","pricing_plan_id":"cebpf4jnsgd1na2vs0mg"},{"bike_id":"ce7cee01-fe4e-4b28-ace6-d87d640a19ce","system_id":"levelo_inurba_marseille","lat":43.309076,"lon":5.368465,"is_reserved":false,"is_disabled":false,"rental_uris":{"android":"levelo://app?vid=ce7cee01-fe4e-4b28-ace6-d87d640a19ce","ios":"levelo://app?vid=ce7cee01-fe4e-4b28-ace6-d87d640a19ce"},"vehicle_type_id":"4","last_reported":1712639211,"current_range_meters":16000,"station_id":"ce4bgn92rcd13ifvqbvg","pricing_plan_id":"cebpf4jnsgd1na2vs0mg"},{"bike_id":"e0d2bac6-2a4c-4871-b120-e17ed82bf141","system_id":"levelo_inurba_marseille","lat":43.309076,"lon":5.368465,"is_reserved":false,"is_disabled":false,"rental_uris":{"android":"levelo://app?vid=e0d2bac6-2a4c-4871-b120-e17ed82bf141","ios":"levelo://app?vid=e0d2bac6-2a4c-4871-b120-e17ed82bf141"},"vehicle_type_id":"4","last_reported":1712639211,"current_range_meters":28000,"station_id":"ce4bgn92rcd13ifvqbvg","pricing_plan_id":"cebpf4jnsgd1na2vs0mg"},{"bike_id":"73706916-b3f3-4ff0-b068-cec67895e8b1","system_id":"levelo_inurba_marseille","lat":43.308331,"lon":5.3676,"is_reserved":false,"is_disabled":false,"rental_uris":{"android":"levelo://app?vid=73706916-b3f3-4ff0-b068-cec67895e8b1","ios":"levelo://app?vid=73706916-b3f3-4ff0-b068-cec67895e8b1"},"vehicle_type_id":"4","last_reported":1712639211,"current_range_meters":2000,"station_id":"","pricing_plan_id":"cebpf4jnsgd1na2vs0mg"},{"bike_id":"c357bd56-2278-4200-b132-80d4f742dfee","system_id":"levelo_inurba_marseille","lat":43.314811,"lon":5.373103,"is_reserved":false,"is_disabled":false,"rental_uris":{"android":"levelo://app?vid=c357bd56-2278-4200-b132-80d4f742dfee","ios":"levelo://app?vid=c357bd56-2278-4200-b132-80d4f742dfee"},"vehicle_type_id":"4","last_reported":1712639211,"current_range_meters":2000,"station_id":"ce4bgt12rcd13ifvqcd0","pricing_plan_id":"cebpf4jnsgd1na2vs0mg"},{"bike_id":"de09e4c5-b58f-44c7-ac3f-ea4f459d5bc5","system_id":"levelo_inurba_marseille","lat":43.314811,"lon":5.373103,"is_reserved":false,"is_disabled":false,"rental_uris":{"android":"levelo://app?vid=de09e4c5-b58f-44c7-ac3f-ea4f459d5bc5","ios":"levelo://app?vid=de09e4c5-b58f-44c7-ac3f-ea4f459d5bc5"},"vehicle_type_id":"4","last_reported":1712639211,"current_range_meters":30000,"station_id":"ce4bgt12rcd13ifvqcd0","pricing_plan_id":"cebpf4jnsgd1na2vs0mg"},{"bike_id":"724cae6e-5786-43dc-a9b1-a8301bddae06","system_id":"levelo_inurba_marseille","lat":43.314811,"lon":5.373103,"is_reserved":false,"is_disabled":false,"rental_uris":{"android":"levelo://app?vid=724cae6e-5786-43dc-a9b1-a8301bddae06","ios":"levelo://app?vid=724cae6e-5786-43dc-a9b1-a8301bddae06"},"vehicle_type_id":"4","last_reported":1712639211,"current_range_meters":31200,"station_id":"ce4bgt12rcd13ifvqcd0","pricing_plan_id":"cebpf4jnsgd1na2vs0mg"},{"bike_id":"5ab0b934-ede6-4403-ad0b-f2d3c1a1fc05","system_id":"levelo_inurba_marseille","lat":43.314811,"lon":5.373103,"is_reserved":false,"is_disabled":false,"rental_uris":{"android":"levelo://app?vid=5ab0b934-ede6-4403-ad0b-f2d3c1a1fc05","ios":"levelo://app?vid=5ab0b934-ede6-4403-ad0b-f2d3c1a1fc05"},"vehicle_type_id":"4","last_reported":1712639211,"current_range_meters":17200,"station_id":"ce4bgt12rcd13ifvqcd0","pricing_plan_id":"cebpf4jnsgd1na2vs0mg"},{"bike_id":"43f40058-7390-4c9e-b3ee-0b4da12a79cc","system_id":"levelo_inurba_marseille","lat":43.314811,"lon":5.373104,"is_reserved":false,"is_disabled":false,"rental_uris":{"android":"levelo://app?vid=43f40058-7390-4c9e-b3ee-0b4da12a79cc","ios":"levelo://app?vid=43f40058-7390-4c9e-b3ee-0b4da12a79cc"},"vehicle_type_id":"4","last_reported":1712639211,"current_range_meters":26400,"station_id":"ce4bgt12rcd13ifvqcd0","pricing_plan_id":"cebpf4jnsgd1na2vs0mg"},{"bike_id":"85480fb1-7bc8-4d09-a31f-47539c9d3455","system_id":"levelo_inurba_marseille","lat":43.314811,"lon":5.373103,"is_reserved":false,"is_disabled":false,"rental_uris":{"android":"levelo://app?vid=85480fb1-7bc8-4d09-a31f-47539c9d3455","ios":"levelo://app?vid=85480fb1-7bc8-4d09-a31f-47539c9d3455"},"vehicle_type_id":"4","last_reported":1712639211,"current_range_meters":21600,"station_id":"ce4bgt12rcd13ifvqcd0","pricing_plan_id":"cebpf4jnsgd1na2vs0mg"},{"bike_id":"ef79e8ae-e94e-4ed7-9f94-001456e444f4","system_id":"levelo_inurba_marseille","lat":43.314811,"lon":5.373104,"is_reserved":false,"is_disabled":false,"rental_uris":{"android":"levelo://app?vid=ef79e8ae-e94e-4ed7-9f94-001456e444f4","ios":"levelo://app?vid=ef79e8ae-e94e-4ed7-9f94-001456e444f4"},"vehicle_type_id":"4","last_reported":1712639211,"current_range_meters":30000,"station_id":"ce4bgt12rcd13ifvqcd0","pricing_plan_id":"cebpf4jnsgd1na2vs0mg"},{"bike_id":"2da45ef7-269f-49d5-ae9f-8d81bc7fbbbf","system_id":"levelo_inurba_marseille","lat":43.309039,"lon":5.371797,"is_reserved":false,"is_disabled":false,"rental_uris":{"android":"levelo://app?vid=2da45ef7-269f-49d5-ae9f-8d81bc7fbbbf","ios":"levelo://app?vid=2da45ef7-269f-49d5-ae9f-8d81bc7fbbbf"},"vehicle_type_id":"4","last_reported":1712639211,"current_range_meters":19600,"station_id":"ce4bguh2rcd13ifvqckg","pricing_plan_id":"cebpf4jnsgd1na2vs0mg"},{"bike_id":"59211f08-0990-4089-be8f-5fd37ba0a086","system_id":"levelo_inurba_marseille","lat":43.31414,"lon":5.37544,"is_reserved":false,"is_disabled":false,"rental_uris":{"android":"levelo://app?vid=59211f08-0990-4089-be8f-5fd37ba0a086","ios":"levelo://app?vid=59211f08-0990-4089-be8f-5fd37ba0a086"},"vehicle_type_id":"4","last_reported":1712639211,"current_range_meters":7600,"station_id":"","pricing_plan_id":"cebpf4jnsgd1na2vs0mg"},{"bike_id":"85e5e62f-2925-4983-a2cd-564342d09dd6","system_id":"levelo_inurba_marseille","lat":43.30537,"lon":5.367345,"is_reserved":false,"is_disabled":false,"rental_uris":{"android":"levelo://app?vid=85e5e62f-2925-4983-a2cd-564342d09dd6","ios":"levelo://app?vid=85e5e62f-2925-4983-a2cd-564342d09dd6"},"vehicle_type_id":"4","last_reported":1712639211,"current_range_meters":25600,"station_id":"ce4bgrp2rcd13ifvqc9g","pricing_plan_id":"cebpf4jnsgd1na2vs0mg"},{"bike_id":"48bf7315-f01a-4576-8765-30c0b5d4741c","system_id":"levelo_inurba_marseille","lat":43.305368,"lon":5.367343,"is_reserved":false,"is_disabled":false,"rental_uris":{"android":"levelo://app?vid=48bf7315-f01a-4576-8765-30c0b5d4741c","ios":"levelo://app?vid=48bf7315-f01a-4576-8765-30c0b5d4741c"},"vehicle_type_id":"4","last_reported":1712639211,"current_range_meters":28400,"station_id":"ce4bgrp2rcd13ifvqc9g","pricing_plan_id":"cebpf4jnsgd1na2vs0mg"},{"bike_id":"592caebf-7276-4290-968e-194db37cbc4f","system_id":"levelo_inurba_marseille","lat":43.305706,"lon":5.365654,"is_reserved":false,"is_disabled":false,"rental_uris":{"android":"levelo://app?vid=592caebf-7276-4290-968e-194db37cbc4f","ios":"levelo://app?vid=592caebf-7276-4290-968e-194db37cbc4f"},"vehicle_type_id":"4","last_reported":1712639211,"current_range_meters":19200,"station_id":"ce4bgs12rcd13ifvqcag","pricing_plan_id":"cebpf4jnsgd1na2vs0mg"},{"bike_id":"0f6d8882-7f76-41a7-bd65-70c5952de0b3","system_id":"levelo_inurba_marseille","lat":43.310409,"lon":5.376796,"is_reserved":false,"is_disabled":false,"rental_uris":{"android":"levelo://app?vid=0f6d8882-7f76-41a7-bd65-70c5952de0b3","ios":"levelo://app?vid=0f6d8882-7f76-41a7-bd65-70c5952de0b3"},"vehicle_type_id":"4","last_reported":1712639211,"current_range_meters":4000,"station_id":"","pricing_plan_id":"cebpf4jnsgd1na2vs0mg"},{"bike_id":"b5928144-fe73-4ffa-a534-0998fa1a7f8f","system_id":"levelo_inurba_marseille","lat":43.305989,"lon":5.37225,"is_reserved":false,"is_disabled":false,"rental_uris":{"android":"levelo://app?vid=b5928144-fe73-4ffa-a534-0998fa1a7f8f","ios":"levelo://app?vid=b5928144-fe73-4ffa-a534-0998fa1a7f8f"},"vehicle_type_id":"4","last_reported":1712639211,"current_range_meters":31200,"station_id":"ce4bgqh2rcd13ifvqc4g","pricing_plan_id":"cebpf4jnsgd1na2vs0mg"},{"bike_id":"bde34e67-db82-4c04-a51a-711a28e7ff5f","system_id":"levelo_inurba_marseille","lat":43.311131,"lon":5.377651,"is_reserved":false,"is_disabled":false,"rental_uris":{"android":"levelo://app?vid=bde34e67-db82-4c04-a51a-711a28e7ff5f","ios":"levelo://app?vid=bde34e67-db82-4c04-a51a-711a28e7ff5f"},"vehicle_type_id":"4","last_reported":1712639211,"current_range_meters":3600,"station_id":"ce4bgt92rcd13ifvqcg0","pricing_plan_id":"cebpf4jnsgd1na2vs0mg"},{"bike_id":"70c49636-23f1-49a5-b0f0-e8da3aa78e71","system_id":"levelo_inurba_marseille","lat":43.311131,"lon":5.377651,"is_reserved":false,"is_disabled":false,"rental_uris":{"android":"levelo://app?vid=70c49636-23f1-49a5-b0f0-e8da3aa78e71","ios":"levelo://app?vid=70c49636-23f1-49a5-b0f0-e8da3aa78e71"},"vehicle_type_id":"4","last_reported":1712639211,"current_range_meters":31200,"station_id":"ce4bgt92rcd13ifvqcg0","pricing_plan_id":"cebpf4jnsgd1na2vs0mg"},{"bike_id":"fd3e5e70-6f62-486d-8f7b-28a00244cae2","system_id":"levelo_inurba_marseille","lat":43.311177,"lon":5.377609,"is_reserved":false,"is_disabled":false,"rental_uris":{"android":"levelo://app?vid=fd3e5e70-6f62-486d-8f7b-28a00244cae2","ios":"levelo://app?vid=fd3e5e70-6f62-486d-8f7b-28a00244cae2"},"vehicle_type_id":"4","last_reported":1712639211,"current_range_meters":27600,"station_id":"ce4bgt92rcd13ifvqcg0","pricing_plan_id":"cebpf4jnsgd1na2vs0mg"},{"bike_id":"60471ce9-58f7-4e0c-a608-2d3f9ccb60c5","system_id":"levelo_inurba_marseille","lat":43.311131,"lon":5.377651,"is_reserved":false,"is_disabled":false,"rental_uris":{"android":"levelo://app?vid=60471ce9-58f7-4e0c-a608-2d3f9ccb60c5","ios":"levelo://app?vid=60471ce9-58f7-4e0c-a608-2d3f9ccb60c5"},"vehicle_type_id":"4","last_reported":1712639211,"current_range_meters":31200,"station_id":"ce4bgt92rcd13ifvqcg0","pricing_plan_id":"cebpf4jnsgd1na2vs0mg"},{"bike_id":"b7f754e2-6a1a-4edc-968f-a77afac09d24","system_id":"levelo_inurba_marseille","lat":43.311131,"lon":5.377651,"is_reserved":false,"is_disabled":false,"rental_uris":{"android":"levelo://app?vid=b7f754e2-6a1a-4edc-968f-a77afac09d24","ios":"levelo://app?vid=b7f754e2-6a1a-4edc-968f-a77afac09d24"},"vehicle_type_id":"4","last_reported":1712639211,"current_range_meters":19200,"station_id":"ce4bgt92rcd13ifvqcg0","pricing_plan_id":"cebpf4jnsgd1na2vs0mg"},{"bike_id":"d853f96e-07e5-4a94-9dc4-75d246434837","system_id":"levelo_inurba_marseille","lat":43.311131,"lon":5.377651,"is_reserved":false,"is_disabled":false,"rental_uris":{"android":"levelo://app?vid=d853f96e-07e5-4a94-9dc4-75d246434837","ios":"levelo://app?vid=d853f96e-07e5-4a94-9dc4-75d246434837"},"vehicle_type_id":"4","last_reported":1712639211,"current_range_meters":31200,"station_id":"ce4bgt92rcd13ifvqcg0","pricing_plan_id":"cebpf4jnsgd1na2vs0mg"},{"bike_id":"e1d23c5f-72da-4b82-a97c-aaf6ac371e92","system_id":"levelo_inurba_marseille","lat":43.311131,"lon":5.377651,"is_reserved":false,"is_disabled":false,"rental_uris":{"android":"levelo://app?vid=e1d23c5f-72da-4b82-a97c-aaf6ac371e92","ios":"levelo://app?vid=e1d23c5f-72da-4b82-a97c-aaf6ac371e92"},"vehicle_type_id":"4","last_reported":1712639211,"current_range_meters":18800,"station_id":"ce4bgt92rcd13ifvqcg0","pricing_plan_id":"cebpf4jnsgd1na2vs0mg"},{"bike_id":"68bca407-64f6-4540-a476-e97c7e0d6b6e","system_id":"levelo_inurba_marseille","lat":43.31111,"lon":5.37765,"is_reserved":false,"is_disabled":false,"rental_uris":{"android":"levelo://app?vid=68bca407-64f6-4540-a476-e97c7e0d6b6e","ios":"levelo://app?vid=68bca407-64f6-4540-a476-e97c7e0d6b6e"},"vehicle_type_id":"4","last_reported":1712639211,"current_range_meters":10400,"station_id":"ce4bgt92rcd13ifvqcg0","pricing_plan_id":"cebpf4jnsgd1na2vs0mg"},{"bike_id":"907d6a77-696b-4664-be60-c1854acc527d","system_id":"levelo_inurba_marseille","lat":43.311131,"lon":5.377651,"is_reserved":false,"is_disabled":false,"rental_uris":{"android":"levelo://app?vid=907d6a77-696b-4664-be60-c1854acc527d","ios":"levelo://app?vid=907d6a77-696b-4664-be60-c1854acc527d"},"vehicle_type_id":"4","last_reported":1712639211,"current_range_meters":12000,"station_id":"ce4bgt92rcd13ifvqcg0","pricing_plan_id":"cebpf4jnsgd1na2vs0mg"},{"bike_id":"a488eb24-417f-4c78-967b-470493959bb4","system_id":"levelo_inurba_marseille","lat":43.311131,"lon":5.377651,"is_reserved":false,"is_disabled":false,"rental_uris":{"android":"levelo://app?vid=a488eb24-417f-4c78-967b-470493959bb4","ios":"levelo://app?vid=a488eb24-417f-4c78-967b-470493959bb4"},"vehicle_type_id":"4","last_reported":1712639211,"current_range_meters":400,"station_id":"ce4bgt92rcd13ifvqcg0","pricing_plan_id":"cebpf4jnsgd1na2vs0mg"},{"bike_id":"f985fd4c-27e5-4780-bab2-7b629b1d1bf2","system_id":"levelo_inurba_marseille","lat":43.31114,"lon":5.37771,"is_reserved":false,"is_disabled":false,"rental_uris":{"android":"levelo://app?vid=f985fd4c-27e5-4780-bab2-7b629b1d1bf2","ios":"levelo://app?vid=f985fd4c-27e5-4780-bab2-7b629b1d1bf2"},"vehicle_type_id":"4","last_reported":1712639211,"current_range_meters":25200,"station_id":"ce4bgt92rcd13ifvqcg0","pricing_plan_id":"cebpf4jnsgd1na2vs0mg"},{"bike_id":"aaf568ca-2793-438d-9e97-331f06346005","system_id":"levelo_inurba_marseille","lat":43.31118,"lon":5.37774,"is_reserved":false,"is_disabled":false,"rental_uris":{"android":"levelo://app?vid=aaf568ca-2793-438d-9e97-331f06346005","ios":"levelo://app?vid=aaf568ca-2793-438d-9e97-331f06346005"},"vehicle_type_id":"4","last_reported":1712639211,"current_range_meters":30400,"station_id":"ce4bgt92rcd13ifvqcg0","pricing_plan_id":"cebpf4jnsgd1na2vs0mg"},{"bike_id":"358e177f-3fa3-4c9e-8f2d-6cc668c93520","system_id":"levelo_inurba_marseille","lat":43.307945,"lon":5.376487,"is_reserved":false,"is_disabled":false,"rental_uris":{"android":"levelo://app?vid=358e177f-3fa3-4c9e-8f2d-6cc668c93520","ios":"levelo://app?vid=358e177f-3fa3-4c9e-8f2d-6cc668c93520"},"vehicle_type_id":"4","last_reported":1712639211,"current_range_meters":5600,"station_id":"ce4bgv92rcd13ifvqcq0","pricing_plan_id":"cebpf4jnsgd1na2vs0mg"},{"bike_id":"4508fa8c-8e31-47da-a59b-ba21e4969eea","system_id":"levelo_inurba_marseille","lat":43.307945,"lon":5.376487,"is_reserved":false,"is_disabled":false,"rental_uris":{"android":"levelo://app?vid=4508fa8c-8e31-47da-a59b-ba21e4969eea","ios":"levelo://app?vid=4508fa8c-8e31-47da-a59b-ba21e4969eea"},"vehicle_type_id":"4","last_reported":1712639211,"current_range_meters":28400,"station_id":"ce4bgv92rcd13ifvqcq0","pricing_plan_id":"cebpf4jnsgd1na2vs0mg"},{"bike_id":"1ddd2652-9a8e-438a-9a4f-0bddd7ccd592","system_id":"levelo_inurba_marseille","lat":43.307945,"lon":5.376487,"is_reserved":false,"is_disabled":false,"rental_uris":{"android":"levelo://app?vid=1ddd2652-9a8e-438a-9a4f-0bddd7ccd592","ios":"levelo://app?vid=1ddd2652-9a8e-438a-9a4f-0bddd7ccd592"},"vehicle_type_id":"4","last_reported":1712639211,"current_range_meters":28000,"station_id":"ce4bgv92rcd13ifvqcq0","pricing_plan_id":"cebpf4jnsgd1na2vs0mg"},{"bike_id":"251f7d11-4789-472f-93c9-4d798dc03cfe","system_id":"levelo_inurba_marseille","lat":43.31701,"lon":5.37753,"is_reserved":false,"is_disabled":false,"rental_uris":{"android":"levelo://app?vid=251f7d11-4789-472f-93c9-4d798dc03cfe","ios":"levelo://app?vid=251f7d11-4789-472f-93c9-4d798dc03cfe"},"vehicle_type_id":"4","last_reported":1712639211,"current_range_meters":16800,"station_id":"ce4bgth2rcd13ifvqch0","pricing_plan_id":"cebpf4jnsgd1na2vs0mg"},{"bike_id":"a6cdc948-8442-41d1-8bc0-b065df4b88fe","system_id":"levelo_inurba_marseille","lat":43.317075,"lon":5.377367,"is_reserved":false,"is_disabled":false,"rental_uris":{"android":"levelo://app?vid=a6cdc948-8442-41d1-8bc0-b065df4b88fe","ios":"levelo://app?vid=a6cdc948-8442-41d1-8bc0-b065df4b88fe"},"vehicle_type_id":"4","last_reported":1712639211,"current_range_meters":26000,"station_id":"ce4bgth2rcd13ifvqch0","pricing_plan_id":"cebpf4jnsgd1na2vs0mg"},{"bike_id":"0362c4b5-8413-4b69-9cf2-854a70e9b9b8","system_id":"levelo_inurba_marseille","lat":43.303046,"lon":5.368981,"is_reserved":false,"is_disabled":false,"rental_uris":{"android":"levelo://app?vid=0362c4b5-8413-4b69-9cf2-854a70e9b9b8","ios":"levelo://app?vid=0362c4b5-8413-4b69-9cf2-854a70e9b9b8"},"vehicle_type_id":"4","last_reported":1712639211,"current_range_meters":18800,"station_id":"ce4bgqh2rcd13ifvqc5g","pricing_plan_id":"cebpf4jnsgd1na2vs0mg"},{"bike_id":"d214b95d-2c3f-49c6-9da1-9b88b19dd39a","system_id":"levelo_inurba_marseille","lat":43.30315,"lon":5.36908,"is_reserved":false,"is_disabled":false,"rental_uris":{"android":"levelo://app?vid=d214b95d-2c3f-49c6-9da1-9b88b19dd39a","ios":"levelo://app?vid=d214b95d-2c3f-49c6-9da1-9b88b19dd39a"},"vehicle_type_id":"4","last_reported":1712639211,"current_range_meters":30000,"station_id":"ce4bgqh2rcd13ifvqc5g","pricing_plan_id":"cebpf4jnsgd1na2vs0mg"},{"bike_id":"5fdb08ba-2954-4421-bf7e-02ec24332efb","system_id":"levelo_inurba_marseille","lat":43.303046,"lon":5.368981,"is_reserved":false,"is_disabled":false,"rental_uris":{"android":"levelo://app?vid=5fdb08ba-2954-4421-bf7e-02ec24332efb","ios":"levelo://app?vid=5fdb08ba-2954-4421-bf7e-02ec24332efb"},"vehicle_type_id":"4","last_reported":1712639211,"current_range_meters":9200,"station_id":"ce4bgqh2rcd13ifvqc5g","pricing_plan_id":"cebpf4jnsgd1na2vs0mg"},{"bike_id":"593cb4c3-0b32-485b-be73-16abb5d470ca","system_id":"levelo_inurba_marseille","lat":43.287184,"lon":5.37937,"is_reserved":false,"is_disabled":false,"rental_uris":{"android":"levelo://app?vid=593cb4c3-0b32-485b-be73-16abb5d470ca","ios":"levelo://app?vid=593cb4c3-0b32-485b-be73-16abb5d470ca"},"vehicle_type_id":"4","last_reported":1712639211,"current_range_meters":31600,"station_id":"ce4bh9p2rcd13ifvqec0","pricing_plan_id":"cebpf4jnsgd1na2vs0mg"},{"bike_id":"b666e958-facc-4cde-b26c-3f29fa50b0ae","system_id":"levelo_inurba_marseille","lat":43.303046,"lon":5.368981,"is_reserved":false,"is_disabled":false,"rental_uris":{"android":"levelo://app?vid=b666e958-facc-4cde-b26c-3f29fa50b0ae","ios":"levelo://app?vid=b666e958-facc-4cde-b26c-3f29fa50b0ae"},"vehicle_type_id":"4","last_reported":1712639211,"current_range_meters":27200,"station_id":"ce4bgqh2rcd13ifvqc5g","pricing_plan_id":"cebpf4jnsgd1na2vs0mg"},{"bike_id":"8b70a62f-63a8-4c58-a21f-a05d3d1df56d","system_id":"levelo_inurba_marseille","lat":43.303046,"lon":5.368981,"is_reserved":false,"is_disabled":false,"rental_uris":{"android":"levelo://app?vid=8b70a62f-63a8-4c58-a21f-a05d3d1df56d","ios":"levelo://app?vid=8b70a62f-63a8-4c58-a21f-a05d3d1df56d"},"vehicle_type_id":"4","last_reported":1712639211,"current_range_meters":26800,"station_id":"ce4bgqh2rcd13ifvqc5g","pricing_plan_id":"cebpf4jnsgd1na2vs0mg"},{"bike_id":"cf1745c1-c135-4215-8272-80dafc380add","system_id":"levelo_inurba_marseille","lat":43.315293,"lon":5.380349,"is_reserved":false,"is_disabled":false,"rental_uris":{"android":"levelo://app?vid=cf1745c1-c135-4215-8272-80dafc380add","ios":"levelo://app?vid=cf1745c1-c135-4215-8272-80dafc380add"},"vehicle_type_id":"4","last_reported":1712639211,"current_range_meters":32000,"station_id":"ce4bhsp2rcd13ifvqi50","pricing_plan_id":"cebpf4jnsgd1na2vs0mg"},{"bike_id":"fb0bb270-363a-4aa2-9d09-684a2900324e","system_id":"levelo_inurba_marseille","lat":43.315293,"lon":5.380349,"is_reserved":false,"is_disabled":false,"rental_uris":{"android":"levelo://app?vid=fb0bb270-363a-4aa2-9d09-684a2900324e","ios":"levelo://app?vid=fb0bb270-363a-4aa2-9d09-684a2900324e"},"vehicle_type_id":"4","last_reported":1712639211,"current_range_meters":13200,"station_id":"ce4bhsp2rcd13ifvqi50","pricing_plan_id":"cebpf4jnsgd1na2vs0mg"},{"bike_id":"16394f1e-47af-4f30-9d28-d10b29c0008e","system_id":"levelo_inurba_marseille","lat":43.301939,"lon":5.366286,"is_reserved":false,"is_disabled":false,"rental_uris":{"android":"levelo://app?vid=16394f1e-47af-4f30-9d28-d10b29c0008e","ios":"levelo://app?vid=16394f1e-47af-4f30-9d28-d10b29c0008e"},"vehicle_type_id":"4","last_reported":1712639211,"current_range_meters":28000,"station_id":"ce4bgrh2rcd13ifvqc8g","pricing_plan_id":"cebpf4jnsgd1na2vs0mg"},{"bike_id":"c8fdaef1-ef30-494b-abca-ec3230772a24","system_id":"levelo_inurba_marseille","lat":43.304606,"lon":5.379026,"is_reserved":false,"is_disabled":false,"rental_uris":{"android":"levelo://app?vid=c8fdaef1-ef30-494b-abca-ec3230772a24","ios":"levelo://app?vid=c8fdaef1-ef30-494b-abca-ec3230772a24"},"vehicle_type_id":"4","last_reported":1712639211,"current_range_meters":31600,"station_id":"ce4bgup2rcd13ifvqcn0","pricing_plan_id":"cebpf4jnsgd1na2vs0mg"},{"bike_id":"08f6392b-6909-419f-ab76-5f93550567e1","system_id":"levelo_inurba_marseille","lat":43.304606,"lon":5.379026,"is_reserved":false,"is_disabled":false,"rental_uris":{"android":"levelo://app?vid=08f6392b-6909-419f-ab76-5f93550567e1","ios":"levelo://app?vid=08f6392b-6909-419f-ab76-5f93550567e1"},"vehicle_type_id":"4","last_reported":1712639211,"current_range_meters":20400,"station_id":"ce4bgup2rcd13ifvqcn0","pricing_plan_id":"cebpf4jnsgd1na2vs0mg"},{"bike_id":"b923225d-9cd4-42e2-9c83-d3ff563301d2","system_id":"levelo_inurba_marseille","lat":43.304606,"lon":5.379026,"is_reserved":false,"is_disabled":false,"rental_uris":{"android":"levelo://app?vid=b923225d-9cd4-42e2-9c83-d3ff563301d2","ios":"levelo://app?vid=b923225d-9cd4-42e2-9c83-d3ff563301d2"},"vehicle_type_id":"4","last_reported":1712639211,"current_range_meters":16800,"station_id":"ce4bgup2rcd13ifvqcn0","pricing_plan_id":"cebpf4jnsgd1na2vs0mg"},{"bike_id":"7bd1d03b-5f61-4b70-b736-64c1dc3ae946","system_id":"levelo_inurba_marseille","lat":43.304606,"lon":5.379026,"is_reserved":false,"is_disabled":false,"rental_uris":{"android":"levelo://app?vid=7bd1d03b-5f61-4b70-b736-64c1dc3ae946","ios":"levelo://app?vid=7bd1d03b-5f61-4b70-b736-64c1dc3ae946"},"vehicle_type_id":"4","last_reported":1712639211,"current_range_meters":28800,"station_id":"ce4bgup2rcd13ifvqcn0","pricing_plan_id":"cebpf4jnsgd1na2vs0mg"},{"bike_id":"d766b45e-0f65-41d9-b400-c7740846e717","system_id":"levelo_inurba_marseille","lat":43.304606,"lon":5.379026,"is_reserved":false,"is_disabled":false,"rental_uris":{"android":"levelo://app?vid=d766b45e-0f65-41d9-b400-c7740846e717","ios":"levelo://app?vid=d766b45e-0f65-41d9-b400-c7740846e717"},"vehicle_type_id":"4","last_reported":1712639211,"current_range_meters":26400,"station_id":"ce4bgup2rcd13ifvqcn0","pricing_plan_id":"cebpf4jnsgd1na2vs0mg"},{"bike_id":"caecd321-9682-4f3b-9643-b6d90ebb3f0e","system_id":"levelo_inurba_marseille","lat":43.304606,"lon":5.379026,"is_reserved":false,"is_disabled":false,"rental_uris":{"android":"levelo://app?vid=caecd321-9682-4f3b-9643-b6d90ebb3f0e","ios":"levelo://app?vid=caecd321-9682-4f3b-9643-b6d90ebb3f0e"},"vehicle_type_id":"4","last_reported":1712639211,"current_range_meters":31600,"station_id":"ce4bgup2rcd13ifvqcn0","pricing_plan_id":"cebpf4jnsgd1na2vs0mg"},{"bike_id":"34fb9a00-a10f-4ff0-a53c-3425096d90f8","system_id":"levelo_inurba_marseille","lat":43.30475,"lon":5.37905,"is_reserved":false,"is_disabled":false,"rental_uris":{"android":"levelo://app?vid=34fb9a00-a10f-4ff0-a53c-3425096d90f8","ios":"levelo://app?vid=34fb9a00-a10f-4ff0-a53c-3425096d90f8"},"vehicle_type_id":"4","last_reported":1712639211,"current_range_meters":25600,"station_id":"ce4bgup2rcd13ifvqcn0","pricing_plan_id":"cebpf4jnsgd1na2vs0mg"},{"bike_id":"a30f5189-d9f7-4d3f-a394-9bf5da3fd20e","system_id":"levelo_inurba_marseille","lat":43.304606,"lon":5.379026,"is_reserved":false,"is_disabled":false,"rental_uris":{"android":"levelo://app?vid=a30f5189-d9f7-4d3f-a394-9bf5da3fd20e","ios":"levelo://app?vid=a30f5189-d9f7-4d3f-a394-9bf5da3fd20e"},"vehicle_type_id":"4","last_reported":1712639211,"current_range_meters":29600,"station_id":"ce4bgup2rcd13ifvqcn0","pricing_plan_id":"cebpf4jnsgd1na2vs0mg"},{"bike_id":"2ab640d5-596c-4dd8-bc7d-9bdbf79a5f0a","system_id":"levelo_inurba_marseille","lat":43.304606,"lon":5.379026,"is_reserved":false,"is_disabled":false,"rental_uris":{"android":"levelo://app?vid=2ab640d5-596c-4dd8-bc7d-9bdbf79a5f0a","ios":"levelo://app?vid=2ab640d5-596c-4dd8-bc7d-9bdbf79a5f0a"},"vehicle_type_id":"4","last_reported":1712639211,"current_range_meters":29200,"station_id":"ce4bgup2rcd13ifvqcn0","pricing_plan_id":"cebpf4jnsgd1na2vs0mg"},{"bike_id":"545351b6-9df7-47c5-ad3d-f4709b30b07d","system_id":"levelo_inurba_marseille","lat":43.304606,"lon":5.379026,"is_reserved":false,"is_disabled":false,"rental_uris":{"android":"levelo://app?vid=545351b6-9df7-47c5-ad3d-f4709b30b07d","ios":"levelo://app?vid=545351b6-9df7-47c5-ad3d-f4709b30b07d"},"vehicle_type_id":"4","last_reported":1712639211,"current_range_meters":0,"station_id":"ce4bgup2rcd13ifvqcn0","pricing_plan_id":"cebpf4jnsgd1na2vs0mg"},{"bike_id":"6b87ac3f-593f-4368-b05f-0cdfb8797bff","system_id":"levelo_inurba_marseille","lat":43.304606,"lon":5.379026,"is_reserved":false,"is_disabled":false,"rental_uris":{"android":"levelo://app?vid=6b87ac3f-593f-4368-b05f-0cdfb8797bff","ios":"levelo://app?vid=6b87ac3f-593f-4368-b05f-0cdfb8797bff"},"vehicle_type_id":"4","last_reported":1712639211,"current_range_meters":30400,"station_id":"ce4bgup2rcd13ifvqcn0","pricing_plan_id":"cebpf4jnsgd1na2vs0mg"},{"bike_id":"e337f1b3-c9f7-497b-a38e-960a00b9a72b","system_id":"levelo_inurba_marseille","lat":43.304606,"lon":5.379026,"is_reserved":false,"is_disabled":false,"rental_uris":{"android":"levelo://app?vid=e337f1b3-c9f7-497b-a38e-960a00b9a72b","ios":"levelo://app?vid=e337f1b3-c9f7-497b-a38e-960a00b9a72b"},"vehicle_type_id":"4","last_reported":1712639211,"current_range_meters":20000,"station_id":"ce4bgup2rcd13ifvqcn0","pricing_plan_id":"cebpf4jnsgd1na2vs0mg"},{"bike_id":"1e7763ea-0bf0-4093-a1b5-3e099ef782fd","system_id":"levelo_inurba_marseille","lat":43.304606,"lon":5.379026,"is_reserved":false,"is_disabled":false,"rental_uris":{"android":"levelo://app?vid=1e7763ea-0bf0-4093-a1b5-3e099ef782fd","ios":"levelo://app?vid=1e7763ea-0bf0-4093-a1b5-3e099ef782fd"},"vehicle_type_id":"4","last_reported":1712639211,"current_range_meters":20800,"station_id":"ce4bgup2rcd13ifvqcn0","pricing_plan_id":"cebpf4jnsgd1na2vs0mg"},{"bike_id":"aa9c6bd3-814d-44b9-9d29-0a5b40430b0f","system_id":"levelo_inurba_marseille","lat":43.304802,"lon":5.379218,"is_reserved":false,"is_disabled":false,"rental_uris":{"android":"levelo://app?vid=aa9c6bd3-814d-44b9-9d29-0a5b40430b0f","ios":"levelo://app?vid=aa9c6bd3-814d-44b9-9d29-0a5b40430b0f"},"vehicle_type_id":"4","last_reported":1712639211,"current_range_meters":23200,"station_id":"ce4bgt92rcd13ifvqcg0","pricing_plan_id":"cebpf4jnsgd1na2vs0mg"},{"bike_id":"1ae19c36-afe1-4484-9ce0-03092a0f84f2","system_id":"levelo_inurba_marseille","lat":43.304606,"lon":5.379026,"is_reserved":false,"is_disabled":false,"rental_uris":{"android":"levelo://app?vid=1ae19c36-afe1-4484-9ce0-03092a0f84f2","ios":"levelo://app?vid=1ae19c36-afe1-4484-9ce0-03092a0f84f2"},"vehicle_type_id":"4","last_reported":1712639211,"current_range_meters":0,"station_id":"ce4bgup2rcd13ifvqcn0","pricing_plan_id":"cebpf4jnsgd1na2vs0mg"},{"bike_id":"d4c58185-a00b-4e56-90c2-2a239286e553","system_id":"levelo_inurba_marseille","lat":43.304606,"lon":5.379026,"is_reserved":false,"is_disabled":false,"rental_uris":{"android":"levelo://app?vid=d4c58185-a00b-4e56-90c2-2a239286e553","ios":"levelo://app?vid=d4c58185-a00b-4e56-90c2-2a239286e553"},"vehicle_type_id":"4","last_reported":1712639211,"current_range_meters":17600,"station_id":"ce4bgup2rcd13ifvqcn0","pricing_plan_id":"cebpf4jnsgd1na2vs0mg"},{"bike_id":"d8927a14-21fc-4229-9c7f-dfd86f59d556","system_id":"levelo_inurba_marseille","lat":43.304606,"lon":5.379026,"is_reserved":false,"is_disabled":false,"rental_uris":{"android":"levelo://app?vid=d8927a14-21fc-4229-9c7f-dfd86f59d556","ios":"levelo://app?vid=d8927a14-21fc-4229-9c7f-dfd86f59d556"},"vehicle_type_id":"4","last_reported":1712639211,"current_range_meters":26800,"station_id":"ce4bgup2rcd13ifvqcn0","pricing_plan_id":"cebpf4jnsgd1na2vs0mg"},{"bike_id":"61cb9232-bcfc-45b8-be19-d9c92ea823e8","system_id":"levelo_inurba_marseille","lat":43.304662,"lon":5.379102,"is_reserved":false,"is_disabled":false,"rental_uris":{"android":"levelo://app?vid=61cb9232-bcfc-45b8-be19-d9c92ea823e8","ios":"levelo://app?vid=61cb9232-bcfc-45b8-be19-d9c92ea823e8"},"vehicle_type_id":"4","last_reported":1712639211,"current_range_meters":30400,"station_id":"ce4bgup2rcd13ifvqcn0","pricing_plan_id":"cebpf4jnsgd1na2vs0mg"},{"bike_id":"5804b747-a15e-4009-85b7-81de0d1bcf23","system_id":"levelo_inurba_marseille","lat":43.304606,"lon":5.379026,"is_reserved":false,"is_disabled":false,"rental_uris":{"android":"levelo://app?vid=5804b747-a15e-4009-85b7-81de0d1bcf23","ios":"levelo://app?vid=5804b747-a15e-4009-85b7-81de0d1bcf23"},"vehicle_type_id":"4","last_reported":1712639211,"current_range_meters":16800,"station_id":"ce4bgup2rcd13ifvqcn0","pricing_plan_id":"cebpf4jnsgd1na2vs0mg"},{"bike_id":"9c918d61-3722-4490-b05c-23a5da8a566f","system_id":"levelo_inurba_marseille","lat":43.304707,"lon":5.379167,"is_reserved":false,"is_disabled":false,"rental_uris":{"android":"levelo://app?vid=9c918d61-3722-4490-b05c-23a5da8a566f","ios":"levelo://app?vid=9c918d61-3722-4490-b05c-23a5da8a566f"},"vehicle_type_id":"4","last_reported":1712639211,"current_range_meters":19200,"station_id":"ce4bgup2rcd13ifvqcn0","pricing_plan_id":"cebpf4jnsgd1na2vs0mg"},{"bike_id":"432f236b-ac68-4ec4-b63f-b4fa4a6b873a","system_id":"levelo_inurba_marseille","lat":43.30458,"lon":5.37901,"is_reserved":false,"is_disabled":false,"rental_uris":{"android":"levelo://app?vid=432f236b-ac68-4ec4-b63f-b4fa4a6b873a","ios":"levelo://app?vid=432f236b-ac68-4ec4-b63f-b4fa4a6b873a"},"vehicle_type_id":"4","last_reported":1712639211,"current_range_meters":22000,"station_id":"ce4bgup2rcd13ifvqcn0","pricing_plan_id":"cebpf4jnsgd1na2vs0mg"},{"bike_id":"5919a7e3-6a4f-45b6-bc73-6b3644fd9651","system_id":"levelo_inurba_marseille","lat":43.304606,"lon":5.379026,"is_reserved":false,"is_disabled":false,"rental_uris":{"android":"levelo://app?vid=5919a7e3-6a4f-45b6-bc73-6b3644fd9651","ios":"levelo://app?vid=5919a7e3-6a4f-45b6-bc73-6b3644fd9651"},"vehicle_type_id":"4","last_reported":1712639211,"current_range_meters":28000,"station_id":"ce4bgup2rcd13ifvqcn0","pricing_plan_id":"cebpf4jnsgd1na2vs0mg"},{"bike_id":"ef5c7aa2-bc22-4bfa-80fa-4e59aa74bc5d","system_id":"levelo_inurba_marseille","lat":43.304606,"lon":5.379026,"is_reserved":false,"is_disabled":false,"rental_uris":{"android":"levelo://app?vid=ef5c7aa2-bc22-4bfa-80fa-4e59aa74bc5d","ios":"levelo://app?vid=ef5c7aa2-bc22-4bfa-80fa-4e59aa74bc5d"},"vehicle_type_id":"4","last_reported":1712639211,"current_range_meters":16000,"station_id":"ce4bgup2rcd13ifvqcn0","pricing_plan_id":"cebpf4jnsgd1na2vs0mg"},{"bike_id":"01911ef8-24f2-4621-8dad-1e3b3df51ea0","system_id":"levelo_inurba_marseille","lat":43.304606,"lon":5.379026,"is_reserved":false,"is_disabled":false,"rental_uris":{"android":"levelo://app?vid=01911ef8-24f2-4621-8dad-1e3b3df51ea0","ios":"levelo://app?vid=01911ef8-24f2-4621-8dad-1e3b3df51ea0"},"vehicle_type_id":"4","last_reported":1712639211,"current_range_meters":18000,"station_id":"ce4bgup2rcd13ifvqcn0","pricing_plan_id":"cebpf4jnsgd1na2vs0mg"},{"bike_id":"0f56ad95-1c4f-4d54-bde0-f5853febd9ad","system_id":"levelo_inurba_marseille","lat":43.30467,"lon":5.37914,"is_reserved":false,"is_disabled":false,"rental_uris":{"android":"levelo://app?vid=0f56ad95-1c4f-4d54-bde0-f5853febd9ad","ios":"levelo://app?vid=0f56ad95-1c4f-4d54-bde0-f5853febd9ad"},"vehicle_type_id":"4","last_reported":1712639211,"current_range_meters":26800,"station_id":"ce4bgup2rcd13ifvqcn0","pricing_plan_id":"cebpf4jnsgd1na2vs0mg"},{"bike_id":"f486fac4-496e-44b6-aac8-7d5d47bba681","system_id":"levelo_inurba_marseille","lat":43.304606,"lon":5.379026,"is_reserved":false,"is_disabled":false,"rental_uris":{"android":"levelo://app?vid=f486fac4-496e-44b6-aac8-7d5d47bba681","ios":"levelo://app?vid=f486fac4-496e-44b6-aac8-7d5d47bba681"},"vehicle_type_id":"4","last_reported":1712639211,"current_range_meters":29200,"station_id":"ce4bgup2rcd13ifvqcn0","pricing_plan_id":"cebpf4jnsgd1na2vs0mg"},{"bike_id":"23954be4-10e9-48d6-973e-3bee693b169b","system_id":"levelo_inurba_marseille","lat":43.30465,"lon":5.37913,"is_reserved":false,"is_disabled":false,"rental_uris":{"android":"levelo://app?vid=23954be4-10e9-48d6-973e-3bee693b169b","ios":"levelo://app?vid=23954be4-10e9-48d6-973e-3bee693b169b"},"vehicle_type_id":"4","last_reported":1712639211,"current_range_meters":0,"station_id":"ce4bgup2rcd13ifvqcn0","pricing_plan_id":"cebpf4jnsgd1na2vs0mg"},{"bike_id":"3a23f870-35da-4549-afee-8d8b2264646b","system_id":"levelo_inurba_marseille","lat":43.30466,"lon":5.37915,"is_reserved":false,"is_disabled":false,"rental_uris":{"android":"levelo://app?vid=3a23f870-35da-4549-afee-8d8b2264646b","ios":"levelo://app?vid=3a23f870-35da-4549-afee-8d8b2264646b"},"vehicle_type_id":"4","last_reported":1712639211,"current_range_meters":22000,"station_id":"ce4bgup2rcd13ifvqcn0","pricing_plan_id":"cebpf4jnsgd1na2vs0mg"},{"bike_id":"2fd04988-19fd-4ec6-a2e5-c3e7e68505fa","system_id":"levelo_inurba_marseille","lat":43.30466,"lon":5.37916,"is_reserved":false,"is_disabled":false,"rental_uris":{"android":"levelo://app?vid=2fd04988-19fd-4ec6-a2e5-c3e7e68505fa","ios":"levelo://app?vid=2fd04988-19fd-4ec6-a2e5-c3e7e68505fa"},"vehicle_type_id":"4","last_reported":1712639211,"current_range_meters":26800,"station_id":"ce4bgup2rcd13ifvqcn0","pricing_plan_id":"cebpf4jnsgd1na2vs0mg"},{"bike_id":"836f4623-2225-47ca-a21d-c74ac7e67ab4","system_id":"levelo_inurba_marseille","lat":43.324733,"lon":5.365714,"is_reserved":false,"is_disabled":false,"rental_uris":{"android":"levelo://app?vid=836f4623-2225-47ca-a21d-c74ac7e67ab4","ios":"levelo://app?vid=836f4623-2225-47ca-a21d-c74ac7e67ab4"},"vehicle_type_id":"4","last_reported":1712639211,"current_range_meters":16400,"station_id":"ce4bhs12rcd13ifvqhvg","pricing_plan_id":"cebpf4jnsgd1na2vs0mg"},{"bike_id":"f2f0a323-f4cf-4d69-bda0-3382b45e92bd","system_id":"levelo_inurba_marseille","lat":43.32474,"lon":5.365756,"is_reserved":false,"is_disabled":false,"rental_uris":{"android":"levelo://app?vid=f2f0a323-f4cf-4d69-bda0-3382b45e92bd","ios":"levelo://app?vid=f2f0a323-f4cf-4d69-bda0-3382b45e92bd"},"vehicle_type_id":"4","last_reported":1712639211,"current_range_meters":8000,"station_id":"ce4bhs12rcd13ifvqhvg","pricing_plan_id":"cebpf4jnsgd1na2vs0mg"},{"bike_id":"37b9ef73-06e4-4192-8615-4c4d1afb00a2","system_id":"levelo_inurba_marseille","lat":43.30463,"lon":5.37915,"is_reserved":false,"is_disabled":false,"rental_uris":{"android":"levelo://app?vid=37b9ef73-06e4-4192-8615-4c4d1afb00a2","ios":"levelo://app?vid=37b9ef73-06e4-4192-8615-4c4d1afb00a2"},"vehicle_type_id":"4","last_reported":1712639211,"current_range_meters":24800,"station_id":"ce4bgup2rcd13ifvqcn0","pricing_plan_id":"cebpf4jnsgd1na2vs0mg"},{"bike_id":"e050f8ff-7db9-47bc-b082-a0d2a8c2d5d8","system_id":"levelo_inurba_marseille","lat":43.304606,"lon":5.379026,"is_reserved":false,"is_disabled":false,"rental_uris":{"android":"levelo://app?vid=e050f8ff-7db9-47bc-b082-a0d2a8c2d5d8","ios":"levelo://app?vid=e050f8ff-7db9-47bc-b082-a0d2a8c2d5d8"},"vehicle_type_id":"4","last_reported":1712639211,"current_range_meters":25600,"station_id":"ce4bgup2rcd13ifvqcn0","pricing_plan_id":"cebpf4jnsgd1na2vs0mg"},{"bike_id":"c4737b20-fe34-4c1a-bd03-42548ee2bffc","system_id":"levelo_inurba_marseille","lat":43.304606,"lon":5.379026,"is_reserved":false,"is_disabled":false,"rental_uris":{"android":"levelo://app?vid=c4737b20-fe34-4c1a-bd03-42548ee2bffc","ios":"levelo://app?vid=c4737b20-fe34-4c1a-bd03-42548ee2bffc"},"vehicle_type_id":"4","last_reported":1712639211,"current_range_meters":24400,"station_id":"ce4bgup2rcd13ifvqcn0","pricing_plan_id":"cebpf4jnsgd1na2vs0mg"},{"bike_id":"d453f5f1-b263-477b-864b-bf2146099cf6","system_id":"levelo_inurba_marseille","lat":43.324771,"lon":5.36557,"is_reserved":false,"is_disabled":false,"rental_uris":{"android":"levelo://app?vid=d453f5f1-b263-477b-864b-bf2146099cf6","ios":"levelo://app?vid=d453f5f1-b263-477b-864b-bf2146099cf6"},"vehicle_type_id":"4","last_reported":1712639211,"current_range_meters":18000,"station_id":"ce4bhs12rcd13ifvqhvg","pricing_plan_id":"cebpf4jnsgd1na2vs0mg"},{"bike_id":"bc18e1ca-2ba0-4c32-ad9f-3bd0ed79bf41","system_id":"levelo_inurba_marseille","lat":43.324771,"lon":5.36557,"is_reserved":false,"is_disabled":false,"rental_uris":{"android":"levelo://app?vid=bc18e1ca-2ba0-4c32-ad9f-3bd0ed79bf41","ios":"levelo://app?vid=bc18e1ca-2ba0-4c32-ad9f-3bd0ed79bf41"},"vehicle_type_id":"4","last_reported":1712639211,"current_range_meters":28000,"station_id":"ce4bhs12rcd13ifvqhvg","pricing_plan_id":"cebpf4jnsgd1na2vs0mg"},{"bike_id":"b7373fc7-088e-4fcb-9af9-2e8e176eee32","system_id":"levelo_inurba_marseille","lat":43.308051,"lon":5.43527,"is_reserved":false,"is_disabled":false,"rental_uris":{"android":"levelo://app?vid=b7373fc7-088e-4fcb-9af9-2e8e176eee32","ios":"levelo://app?vid=b7373fc7-088e-4fcb-9af9-2e8e176eee32"},"vehicle_type_id":"4","last_reported":1712639211,"current_range_meters":0,"station_id":"ce4bhph2rcd13ifvqheg","pricing_plan_id":"cebpf4jnsgd1na2vs0mg"},{"bike_id":"b61f5fce-3370-4eb2-9cfe-757ef3a5f155","system_id":"levelo_inurba_marseille","lat":43.324771,"lon":5.36557,"is_reserved":false,"is_disabled":false,"rental_uris":{"android":"levelo://app?vid=b61f5fce-3370-4eb2-9cfe-757ef3a5f155","ios":"levelo://app?vid=b61f5fce-3370-4eb2-9cfe-757ef3a5f155"},"vehicle_type_id":"4","last_reported":1712639211,"current_range_meters":23600,"station_id":"ce4bhs12rcd13ifvqhvg","pricing_plan_id":"cebpf4jnsgd1na2vs0mg"},{"bike_id":"7fabbeae-3d68-4f40-8ff2-5a6ef7c85f87","system_id":"levelo_inurba_marseille","lat":43.324771,"lon":5.36557,"is_reserved":false,"is_disabled":false,"rental_uris":{"android":"levelo://app?vid=7fabbeae-3d68-4f40-8ff2-5a6ef7c85f87","ios":"levelo://app?vid=7fabbeae-3d68-4f40-8ff2-5a6ef7c85f87"},"vehicle_type_id":"4","last_reported":1712639211,"current_range_meters":25600,"station_id":"ce4bhs12rcd13ifvqhvg","pricing_plan_id":"cebpf4jnsgd1na2vs0mg"},{"bike_id":"dd1eeaf3-7ce5-435e-b6c8-fd616106d621","system_id":"levelo_inurba_marseille","lat":43.324771,"lon":5.36557,"is_reserved":false,"is_disabled":false,"rental_uris":{"android":"levelo://app?vid=dd1eeaf3-7ce5-435e-b6c8-fd616106d621","ios":"levelo://app?vid=dd1eeaf3-7ce5-435e-b6c8-fd616106d621"},"vehicle_type_id":"4","last_reported":1712639211,"current_range_meters":18000,"station_id":"ce4bhs12rcd13ifvqhvg","pricing_plan_id":"cebpf4jnsgd1na2vs0mg"},{"bike_id":"7f1175c4-0172-440d-b61d-b816cff96fbc","system_id":"levelo_inurba_marseille","lat":43.324771,"lon":5.36557,"is_reserved":false,"is_disabled":false,"rental_uris":{"android":"levelo://app?vid=7f1175c4-0172-440d-b61d-b816cff96fbc","ios":"levelo://app?vid=7f1175c4-0172-440d-b61d-b816cff96fbc"},"vehicle_type_id":"4","last_reported":1712639211,"current_range_meters":20000,"station_id":"ce4bhs12rcd13ifvqhvg","pricing_plan_id":"cebpf4jnsgd1na2vs0mg"},{"bike_id":"93f39419-5cbf-400a-91d0-19b962f1e4df","system_id":"levelo_inurba_marseille","lat":43.324771,"lon":5.36557,"is_reserved":false,"is_disabled":false,"rental_uris":{"android":"levelo://app?vid=93f39419-5cbf-400a-91d0-19b962f1e4df","ios":"levelo://app?vid=93f39419-5cbf-400a-91d0-19b962f1e4df"},"vehicle_type_id":"4","last_reported":1712639211,"current_range_meters":3600,"station_id":"ce4bhs12rcd13ifvqhvg","pricing_plan_id":"cebpf4jnsgd1na2vs0mg"},{"bike_id":"466fa14b-daa3-4177-b540-e71b4a8e6995","system_id":"levelo_inurba_marseille","lat":43.324771,"lon":5.36557,"is_reserved":false,"is_disabled":false,"rental_uris":{"android":"levelo://app?vid=466fa14b-daa3-4177-b540-e71b4a8e6995","ios":"levelo://app?vid=466fa14b-daa3-4177-b540-e71b4a8e6995"},"vehicle_type_id":"4","last_reported":1712639211,"current_range_meters":19600,"station_id":"ce4bhs12rcd13ifvqhvg","pricing_plan_id":"cebpf4jnsgd1na2vs0mg"},{"bike_id":"5cd7436a-1c11-4873-af7d-baa07ac34cd8","system_id":"levelo_inurba_marseille","lat":43.324771,"lon":5.36557,"is_reserved":false,"is_disabled":false,"rental_uris":{"android":"levelo://app?vid=5cd7436a-1c11-4873-af7d-baa07ac34cd8","ios":"levelo://app?vid=5cd7436a-1c11-4873-af7d-baa07ac34cd8"},"vehicle_type_id":"4","last_reported":1712639211,"current_range_meters":20000,"station_id":"ce4bhs12rcd13ifvqhvg","pricing_plan_id":"cebpf4jnsgd1na2vs0mg"},{"bike_id":"8c866bc7-737e-4c29-8bba-ab56157d3a7a","system_id":"levelo_inurba_marseille","lat":43.324771,"lon":5.36557,"is_reserved":false,"is_disabled":false,"rental_uris":{"android":"levelo://app?vid=8c866bc7-737e-4c29-8bba-ab56157d3a7a","ios":"levelo://app?vid=8c866bc7-737e-4c29-8bba-ab56157d3a7a"},"vehicle_type_id":"4","last_reported":1712639211,"current_range_meters":400,"station_id":"ce4bhs12rcd13ifvqhvg","pricing_plan_id":"cebpf4jnsgd1na2vs0mg"},{"bike_id":"d3b996e9-4da1-4b89-87ff-4d5a0f28982e","system_id":"levelo_inurba_marseille","lat":43.324771,"lon":5.36557,"is_reserved":false,"is_disabled":false,"rental_uris":{"android":"levelo://app?vid=d3b996e9-4da1-4b89-87ff-4d5a0f28982e","ios":"levelo://app?vid=d3b996e9-4da1-4b89-87ff-4d5a0f28982e"},"vehicle_type_id":"4","last_reported":1712639211,"current_range_meters":13600,"station_id":"ce4bhs12rcd13ifvqhvg","pricing_plan_id":"cebpf4jnsgd1na2vs0mg"},{"bike_id":"0e3ce77f-c3c0-46ac-b6ec-8f5c837ca48f","system_id":"levelo_inurba_marseille","lat":43.310804,"lon":5.38359,"is_reserved":false,"is_disabled":false,"rental_uris":{"android":"levelo://app?vid=0e3ce77f-c3c0-46ac-b6ec-8f5c837ca48f","ios":"levelo://app?vid=0e3ce77f-c3c0-46ac-b6ec-8f5c837ca48f"},"vehicle_type_id":"4","last_reported":1712639211,"current_range_meters":26400,"station_id":"ce4bgv92rcd13ifvqcr0","pricing_plan_id":"cebpf4jnsgd1na2vs0mg"},{"bike_id":"28a60fa5-83d7-47ac-8e02-bbd9305ed0d8","system_id":"levelo_inurba_marseille","lat":43.324864,"lon":5.365701,"is_reserved":false,"is_disabled":false,"rental_uris":{"android":"levelo://app?vid=28a60fa5-83d7-47ac-8e02-bbd9305ed0d8","ios":"levelo://app?vid=28a60fa5-83d7-47ac-8e02-bbd9305ed0d8"},"vehicle_type_id":"4","last_reported":1712639211,"current_range_meters":12400,"station_id":"ce4bhs12rcd13ifvqhvg","pricing_plan_id":"cebpf4jnsgd1na2vs0mg"},{"bike_id":"27c81a18-cdda-4f1a-8d82-041f4af2b280","system_id":"levelo_inurba_marseille","lat":43.310804,"lon":5.38359,"is_reserved":false,"is_disabled":false,"rental_uris":{"android":"levelo://app?vid=27c81a18-cdda-4f1a-8d82-041f4af2b280","ios":"levelo://app?vid=27c81a18-cdda-4f1a-8d82-041f4af2b280"},"vehicle_type_id":"4","last_reported":1712639211,"current_range_meters":11600,"station_id":"ce4bgv92rcd13ifvqcr0","pricing_plan_id":"cebpf4jnsgd1na2vs0mg"},{"bike_id":"d12e7c2e-a3f2-4647-9ec1-aad839340afa","system_id":"levelo_inurba_marseille","lat":43.324771,"lon":5.36557,"is_reserved":false,"is_disabled":false,"rental_uris":{"android":"levelo://app?vid=d12e7c2e-a3f2-4647-9ec1-aad839340afa","ios":"levelo://app?vid=d12e7c2e-a3f2-4647-9ec1-aad839340afa"},"vehicle_type_id":"4","last_reported":1712639211,"current_range_meters":13200,"station_id":"ce4bhs12rcd13ifvqhvg","pricing_plan_id":"cebpf4jnsgd1na2vs0mg"},{"bike_id":"eaf552ff-6764-4664-bb69-ece0aa895899","system_id":"levelo_inurba_marseille","lat":43.310804,"lon":5.38359,"is_reserved":false,"is_disabled":false,"rental_uris":{"android":"levelo://app?vid=eaf552ff-6764-4664-bb69-ece0aa895899","ios":"levelo://app?vid=eaf552ff-6764-4664-bb69-ece0aa895899"},"vehicle_type_id":"4","last_reported":1712639211,"current_range_meters":24400,"station_id":"ce4bgv92rcd13ifvqcr0","pricing_plan_id":"cebpf4jnsgd1na2vs0mg"},{"bike_id":"c8be279b-b81f-4ae1-9057-adf184724a2e","system_id":"levelo_inurba_marseille","lat":43.310804,"lon":5.38359,"is_reserved":false,"is_disabled":false,"rental_uris":{"android":"levelo://app?vid=c8be279b-b81f-4ae1-9057-adf184724a2e","ios":"levelo://app?vid=c8be279b-b81f-4ae1-9057-adf184724a2e"},"vehicle_type_id":"4","last_reported":1712639211,"current_range_meters":13600,"station_id":"ce4bgv92rcd13ifvqcr0","pricing_plan_id":"cebpf4jnsgd1na2vs0mg"},{"bike_id":"966f9ad6-d3f0-41fc-9a75-56e069e3962b","system_id":"levelo_inurba_marseille","lat":43.310804,"lon":5.38359,"is_reserved":false,"is_disabled":false,"rental_uris":{"android":"levelo://app?vid=966f9ad6-d3f0-41fc-9a75-56e069e3962b","ios":"levelo://app?vid=966f9ad6-d3f0-41fc-9a75-56e069e3962b"},"vehicle_type_id":"4","last_reported":1712639211,"current_range_meters":26000,"station_id":"ce4bgv92rcd13ifvqcr0","pricing_plan_id":"cebpf4jnsgd1na2vs0mg"},{"bike_id":"c383bc70-58ce-47cc-8834-a5b7647e5198","system_id":"levelo_inurba_marseille","lat":43.310804,"lon":5.38359,"is_reserved":false,"is_disabled":false,"rental_uris":{"android":"levelo://app?vid=c383bc70-58ce-47cc-8834-a5b7647e5198","ios":"levelo://app?vid=c383bc70-58ce-47cc-8834-a5b7647e5198"},"vehicle_type_id":"4","last_reported":1712639211,"current_range_meters":17600,"station_id":"ce4bgv92rcd13ifvqcr0","pricing_plan_id":"cebpf4jnsgd1na2vs0mg"},{"bike_id":"faa00ea9-bce9-45cb-84ae-25756a16ece5","system_id":"levelo_inurba_marseille","lat":43.310804,"lon":5.38359,"is_reserved":false,"is_disabled":false,"rental_uris":{"android":"levelo://app?vid=faa00ea9-bce9-45cb-84ae-25756a16ece5","ios":"levelo://app?vid=faa00ea9-bce9-45cb-84ae-25756a16ece5"},"vehicle_type_id":"4","last_reported":1712639211,"current_range_meters":29600,"station_id":"ce4bgv92rcd13ifvqcr0","pricing_plan_id":"cebpf4jnsgd1na2vs0mg"},{"bike_id":"8ba3c4b4-53ed-4249-bfbd-b2e08a6db870","system_id":"levelo_inurba_marseille","lat":43.302784,"lon":5.377158,"is_reserved":false,"is_disabled":false,"rental_uris":{"android":"levelo://app?vid=8ba3c4b4-53ed-4249-bfbd-b2e08a6db870","ios":"levelo://app?vid=8ba3c4b4-53ed-4249-bfbd-b2e08a6db870"},"vehicle_type_id":"4","last_reported":1712639211,"current_range_meters":27600,"station_id":"ce4bguh2rcd13ifvqcj0","pricing_plan_id":"cebpf4jnsgd1na2vs0mg"},{"bike_id":"16f6fd52-e86a-4679-81cb-ce293889e27f","system_id":"levelo_inurba_marseille","lat":43.302784,"lon":5.377158,"is_reserved":false,"is_disabled":false,"rental_uris":{"android":"levelo://app?vid=16f6fd52-e86a-4679-81cb-ce293889e27f","ios":"levelo://app?vid=16f6fd52-e86a-4679-81cb-ce293889e27f"},"vehicle_type_id":"4","last_reported":1712639211,"current_range_meters":16800,"station_id":"ce4bguh2rcd13ifvqcj0","pricing_plan_id":"cebpf4jnsgd1na2vs0mg"},{"bike_id":"d45a96ba-74ee-4175-bfb9-53c999fdcc1e","system_id":"levelo_inurba_marseille","lat":43.302784,"lon":5.377158,"is_reserved":false,"is_disabled":false,"rental_uris":{"android":"levelo://app?vid=d45a96ba-74ee-4175-bfb9-53c999fdcc1e","ios":"levelo://app?vid=d45a96ba-74ee-4175-bfb9-53c999fdcc1e"},"vehicle_type_id":"4","last_reported":1712639211,"current_range_meters":24400,"station_id":"ce4bguh2rcd13ifvqcj0","pricing_plan_id":"cebpf4jnsgd1na2vs0mg"},{"bike_id":"e45b0161-a312-46ca-b472-670deccafc1e","system_id":"levelo_inurba_marseille","lat":43.30143,"lon":5.37413,"is_reserved":false,"is_disabled":false,"rental_uris":{"android":"levelo://app?vid=e45b0161-a312-46ca-b472-670deccafc1e","ios":"levelo://app?vid=e45b0161-a312-46ca-b472-670deccafc1e"},"vehicle_type_id":"4","last_reported":1712639211,"current_range_meters":14000,"station_id":"ce4bgs92rcd13ifvqcc0","pricing_plan_id":"cebpf4jnsgd1na2vs0mg"},{"bike_id":"d566bd6c-d076-4292-9ebb-0a174a0709f7","system_id":"levelo_inurba_marseille","lat":43.319935,"lon":5.381699,"is_reserved":false,"is_disabled":false,"rental_uris":{"android":"levelo://app?vid=d566bd6c-d076-4292-9ebb-0a174a0709f7","ios":"levelo://app?vid=d566bd6c-d076-4292-9ebb-0a174a0709f7"},"vehicle_type_id":"4","last_reported":1712639211,"current_range_meters":16400,"station_id":"ce4bhr12rcd13ifvqhpg","pricing_plan_id":"cebpf4jnsgd1na2vs0mg"},{"bike_id":"0e678be0-74e8-49be-b584-1086c487ed2c","system_id":"levelo_inurba_marseille","lat":43.319935,"lon":5.381699,"is_reserved":false,"is_disabled":false,"rental_uris":{"android":"levelo://app?vid=0e678be0-74e8-49be-b584-1086c487ed2c","ios":"levelo://app?vid=0e678be0-74e8-49be-b584-1086c487ed2c"},"vehicle_type_id":"4","last_reported":1712639211,"current_range_meters":22800,"station_id":"ce4bhr12rcd13ifvqhpg","pricing_plan_id":"cebpf4jnsgd1na2vs0mg"},{"bike_id":"d5ce791c-5b43-46b8-b989-d24eb0cedb62","system_id":"levelo_inurba_marseille","lat":43.313631,"lon":5.384829,"is_reserved":false,"is_disabled":false,"rental_uris":{"android":"levelo://app?vid=d5ce791c-5b43-46b8-b989-d24eb0cedb62","ios":"levelo://app?vid=d5ce791c-5b43-46b8-b989-d24eb0cedb62"},"vehicle_type_id":"4","last_reported":1712639211,"current_range_meters":17200,"station_id":"ce4bgt92rcd13ifvqcf0","pricing_plan_id":"cebpf4jnsgd1na2vs0mg"},{"bike_id":"2d24364c-ed30-4344-abeb-308120c9e7d6","system_id":"levelo_inurba_marseille","lat":43.304606,"lon":5.379026,"is_reserved":false,"is_disabled":false,"rental_uris":{"android":"levelo://app?vid=2d24364c-ed30-4344-abeb-308120c9e7d6","ios":"levelo://app?vid=2d24364c-ed30-4344-abeb-308120c9e7d6"},"vehicle_type_id":"4","last_reported":1712639211,"current_range_meters":29200,"station_id":"ce4bgup2rcd13ifvqcn0","pricing_plan_id":"cebpf4jnsgd1na2vs0mg"},{"bike_id":"9d655db6-42b5-4814-beac-2e61404a180e","system_id":"levelo_inurba_marseille","lat":43.31354,"lon":5.384922,"is_reserved":false,"is_disabled":false,"rental_uris":{"android":"levelo://app?vid=9d655db6-42b5-4814-beac-2e61404a180e","ios":"levelo://app?vid=9d655db6-42b5-4814-beac-2e61404a180e"},"vehicle_type_id":"4","last_reported":1712639211,"current_range_meters":31200,"station_id":"ce4bgt92rcd13ifvqcf0","pricing_plan_id":"cebpf4jnsgd1na2vs0mg"},{"bike_id":"c4054830-584a-4c53-b39c-ce84e2fd8932","system_id":"levelo_inurba_marseille","lat":43.31354,"lon":5.384954,"is_reserved":false,"is_disabled":false,"rental_uris":{"android":"levelo://app?vid=c4054830-584a-4c53-b39c-ce84e2fd8932","ios":"levelo://app?vid=c4054830-584a-4c53-b39c-ce84e2fd8932"},"vehicle_type_id":"4","last_reported":1712639211,"current_range_meters":7200,"station_id":"ce4bgt92rcd13ifvqcf0","pricing_plan_id":"cebpf4jnsgd1na2vs0mg"},{"bike_id":"c30cad06-4a36-4693-963e-e9f565eedd80","system_id":"levelo_inurba_marseille","lat":43.31373,"lon":5.38497,"is_reserved":false,"is_disabled":false,"rental_uris":{"android":"levelo://app?vid=c30cad06-4a36-4693-963e-e9f565eedd80","ios":"levelo://app?vid=c30cad06-4a36-4693-963e-e9f565eedd80"},"vehicle_type_id":"4","last_reported":1712639211,"current_range_meters":13600,"station_id":"ce4bgt92rcd13ifvqcf0","pricing_plan_id":"cebpf4jnsgd1na2vs0mg"},{"bike_id":"d0b0bf38-77f6-43f1-894d-fae71829cbcb","system_id":"levelo_inurba_marseille","lat":43.313669,"lon":5.385004,"is_reserved":false,"is_disabled":false,"rental_uris":{"android":"levelo://app?vid=d0b0bf38-77f6-43f1-894d-fae71829cbcb","ios":"levelo://app?vid=d0b0bf38-77f6-43f1-894d-fae71829cbcb"},"vehicle_type_id":"4","last_reported":1712639211,"current_range_meters":6400,"station_id":"ce4bgt92rcd13ifvqcf0","pricing_plan_id":"cebpf4jnsgd1na2vs0mg"},{"bike_id":"ccd30490-4a14-4b6e-92e3-be06b7264352","system_id":"levelo_inurba_marseille","lat":43.31363,"lon":5.38501,"is_reserved":false,"is_disabled":false,"rental_uris":{"android":"levelo://app?vid=ccd30490-4a14-4b6e-92e3-be06b7264352","ios":"levelo://app?vid=ccd30490-4a14-4b6e-92e3-be06b7264352"},"vehicle_type_id":"4","last_reported":1712639211,"current_range_meters":26000,"station_id":"ce4bgt92rcd13ifvqcf0","pricing_plan_id":"cebpf4jnsgd1na2vs0mg"},{"bike_id":"91b53106-6e5a-497e-9c65-b87cac1c0cd4","system_id":"levelo_inurba_marseille","lat":43.31361,"lon":5.38504,"is_reserved":false,"is_disabled":false,"rental_uris":{"android":"levelo://app?vid=91b53106-6e5a-497e-9c65-b87cac1c0cd4","ios":"levelo://app?vid=91b53106-6e5a-497e-9c65-b87cac1c0cd4"},"vehicle_type_id":"4","last_reported":1712639211,"current_range_meters":5600,"station_id":"ce4bgt92rcd13ifvqcf0","pricing_plan_id":"cebpf4jnsgd1na2vs0mg"},{"bike_id":"0d939551-57d2-452e-9729-d4061ea39405","system_id":"levelo_inurba_marseille","lat":43.31358,"lon":5.38505,"is_reserved":false,"is_disabled":false,"rental_uris":{"android":"levelo://app?vid=0d939551-57d2-452e-9729-d4061ea39405","ios":"levelo://app?vid=0d939551-57d2-452e-9729-d4061ea39405"},"vehicle_type_id":"4","last_reported":1712639211,"current_range_meters":27600,"station_id":"ce4bgt92rcd13ifvqcf0","pricing_plan_id":"cebpf4jnsgd1na2vs0mg"},{"bike_id":"6d2409d6-4c58-4413-b313-75cd4e09235e","system_id":"levelo_inurba_marseille","lat":43.299222,"lon":5.365554,"is_reserved":false,"is_disabled":false,"rental_uris":{"android":"levelo://app?vid=6d2409d6-4c58-4413-b313-75cd4e09235e","ios":"levelo://app?vid=6d2409d6-4c58-4413-b313-75cd4e09235e"},"vehicle_type_id":"4","last_reported":1712639211,"current_range_meters":30000,"station_id":"ce4bgm92rcd13ifvqbr0","pricing_plan_id":"cebpf4jnsgd1na2vs0mg"},{"bike_id":"7b8086a3-0639-447b-80ec-7d60ff4cb4f1","system_id":"levelo_inurba_marseille","lat":43.299222,"lon":5.365554,"is_reserved":false,"is_disabled":false,"rental_uris":{"android":"levelo://app?vid=7b8086a3-0639-447b-80ec-7d60ff4cb4f1","ios":"levelo://app?vid=7b8086a3-0639-447b-80ec-7d60ff4cb4f1"},"vehicle_type_id":"4","last_reported":1712639211,"current_range_meters":21600,"station_id":"ce4bgm92rcd13ifvqbr0","pricing_plan_id":"cebpf4jnsgd1na2vs0mg"},{"bike_id":"b95ab627-5d77-4ea8-b094-a46be0d1a78e","system_id":"levelo_inurba_marseille","lat":43.299222,"lon":5.365554,"is_reserved":false,"is_disabled":false,"rental_uris":{"android":"levelo://app?vid=b95ab627-5d77-4ea8-b094-a46be0d1a78e","ios":"levelo://app?vid=b95ab627-5d77-4ea8-b094-a46be0d1a78e"},"vehicle_type_id":"4","last_reported":1712639211,"current_range_meters":27600,"station_id":"ce4bgm92rcd13ifvqbr0","pricing_plan_id":"cebpf4jnsgd1na2vs0mg"},{"bike_id":"902f64c5-1cf8-46e1-b7e1-9f774fcc6093","system_id":"levelo_inurba_marseille","lat":43.299222,"lon":5.365554,"is_reserved":false,"is_disabled":false,"rental_uris":{"android":"levelo://app?vid=902f64c5-1cf8-46e1-b7e1-9f774fcc6093","ios":"levelo://app?vid=902f64c5-1cf8-46e1-b7e1-9f774fcc6093"},"vehicle_type_id":"4","last_reported":1712639211,"current_range_meters":27200,"station_id":"ce4bgm92rcd13ifvqbr0","pricing_plan_id":"cebpf4jnsgd1na2vs0mg"},{"bike_id":"6dd41630-0d30-49ba-aea5-20e574d5d65b","system_id":"levelo_inurba_marseille","lat":43.29857,"lon":5.3644,"is_reserved":false,"is_disabled":false,"rental_uris":{"android":"levelo://app?vid=6dd41630-0d30-49ba-aea5-20e574d5d65b","ios":"levelo://app?vid=6dd41630-0d30-49ba-aea5-20e574d5d65b"},"vehicle_type_id":"4","last_reported":1712639211,"current_range_meters":11200,"station_id":"","pricing_plan_id":"cebpf4jnsgd1na2vs0mg"},{"bike_id":"501c6822-73f2-479c-901c-70c7c46b4b54","system_id":"levelo_inurba_marseille","lat":43.298433,"lon":5.362774,"is_reserved":false,"is_disabled":false,"rental_uris":{"android":"levelo://app?vid=501c6822-73f2-479c-901c-70c7c46b4b54","ios":"levelo://app?vid=501c6822-73f2-479c-901c-70c7c46b4b54"},"vehicle_type_id":"4","last_reported":1712639211,"current_range_meters":28000,"station_id":"ce4bgpp2rcd13ifvqc3g","pricing_plan_id":"cebpf4jnsgd1na2vs0mg"},{"bike_id":"5175f9f2-6207-43bc-b341-dc7dd501faac","system_id":"levelo_inurba_marseille","lat":43.305364,"lon":5.384119,"is_reserved":false,"is_disabled":false,"rental_uris":{"android":"levelo://app?vid=5175f9f2-6207-43bc-b341-dc7dd501faac","ios":"levelo://app?vid=5175f9f2-6207-43bc-b341-dc7dd501faac"},"vehicle_type_id":"4","last_reported":1712639211,"current_range_meters":31200,"station_id":"ce4bgg92rcd13ifvqb30","pricing_plan_id":"cebpf4jnsgd1na2vs0mg"},{"bike_id":"ee9de005-bd70-463c-b44c-ed8592cfa4c0","system_id":"levelo_inurba_marseille","lat":43.305364,"lon":5.384119,"is_reserved":false,"is_disabled":false,"rental_uris":{"android":"levelo://app?vid=ee9de005-bd70-463c-b44c-ed8592cfa4c0","ios":"levelo://app?vid=ee9de005-bd70-463c-b44c-ed8592cfa4c0"},"vehicle_type_id":"4","last_reported":1712639211,"current_range_meters":29600,"station_id":"ce4bgg92rcd13ifvqb30","pricing_plan_id":"cebpf4jnsgd1na2vs0mg"},{"bike_id":"a0d06d39-3929-430a-974d-c2fd04d006f7","system_id":"levelo_inurba_marseille","lat":43.29843,"lon":5.362707,"is_reserved":false,"is_disabled":false,"rental_uris":{"android":"levelo://app?vid=a0d06d39-3929-430a-974d-c2fd04d006f7","ios":"levelo://app?vid=a0d06d39-3929-430a-974d-c2fd04d006f7"},"vehicle_type_id":"4","last_reported":1712639211,"current_range_meters":21600,"station_id":"ce4bgpp2rcd13ifvqc3g","pricing_plan_id":"cebpf4jnsgd1na2vs0mg"},{"bike_id":"3a009a40-2129-4339-a407-59b61a96271d","system_id":"levelo_inurba_marseille","lat":43.305364,"lon":5.384119,"is_reserved":false,"is_disabled":false,"rental_uris":{"android":"levelo://app?vid=3a009a40-2129-4339-a407-59b61a96271d","ios":"levelo://app?vid=3a009a40-2129-4339-a407-59b61a96271d"},"vehicle_type_id":"4","last_reported":1712639211,"current_range_meters":27600,"station_id":"ce4bgg92rcd13ifvqb30","pricing_plan_id":"cebpf4jnsgd1na2vs0mg"},{"bike_id":"a4ff92b0-0e66-42b7-bdfd-c9c2b59d610a","system_id":"levelo_inurba_marseille","lat":43.305364,"lon":5.384119,"is_reserved":false,"is_disabled":false,"rental_uris":{"android":"levelo://app?vid=a4ff92b0-0e66-42b7-bdfd-c9c2b59d610a","ios":"levelo://app?vid=a4ff92b0-0e66-42b7-bdfd-c9c2b59d610a"},"vehicle_type_id":"4","last_reported":1712639211,"current_range_meters":5200,"station_id":"ce4bgg92rcd13ifvqb30","pricing_plan_id":"cebpf4jnsgd1na2vs0mg"},{"bike_id":"02568c70-b7b9-44d5-98f3-89bb4b18e507","system_id":"levelo_inurba_marseille","lat":43.299243,"lon":5.374807,"is_reserved":false,"is_disabled":false,"rental_uris":{"android":"levelo://app?vid=02568c70-b7b9-44d5-98f3-89bb4b18e507","ios":"levelo://app?vid=02568c70-b7b9-44d5-98f3-89bb4b18e507"},"vehicle_type_id":"4","last_reported":1712639211,"current_range_meters":31600,"station_id":"ce4bgjh2rcd13ifvqbg0","pricing_plan_id":"cebpf4jnsgd1na2vs0mg"},{"bike_id":"969454bb-1922-4ee2-8098-8aec76befa4f","system_id":"levelo_inurba_marseille","lat":43.311722,"lon":5.387247,"is_reserved":false,"is_disabled":false,"rental_uris":{"android":"levelo://app?vid=969454bb-1922-4ee2-8098-8aec76befa4f","ios":"levelo://app?vid=969454bb-1922-4ee2-8098-8aec76befa4f"},"vehicle_type_id":"4","last_reported":1712639211,"current_range_meters":9600,"station_id":"ce4bgv12rcd13ifvqcp0","pricing_plan_id":"cebpf4jnsgd1na2vs0mg"},{"bike_id":"b80feff6-7927-4dc0-9d63-986bdb479d52","system_id":"levelo_inurba_marseille","lat":43.311722,"lon":5.387247,"is_reserved":false,"is_disabled":false,"rental_uris":{"android":"levelo://app?vid=b80feff6-7927-4dc0-9d63-986bdb479d52","ios":"levelo://app?vid=b80feff6-7927-4dc0-9d63-986bdb479d52"},"vehicle_type_id":"4","last_reported":1712639211,"current_range_meters":3600,"station_id":"ce4bgv12rcd13ifvqcp0","pricing_plan_id":"cebpf4jnsgd1na2vs0mg"},{"bike_id":"5ef03855-85b0-4e0f-8ffd-3291c5465f33","system_id":"levelo_inurba_marseille","lat":43.299243,"lon":5.374807,"is_reserved":false,"is_disabled":false,"rental_uris":{"android":"levelo://app?vid=5ef03855-85b0-4e0f-8ffd-3291c5465f33","ios":"levelo://app?vid=5ef03855-85b0-4e0f-8ffd-3291c5465f33"},"vehicle_type_id":"4","last_reported":1712639211,"current_range_meters":31600,"station_id":"ce4bgjh2rcd13ifvqbg0","pricing_plan_id":"cebpf4jnsgd1na2vs0mg"},{"bike_id":"2a119f8f-52d2-49b1-acdb-ed25db896d9b","system_id":"levelo_inurba_marseille","lat":43.311722,"lon":5.387247,"is_reserved":false,"is_disabled":false,"rental_uris":{"android":"levelo://app?vid=2a119f8f-52d2-49b1-acdb-ed25db896d9b","ios":"levelo://app?vid=2a119f8f-52d2-49b1-acdb-ed25db896d9b"},"vehicle_type_id":"4","last_reported":1712639211,"current_range_meters":18400,"station_id":"ce4bgv12rcd13ifvqcp0","pricing_plan_id":"cebpf4jnsgd1na2vs0mg"},{"bike_id":"c9a8adb6-818e-480b-95a2-2353560b2420","system_id":"levelo_inurba_marseille","lat":43.311722,"lon":5.387247,"is_reserved":false,"is_disabled":false,"rental_uris":{"android":"levelo://app?vid=c9a8adb6-818e-480b-95a2-2353560b2420","ios":"levelo://app?vid=c9a8adb6-818e-480b-95a2-2353560b2420"},"vehicle_type_id":"4","last_reported":1712639211,"current_range_meters":16000,"station_id":"ce4bgv12rcd13ifvqcp0","pricing_plan_id":"cebpf4jnsgd1na2vs0mg"},{"bike_id":"a854eb33-5cf1-4b38-a92d-09277a135927","system_id":"levelo_inurba_marseille","lat":43.311722,"lon":5.387247,"is_reserved":false,"is_disabled":false,"rental_uris":{"android":"levelo://app?vid=a854eb33-5cf1-4b38-a92d-09277a135927","ios":"levelo://app?vid=a854eb33-5cf1-4b38-a92d-09277a135927"},"vehicle_type_id":"4","last_reported":1712639211,"current_range_meters":26000,"station_id":"ce4bgv12rcd13ifvqcp0","pricing_plan_id":"cebpf4jnsgd1na2vs0mg"},{"bike_id":"135d21c7-7646-4420-989e-ce8a6cebc9d9","system_id":"levelo_inurba_marseille","lat":43.311722,"lon":5.387247,"is_reserved":false,"is_disabled":false,"rental_uris":{"android":"levelo://app?vid=135d21c7-7646-4420-989e-ce8a6cebc9d9","ios":"levelo://app?vid=135d21c7-7646-4420-989e-ce8a6cebc9d9"},"vehicle_type_id":"4","last_reported":1712639211,"current_range_meters":17600,"station_id":"ce4bgv12rcd13ifvqcp0","pricing_plan_id":"cebpf4jnsgd1na2vs0mg"},{"bike_id":"b750c310-0439-4839-be77-903c7c77e81b","system_id":"levelo_inurba_marseille","lat":43.311671,"lon":5.387136,"is_reserved":false,"is_disabled":false,"rental_uris":{"android":"levelo://app?vid=b750c310-0439-4839-be77-903c7c77e81b","ios":"levelo://app?vid=b750c310-0439-4839-be77-903c7c77e81b"},"vehicle_type_id":"4","last_reported":1712639211,"current_range_meters":31200,"station_id":"ce4bgv12rcd13ifvqcp0","pricing_plan_id":"cebpf4jnsgd1na2vs0mg"},{"bike_id":"b587ca8f-8324-471a-8225-164c8114b5ee","system_id":"levelo_inurba_marseille","lat":43.30045,"lon":5.378137,"is_reserved":false,"is_disabled":false,"rental_uris":{"android":"levelo://app?vid=b587ca8f-8324-471a-8225-164c8114b5ee","ios":"levelo://app?vid=b587ca8f-8324-471a-8225-164c8114b5ee"},"vehicle_type_id":"4","last_reported":1712639211,"current_range_meters":12800,"station_id":"","pricing_plan_id":"cebpf4jnsgd1na2vs0mg"},{"bike_id":"06d0bd59-3b1f-4d72-a3a4-f13abdade5f9","system_id":"levelo_inurba_marseille","lat":43.311722,"lon":5.387247,"is_reserved":false,"is_disabled":false,"rental_uris":{"android":"levelo://app?vid=06d0bd59-3b1f-4d72-a3a4-f13abdade5f9","ios":"levelo://app?vid=06d0bd59-3b1f-4d72-a3a4-f13abdade5f9"},"vehicle_type_id":"4","last_reported":1712639211,"current_range_meters":25600,"station_id":"ce4bgv12rcd13ifvqcp0","pricing_plan_id":"cebpf4jnsgd1na2vs0mg"},{"bike_id":"6fc92558-6871-45a6-bd47-80519d037fc0","system_id":"levelo_inurba_marseille","lat":43.299243,"lon":5.374807,"is_reserved":false,"is_disabled":false,"rental_uris":{"android":"levelo://app?vid=6fc92558-6871-45a6-bd47-80519d037fc0","ios":"levelo://app?vid=6fc92558-6871-45a6-bd47-80519d037fc0"},"vehicle_type_id":"4","last_reported":1712639211,"current_range_meters":19600,"station_id":"ce4bgjh2rcd13ifvqbg0","pricing_plan_id":"cebpf4jnsgd1na2vs0mg"},{"bike_id":"3077b952-a308-458d-b1d2-fc92f760efb4","system_id":"levelo_inurba_marseille","lat":43.297847,"lon":5.371047,"is_reserved":false,"is_disabled":false,"rental_uris":{"android":"levelo://app?vid=3077b952-a308-458d-b1d2-fc92f760efb4","ios":"levelo://app?vid=3077b952-a308-458d-b1d2-fc92f760efb4"},"vehicle_type_id":"4","last_reported":1712639211,"current_range_meters":12800,"station_id":"ce4bgop2rcd13ifvqc1g","pricing_plan_id":"cebpf4jnsgd1na2vs0mg"},{"bike_id":"ce262d47-6adc-4310-a652-b999cfa2d70d","system_id":"levelo_inurba_marseille","lat":43.322872,"lon":5.382756,"is_reserved":false,"is_disabled":false,"rental_uris":{"android":"levelo://app?vid=ce262d47-6adc-4310-a652-b999cfa2d70d","ios":"levelo://app?vid=ce262d47-6adc-4310-a652-b999cfa2d70d"},"vehicle_type_id":"4","last_reported":1712639211,"current_range_meters":32000,"station_id":"ce4bhr12rcd13ifvqhqg","pricing_plan_id":"cebpf4jnsgd1na2vs0mg"},{"bike_id":"08ca3a6f-0ed6-4ef5-bbaf-4b3572bd7210","system_id":"levelo_inurba_marseille","lat":43.297774,"lon":5.370875,"is_reserved":false,"is_disabled":false,"rental_uris":{"android":"levelo://app?vid=08ca3a6f-0ed6-4ef5-bbaf-4b3572bd7210","ios":"levelo://app?vid=08ca3a6f-0ed6-4ef5-bbaf-4b3572bd7210"},"vehicle_type_id":"4","last_reported":1712639211,"current_range_meters":17200,"station_id":"ce4bgop2rcd13ifvqc1g","pricing_plan_id":"cebpf4jnsgd1na2vs0mg"},{"bike_id":"daf6230f-7b8a-4a86-aa66-9d143d04c30b","system_id":"levelo_inurba_marseille","lat":43.322872,"lon":5.382756,"is_reserved":false,"is_disabled":false,"rental_uris":{"android":"levelo://app?vid=daf6230f-7b8a-4a86-aa66-9d143d04c30b","ios":"levelo://app?vid=daf6230f-7b8a-4a86-aa66-9d143d04c30b"},"vehicle_type_id":"4","last_reported":1712639211,"current_range_meters":31200,"station_id":"ce4bhr12rcd13ifvqhqg","pricing_plan_id":"cebpf4jnsgd1na2vs0mg"},{"bike_id":"4f6a2b4c-6725-485d-83c3-05cad3f78400","system_id":"levelo_inurba_marseille","lat":43.322872,"lon":5.382756,"is_reserved":false,"is_disabled":false,"rental_uris":{"android":"levelo://app?vid=4f6a2b4c-6725-485d-83c3-05cad3f78400","ios":"levelo://app?vid=4f6a2b4c-6725-485d-83c3-05cad3f78400"},"vehicle_type_id":"4","last_reported":1712639211,"current_range_meters":11600,"station_id":"ce4bhr12rcd13ifvqhqg","pricing_plan_id":"cebpf4jnsgd1na2vs0mg"},{"bike_id":"c6c56787-5af4-461a-a1fb-627309935cd3","system_id":"levelo_inurba_marseille","lat":43.322872,"lon":5.382756,"is_reserved":false,"is_disabled":false,"rental_uris":{"android":"levelo://app?vid=c6c56787-5af4-461a-a1fb-627309935cd3","ios":"levelo://app?vid=c6c56787-5af4-461a-a1fb-627309935cd3"},"vehicle_type_id":"4","last_reported":1712639211,"current_range_meters":20800,"station_id":"ce4bhr12rcd13ifvqhqg","pricing_plan_id":"cebpf4jnsgd1na2vs0mg"},{"bike_id":"a7b21e5a-dc6a-4c61-a5dd-10854c26bc74","system_id":"levelo_inurba_marseille","lat":43.297163,"lon":5.365866,"is_reserved":false,"is_disabled":false,"rental_uris":{"android":"levelo://app?vid=a7b21e5a-dc6a-4c61-a5dd-10854c26bc74","ios":"levelo://app?vid=a7b21e5a-dc6a-4c61-a5dd-10854c26bc74"},"vehicle_type_id":"4","last_reported":1712639211,"current_range_meters":31600,"station_id":"ce4bgn12rcd13ifvqbt0","pricing_plan_id":"cebpf4jnsgd1na2vs0mg"},{"bike_id":"ef7182ea-2233-43e8-898e-a7de37ada98b","system_id":"levelo_inurba_marseille","lat":43.297163,"lon":5.365866,"is_reserved":false,"is_disabled":false,"rental_uris":{"android":"levelo://app?vid=ef7182ea-2233-43e8-898e-a7de37ada98b","ios":"levelo://app?vid=ef7182ea-2233-43e8-898e-a7de37ada98b"},"vehicle_type_id":"4","last_reported":1712639211,"current_range_meters":26000,"station_id":"ce4bgn12rcd13ifvqbt0","pricing_plan_id":"cebpf4jnsgd1na2vs0mg"},{"bike_id":"bf452407-aa99-439e-a2de-7283f4049167","system_id":"levelo_inurba_marseille","lat":43.297163,"lon":5.365866,"is_reserved":false,"is_disabled":false,"rental_uris":{"android":"levelo://app?vid=bf452407-aa99-439e-a2de-7283f4049167","ios":"levelo://app?vid=bf452407-aa99-439e-a2de-7283f4049167"},"vehicle_type_id":"4","last_reported":1712639211,"current_range_meters":27200,"station_id":"ce4bgn12rcd13ifvqbt0","pricing_plan_id":"cebpf4jnsgd1na2vs0mg"},{"bike_id":"e0b07ec7-4464-405f-8b9f-06a48339c629","system_id":"levelo_inurba_marseille","lat":43.297163,"lon":5.365866,"is_reserved":false,"is_disabled":false,"rental_uris":{"android":"levelo://app?vid=e0b07ec7-4464-405f-8b9f-06a48339c629","ios":"levelo://app?vid=e0b07ec7-4464-405f-8b9f-06a48339c629"},"vehicle_type_id":"4","last_reported":1712639211,"current_range_meters":29200,"station_id":"ce4bgn12rcd13ifvqbt0","pricing_plan_id":"cebpf4jnsgd1na2vs0mg"},{"bike_id":"7fd1ea66-0293-4578-8b9a-79f6e3c74363","system_id":"levelo_inurba_marseille","lat":43.297163,"lon":5.365866,"is_reserved":false,"is_disabled":false,"rental_uris":{"android":"levelo://app?vid=7fd1ea66-0293-4578-8b9a-79f6e3c74363","ios":"levelo://app?vid=7fd1ea66-0293-4578-8b9a-79f6e3c74363"},"vehicle_type_id":"4","last_reported":1712639211,"current_range_meters":18400,"station_id":"ce4bgn12rcd13ifvqbt0","pricing_plan_id":"cebpf4jnsgd1na2vs0mg"},{"bike_id":"138dd215-1b7c-4dd4-ab84-bc72a8852ad4","system_id":"levelo_inurba_marseille","lat":43.297163,"lon":5.365866,"is_reserved":false,"is_disabled":false,"rental_uris":{"android":"levelo://app?vid=138dd215-1b7c-4dd4-ab84-bc72a8852ad4","ios":"levelo://app?vid=138dd215-1b7c-4dd4-ab84-bc72a8852ad4"},"vehicle_type_id":"4","last_reported":1712639211,"current_range_meters":29600,"station_id":"ce4bgn12rcd13ifvqbt0","pricing_plan_id":"cebpf4jnsgd1na2vs0mg"},{"bike_id":"f2937007-981a-4413-9af3-8f37744352d6","system_id":"levelo_inurba_marseille","lat":43.297163,"lon":5.365866,"is_reserved":false,"is_disabled":false,"rental_uris":{"android":"levelo://app?vid=f2937007-981a-4413-9af3-8f37744352d6","ios":"levelo://app?vid=f2937007-981a-4413-9af3-8f37744352d6"},"vehicle_type_id":"4","last_reported":1712639211,"current_range_meters":30000,"station_id":"ce4bgn12rcd13ifvqbt0","pricing_plan_id":"cebpf4jnsgd1na2vs0mg"},{"bike_id":"ecfa5616-6081-4cb6-a6c7-711932be47ec","system_id":"levelo_inurba_marseille","lat":43.29573,"lon":5.367355,"is_reserved":false,"is_disabled":false,"rental_uris":{"android":"levelo://app?vid=ecfa5616-6081-4cb6-a6c7-711932be47ec","ios":"levelo://app?vid=ecfa5616-6081-4cb6-a6c7-711932be47ec"},"vehicle_type_id":"4","last_reported":1712639211,"current_range_meters":30800,"station_id":"ce4bgph2rcd13ifvqc2g","pricing_plan_id":"cebpf4jnsgd1na2vs0mg"},{"bike_id":"f51d0f27-2dd8-4185-b306-1f515f937774","system_id":"levelo_inurba_marseille","lat":43.296935,"lon":5.376544,"is_reserved":false,"is_disabled":false,"rental_uris":{"android":"levelo://app?vid=f51d0f27-2dd8-4185-b306-1f515f937774","ios":"levelo://app?vid=f51d0f27-2dd8-4185-b306-1f515f937774"},"vehicle_type_id":"4","last_reported":1712639211,"current_range_meters":24000,"station_id":"ce4bgkh2rcd13ifvqbl0","pricing_plan_id":"cebpf4jnsgd1na2vs0mg"},{"bike_id":"451d6c86-3a9e-450e-ab42-78319cd8db0e","system_id":"levelo_inurba_marseille","lat":43.296921,"lon":5.376579,"is_reserved":false,"is_disabled":false,"rental_uris":{"android":"levelo://app?vid=451d6c86-3a9e-450e-ab42-78319cd8db0e","ios":"levelo://app?vid=451d6c86-3a9e-450e-ab42-78319cd8db0e"},"vehicle_type_id":"4","last_reported":1712639211,"current_range_meters":29200,"station_id":"ce4bgkh2rcd13ifvqbl0","pricing_plan_id":"cebpf4jnsgd1na2vs0mg"},{"bike_id":"ec2cfbd8-7c27-4bcf-b2cc-4aa9752d04b7","system_id":"levelo_inurba_marseille","lat":43.296921,"lon":5.376579,"is_reserved":false,"is_disabled":false,"rental_uris":{"android":"levelo://app?vid=ec2cfbd8-7c27-4bcf-b2cc-4aa9752d04b7","ios":"levelo://app?vid=ec2cfbd8-7c27-4bcf-b2cc-4aa9752d04b7"},"vehicle_type_id":"4","last_reported":1712639211,"current_range_meters":10000,"station_id":"ce4bgkh2rcd13ifvqbl0","pricing_plan_id":"cebpf4jnsgd1na2vs0mg"},{"bike_id":"2023217d-7a5b-4e93-b926-83b71b07715b","system_id":"levelo_inurba_marseille","lat":43.30957,"lon":5.39017,"is_reserved":false,"is_disabled":false,"rental_uris":{"android":"levelo://app?vid=2023217d-7a5b-4e93-b926-83b71b07715b","ios":"levelo://app?vid=2023217d-7a5b-4e93-b926-83b71b07715b"},"vehicle_type_id":"4","last_reported":1712639211,"current_range_meters":19600,"station_id":"ce4bgup2rcd13ifvqco0","pricing_plan_id":"cebpf4jnsgd1na2vs0mg"},{"bike_id":"df169b70-371d-4951-b59e-46c21e4804fe","system_id":"levelo_inurba_marseille","lat":43.299028,"lon":5.381509,"is_reserved":false,"is_disabled":false,"rental_uris":{"android":"levelo://app?vid=df169b70-371d-4951-b59e-46c21e4804fe","ios":"levelo://app?vid=df169b70-371d-4951-b59e-46c21e4804fe"},"vehicle_type_id":"4","last_reported":1712639211,"current_range_meters":27600,"station_id":"ce4bgj12rcd13ifvqbc0","pricing_plan_id":"cebpf4jnsgd1na2vs0mg"},{"bike_id":"04802940-4924-47c9-b6f9-eed7bb800273","system_id":"levelo_inurba_marseille","lat":43.296935,"lon":5.376544,"is_reserved":false,"is_disabled":false,"rental_uris":{"android":"levelo://app?vid=04802940-4924-47c9-b6f9-eed7bb800273","ios":"levelo://app?vid=04802940-4924-47c9-b6f9-eed7bb800273"},"vehicle_type_id":"4","last_reported":1712639211,"current_range_meters":29600,"station_id":"ce4bgkh2rcd13ifvqbl0","pricing_plan_id":"cebpf4jnsgd1na2vs0mg"},{"bike_id":"52887656-1f59-42c2-9094-4a2748a6e6bb","system_id":"levelo_inurba_marseille","lat":43.309579,"lon":5.390301,"is_reserved":false,"is_disabled":false,"rental_uris":{"android":"levelo://app?vid=52887656-1f59-42c2-9094-4a2748a6e6bb","ios":"levelo://app?vid=52887656-1f59-42c2-9094-4a2748a6e6bb"},"vehicle_type_id":"4","last_reported":1712639211,"current_range_meters":26800,"station_id":"ce4bgup2rcd13ifvqco0","pricing_plan_id":"cebpf4jnsgd1na2vs0mg"},{"bike_id":"03492c6e-127d-4bde-bdaa-023fd9832c03","system_id":"levelo_inurba_marseille","lat":43.309589,"lon":5.390258,"is_reserved":false,"is_disabled":false,"rental_uris":{"android":"levelo://app?vid=03492c6e-127d-4bde-bdaa-023fd9832c03","ios":"levelo://app?vid=03492c6e-127d-4bde-bdaa-023fd9832c03"},"vehicle_type_id":"4","last_reported":1712639211,"current_range_meters":29200,"station_id":"ce4bgup2rcd13ifvqco0","pricing_plan_id":"cebpf4jnsgd1na2vs0mg"},{"bike_id":"816ed401-2c30-480b-b45d-ef695fb3a1db","system_id":"levelo_inurba_marseille","lat":43.309589,"lon":5.390258,"is_reserved":false,"is_disabled":false,"rental_uris":{"android":"levelo://app?vid=816ed401-2c30-480b-b45d-ef695fb3a1db","ios":"levelo://app?vid=816ed401-2c30-480b-b45d-ef695fb3a1db"},"vehicle_type_id":"4","last_reported":1712639211,"current_range_meters":24400,"station_id":"ce4bgup2rcd13ifvqco0","pricing_plan_id":"cebpf4jnsgd1na2vs0mg"},{"bike_id":"2ae58dba-8c98-407a-8117-613cad34279a","system_id":"levelo_inurba_marseille","lat":43.309589,"lon":5.390258,"is_reserved":false,"is_disabled":false,"rental_uris":{"android":"levelo://app?vid=2ae58dba-8c98-407a-8117-613cad34279a","ios":"levelo://app?vid=2ae58dba-8c98-407a-8117-613cad34279a"},"vehicle_type_id":"4","last_reported":1712639211,"current_range_meters":24800,"station_id":"ce4bgup2rcd13ifvqco0","pricing_plan_id":"cebpf4jnsgd1na2vs0mg"},{"bike_id":"edda8c33-c844-4be0-b6be-54542b116763","system_id":"levelo_inurba_marseille","lat":43.309589,"lon":5.390258,"is_reserved":false,"is_disabled":false,"rental_uris":{"android":"levelo://app?vid=edda8c33-c844-4be0-b6be-54542b116763","ios":"levelo://app?vid=edda8c33-c844-4be0-b6be-54542b116763"},"vehicle_type_id":"4","last_reported":1712639211,"current_range_meters":20800,"station_id":"ce4bgup2rcd13ifvqco0","pricing_plan_id":"cebpf4jnsgd1na2vs0mg"},{"bike_id":"d96ace96-38a1-4bbf-a539-cdad5a18c2dc","system_id":"levelo_inurba_marseille","lat":43.317557,"lon":5.390173,"is_reserved":false,"is_disabled":false,"rental_uris":{"android":"levelo://app?vid=d96ace96-38a1-4bbf-a539-cdad5a18c2dc","ios":"levelo://app?vid=d96ace96-38a1-4bbf-a539-cdad5a18c2dc"},"vehicle_type_id":"4","last_reported":1712639211,"current_range_meters":26800,"station_id":"ce4bhqp2rcd13ifvqhng","pricing_plan_id":"cebpf4jnsgd1na2vs0mg"},{"bike_id":"a2106aeb-58bb-4f43-920c-7a3bdabadb32","system_id":"levelo_inurba_marseille","lat":43.317557,"lon":5.390173,"is_reserved":false,"is_disabled":false,"rental_uris":{"android":"levelo://app?vid=a2106aeb-58bb-4f43-920c-7a3bdabadb32","ios":"levelo://app?vid=a2106aeb-58bb-4f43-920c-7a3bdabadb32"},"vehicle_type_id":"4","last_reported":1712639211,"current_range_meters":26000,"station_id":"ce4bhqp2rcd13ifvqhng","pricing_plan_id":"cebpf4jnsgd1na2vs0mg"},{"bike_id":"bd8a2af8-620b-480e-a4d5-ce69334b576c","system_id":"levelo_inurba_marseille","lat":43.295748,"lon":5.37522,"is_reserved":false,"is_disabled":false,"rental_uris":{"android":"levelo://app?vid=bd8a2af8-620b-480e-a4d5-ce69334b576c","ios":"levelo://app?vid=bd8a2af8-620b-480e-a4d5-ce69334b576c"},"vehicle_type_id":"4","last_reported":1712639211,"current_range_meters":22800,"station_id":"ce4bgh92rcd13ifvqb50","pricing_plan_id":"cebpf4jnsgd1na2vs0mg"},{"bike_id":"d81a1183-949a-4cb3-8ce5-833288de7f79","system_id":"levelo_inurba_marseille","lat":43.296277,"lon":5.377108,"is_reserved":false,"is_disabled":false,"rental_uris":{"android":"levelo://app?vid=d81a1183-949a-4cb3-8ce5-833288de7f79","ios":"levelo://app?vid=d81a1183-949a-4cb3-8ce5-833288de7f79"},"vehicle_type_id":"4","last_reported":1712639211,"current_range_meters":26800,"station_id":"ce4bgi92rcd13ifvqb90","pricing_plan_id":"cebpf4jnsgd1na2vs0mg"},{"bike_id":"1f749f40-1311-4465-a181-27408bce4344","system_id":"levelo_inurba_marseille","lat":43.29525,"lon":5.37501,"is_reserved":false,"is_disabled":false,"rental_uris":{"android":"levelo://app?vid=1f749f40-1311-4465-a181-27408bce4344","ios":"levelo://app?vid=1f749f40-1311-4465-a181-27408bce4344"},"vehicle_type_id":"4","last_reported":1712639211,"current_range_meters":7600,"station_id":"","pricing_plan_id":"cebpf4jnsgd1na2vs0mg"},{"bike_id":"bc09ad84-9748-4938-84ea-5ec751813d3d","system_id":"levelo_inurba_marseille","lat":43.295279,"lon":5.375048,"is_reserved":false,"is_disabled":false,"rental_uris":{"android":"levelo://app?vid=bc09ad84-9748-4938-84ea-5ec751813d3d","ios":"levelo://app?vid=bc09ad84-9748-4938-84ea-5ec751813d3d"},"vehicle_type_id":"4","last_reported":1712639211,"current_range_meters":12400,"station_id":"ce4bgkp2rcd13ifvqbmg","pricing_plan_id":"cebpf4jnsgd1na2vs0mg"},{"bike_id":"f150223f-d56b-418b-ba8c-a8e4b4438d9c","system_id":"levelo_inurba_marseille","lat":43.296277,"lon":5.377108,"is_reserved":false,"is_disabled":false,"rental_uris":{"android":"levelo://app?vid=f150223f-d56b-418b-ba8c-a8e4b4438d9c","ios":"levelo://app?vid=f150223f-d56b-418b-ba8c-a8e4b4438d9c"},"vehicle_type_id":"4","last_reported":1712639211,"current_range_meters":30800,"station_id":"ce4bgi92rcd13ifvqb90","pricing_plan_id":"cebpf4jnsgd1na2vs0mg"},{"bike_id":"17a2ff79-79d2-4d36-ab6e-d7f74b811daa","system_id":"levelo_inurba_marseille","lat":43.304278,"lon":5.388868,"is_reserved":false,"is_disabled":false,"rental_uris":{"android":"levelo://app?vid=17a2ff79-79d2-4d36-ab6e-d7f74b811daa","ios":"levelo://app?vid=17a2ff79-79d2-4d36-ab6e-d7f74b811daa"},"vehicle_type_id":"4","last_reported":1712639211,"current_range_meters":30800,"station_id":"ce4bgk12rcd13ifvqbi0","pricing_plan_id":"cebpf4jnsgd1na2vs0mg"},{"bike_id":"88d4114b-f8ad-462a-92ab-e7570a5f59a6","system_id":"levelo_inurba_marseille","lat":43.32367,"lon":5.388836,"is_reserved":false,"is_disabled":false,"rental_uris":{"android":"levelo://app?vid=88d4114b-f8ad-462a-92ab-e7570a5f59a6","ios":"levelo://app?vid=88d4114b-f8ad-462a-92ab-e7570a5f59a6"},"vehicle_type_id":"4","last_reported":1712639211,"current_range_meters":23600,"station_id":"ce4bhqp2rcd13ifvqhog","pricing_plan_id":"cebpf4jnsgd1na2vs0mg"},{"bike_id":"8a226edd-d694-4da1-8b19-74cd79bee81b","system_id":"levelo_inurba_marseille","lat":43.32367,"lon":5.388836,"is_reserved":false,"is_disabled":false,"rental_uris":{"android":"levelo://app?vid=8a226edd-d694-4da1-8b19-74cd79bee81b","ios":"levelo://app?vid=8a226edd-d694-4da1-8b19-74cd79bee81b"},"vehicle_type_id":"4","last_reported":1712639211,"current_range_meters":30400,"station_id":"ce4bhqp2rcd13ifvqhog","pricing_plan_id":"cebpf4jnsgd1na2vs0mg"},{"bike_id":"d3c225bc-3918-455d-b710-00a9e0046c68","system_id":"levelo_inurba_marseille","lat":43.32367,"lon":5.388836,"is_reserved":false,"is_disabled":false,"rental_uris":{"android":"levelo://app?vid=d3c225bc-3918-455d-b710-00a9e0046c68","ios":"levelo://app?vid=d3c225bc-3918-455d-b710-00a9e0046c68"},"vehicle_type_id":"4","last_reported":1712639211,"current_range_meters":30000,"station_id":"ce4bhqp2rcd13ifvqhog","pricing_plan_id":"cebpf4jnsgd1na2vs0mg"},{"bike_id":"f495b2a4-d720-4514-b766-76254a8aa96c","system_id":"levelo_inurba_marseille","lat":43.32367,"lon":5.388836,"is_reserved":false,"is_disabled":false,"rental_uris":{"android":"levelo://app?vid=f495b2a4-d720-4514-b766-76254a8aa96c","ios":"levelo://app?vid=f495b2a4-d720-4514-b766-76254a8aa96c"},"vehicle_type_id":"4","last_reported":1712639211,"current_range_meters":22800,"station_id":"ce4bhqp2rcd13ifvqhog","pricing_plan_id":"cebpf4jnsgd1na2vs0mg"},{"bike_id":"ac5fb483-651e-4979-b5b7-c1cdf2f6a3e9","system_id":"levelo_inurba_marseille","lat":43.32367,"lon":5.388836,"is_reserved":false,"is_disabled":false,"rental_uris":{"android":"levelo://app?vid=ac5fb483-651e-4979-b5b7-c1cdf2f6a3e9","ios":"levelo://app?vid=ac5fb483-651e-4979-b5b7-c1cdf2f6a3e9"},"vehicle_type_id":"4","last_reported":1712639211,"current_range_meters":9600,"station_id":"ce4bhqp2rcd13ifvqhog","pricing_plan_id":"cebpf4jnsgd1na2vs0mg"},{"bike_id":"1808db17-e5f0-48ab-8040-2167b420659d","system_id":"levelo_inurba_marseille","lat":43.32367,"lon":5.388836,"is_reserved":false,"is_disabled":false,"rental_uris":{"android":"levelo://app?vid=1808db17-e5f0-48ab-8040-2167b420659d","ios":"levelo://app?vid=1808db17-e5f0-48ab-8040-2167b420659d"},"vehicle_type_id":"4","last_reported":1712639211,"current_range_meters":28800,"station_id":"ce4bhqp2rcd13ifvqhog","pricing_plan_id":"cebpf4jnsgd1na2vs0mg"},{"bike_id":"da01c756-2491-4f26-af5e-5457a01ac88d","system_id":"levelo_inurba_marseille","lat":43.32367,"lon":5.388836,"is_reserved":false,"is_disabled":false,"rental_uris":{"android":"levelo://app?vid=da01c756-2491-4f26-af5e-5457a01ac88d","ios":"levelo://app?vid=da01c756-2491-4f26-af5e-5457a01ac88d"},"vehicle_type_id":"4","last_reported":1712639211,"current_range_meters":23200,"station_id":"ce4bhqp2rcd13ifvqhog","pricing_plan_id":"cebpf4jnsgd1na2vs0mg"},{"bike_id":"ea6e2bcc-ba08-4768-8752-e42689e3ba04","system_id":"levelo_inurba_marseille","lat":43.32367,"lon":5.388836,"is_reserved":false,"is_disabled":false,"rental_uris":{"android":"levelo://app?vid=ea6e2bcc-ba08-4768-8752-e42689e3ba04","ios":"levelo://app?vid=ea6e2bcc-ba08-4768-8752-e42689e3ba04"},"vehicle_type_id":"4","last_reported":1712639211,"current_range_meters":5600,"station_id":"ce4bhqp2rcd13ifvqhog","pricing_plan_id":"cebpf4jnsgd1na2vs0mg"},{"bike_id":"d367b417-5fca-4369-814d-27aadfdeba43","system_id":"levelo_inurba_marseille","lat":43.32367,"lon":5.388836,"is_reserved":false,"is_disabled":false,"rental_uris":{"android":"levelo://app?vid=d367b417-5fca-4369-814d-27aadfdeba43","ios":"levelo://app?vid=d367b417-5fca-4369-814d-27aadfdeba43"},"vehicle_type_id":"4","last_reported":1712639211,"current_range_meters":28800,"station_id":"ce4bhqp2rcd13ifvqhog","pricing_plan_id":"cebpf4jnsgd1na2vs0mg"},{"bike_id":"389e8324-0984-467e-b5e2-6c875757b707","system_id":"levelo_inurba_marseille","lat":43.32367,"lon":5.388836,"is_reserved":false,"is_disabled":false,"rental_uris":{"android":"levelo://app?vid=389e8324-0984-467e-b5e2-6c875757b707","ios":"levelo://app?vid=389e8324-0984-467e-b5e2-6c875757b707"},"vehicle_type_id":"4","last_reported":1712639211,"current_range_meters":30000,"station_id":"ce4bhqp2rcd13ifvqhog","pricing_plan_id":"cebpf4jnsgd1na2vs0mg"},{"bike_id":"e0227968-a14e-43ac-b7d6-ecd922e7e186","system_id":"levelo_inurba_marseille","lat":43.314172,"lon":5.394188,"is_reserved":false,"is_disabled":false,"rental_uris":{"android":"levelo://app?vid=e0227968-a14e-43ac-b7d6-ecd922e7e186","ios":"levelo://app?vid=e0227968-a14e-43ac-b7d6-ecd922e7e186"},"vehicle_type_id":"4","last_reported":1712639211,"current_range_meters":30000,"station_id":"","pricing_plan_id":"cebpf4jnsgd1na2vs0mg"},{"bike_id":"d1399ef9-d43f-4deb-95f1-0d057a4cc0fd","system_id":"levelo_inurba_marseille","lat":43.292749,"lon":5.368402,"is_reserved":false,"is_disabled":false,"rental_uris":{"android":"levelo://app?vid=d1399ef9-d43f-4deb-95f1-0d057a4cc0fd","ios":"levelo://app?vid=d1399ef9-d43f-4deb-95f1-0d057a4cc0fd"},"vehicle_type_id":"4","last_reported":1712639211,"current_range_meters":26400,"station_id":"ce4bhbp2rcd13ifvqesg","pricing_plan_id":"cebpf4jnsgd1na2vs0mg"},{"bike_id":"ce2daf56-760a-4cda-8144-84e7fac2ecd3","system_id":"levelo_inurba_marseille","lat":43.292749,"lon":5.368402,"is_reserved":false,"is_disabled":false,"rental_uris":{"android":"levelo://app?vid=ce2daf56-760a-4cda-8144-84e7fac2ecd3","ios":"levelo://app?vid=ce2daf56-760a-4cda-8144-84e7fac2ecd3"},"vehicle_type_id":"4","last_reported":1712639211,"current_range_meters":26800,"station_id":"ce4bhbp2rcd13ifvqesg","pricing_plan_id":"cebpf4jnsgd1na2vs0mg"},{"bike_id":"e6f5d0fc-90d8-44d1-88b2-3898f140eec2","system_id":"levelo_inurba_marseille","lat":43.292749,"lon":5.368402,"is_reserved":false,"is_disabled":false,"rental_uris":{"android":"levelo://app?vid=e6f5d0fc-90d8-44d1-88b2-3898f140eec2","ios":"levelo://app?vid=e6f5d0fc-90d8-44d1-88b2-3898f140eec2"},"vehicle_type_id":"4","last_reported":1712639211,"current_range_meters":31200,"station_id":"ce4bhbp2rcd13ifvqesg","pricing_plan_id":"cebpf4jnsgd1na2vs0mg"},{"bike_id":"bd07ee49-26fb-4679-a09d-2d41ba52d5ec","system_id":"levelo_inurba_marseille","lat":43.292749,"lon":5.368402,"is_reserved":false,"is_disabled":false,"rental_uris":{"android":"levelo://app?vid=bd07ee49-26fb-4679-a09d-2d41ba52d5ec","ios":"levelo://app?vid=bd07ee49-26fb-4679-a09d-2d41ba52d5ec"},"vehicle_type_id":"4","last_reported":1712639211,"current_range_meters":30000,"station_id":"ce4bhbp2rcd13ifvqesg","pricing_plan_id":"cebpf4jnsgd1na2vs0mg"},{"bike_id":"0f31e290-f00e-48e6-9c69-df2b84f5966e","system_id":"levelo_inurba_marseille","lat":43.29512,"lon":5.38064,"is_reserved":false,"is_disabled":false,"rental_uris":{"android":"levelo://app?vid=0f31e290-f00e-48e6-9c69-df2b84f5966e","ios":"levelo://app?vid=0f31e290-f00e-48e6-9c69-df2b84f5966e"},"vehicle_type_id":"4","last_reported":1712639211,"current_range_meters":10400,"station_id":"","pricing_plan_id":"cebpf4jnsgd1na2vs0mg"},{"bike_id":"bb54fc11-ebca-49b1-8ab1-88775e94f833","system_id":"levelo_inurba_marseille","lat":43.29306,"lon":5.37449,"is_reserved":false,"is_disabled":false,"rental_uris":{"android":"levelo://app?vid=bb54fc11-ebca-49b1-8ab1-88775e94f833","ios":"levelo://app?vid=bb54fc11-ebca-49b1-8ab1-88775e94f833"},"vehicle_type_id":"4","last_reported":1712639211,"current_range_meters":10400,"station_id":"ce4bgi12rcd13ifvqb70","pricing_plan_id":"cebpf4jnsgd1na2vs0mg"},{"bike_id":"1e699dc7-2e7c-4380-b598-f582b3f7de1e","system_id":"levelo_inurba_marseille","lat":43.283998,"lon":5.375062,"is_reserved":false,"is_disabled":false,"rental_uris":{"android":"levelo://app?vid=1e699dc7-2e7c-4380-b598-f582b3f7de1e","ios":"levelo://app?vid=1e699dc7-2e7c-4380-b598-f582b3f7de1e"},"vehicle_type_id":"4","last_reported":1712639211,"current_range_meters":14000,"station_id":"ce4bh412rcd13ifvqds0","pricing_plan_id":"cebpf4jnsgd1na2vs0mg"},{"bike_id":"12a2162a-fd74-4654-9efc-c46afd664ac7","system_id":"levelo_inurba_marseille","lat":43.33034,"lon":5.38144,"is_reserved":false,"is_disabled":false,"rental_uris":{"android":"levelo://app?vid=12a2162a-fd74-4654-9efc-c46afd664ac7","ios":"levelo://app?vid=12a2162a-fd74-4654-9efc-c46afd664ac7"},"vehicle_type_id":"4","last_reported":1712639211,"current_range_meters":21200,"station_id":"","pricing_plan_id":"cebpf4jnsgd1na2vs0mg"},{"bike_id":"c5a9ad8b-7956-4d1a-8e43-5e3e60f808e7","system_id":"levelo_inurba_marseille","lat":43.298433,"lon":5.362774,"is_reserved":false,"is_disabled":false,"rental_uris":{"android":"levelo://app?vid=c5a9ad8b-7956-4d1a-8e43-5e3e60f808e7","ios":"levelo://app?vid=c5a9ad8b-7956-4d1a-8e43-5e3e60f808e7"},"vehicle_type_id":"4","last_reported":1712639211,"current_range_meters":29600,"station_id":"ce4bgpp2rcd13ifvqc3g","pricing_plan_id":"cebpf4jnsgd1na2vs0mg"},{"bike_id":"a14b3b56-9b84-428f-8c60-b109cf193e76","system_id":"levelo_inurba_marseille","lat":43.29298,"lon":5.37466,"is_reserved":false,"is_disabled":false,"rental_uris":{"android":"levelo://app?vid=a14b3b56-9b84-428f-8c60-b109cf193e76","ios":"levelo://app?vid=a14b3b56-9b84-428f-8c60-b109cf193e76"},"vehicle_type_id":"4","last_reported":1712639211,"current_range_meters":30000,"station_id":"ce4bgi12rcd13ifvqb70","pricing_plan_id":"cebpf4jnsgd1na2vs0mg"},{"bike_id":"4ed053b3-7a41-4467-8a60-1f8c5364abea","system_id":"levelo_inurba_marseille","lat":43.292311,"lon":5.360731,"is_reserved":false,"is_disabled":false,"rental_uris":{"android":"levelo://app?vid=4ed053b3-7a41-4467-8a60-1f8c5364abea","ios":"levelo://app?vid=4ed053b3-7a41-4467-8a60-1f8c5364abea"},"vehicle_type_id":"4","last_reported":1712639211,"current_range_meters":14400,"station_id":"ce4bhbh2rcd13ifvqeqg","pricing_plan_id":"cebpf4jnsgd1na2vs0mg"},{"bike_id":"c0804f56-e10b-4188-a152-669b08fe8012","system_id":"levelo_inurba_marseille","lat":43.29226,"lon":5.36062,"is_reserved":false,"is_disabled":false,"rental_uris":{"android":"levelo://app?vid=c0804f56-e10b-4188-a152-669b08fe8012","ios":"levelo://app?vid=c0804f56-e10b-4188-a152-669b08fe8012"},"vehicle_type_id":"4","last_reported":1712639211,"current_range_meters":29600,"station_id":"ce4bhbh2rcd13ifvqeqg","pricing_plan_id":"cebpf4jnsgd1na2vs0mg"},{"bike_id":"78da884d-99ce-48ac-b88a-6b4c1c4a12b2","system_id":"levelo_inurba_marseille","lat":43.29225,"lon":5.36067,"is_reserved":false,"is_disabled":false,"rental_uris":{"android":"levelo://app?vid=78da884d-99ce-48ac-b88a-6b4c1c4a12b2","ios":"levelo://app?vid=78da884d-99ce-48ac-b88a-6b4c1c4a12b2"},"vehicle_type_id":"4","last_reported":1712639211,"current_range_meters":23600,"station_id":"ce4bhbh2rcd13ifvqeqg","pricing_plan_id":"cebpf4jnsgd1na2vs0mg"},{"bike_id":"d6c9e39e-a064-4221-8fb7-350e9d236b15","system_id":"levelo_inurba_marseille","lat":43.292311,"lon":5.360731,"is_reserved":false,"is_disabled":false,"rental_uris":{"android":"levelo://app?vid=d6c9e39e-a064-4221-8fb7-350e9d236b15","ios":"levelo://app?vid=d6c9e39e-a064-4221-8fb7-350e9d236b15"},"vehicle_type_id":"4","last_reported":1712639211,"current_range_meters":31600,"station_id":"ce4bhbh2rcd13ifvqeqg","pricing_plan_id":"cebpf4jnsgd1na2vs0mg"},{"bike_id":"ad605a0f-4918-40c4-9323-6e5d20a5f587","system_id":"levelo_inurba_marseille","lat":43.292311,"lon":5.360731,"is_reserved":false,"is_disabled":false,"rental_uris":{"android":"levelo://app?vid=ad605a0f-4918-40c4-9323-6e5d20a5f587","ios":"levelo://app?vid=ad605a0f-4918-40c4-9323-6e5d20a5f587"},"vehicle_type_id":"4","last_reported":1712639211,"current_range_meters":30000,"station_id":"ce4bhbh2rcd13ifvqeqg","pricing_plan_id":"cebpf4jnsgd1na2vs0mg"},{"bike_id":"f7c63750-bcf5-41db-9fa7-e4899d640be0","system_id":"levelo_inurba_marseille","lat":43.292311,"lon":5.360731,"is_reserved":false,"is_disabled":false,"rental_uris":{"android":"levelo://app?vid=f7c63750-bcf5-41db-9fa7-e4899d640be0","ios":"levelo://app?vid=f7c63750-bcf5-41db-9fa7-e4899d640be0"},"vehicle_type_id":"4","last_reported":1712639211,"current_range_meters":19200,"station_id":"ce4bhbh2rcd13ifvqeqg","pricing_plan_id":"cebpf4jnsgd1na2vs0mg"},{"bike_id":"0689478f-f92e-49bc-b906-ba29839f2f24","system_id":"levelo_inurba_marseille","lat":43.298764,"lon":5.388973,"is_reserved":false,"is_disabled":false,"rental_uris":{"android":"levelo://app?vid=0689478f-f92e-49bc-b906-ba29839f2f24","ios":"levelo://app?vid=0689478f-f92e-49bc-b906-ba29839f2f24"},"vehicle_type_id":"4","last_reported":1712639211,"current_range_meters":26000,"station_id":"ce4bh392rcd13ifvqdl0","pricing_plan_id":"cebpf4jnsgd1na2vs0mg"},{"bike_id":"13868051-8a25-40c5-af08-739a4abfa7c0","system_id":"levelo_inurba_marseille","lat":43.298764,"lon":5.388973,"is_reserved":false,"is_disabled":false,"rental_uris":{"android":"levelo://app?vid=13868051-8a25-40c5-af08-739a4abfa7c0","ios":"levelo://app?vid=13868051-8a25-40c5-af08-739a4abfa7c0"},"vehicle_type_id":"4","last_reported":1712639211,"current_range_meters":28400,"station_id":"ce4bh392rcd13ifvqdl0","pricing_plan_id":"cebpf4jnsgd1na2vs0mg"},{"bike_id":"f13d2ae1-28f2-45bf-b76d-b2f265a70a10","system_id":"levelo_inurba_marseille","lat":43.291675,"lon":5.371583,"is_reserved":false,"is_disabled":false,"rental_uris":{"android":"levelo://app?vid=f13d2ae1-28f2-45bf-b76d-b2f265a70a10","ios":"levelo://app?vid=f13d2ae1-28f2-45bf-b76d-b2f265a70a10"},"vehicle_type_id":"4","last_reported":1712639211,"current_range_meters":31200,"station_id":"ce4bha92rcd13ifvqeh0","pricing_plan_id":"cebpf4jnsgd1na2vs0mg"},{"bike_id":"c460f10f-b0ff-4e7e-a3ba-12174b287caf","system_id":"levelo_inurba_marseille","lat":43.291675,"lon":5.371583,"is_reserved":false,"is_disabled":false,"rental_uris":{"android":"levelo://app?vid=c460f10f-b0ff-4e7e-a3ba-12174b287caf","ios":"levelo://app?vid=c460f10f-b0ff-4e7e-a3ba-12174b287caf"},"vehicle_type_id":"4","last_reported":1712639211,"current_range_meters":23200,"station_id":"ce4bha92rcd13ifvqeh0","pricing_plan_id":"cebpf4jnsgd1na2vs0mg"},{"bike_id":"1d4bb2a6-0297-4311-8e65-a23b372657b5","system_id":"levelo_inurba_marseille","lat":43.302832,"lon":5.39299,"is_reserved":false,"is_disabled":false,"rental_uris":{"android":"levelo://app?vid=1d4bb2a6-0297-4311-8e65-a23b372657b5","ios":"levelo://app?vid=1d4bb2a6-0297-4311-8e65-a23b372657b5"},"vehicle_type_id":"4","last_reported":1712639211,"current_range_meters":28000,"station_id":"","pricing_plan_id":"cebpf4jnsgd1na2vs0mg"},{"bike_id":"14c0d73a-5180-430e-bbb6-c28ae36ba04b","system_id":"levelo_inurba_marseille","lat":43.291985,"lon":5.375865,"is_reserved":false,"is_disabled":false,"rental_uris":{"android":"levelo://app?vid=14c0d73a-5180-430e-bbb6-c28ae36ba04b","ios":"levelo://app?vid=14c0d73a-5180-430e-bbb6-c28ae36ba04b"},"vehicle_type_id":"4","last_reported":1712639211,"current_range_meters":0,"station_id":"","pricing_plan_id":"cebpf4jnsgd1na2vs0mg"},{"bike_id":"4eb71d30-a122-45fa-98c9-c2f0f255a9db","system_id":"levelo_inurba_marseille","lat":43.309038,"lon":5.396546,"is_reserved":false,"is_disabled":false,"rental_uris":{"android":"levelo://app?vid=4eb71d30-a122-45fa-98c9-c2f0f255a9db","ios":"levelo://app?vid=4eb71d30-a122-45fa-98c9-c2f0f255a9db"},"vehicle_type_id":"4","last_reported":1712639211,"current_range_meters":21200,"station_id":"ce4bh012rcd13ifvqcv0","pricing_plan_id":"cebpf4jnsgd1na2vs0mg"},{"bike_id":"ea094fa0-3e1a-4b50-9723-605d1c8220f9","system_id":"levelo_inurba_marseille","lat":43.308836,"lon":5.396342,"is_reserved":false,"is_disabled":false,"rental_uris":{"android":"levelo://app?vid=ea094fa0-3e1a-4b50-9723-605d1c8220f9","ios":"levelo://app?vid=ea094fa0-3e1a-4b50-9723-605d1c8220f9"},"vehicle_type_id":"4","last_reported":1712639211,"current_range_meters":31200,"station_id":"ce4bh012rcd13ifvqcv0","pricing_plan_id":"cebpf4jnsgd1na2vs0mg"},{"bike_id":"bbede66f-cbed-4f60-ae03-345c16b183a7","system_id":"levelo_inurba_marseille","lat":43.308858,"lon":5.396351,"is_reserved":false,"is_disabled":false,"rental_uris":{"android":"levelo://app?vid=bbede66f-cbed-4f60-ae03-345c16b183a7","ios":"levelo://app?vid=bbede66f-cbed-4f60-ae03-345c16b183a7"},"vehicle_type_id":"4","last_reported":1712639211,"current_range_meters":30400,"station_id":"ce4bh012rcd13ifvqcv0","pricing_plan_id":"cebpf4jnsgd1na2vs0mg"},{"bike_id":"8a9088b4-5822-4477-b1d5-48aca2125df6","system_id":"levelo_inurba_marseille","lat":43.309038,"lon":5.396546,"is_reserved":false,"is_disabled":false,"rental_uris":{"android":"levelo://app?vid=8a9088b4-5822-4477-b1d5-48aca2125df6","ios":"levelo://app?vid=8a9088b4-5822-4477-b1d5-48aca2125df6"},"vehicle_type_id":"4","last_reported":1712639211,"current_range_meters":22000,"station_id":"ce4bh012rcd13ifvqcv0","pricing_plan_id":"cebpf4jnsgd1na2vs0mg"},{"bike_id":"cbf5f482-1450-4424-b024-c10d5c163fb8","system_id":"levelo_inurba_marseille","lat":43.292005,"lon":5.357875,"is_reserved":false,"is_disabled":false,"rental_uris":{"android":"levelo://app?vid=cbf5f482-1450-4424-b024-c10d5c163fb8","ios":"levelo://app?vid=cbf5f482-1450-4424-b024-c10d5c163fb8"},"vehicle_type_id":"4","last_reported":1712639211,"current_range_meters":27200,"station_id":"ce4bhb12rcd13ifvqel0","pricing_plan_id":"cebpf4jnsgd1na2vs0mg"},{"bike_id":"4370cb2b-6bb7-46a3-a956-27934bfb589c","system_id":"levelo_inurba_marseille","lat":43.309047,"lon":5.396551,"is_reserved":false,"is_disabled":false,"rental_uris":{"android":"levelo://app?vid=4370cb2b-6bb7-46a3-a956-27934bfb589c","ios":"levelo://app?vid=4370cb2b-6bb7-46a3-a956-27934bfb589c"},"vehicle_type_id":"4","last_reported":1712639211,"current_range_meters":8400,"station_id":"ce4bh012rcd13ifvqcv0","pricing_plan_id":"cebpf4jnsgd1na2vs0mg"},{"bike_id":"7c1bc0c7-06c3-4344-94f3-9587a73c44dc","system_id":"levelo_inurba_marseille","lat":43.309047,"lon":5.396551,"is_reserved":false,"is_disabled":false,"rental_uris":{"android":"levelo://app?vid=7c1bc0c7-06c3-4344-94f3-9587a73c44dc","ios":"levelo://app?vid=7c1bc0c7-06c3-4344-94f3-9587a73c44dc"},"vehicle_type_id":"4","last_reported":1712639211,"current_range_meters":24400,"station_id":"ce4bh012rcd13ifvqcv0","pricing_plan_id":"cebpf4jnsgd1na2vs0mg"},{"bike_id":"2f7ab3d2-503c-4004-ba83-e9e206b373a4","system_id":"levelo_inurba_marseille","lat":43.309038,"lon":5.396546,"is_reserved":false,"is_disabled":false,"rental_uris":{"android":"levelo://app?vid=2f7ab3d2-503c-4004-ba83-e9e206b373a4","ios":"levelo://app?vid=2f7ab3d2-503c-4004-ba83-e9e206b373a4"},"vehicle_type_id":"4","last_reported":1712639211,"current_range_meters":21200,"station_id":"ce4bh012rcd13ifvqcv0","pricing_plan_id":"cebpf4jnsgd1na2vs0mg"},{"bike_id":"4249f68e-060b-4f40-8599-2e51de56955f","system_id":"levelo_inurba_marseille","lat":43.313291,"lon":5.396838,"is_reserved":false,"is_disabled":false,"rental_uris":{"android":"levelo://app?vid=4249f68e-060b-4f40-8599-2e51de56955f","ios":"levelo://app?vid=4249f68e-060b-4f40-8599-2e51de56955f"},"vehicle_type_id":"4","last_reported":1712639211,"current_range_meters":31200,"station_id":"ce4bgvp2rcd13ifvqcu0","pricing_plan_id":"cebpf4jnsgd1na2vs0mg"},