{"last_updated":1739963298,"ttl":60,"version":"2.2","data":{"bikes":[{"bike_id":"7b85ab77-b4da-49c0-828e-288db2e9b9ca","system_id":"levelo_inurba_marseille","lat":43.27799,"lon":5.39215,"is_reserved":false,"is_disabled":false,"rental_uris":{"android":"levelo://app?vid=7b85ab77-b4da-49c0-828e-288db2e9b9ca","ios":"levelo://app?vid=7b85ab77-b4da-49c0-828e-288db2e9b9ca"},"vehicle_type_id":"4","last_reported":1739963299,"current_range_meters":2800,"station_id":"ce4bhjp2rcd13ifvqga0","pricing_plan_id":"cebpf4jnsgd1na2vs0mg"},{"bike_id":"a1e24b59-b7ca-4577-9245-83085fbfc8ce","system_id":"levelo_inurba_marseille","lat":43.30142,"lon":5.37412,"is_reserved":false,"is_disabled":false,"rental_uris":{"android":"levelo://app?vid=a1e24b59-b7ca-4577-9245-83085fbfc8ce","ios":"levelo://app?vid=a1e24b59-b7ca-4577-9245-83085fbfc8ce"},"vehicle_type_id":"4","last_reported":1739963299,"current_range_meters":2800,"station_id":"ce4bgs92rcd13ifvqcc0","pricing_plan_id":"cebpf4jnsgd1na2vs0mg"},{"bike_id":"61920939-26d8-4445-b9fd-9d3a7ba36559","system_id":"levelo_inurba_marseille","lat":43.28864,"lon":5.35842,"is_reserved":false,"is_disabled":false,"rental_uris":{"android":"levelo://app?vid=61920939-26d8-4445-b9fd-9d3a7ba36559","ios":"levelo://app?vid=61920939-26d8-4445-b9fd-9d3a7ba36559"},"vehicle_type_id":"4","last_reported":1739963299,"current_range_meters":2800,"station_id":"ce4bhb12rcd13ifvqem0","pricing_plan_id":"cebpf4jnsgd1na2vs0mg"},{"bike_id":"5df3845c-4ea1-44a3-9174-1142afb018d2","system_id":"levelo_inurba_marseille","lat":43.26562,"lon":5.37289,"is_reserved":false,"is_disabled":false,"rental_uris":{"android":"levelo://app?vid=5df3845c-4ea1-44a3-9174-1142afb018d2","ios":"levelo://app?vid=5df3845c-4ea1-44a3-9174-1142afb018d2"},"vehicle_type_id":"4","last_reported":1739963299,"current_range_meters":3600,"station_id":"","pricing_plan_id":"cebpf4jnsgd1na2vs0mg"},{"bike_id":"4aebea14-4cfb-4d7d-8d65-9d2647cce87e","system_id":"levelo_inurba_marseille","lat":43.272,"lon":5.3919,"is_reserved":false,"is_disabled":true,"rental_uris":{"android":"levelo://app?vid=4aebea14-4cfb-4d7d-8d65-9d2647cce87e","ios":"levelo://app?vid=4aebea14-4cfb-4d7d-8d65-9d2647cce87e"},"vehicle_type_id":"4","last_reported":1739963299,"current_range_meters":3600,"station_id":"ce4bhhp2rcd13ifvqfm0","pricing_plan_id":"cebpf4jnsgd1na2vs0mg"},{"bike_id":"0b9e6c18-1f88-4568-b205-9935e1dd0ba7","system_id":"levelo_inurba_marseille","lat":43.32483,"lon":5.36563,"is_reserved":false,"is_disabled":false,"rental_uris":{"android":"levelo://app?vid=0b9e6c18-1f88-4568-b205-9935e1dd0ba7","ios":"levelo://app?vid=0b9e6c18-1f88-4568-b205-9935e1dd0ba7"},"vehicle_type_id":"4","last_reported":1739963299,"current_range_meters":3600,"station_id":"ce4bhs12rcd13ifvqhvg","pricing_plan_id":"cebpf4jnsgd1na2vs0mg"},{"bike_id":"020f9db3-6048-4a83-8c59-4acc533112c8","system_id":"levelo_inurba_marseille","lat":43.28161,"lon":5.42634,"is_reserved":false,"is_disabled":false,"rental_uris":{"android":"levelo://app?vid=020f9db3-6048-4a83-8c59-4acc533112c8","ios":"levelo://app?vid=020f9db3-6048-4a83-8c59-4acc533112c8"},"vehicle_type_id":"4","last_reported":1739963299,"current_range_meters":4000,"station_id":"ce4bhnh2rcd13ifvqgug","pricing_plan_id":"cebpf4jnsgd1na2vs0mg"},{"bike_id":"96e21aff-c3cb-4b34-888a-4e387df75bb2","system_id":"levelo_inurba_marseille","lat":43.29597,"lon":5.38091,"is_reserved":false,"is_disabled":false,"rental_uris":{"android":"levelo://app?vid=96e21aff-c3cb-4b34-888a-4e387df75bb2","ios":"levelo://app?vid=96e21aff-c3cb-4b34-888a-4e387df75bb2"},"vehicle_type_id":"4","last_reported":1739963299,"current_range_meters":4000,"station_id":"ce4bgl12rcd13ifvqbo0","pricing_plan_id":"cebpf4jnsgd1na2vs0mg"},{"bike_id":"21437620-96c6-4ea6-9eca-f3fdc8df132e","system_id":"levelo_inurba_marseille","lat":43.317284,"lon":5.423956,"is_reserved":false,"is_disabled":false,"rental_uris":{"android":"levelo://app?vid=21437620-96c6-4ea6-9eca-f3fdc8df132e","ios":"levelo://app?vid=21437620-96c6-4ea6-9eca-f3fdc8df132e"},"vehicle_type_id":"4","last_reported":1739963299,"current_range_meters":5600,"station_id":"ce4bhp92rcd13ifvqhbg","pricing_plan_id":"cebpf4jnsgd1na2vs0mg"},{"bike_id":"10588449-5ffa-45fc-887c-8523965fc0a8","system_id":"levelo_inurba_marseille","lat":43.254753,"lon":5.37606,"is_reserved":false,"is_disabled":false,"rental_uris":{"android":"levelo://app?vid=10588449-5ffa-45fc-887c-8523965fc0a8","ios":"levelo://app?vid=10588449-5ffa-45fc-887c-8523965fc0a8"},"vehicle_type_id":"4","last_reported":1739963299,"current_range_meters":4800,"station_id":"ce4bhh12rcd13ifvqff0","pricing_plan_id":"cebpf4jnsgd1na2vs0mg"},{"bike_id":"811901b7-6a39-4b98-9209-f363e05c2482","system_id":"levelo_inurba_marseille","lat":43.2815,"lon":5.42642,"is_reserved":false,"is_disabled":false,"rental_uris":{"android":"levelo://app?vid=811901b7-6a39-4b98-9209-f363e05c2482","ios":"levelo://app?vid=811901b7-6a39-4b98-9209-f363e05c2482"},"vehicle_type_id":"4","last_reported":1739963299,"current_range_meters":4800,"station_id":"ce4bhnh2rcd13ifvqgug","pricing_plan_id":"cebpf4jnsgd1na2vs0mg"},{"bike_id":"d88f98c3-5dff-4293-a59f-a037020d2cb7","system_id":"levelo_inurba_marseille","lat":43.29785,"lon":5.37103,"is_reserved":false,"is_disabled":false,"rental_uris":{"android":"levelo://app?vid=d88f98c3-5dff-4293-a59f-a037020d2cb7","ios":"levelo://app?vid=d88f98c3-5dff-4293-a59f-a037020d2cb7"},"vehicle_type_id":"4","last_reported":1739963299,"current_range_meters":5600,"station_id":"ce4bgop2rcd13ifvqc1g","pricing_plan_id":"cebpf4jnsgd1na2vs0mg"},{"bike_id":"abff4e2b-8a5b-4822-a45f-55e8119b1dac","system_id":"levelo_inurba_marseille","lat":43.29181,"lon":5.39366,"is_reserved":false,"is_disabled":false,"rental_uris":{"android":"levelo://app?vid=abff4e2b-8a5b-4822-a45f-55e8119b1dac","ios":"levelo://app?vid=abff4e2b-8a5b-4822-a45f-55e8119b1dac"},"vehicle_type_id":"4","last_reported":1739963299,"current_range_meters":5600,"station_id":"","pricing_plan_id":"cebpf4jnsgd1na2vs0mg"},{"bike_id":"6528e792-6c2b-41ab-b102-37d30001a0e7","system_id":"levelo_inurba_marseille","lat":43.27228,"lon":5.40092,"is_reserved":false,"is_disabled":false,"rental_uris":{"android":"levelo://app?vid=6528e792-6c2b-41ab-b102-37d30001a0e7","ios":"levelo://app?vid=6528e792-6c2b-41ab-b102-37d30001a0e7"},"vehicle_type_id":"4","last_reported":1739963299,"current_range_meters":6000,"station_id":"","pricing_plan_id":"cebpf4jnsgd1na2vs0mg"},{"bike_id":"dcaa5d09-ad4d-4077-9a1e-bfb165ed7859","system_id":"levelo_inurba_marseille","lat":43.31216,"lon":5.36853,"is_reserved":false,"is_disabled":false,"rental_uris":{"android":"levelo://app?vid=dcaa5d09-ad4d-4077-9a1e-bfb165ed7859","ios":"levelo://app?vid=dcaa5d09-ad4d-4077-9a1e-bfb165ed7859"},"vehicle_type_id":"4","last_reported":1739963299,"current_range_meters":6000,"station_id":"ce4bgl92rcd13ifvqbq0","pricing_plan_id":"cebpf4jnsgd1na2vs0mg"},{"bike_id":"66bdaba1-8ea6-4d2c-ad9c-6d213bc14ad8","system_id":"levelo_inurba_marseille","lat":43.26212,"lon":5.37922,"is_reserved":false,"is_disabled":false,"rental_uris":{"android":"levelo://app?vid=66bdaba1-8ea6-4d2c-ad9c-6d213bc14ad8","ios":"levelo://app?vid=66bdaba1-8ea6-4d2c-ad9c-6d213bc14ad8"},"vehicle_type_id":"4","last_reported":1739963299,"current_range_meters":6000,"station_id":"ce4bhjp2rcd13ifvqg90","pricing_plan_id":"cebpf4jnsgd1na2vs0mg"},{"bike_id":"a5e0f20c-c7dc-4bb7-98ad-d2dcc7f356bd","system_id":"levelo_inurba_marseille","lat":43.26553,"lon":5.37293,"is_reserved":false,"is_disabled":false,"rental_uris":{"android":"levelo://app?vid=a5e0f20c-c7dc-4bb7-98ad-d2dcc7f356bd","ios":"levelo://app?vid=a5e0f20c-c7dc-4bb7-98ad-d2dcc7f356bd"},"vehicle_type_id":"4","last_reported":1739963299,"current_range_meters":6000,"station_id":"ce4bhg12rcd13ifvqf70","pricing_plan_id":"cebpf4jnsgd1na2vs0mg"},{"bike_id":"2462e692-8d29-4f01-80ad-d6a921ae40b3","system_id":"levelo_inurba_marseille","lat":43.23155,"lon":5.43717,"is_reserved":false,"is_disabled":false,"rental_uris":{"android":"levelo://app?vid=2462e692-8d29-4f01-80ad-d6a921ae40b3","ios":"levelo://app?vid=2462e692-8d29-4f01-80ad-d6a921ae40b3"},"vehicle_type_id":"4","last_reported":1739963299,"current_range_meters":6000,"station_id":"ce4bhmp2rcd13ifvqgog","pricing_plan_id":"cebpf4jnsgd1na2vs0mg"},{"bike_id":"fe9e9092-a10a-486d-95dc-4e70a3cbff4c","system_id":"levelo_inurba_marseille","lat":43.2816,"lon":5.42786,"is_reserved":false,"is_disabled":false,"rental_uris":{"android":"levelo://app?vid=fe9e9092-a10a-486d-95dc-4e70a3cbff4c","ios":"levelo://app?vid=fe9e9092-a10a-486d-95dc-4e70a3cbff4c"},"vehicle_type_id":"4","last_reported":1739963299,"current_range_meters":6400,"station_id":"","pricing_plan_id":"cebpf4jnsgd1na2vs0mg"},{"bike_id":"0e9ae8c5-7a7e-467d-afe2-bb8df6bfeefc","system_id":"levelo_inurba_marseille","lat":43.2334,"lon":5.40315,"is_reserved":false,"is_disabled":false,"rental_uris":{"android":"levelo://app?vid=0e9ae8c5-7a7e-467d-afe2-bb8df6bfeefc","ios":"levelo://app?vid=0e9ae8c5-7a7e-467d-afe2-bb8df6bfeefc"},"vehicle_type_id":"4","last_reported":1739963299,"current_range_meters":6400,"station_id":"","pricing_plan_id":"cebpf4jnsgd1na2vs0mg"},{"bike_id":"c109a327-37a9-4436-a7bc-7706e6f9fcb3","system_id":"levelo_inurba_marseille","lat":43.23156,"lon":5.43708,"is_reserved":false,"is_disabled":false,"rental_uris":{"android":"levelo://app?vid=c109a327-37a9-4436-a7bc-7706e6f9fcb3","ios":"levelo://app?vid=c109a327-37a9-4436-a7bc-7706e6f9fcb3"},"vehicle_type_id":"4","last_reported":1739963299,"current_range_meters":6400,"station_id":"ce4bhmp2rcd13ifvqgog","pricing_plan_id":"cebpf4jnsgd1na2vs0mg"},{"bike_id":"574c987f-56b6-4d50-9df9-18c785204bef","system_id":"levelo_inurba_marseille","lat":43.30589,"lon":5.3652,"is_reserved":false,"is_disabled":false,"rental_uris":{"android":"levelo://app?vid=574c987f-56b6-4d50-9df9-18c785204bef","ios":"levelo://app?vid=574c987f-56b6-4d50-9df9-18c785204bef"},"vehicle_type_id":"4","last_reported":1739963299,"current_range_meters":6400,"station_id":"ce4bgs12rcd13ifvqcag","pricing_plan_id":"cebpf4jnsgd1na2vs0mg"},{"bike_id":"7174b859-40d2-4d93-8784-578ab557e269","system_id":"levelo_inurba_marseille","lat":43.30975,"lon":5.39036,"is_reserved":false,"is_disabled":false,"rental_uris":{"android":"levelo://app?vid=7174b859-40d2-4d93-8784-578ab557e269","ios":"levelo://app?vid=7174b859-40d2-4d93-8784-578ab557e269"},"vehicle_type_id":"4","last_reported":1739963299,"current_range_meters":6400,"station_id":"ce4bgup2rcd13ifvqco0","pricing_plan_id":"cebpf4jnsgd1na2vs0mg"},{"bike_id":"f6887ea5-0bff-4a48-aee3-eb33c7a27b0c","system_id":"levelo_inurba_marseille","lat":43.267837,"lon":5.394145,"is_reserved":false,"is_disabled":false,"rental_uris":{"android":"levelo://app?vid=f6887ea5-0bff-4a48-aee3-eb33c7a27b0c","ios":"levelo://app?vid=f6887ea5-0bff-4a48-aee3-eb33c7a27b0c"},"vehicle_type_id":"4","last_reported":1739963299,"current_range_meters":6400,"station_id":"ce4bhh12rcd13ifvqfg0","pricing_plan_id":"cebpf4jnsgd1na2vs0mg"},{"bike_id":"12b33330-5dcb-4644-8a5c-3a95dc32ce98","system_id":"levelo_inurba_marseille","lat":43.28156,"lon":5.42645,"is_reserved":false,"is_disabled":false,"rental_uris":{"android":"levelo://app?vid=12b33330-5dcb-4644-8a5c-3a95dc32ce98","ios":"levelo://app?vid=12b33330-5dcb-4644-8a5c-3a95dc32ce98"},"vehicle_type_id":"4","last_reported":1739963299,"current_range_meters":6800,"station_id":"ce4bhnh2rcd13ifvqgug","pricing_plan_id":"cebpf4jnsgd1na2vs0mg"},{"bike_id":"b0cd2358-2758-46f3-8a1d-294490c1c30c","system_id":"levelo_inurba_marseille","lat":43.30212,"lon":5.39459,"is_reserved":false,"is_disabled":false,"rental_uris":{"android":"levelo://app?vid=b0cd2358-2758-46f3-8a1d-294490c1c30c","ios":"levelo://app?vid=b0cd2358-2758-46f3-8a1d-294490c1c30c"},"vehicle_type_id":"4","last_reported":1739963299,"current_range_meters":6800,"station_id":"","pricing_plan_id":"cebpf4jnsgd1na2vs0mg"},{"bike_id":"989a1c05-c74a-4632-af21-81b3f55f7909","system_id":"levelo_inurba_marseille","lat":43.29217,"lon":5.36073,"is_reserved":false,"is_disabled":true,"rental_uris":{"android":"levelo://app?vid=989a1c05-c74a-4632-af21-81b3f55f7909","ios":"levelo://app?vid=989a1c05-c74a-4632-af21-81b3f55f7909"},"vehicle_type_id":"4","last_reported":1739963299,"current_range_meters":6800,"station_id":"","pricing_plan_id":"cebpf4jnsgd1na2vs0mg"},{"bike_id":"d84e6074-ea15-4bda-bd96-1db7b7926bbb","system_id":"levelo_inurba_marseille","lat":43.30106,"lon":5.39068,"is_reserved":false,"is_disabled":false,"rental_uris":{"android":"levelo://app?vid=d84e6074-ea15-4bda-bd96-1db7b7926bbb","ios":"levelo://app?vid=d84e6074-ea15-4bda-bd96-1db7b7926bbb"},"vehicle_type_id":"4","last_reported":1739963299,"current_range_meters":6800,"station_id":"","pricing_plan_id":"cebpf4jnsgd1na2vs0mg"},{"bike_id":"eafab877-d4f5-4d91-a5fa-c9be2f834eb7","system_id":"levelo_inurba_marseille","lat":43.27807,"lon":5.40705,"is_reserved":false,"is_disabled":false,"rental_uris":{"android":"levelo://app?vid=eafab877-d4f5-4d91-a5fa-c9be2f834eb7","ios":"levelo://app?vid=eafab877-d4f5-4d91-a5fa-c9be2f834eb7"},"vehicle_type_id":"4","last_reported":1739963299,"current_range_meters":6800,"station_id":"ce4bhnh2rcd13ifvqgtg","pricing_plan_id":"cebpf4jnsgd1na2vs0mg"},{"bike_id":"ba585d35-5c02-4e3b-b000-b2f1dcca5b41","system_id":"levelo_inurba_marseille","lat":43.26069,"lon":5.40661,"is_reserved":false,"is_disabled":false,"rental_uris":{"android":"levelo://app?vid=ba585d35-5c02-4e3b-b000-b2f1dcca5b41","ios":"levelo://app?vid=ba585d35-5c02-4e3b-b000-b2f1dcca5b41"},"vehicle_type_id":"4","last_reported":1739963299,"current_range_meters":7200,"station_id":"","pricing_plan_id":"cebpf4jnsgd1na2vs0mg"},{"bike_id":"53feaf20-a7f6-4631-b805-97555a63e29b","system_id":"levelo_inurba_marseille","lat":43.27416,"lon":5.40935,"is_reserved":false,"is_disabled":false,"rental_uris":{"android":"levelo://app?vid=53feaf20-a7f6-4631-b805-97555a63e29b","ios":"levelo://app?vid=53feaf20-a7f6-4631-b805-97555a63e29b"},"vehicle_type_id":"4","last_reported":1739963299,"current_range_meters":7200,"station_id":"","pricing_plan_id":"cebpf4jnsgd1na2vs0mg"},{"bike_id":"ecb8043e-7d99-48a7-818f-caac02fe3344","system_id":"levelo_inurba_marseille","lat":43.31487,"lon":5.37306,"is_reserved":false,"is_disabled":false,"rental_uris":{"android":"levelo://app?vid=ecb8043e-7d99-48a7-818f-caac02fe3344","ios":"levelo://app?vid=ecb8043e-7d99-48a7-818f-caac02fe3344"},"vehicle_type_id":"4","last_reported":1739963299,"current_range_meters":7200,"station_id":"ce4bgt12rcd13ifvqcd0","pricing_plan_id":"cebpf4jnsgd1na2vs0mg"},{"bike_id":"ff49fbee-8a40-4b1c-8bca-0fd8a4d421e7","system_id":"levelo_inurba_marseille","lat":43.30476,"lon":5.3792,"is_reserved":false,"is_disabled":false,"rental_uris":{"android":"levelo://app?vid=ff49fbee-8a40-4b1c-8bca-0fd8a4d421e7","ios":"levelo://app?vid=ff49fbee-8a40-4b1c-8bca-0fd8a4d421e7"},"vehicle_type_id":"4","last_reported":1739963299,"current_range_meters":7200,"station_id":"ce4bgup2rcd13ifvqcn0","pricing_plan_id":"cebpf4jnsgd1na2vs0mg"},{"bike_id":"19a82d90-5fb5-475e-9359-653b37581c65","system_id":"levelo_inurba_marseille","lat":43.24205,"lon":5.39725,"is_reserved":false,"is_disabled":false,"rental_uris":{"android":"levelo://app?vid=19a82d90-5fb5-475e-9359-653b37581c65","ios":"levelo://app?vid=19a82d90-5fb5-475e-9359-653b37581c65"},"vehicle_type_id":"4","last_reported":1739963299,"current_range_meters":8000,"station_id":"ce4bhn12rcd13ifvqgpg","pricing_plan_id":"cebpf4jnsgd1na2vs0mg"},{"bike_id":"8072f034-69d4-48c5-b234-451357393f04","system_id":"levelo_inurba_marseille","lat":43.23964,"lon":5.36638,"is_reserved":false,"is_disabled":false,"rental_uris":{"android":"levelo://app?vid=8072f034-69d4-48c5-b234-451357393f04","ios":"levelo://app?vid=8072f034-69d4-48c5-b234-451357393f04"},"vehicle_type_id":"4","last_reported":1739963299,"current_range_meters":8000,"station_id":"ce4bhi12rcd13ifvqfp0","pricing_plan_id":"cebpf4jnsgd1na2vs0mg"},{"bike_id":"0471ef9b-e05b-4c07-ad26-cbfbd92bd5b9","system_id":"levelo_inurba_marseille","lat":43.32494,"lon":5.36557,"is_reserved":false,"is_disabled":false,"rental_uris":{"android":"levelo://app?vid=0471ef9b-e05b-4c07-ad26-cbfbd92bd5b9","ios":"levelo://app?vid=0471ef9b-e05b-4c07-ad26-cbfbd92bd5b9"},"vehicle_type_id":"4","last_reported":1739963299,"current_range_meters":8000,"station_id":"ce4bhs12rcd13ifvqhvg","pricing_plan_id":"cebpf4jnsgd1na2vs0mg"},{"bike_id":"f50eaa03-c3f1-450d-b1ad-76b3eae7056a","system_id":"levelo_inurba_marseille","lat":43.29603,"lon":5.3865,"is_reserved":false,"is_disabled":false,"rental_uris":{"android":"levelo://app?vid=f50eaa03-c3f1-450d-b1ad-76b3eae7056a","ios":"levelo://app?vid=f50eaa03-c3f1-450d-b1ad-76b3eae7056a"},"vehicle_type_id":"4","last_reported":1739963299,"current_range_meters":8000,"station_id":"ce4bh392rcd13ifvqdl0","pricing_plan_id":"cebpf4jnsgd1na2vs0mg"},{"bike_id":"5ae0012d-6179-440f-a02a-a607c9208eb9","system_id":"levelo_inurba_marseille","lat":43.24663,"lon":5.38155,"is_reserved":false,"is_disabled":false,"rental_uris":{"android":"levelo://app?vid=5ae0012d-6179-440f-a02a-a607c9208eb9","ios":"levelo://app?vid=5ae0012d-6179-440f-a02a-a607c9208eb9"},"vehicle_type_id":"4","last_reported":1739963299,"current_range_meters":8000,"station_id":"ce4bhih2rcd13ifvqfr0","pricing_plan_id":"cebpf4jnsgd1na2vs0mg"},{"bike_id":"d2227766-42ff-490e-bf62-57b8247de61c","system_id":"levelo_inurba_marseille","lat":43.30868,"lon":5.40144,"is_reserved":false,"is_disabled":false,"rental_uris":{"android":"levelo://app?vid=d2227766-42ff-490e-bf62-57b8247de61c","ios":"levelo://app?vid=d2227766-42ff-490e-bf62-57b8247de61c"},"vehicle_type_id":"4","last_reported":1739963299,"current_range_meters":8000,"station_id":"ce4bgvp2rcd13ifvqct0","pricing_plan_id":"cebpf4jnsgd1na2vs0mg"},{"bike_id":"8ea2634d-1c3f-44d7-a557-3e9b86ecd606","system_id":"levelo_inurba_marseille","lat":43.26689,"lon":5.38272,"is_reserved":false,"is_disabled":false,"rental_uris":{"android":"levelo://app?vid=8ea2634d-1c3f-44d7-a557-3e9b86ecd606","ios":"levelo://app?vid=8ea2634d-1c3f-44d7-a557-3e9b86ecd606"},"vehicle_type_id":"4","last_reported":1739963299,"current_range_meters":8400,"station_id":"ce4bhg92rcd13ifvqf90","pricing_plan_id":"cebpf4jnsgd1na2vs0mg"},{"bike_id":"68190e97-a692-45ca-ac1b-c2b508322dad","system_id":"levelo_inurba_marseille","lat":43.31388,"lon":5.38492,"is_reserved":false,"is_disabled":false,"rental_uris":{"android":"levelo://app?vid=68190e97-a692-45ca-ac1b-c2b508322dad","ios":"levelo://app?vid=68190e97-a692-45ca-ac1b-c2b508322dad"},"vehicle_type_id":"4","last_reported":1739963299,"current_range_meters":8800,"station_id":"","pricing_plan_id":"cebpf4jnsgd1na2vs0mg"},{"bike_id":"3ea0b1ad-f3ea-4211-8e3b-d3f0c9a0f631","system_id":"levelo_inurba_marseille","lat":43.309565,"lon":5.390465,"is_reserved":false,"is_disabled":false,"rental_uris":{"android":"levelo://app?vid=3ea0b1ad-f3ea-4211-8e3b-d3f0c9a0f631","ios":"levelo://app?vid=3ea0b1ad-f3ea-4211-8e3b-d3f0c9a0f631"},"vehicle_type_id":"4","last_reported":1739963299,"current_range_meters":8800,"station_id":"","pricing_plan_id":"cebpf4jnsgd1na2vs0mg"},{"bike_id":"46ea923b-1a59-495a-a45f-bcf3c15a4145","system_id":"levelo_inurba_marseille","lat":43.31712,"lon":5.37709,"is_reserved":false,"is_disabled":false,"rental_uris":{"android":"levelo://app?vid=46ea923b-1a59-495a-a45f-bcf3c15a4145","ios":"levelo://app?vid=46ea923b-1a59-495a-a45f-bcf3c15a4145"},"vehicle_type_id":"4","last_reported":1739963299,"current_range_meters":8800,"station_id":"ce4bgth2rcd13ifvqch0","pricing_plan_id":"cebpf4jnsgd1na2vs0mg"},{"bike_id":"4089f1a0-cd12-42d3-a6c3-01d445970a86","system_id":"levelo_inurba_marseille","lat":43.31289,"lon":5.37422,"is_reserved":false,"is_disabled":false,"rental_uris":{"android":"levelo://app?vid=4089f1a0-cd12-42d3-a6c3-01d445970a86","ios":"levelo://app?vid=4089f1a0-cd12-42d3-a6c3-01d445970a86"},"vehicle_type_id":"4","last_reported":1739963299,"current_range_meters":8800,"station_id":"","pricing_plan_id":"cebpf4jnsgd1na2vs0mg"},{"bike_id":"bb852df7-dd74-43f4-8582-0650a376dfcb","system_id":"levelo_inurba_marseille","lat":43.337444,"lon":5.374475,"is_reserved":false,"is_disabled":false,"rental_uris":{"android":"levelo://app?vid=bb852df7-dd74-43f4-8582-0650a376dfcb","ios":"levelo://app?vid=bb852df7-dd74-43f4-8582-0650a376dfcb"},"vehicle_type_id":"4","last_reported":1739963299,"current_range_meters":8800,"station_id":"ce4bhn92rcd13ifvqgrg","pricing_plan_id":"cebpf4jnsgd1na2vs0mg"},{"bike_id":"0329e953-c092-4cd5-acc9-326776e223a8","system_id":"levelo_inurba_marseille","lat":43.28224,"lon":5.35073,"is_reserved":false,"is_disabled":true,"rental_uris":{"android":"levelo://app?vid=0329e953-c092-4cd5-acc9-326776e223a8","ios":"levelo://app?vid=0329e953-c092-4cd5-acc9-326776e223a8"},"vehicle_type_id":"4","last_reported":1739963299,"current_range_meters":8800,"station_id":"ce4bhbp2rcd13ifvqerg","pricing_plan_id":"cebpf4jnsgd1na2vs0mg"},{"bike_id":"10c134e7-7862-45ed-8103-0b6221fb4b66","system_id":"levelo_inurba_marseille","lat":43.24999,"lon":5.38931,"is_reserved":false,"is_disabled":false,"rental_uris":{"android":"levelo://app?vid=10c134e7-7862-45ed-8103-0b6221fb4b66","ios":"levelo://app?vid=10c134e7-7862-45ed-8103-0b6221fb4b66"},"vehicle_type_id":"4","last_reported":1739963299,"current_range_meters":9200,"station_id":"","pricing_plan_id":"cebpf4jnsgd1na2vs0mg"},{"bike_id":"9b03b96d-2041-4d92-a949-290d7b50f943","system_id":"levelo_inurba_marseille","lat":43.27174,"lon":5.40986,"is_reserved":false,"is_disabled":false,"rental_uris":{"android":"levelo://app?vid=9b03b96d-2041-4d92-a949-290d7b50f943","ios":"levelo://app?vid=9b03b96d-2041-4d92-a949-290d7b50f943"},"vehicle_type_id":"4","last_reported":1739963299,"current_range_meters":9200,"station_id":"","pricing_plan_id":"cebpf4jnsgd1na2vs0mg"},{"bike_id":"130bec80-cd0a-420b-9e67-d8e62029acfc","system_id":"levelo_inurba_marseille","lat":43.26213,"lon":5.37457,"is_reserved":false,"is_disabled":false,"rental_uris":{"android":"levelo://app?vid=130bec80-cd0a-420b-9e67-d8e62029acfc","ios":"levelo://app?vid=130bec80-cd0a-420b-9e67-d8e62029acfc"},"vehicle_type_id":"4","last_reported":1739963299,"current_range_meters":9200,"station_id":"ce4bhgp2rcd13ifvqfc0","pricing_plan_id":"cebpf4jnsgd1na2vs0mg"},{"bike_id":"3743fe0e-d8fb-476d-ab8f-8b73fc76ba3d","system_id":"levelo_inurba_marseille","lat":43.30142,"lon":5.37415,"is_reserved":false,"is_disabled":false,"rental_uris":{"android":"levelo://app?vid=3743fe0e-d8fb-476d-ab8f-8b73fc76ba3d","ios":"levelo://app?vid=3743fe0e-d8fb-476d-ab8f-8b73fc76ba3d"},"vehicle_type_id":"4","last_reported":1739963299,"current_range_meters":9200,"station_id":"ce4bgs92rcd13ifvqcc0","pricing_plan_id":"cebpf4jnsgd1na2vs0mg"},{"bike_id":"0d49c6b7-7f31-4c7e-92e5-41b7bdf852cd","system_id":"levelo_inurba_marseille","lat":43.31327,"lon":5.39705,"is_reserved":false,"is_disabled":false,"rental_uris":{"android":"levelo://app?vid=0d49c6b7-7f31-4c7e-92e5-41b7bdf852cd","ios":"levelo://app?vid=0d49c6b7-7f31-4c7e-92e5-41b7bdf852cd"},"vehicle_type_id":"4","last_reported":1739963299,"current_range_meters":9200,"station_id":"ce4bgvp2rcd13ifvqcu0","pricing_plan_id":"cebpf4jnsgd1na2vs0mg"},{"bike_id":"9198c6ef-bd5b-45d9-bd7b-e058d791d44b","system_id":"levelo_inurba_marseille","lat":43.24814,"lon":5.37457,"is_reserved":false,"is_disabled":false,"rental_uris":{"android":"levelo://app?vid=9198c6ef-bd5b-45d9-bd7b-e058d791d44b","ios":"levelo://app?vid=9198c6ef-bd5b-45d9-bd7b-e058d791d44b"},"vehicle_type_id":"4","last_reported":1739963299,"current_range_meters":9200,"station_id":"ce4bhgh2rcd13ifvqfb0","pricing_plan_id":"cebpf4jnsgd1na2vs0mg"},{"bike_id":"62aee166-68dc-44c2-b042-2ebd671a7116","system_id":"levelo_inurba_marseille","lat":43.29852,"lon":5.36269,"is_reserved":false,"is_disabled":false,"rental_uris":{"android":"levelo://app?vid=62aee166-68dc-44c2-b042-2ebd671a7116","ios":"levelo://app?vid=62aee166-68dc-44c2-b042-2ebd671a7116"},"vehicle_type_id":"4","last_reported":1739963299,"current_range_meters":9600,"station_id":"ce4bgpp2rcd13ifvqc3g","pricing_plan_id":"cebpf4jnsgd1na2vs0mg"},{"bike_id":"08cd248b-1030-4604-9308-27408f7dbce3","system_id":"levelo_inurba_marseille","lat":43.27328,"lon":5.39106,"is_reserved":false,"is_disabled":false,"rental_uris":{"android":"levelo://app?vid=08cd248b-1030-4604-9308-27408f7dbce3","ios":"levelo://app?vid=08cd248b-1030-4604-9308-27408f7dbce3"},"vehicle_type_id":"4","last_reported":1739963299,"current_range_meters":9600,"station_id":"ce4bhgp2rcd13ifvqfe0","pricing_plan_id":"cebpf4jnsgd1na2vs0mg"},{"bike_id":"691bb283-f595-48aa-8fb0-206bba553d6b","system_id":"levelo_inurba_marseille","lat":43.27822,"lon":5.40716,"is_reserved":false,"is_disabled":false,"rental_uris":{"android":"levelo://app?vid=691bb283-f595-48aa-8fb0-206bba553d6b","ios":"levelo://app?vid=691bb283-f595-48aa-8fb0-206bba553d6b"},"vehicle_type_id":"4","last_reported":1739963299,"current_range_meters":9600,"station_id":"ce4bhnh2rcd13ifvqgtg","pricing_plan_id":"cebpf4jnsgd1na2vs0mg"},{"bike_id":"cf7a2482-ed6c-43bc-b88b-c40a99cc3607","system_id":"levelo_inurba_marseille","lat":43.29187,"lon":5.39308,"is_reserved":false,"is_disabled":false,"rental_uris":{"android":"levelo://app?vid=cf7a2482-ed6c-43bc-b88b-c40a99cc3607","ios":"levelo://app?vid=cf7a2482-ed6c-43bc-b88b-c40a99cc3607"},"vehicle_type_id":"4","last_reported":1739963299,"current_range_meters":9600,"station_id":"ce4bh192rcd13ifvqdd0","pricing_plan_id":"cebpf4jnsgd1na2vs0mg"},{"bike_id":"85e87220-f6a3-46be-8172-f6efecf3643e","system_id":"levelo_inurba_marseille","lat":43.28159,"lon":5.42643,"is_reserved":false,"is_disabled":false,"rental_uris":{"android":"levelo://app?vid=85e87220-f6a3-46be-8172-f6efecf3643e","ios":"levelo://app?vid=85e87220-f6a3-46be-8172-f6efecf3643e"},"vehicle_type_id":"4","last_reported":1739963299,"current_range_meters":9600,"station_id":"","pricing_plan_id":"cebpf4jnsgd1na2vs0mg"},{"bike_id":"f0f61fdf-e262-479f-a259-1997ef9b3f40","system_id":"levelo_inurba_marseille","lat":43.28154,"lon":5.42639,"is_reserved":false,"is_disabled":false,"rental_uris":{"android":"levelo://app?vid=f0f61fdf-e262-479f-a259-1997ef9b3f40","ios":"levelo://app?vid=f0f61fdf-e262-479f-a259-1997ef9b3f40"},"vehicle_type_id":"4","last_reported":1739963299,"current_range_meters":9600,"station_id":"","pricing_plan_id":"cebpf4jnsgd1na2vs0mg"},{"bike_id":"fc1759fc-f01a-4d36-800a-54a797599b72","system_id":"levelo_inurba_marseille","lat":43.30156,"lon":5.38071,"is_reserved":false,"is_disabled":false,"rental_uris":{"android":"levelo://app?vid=fc1759fc-f01a-4d36-800a-54a797599b72","ios":"levelo://app?vid=fc1759fc-f01a-4d36-800a-54a797599b72"},"vehicle_type_id":"4","last_reported":1739963299,"current_range_meters":10000,"station_id":"ce4bhah2rcd13ifvqei0","pricing_plan_id":"cebpf4jnsgd1na2vs0mg"},{"bike_id":"db7f2d58-492d-4297-aa78-ce0ad99a0a74","system_id":"levelo_inurba_marseille","lat":43.27436,"lon":5.41041,"is_reserved":false,"is_disabled":false,"rental_uris":{"android":"levelo://app?vid=db7f2d58-492d-4297-aa78-ce0ad99a0a74","ios":"levelo://app?vid=db7f2d58-492d-4297-aa78-ce0ad99a0a74"},"vehicle_type_id":"4","last_reported":1739963299,"current_range_meters":10000,"station_id":"ce4bhb92rcd13ifvqen0","pricing_plan_id":"cebpf4jnsgd1na2vs0mg"},{"bike_id":"746261e7-87ca-46e8-ae4e-2fe0fdf4ba43","system_id":"levelo_inurba_marseille","lat":43.28001,"lon":5.41657,"is_reserved":false,"is_disabled":false,"rental_uris":{"android":"levelo://app?vid=746261e7-87ca-46e8-ae4e-2fe0fdf4ba43","ios":"levelo://app?vid=746261e7-87ca-46e8-ae4e-2fe0fdf4ba43"},"vehicle_type_id":"4","last_reported":1739963299,"current_range_meters":10000,"station_id":"ce4bho12rcd13ifvqh1g","pricing_plan_id":"cebpf4jnsgd1na2vs0mg"},{"bike_id":"ea1519e7-b5fe-42ac-aa41-a04f66c121d4","system_id":"levelo_inurba_marseille","lat":43.24077,"lon":5.37719,"is_reserved":false,"is_disabled":false,"rental_uris":{"android":"levelo://app?vid=ea1519e7-b5fe-42ac-aa41-a04f66c121d4","ios":"levelo://app?vid=ea1519e7-b5fe-42ac-aa41-a04f66c121d4"},"vehicle_type_id":"4","last_reported":1739963299,"current_range_meters":10000,"station_id":"ce4bhnp2rcd13ifvqgvg","pricing_plan_id":"cebpf4jnsgd1na2vs0mg"},{"bike_id":"433d70db-5cd5-4835-afa5-0e926709321b","system_id":"levelo_inurba_marseille","lat":43.28483,"lon":5.35879,"is_reserved":false,"is_disabled":false,"rental_uris":{"android":"levelo://app?vid=433d70db-5cd5-4835-afa5-0e926709321b","ios":"levelo://app?vid=433d70db-5cd5-4835-afa5-0e926709321b"},"vehicle_type_id":"4","last_reported":1739963299,"current_range_meters":10800,"station_id":"","pricing_plan_id":"cebpf4jnsgd1na2vs0mg"},{"bike_id":"6defbe51-bc6f-4430-b5ab-60dc5cf67e7b","system_id":"levelo_inurba_marseille","lat":43.24179,"lon":5.39736,"is_reserved":false,"is_disabled":false,"rental_uris":{"android":"levelo://app?vid=6defbe51-bc6f-4430-b5ab-60dc5cf67e7b","ios":"levelo://app?vid=6defbe51-bc6f-4430-b5ab-60dc5cf67e7b"},"vehicle_type_id":"4","last_reported":1739963299,"current_range_meters":10800,"station_id":"ce4bhn12rcd13ifvqgpg","pricing_plan_id":"cebpf4jnsgd1na2vs0mg"},{"bike_id":"bce1296a-9e93-4872-99c7-2596dfe42f5b","system_id":"levelo_inurba_marseille","lat":43.26789,"lon":5.39411,"is_reserved":false,"is_disabled":false,"rental_uris":{"android":"levelo://app?vid=bce1296a-9e93-4872-99c7-2596dfe42f5b","ios":"levelo://app?vid=bce1296a-9e93-4872-99c7-2596dfe42f5b"},"vehicle_type_id":"4","last_reported":1739963299,"current_range_meters":10800,"station_id":"ce4bhh12rcd13ifvqfg0","pricing_plan_id":"cebpf4jnsgd1na2vs0mg"},{"bike_id":"d8f6dbed-3d13-4c3f-9f56-736df9ae1572","system_id":"levelo_inurba_marseille","lat":43.27503,"lon":5.42462,"is_reserved":false,"is_disabled":false,"rental_uris":{"android":"levelo://app?vid=d8f6dbed-3d13-4c3f-9f56-736df9ae1572","ios":"levelo://app?vid=d8f6dbed-3d13-4c3f-9f56-736df9ae1572"},"vehicle_type_id":"4","last_reported":1739963299,"current_range_meters":11200,"station_id":"ce4bhn92rcd13ifvqgrg","pricing_plan_id":"cebpf4jnsgd1na2vs0mg"},{"bike_id":"f027fe38-3f5d-42fa-b16a-68ca60104c09","system_id":"levelo_inurba_marseille","lat":43.24169,"lon":5.364,"is_reserved":false,"is_disabled":false,"rental_uris":{"android":"levelo://app?vid=f027fe38-3f5d-42fa-b16a-68ca60104c09","ios":"levelo://app?vid=f027fe38-3f5d-42fa-b16a-68ca60104c09"},"vehicle_type_id":"4","last_reported":1739963299,"current_range_meters":11200,"station_id":"","pricing_plan_id":"cebpf4jnsgd1na2vs0mg"},{"bike_id":"13057e7a-14d4-4c99-b793-7cf171d55e6b","system_id":"levelo_inurba_marseille","lat":43.28851,"lon":5.35852,"is_reserved":false,"is_disabled":false,"rental_uris":{"android":"levelo://app?vid=13057e7a-14d4-4c99-b793-7cf171d55e6b","ios":"levelo://app?vid=13057e7a-14d4-4c99-b793-7cf171d55e6b"},"vehicle_type_id":"4","last_reported":1739963299,"current_range_meters":10800,"station_id":"ce4bhb12rcd13ifvqem0","pricing_plan_id":"cebpf4jnsgd1na2vs0mg"},{"bike_id":"8bb870b4-f01c-485e-afa5-33130f16b80a","system_id":"levelo_inurba_marseille","lat":43.31332,"lon":5.39704,"is_reserved":false,"is_disabled":false,"rental_uris":{"android":"levelo://app?vid=8bb870b4-f01c-485e-afa5-33130f16b80a","ios":"levelo://app?vid=8bb870b4-f01c-485e-afa5-33130f16b80a"},"vehicle_type_id":"4","last_reported":1739963299,"current_range_meters":10800,"station_id":"ce4bgvp2rcd13ifvqcu0","pricing_plan_id":"cebpf4jnsgd1na2vs0mg"},{"bike_id":"64b8bb7d-9873-45a7-be80-4f5f79e89392","system_id":"levelo_inurba_marseille","lat":43.25087,"lon":5.39527,"is_reserved":false,"is_disabled":false,"rental_uris":{"android":"levelo://app?vid=64b8bb7d-9873-45a7-be80-4f5f79e89392","ios":"levelo://app?vid=64b8bb7d-9873-45a7-be80-4f5f79e89392"},"vehicle_type_id":"4","last_reported":1739963299,"current_range_meters":11200,"station_id":"ce4bhm12rcd13ifvqgkg","pricing_plan_id":"cebpf4jnsgd1na2vs0mg"},{"bike_id":"c186b769-21b0-4010-925d-7e3b55aba84a","system_id":"levelo_inurba_marseille","lat":43.3016,"lon":5.380808,"is_reserved":false,"is_disabled":false,"rental_uris":{"android":"levelo://app?vid=c186b769-21b0-4010-925d-7e3b55aba84a","ios":"levelo://app?vid=c186b769-21b0-4010-925d-7e3b55aba84a"},"vehicle_type_id":"4","last_reported":1739963299,"current_range_meters":12000,"station_id":"ce4bgjp2rcd13ifvqbh0","pricing_plan_id":"cebpf4jnsgd1na2vs0mg"},{"bike_id":"63c4cf47-dbff-4d5e-a88a-080b99df99de","system_id":"levelo_inurba_marseille","lat":43.29528,"lon":5.38891,"is_reserved":false,"is_disabled":true,"rental_uris":{"android":"levelo://app?vid=63c4cf47-dbff-4d5e-a88a-080b99df99de","ios":"levelo://app?vid=63c4cf47-dbff-4d5e-a88a-080b99df99de"},"vehicle_type_id":"4","last_reported":1739963299,"current_range_meters":12000,"station_id":"","pricing_plan_id":"cebpf4jnsgd1na2vs0mg"},{"bike_id":"c25b8dfb-6504-412f-97e7-f6faee019763","system_id":"levelo_inurba_marseille","lat":43.26476,"lon":5.39561,"is_reserved":false,"is_disabled":false,"rental_uris":{"android":"levelo://app?vid=c25b8dfb-6504-412f-97e7-f6faee019763","ios":"levelo://app?vid=c25b8dfb-6504-412f-97e7-f6faee019763"},"vehicle_type_id":"4","last_reported":1739963299,"current_range_meters":12400,"station_id":"ce4bhi12rcd13ifvqfq0","pricing_plan_id":"cebpf4jnsgd1na2vs0mg"},{"bike_id":"d1dec037-ee4c-4db9-a655-1087d8ee1f4f","system_id":"levelo_inurba_marseille","lat":43.28444,"lon":5.39175,"is_reserved":false,"is_disabled":true,"rental_uris":{"android":"levelo://app?vid=d1dec037-ee4c-4db9-a655-1087d8ee1f4f","ios":"levelo://app?vid=d1dec037-ee4c-4db9-a655-1087d8ee1f4f"},"vehicle_type_id":"4","last_reported":1739963299,"current_range_meters":12000,"station_id":"","pricing_plan_id":"cebpf4jnsgd1na2vs0mg"},{"bike_id":"1d63a175-89ef-49ff-9ead-dfe9ed6c22cf","system_id":"levelo_inurba_marseille","lat":43.24693,"lon":5.39437,"is_reserved":false,"is_disabled":false,"rental_uris":{"android":"levelo://app?vid=1d63a175-89ef-49ff-9ead-dfe9ed6c22cf","ios":"levelo://app?vid=1d63a175-89ef-49ff-9ead-dfe9ed6c22cf"},"vehicle_type_id":"4","last_reported":1739963299,"current_range_meters":12000,"station_id":"","pricing_plan_id":"cebpf4jnsgd1na2vs0mg"},{"bike_id":"4b46213d-cc44-42f0-b429-3cf23c4c3aab","system_id":"levelo_inurba_marseille","lat":43.30476,"lon":5.37905,"is_reserved":false,"is_disabled":false,"rental_uris":{"android":"levelo://app?vid=4b46213d-cc44-42f0-b429-3cf23c4c3aab","ios":"levelo://app?vid=4b46213d-cc44-42f0-b429-3cf23c4c3aab"},"vehicle_type_id":"4","last_reported":1739963299,"current_range_meters":12000,"station_id":"","pricing_plan_id":"cebpf4jnsgd1na2vs0mg"},{"bike_id":"8749fc54-5032-4eac-8cb3-53640bf5ffc9","system_id":"levelo_inurba_marseille","lat":43.30561,"lon":5.36537,"is_reserved":false,"is_disabled":false,"rental_uris":{"android":"levelo://app?vid=8749fc54-5032-4eac-8cb3-53640bf5ffc9","ios":"levelo://app?vid=8749fc54-5032-4eac-8cb3-53640bf5ffc9"},"vehicle_type_id":"4","last_reported":1739963299,"current_range_meters":12000,"station_id":"ce4bgs12rcd13ifvqcag","pricing_plan_id":"cebpf4jnsgd1na2vs0mg"},{"bike_id":"f06e9da7-55e1-4f7c-af34-7a7971579920","system_id":"levelo_inurba_marseille","lat":43.26562,"lon":5.3729,"is_reserved":false,"is_disabled":false,"rental_uris":{"android":"levelo://app?vid=f06e9da7-55e1-4f7c-af34-7a7971579920","ios":"levelo://app?vid=f06e9da7-55e1-4f7c-af34-7a7971579920"},"vehicle_type_id":"4","last_reported":1739963299,"current_range_meters":12000,"station_id":"ce4bhg12rcd13ifvqf70","pricing_plan_id":"cebpf4jnsgd1na2vs0mg"},{"bike_id":"02e68def-6819-4848-bcf6-321063222d7f","system_id":"levelo_inurba_marseille","lat":43.27627,"lon":5.38392,"is_reserved":false,"is_disabled":false,"rental_uris":{"android":"levelo://app?vid=02e68def-6819-4848-bcf6-321063222d7f","ios":"levelo://app?vid=02e68def-6819-4848-bcf6-321063222d7f"},"vehicle_type_id":"4","last_reported":1739963299,"current_range_meters":12400,"station_id":"ce4bhh92rcd13ifvqfi0","pricing_plan_id":"cebpf4jnsgd1na2vs0mg"},{"bike_id":"f1ef0f2b-aceb-4fe1-8e45-90f1104684ec","system_id":"levelo_inurba_marseille","lat":43.30942,"lon":5.39038,"is_reserved":false,"is_disabled":false,"rental_uris":{"android":"levelo://app?vid=f1ef0f2b-aceb-4fe1-8e45-90f1104684ec","ios":"levelo://app?vid=f1ef0f2b-aceb-4fe1-8e45-90f1104684ec"},"vehicle_type_id":"4","last_reported":1739963299,"current_range_meters":12400,"station_id":"ce4bgup2rcd13ifvqco0","pricing_plan_id":"cebpf4jnsgd1na2vs0mg"},{"bike_id":"62613826-4aec-4f29-8a06-e60f5f637ded","system_id":"levelo_inurba_marseille","lat":43.30527,"lon":5.36539,"is_reserved":false,"is_disabled":false,"rental_uris":{"android":"levelo://app?vid=62613826-4aec-4f29-8a06-e60f5f637ded","ios":"levelo://app?vid=62613826-4aec-4f29-8a06-e60f5f637ded"},"vehicle_type_id":"4","last_reported":1739963299,"current_range_meters":12400,"station_id":"ce4bgs12rcd13ifvqcag","pricing_plan_id":"cebpf4jnsgd1na2vs0mg"},{"bike_id":"53134ec9-f577-412e-8a21-0bf0e7e5a94a","system_id":"levelo_inurba_marseille","lat":43.2621,"lon":5.37931,"is_reserved":false,"is_disabled":true,"rental_uris":{"android":"levelo://app?vid=53134ec9-f577-412e-8a21-0bf0e7e5a94a","ios":"levelo://app?vid=53134ec9-f577-412e-8a21-0bf0e7e5a94a"},"vehicle_type_id":"4","last_reported":1739963299,"current_range_meters":12800,"station_id":"ce4bhjp2rcd13ifvqg90","pricing_plan_id":"cebpf4jnsgd1na2vs0mg"},{"bike_id":"656b5440-0dd9-4d18-a759-5d6efa239231","system_id":"levelo_inurba_marseille","lat":43.29935,"lon":5.36532,"is_reserved":false,"is_disabled":false,"rental_uris":{"android":"levelo://app?vid=656b5440-0dd9-4d18-a759-5d6efa239231","ios":"levelo://app?vid=656b5440-0dd9-4d18-a759-5d6efa239231"},"vehicle_type_id":"4","last_reported":1739963299,"current_range_meters":12800,"station_id":"ce4bgm92rcd13ifvqbr0","pricing_plan_id":"cebpf4jnsgd1na2vs0mg"},{"bike_id":"a00fb5cd-e0d2-4f96-befb-5275c0df0c87","system_id":"levelo_inurba_marseille","lat":43.27986,"lon":5.41669,"is_reserved":false,"is_disabled":false,"rental_uris":{"android":"levelo://app?vid=a00fb5cd-e0d2-4f96-befb-5275c0df0c87","ios":"levelo://app?vid=a00fb5cd-e0d2-4f96-befb-5275c0df0c87"},"vehicle_type_id":"4","last_reported":1739963299,"current_range_meters":12800,"station_id":"ce4bho12rcd13ifvqh1g","pricing_plan_id":"cebpf4jnsgd1na2vs0mg"},{"bike_id":"c67fb496-8441-458a-af2d-8f07c087bdd0","system_id":"levelo_inurba_marseille","lat":43.24171,"lon":5.3642,"is_reserved":false,"is_disabled":true,"rental_uris":{"android":"levelo://app?vid=c67fb496-8441-458a-af2d-8f07c087bdd0","ios":"levelo://app?vid=c67fb496-8441-458a-af2d-8f07c087bdd0"},"vehicle_type_id":"4","last_reported":1739963299,"current_range_meters":12800,"station_id":"","pricing_plan_id":"cebpf4jnsgd1na2vs0mg"},{"bike_id":"59c06e16-2c1f-4444-a3f6-6a7b6c9c893e","system_id":"levelo_inurba_marseille","lat":43.30315,"lon":5.392147,"is_reserved":false,"is_disabled":true,"rental_uris":{"android":"levelo://app?vid=59c06e16-2c1f-4444-a3f6-6a7b6c9c893e","ios":"levelo://app?vid=59c06e16-2c1f-4444-a3f6-6a7b6c9c893e"},"vehicle_type_id":"4","last_reported":1739963299,"current_range_meters":12800,"station_id":"ce4bgkh2rcd13ifvqbk0","pricing_plan_id":"cebpf4jnsgd1na2vs0mg"},{"bike_id":"397b80cf-cbf3-4f7e-9d00-ad56509053a2","system_id":"levelo_inurba_marseille","lat":43.29177,"lon":5.39759,"is_reserved":false,"is_disabled":false,"rental_uris":{"android":"levelo://app?vid=397b80cf-cbf3-4f7e-9d00-ad56509053a2","ios":"levelo://app?vid=397b80cf-cbf3-4f7e-9d00-ad56509053a2"},"vehicle_type_id":"4","last_reported":1739963299,"current_range_meters":12800,"station_id":"","pricing_plan_id":"cebpf4jnsgd1na2vs0mg"},{"bike_id":"437bb01f-bd3c-49cd-9e3b-6cb22839a2bb","system_id":"levelo_inurba_marseille","lat":43.3055,"lon":5.36516,"is_reserved":false,"is_disabled":false,"rental_uris":{"android":"levelo://app?vid=437bb01f-bd3c-49cd-9e3b-6cb22839a2bb","ios":"levelo://app?vid=437bb01f-bd3c-49cd-9e3b-6cb22839a2bb"},"vehicle_type_id":"4","last_reported":1739963299,"current_range_meters":13600,"station_id":"ce4bgs12rcd13ifvqcag","pricing_plan_id":"cebpf4jnsgd1na2vs0mg"},{"bike_id":"7ba6d4ca-df42-4457-93bf-25beedaa2333","system_id":"levelo_inurba_marseille","lat":43.27843,"lon":5.39209,"is_reserved":false,"is_disabled":false,"rental_uris":{"android":"levelo://app?vid=7ba6d4ca-df42-4457-93bf-25beedaa2333","ios":"levelo://app?vid=7ba6d4ca-df42-4457-93bf-25beedaa2333"},"vehicle_type_id":"4","last_reported":1739963299,"current_range_meters":13600,"station_id":"","pricing_plan_id":"cebpf4jnsgd1na2vs0mg"},{"bike_id":"34d14ec0-9a1d-4d07-8158-52ff5d0c0371","system_id":"levelo_inurba_marseille","lat":43.29421,"lon":5.38043,"is_reserved":false,"is_disabled":false,"rental_uris":{"android":"levelo://app?vid=34d14ec0-9a1d-4d07-8158-52ff5d0c0371","ios":"levelo://app?vid=34d14ec0-9a1d-4d07-8158-52ff5d0c0371"},"vehicle_type_id":"4","last_reported":1739963299,"current_range_meters":13600,"station_id":"","pricing_plan_id":"cebpf4jnsgd1na2vs0mg"},{"bike_id":"24dd12c1-4d8a-40c0-b521-a98d2d462c41","system_id":"levelo_inurba_marseille","lat":43.2417,"lon":5.36401,"is_reserved":false,"is_disabled":false,"rental_uris":{"android":"levelo://app?vid=24dd12c1-4d8a-40c0-b521-a98d2d462c41","ios":"levelo://app?vid=24dd12c1-4d8a-40c0-b521-a98d2d462c41"},"vehicle_type_id":"4","last_reported":1739963299,"current_range_meters":13600,"station_id":"","pricing_plan_id":"cebpf4jnsgd1na2vs0mg"},{"bike_id":"77ccb14a-5470-401b-abec-5807ad06d4d7","system_id":"levelo_inurba_marseille","lat":43.24175,"lon":5.39729,"is_reserved":false,"is_disabled":false,"rental_uris":{"android":"levelo://app?vid=77ccb14a-5470-401b-abec-5807ad06d4d7","ios":"levelo://app?vid=77ccb14a-5470-401b-abec-5807ad06d4d7"},"vehicle_type_id":"4","last_reported":1739963299,"current_range_meters":13600,"station_id":"ce4bhn12rcd13ifvqgpg","pricing_plan_id":"cebpf4jnsgd1na2vs0mg"},{"bike_id":"0bf756b4-ef21-4fb6-99a9-e328bffefe4f","system_id":"levelo_inurba_marseille","lat":43.30142,"lon":5.37414,"is_reserved":false,"is_disabled":false,"rental_uris":{"android":"levelo://app?vid=0bf756b4-ef21-4fb6-99a9-e328bffefe4f","ios":"levelo://app?vid=0bf756b4-ef21-4fb6-99a9-e328bffefe4f"},"vehicle_type_id":"4","last_reported":1739963299,"current_range_meters":14000,"station_id":"ce4bgs92rcd13ifvqcc0","pricing_plan_id":"cebpf4jnsgd1na2vs0mg"},{"bike_id":"4f2ee9ce-87fd-4f0c-9b53-c99d614b568d","system_id":"levelo_inurba_marseille","lat":43.28268,"lon":5.35065,"is_reserved":false,"is_disabled":false,"rental_uris":{"android":"levelo://app?vid=4f2ee9ce-87fd-4f0c-9b53-c99d614b568d","ios":"levelo://app?vid=4f2ee9ce-87fd-4f0c-9b53-c99d614b568d"},"vehicle_type_id":"4","last_reported":1739963299,"current_range_meters":14000,"station_id":"ce4bhbp2rcd13ifvqerg","pricing_plan_id":"cebpf4jnsgd1na2vs0mg"},{"bike_id":"e3422978-e3d1-4168-a7a6-5ae7ec99e03f","system_id":"levelo_inurba_marseille","lat":43.271766,"lon":5.409876,"is_reserved":false,"is_disabled":false,"rental_uris":{"android":"levelo://app?vid=e3422978-e3d1-4168-a7a6-5ae7ec99e03f","ios":"levelo://app?vid=e3422978-e3d1-4168-a7a6-5ae7ec99e03f"},"vehicle_type_id":"4","last_reported":1739963299,"current_range_meters":14000,"station_id":"","pricing_plan_id":"cebpf4jnsgd1na2vs0mg"},{"bike_id":"fc971b16-bef3-4b6d-813c-ffc8ffa48842","system_id":"levelo_inurba_marseille","lat":43.2841,"lon":5.34986,"is_reserved":false,"is_disabled":true,"rental_uris":{"android":"levelo://app?vid=fc971b16-bef3-4b6d-813c-ffc8ffa48842","ios":"levelo://app?vid=fc971b16-bef3-4b6d-813c-ffc8ffa48842"},"vehicle_type_id":"4","last_reported":1739963299,"current_range_meters":14000,"station_id":"","pricing_plan_id":"cebpf4jnsgd1na2vs0mg"},{"bike_id":"63ea6c06-3267-4c39-8356-2342b6f650e8","system_id":"levelo_inurba_marseille","lat":43.30945,"lon":5.3905,"is_reserved":false,"is_disabled":false,"rental_uris":{"android":"levelo://app?vid=63ea6c06-3267-4c39-8356-2342b6f650e8","ios":"levelo://app?vid=63ea6c06-3267-4c39-8356-2342b6f650e8"},"vehicle_type_id":"4","last_reported":1739963299,"current_range_meters":14000,"station_id":"ce4bgup2rcd13ifvqco0","pricing_plan_id":"cebpf4jnsgd1na2vs0mg"},{"bike_id":"b64778c2-2434-4409-b125-e965a1fd469a","system_id":"levelo_inurba_marseille","lat":43.30298,"lon":5.36697,"is_reserved":false,"is_disabled":false,"rental_uris":{"android":"levelo://app?vid=b64778c2-2434-4409-b125-e965a1fd469a","ios":"levelo://app?vid=b64778c2-2434-4409-b125-e965a1fd469a"},"vehicle_type_id":"4","last_reported":1739963299,"current_range_meters":14000,"station_id":"ce4bgs12rcd13ifvqcag","pricing_plan_id":"cebpf4jnsgd1na2vs0mg"},{"bike_id":"5180f318-4948-4085-aaf1-5f3160b57dbe","system_id":"levelo_inurba_marseille","lat":43.27616,"lon":5.36105,"is_reserved":false,"is_disabled":true,"rental_uris":{"android":"levelo://app?vid=5180f318-4948-4085-aaf1-5f3160b57dbe","ios":"levelo://app?vid=5180f318-4948-4085-aaf1-5f3160b57dbe"},"vehicle_type_id":"4","last_reported":1739963299,"current_range_meters":14000,"station_id":"","pricing_plan_id":"cebpf4jnsgd1na2vs0mg"},{"bike_id":"0b1a3b32-459a-4ff9-a388-d16482304482","system_id":"levelo_inurba_marseille","lat":43.27999,"lon":5.40006,"is_reserved":false,"is_disabled":true,"rental_uris":{"android":"levelo://app?vid=0b1a3b32-459a-4ff9-a388-d16482304482","ios":"levelo://app?vid=0b1a3b32-459a-4ff9-a388-d16482304482"},"vehicle_type_id":"4","last_reported":1739963299,"current_range_meters":14400,"station_id":"","pricing_plan_id":"cebpf4jnsgd1na2vs0mg"},{"bike_id":"40762942-8a0e-44e7-9d91-b8677a609611","system_id":"levelo_inurba_marseille","lat":43.2694,"lon":5.38913,"is_reserved":false,"is_disabled":false,"rental_uris":{"android":"levelo://app?vid=40762942-8a0e-44e7-9d91-b8677a609611","ios":"levelo://app?vid=40762942-8a0e-44e7-9d91-b8677a609611"},"vehicle_type_id":"4","last_reported":1739963299,"current_range_meters":14000,"station_id":"ce4bhhh2rcd13ifvqfl0","pricing_plan_id":"cebpf4jnsgd1na2vs0mg"},{"bike_id":"e2596add-e568-49b6-a063-b6868f5c61f8","system_id":"levelo_inurba_marseille","lat":43.24826,"lon":5.3745,"is_reserved":false,"is_disabled":false,"rental_uris":{"android":"levelo://app?vid=e2596add-e568-49b6-a063-b6868f5c61f8","ios":"levelo://app?vid=e2596add-e568-49b6-a063-b6868f5c61f8"},"vehicle_type_id":"4","last_reported":1739963299,"current_range_meters":14400,"station_id":"ce4bhgh2rcd13ifvqfb0","pricing_plan_id":"cebpf4jnsgd1na2vs0mg"},{"bike_id":"79a8de8e-6448-4651-a4fc-e7e896fb3b6a","system_id":"levelo_inurba_marseille","lat":43.25579,"lon":5.38235,"is_reserved":false,"is_disabled":false,"rental_uris":{"android":"levelo://app?vid=79a8de8e-6448-4651-a4fc-e7e896fb3b6a","ios":"levelo://app?vid=79a8de8e-6448-4651-a4fc-e7e896fb3b6a"},"vehicle_type_id":"4","last_reported":1739963299,"current_range_meters":14400,"station_id":"ce4bhih2rcd13ifvqfs0","pricing_plan_id":"cebpf4jnsgd1na2vs0mg"},{"bike_id":"87a627da-e4b0-4a18-8633-fd19bb219ca1","system_id":"levelo_inurba_marseille","lat":43.250582,"lon":5.388993,"is_reserved":false,"is_disabled":false,"rental_uris":{"android":"levelo://app?vid=87a627da-e4b0-4a18-8633-fd19bb219ca1","ios":"levelo://app?vid=87a627da-e4b0-4a18-8633-fd19bb219ca1"},"vehicle_type_id":"4","last_reported":1739963299,"current_range_meters":14400,"station_id":"","pricing_plan_id":"cebpf4jnsgd1na2vs0mg"},{"bike_id":"9a20bf4a-2838-4260-9d28-debd745460c0","system_id":"levelo_inurba_marseille","lat":43.30829,"lon":5.37849,"is_reserved":false,"is_disabled":false,"rental_uris":{"android":"levelo://app?vid=9a20bf4a-2838-4260-9d28-debd745460c0","ios":"levelo://app?vid=9a20bf4a-2838-4260-9d28-debd745460c0"},"vehicle_type_id":"4","last_reported":1739963299,"current_range_meters":14400,"station_id":"ce4bgv92rcd13ifvqcq0","pricing_plan_id":"cebpf4jnsgd1na2vs0mg"},{"bike_id":"5b80abf9-df02-44a7-b61b-dd0a85631c27","system_id":"levelo_inurba_marseille","lat":43.23962,"lon":5.36657,"is_reserved":false,"is_disabled":false,"rental_uris":{"android":"levelo://app?vid=5b80abf9-df02-44a7-b61b-dd0a85631c27","ios":"levelo://app?vid=5b80abf9-df02-44a7-b61b-dd0a85631c27"},"vehicle_type_id":"4","last_reported":1739963299,"current_range_meters":14400,"station_id":"","pricing_plan_id":"cebpf4jnsgd1na2vs0mg"},{"bike_id":"5089bb88-a0cd-4434-a1a9-f3d5b67361c6","system_id":"levelo_inurba_marseille","lat":43.24369,"lon":5.38745,"is_reserved":false,"is_disabled":false,"rental_uris":{"android":"levelo://app?vid=5089bb88-a0cd-4434-a1a9-f3d5b67361c6","ios":"levelo://app?vid=5089bb88-a0cd-4434-a1a9-f3d5b67361c6"},"vehicle_type_id":"4","last_reported":1739963299,"current_range_meters":14800,"station_id":"","pricing_plan_id":"cebpf4jnsgd1na2vs0mg"},{"bike_id":"5f9ede52-c720-4107-a864-980fb2608395","system_id":"levelo_inurba_marseille","lat":43.24093,"lon":5.38674,"is_reserved":false,"is_disabled":false,"rental_uris":{"android":"levelo://app?vid=5f9ede52-c720-4107-a864-980fb2608395","ios":"levelo://app?vid=5f9ede52-c720-4107-a864-980fb2608395"},"vehicle_type_id":"4","last_reported":1739963299,"current_range_meters":15200,"station_id":"","pricing_plan_id":"cebpf4jnsgd1na2vs0mg"},{"bike_id":"c835c6b7-91aa-4f5c-95c8-b13cffbebdef","system_id":"levelo_inurba_marseille","lat":43.2717,"lon":5.40989,"is_reserved":false,"is_disabled":false,"rental_uris":{"android":"levelo://app?vid=c835c6b7-91aa-4f5c-95c8-b13cffbebdef","ios":"levelo://app?vid=c835c6b7-91aa-4f5c-95c8-b13cffbebdef"},"vehicle_type_id":"4","last_reported":1739963299,"current_range_meters":15200,"station_id":"","pricing_plan_id":"cebpf4jnsgd1na2vs0mg"},{"bike_id":"d3699658-ddb7-475c-abfb-4e991b75b6d3","system_id":"levelo_inurba_marseille","lat":43.26945,"lon":5.38647,"is_reserved":false,"is_disabled":false,"rental_uris":{"android":"levelo://app?vid=d3699658-ddb7-475c-abfb-4e991b75b6d3","ios":"levelo://app?vid=d3699658-ddb7-475c-abfb-4e991b75b6d3"},"vehicle_type_id":"4","last_reported":1739963299,"current_range_meters":16000,"station_id":"ce4bhh92rcd13ifvqfh0","pricing_plan_id":"cebpf4jnsgd1na2vs0mg"},{"bike_id":"a0af3547-0f5a-4ee7-a39d-23ed992db956","system_id":"levelo_inurba_marseille","lat":43.23418,"lon":5.40452,"is_reserved":false,"is_disabled":false,"rental_uris":{"android":"levelo://app?vid=a0af3547-0f5a-4ee7-a39d-23ed992db956","ios":"levelo://app?vid=a0af3547-0f5a-4ee7-a39d-23ed992db956"},"vehicle_type_id":"4","last_reported":1739963299,"current_range_meters":16000,"station_id":"","pricing_plan_id":"cebpf4jnsgd1na2vs0mg"},{"bike_id":"af246186-84c5-47ac-9840-acf8926725e0","system_id":"levelo_inurba_marseille","lat":43.23945,"lon":5.36638,"is_reserved":false,"is_disabled":false,"rental_uris":{"android":"levelo://app?vid=af246186-84c5-47ac-9840-acf8926725e0","ios":"levelo://app?vid=af246186-84c5-47ac-9840-acf8926725e0"},"vehicle_type_id":"4","last_reported":1739963299,"current_range_meters":16000,"station_id":"","pricing_plan_id":"cebpf4jnsgd1na2vs0mg"},{"bike_id":"138b7a62-0eea-4d69-90ad-bd0f5cb4d379","system_id":"levelo_inurba_marseille","lat":43.29301,"lon":5.37184,"is_reserved":false,"is_disabled":false,"rental_uris":{"android":"levelo://app?vid=138b7a62-0eea-4d69-90ad-bd0f5cb4d379","ios":"levelo://app?vid=138b7a62-0eea-4d69-90ad-bd0f5cb4d379"},"vehicle_type_id":"4","last_reported":1739963299,"current_range_meters":16000,"station_id":"ce4bgh92rcd13ifvqb40","pricing_plan_id":"cebpf4jnsgd1na2vs0mg"},{"bike_id":"ba6293f6-c5a3-4b1d-b111-439b722346cc","system_id":"levelo_inurba_marseille","lat":43.26557,"lon":5.37295,"is_reserved":false,"is_disabled":false,"rental_uris":{"android":"levelo://app?vid=ba6293f6-c5a3-4b1d-b111-439b722346cc","ios":"levelo://app?vid=ba6293f6-c5a3-4b1d-b111-439b722346cc"},"vehicle_type_id":"4","last_reported":1739963299,"current_range_meters":16400,"station_id":"ce4bhg12rcd13ifvqf70","pricing_plan_id":"cebpf4jnsgd1na2vs0mg"},{"bike_id":"b85644ed-f65a-4039-a397-da921e97276e","system_id":"levelo_inurba_marseille","lat":43.23971,"lon":5.3662,"is_reserved":false,"is_disabled":false,"rental_uris":{"android":"levelo://app?vid=b85644ed-f65a-4039-a397-da921e97276e","ios":"levelo://app?vid=b85644ed-f65a-4039-a397-da921e97276e"},"vehicle_type_id":"4","last_reported":1739963299,"current_range_meters":16400,"station_id":"ce4bhi12rcd13ifvqfp0","pricing_plan_id":"cebpf4jnsgd1na2vs0mg"},{"bike_id":"5428c4a6-2268-45c5-aff9-a5f8e308d92b","system_id":"levelo_inurba_marseille","lat":43.30956,"lon":5.37286,"is_reserved":false,"is_disabled":false,"rental_uris":{"android":"levelo://app?vid=5428c4a6-2268-45c5-aff9-a5f8e308d92b","ios":"levelo://app?vid=5428c4a6-2268-45c5-aff9-a5f8e308d92b"},"vehicle_type_id":"4","last_reported":1739963299,"current_range_meters":16400,"station_id":"ce4bguh2rcd13ifvqckg","pricing_plan_id":"cebpf4jnsgd1na2vs0mg"},{"bike_id":"259617e0-e7e9-4a4d-aee7-15927e833679","system_id":"levelo_inurba_marseille","lat":43.26564,"lon":5.3903,"is_reserved":false,"is_disabled":false,"rental_uris":{"android":"levelo://app?vid=259617e0-e7e9-4a4d-aee7-15927e833679","ios":"levelo://app?vid=259617e0-e7e9-4a4d-aee7-15927e833679"},"vehicle_type_id":"4","last_reported":1739963299,"current_range_meters":16400,"station_id":"","pricing_plan_id":"cebpf4jnsgd1na2vs0mg"},{"bike_id":"eea53ece-49bb-4ab5-9642-ef74284e4e2b","system_id":"levelo_inurba_marseille","lat":43.27061,"lon":5.40273,"is_reserved":false,"is_disabled":false,"rental_uris":{"android":"levelo://app?vid=eea53ece-49bb-4ab5-9642-ef74284e4e2b","ios":"levelo://app?vid=eea53ece-49bb-4ab5-9642-ef74284e4e2b"},"vehicle_type_id":"4","last_reported":1739963299,"current_range_meters":16400,"station_id":"ce4bhk92rcd13ifvqgc0","pricing_plan_id":"cebpf4jnsgd1na2vs0mg"},{"bike_id":"c7cd0f4d-e049-4efa-9fba-d2b6f0a2a591","system_id":"levelo_inurba_marseille","lat":43.30103,"lon":5.39073,"is_reserved":false,"is_disabled":false,"rental_uris":{"android":"levelo://app?vid=c7cd0f4d-e049-4efa-9fba-d2b6f0a2a591","ios":"levelo://app?vid=c7cd0f4d-e049-4efa-9fba-d2b6f0a2a591"},"vehicle_type_id":"4","last_reported":1739963299,"current_range_meters":16800,"station_id":"","pricing_plan_id":"cebpf4jnsgd1na2vs0mg"},{"bike_id":"9d2a8a0e-0469-4c46-9f8c-2cd160af0bfa","system_id":"levelo_inurba_marseille","lat":43.305475,"lon":5.365632,"is_reserved":false,"is_disabled":false,"rental_uris":{"android":"levelo://app?vid=9d2a8a0e-0469-4c46-9f8c-2cd160af0bfa","ios":"levelo://app?vid=9d2a8a0e-0469-4c46-9f8c-2cd160af0bfa"},"vehicle_type_id":"4","last_reported":1739963299,"current_range_meters":16400,"station_id":"ce4bgs12rcd13ifvqcag","pricing_plan_id":"cebpf4jnsgd1na2vs0mg"},{"bike_id":"bea52ef0-c8a0-4690-a230-4954bd8469e5","system_id":"levelo_inurba_marseille","lat":43.29841,"lon":5.3628,"is_reserved":false,"is_disabled":false,"rental_uris":{"android":"levelo://app?vid=bea52ef0-c8a0-4690-a230-4954bd8469e5","ios":"levelo://app?vid=bea52ef0-c8a0-4690-a230-4954bd8469e5"},"vehicle_type_id":"4","last_reported":1739963299,"current_range_meters":16400,"station_id":"ce4bgpp2rcd13ifvqc3g","pricing_plan_id":"cebpf4jnsgd1na2vs0mg"},{"bike_id":"69874eb8-517c-4353-a547-80d26871d5ca","system_id":"levelo_inurba_marseille","lat":43.29435,"lon":5.39751,"is_reserved":false,"is_disabled":false,"rental_uris":{"android":"levelo://app?vid=69874eb8-517c-4353-a547-80d26871d5ca","ios":"levelo://app?vid=69874eb8-517c-4353-a547-80d26871d5ca"},"vehicle_type_id":"4","last_reported":1739963299,"current_range_meters":16400,"station_id":"ce4bh3h2rcd13ifvqdo0","pricing_plan_id":"cebpf4jnsgd1na2vs0mg"},{"bike_id":"96062f0f-07d4-48a3-a88f-73127c11c3fc","system_id":"levelo_inurba_marseille","lat":43.27373,"lon":5.36262,"is_reserved":false,"is_disabled":false,"rental_uris":{"android":"levelo://app?vid=96062f0f-07d4-48a3-a88f-73127c11c3fc","ios":"levelo://app?vid=96062f0f-07d4-48a3-a88f-73127c11c3fc"},"vehicle_type_id":"4","last_reported":1739963299,"current_range_meters":16400,"station_id":"ce4bhbh2rcd13ifvqeo0","pricing_plan_id":"cebpf4jnsgd1na2vs0mg"},{"bike_id":"82de7fdf-fb6e-4296-bdd1-ecdfb5778c65","system_id":"levelo_inurba_marseille","lat":43.23151,"lon":5.43711,"is_reserved":false,"is_disabled":false,"rental_uris":{"android":"levelo://app?vid=82de7fdf-fb6e-4296-bdd1-ecdfb5778c65","ios":"levelo://app?vid=82de7fdf-fb6e-4296-bdd1-ecdfb5778c65"},"vehicle_type_id":"4","last_reported":1739963299,"current_range_meters":16400,"station_id":"ce4bhmp2rcd13ifvqgog","pricing_plan_id":"cebpf4jnsgd1na2vs0mg"},{"bike_id":"b557044c-cc50-4276-81d6-609bde37de27","system_id":"levelo_inurba_marseille","lat":43.26934,"lon":5.38928,"is_reserved":false,"is_disabled":false,"rental_uris":{"android":"levelo://app?vid=b557044c-cc50-4276-81d6-609bde37de27","ios":"levelo://app?vid=b557044c-cc50-4276-81d6-609bde37de27"},"vehicle_type_id":"4","last_reported":1739963299,"current_range_meters":16400,"station_id":"ce4bhhh2rcd13ifvqfl0","pricing_plan_id":"cebpf4jnsgd1na2vs0mg"},{"bike_id":"4df47e88-41bc-4b68-b0d1-97f3b41c726a","system_id":"levelo_inurba_marseille","lat":43.30147,"lon":5.3986,"is_reserved":false,"is_disabled":true,"rental_uris":{"android":"levelo://app?vid=4df47e88-41bc-4b68-b0d1-97f3b41c726a","ios":"levelo://app?vid=4df47e88-41bc-4b68-b0d1-97f3b41c726a"},"vehicle_type_id":"4","last_reported":1739963299,"current_range_meters":16400,"station_id":"ce4bh0h2rcd13ifvqd40","pricing_plan_id":"cebpf4jnsgd1na2vs0mg"},{"bike_id":"eb75e2ac-b61e-4c90-95cb-c16878504d94","system_id":"levelo_inurba_marseille","lat":43.26553,"lon":5.39041,"is_reserved":false,"is_disabled":false,"rental_uris":{"android":"levelo://app?vid=eb75e2ac-b61e-4c90-95cb-c16878504d94","ios":"levelo://app?vid=eb75e2ac-b61e-4c90-95cb-c16878504d94"},"vehicle_type_id":"4","last_reported":1739963299,"current_range_meters":16400,"station_id":"ce4bhe12rcd13ifvqf30","pricing_plan_id":"cebpf4jnsgd1na2vs0mg"},{"bike_id":"cbccacf2-4f43-4055-86f8-dc15e5916b42","system_id":"levelo_inurba_marseille","lat":43.29439,"lon":5.39756,"is_reserved":false,"is_disabled":false,"rental_uris":{"android":"levelo://app?vid=cbccacf2-4f43-4055-86f8-dc15e5916b42","ios":"levelo://app?vid=cbccacf2-4f43-4055-86f8-dc15e5916b42"},"vehicle_type_id":"4","last_reported":1739963299,"current_range_meters":16800,"station_id":"ce4bh3h2rcd13ifvqdo0","pricing_plan_id":"cebpf4jnsgd1na2vs0mg"},{"bike_id":"ba0a4dbe-d370-492e-a789-44c6ef69c02b","system_id":"levelo_inurba_marseille","lat":43.2862,"lon":5.35094,"is_reserved":false,"is_disabled":true,"rental_uris":{"android":"levelo://app?vid=ba0a4dbe-d370-492e-a789-44c6ef69c02b","ios":"levelo://app?vid=ba0a4dbe-d370-492e-a789-44c6ef69c02b"},"vehicle_type_id":"4","last_reported":1739963299,"current_range_meters":16800,"station_id":"ce4bhch2rcd13ifvqeug","pricing_plan_id":"cebpf4jnsgd1na2vs0mg"},{"bike_id":"e5e2ed65-0a50-46fd-af77-1264dac67336","system_id":"levelo_inurba_marseille","lat":43.24164,"lon":5.36397,"is_reserved":false,"is_disabled":false,"rental_uris":{"android":"levelo://app?vid=e5e2ed65-0a50-46fd-af77-1264dac67336","ios":"levelo://app?vid=e5e2ed65-0a50-46fd-af77-1264dac67336"},"vehicle_type_id":"4","last_reported":1739963299,"current_range_meters":16800,"station_id":"","pricing_plan_id":"cebpf4jnsgd1na2vs0mg"},{"bike_id":"9dfd3d6c-e9b1-412f-b920-f0be08bf6926","system_id":"levelo_inurba_marseille","lat":43.29932,"lon":5.36543,"is_reserved":false,"is_disabled":false,"rental_uris":{"android":"levelo://app?vid=9dfd3d6c-e9b1-412f-b920-f0be08bf6926","ios":"levelo://app?vid=9dfd3d6c-e9b1-412f-b920-f0be08bf6926"},"vehicle_type_id":"4","last_reported":1739963299,"current_range_meters":16800,"station_id":"ce4bgm92rcd13ifvqbr0","pricing_plan_id":"cebpf4jnsgd1na2vs0mg"},{"bike_id":"6c934bd1-86d4-455c-b12b-71d3cdc94fc0","system_id":"levelo_inurba_marseille","lat":43.24386,"lon":5.37056,"is_reserved":false,"is_disabled":false,"rental_uris":{"android":"levelo://app?vid=6c934bd1-86d4-455c-b12b-71d3cdc94fc0","ios":"levelo://app?vid=6c934bd1-86d4-455c-b12b-71d3cdc94fc0"},"vehicle_type_id":"4","last_reported":1739963299,"current_range_meters":16800,"station_id":"ce4bhhh2rcd13ifvqfk0","pricing_plan_id":"cebpf4jnsgd1na2vs0mg"},{"bike_id":"d54bbbe0-36b4-4ff7-94cf-46e90c060e71","system_id":"levelo_inurba_marseille","lat":43.31488,"lon":5.37308,"is_reserved":false,"is_disabled":false,"rental_uris":{"android":"levelo://app?vid=d54bbbe0-36b4-4ff7-94cf-46e90c060e71","ios":"levelo://app?vid=d54bbbe0-36b4-4ff7-94cf-46e90c060e71"},"vehicle_type_id":"4","last_reported":1739963299,"current_range_meters":16800,"station_id":"ce4bgt12rcd13ifvqcd0","pricing_plan_id":"cebpf4jnsgd1na2vs0mg"},{"bike_id":"ea031cfd-983d-4062-9049-587751f7276b","system_id":"levelo_inurba_marseille","lat":43.30476,"lon":5.37895,"is_reserved":false,"is_disabled":false,"rental_uris":{"android":"levelo://app?vid=ea031cfd-983d-4062-9049-587751f7276b","ios":"levelo://app?vid=ea031cfd-983d-4062-9049-587751f7276b"},"vehicle_type_id":"4","last_reported":1739963299,"current_range_meters":16800,"station_id":"ce4bgup2rcd13ifvqcn0","pricing_plan_id":"cebpf4jnsgd1na2vs0mg"},{"bike_id":"2387b16d-4ecb-429f-b55c-9163ed56c71c","system_id":"levelo_inurba_marseille","lat":43.30421,"lon":5.39752,"is_reserved":false,"is_disabled":false,"rental_uris":{"android":"levelo://app?vid=2387b16d-4ecb-429f-b55c-9163ed56c71c","ios":"levelo://app?vid=2387b16d-4ecb-429f-b55c-9163ed56c71c"},"vehicle_type_id":"4","last_reported":1739963299,"current_range_meters":17200,"station_id":"ce4bh092rcd13ifvqd20","pricing_plan_id":"cebpf4jnsgd1na2vs0mg"},{"bike_id":"1321ca97-3002-4754-bc55-603688bf4823","system_id":"levelo_inurba_marseille","lat":43.30468,"lon":5.37915,"is_reserved":false,"is_disabled":false,"rental_uris":{"android":"levelo://app?vid=1321ca97-3002-4754-bc55-603688bf4823","ios":"levelo://app?vid=1321ca97-3002-4754-bc55-603688bf4823"},"vehicle_type_id":"4","last_reported":1739963299,"current_range_meters":17200,"station_id":"ce4bgup2rcd13ifvqcn0","pricing_plan_id":"cebpf4jnsgd1na2vs0mg"},{"bike_id":"ba379239-9216-4e46-a96c-a73988d910ff","system_id":"levelo_inurba_marseille","lat":43.26489,"lon":5.37146,"is_reserved":false,"is_disabled":false,"rental_uris":{"android":"levelo://app?vid=ba379239-9216-4e46-a96c-a73988d910ff","ios":"levelo://app?vid=ba379239-9216-4e46-a96c-a73988d910ff"},"vehicle_type_id":"4","last_reported":1739963299,"current_range_meters":17200,"station_id":"","pricing_plan_id":"cebpf4jnsgd1na2vs0mg"},{"bike_id":"ffe9eab2-d4dc-4453-a33d-12df5bd7df9c","system_id":"levelo_inurba_marseille","lat":43.2816,"lon":5.42626,"is_reserved":false,"is_disabled":true,"rental_uris":{"android":"levelo://app?vid=ffe9eab2-d4dc-4453-a33d-12df5bd7df9c","ios":"levelo://app?vid=ffe9eab2-d4dc-4453-a33d-12df5bd7df9c"},"vehicle_type_id":"4","last_reported":1739963299,"current_range_meters":17200,"station_id":"ce4bhnh2rcd13ifvqgug","pricing_plan_id":"cebpf4jnsgd1na2vs0mg"},{"bike_id":"94ce4c1f-b676-43e1-9e28-ed9f6f6c8e2b","system_id":"levelo_inurba_marseille","lat":43.23624,"lon":5.39177,"is_reserved":false,"is_disabled":false,"rental_uris":{"android":"levelo://app?vid=94ce4c1f-b676-43e1-9e28-ed9f6f6c8e2b","ios":"levelo://app?vid=94ce4c1f-b676-43e1-9e28-ed9f6f6c8e2b"},"vehicle_type_id":"4","last_reported":1739963299,"current_range_meters":17200,"station_id":"","pricing_plan_id":"cebpf4jnsgd1na2vs0mg"},{"bike_id":"3cf409db-ea1f-40ef-9a60-ba2f1f323925","system_id":"levelo_inurba_marseille","lat":43.24183,"lon":5.39733,"is_reserved":false,"is_disabled":false,"rental_uris":{"android":"levelo://app?vid=3cf409db-ea1f-40ef-9a60-ba2f1f323925","ios":"levelo://app?vid=3cf409db-ea1f-40ef-9a60-ba2f1f323925"},"vehicle_type_id":"4","last_reported":1739963299,"current_range_meters":17200,"station_id":"ce4bhn12rcd13ifvqgpg","pricing_plan_id":"cebpf4jnsgd1na2vs0mg"},{"bike_id":"fa359e85-2e17-4f39-8936-157abb872521","system_id":"levelo_inurba_marseille","lat":43.24064,"lon":5.37755,"is_reserved":false,"is_disabled":false,"rental_uris":{"android":"levelo://app?vid=fa359e85-2e17-4f39-8936-157abb872521","ios":"levelo://app?vid=fa359e85-2e17-4f39-8936-157abb872521"},"vehicle_type_id":"4","last_reported":1739963299,"current_range_meters":17200,"station_id":"ce4bhnp2rcd13ifvqgvg","pricing_plan_id":"cebpf4jnsgd1na2vs0mg"},{"bike_id":"6c695163-13d1-4682-b513-311ea8d75027","system_id":"levelo_inurba_marseille","lat":43.3087,"lon":5.37429,"is_reserved":false,"is_disabled":false,"rental_uris":{"android":"levelo://app?vid=6c695163-13d1-4682-b513-311ea8d75027","ios":"levelo://app?vid=6c695163-13d1-4682-b513-311ea8d75027"},"vehicle_type_id":"4","last_reported":1739963299,"current_range_meters":17200,"station_id":"ce4bgs12rcd13ifvqcag","pricing_plan_id":"cebpf4jnsgd1na2vs0mg"},{"bike_id":"d1a75bd9-f8b5-48c9-a097-fb435267f29d","system_id":"levelo_inurba_marseille","lat":43.27661,"lon":5.38899,"is_reserved":false,"is_disabled":false,"rental_uris":{"android":"levelo://app?vid=d1a75bd9-f8b5-48c9-a097-fb435267f29d","ios":"levelo://app?vid=d1a75bd9-f8b5-48c9-a097-fb435267f29d"},"vehicle_type_id":"4","last_reported":1739963299,"current_range_meters":17200,"station_id":"ce4bhi12rcd13ifvqfo0","pricing_plan_id":"cebpf4jnsgd1na2vs0mg"},{"bike_id":"0afc5850-4886-4c3a-9497-1e829261a0cf","system_id":"levelo_inurba_marseille","lat":43.29857,"lon":5.36273,"is_reserved":false,"is_disabled":false,"rental_uris":{"android":"levelo://app?vid=0afc5850-4886-4c3a-9497-1e829261a0cf","ios":"levelo://app?vid=0afc5850-4886-4c3a-9497-1e829261a0cf"},"vehicle_type_id":"4","last_reported":1739963299,"current_range_meters":17200,"station_id":"ce4bgpp2rcd13ifvqc3g","pricing_plan_id":"cebpf4jnsgd1na2vs0mg"},{"bike_id":"5f3d59fe-f484-434a-b30c-fb9f9124213e","system_id":"levelo_inurba_marseille","lat":43.30544,"lon":5.36527,"is_reserved":false,"is_disabled":false,"rental_uris":{"android":"levelo://app?vid=5f3d59fe-f484-434a-b30c-fb9f9124213e","ios":"levelo://app?vid=5f3d59fe-f484-434a-b30c-fb9f9124213e"},"vehicle_type_id":"4","last_reported":1739963299,"current_range_meters":17200,"station_id":"ce4bgs12rcd13ifvqcag","pricing_plan_id":"cebpf4jnsgd1na2vs0mg"},{"bike_id":"749511d9-4ffb-4693-b9cb-f6a866337302","system_id":"levelo_inurba_marseille","lat":43.30942,"lon":5.39071,"is_reserved":false,"is_disabled":false,"rental_uris":{"android":"levelo://app?vid=749511d9-4ffb-4693-b9cb-f6a866337302","ios":"levelo://app?vid=749511d9-4ffb-4693-b9cb-f6a866337302"},"vehicle_type_id":"4","last_reported":1739963299,"current_range_meters":17200,"station_id":"","pricing_plan_id":"cebpf4jnsgd1na2vs0mg"},{"bike_id":"e645b05d-0c39-4cb8-bea8-ed8cefac4a7d","system_id":"levelo_inurba_marseille","lat":43.26571,"lon":5.39076,"is_reserved":false,"is_disabled":false,"rental_uris":{"android":"levelo://app?vid=e645b05d-0c39-4cb8-bea8-ed8cefac4a7d","ios":"levelo://app?vid=e645b05d-0c39-4cb8-bea8-ed8cefac4a7d"},"vehicle_type_id":"4","last_reported":1739963299,"current_range_meters":17200,"station_id":"ce4bhe12rcd13ifvqf30","pricing_plan_id":"cebpf4jnsgd1na2vs0mg"},{"bike_id":"89f8f979-8802-4164-b37e-0106cff1f720","system_id":"levelo_inurba_marseille","lat":43.30566,"lon":5.36536,"is_reserved":false,"is_disabled":false,"rental_uris":{"android":"levelo://app?vid=89f8f979-8802-4164-b37e-0106cff1f720","ios":"levelo://app?vid=89f8f979-8802-4164-b37e-0106cff1f720"},"vehicle_type_id":"4","last_reported":1739963299,"current_range_meters":17600,"station_id":"ce4bgs12rcd13ifvqcag","pricing_plan_id":"cebpf4jnsgd1na2vs0mg"},{"bike_id":"6dce2158-50fc-4310-a030-753414e65f3d","system_id":"levelo_inurba_marseille","lat":43.27997,"lon":5.41665,"is_reserved":false,"is_disabled":false,"rental_uris":{"android":"levelo://app?vid=6dce2158-50fc-4310-a030-753414e65f3d","ios":"levelo://app?vid=6dce2158-50fc-4310-a030-753414e65f3d"},"vehicle_type_id":"4","last_reported":1739963299,"current_range_meters":17600,"station_id":"","pricing_plan_id":"cebpf4jnsgd1na2vs0mg"},{"bike_id":"6c9c8bd6-ad0f-4b8d-a2bc-9a73d0c24657","system_id":"levelo_inurba_marseille","lat":43.3138,"lon":5.36688,"is_reserved":false,"is_disabled":false,"rental_uris":{"android":"levelo://app?vid=6c9c8bd6-ad0f-4b8d-a2bc-9a73d0c24657","ios":"levelo://app?vid=6c9c8bd6-ad0f-4b8d-a2bc-9a73d0c24657"},"vehicle_type_id":"4","last_reported":1739963299,"current_range_meters":17600,"station_id":"ce4bgt92rcd13ifvqcf0","pricing_plan_id":"cebpf4jnsgd1na2vs0mg"},{"bike_id":"24422274-89fa-4a71-8136-2471e2d9789a","system_id":"levelo_inurba_marseille","lat":43.30465,"lon":5.37912,"is_reserved":false,"is_disabled":false,"rental_uris":{"android":"levelo://app?vid=24422274-89fa-4a71-8136-2471e2d9789a","ios":"levelo://app?vid=24422274-89fa-4a71-8136-2471e2d9789a"},"vehicle_type_id":"4","last_reported":1739963299,"current_range_meters":17600,"station_id":"ce4bgup2rcd13ifvqcn0","pricing_plan_id":"cebpf4jnsgd1na2vs0mg"},{"bike_id":"d9102e21-6294-472e-8da2-16dfb746ec2b","system_id":"levelo_inurba_marseille","lat":43.28138,"lon":5.4457,"is_reserved":false,"is_disabled":false,"rental_uris":{"android":"levelo://app?vid=d9102e21-6294-472e-8da2-16dfb746ec2b","ios":"levelo://app?vid=d9102e21-6294-472e-8da2-16dfb746ec2b"},"vehicle_type_id":"4","last_reported":1739963299,"current_range_meters":17600,"station_id":"ce4bhnh2rcd13ifvqgtg","pricing_plan_id":"cebpf4jnsgd1na2vs0mg"},{"bike_id":"29ae1802-9d76-4286-a2d6-f211c81954fd","system_id":"levelo_inurba_marseille","lat":43.2315,"lon":5.43708,"is_reserved":false,"is_disabled":false,"rental_uris":{"android":"levelo://app?vid=29ae1802-9d76-4286-a2d6-f211c81954fd","ios":"levelo://app?vid=29ae1802-9d76-4286-a2d6-f211c81954fd"},"vehicle_type_id":"4","last_reported":1739963299,"current_range_meters":17600,"station_id":"ce4bhmp2rcd13ifvqgog","pricing_plan_id":"cebpf4jnsgd1na2vs0mg"},{"bike_id":"ee52f73e-134a-4605-b405-76cb3fe6209c","system_id":"levelo_inurba_marseille","lat":43.299652,"lon":5.38485,"is_reserved":false,"is_disabled":false,"rental_uris":{"android":"levelo://app?vid=ee52f73e-134a-4605-b405-76cb3fe6209c","ios":"levelo://app?vid=ee52f73e-134a-4605-b405-76cb3fe6209c"},"vehicle_type_id":"4","last_reported":1739963299,"current_range_meters":17600,"station_id":"ce4bhbh2rcd13ifvqeo0","pricing_plan_id":"cebpf4jnsgd1na2vs0mg"},{"bike_id":"8becd64c-893d-4a08-8876-b1598e031c70","system_id":"levelo_inurba_marseille","lat":43.27945,"lon":5.38698,"is_reserved":false,"is_disabled":true,"rental_uris":{"android":"levelo://app?vid=8becd64c-893d-4a08-8876-b1598e031c70","ios":"levelo://app?vid=8becd64c-893d-4a08-8876-b1598e031c70"},"vehicle_type_id":"4","last_reported":1739963299,"current_range_meters":18000,"station_id":"","pricing_plan_id":"cebpf4jnsgd1na2vs0mg"},{"bike_id":"003c44c1-3cd5-48e6-afbd-3e395aa9e710","system_id":"levelo_inurba_marseille","lat":43.29913,"lon":5.43657,"is_reserved":false,"is_disabled":false,"rental_uris":{"android":"levelo://app?vid=003c44c1-3cd5-48e6-afbd-3e395aa9e710","ios":"levelo://app?vid=003c44c1-3cd5-48e6-afbd-3e395aa9e710"},"vehicle_type_id":"4","last_reported":1739963299,"current_range_meters":18000,"station_id":"ce4bhpp2rcd13ifvqhfg","pricing_plan_id":"cebpf4jnsgd1na2vs0mg"},{"bike_id":"bdc412a8-ab57-4942-907d-94e7ad50b3fa","system_id":"levelo_inurba_marseille","lat":43.25947,"lon":5.409,"is_reserved":false,"is_disabled":false,"rental_uris":{"android":"levelo://app?vid=bdc412a8-ab57-4942-907d-94e7ad50b3fa","ios":"levelo://app?vid=bdc412a8-ab57-4942-907d-94e7ad50b3fa"},"vehicle_type_id":"4","last_reported":1739963299,"current_range_meters":18000,"station_id":"ce4bhm92rcd13ifvqglg","pricing_plan_id":"cebpf4jnsgd1na2vs0mg"},{"bike_id":"a05a3d92-92ca-419c-a708-17432dbb3038","system_id":"levelo_inurba_marseille","lat":43.32485,"lon":5.3657,"is_reserved":false,"is_disabled":false,"rental_uris":{"android":"levelo://app?vid=a05a3d92-92ca-419c-a708-17432dbb3038","ios":"levelo://app?vid=a05a3d92-92ca-419c-a708-17432dbb3038"},"vehicle_type_id":"4","last_reported":1739963299,"current_range_meters":18000,"station_id":"ce4bhs12rcd13ifvqhvg","pricing_plan_id":"cebpf4jnsgd1na2vs0mg"},{"bike_id":"bb6d7882-20c0-4c0a-acc8-5a53728eecf7","system_id":"levelo_inurba_marseille","lat":43.30173,"lon":5.37399,"is_reserved":false,"is_disabled":false,"rental_uris":{"android":"levelo://app?vid=bb6d7882-20c0-4c0a-acc8-5a53728eecf7","ios":"levelo://app?vid=bb6d7882-20c0-4c0a-acc8-5a53728eecf7"},"vehicle_type_id":"4","last_reported":1739963299,"current_range_meters":18000,"station_id":"ce4bgs92rcd13ifvqcc0","pricing_plan_id":"cebpf4jnsgd1na2vs0mg"},{"bike_id":"477ac2db-8f8c-4cbc-8427-0ab644b57a7a","system_id":"levelo_inurba_marseille","lat":43.25016,"lon":5.38919,"is_reserved":false,"is_disabled":false,"rental_uris":{"android":"levelo://app?vid=477ac2db-8f8c-4cbc-8427-0ab644b57a7a","ios":"levelo://app?vid=477ac2db-8f8c-4cbc-8427-0ab644b57a7a"},"vehicle_type_id":"4","last_reported":1739963299,"current_range_meters":18000,"station_id":"ce4bhgp2rcd13ifvqfd0","pricing_plan_id":"cebpf4jnsgd1na2vs0mg"},{"bike_id":"79a2e8e6-983e-49f1-af4c-a25fc2a6184c","system_id":"levelo_inurba_marseille","lat":43.29164,"lon":5.37157,"is_reserved":false,"is_disabled":false,"rental_uris":{"android":"levelo://app?vid=79a2e8e6-983e-49f1-af4c-a25fc2a6184c","ios":"levelo://app?vid=79a2e8e6-983e-49f1-af4c-a25fc2a6184c"},"vehicle_type_id":"4","last_reported":1739963299,"current_range_meters":18000,"station_id":"ce4bha92rcd13ifvqeh0","pricing_plan_id":"cebpf4jnsgd1na2vs0mg"},{"bike_id":"1fe44925-e5c8-4609-92ff-a313a614f133","system_id":"levelo_inurba_marseille","lat":43.30134,"lon":5.37427,"is_reserved":false,"is_disabled":false,"rental_uris":{"android":"levelo://app?vid=1fe44925-e5c8-4609-92ff-a313a614f133","ios":"levelo://app?vid=1fe44925-e5c8-4609-92ff-a313a614f133"},"vehicle_type_id":"4","last_reported":1739963299,"current_range_meters":18000,"station_id":"ce4bgs92rcd13ifvqcc0","pricing_plan_id":"cebpf4jnsgd1na2vs0mg"},{"bike_id":"10b0cf0a-8e41-4b4c-b8c4-e78c91fe87e7","system_id":"levelo_inurba_marseille","lat":43.29264,"lon":5.37632,"is_reserved":false,"is_disabled":false,"rental_uris":{"android":"levelo://app?vid=10b0cf0a-8e41-4b4c-b8c4-e78c91fe87e7","ios":"levelo://app?vid=10b0cf0a-8e41-4b4c-b8c4-e78c91fe87e7"},"vehicle_type_id":"4","last_reported":1739963299,"current_range_meters":18800,"station_id":"ce4bgi12rcd13ifvqb80","pricing_plan_id":"cebpf4jnsgd1na2vs0mg"},{"bike_id":"fa89801a-a061-42a7-877f-8b5786359e18","system_id":"levelo_inurba_marseille","lat":43.28492,"lon":5.38423,"is_reserved":false,"is_disabled":false,"rental_uris":{"android":"levelo://app?vid=fa89801a-a061-42a7-877f-8b5786359e18","ios":"levelo://app?vid=fa89801a-a061-42a7-877f-8b5786359e18"},"vehicle_type_id":"4","last_reported":1739963299,"current_range_meters":18800,"station_id":"ce4bh512rcd13ifvqe3g","pricing_plan_id":"cebpf4jnsgd1na2vs0mg"},{"bike_id":"5f1a985f-2c6d-4888-9bc0-cd85ccd8bff0","system_id":"levelo_inurba_marseille","lat":43.30182,"lon":5.36612,"is_reserved":false,"is_disabled":false,"rental_uris":{"android":"levelo://app?vid=5f1a985f-2c6d-4888-9bc0-cd85ccd8bff0","ios":"levelo://app?vid=5f1a985f-2c6d-4888-9bc0-cd85ccd8bff0"},"vehicle_type_id":"4","last_reported":1739963299,"current_range_meters":18000,"station_id":"ce4bgrh2rcd13ifvqc8g","pricing_plan_id":"cebpf4jnsgd1na2vs0mg"},{"bike_id":"fea3668e-cc5f-4e35-a0a9-3b1775ae16ff","system_id":"levelo_inurba_marseille","lat":43.29424,"lon":5.38626,"is_reserved":false,"is_disabled":false,"rental_uris":{"android":"levelo://app?vid=fea3668e-cc5f-4e35-a0a9-3b1775ae16ff","ios":"levelo://app?vid=fea3668e-cc5f-4e35-a0a9-3b1775ae16ff"},"vehicle_type_id":"4","last_reported":1739963299,"current_range_meters":18800,"station_id":"ce4bh2h2rcd13ifvqdh0","pricing_plan_id":"cebpf4jnsgd1na2vs0mg"},{"bike_id":"66b5a43e-2798-4c72-8acc-33d23152963b","system_id":"levelo_inurba_marseille","lat":43.27196,"lon":5.40988,"is_reserved":false,"is_disabled":false,"rental_uris":{"android":"levelo://app?vid=66b5a43e-2798-4c72-8acc-33d23152963b","ios":"levelo://app?vid=66b5a43e-2798-4c72-8acc-33d23152963b"},"vehicle_type_id":"4","last_reported":1739963299,"current_range_meters":18800,"station_id":"ce4bhl12rcd13ifvqgf0","pricing_plan_id":"cebpf4jnsgd1na2vs0mg"},{"bike_id":"75673006-1fda-46a1-a573-0e1cfeae28aa","system_id":"levelo_inurba_marseille","lat":43.29487,"lon":5.3827,"is_reserved":false,"is_disabled":false,"rental_uris":{"android":"levelo://app?vid=75673006-1fda-46a1-a573-0e1cfeae28aa","ios":"levelo://app?vid=75673006-1fda-46a1-a573-0e1cfeae28aa"},"vehicle_type_id":"4","last_reported":1739963299,"current_range_meters":18800,"station_id":"","pricing_plan_id":"cebpf4jnsgd1na2vs0mg"},{"bike_id":"b3a013f7-dc34-4955-b4ab-7904906a7997","system_id":"levelo_inurba_marseille","lat":43.28173,"lon":5.42646,"is_reserved":false,"is_disabled":false,"rental_uris":{"android":"levelo://app?vid=b3a013f7-dc34-4955-b4ab-7904906a7997","ios":"levelo://app?vid=b3a013f7-dc34-4955-b4ab-7904906a7997"},"vehicle_type_id":"4","last_reported":1739963299,"current_range_meters":18800,"station_id":"ce4bhnh2rcd13ifvqgug","pricing_plan_id":"cebpf4jnsgd1na2vs0mg"},{"bike_id":"c4ed7000-d813-4b3a-b512-fb78605269e7","system_id":"levelo_inurba_marseille","lat":43.28496,"lon":5.38552,"is_reserved":false,"is_disabled":false,"rental_uris":{"android":"levelo://app?vid=c4ed7000-d813-4b3a-b512-fb78605269e7","ios":"levelo://app?vid=c4ed7000-d813-4b3a-b512-fb78605269e7"},"vehicle_type_id":"4","last_reported":1739963299,"current_range_meters":18800,"station_id":"ce4bh8p2rcd13ifvqeb0","pricing_plan_id":"cebpf4jnsgd1na2vs0mg"},{"bike_id":"efb58bf1-4403-4b9f-b67d-a8970e8c3a7f","system_id":"levelo_inurba_marseille","lat":43.25008,"lon":5.38922,"is_reserved":false,"is_disabled":false,"rental_uris":{"android":"levelo://app?vid=efb58bf1-4403-4b9f-b67d-a8970e8c3a7f","ios":"levelo://app?vid=efb58bf1-4403-4b9f-b67d-a8970e8c3a7f"},"vehicle_type_id":"4","last_reported":1739963299,"current_range_meters":18800,"station_id":"ce4bhgp2rcd13ifvqfd0","pricing_plan_id":"cebpf4jnsgd1na2vs0mg"},{"bike_id":"7fdf8629-cdd8-4ae1-9a5e-9b704b1b53a4","system_id":"levelo_inurba_marseille","lat":43.26228,"lon":5.40446,"is_reserved":false,"is_disabled":false,"rental_uris":{"android":"levelo://app?vid=7fdf8629-cdd8-4ae1-9a5e-9b704b1b53a4","ios":"levelo://app?vid=7fdf8629-cdd8-4ae1-9a5e-9b704b1b53a4"},"vehicle_type_id":"4","last_reported":1739963299,"current_range_meters":18800,"station_id":"ce4bhmh2rcd13ifvqgmg","pricing_plan_id":"cebpf4jnsgd1na2vs0mg"},{"bike_id":"4e3e8a7b-26ff-4b44-87dc-0743d1a810a6","system_id":"levelo_inurba_marseille","lat":43.27372,"lon":5.36261,"is_reserved":false,"is_disabled":false,"rental_uris":{"android":"levelo://app?vid=4e3e8a7b-26ff-4b44-87dc-0743d1a810a6","ios":"levelo://app?vid=4e3e8a7b-26ff-4b44-87dc-0743d1a810a6"},"vehicle_type_id":"4","last_reported":1739963299,"current_range_meters":18800,"station_id":"ce4bhbh2rcd13ifvqeo0","pricing_plan_id":"cebpf4jnsgd1na2vs0mg"},{"bike_id":"feacb390-cfad-4e7f-834a-87e63195ccd1","system_id":"levelo_inurba_marseille","lat":43.28148,"lon":5.42654,"is_reserved":false,"is_disabled":false,"rental_uris":{"android":"levelo://app?vid=feacb390-cfad-4e7f-834a-87e63195ccd1","ios":"levelo://app?vid=feacb390-cfad-4e7f-834a-87e63195ccd1"},"vehicle_type_id":"4","last_reported":1739963299,"current_range_meters":19200,"station_id":"ce4bhnh2rcd13ifvqgug","pricing_plan_id":"cebpf4jnsgd1na2vs0mg"},{"bike_id":"418cf512-f4f7-4926-a4e7-73be06e6100b","system_id":"levelo_inurba_marseille","lat":43.29847,"lon":5.36288,"is_reserved":false,"is_disabled":false,"rental_uris":{"android":"levelo://app?vid=418cf512-f4f7-4926-a4e7-73be06e6100b","ios":"levelo://app?vid=418cf512-f4f7-4926-a4e7-73be06e6100b"},"vehicle_type_id":"4","last_reported":1739963299,"current_range_meters":19200,"station_id":"ce4bgpp2rcd13ifvqc3g","pricing_plan_id":"cebpf4jnsgd1na2vs0mg"},{"bike_id":"3addd8d2-327f-4e60-8639-267e28d7c956","system_id":"levelo_inurba_marseille","lat":43.28671,"lon":5.38665,"is_reserved":false,"is_disabled":false,"rental_uris":{"android":"levelo://app?vid=3addd8d2-327f-4e60-8639-267e28d7c956","ios":"levelo://app?vid=3addd8d2-327f-4e60-8639-267e28d7c956"},"vehicle_type_id":"4","last_reported":1739963299,"current_range_meters":19200,"station_id":"","pricing_plan_id":"cebpf4jnsgd1na2vs0mg"},{"bike_id":"767f6015-5710-4ce3-8e2a-efdfb6f0116b","system_id":"levelo_inurba_marseille","lat":43.26555,"lon":5.37288,"is_reserved":false,"is_disabled":false,"rental_uris":{"android":"levelo://app?vid=767f6015-5710-4ce3-8e2a-efdfb6f0116b","ios":"levelo://app?vid=767f6015-5710-4ce3-8e2a-efdfb6f0116b"},"vehicle_type_id":"4","last_reported":1739963299,"current_range_meters":19200,"station_id":"ce4bhg12rcd13ifvqf70","pricing_plan_id":"cebpf4jnsgd1na2vs0mg"},{"bike_id":"01f0b83d-e91e-48f8-aab5-e43548efbbbd","system_id":"levelo_inurba_marseille","lat":43.25596,"lon":5.38216,"is_reserved":false,"is_disabled":false,"rental_uris":{"android":"levelo://app?vid=01f0b83d-e91e-48f8-aab5-e43548efbbbd","ios":"levelo://app?vid=01f0b83d-e91e-48f8-aab5-e43548efbbbd"},"vehicle_type_id":"4","last_reported":1739963299,"current_range_meters":19200,"station_id":"ce4bhih2rcd13ifvqfs0","pricing_plan_id":"cebpf4jnsgd1na2vs0mg"},{"bike_id":"0f119bb9-42f5-484d-a273-90a601312646","system_id":"levelo_inurba_marseille","lat":43.27072,"lon":5.42302,"is_reserved":false,"is_disabled":false,"rental_uris":{"android":"levelo://app?vid=0f119bb9-42f5-484d-a273-90a601312646","ios":"levelo://app?vid=0f119bb9-42f5-484d-a273-90a601312646"},"vehicle_type_id":"4","last_reported":1739963299,"current_range_meters":19200,"station_id":"ce4bhk92rcd13ifvqgb0","pricing_plan_id":"cebpf4jnsgd1na2vs0mg"},{"bike_id":"a6a4bd4c-5557-47c1-a8dd-81d465362acd","system_id":"levelo_inurba_marseille","lat":43.312408,"lon":5.368964,"is_reserved":false,"is_disabled":false,"rental_uris":{"android":"levelo://app?vid=a6a4bd4c-5557-47c1-a8dd-81d465362acd","ios":"levelo://app?vid=a6a4bd4c-5557-47c1-a8dd-81d465362acd"},"vehicle_type_id":"4","last_reported":1739963299,"current_range_meters":19200,"station_id":"ce4bgl92rcd13ifvqbq0","pricing_plan_id":"cebpf4jnsgd1na2vs0mg"},{"bike_id":"8a6c47a0-b545-4156-b8cd-431e971d228f","system_id":"levelo_inurba_marseille","lat":43.295362,"lon":5.374942,"is_reserved":false,"is_disabled":false,"rental_uris":{"android":"levelo://app?vid=8a6c47a0-b545-4156-b8cd-431e971d228f","ios":"levelo://app?vid=8a6c47a0-b545-4156-b8cd-431e971d228f"},"vehicle_type_id":"4","last_reported":1739963299,"current_range_meters":18000,"station_id":"ce4bgkh2rcd13ifvqbk0","pricing_plan_id":"cebpf4jnsgd1na2vs0mg"},{"bike_id":"5ad608a7-42b5-4e9b-a6a1-1474497683bf","system_id":"levelo_inurba_marseille","lat":43.27031,"lon":5.40291,"is_reserved":false,"is_disabled":false,"rental_uris":{"android":"levelo://app?vid=5ad608a7-42b5-4e9b-a6a1-1474497683bf","ios":"levelo://app?vid=5ad608a7-42b5-4e9b-a6a1-1474497683bf"},"vehicle_type_id":"4","last_reported":1739963299,"current_range_meters":19600,"station_id":"ce4bhk92rcd13ifvqgc0","pricing_plan_id":"cebpf4jnsgd1na2vs0mg"},{"bike_id":"03bb80d2-2d58-477e-8d77-d8a9b94a8f21","system_id":"levelo_inurba_marseille","lat":43.23773,"lon":5.40327,"is_reserved":false,"is_disabled":false,"rental_uris":{"android":"levelo://app?vid=03bb80d2-2d58-477e-8d77-d8a9b94a8f21","ios":"levelo://app?vid=03bb80d2-2d58-477e-8d77-d8a9b94a8f21"},"vehicle_type_id":"4","last_reported":1739963299,"current_range_meters":19600,"station_id":"","pricing_plan_id":"cebpf4jnsgd1na2vs0mg"},{"bike_id":"294fa47c-10d6-4b77-809d-ed90cf7409fe","system_id":"levelo_inurba_marseille","lat":43.30199,"lon":5.36628,"is_reserved":false,"is_disabled":false,"rental_uris":{"android":"levelo://app?vid=294fa47c-10d6-4b77-809d-ed90cf7409fe","ios":"levelo://app?vid=294fa47c-10d6-4b77-809d-ed90cf7409fe"},"vehicle_type_id":"4","last_reported":1739963299,"current_range_meters":19600,"station_id":"ce4bgrh2rcd13ifvqc8g","pricing_plan_id":"cebpf4jnsgd1na2vs0mg"},{"bike_id":"24b034ae-81d8-4b0e-9d7b-9309f18a47ae","system_id":"levelo_inurba_marseille","lat":43.29138,"lon":5.37184,"is_reserved":false,"is_disabled":false,"rental_uris":{"android":"levelo://app?vid=24b034ae-81d8-4b0e-9d7b-9309f18a47ae","ios":"levelo://app?vid=24b034ae-81d8-4b0e-9d7b-9309f18a47ae"},"vehicle_type_id":"4","last_reported":1739963299,"current_range_meters":20000,"station_id":"","pricing_plan_id":"cebpf4jnsgd1na2vs0mg"},{"bike_id":"63d3fd56-a06f-4866-837b-543be86ed15c","system_id":"levelo_inurba_marseille","lat":43.30829,"lon":5.36918,"is_reserved":false,"is_disabled":false,"rental_uris":{"android":"levelo://app?vid=63d3fd56-a06f-4866-837b-543be86ed15c","ios":"levelo://app?vid=63d3fd56-a06f-4866-837b-543be86ed15c"},"vehicle_type_id":"4","last_reported":1739963299,"current_range_meters":20000,"station_id":"ce4bgl92rcd13ifvqbq0","pricing_plan_id":"cebpf4jnsgd1na2vs0mg"},{"bike_id":"28ccd238-f1b0-48bb-a3de-cc053240f0c5","system_id":"levelo_inurba_marseille","lat":43.31117,"lon":5.37771,"is_reserved":false,"is_disabled":false,"rental_uris":{"android":"levelo://app?vid=28ccd238-f1b0-48bb-a3de-cc053240f0c5","ios":"levelo://app?vid=28ccd238-f1b0-48bb-a3de-cc053240f0c5"},"vehicle_type_id":"4","last_reported":1739963299,"current_range_meters":20000,"station_id":"ce4bgt92rcd13ifvqcg0","pricing_plan_id":"cebpf4jnsgd1na2vs0mg"},{"bike_id":"89a29e0b-c805-4a3a-8212-c9b59b527a0b","system_id":"levelo_inurba_marseille","lat":43.272324,"lon":5.390609,"is_reserved":false,"is_disabled":false,"rental_uris":{"android":"levelo://app?vid=89a29e0b-c805-4a3a-8212-c9b59b527a0b","ios":"levelo://app?vid=89a29e0b-c805-4a3a-8212-c9b59b527a0b"},"vehicle_type_id":"4","last_reported":1739963299,"current_range_meters":20000,"station_id":"ce4bhgp2rcd13ifvqfe0","pricing_plan_id":"cebpf4jnsgd1na2vs0mg"},{"bike_id":"14b90feb-8eb6-4784-ba33-b8335548c235","system_id":"levelo_inurba_marseille","lat":43.25934,"lon":5.40908,"is_reserved":false,"is_disabled":false,"rental_uris":{"android":"levelo://app?vid=14b90feb-8eb6-4784-ba33-b8335548c235","ios":"levelo://app?vid=14b90feb-8eb6-4784-ba33-b8335548c235"},"vehicle_type_id":"4","last_reported":1739963299,"current_range_meters":20000,"station_id":"","pricing_plan_id":"cebpf4jnsgd1na2vs0mg"},{"bike_id":"ac70d028-a87b-49ed-8316-9e96e140ed43","system_id":"levelo_inurba_marseille","lat":43.29284,"lon":5.37633,"is_reserved":false,"is_disabled":false,"rental_uris":{"android":"levelo://app?vid=ac70d028-a87b-49ed-8316-9e96e140ed43","ios":"levelo://app?vid=ac70d028-a87b-49ed-8316-9e96e140ed43"},"vehicle_type_id":"4","last_reported":1739963299,"current_range_meters":20000,"station_id":"ce4bgi12rcd13ifvqb80","pricing_plan_id":"cebpf4jnsgd1na2vs0mg"},{"bike_id":"751d2cf4-fa99-4a3f-9556-3ff54793f80a","system_id":"levelo_inurba_marseille","lat":43.25819,"lon":5.39422,"is_reserved":false,"is_disabled":false,"rental_uris":{"android":"levelo://app?vid=751d2cf4-fa99-4a3f-9556-3ff54793f80a","ios":"levelo://app?vid=751d2cf4-fa99-4a3f-9556-3ff54793f80a"},"vehicle_type_id":"4","last_reported":1739963299,"current_range_meters":20000,"station_id":"ce4bhip2rcd13ifvqft0","pricing_plan_id":"cebpf4jnsgd1na2vs0mg"},{"bike_id":"39ee57fa-79e5-4c1b-a26a-f75510201428","system_id":"levelo_inurba_marseille","lat":43.30883,"lon":5.37177,"is_reserved":false,"is_disabled":false,"rental_uris":{"android":"levelo://app?vid=39ee57fa-79e5-4c1b-a26a-f75510201428","ios":"levelo://app?vid=39ee57fa-79e5-4c1b-a26a-f75510201428"},"vehicle_type_id":"4","last_reported":1739963299,"current_range_meters":20000,"station_id":"ce4bguh2rcd13ifvqckg","pricing_plan_id":"cebpf4jnsgd1na2vs0mg"},{"bike_id":"0e264fa6-28bd-4e4f-8cac-e65b56c3bac1","system_id":"levelo_inurba_marseille","lat":43.30104,"lon":5.37783,"is_reserved":false,"is_disabled":false,"rental_uris":{"android":"levelo://app?vid=0e264fa6-28bd-4e4f-8cac-e65b56c3bac1","ios":"levelo://app?vid=0e264fa6-28bd-4e4f-8cac-e65b56c3bac1"},"vehicle_type_id":"4","last_reported":1739963299,"current_range_meters":20400,"station_id":"","pricing_plan_id":"cebpf4jnsgd1na2vs0mg"},{"bike_id":"53324156-0b5f-4ee4-beb8-65d71f0308f4","system_id":"levelo_inurba_marseille","lat":43.26548,"lon":5.39073,"is_reserved":false,"is_disabled":true,"rental_uris":{"android":"levelo://app?vid=53324156-0b5f-4ee4-beb8-65d71f0308f4","ios":"levelo://app?vid=53324156-0b5f-4ee4-beb8-65d71f0308f4"},"vehicle_type_id":"4","last_reported":1739963299,"current_range_meters":20400,"station_id":"","pricing_plan_id":"cebpf4jnsgd1na2vs0mg"},{"bike_id":"361b090b-1a5d-4cf4-bce3-e52bbcbed803","system_id":"levelo_inurba_marseille","lat":43.25504,"lon":5.37651,"is_reserved":false,"is_disabled":false,"rental_uris":{"android":"levelo://app?vid=361b090b-1a5d-4cf4-bce3-e52bbcbed803","ios":"levelo://app?vid=361b090b-1a5d-4cf4-bce3-e52bbcbed803"},"vehicle_type_id":"4","last_reported":1739963299,"current_range_meters":20400,"station_id":"ce4bhh12rcd13ifvqff0","pricing_plan_id":"cebpf4jnsgd1na2vs0mg"},{"bike_id":"26d7c0a3-b625-404e-b6bf-710a197825d5","system_id":"levelo_inurba_marseille","lat":43.30137,"lon":5.37418,"is_reserved":false,"is_disabled":false,"rental_uris":{"android":"levelo://app?vid=26d7c0a3-b625-404e-b6bf-710a197825d5","ios":"levelo://app?vid=26d7c0a3-b625-404e-b6bf-710a197825d5"},"vehicle_type_id":"4","last_reported":1739963299,"current_range_meters":20400,"station_id":"ce4bgs92rcd13ifvqcc0","pricing_plan_id":"cebpf4jnsgd1na2vs0mg"},{"bike_id":"514dde0d-6c5d-46ce-91a4-e10f4b6160cb","system_id":"levelo_inurba_marseille","lat":43.29255,"lon":5.38431,"is_reserved":false,"is_disabled":false,"rental_uris":{"android":"levelo://app?vid=514dde0d-6c5d-46ce-91a4-e10f4b6160cb","ios":"levelo://app?vid=514dde0d-6c5d-46ce-91a4-e10f4b6160cb"},"vehicle_type_id":"4","last_reported":1739963299,"current_range_meters":20800,"station_id":"ce4bh692rcd13ifvqea0","pricing_plan_id":"cebpf4jnsgd1na2vs0mg"},{"bike_id":"d51f5e3e-5f60-4df2-94ae-60b240d1edf3","system_id":"levelo_inurba_marseille","lat":43.23182,"lon":5.39985,"is_reserved":false,"is_disabled":false,"rental_uris":{"android":"levelo://app?vid=d51f5e3e-5f60-4df2-94ae-60b240d1edf3","ios":"levelo://app?vid=d51f5e3e-5f60-4df2-94ae-60b240d1edf3"},"vehicle_type_id":"4","last_reported":1739963299,"current_range_meters":20400,"station_id":"ce4bhn12rcd13ifvqgqg","pricing_plan_id":"cebpf4jnsgd1na2vs0mg"},{"bike_id":"e0807c22-5787-4acd-96ef-c4fd60db4f5b","system_id":"levelo_inurba_marseille","lat":43.282715,"lon":5.350611,"is_reserved":false,"is_disabled":false,"rental_uris":{"android":"levelo://app?vid=e0807c22-5787-4acd-96ef-c4fd60db4f5b","ios":"levelo://app?vid=e0807c22-5787-4acd-96ef-c4fd60db4f5b"},"vehicle_type_id":"4","last_reported":1739963299,"current_range_meters":20800,"station_id":"","pricing_plan_id":"cebpf4jnsgd1na2vs0mg"},{"bike_id":"4d17fd90-213b-4fd8-99c5-9d0459a2056f","system_id":"levelo_inurba_marseille","lat":43.28267,"lon":5.35072,"is_reserved":false,"is_disabled":false,"rental_uris":{"android":"levelo://app?vid=4d17fd90-213b-4fd8-99c5-9d0459a2056f","ios":"levelo://app?vid=4d17fd90-213b-4fd8-99c5-9d0459a2056f"},"vehicle_type_id":"4","last_reported":1739963299,"current_range_meters":20800,"station_id":"","pricing_plan_id":"cebpf4jnsgd1na2vs0mg"},{"bike_id":"834704e8-34ed-4ba2-a886-e9cfe5836af3","system_id":"levelo_inurba_marseille","lat":43.28414,"lon":5.34983,"is_reserved":false,"is_disabled":false,"rental_uris":{"android":"levelo://app?vid=834704e8-34ed-4ba2-a886-e9cfe5836af3","ios":"levelo://app?vid=834704e8-34ed-4ba2-a886-e9cfe5836af3"},"vehicle_type_id":"4","last_reported":1739963299,"current_range_meters":20800,"station_id":"","pricing_plan_id":"cebpf4jnsgd1na2vs0mg"},{"bike_id":"7d538134-1a3e-4c6e-ab5b-4d985c54776c","system_id":"levelo_inurba_marseille","lat":43.26077,"lon":5.39391,"is_reserved":false,"is_disabled":false,"rental_uris":{"android":"levelo://app?vid=7d538134-1a3e-4c6e-ab5b-4d985c54776c","ios":"levelo://app?vid=7d538134-1a3e-4c6e-ab5b-4d985c54776c"},"vehicle_type_id":"4","last_reported":1739963299,"current_range_meters":20800,"station_id":"ce4bhh92rcd13ifvqfj0","pricing_plan_id":"cebpf4jnsgd1na2vs0mg"},{"bike_id":"3bfb27ea-05ac-4ab0-b11a-4769e727c3bf","system_id":"levelo_inurba_marseille","lat":43.28278,"lon":5.35072,"is_reserved":false,"is_disabled":false,"rental_uris":{"android":"levelo://app?vid=3bfb27ea-05ac-4ab0-b11a-4769e727c3bf","ios":"levelo://app?vid=3bfb27ea-05ac-4ab0-b11a-4769e727c3bf"},"vehicle_type_id":"4","last_reported":1739963299,"current_range_meters":20800,"station_id":"ce4bhbp2rcd13ifvqerg","pricing_plan_id":"cebpf4jnsgd1na2vs0mg"},{"bike_id":"7fcc640f-f794-4c69-9b59-41103ed837cd","system_id":"levelo_inurba_marseille","lat":43.23965,"lon":5.36618,"is_reserved":false,"is_disabled":false,"rental_uris":{"android":"levelo://app?vid=7fcc640f-f794-4c69-9b59-41103ed837cd","ios":"levelo://app?vid=7fcc640f-f794-4c69-9b59-41103ed837cd"},"vehicle_type_id":"4","last_reported":1739963299,"current_range_meters":20800,"station_id":"ce4bhi12rcd13ifvqfp0","pricing_plan_id":"cebpf4jnsgd1na2vs0mg"},{"bike_id":"e3047d30-58fc-4d98-94dc-26c779b7f319","system_id":"levelo_inurba_marseille","lat":43.25493,"lon":5.37656,"is_reserved":false,"is_disabled":false,"rental_uris":{"android":"levelo://app?vid=e3047d30-58fc-4d98-94dc-26c779b7f319","ios":"levelo://app?vid=e3047d30-58fc-4d98-94dc-26c779b7f319"},"vehicle_type_id":"4","last_reported":1739963299,"current_range_meters":20800,"station_id":"ce4bhh12rcd13ifvqff0","pricing_plan_id":"cebpf4jnsgd1na2vs0mg"},{"bike_id":"b06d6e07-ee5b-4c34-968e-cafc36687c95","system_id":"levelo_inurba_marseille","lat":43.304745,"lon":5.37894,"is_reserved":false,"is_disabled":false,"rental_uris":{"android":"levelo://app?vid=b06d6e07-ee5b-4c34-968e-cafc36687c95","ios":"levelo://app?vid=b06d6e07-ee5b-4c34-968e-cafc36687c95"},"vehicle_type_id":"4","last_reported":1739963299,"current_range_meters":20800,"station_id":"ce4bgup2rcd13ifvqcn0","pricing_plan_id":"cebpf4jnsgd1na2vs0mg"},{"bike_id":"98d2871f-b9f3-4d90-8727-7d9ed16a978a","system_id":"levelo_inurba_marseille","lat":43.30021,"lon":5.38263,"is_reserved":false,"is_disabled":true,"rental_uris":{"android":"levelo://app?vid=98d2871f-b9f3-4d90-8727-7d9ed16a978a","ios":"levelo://app?vid=98d2871f-b9f3-4d90-8727-7d9ed16a978a"},"vehicle_type_id":"4","last_reported":1739963299,"current_range_meters":20800,"station_id":"","pricing_plan_id":"cebpf4jnsgd1na2vs0mg"},{"bike_id":"30985064-a24c-463d-ad50-f76a4f9120e3","system_id":"levelo_inurba_marseille","lat":43.2922,"lon":5.3606,"is_reserved":false,"is_disabled":false,"rental_uris":{"android":"levelo://app?vid=30985064-a24c-463d-ad50-f76a4f9120e3","ios":"levelo://app?vid=30985064-a24c-463d-ad50-f76a4f9120e3"},"vehicle_type_id":"4","last_reported":1739963299,"current_range_meters":20800,"station_id":"ce4bhbh2rcd13ifvqeqg","pricing_plan_id":"cebpf4jnsgd1na2vs0mg"},{"bike_id":"8a707699-f70c-4aed-bde0-a1fa7e5bf09f","system_id":"levelo_inurba_marseille","lat":43.25071,"lon":5.39523,"is_reserved":false,"is_disabled":false,"rental_uris":{"android":"levelo://app?vid=8a707699-f70c-4aed-bde0-a1fa7e5bf09f","ios":"levelo://app?vid=8a707699-f70c-4aed-bde0-a1fa7e5bf09f"},"vehicle_type_id":"4","last_reported":1739963299,"current_range_meters":21600,"station_id":"ce4bhm12rcd13ifvqgkg","pricing_plan_id":"cebpf4jnsgd1na2vs0mg"},{"bike_id":"e29afacf-8408-429d-b5d5-432c1a30bb0d","system_id":"levelo_inurba_marseille","lat":43.33732,"lon":5.39184,"is_reserved":false,"is_disabled":false,"rental_uris":{"android":"levelo://app?vid=e29afacf-8408-429d-b5d5-432c1a30bb0d","ios":"levelo://app?vid=e29afacf-8408-429d-b5d5-432c1a30bb0d"},"vehicle_type_id":"4","last_reported":1739963299,"current_range_meters":21600,"station_id":"ce4bhr92rcd13ifvqhsg","pricing_plan_id":"cebpf4jnsgd1na2vs0mg"},{"bike_id":"275e7574-6569-483b-a438-9fec359435f8","system_id":"levelo_inurba_marseille","lat":43.26481,"lon":5.39578,"is_reserved":false,"is_disabled":true,"rental_uris":{"android":"levelo://app?vid=275e7574-6569-483b-a438-9fec359435f8","ios":"levelo://app?vid=275e7574-6569-483b-a438-9fec359435f8"},"vehicle_type_id":"4","last_reported":1739963299,"current_range_meters":21600,"station_id":"","pricing_plan_id":"cebpf4jnsgd1na2vs0mg"},{"bike_id":"615bf4bc-58f6-4251-818d-33ac15cc607f","system_id":"levelo_inurba_marseille","lat":43.27314,"lon":5.39075,"is_reserved":false,"is_disabled":false,"rental_uris":{"android":"levelo://app?vid=615bf4bc-58f6-4251-818d-33ac15cc607f","ios":"levelo://app?vid=615bf4bc-58f6-4251-818d-33ac15cc607f"},"vehicle_type_id":"4","last_reported":1739963299,"current_range_meters":21600,"station_id":"ce4bhgp2rcd13ifvqfe0","pricing_plan_id":"cebpf4jnsgd1na2vs0mg"},{"bike_id":"8937ec86-4b95-4976-8692-f0d7881ca3bf","system_id":"levelo_inurba_marseille","lat":43.295459,"lon":5.374592,"is_reserved":false,"is_disabled":false,"rental_uris":{"android":"levelo://app?vid=8937ec86-4b95-4976-8692-f0d7881ca3bf","ios":"levelo://app?vid=8937ec86-4b95-4976-8692-f0d7881ca3bf"},"vehicle_type_id":"4","last_reported":1739963299,"current_range_meters":21600,"station_id":"ce4bgn12rcd13ifvqbt0","pricing_plan_id":"cebpf4jnsgd1na2vs0mg"},{"bike_id":"4fb0b743-97b1-4f5a-985b-8657cedf11fe","system_id":"levelo_inurba_marseille","lat":43.29625,"lon":5.37167,"is_reserved":false,"is_disabled":false,"rental_uris":{"android":"levelo://app?vid=4fb0b743-97b1-4f5a-985b-8657cedf11fe","ios":"levelo://app?vid=4fb0b743-97b1-4f5a-985b-8657cedf11fe"},"vehicle_type_id":"4","last_reported":1739963299,"current_range_meters":21600,"station_id":"ce4bgnh2rcd13ifvqc0g","pricing_plan_id":"cebpf4jnsgd1na2vs0mg"},{"bike_id":"1af8a718-f1af-4940-b4b5-29aae452c8de","system_id":"levelo_inurba_marseille","lat":43.30148,"lon":5.39867,"is_reserved":false,"is_disabled":true,"rental_uris":{"android":"levelo://app?vid=1af8a718-f1af-4940-b4b5-29aae452c8de","ios":"levelo://app?vid=1af8a718-f1af-4940-b4b5-29aae452c8de"},"vehicle_type_id":"4","last_reported":1739963299,"current_range_meters":21600,"station_id":"ce4bh0h2rcd13ifvqd40","pricing_plan_id":"cebpf4jnsgd1na2vs0mg"},{"bike_id":"ce52d6e7-98e2-446e-a908-4a1b33196596","system_id":"levelo_inurba_marseille","lat":43.25004,"lon":5.3894,"is_reserved":false,"is_disabled":false,"rental_uris":{"android":"levelo://app?vid=ce52d6e7-98e2-446e-a908-4a1b33196596","ios":"levelo://app?vid=ce52d6e7-98e2-446e-a908-4a1b33196596"},"vehicle_type_id":"4","last_reported":1739963299,"current_range_meters":22000,"station_id":"ce4bhgp2rcd13ifvqfd0","pricing_plan_id":"cebpf4jnsgd1na2vs0mg"},{"bike_id":"e95e8135-fd17-4998-8b67-977a000ce977","system_id":"levelo_inurba_marseille","lat":43.29161,"lon":5.38614,"is_reserved":false,"is_disabled":false,"rental_uris":{"android":"levelo://app?vid=e95e8135-fd17-4998-8b67-977a000ce977","ios":"levelo://app?vid=e95e8135-fd17-4998-8b67-977a000ce977"},"vehicle_type_id":"4","last_reported":1739963299,"current_range_meters":22000,"station_id":"","pricing_plan_id":"cebpf4jnsgd1na2vs0mg"},{"bike_id":"1736bdf7-065e-458a-8be8-137efe82e48a","system_id":"levelo_inurba_marseille","lat":43.33097,"lon":5.39055,"is_reserved":false,"is_disabled":false,"rental_uris":{"android":"levelo://app?vid=1736bdf7-065e-458a-8be8-137efe82e48a","ios":"levelo://app?vid=1736bdf7-065e-458a-8be8-137efe82e48a"},"vehicle_type_id":"4","last_reported":1739963299,"current_range_meters":22000,"station_id":"ce4bhqp2rcd13ifvqhog","pricing_plan_id":"cebpf4jnsgd1na2vs0mg"},{"bike_id":"defcf894-29de-4d26-8ffa-03b8df3065b8","system_id":"levelo_inurba_marseille","lat":43.30927,"lon":5.4015,"is_reserved":false,"is_disabled":false,"rental_uris":{"android":"levelo://app?vid=defcf894-29de-4d26-8ffa-03b8df3065b8","ios":"levelo://app?vid=defcf894-29de-4d26-8ffa-03b8df3065b8"},"vehicle_type_id":"4","last_reported":1739963299,"current_range_meters":22000,"station_id":"ce4bgvp2rcd13ifvqct0","pricing_plan_id":"cebpf4jnsgd1na2vs0mg"},{"bike_id":"1265e039-a4ad-4819-93e2-9a58cb20af6f","system_id":"levelo_inurba_marseille","lat":43.25734,"lon":5.41098,"is_reserved":false,"is_disabled":false,"rental_uris":{"android":"levelo://app?vid=1265e039-a4ad-4819-93e2-9a58cb20af6f","ios":"levelo://app?vid=1265e039-a4ad-4819-93e2-9a58cb20af6f"},"vehicle_type_id":"4","last_reported":1739963299,"current_range_meters":22000,"station_id":"ce4bhkp2rcd13ifvqgd0","pricing_plan_id":"cebpf4jnsgd1na2vs0mg"},{"bike_id":"60694ae4-2dc5-4a71-9a78-906d1228858f","system_id":"levelo_inurba_marseille","lat":43.25923,"lon":5.40901,"is_reserved":false,"is_disabled":false,"rental_uris":{"android":"levelo://app?vid=60694ae4-2dc5-4a71-9a78-906d1228858f","ios":"levelo://app?vid=60694ae4-2dc5-4a71-9a78-906d1228858f"},"vehicle_type_id":"4","last_reported":1739963299,"current_range_meters":22400,"station_id":"ce4bhm92rcd13ifvqglg","pricing_plan_id":"cebpf4jnsgd1na2vs0mg"},