{"last_updated":1762924327,"ttl":60,"version":"2.2","data":{"bikes":[{"bike_id":"d7db12ce-11cc-4c98-8751-ac59baa5d7aa","system_id":"levelo_inurba_marseille","lat":43.337444,"lon":5.374475,"is_reserved":false,"is_disabled":false,"rental_uris":{"android":"levelo://app?vid=d7db12ce-11cc-4c98-8751-ac59baa5d7aa","ios":"levelo://app?vid=d7db12ce-11cc-4c98-8751-ac59baa5d7aa"},"vehicle_type_id":"4","last_reported":1762924327,"current_range_meters":0,"station_id":"","pricing_plan_id":"cebpf4jnsgd1na2vs0mg"},{"bike_id":"92842b53-5046-480e-aad7-bbcf36691d95","system_id":"levelo_inurba_marseille","lat":43.28171,"lon":5.36517,"is_reserved":false,"is_disabled":false,"rental_uris":{"android":"levelo://app?vid=92842b53-5046-480e-aad7-bbcf36691d95","ios":"levelo://app?vid=92842b53-5046-480e-aad7-bbcf36691d95"},"vehicle_type_id":"4","last_reported":1762924327,"current_range_meters":3200,"station_id":"","pricing_plan_id":"cebpf4jnsgd1na2vs0mg"},{"bike_id":"355d0a72-63a4-43ac-addc-15604eb0aa69","system_id":"levelo_inurba_marseille","lat":43.29919,"lon":5.36404,"is_reserved":false,"is_disabled":false,"rental_uris":{"android":"levelo://app?vid=355d0a72-63a4-43ac-addc-15604eb0aa69","ios":"levelo://app?vid=355d0a72-63a4-43ac-addc-15604eb0aa69"},"vehicle_type_id":"4","last_reported":1762924327,"current_range_meters":3200,"station_id":"","pricing_plan_id":"cebpf4jnsgd1na2vs0mg"},{"bike_id":"a153bb7a-facf-4d89-8fb0-01e6272ba505","system_id":"levelo_inurba_marseille","lat":43.26962,"lon":5.38817,"is_reserved":false,"is_disabled":false,"rental_uris":{"android":"levelo://app?vid=a153bb7a-facf-4d89-8fb0-01e6272ba505","ios":"levelo://app?vid=a153bb7a-facf-4d89-8fb0-01e6272ba505"},"vehicle_type_id":"4","last_reported":1762924327,"current_range_meters":3600,"station_id":"","pricing_plan_id":"cebpf4jnsgd1na2vs0mg"},{"bike_id":"285edc02-c40d-4315-906b-2d38b29ac259","system_id":"levelo_inurba_marseille","lat":43.33775,"lon":5.37463,"is_reserved":false,"is_disabled":false,"rental_uris":{"android":"levelo://app?vid=285edc02-c40d-4315-906b-2d38b29ac259","ios":"levelo://app?vid=285edc02-c40d-4315-906b-2d38b29ac259"},"vehicle_type_id":"4","last_reported":1762924327,"current_range_meters":4000,"station_id":"","pricing_plan_id":"cebpf4jnsgd1na2vs0mg"},{"bike_id":"b11b0b52-badb-4b44-a2a0-c5995d75bd71","system_id":"levelo_inurba_marseille","lat":43.29511,"lon":5.39408,"is_reserved":false,"is_disabled":false,"rental_uris":{"android":"levelo://app?vid=b11b0b52-badb-4b44-a2a0-c5995d75bd71","ios":"levelo://app?vid=b11b0b52-badb-4b44-a2a0-c5995d75bd71"},"vehicle_type_id":"4","last_reported":1762924327,"current_range_meters":4000,"station_id":"ce4bh292rcd13ifvqdf0","pricing_plan_id":"cebpf4jnsgd1na2vs0mg"},{"bike_id":"ae8df7c2-dced-4c87-8be6-83ffc212bba9","system_id":"levelo_inurba_marseille","lat":43.28283,"lon":5.35109,"is_reserved":false,"is_disabled":true,"rental_uris":{"android":"levelo://app?vid=ae8df7c2-dced-4c87-8be6-83ffc212bba9","ios":"levelo://app?vid=ae8df7c2-dced-4c87-8be6-83ffc212bba9"},"vehicle_type_id":"4","last_reported":1762924327,"current_range_meters":4000,"station_id":"ce4bhbp2rcd13ifvqerg","pricing_plan_id":"cebpf4jnsgd1na2vs0mg"},{"bike_id":"73177cfa-5136-451e-b441-b50ac15f6f39","system_id":"levelo_inurba_marseille","lat":43.28376,"lon":5.3878,"is_reserved":false,"is_disabled":false,"rental_uris":{"android":"levelo://app?vid=73177cfa-5136-451e-b441-b50ac15f6f39","ios":"levelo://app?vid=73177cfa-5136-451e-b441-b50ac15f6f39"},"vehicle_type_id":"4","last_reported":1762924327,"current_range_meters":4400,"station_id":"","pricing_plan_id":"cebpf4jnsgd1na2vs0mg"},{"bike_id":"9a7c2dc7-2180-4633-bc7e-23c0c093b3c2","system_id":"levelo_inurba_marseille","lat":43.33005,"lon":5.39037,"is_reserved":false,"is_disabled":false,"rental_uris":{"android":"levelo://app?vid=9a7c2dc7-2180-4633-bc7e-23c0c093b3c2","ios":"levelo://app?vid=9a7c2dc7-2180-4633-bc7e-23c0c093b3c2"},"vehicle_type_id":"4","last_reported":1762924327,"current_range_meters":4800,"station_id":"ce4bhr92rcd13ifvqhrg","pricing_plan_id":"cebpf4jnsgd1na2vs0mg"},{"bike_id":"9ade1fe7-d83f-4045-9bd3-74892e77626e","system_id":"levelo_inurba_marseille","lat":43.240793,"lon":5.377397,"is_reserved":false,"is_disabled":true,"rental_uris":{"android":"levelo://app?vid=9ade1fe7-d83f-4045-9bd3-74892e77626e","ios":"levelo://app?vid=9ade1fe7-d83f-4045-9bd3-74892e77626e"},"vehicle_type_id":"4","last_reported":1762924327,"current_range_meters":4800,"station_id":"ce4bhnp2rcd13ifvqgvg","pricing_plan_id":"cebpf4jnsgd1na2vs0mg"},{"bike_id":"41aeabc1-9035-4e06-a213-c274eace9205","system_id":"levelo_inurba_marseille","lat":43.288654,"lon":5.425106,"is_reserved":false,"is_disabled":false,"rental_uris":{"android":"levelo://app?vid=41aeabc1-9035-4e06-a213-c274eace9205","ios":"levelo://app?vid=41aeabc1-9035-4e06-a213-c274eace9205"},"vehicle_type_id":"4","last_reported":1762924327,"current_range_meters":4800,"station_id":"st_d3b462108ojc7389ooeg","pricing_plan_id":"cebpf4jnsgd1na2vs0mg"},{"bike_id":"b2be4fa2-44ee-40dc-acc7-1755c74f1c5d","system_id":"levelo_inurba_marseille","lat":43.29742,"lon":5.41106,"is_reserved":false,"is_disabled":false,"rental_uris":{"android":"levelo://app?vid=b2be4fa2-44ee-40dc-acc7-1755c74f1c5d","ios":"levelo://app?vid=b2be4fa2-44ee-40dc-acc7-1755c74f1c5d"},"vehicle_type_id":"4","last_reported":1762924327,"current_range_meters":5600,"station_id":"","pricing_plan_id":"cebpf4jnsgd1na2vs0mg"},{"bike_id":"349b2ad9-adea-4dd9-9ac9-fffb121b5424","system_id":"levelo_inurba_marseille","lat":43.29892,"lon":5.37537,"is_reserved":false,"is_disabled":false,"rental_uris":{"android":"levelo://app?vid=349b2ad9-adea-4dd9-9ac9-fffb121b5424","ios":"levelo://app?vid=349b2ad9-adea-4dd9-9ac9-fffb121b5424"},"vehicle_type_id":"4","last_reported":1762924327,"current_range_meters":6000,"station_id":"","pricing_plan_id":"cebpf4jnsgd1na2vs0mg"},{"bike_id":"f77523dc-7707-4446-aa48-85a36951d72d","system_id":"levelo_inurba_marseille","lat":43.253379,"lon":5.42182,"is_reserved":false,"is_disabled":false,"rental_uris":{"android":"levelo://app?vid=f77523dc-7707-4446-aa48-85a36951d72d","ios":"levelo://app?vid=f77523dc-7707-4446-aa48-85a36951d72d"},"vehicle_type_id":"4","last_reported":1762924327,"current_range_meters":6400,"station_id":"st_d2m65c5bi1j21697t3ng","pricing_plan_id":"cebpf4jnsgd1na2vs0mg"},{"bike_id":"a3231d5e-6ab6-4833-9ef3-41bddcf19fed","system_id":"levelo_inurba_marseille","lat":43.249495,"lon":5.404969,"is_reserved":false,"is_disabled":false,"rental_uris":{"android":"levelo://app?vid=a3231d5e-6ab6-4833-9ef3-41bddcf19fed","ios":"levelo://app?vid=a3231d5e-6ab6-4833-9ef3-41bddcf19fed"},"vehicle_type_id":"4","last_reported":1762924327,"current_range_meters":6400,"station_id":"st_d2ngiaodas8pm72gd1h0","pricing_plan_id":"cebpf4jnsgd1na2vs0mg"},{"bike_id":"a714915f-aff3-456a-ac83-82a945eab060","system_id":"levelo_inurba_marseille","lat":43.2974,"lon":5.42779,"is_reserved":false,"is_disabled":false,"rental_uris":{"android":"levelo://app?vid=a714915f-aff3-456a-ac83-82a945eab060","ios":"levelo://app?vid=a714915f-aff3-456a-ac83-82a945eab060"},"vehicle_type_id":"4","last_reported":1762924327,"current_range_meters":6400,"station_id":"st_d3md5207bmas73dh9klg","pricing_plan_id":"cebpf4jnsgd1na2vs0mg"},{"bike_id":"492e7c06-fc15-4d61-81aa-e3ffa3c54dfe","system_id":"levelo_inurba_marseille","lat":43.28854,"lon":5.3934,"is_reserved":false,"is_disabled":false,"rental_uris":{"android":"levelo://app?vid=492e7c06-fc15-4d61-81aa-e3ffa3c54dfe","ios":"levelo://app?vid=492e7c06-fc15-4d61-81aa-e3ffa3c54dfe"},"vehicle_type_id":"4","last_reported":1762924327,"current_range_meters":6400,"station_id":"ce4bh2p2rcd13ifvqdi0","pricing_plan_id":"cebpf4jnsgd1na2vs0mg"},{"bike_id":"ff895188-573e-4925-a1bc-142536caf77b","system_id":"levelo_inurba_marseille","lat":43.26216,"lon":5.37474,"is_reserved":false,"is_disabled":false,"rental_uris":{"android":"levelo://app?vid=ff895188-573e-4925-a1bc-142536caf77b","ios":"levelo://app?vid=ff895188-573e-4925-a1bc-142536caf77b"},"vehicle_type_id":"4","last_reported":1762924327,"current_range_meters":6800,"station_id":"ce4bhgp2rcd13ifvqfc0","pricing_plan_id":"cebpf4jnsgd1na2vs0mg"},{"bike_id":"c620c9fc-398f-4dca-8fdd-2b652311235d","system_id":"levelo_inurba_marseille","lat":43.211874,"lon":5.350734,"is_reserved":false,"is_disabled":true,"rental_uris":{"android":"levelo://app?vid=c620c9fc-398f-4dca-8fdd-2b652311235d","ios":"levelo://app?vid=c620c9fc-398f-4dca-8fdd-2b652311235d"},"vehicle_type_id":"4","last_reported":1762924327,"current_range_meters":6800,"station_id":"st_cvj6sg6p6f1abm77japg","pricing_plan_id":"cebpf4jnsgd1na2vs0mg"},{"bike_id":"95e32340-1dfd-4000-941b-e5f36491f95b","system_id":"levelo_inurba_marseille","lat":43.31491,"lon":5.3724,"is_reserved":false,"is_disabled":false,"rental_uris":{"android":"levelo://app?vid=95e32340-1dfd-4000-941b-e5f36491f95b","ios":"levelo://app?vid=95e32340-1dfd-4000-941b-e5f36491f95b"},"vehicle_type_id":"4","last_reported":1762924327,"current_range_meters":6800,"station_id":"ce4bgt12rcd13ifvqcd0","pricing_plan_id":"cebpf4jnsgd1na2vs0mg"},{"bike_id":"9f7ac85c-b6b3-4f16-af89-643e0f760db9","system_id":"levelo_inurba_marseille","lat":43.297009,"lon":5.365862,"is_reserved":false,"is_disabled":false,"rental_uris":{"android":"levelo://app?vid=9f7ac85c-b6b3-4f16-af89-643e0f760db9","ios":"levelo://app?vid=9f7ac85c-b6b3-4f16-af89-643e0f760db9"},"vehicle_type_id":"4","last_reported":1762924327,"current_range_meters":7200,"station_id":"ce4bgn12rcd13ifvqbt0","pricing_plan_id":"cebpf4jnsgd1na2vs0mg"},{"bike_id":"e0467342-2ee8-4c36-aeb9-27d25d94ead5","system_id":"levelo_inurba_marseille","lat":43.28156,"lon":5.42657,"is_reserved":false,"is_disabled":true,"rental_uris":{"android":"levelo://app?vid=e0467342-2ee8-4c36-aeb9-27d25d94ead5","ios":"levelo://app?vid=e0467342-2ee8-4c36-aeb9-27d25d94ead5"},"vehicle_type_id":"4","last_reported":1762924327,"current_range_meters":7200,"station_id":"ce4bhnh2rcd13ifvqgug","pricing_plan_id":"cebpf4jnsgd1na2vs0mg"},{"bike_id":"d14a3070-960e-421d-b5dc-419b8cc88005","system_id":"levelo_inurba_marseille","lat":43.31616,"lon":5.3749,"is_reserved":false,"is_disabled":false,"rental_uris":{"android":"levelo://app?vid=d14a3070-960e-421d-b5dc-419b8cc88005","ios":"levelo://app?vid=d14a3070-960e-421d-b5dc-419b8cc88005"},"vehicle_type_id":"4","last_reported":1762924327,"current_range_meters":7200,"station_id":"","pricing_plan_id":"cebpf4jnsgd1na2vs0mg"},{"bike_id":"30efddd0-6453-4796-81a6-738ca9aad512","system_id":"levelo_inurba_marseille","lat":43.31075,"lon":5.38705,"is_reserved":false,"is_disabled":true,"rental_uris":{"android":"levelo://app?vid=30efddd0-6453-4796-81a6-738ca9aad512","ios":"levelo://app?vid=30efddd0-6453-4796-81a6-738ca9aad512"},"vehicle_type_id":"4","last_reported":1762924327,"current_range_meters":8000,"station_id":"","pricing_plan_id":"cebpf4jnsgd1na2vs0mg"},{"bike_id":"1316d07b-eadd-4696-8874-2ae418407f54","system_id":"levelo_inurba_marseille","lat":43.24947,"lon":5.40504,"is_reserved":false,"is_disabled":false,"rental_uris":{"android":"levelo://app?vid=1316d07b-eadd-4696-8874-2ae418407f54","ios":"levelo://app?vid=1316d07b-eadd-4696-8874-2ae418407f54"},"vehicle_type_id":"4","last_reported":1762924327,"current_range_meters":8000,"station_id":"st_d2ngiaodas8pm72gd1h0","pricing_plan_id":"cebpf4jnsgd1na2vs0mg"},{"bike_id":"0ea66b8e-ee71-4dee-9a44-0fe9f1baf397","system_id":"levelo_inurba_marseille","lat":43.30511,"lon":5.40088,"is_reserved":false,"is_disabled":false,"rental_uris":{"android":"levelo://app?vid=0ea66b8e-ee71-4dee-9a44-0fe9f1baf397","ios":"levelo://app?vid=0ea66b8e-ee71-4dee-9a44-0fe9f1baf397"},"vehicle_type_id":"4","last_reported":1762924327,"current_range_meters":8000,"station_id":"","pricing_plan_id":"cebpf4jnsgd1na2vs0mg"},{"bike_id":"e45501cc-3d1e-46df-a086-3efed18eb993","system_id":"levelo_inurba_marseille","lat":43.28228,"lon":5.36528,"is_reserved":false,"is_disabled":false,"rental_uris":{"android":"levelo://app?vid=e45501cc-3d1e-46df-a086-3efed18eb993","ios":"levelo://app?vid=e45501cc-3d1e-46df-a086-3efed18eb993"},"vehicle_type_id":"4","last_reported":1762924327,"current_range_meters":8000,"station_id":"","pricing_plan_id":"cebpf4jnsgd1na2vs0mg"},{"bike_id":"8673fcf8-df1e-43f0-b24f-4785c3fa24ee","system_id":"levelo_inurba_marseille","lat":43.321042,"lon":5.367728,"is_reserved":false,"is_disabled":false,"rental_uris":{"android":"levelo://app?vid=8673fcf8-df1e-43f0-b24f-4785c3fa24ee","ios":"levelo://app?vid=8673fcf8-df1e-43f0-b24f-4785c3fa24ee"},"vehicle_type_id":"4","last_reported":1762924327,"current_range_meters":8000,"station_id":"ce4bhrh2rcd13ifvqhug","pricing_plan_id":"cebpf4jnsgd1na2vs0mg"},{"bike_id":"a03c9612-a2d8-42e9-8c3b-5749d6b92747","system_id":"levelo_inurba_marseille","lat":43.2998,"lon":5.37608,"is_reserved":false,"is_disabled":false,"rental_uris":{"android":"levelo://app?vid=a03c9612-a2d8-42e9-8c3b-5749d6b92747","ios":"levelo://app?vid=a03c9612-a2d8-42e9-8c3b-5749d6b92747"},"vehicle_type_id":"4","last_reported":1762924327,"current_range_meters":8400,"station_id":"","pricing_plan_id":"cebpf4jnsgd1na2vs0mg"},{"bike_id":"f210c5d9-e6c9-4a47-a92c-7d32d99c058f","system_id":"levelo_inurba_marseille","lat":43.303512,"lon":5.39697,"is_reserved":false,"is_disabled":false,"rental_uris":{"android":"levelo://app?vid=f210c5d9-e6c9-4a47-a92c-7d32d99c058f","ios":"levelo://app?vid=f210c5d9-e6c9-4a47-a92c-7d32d99c058f"},"vehicle_type_id":"4","last_reported":1762924327,"current_range_meters":8800,"station_id":"","pricing_plan_id":"cebpf4jnsgd1na2vs0mg"},{"bike_id":"4b75f4f1-28cd-4ac7-9b5c-b069daf52b29","system_id":"levelo_inurba_marseille","lat":43.31871,"lon":5.37389,"is_reserved":false,"is_disabled":true,"rental_uris":{"android":"levelo://app?vid=4b75f4f1-28cd-4ac7-9b5c-b069daf52b29","ios":"levelo://app?vid=4b75f4f1-28cd-4ac7-9b5c-b069daf52b29"},"vehicle_type_id":"4","last_reported":1762924327,"current_range_meters":8800,"station_id":"","pricing_plan_id":"cebpf4jnsgd1na2vs0mg"},{"bike_id":"62a14efb-5f7a-4e0d-bbfa-d4a60d07f475","system_id":"levelo_inurba_marseille","lat":43.297622,"lon":5.372984,"is_reserved":false,"is_disabled":false,"rental_uris":{"android":"levelo://app?vid=62a14efb-5f7a-4e0d-bbfa-d4a60d07f475","ios":"levelo://app?vid=62a14efb-5f7a-4e0d-bbfa-d4a60d07f475"},"vehicle_type_id":"4","last_reported":1762924327,"current_range_meters":8800,"station_id":"","pricing_plan_id":"cebpf4jnsgd1na2vs0mg"},{"bike_id":"520598b3-96c3-46e0-842d-f88d56b5e32a","system_id":"levelo_inurba_marseille","lat":43.27208,"lon":5.39199,"is_reserved":false,"is_disabled":true,"rental_uris":{"android":"levelo://app?vid=520598b3-96c3-46e0-842d-f88d56b5e32a","ios":"levelo://app?vid=520598b3-96c3-46e0-842d-f88d56b5e32a"},"vehicle_type_id":"4","last_reported":1762924327,"current_range_meters":8800,"station_id":"ce4bhhp2rcd13ifvqfm0","pricing_plan_id":"cebpf4jnsgd1na2vs0mg"},{"bike_id":"766b19a9-6b87-44f3-a4c5-634274757c1a","system_id":"levelo_inurba_marseille","lat":43.29238,"lon":5.38261,"is_reserved":false,"is_disabled":false,"rental_uris":{"android":"levelo://app?vid=766b19a9-6b87-44f3-a4c5-634274757c1a","ios":"levelo://app?vid=766b19a9-6b87-44f3-a4c5-634274757c1a"},"vehicle_type_id":"4","last_reported":1762924327,"current_range_meters":9200,"station_id":"","pricing_plan_id":"cebpf4jnsgd1na2vs0mg"},{"bike_id":"1b5be03e-768e-46f0-b152-16af9f81cff1","system_id":"levelo_inurba_marseille","lat":43.309322,"lon":5.401366,"is_reserved":false,"is_disabled":true,"rental_uris":{"android":"levelo://app?vid=1b5be03e-768e-46f0-b152-16af9f81cff1","ios":"levelo://app?vid=1b5be03e-768e-46f0-b152-16af9f81cff1"},"vehicle_type_id":"4","last_reported":1762924327,"current_range_meters":9200,"station_id":"","pricing_plan_id":"cebpf4jnsgd1na2vs0mg"},{"bike_id":"38c922e6-37cd-47dc-af88-f07475112c2a","system_id":"levelo_inurba_marseille","lat":43.321192,"lon":5.388453,"is_reserved":false,"is_disabled":false,"rental_uris":{"android":"levelo://app?vid=38c922e6-37cd-47dc-af88-f07475112c2a","ios":"levelo://app?vid=38c922e6-37cd-47dc-af88-f07475112c2a"},"vehicle_type_id":"4","last_reported":1762924327,"current_range_meters":9200,"station_id":"","pricing_plan_id":"cebpf4jnsgd1na2vs0mg"},{"bike_id":"184239b1-01dd-4bfd-9925-3fe462e1448f","system_id":"levelo_inurba_marseille","lat":43.296307,"lon":5.406046,"is_reserved":false,"is_disabled":false,"rental_uris":{"android":"levelo://app?vid=184239b1-01dd-4bfd-9925-3fe462e1448f","ios":"levelo://app?vid=184239b1-01dd-4bfd-9925-3fe462e1448f"},"vehicle_type_id":"4","last_reported":1762924327,"current_range_meters":9200,"station_id":"ce4bh0h2rcd13ifvqd60","pricing_plan_id":"cebpf4jnsgd1na2vs0mg"},{"bike_id":"39dfe477-b0ee-49bc-9ce2-ab18c3c437d9","system_id":"levelo_inurba_marseille","lat":43.26562,"lon":5.40319,"is_reserved":false,"is_disabled":false,"rental_uris":{"android":"levelo://app?vid=39dfe477-b0ee-49bc-9ce2-ab18c3c437d9","ios":"levelo://app?vid=39dfe477-b0ee-49bc-9ce2-ab18c3c437d9"},"vehicle_type_id":"4","last_reported":1762924327,"current_range_meters":9600,"station_id":"ce4bhmp2rcd13ifvqgng","pricing_plan_id":"cebpf4jnsgd1na2vs0mg"},{"bike_id":"172a1479-a5a8-4a14-96d6-945fbc77b377","system_id":"levelo_inurba_marseille","lat":43.319906,"lon":5.381381,"is_reserved":false,"is_disabled":false,"rental_uris":{"android":"levelo://app?vid=172a1479-a5a8-4a14-96d6-945fbc77b377","ios":"levelo://app?vid=172a1479-a5a8-4a14-96d6-945fbc77b377"},"vehicle_type_id":"4","last_reported":1762924327,"current_range_meters":9600,"station_id":"ce4bhr12rcd13ifvqhpg","pricing_plan_id":"cebpf4jnsgd1na2vs0mg"},{"bike_id":"722f7e0f-46d9-4be9-997c-6a53c83a7527","system_id":"levelo_inurba_marseille","lat":43.28032,"lon":5.36945,"is_reserved":false,"is_disabled":true,"rental_uris":{"android":"levelo://app?vid=722f7e0f-46d9-4be9-997c-6a53c83a7527","ios":"levelo://app?vid=722f7e0f-46d9-4be9-997c-6a53c83a7527"},"vehicle_type_id":"4","last_reported":1762924327,"current_range_meters":9600,"station_id":"ce4bha12rcd13ifvqef0","pricing_plan_id":"cebpf4jnsgd1na2vs0mg"},{"bike_id":"035e03df-e41b-4cf7-9eb1-51683218cb2e","system_id":"levelo_inurba_marseille","lat":43.29504,"lon":5.39411,"is_reserved":false,"is_disabled":false,"rental_uris":{"android":"levelo://app?vid=035e03df-e41b-4cf7-9eb1-51683218cb2e","ios":"levelo://app?vid=035e03df-e41b-4cf7-9eb1-51683218cb2e"},"vehicle_type_id":"4","last_reported":1762924327,"current_range_meters":9600,"station_id":"ce4bh292rcd13ifvqdf0","pricing_plan_id":"cebpf4jnsgd1na2vs0mg"},{"bike_id":"69bcc9c9-16ef-4b05-a281-a3669c844e4b","system_id":"levelo_inurba_marseille","lat":43.22531,"lon":5.34843,"is_reserved":false,"is_disabled":false,"rental_uris":{"android":"levelo://app?vid=69bcc9c9-16ef-4b05-a281-a3669c844e4b","ios":"levelo://app?vid=69bcc9c9-16ef-4b05-a281-a3669c844e4b"},"vehicle_type_id":"4","last_reported":1762924327,"current_range_meters":10000,"station_id":"","pricing_plan_id":"cebpf4jnsgd1na2vs0mg"},{"bike_id":"a1fde1f4-1860-4e49-88db-aacdf02b72c8","system_id":"levelo_inurba_marseille","lat":43.25099,"lon":5.40341,"is_reserved":false,"is_disabled":true,"rental_uris":{"android":"levelo://app?vid=a1fde1f4-1860-4e49-88db-aacdf02b72c8","ios":"levelo://app?vid=a1fde1f4-1860-4e49-88db-aacdf02b72c8"},"vehicle_type_id":"4","last_reported":1762924327,"current_range_meters":10000,"station_id":"ce4bhlh2rcd13ifvqgig","pricing_plan_id":"cebpf4jnsgd1na2vs0mg"},{"bike_id":"5a04390a-ad60-4fd6-bcf6-e75b8899a404","system_id":"levelo_inurba_marseille","lat":43.2903,"lon":5.39972,"is_reserved":false,"is_disabled":true,"rental_uris":{"android":"levelo://app?vid=5a04390a-ad60-4fd6-bcf6-e75b8899a404","ios":"levelo://app?vid=5a04390a-ad60-4fd6-bcf6-e75b8899a404"},"vehicle_type_id":"4","last_reported":1762924327,"current_range_meters":10000,"station_id":"ce4bh392rcd13ifvqdm0","pricing_plan_id":"cebpf4jnsgd1na2vs0mg"},{"bike_id":"ac571466-1dc3-4aea-b277-4afec8514b82","system_id":"levelo_inurba_marseille","lat":43.27948,"lon":5.41058,"is_reserved":false,"is_disabled":false,"rental_uris":{"android":"levelo://app?vid=ac571466-1dc3-4aea-b277-4afec8514b82","ios":"levelo://app?vid=ac571466-1dc3-4aea-b277-4afec8514b82"},"vehicle_type_id":"4","last_reported":1762924327,"current_range_meters":10000,"station_id":"ce4bhnp2rcd13ifvqh0g","pricing_plan_id":"cebpf4jnsgd1na2vs0mg"},{"bike_id":"b41e24d8-65c5-426b-bb45-4cabc1a8ec44","system_id":"levelo_inurba_marseille","lat":43.29605,"lon":5.37705,"is_reserved":false,"is_disabled":true,"rental_uris":{"android":"levelo://app?vid=b41e24d8-65c5-426b-bb45-4cabc1a8ec44","ios":"levelo://app?vid=b41e24d8-65c5-426b-bb45-4cabc1a8ec44"},"vehicle_type_id":"4","last_reported":1762924327,"current_range_meters":10000,"station_id":"ce4bgi92rcd13ifvqb90","pricing_plan_id":"cebpf4jnsgd1na2vs0mg"},{"bike_id":"3664f7af-3e86-419e-b36c-8dae5c863934","system_id":"levelo_inurba_marseille","lat":43.292768,"lon":5.401288,"is_reserved":false,"is_disabled":false,"rental_uris":{"android":"levelo://app?vid=3664f7af-3e86-419e-b36c-8dae5c863934","ios":"levelo://app?vid=3664f7af-3e86-419e-b36c-8dae5c863934"},"vehicle_type_id":"4","last_reported":1762924327,"current_range_meters":10000,"station_id":"ce4bh312rcd13ifvqdk0","pricing_plan_id":"cebpf4jnsgd1na2vs0mg"},{"bike_id":"401ad222-c173-49f3-a874-49259df9d2cc","system_id":"levelo_inurba_marseille","lat":43.309,"lon":5.39651,"is_reserved":false,"is_disabled":false,"rental_uris":{"android":"levelo://app?vid=401ad222-c173-49f3-a874-49259df9d2cc","ios":"levelo://app?vid=401ad222-c173-49f3-a874-49259df9d2cc"},"vehicle_type_id":"4","last_reported":1762924327,"current_range_meters":10000,"station_id":"ce4bh012rcd13ifvqcv0","pricing_plan_id":"cebpf4jnsgd1na2vs0mg"},{"bike_id":"dc9399a6-68ac-4bce-a28c-89dbbb7d0681","system_id":"levelo_inurba_marseille","lat":43.28771,"lon":5.40823,"is_reserved":false,"is_disabled":true,"rental_uris":{"android":"levelo://app?vid=dc9399a6-68ac-4bce-a28c-89dbbb7d0681","ios":"levelo://app?vid=dc9399a6-68ac-4bce-a28c-89dbbb7d0681"},"vehicle_type_id":"4","last_reported":1762924327,"current_range_meters":10000,"station_id":"","pricing_plan_id":"cebpf4jnsgd1na2vs0mg"},{"bike_id":"20936c24-3019-475b-b738-e9528df6ec7d","system_id":"levelo_inurba_marseille","lat":43.30898,"lon":5.39669,"is_reserved":false,"is_disabled":false,"rental_uris":{"android":"levelo://app?vid=20936c24-3019-475b-b738-e9528df6ec7d","ios":"levelo://app?vid=20936c24-3019-475b-b738-e9528df6ec7d"},"vehicle_type_id":"4","last_reported":1762924327,"current_range_meters":10000,"station_id":"ce4bh012rcd13ifvqcv0","pricing_plan_id":"cebpf4jnsgd1na2vs0mg"},{"bike_id":"162339c3-4924-4dd6-b495-328b67400814","system_id":"levelo_inurba_marseille","lat":43.29917,"lon":5.38136,"is_reserved":false,"is_disabled":false,"rental_uris":{"android":"levelo://app?vid=162339c3-4924-4dd6-b495-328b67400814","ios":"levelo://app?vid=162339c3-4924-4dd6-b495-328b67400814"},"vehicle_type_id":"4","last_reported":1762924327,"current_range_meters":10000,"station_id":"ce4bgj12rcd13ifvqbc0","pricing_plan_id":"cebpf4jnsgd1na2vs0mg"},{"bike_id":"b9133198-a2f5-4376-ae2f-4a522c41fac1","system_id":"levelo_inurba_marseille","lat":43.28801,"lon":5.38556,"is_reserved":false,"is_disabled":false,"rental_uris":{"android":"levelo://app?vid=b9133198-a2f5-4376-ae2f-4a522c41fac1","ios":"levelo://app?vid=b9133198-a2f5-4376-ae2f-4a522c41fac1"},"vehicle_type_id":"4","last_reported":1762924327,"current_range_meters":10800,"station_id":"","pricing_plan_id":"cebpf4jnsgd1na2vs0mg"},{"bike_id":"dd25e189-70da-4f84-918b-1c3dc5b3f7b5","system_id":"levelo_inurba_marseille","lat":43.30885,"lon":5.39645,"is_reserved":false,"is_disabled":false,"rental_uris":{"android":"levelo://app?vid=dd25e189-70da-4f84-918b-1c3dc5b3f7b5","ios":"levelo://app?vid=dd25e189-70da-4f84-918b-1c3dc5b3f7b5"},"vehicle_type_id":"4","last_reported":1762924327,"current_range_meters":10800,"station_id":"ce4bh012rcd13ifvqcv0","pricing_plan_id":"cebpf4jnsgd1na2vs0mg"},{"bike_id":"84aade2c-4b39-4bce-814f-cfa3d6ed46f7","system_id":"levelo_inurba_marseille","lat":43.28483,"lon":5.48381,"is_reserved":false,"is_disabled":false,"rental_uris":{"android":"levelo://app?vid=84aade2c-4b39-4bce-814f-cfa3d6ed46f7","ios":"levelo://app?vid=84aade2c-4b39-4bce-814f-cfa3d6ed46f7"},"vehicle_type_id":"4","last_reported":1762924327,"current_range_meters":10800,"station_id":"st_d3svhcjqgbts73a3dn0g","pricing_plan_id":"cebpf4jnsgd1na2vs0mg"},{"bike_id":"28e36cd3-4665-4002-a55e-04a45eaa3992","system_id":"levelo_inurba_marseille","lat":43.33162,"lon":5.37691,"is_reserved":false,"is_disabled":false,"rental_uris":{"android":"levelo://app?vid=28e36cd3-4665-4002-a55e-04a45eaa3992","ios":"levelo://app?vid=28e36cd3-4665-4002-a55e-04a45eaa3992"},"vehicle_type_id":"4","last_reported":1762924327,"current_range_meters":10800,"station_id":"st_d46cu089ee8s73dldbu0","pricing_plan_id":"cebpf4jnsgd1na2vs0mg"},{"bike_id":"b700749c-e8e2-432d-a1e8-7c81164c57a8","system_id":"levelo_inurba_marseille","lat":43.27984,"lon":5.40025,"is_reserved":false,"is_disabled":false,"rental_uris":{"android":"levelo://app?vid=b700749c-e8e2-432d-a1e8-7c81164c57a8","ios":"levelo://app?vid=b700749c-e8e2-432d-a1e8-7c81164c57a8"},"vehicle_type_id":"4","last_reported":1762924327,"current_range_meters":10800,"station_id":"ce4bho92rcd13ifvqh4g","pricing_plan_id":"cebpf4jnsgd1na2vs0mg"},{"bike_id":"b259621f-2fe6-4b30-92e0-2292fee32f1f","system_id":"levelo_inurba_marseille","lat":43.28038,"lon":5.369417,"is_reserved":false,"is_disabled":true,"rental_uris":{"android":"levelo://app?vid=b259621f-2fe6-4b30-92e0-2292fee32f1f","ios":"levelo://app?vid=b259621f-2fe6-4b30-92e0-2292fee32f1f"},"vehicle_type_id":"4","last_reported":1762924327,"current_range_meters":10800,"station_id":"ce4bha12rcd13ifvqef0","pricing_plan_id":"cebpf4jnsgd1na2vs0mg"},{"bike_id":"82d1bacd-5d80-49df-b997-23d9fe981e3c","system_id":"levelo_inurba_marseille","lat":43.28484,"lon":5.38565,"is_reserved":false,"is_disabled":false,"rental_uris":{"android":"levelo://app?vid=82d1bacd-5d80-49df-b997-23d9fe981e3c","ios":"levelo://app?vid=82d1bacd-5d80-49df-b997-23d9fe981e3c"},"vehicle_type_id":"4","last_reported":1762924327,"current_range_meters":10800,"station_id":"ce4bh8p2rcd13ifvqeb0","pricing_plan_id":"cebpf4jnsgd1na2vs0mg"},{"bike_id":"c47023ab-2905-4a00-af93-ffd0b768cdc9","system_id":"levelo_inurba_marseille","lat":43.2888,"lon":5.42503,"is_reserved":false,"is_disabled":false,"rental_uris":{"android":"levelo://app?vid=c47023ab-2905-4a00-af93-ffd0b768cdc9","ios":"levelo://app?vid=c47023ab-2905-4a00-af93-ffd0b768cdc9"},"vehicle_type_id":"4","last_reported":1762924327,"current_range_meters":11200,"station_id":"st_d3b462108ojc7389ooeg","pricing_plan_id":"cebpf4jnsgd1na2vs0mg"},{"bike_id":"393ebba5-f26f-4f5b-ba37-0d7b5bd9041d","system_id":"levelo_inurba_marseille","lat":43.21736,"lon":5.34626,"is_reserved":false,"is_disabled":false,"rental_uris":{"android":"levelo://app?vid=393ebba5-f26f-4f5b-ba37-0d7b5bd9041d","ios":"levelo://app?vid=393ebba5-f26f-4f5b-ba37-0d7b5bd9041d"},"vehicle_type_id":"4","last_reported":1762924327,"current_range_meters":11200,"station_id":"","pricing_plan_id":"cebpf4jnsgd1na2vs0mg"},{"bike_id":"547476e2-6d4d-4998-bfa1-9c50aae48316","system_id":"levelo_inurba_marseille","lat":43.27974,"lon":5.38743,"is_reserved":false,"is_disabled":false,"rental_uris":{"android":"levelo://app?vid=547476e2-6d4d-4998-bfa1-9c50aae48316","ios":"levelo://app?vid=547476e2-6d4d-4998-bfa1-9c50aae48316"},"vehicle_type_id":"4","last_reported":1762924327,"current_range_meters":11200,"station_id":"ce4bhg12rcd13ifvqf80","pricing_plan_id":"cebpf4jnsgd1na2vs0mg"},{"bike_id":"32162483-923a-4e23-8738-bf029245f9f0","system_id":"levelo_inurba_marseille","lat":43.28467,"lon":5.38467,"is_reserved":false,"is_disabled":true,"rental_uris":{"android":"levelo://app?vid=32162483-923a-4e23-8738-bf029245f9f0","ios":"levelo://app?vid=32162483-923a-4e23-8738-bf029245f9f0"},"vehicle_type_id":"4","last_reported":1762924327,"current_range_meters":11600,"station_id":"ce4bh512rcd13ifvqe3g","pricing_plan_id":"cebpf4jnsgd1na2vs0mg"},{"bike_id":"e9096c85-7648-4fa6-80d3-640340cb2c13","system_id":"levelo_inurba_marseille","lat":43.28225,"lon":5.39061,"is_reserved":false,"is_disabled":false,"rental_uris":{"android":"levelo://app?vid=e9096c85-7648-4fa6-80d3-640340cb2c13","ios":"levelo://app?vid=e9096c85-7648-4fa6-80d3-640340cb2c13"},"vehicle_type_id":"4","last_reported":1762924327,"current_range_meters":11600,"station_id":"ce4bhn92rcd13ifvqgsg","pricing_plan_id":"cebpf4jnsgd1na2vs0mg"},{"bike_id":"456c3b77-50a7-458c-9a10-8138e2e89389","system_id":"levelo_inurba_marseille","lat":43.252097,"lon":5.380496,"is_reserved":false,"is_disabled":false,"rental_uris":{"android":"levelo://app?vid=456c3b77-50a7-458c-9a10-8138e2e89389","ios":"levelo://app?vid=456c3b77-50a7-458c-9a10-8138e2e89389"},"vehicle_type_id":"4","last_reported":1762924327,"current_range_meters":11600,"station_id":"","pricing_plan_id":"cebpf4jnsgd1na2vs0mg"},{"bike_id":"9afa5cbf-8616-411d-848e-86050b9bcdcd","system_id":"levelo_inurba_marseille","lat":43.285295,"lon":5.441045,"is_reserved":false,"is_disabled":false,"rental_uris":{"android":"levelo://app?vid=9afa5cbf-8616-411d-848e-86050b9bcdcd","ios":"levelo://app?vid=9afa5cbf-8616-411d-848e-86050b9bcdcd"},"vehicle_type_id":"4","last_reported":1762924327,"current_range_meters":11600,"station_id":"st_d3j3df2ikq2c7380ej80","pricing_plan_id":"cebpf4jnsgd1na2vs0mg"},{"bike_id":"55b7e291-072b-4042-a272-a038a9f41f7f","system_id":"levelo_inurba_marseille","lat":43.279396,"lon":5.41049,"is_reserved":false,"is_disabled":false,"rental_uris":{"android":"levelo://app?vid=55b7e291-072b-4042-a272-a038a9f41f7f","ios":"levelo://app?vid=55b7e291-072b-4042-a272-a038a9f41f7f"},"vehicle_type_id":"4","last_reported":1762924327,"current_range_meters":12000,"station_id":"ce4bhnp2rcd13ifvqh0g","pricing_plan_id":"cebpf4jnsgd1na2vs0mg"},{"bike_id":"43599706-aeab-41b2-859f-99807479547f","system_id":"levelo_inurba_marseille","lat":43.25332,"lon":5.42175,"is_reserved":false,"is_disabled":false,"rental_uris":{"android":"levelo://app?vid=43599706-aeab-41b2-859f-99807479547f","ios":"levelo://app?vid=43599706-aeab-41b2-859f-99807479547f"},"vehicle_type_id":"4","last_reported":1762924327,"current_range_meters":12000,"station_id":"st_d2m65c5bi1j21697t3ng","pricing_plan_id":"cebpf4jnsgd1na2vs0mg"},{"bike_id":"fbb4adc7-67e1-422c-813d-41c673b2d86f","system_id":"levelo_inurba_marseille","lat":43.24544,"lon":5.39534,"is_reserved":false,"is_disabled":false,"rental_uris":{"android":"levelo://app?vid=fbb4adc7-67e1-422c-813d-41c673b2d86f","ios":"levelo://app?vid=fbb4adc7-67e1-422c-813d-41c673b2d86f"},"vehicle_type_id":"4","last_reported":1762924327,"current_range_meters":12000,"station_id":"ce4bhlp2rcd13ifvqgjg","pricing_plan_id":"cebpf4jnsgd1na2vs0mg"},{"bike_id":"96a27a39-50b0-476e-9466-555b75b88cc8","system_id":"levelo_inurba_marseille","lat":43.2315,"lon":5.43717,"is_reserved":false,"is_disabled":false,"rental_uris":{"android":"levelo://app?vid=96a27a39-50b0-476e-9466-555b75b88cc8","ios":"levelo://app?vid=96a27a39-50b0-476e-9466-555b75b88cc8"},"vehicle_type_id":"4","last_reported":1762924327,"current_range_meters":12000,"station_id":"ce4bhmp2rcd13ifvqgog","pricing_plan_id":"cebpf4jnsgd1na2vs0mg"},{"bike_id":"50b661f0-112f-4780-95bd-167a8c61a238","system_id":"levelo_inurba_marseille","lat":43.211918,"lon":5.350765,"is_reserved":false,"is_disabled":true,"rental_uris":{"android":"levelo://app?vid=50b661f0-112f-4780-95bd-167a8c61a238","ios":"levelo://app?vid=50b661f0-112f-4780-95bd-167a8c61a238"},"vehicle_type_id":"4","last_reported":1762924327,"current_range_meters":12000,"station_id":"st_cvj6sg6p6f1abm77japg","pricing_plan_id":"cebpf4jnsgd1na2vs0mg"},{"bike_id":"baee815b-e769-45dc-99ea-f03a1201b5d3","system_id":"levelo_inurba_marseille","lat":43.30294,"lon":5.39954,"is_reserved":false,"is_disabled":false,"rental_uris":{"android":"levelo://app?vid=baee815b-e769-45dc-99ea-f03a1201b5d3","ios":"levelo://app?vid=baee815b-e769-45dc-99ea-f03a1201b5d3"},"vehicle_type_id":"4","last_reported":1762924327,"current_range_meters":12400,"station_id":"","pricing_plan_id":"cebpf4jnsgd1na2vs0mg"},{"bike_id":"9b7083ef-aabb-4c61-8efa-c981ce65e17f","system_id":"levelo_inurba_marseille","lat":43.31316,"lon":5.39723,"is_reserved":false,"is_disabled":false,"rental_uris":{"android":"levelo://app?vid=9b7083ef-aabb-4c61-8efa-c981ce65e17f","ios":"levelo://app?vid=9b7083ef-aabb-4c61-8efa-c981ce65e17f"},"vehicle_type_id":"4","last_reported":1762924327,"current_range_meters":12400,"station_id":"ce4bgvp2rcd13ifvqcu0","pricing_plan_id":"cebpf4jnsgd1na2vs0mg"},{"bike_id":"3b15451b-9ca4-4b75-9fab-bb81fed744ea","system_id":"levelo_inurba_marseille","lat":43.30303,"lon":5.39211,"is_reserved":false,"is_disabled":true,"rental_uris":{"android":"levelo://app?vid=3b15451b-9ca4-4b75-9fab-bb81fed744ea","ios":"levelo://app?vid=3b15451b-9ca4-4b75-9fab-bb81fed744ea"},"vehicle_type_id":"4","last_reported":1762924327,"current_range_meters":12400,"station_id":"ce4bgkh2rcd13ifvqbk0","pricing_plan_id":"cebpf4jnsgd1na2vs0mg"},{"bike_id":"cb7a5799-c024-4519-bb5c-6f2896731a81","system_id":"levelo_inurba_marseille","lat":43.33156,"lon":5.37694,"is_reserved":false,"is_disabled":false,"rental_uris":{"android":"levelo://app?vid=cb7a5799-c024-4519-bb5c-6f2896731a81","ios":"levelo://app?vid=cb7a5799-c024-4519-bb5c-6f2896731a81"},"vehicle_type_id":"4","last_reported":1762924327,"current_range_meters":12400,"station_id":"st_d46cu089ee8s73dldbu0","pricing_plan_id":"cebpf4jnsgd1na2vs0mg"},{"bike_id":"e5072903-b867-4d8e-a478-9934ce296bde","system_id":"levelo_inurba_marseille","lat":43.29115,"lon":5.3907,"is_reserved":false,"is_disabled":false,"rental_uris":{"android":"levelo://app?vid=e5072903-b867-4d8e-a478-9934ce296bde","ios":"levelo://app?vid=e5072903-b867-4d8e-a478-9934ce296bde"},"vehicle_type_id":"4","last_reported":1762924327,"current_range_meters":12400,"station_id":"","pricing_plan_id":"cebpf4jnsgd1na2vs0mg"},{"bike_id":"90b7b1ac-129d-4f5e-9e36-1417be0b1559","system_id":"levelo_inurba_marseille","lat":43.30395,"lon":5.4247,"is_reserved":false,"is_disabled":true,"rental_uris":{"android":"levelo://app?vid=90b7b1ac-129d-4f5e-9e36-1417be0b1559","ios":"levelo://app?vid=90b7b1ac-129d-4f5e-9e36-1417be0b1559"},"vehicle_type_id":"4","last_reported":1762924327,"current_range_meters":12400,"station_id":"ce4bhoh2rcd13ifvqh6g","pricing_plan_id":"cebpf4jnsgd1na2vs0mg"},{"bike_id":"1ce752b0-fa49-429d-9734-2f06993f4bd6","system_id":"levelo_inurba_marseille","lat":43.319977,"lon":5.381531,"is_reserved":false,"is_disabled":false,"rental_uris":{"android":"levelo://app?vid=1ce752b0-fa49-429d-9734-2f06993f4bd6","ios":"levelo://app?vid=1ce752b0-fa49-429d-9734-2f06993f4bd6"},"vehicle_type_id":"4","last_reported":1762924327,"current_range_meters":12800,"station_id":"ce4bhr12rcd13ifvqhpg","pricing_plan_id":"cebpf4jnsgd1na2vs0mg"},{"bike_id":"b147f1a9-c303-40fc-a009-88b90d822a1a","system_id":"levelo_inurba_marseille","lat":43.27917,"lon":5.39583,"is_reserved":false,"is_disabled":false,"rental_uris":{"android":"levelo://app?vid=b147f1a9-c303-40fc-a009-88b90d822a1a","ios":"levelo://app?vid=b147f1a9-c303-40fc-a009-88b90d822a1a"},"vehicle_type_id":"4","last_reported":1762924327,"current_range_meters":12800,"station_id":"ce4bhf92rcd13ifvqf40","pricing_plan_id":"cebpf4jnsgd1na2vs0mg"},{"bike_id":"d3929b97-d527-4b58-ac20-1f968c8f9b12","system_id":"levelo_inurba_marseille","lat":43.29276,"lon":5.40121,"is_reserved":false,"is_disabled":false,"rental_uris":{"android":"levelo://app?vid=d3929b97-d527-4b58-ac20-1f968c8f9b12","ios":"levelo://app?vid=d3929b97-d527-4b58-ac20-1f968c8f9b12"},"vehicle_type_id":"4","last_reported":1762924327,"current_range_meters":12800,"station_id":"ce4bh312rcd13ifvqdk0","pricing_plan_id":"cebpf4jnsgd1na2vs0mg"},{"bike_id":"816ee6d1-f26e-4bc1-b448-91a59f9d6a64","system_id":"levelo_inurba_marseille","lat":43.29519,"lon":5.39416,"is_reserved":false,"is_disabled":false,"rental_uris":{"android":"levelo://app?vid=816ee6d1-f26e-4bc1-b448-91a59f9d6a64","ios":"levelo://app?vid=816ee6d1-f26e-4bc1-b448-91a59f9d6a64"},"vehicle_type_id":"4","last_reported":1762924327,"current_range_meters":12800,"station_id":"ce4bh292rcd13ifvqdf0","pricing_plan_id":"cebpf4jnsgd1na2vs0mg"},{"bike_id":"def9730b-dc04-435b-8225-4a9556956dd9","system_id":"levelo_inurba_marseille","lat":43.321036,"lon":5.367811,"is_reserved":false,"is_disabled":false,"rental_uris":{"android":"levelo://app?vid=def9730b-dc04-435b-8225-4a9556956dd9","ios":"levelo://app?vid=def9730b-dc04-435b-8225-4a9556956dd9"},"vehicle_type_id":"4","last_reported":1762924327,"current_range_meters":12800,"station_id":"ce4bhrh2rcd13ifvqhug","pricing_plan_id":"cebpf4jnsgd1na2vs0mg"},{"bike_id":"7853a813-0949-48bc-9da8-6f66b0f8768a","system_id":"levelo_inurba_marseille","lat":43.243937,"lon":5.370815,"is_reserved":false,"is_disabled":true,"rental_uris":{"android":"levelo://app?vid=7853a813-0949-48bc-9da8-6f66b0f8768a","ios":"levelo://app?vid=7853a813-0949-48bc-9da8-6f66b0f8768a"},"vehicle_type_id":"4","last_reported":1762924327,"current_range_meters":12800,"station_id":"ce4bhhh2rcd13ifvqfk0","pricing_plan_id":"cebpf4jnsgd1na2vs0mg"},{"bike_id":"f09b69fd-4220-4b51-8365-9a85828617f1","system_id":"levelo_inurba_marseille","lat":43.330268,"lon":5.390397,"is_reserved":false,"is_disabled":false,"rental_uris":{"android":"levelo://app?vid=f09b69fd-4220-4b51-8365-9a85828617f1","ios":"levelo://app?vid=f09b69fd-4220-4b51-8365-9a85828617f1"},"vehicle_type_id":"4","last_reported":1762924327,"current_range_meters":13600,"station_id":"ce4bhr92rcd13ifvqhrg","pricing_plan_id":"cebpf4jnsgd1na2vs0mg"},{"bike_id":"9076ae51-9410-4c1b-9986-f30d66fd9259","system_id":"levelo_inurba_marseille","lat":43.232,"lon":5.35555,"is_reserved":false,"is_disabled":false,"rental_uris":{"android":"levelo://app?vid=9076ae51-9410-4c1b-9986-f30d66fd9259","ios":"levelo://app?vid=9076ae51-9410-4c1b-9986-f30d66fd9259"},"vehicle_type_id":"4","last_reported":1762924327,"current_range_meters":13600,"station_id":"ce4bhu92rcd13ifvqi70","pricing_plan_id":"cebpf4jnsgd1na2vs0mg"},{"bike_id":"558d6336-8c01-4b7e-9c90-98f020bc4f34","system_id":"levelo_inurba_marseille","lat":43.31891,"lon":5.40733,"is_reserved":false,"is_disabled":false,"rental_uris":{"android":"levelo://app?vid=558d6336-8c01-4b7e-9c90-98f020bc4f34","ios":"levelo://app?vid=558d6336-8c01-4b7e-9c90-98f020bc4f34"},"vehicle_type_id":"4","last_reported":1762924327,"current_range_meters":13600,"station_id":"ce4bhq12rcd13ifvqhig","pricing_plan_id":"cebpf4jnsgd1na2vs0mg"},{"bike_id":"d33090e5-3ce1-4bdb-97d4-fd07003a4e86","system_id":"levelo_inurba_marseille","lat":43.30248,"lon":5.40049,"is_reserved":false,"is_disabled":false,"rental_uris":{"android":"levelo://app?vid=d33090e5-3ce1-4bdb-97d4-fd07003a4e86","ios":"levelo://app?vid=d33090e5-3ce1-4bdb-97d4-fd07003a4e86"},"vehicle_type_id":"4","last_reported":1762924327,"current_range_meters":13600,"station_id":"ce4bgvh2rcd13ifvqcs0","pricing_plan_id":"cebpf4jnsgd1na2vs0mg"},{"bike_id":"90244e76-14ca-4da0-9cf7-f1d4ec023d44","system_id":"levelo_inurba_marseille","lat":43.30887,"lon":5.39644,"is_reserved":false,"is_disabled":false,"rental_uris":{"android":"levelo://app?vid=90244e76-14ca-4da0-9cf7-f1d4ec023d44","ios":"levelo://app?vid=90244e76-14ca-4da0-9cf7-f1d4ec023d44"},"vehicle_type_id":"4","last_reported":1762924327,"current_range_meters":13600,"station_id":"ce4bh012rcd13ifvqcv0","pricing_plan_id":"cebpf4jnsgd1na2vs0mg"},{"bike_id":"de640253-058f-4c05-a145-df93914964e6","system_id":"levelo_inurba_marseille","lat":43.30468,"lon":5.37907,"is_reserved":false,"is_disabled":false,"rental_uris":{"android":"levelo://app?vid=de640253-058f-4c05-a145-df93914964e6","ios":"levelo://app?vid=de640253-058f-4c05-a145-df93914964e6"},"vehicle_type_id":"4","last_reported":1762924327,"current_range_meters":13600,"station_id":"ce4bgup2rcd13ifvqcn0","pricing_plan_id":"cebpf4jnsgd1na2vs0mg"},{"bike_id":"72de2437-0636-4722-95b6-d252b0fa572a","system_id":"levelo_inurba_marseille","lat":43.24998,"lon":5.38932,"is_reserved":false,"is_disabled":false,"rental_uris":{"android":"levelo://app?vid=72de2437-0636-4722-95b6-d252b0fa572a","ios":"levelo://app?vid=72de2437-0636-4722-95b6-d252b0fa572a"},"vehicle_type_id":"4","last_reported":1762924327,"current_range_meters":13600,"station_id":"ce4bhgp2rcd13ifvqfd0","pricing_plan_id":"cebpf4jnsgd1na2vs0mg"},{"bike_id":"138acbc8-a44a-45ec-9d4e-f41258a8778e","system_id":"levelo_inurba_marseille","lat":43.298148,"lon":5.440703,"is_reserved":false,"is_disabled":false,"rental_uris":{"android":"levelo://app?vid=138acbc8-a44a-45ec-9d4e-f41258a8778e","ios":"levelo://app?vid=138acbc8-a44a-45ec-9d4e-f41258a8778e"},"vehicle_type_id":"4","last_reported":1762924327,"current_range_meters":13600,"station_id":"st_d3jp68qikq2c7381ktn0","pricing_plan_id":"cebpf4jnsgd1na2vs0mg"},{"bike_id":"0f698a93-c243-46fa-929a-ef74530654dc","system_id":"levelo_inurba_marseille","lat":43.28136,"lon":5.42668,"is_reserved":false,"is_disabled":false,"rental_uris":{"android":"levelo://app?vid=0f698a93-c243-46fa-929a-ef74530654dc","ios":"levelo://app?vid=0f698a93-c243-46fa-929a-ef74530654dc"},"vehicle_type_id":"4","last_reported":1762924327,"current_range_meters":13600,"station_id":"ce4bhnh2rcd13ifvqgug","pricing_plan_id":"cebpf4jnsgd1na2vs0mg"},{"bike_id":"438d7a62-f358-4ec9-8eec-1107534a0ed3","system_id":"levelo_inurba_marseille","lat":43.284558,"lon":5.358947,"is_reserved":false,"is_disabled":false,"rental_uris":{"android":"levelo://app?vid=438d7a62-f358-4ec9-8eec-1107534a0ed3","ios":"levelo://app?vid=438d7a62-f358-4ec9-8eec-1107534a0ed3"},"vehicle_type_id":"4","last_reported":1762924327,"current_range_meters":14000,"station_id":"ce4bhah2rcd13ifvqei0","pricing_plan_id":"cebpf4jnsgd1na2vs0mg"},{"bike_id":"e95c7a5e-2ca6-4704-beef-c914118730ac","system_id":"levelo_inurba_marseille","lat":43.233815,"lon":5.41236,"is_reserved":false,"is_disabled":false,"rental_uris":{"android":"levelo://app?vid=e95c7a5e-2ca6-4704-beef-c914118730ac","ios":"levelo://app?vid=e95c7a5e-2ca6-4704-beef-c914118730ac"},"vehicle_type_id":"4","last_reported":1762924327,"current_range_meters":14000,"station_id":"","pricing_plan_id":"cebpf4jnsgd1na2vs0mg"},{"bike_id":"5804ac99-3bd4-4091-bff1-7487e9285e0c","system_id":"levelo_inurba_marseille","lat":43.29196,"lon":5.37598,"is_reserved":false,"is_disabled":false,"rental_uris":{"android":"levelo://app?vid=5804ac99-3bd4-4091-bff1-7487e9285e0c","ios":"levelo://app?vid=5804ac99-3bd4-4091-bff1-7487e9285e0c"},"vehicle_type_id":"4","last_reported":1762924327,"current_range_meters":14400,"station_id":"","pricing_plan_id":"cebpf4jnsgd1na2vs0mg"},{"bike_id":"a181b69a-fd1c-4d3f-af0e-bfa9a7521c4e","system_id":"levelo_inurba_marseille","lat":43.25305,"lon":5.42169,"is_reserved":false,"is_disabled":false,"rental_uris":{"android":"levelo://app?vid=a181b69a-fd1c-4d3f-af0e-bfa9a7521c4e","ios":"levelo://app?vid=a181b69a-fd1c-4d3f-af0e-bfa9a7521c4e"},"vehicle_type_id":"4","last_reported":1762924327,"current_range_meters":14400,"station_id":"st_d2m65c5bi1j21697t3ng","pricing_plan_id":"cebpf4jnsgd1na2vs0mg"},{"bike_id":"ca832d9b-2460-4423-a8ce-5f7543cdec32","system_id":"levelo_inurba_marseille","lat":43.313315,"lon":5.396949,"is_reserved":false,"is_disabled":false,"rental_uris":{"android":"levelo://app?vid=ca832d9b-2460-4423-a8ce-5f7543cdec32","ios":"levelo://app?vid=ca832d9b-2460-4423-a8ce-5f7543cdec32"},"vehicle_type_id":"4","last_reported":1762924327,"current_range_meters":14400,"station_id":"ce4bgvp2rcd13ifvqcu0","pricing_plan_id":"cebpf4jnsgd1na2vs0mg"},{"bike_id":"01e8cce2-ff84-43ff-914a-c0c695f60ca4","system_id":"levelo_inurba_marseille","lat":43.29438,"lon":5.38039,"is_reserved":false,"is_disabled":false,"rental_uris":{"android":"levelo://app?vid=01e8cce2-ff84-43ff-914a-c0c695f60ca4","ios":"levelo://app?vid=01e8cce2-ff84-43ff-914a-c0c695f60ca4"},"vehicle_type_id":"4","last_reported":1762924327,"current_range_meters":14800,"station_id":"","pricing_plan_id":"cebpf4jnsgd1na2vs0mg"},{"bike_id":"8b027115-1a9e-4312-923f-dbf5aec10ee4","system_id":"levelo_inurba_marseille","lat":43.30234,"lon":5.36486,"is_reserved":false,"is_disabled":false,"rental_uris":{"android":"levelo://app?vid=8b027115-1a9e-4312-923f-dbf5aec10ee4","ios":"levelo://app?vid=8b027115-1a9e-4312-923f-dbf5aec10ee4"},"vehicle_type_id":"4","last_reported":1762924327,"current_range_meters":14800,"station_id":"","pricing_plan_id":"cebpf4jnsgd1na2vs0mg"},{"bike_id":"e1c49d42-03d5-4d84-a0f7-43824aeaa1c4","system_id":"levelo_inurba_marseille","lat":43.25344,"lon":5.42175,"is_reserved":false,"is_disabled":false,"rental_uris":{"android":"levelo://app?vid=e1c49d42-03d5-4d84-a0f7-43824aeaa1c4","ios":"levelo://app?vid=e1c49d42-03d5-4d84-a0f7-43824aeaa1c4"},"vehicle_type_id":"4","last_reported":1762924327,"current_range_meters":14800,"station_id":"st_d2m65c5bi1j21697t3ng","pricing_plan_id":"cebpf4jnsgd1na2vs0mg"},{"bike_id":"f0413c71-e0c3-427b-98cb-cdf950c219e3","system_id":"levelo_inurba_marseille","lat":43.31016,"lon":5.40063,"is_reserved":false,"is_disabled":false,"rental_uris":{"android":"levelo://app?vid=f0413c71-e0c3-427b-98cb-cdf950c219e3","ios":"levelo://app?vid=f0413c71-e0c3-427b-98cb-cdf950c219e3"},"vehicle_type_id":"4","last_reported":1762924327,"current_range_meters":15200,"station_id":"","pricing_plan_id":"cebpf4jnsgd1na2vs0mg"},{"bike_id":"e13b78db-2231-48a0-b9e0-a153f32a43f4","system_id":"levelo_inurba_marseille","lat":43.230541,"lon":5.355072,"is_reserved":false,"is_disabled":false,"rental_uris":{"android":"levelo://app?vid=e13b78db-2231-48a0-b9e0-a153f32a43f4","ios":"levelo://app?vid=e13b78db-2231-48a0-b9e0-a153f32a43f4"},"vehicle_type_id":"4","last_reported":1762924327,"current_range_meters":15200,"station_id":"cpo3342slgdg3j2ifvpg","pricing_plan_id":"cebpf4jnsgd1na2vs0mg"},{"bike_id":"d97d1671-36ff-4f0e-b146-69c560265632","system_id":"levelo_inurba_marseille","lat":43.27968,"lon":5.40765,"is_reserved":false,"is_disabled":false,"rental_uris":{"android":"levelo://app?vid=d97d1671-36ff-4f0e-b146-69c560265632","ios":"levelo://app?vid=d97d1671-36ff-4f0e-b146-69c560265632"},"vehicle_type_id":"4","last_reported":1762924327,"current_range_meters":15200,"station_id":"","pricing_plan_id":"cebpf4jnsgd1na2vs0mg"},{"bike_id":"f69c4ea5-935d-4c03-81fd-d7ebe1402150","system_id":"levelo_inurba_marseille","lat":43.27175,"lon":5.40996,"is_reserved":false,"is_disabled":false,"rental_uris":{"android":"levelo://app?vid=f69c4ea5-935d-4c03-81fd-d7ebe1402150","ios":"levelo://app?vid=f69c4ea5-935d-4c03-81fd-d7ebe1402150"},"vehicle_type_id":"4","last_reported":1762924327,"current_range_meters":15200,"station_id":"ce4bhl12rcd13ifvqgf0","pricing_plan_id":"cebpf4jnsgd1na2vs0mg"},{"bike_id":"25ff1596-8d93-46ac-bdb5-e25a518d41ee","system_id":"levelo_inurba_marseille","lat":43.28939,"lon":5.38399,"is_reserved":false,"is_disabled":true,"rental_uris":{"android":"levelo://app?vid=25ff1596-8d93-46ac-bdb5-e25a518d41ee","ios":"levelo://app?vid=25ff1596-8d93-46ac-bdb5-e25a518d41ee"},"vehicle_type_id":"4","last_reported":1762924327,"current_range_meters":15200,"station_id":"ce4bh612rcd13ifvqe6g","pricing_plan_id":"cebpf4jnsgd1na2vs0mg"},{"bike_id":"23cf5617-2a8e-4b86-b9b4-9b049dde7593","system_id":"levelo_inurba_marseille","lat":43.32386,"lon":5.36568,"is_reserved":false,"is_disabled":false,"rental_uris":{"android":"levelo://app?vid=23cf5617-2a8e-4b86-b9b4-9b049dde7593","ios":"levelo://app?vid=23cf5617-2a8e-4b86-b9b4-9b049dde7593"},"vehicle_type_id":"4","last_reported":1762924327,"current_range_meters":16000,"station_id":"ce4bhs12rcd13ifvqhvg","pricing_plan_id":"cebpf4jnsgd1na2vs0mg"},{"bike_id":"baab0da5-392a-4f40-83dd-a8d997b612fe","system_id":"levelo_inurba_marseille","lat":43.29039,"lon":5.39971,"is_reserved":false,"is_disabled":false,"rental_uris":{"android":"levelo://app?vid=baab0da5-392a-4f40-83dd-a8d997b612fe","ios":"levelo://app?vid=baab0da5-392a-4f40-83dd-a8d997b612fe"},"vehicle_type_id":"4","last_reported":1762924327,"current_range_meters":16000,"station_id":"ce4bh392rcd13ifvqdm0","pricing_plan_id":"cebpf4jnsgd1na2vs0mg"},{"bike_id":"d6d9a3e0-e0aa-4aa2-bf84-1c4e64c5c8a2","system_id":"levelo_inurba_marseille","lat":43.25526,"lon":5.39091,"is_reserved":false,"is_disabled":false,"rental_uris":{"android":"levelo://app?vid=d6d9a3e0-e0aa-4aa2-bf84-1c4e64c5c8a2","ios":"levelo://app?vid=d6d9a3e0-e0aa-4aa2-bf84-1c4e64c5c8a2"},"vehicle_type_id":"4","last_reported":1762924327,"current_range_meters":16000,"station_id":"","pricing_plan_id":"cebpf4jnsgd1na2vs0mg"},{"bike_id":"6418340e-0d22-4824-ba95-f54271b6387f","system_id":"levelo_inurba_marseille","lat":43.28406,"lon":5.3752,"is_reserved":false,"is_disabled":false,"rental_uris":{"android":"levelo://app?vid=6418340e-0d22-4824-ba95-f54271b6387f","ios":"levelo://app?vid=6418340e-0d22-4824-ba95-f54271b6387f"},"vehicle_type_id":"4","last_reported":1762924327,"current_range_meters":16000,"station_id":"ce4bh412rcd13ifvqds0","pricing_plan_id":"cebpf4jnsgd1na2vs0mg"},{"bike_id":"1b0b7981-696f-4ec5-932c-764cd2899c70","system_id":"levelo_inurba_marseille","lat":43.284748,"lon":5.484032,"is_reserved":false,"is_disabled":false,"rental_uris":{"android":"levelo://app?vid=1b0b7981-696f-4ec5-932c-764cd2899c70","ios":"levelo://app?vid=1b0b7981-696f-4ec5-932c-764cd2899c70"},"vehicle_type_id":"4","last_reported":1762924327,"current_range_meters":16000,"station_id":"","pricing_plan_id":"cebpf4jnsgd1na2vs0mg"},{"bike_id":"aa92f8fc-bb53-4d39-a8dc-afd2c397bafe","system_id":"levelo_inurba_marseille","lat":43.2886,"lon":5.42529,"is_reserved":false,"is_disabled":false,"rental_uris":{"android":"levelo://app?vid=aa92f8fc-bb53-4d39-a8dc-afd2c397bafe","ios":"levelo://app?vid=aa92f8fc-bb53-4d39-a8dc-afd2c397bafe"},"vehicle_type_id":"4","last_reported":1762924327,"current_range_meters":16000,"station_id":"st_d3b462108ojc7389ooeg","pricing_plan_id":"cebpf4jnsgd1na2vs0mg"},{"bike_id":"7debdec4-db33-4dad-83bf-2f83639d0f53","system_id":"levelo_inurba_marseille","lat":43.249912,"lon":5.38943,"is_reserved":false,"is_disabled":false,"rental_uris":{"android":"levelo://app?vid=7debdec4-db33-4dad-83bf-2f83639d0f53","ios":"levelo://app?vid=7debdec4-db33-4dad-83bf-2f83639d0f53"},"vehicle_type_id":"4","last_reported":1762924327,"current_range_meters":16000,"station_id":"ce4bhgp2rcd13ifvqfd0","pricing_plan_id":"cebpf4jnsgd1na2vs0mg"},{"bike_id":"6494fb53-4b49-4fd6-a26d-ae632bd9104c","system_id":"levelo_inurba_marseille","lat":43.31358,"lon":5.37433,"is_reserved":false,"is_disabled":false,"rental_uris":{"android":"levelo://app?vid=6494fb53-4b49-4fd6-a26d-ae632bd9104c","ios":"levelo://app?vid=6494fb53-4b49-4fd6-a26d-ae632bd9104c"},"vehicle_type_id":"4","last_reported":1762924327,"current_range_meters":16400,"station_id":"","pricing_plan_id":"cebpf4jnsgd1na2vs0mg"},{"bike_id":"5e6e0c2c-5aff-425c-b9f5-69ee0b364303","system_id":"levelo_inurba_marseille","lat":43.23198,"lon":5.3555,"is_reserved":false,"is_disabled":false,"rental_uris":{"android":"levelo://app?vid=5e6e0c2c-5aff-425c-b9f5-69ee0b364303","ios":"levelo://app?vid=5e6e0c2c-5aff-425c-b9f5-69ee0b364303"},"vehicle_type_id":"4","last_reported":1762924327,"current_range_meters":16400,"station_id":"ce4bhu92rcd13ifvqi70","pricing_plan_id":"cebpf4jnsgd1na2vs0mg"},{"bike_id":"e3df63a1-f3d2-4d82-8bf6-df212c4e8b69","system_id":"levelo_inurba_marseille","lat":43.28476,"lon":5.483964,"is_reserved":false,"is_disabled":false,"rental_uris":{"android":"levelo://app?vid=e3df63a1-f3d2-4d82-8bf6-df212c4e8b69","ios":"levelo://app?vid=e3df63a1-f3d2-4d82-8bf6-df212c4e8b69"},"vehicle_type_id":"4","last_reported":1762924327,"current_range_meters":16400,"station_id":"st_d3svhcjqgbts73a3dn0g","pricing_plan_id":"cebpf4jnsgd1na2vs0mg"},{"bike_id":"68d1e22a-dbd7-4fcb-9c88-fac686cf775e","system_id":"levelo_inurba_marseille","lat":43.33766,"lon":5.37481,"is_reserved":false,"is_disabled":false,"rental_uris":{"android":"levelo://app?vid=68d1e22a-dbd7-4fcb-9c88-fac686cf775e","ios":"levelo://app?vid=68d1e22a-dbd7-4fcb-9c88-fac686cf775e"},"vehicle_type_id":"4","last_reported":1762924327,"current_range_meters":16400,"station_id":"","pricing_plan_id":"cebpf4jnsgd1na2vs0mg"},{"bike_id":"0528378f-1b50-41df-b328-6686306ee922","system_id":"levelo_inurba_marseille","lat":43.21626,"lon":5.34444,"is_reserved":false,"is_disabled":false,"rental_uris":{"android":"levelo://app?vid=0528378f-1b50-41df-b328-6686306ee922","ios":"levelo://app?vid=0528378f-1b50-41df-b328-6686306ee922"},"vehicle_type_id":"4","last_reported":1762924327,"current_range_meters":16400,"station_id":"","pricing_plan_id":"cebpf4jnsgd1na2vs0mg"},{"bike_id":"4a75a27c-50de-4bbd-a626-fc1051103d57","system_id":"levelo_inurba_marseille","lat":43.23192,"lon":5.3555,"is_reserved":false,"is_disabled":false,"rental_uris":{"android":"levelo://app?vid=4a75a27c-50de-4bbd-a626-fc1051103d57","ios":"levelo://app?vid=4a75a27c-50de-4bbd-a626-fc1051103d57"},"vehicle_type_id":"4","last_reported":1762924327,"current_range_meters":16400,"station_id":"ce4bhu92rcd13ifvqi70","pricing_plan_id":"cebpf4jnsgd1na2vs0mg"},{"bike_id":"7f40f0c5-ec52-4f82-a8ba-51ca788fb557","system_id":"levelo_inurba_marseille","lat":43.30883,"lon":5.39629,"is_reserved":false,"is_disabled":false,"rental_uris":{"android":"levelo://app?vid=7f40f0c5-ec52-4f82-a8ba-51ca788fb557","ios":"levelo://app?vid=7f40f0c5-ec52-4f82-a8ba-51ca788fb557"},"vehicle_type_id":"4","last_reported":1762924327,"current_range_meters":16400,"station_id":"ce4bh012rcd13ifvqcv0","pricing_plan_id":"cebpf4jnsgd1na2vs0mg"},{"bike_id":"a38b499d-f66f-4f43-bcf5-7ca9af21ec79","system_id":"levelo_inurba_marseille","lat":43.281501,"lon":5.426584,"is_reserved":false,"is_disabled":false,"rental_uris":{"android":"levelo://app?vid=a38b499d-f66f-4f43-bcf5-7ca9af21ec79","ios":"levelo://app?vid=a38b499d-f66f-4f43-bcf5-7ca9af21ec79"},"vehicle_type_id":"4","last_reported":1762924327,"current_range_meters":16400,"station_id":"ce4bhnh2rcd13ifvqgug","pricing_plan_id":"cebpf4jnsgd1na2vs0mg"},{"bike_id":"7cd3fc91-8b4e-4cc9-a97a-8aec9cd4160c","system_id":"levelo_inurba_marseille","lat":43.29857,"lon":5.37238,"is_reserved":false,"is_disabled":true,"rental_uris":{"android":"levelo://app?vid=7cd3fc91-8b4e-4cc9-a97a-8aec9cd4160c","ios":"levelo://app?vid=7cd3fc91-8b4e-4cc9-a97a-8aec9cd4160c"},"vehicle_type_id":"4","last_reported":1762924327,"current_range_meters":16800,"station_id":"","pricing_plan_id":"cebpf4jnsgd1na2vs0mg"},{"bike_id":"84026268-d7e2-40d8-8c7f-b2e30263873c","system_id":"levelo_inurba_marseille","lat":43.229369,"lon":5.353815,"is_reserved":false,"is_disabled":false,"rental_uris":{"android":"levelo://app?vid=84026268-d7e2-40d8-8c7f-b2e30263873c","ios":"levelo://app?vid=84026268-d7e2-40d8-8c7f-b2e30263873c"},"vehicle_type_id":"4","last_reported":1762924327,"current_range_meters":16800,"station_id":"cpo3532slgdg3j2ikp40","pricing_plan_id":"cebpf4jnsgd1na2vs0mg"},{"bike_id":"c87d49cf-734d-463f-aad1-fad6864686cb","system_id":"levelo_inurba_marseille","lat":43.30694,"lon":5.42242,"is_reserved":false,"is_disabled":false,"rental_uris":{"android":"levelo://app?vid=c87d49cf-734d-463f-aad1-fad6864686cb","ios":"levelo://app?vid=c87d49cf-734d-463f-aad1-fad6864686cb"},"vehicle_type_id":"4","last_reported":1762924327,"current_range_meters":16800,"station_id":"","pricing_plan_id":"cebpf4jnsgd1na2vs0mg"},{"bike_id":"817e1ddc-4799-4955-9571-85f7e8edbdf0","system_id":"levelo_inurba_marseille","lat":43.28478,"lon":5.38428,"is_reserved":false,"is_disabled":true,"rental_uris":{"android":"levelo://app?vid=817e1ddc-4799-4955-9571-85f7e8edbdf0","ios":"levelo://app?vid=817e1ddc-4799-4955-9571-85f7e8edbdf0"},"vehicle_type_id":"4","last_reported":1762924327,"current_range_meters":16800,"station_id":"ce4bh512rcd13ifvqe3g","pricing_plan_id":"cebpf4jnsgd1na2vs0mg"},{"bike_id":"0e1ba582-c06a-482f-b7d0-001c3f3645ce","system_id":"levelo_inurba_marseille","lat":43.31396,"lon":5.38552,"is_reserved":false,"is_disabled":false,"rental_uris":{"android":"levelo://app?vid=0e1ba582-c06a-482f-b7d0-001c3f3645ce","ios":"levelo://app?vid=0e1ba582-c06a-482f-b7d0-001c3f3645ce"},"vehicle_type_id":"4","last_reported":1762924327,"current_range_meters":16800,"station_id":"","pricing_plan_id":"cebpf4jnsgd1na2vs0mg"},{"bike_id":"8a264842-acec-45d9-8dfe-f699ee96e35e","system_id":"levelo_inurba_marseille","lat":43.28851,"lon":5.39332,"is_reserved":false,"is_disabled":false,"rental_uris":{"android":"levelo://app?vid=8a264842-acec-45d9-8dfe-f699ee96e35e","ios":"levelo://app?vid=8a264842-acec-45d9-8dfe-f699ee96e35e"},"vehicle_type_id":"4","last_reported":1762924327,"current_range_meters":16800,"station_id":"ce4bh2p2rcd13ifvqdi0","pricing_plan_id":"cebpf4jnsgd1na2vs0mg"},{"bike_id":"47b1f308-123a-4f3d-bd00-7930ede1c782","system_id":"levelo_inurba_marseille","lat":43.25444,"lon":5.4186,"is_reserved":false,"is_disabled":false,"rental_uris":{"android":"levelo://app?vid=47b1f308-123a-4f3d-bd00-7930ede1c782","ios":"levelo://app?vid=47b1f308-123a-4f3d-bd00-7930ede1c782"},"vehicle_type_id":"4","last_reported":1762924327,"current_range_meters":16800,"station_id":"","pricing_plan_id":"cebpf4jnsgd1na2vs0mg"},{"bike_id":"6c4d02e5-bce9-45af-8446-e07b99ad5b76","system_id":"levelo_inurba_marseille","lat":43.290224,"lon":5.357428,"is_reserved":false,"is_disabled":false,"rental_uris":{"android":"levelo://app?vid=6c4d02e5-bce9-45af-8446-e07b99ad5b76","ios":"levelo://app?vid=6c4d02e5-bce9-45af-8446-e07b99ad5b76"},"vehicle_type_id":"4","last_reported":1762924327,"current_range_meters":16800,"station_id":"","pricing_plan_id":"cebpf4jnsgd1na2vs0mg"},{"bike_id":"52d4b8ef-bd3b-4594-9933-6de587b7e338","system_id":"levelo_inurba_marseille","lat":43.22922,"lon":5.35383,"is_reserved":false,"is_disabled":false,"rental_uris":{"android":"levelo://app?vid=52d4b8ef-bd3b-4594-9933-6de587b7e338","ios":"levelo://app?vid=52d4b8ef-bd3b-4594-9933-6de587b7e338"},"vehicle_type_id":"4","last_reported":1762924327,"current_range_meters":17200,"station_id":"cpo3532slgdg3j2ikp40","pricing_plan_id":"cebpf4jnsgd1na2vs0mg"},{"bike_id":"9f77fce6-b576-455d-a43d-b1e175676c28","system_id":"levelo_inurba_marseille","lat":43.33773,"lon":5.37473,"is_reserved":false,"is_disabled":false,"rental_uris":{"android":"levelo://app?vid=9f77fce6-b576-455d-a43d-b1e175676c28","ios":"levelo://app?vid=9f77fce6-b576-455d-a43d-b1e175676c28"},"vehicle_type_id":"4","last_reported":1762924327,"current_range_meters":17200,"station_id":"","pricing_plan_id":"cebpf4jnsgd1na2vs0mg"},{"bike_id":"1a76271a-206d-4efb-a82f-6a45ff76d141","system_id":"levelo_inurba_marseille","lat":43.28943,"lon":5.36626,"is_reserved":false,"is_disabled":false,"rental_uris":{"android":"levelo://app?vid=1a76271a-206d-4efb-a82f-6a45ff76d141","ios":"levelo://app?vid=1a76271a-206d-4efb-a82f-6a45ff76d141"},"vehicle_type_id":"4","last_reported":1762924327,"current_range_meters":17200,"station_id":"ce4bhap2rcd13ifvqek0","pricing_plan_id":"cebpf4jnsgd1na2vs0mg"},{"bike_id":"a26712ac-c4dc-4d7c-9767-877ec57b4780","system_id":"levelo_inurba_marseille","lat":43.284711,"lon":5.483888,"is_reserved":false,"is_disabled":false,"rental_uris":{"android":"levelo://app?vid=a26712ac-c4dc-4d7c-9767-877ec57b4780","ios":"levelo://app?vid=a26712ac-c4dc-4d7c-9767-877ec57b4780"},"vehicle_type_id":"4","last_reported":1762924327,"current_range_meters":17600,"station_id":"st_d3svhcjqgbts73a3dn0g","pricing_plan_id":"cebpf4jnsgd1na2vs0mg"},{"bike_id":"1311277f-41a2-4543-bc88-f88bfa762d06","system_id":"levelo_inurba_marseille","lat":43.28691,"lon":5.38663,"is_reserved":false,"is_disabled":true,"rental_uris":{"android":"levelo://app?vid=1311277f-41a2-4543-bc88-f88bfa762d06","ios":"levelo://app?vid=1311277f-41a2-4543-bc88-f88bfa762d06"},"vehicle_type_id":"4","last_reported":1762924327,"current_range_meters":17600,"station_id":"ce4bh492rcd13ifvqdug","pricing_plan_id":"cebpf4jnsgd1na2vs0mg"},{"bike_id":"c7d9ee95-73c7-4e9e-aef3-4257a63a45b2","system_id":"levelo_inurba_marseille","lat":43.307767,"lon":5.376553,"is_reserved":false,"is_disabled":false,"rental_uris":{"android":"levelo://app?vid=c7d9ee95-73c7-4e9e-aef3-4257a63a45b2","ios":"levelo://app?vid=c7d9ee95-73c7-4e9e-aef3-4257a63a45b2"},"vehicle_type_id":"4","last_reported":1762924327,"current_range_meters":17600,"station_id":"ce4bgv92rcd13ifvqcq0","pricing_plan_id":"cebpf4jnsgd1na2vs0mg"},{"bike_id":"6a2a954a-cce3-46cf-91b6-a3c187b22336","system_id":"levelo_inurba_marseille","lat":43.307827,"lon":5.376536,"is_reserved":false,"is_disabled":false,"rental_uris":{"android":"levelo://app?vid=6a2a954a-cce3-46cf-91b6-a3c187b22336","ios":"levelo://app?vid=6a2a954a-cce3-46cf-91b6-a3c187b22336"},"vehicle_type_id":"4","last_reported":1762924327,"current_range_meters":17600,"station_id":"ce4bgv92rcd13ifvqcq0","pricing_plan_id":"cebpf4jnsgd1na2vs0mg"},{"bike_id":"3fd9b22f-a0b8-4b31-ad15-b09a20f659ac","system_id":"levelo_inurba_marseille","lat":43.30419,"lon":5.39751,"is_reserved":false,"is_disabled":false,"rental_uris":{"android":"levelo://app?vid=3fd9b22f-a0b8-4b31-ad15-b09a20f659ac","ios":"levelo://app?vid=3fd9b22f-a0b8-4b31-ad15-b09a20f659ac"},"vehicle_type_id":"4","last_reported":1762924327,"current_range_meters":17600,"station_id":"ce4bh092rcd13ifvqd20","pricing_plan_id":"cebpf4jnsgd1na2vs0mg"},{"bike_id":"9118f964-a8cb-4c4f-aba9-39fe9ebf1443","system_id":"levelo_inurba_marseille","lat":43.30144,"lon":5.38799,"is_reserved":false,"is_disabled":false,"rental_uris":{"android":"levelo://app?vid=9118f964-a8cb-4c4f-aba9-39fe9ebf1443","ios":"levelo://app?vid=9118f964-a8cb-4c4f-aba9-39fe9ebf1443"},"vehicle_type_id":"4","last_reported":1762924327,"current_range_meters":17600,"station_id":"ce4bghh2rcd13ifvqb60","pricing_plan_id":"cebpf4jnsgd1na2vs0mg"},{"bike_id":"0d1a1fe5-cf19-43f0-b2e2-12612db29a2a","system_id":"levelo_inurba_marseille","lat":43.28897,"lon":5.36109,"is_reserved":false,"is_disabled":false,"rental_uris":{"android":"levelo://app?vid=0d1a1fe5-cf19-43f0-b2e2-12612db29a2a","ios":"levelo://app?vid=0d1a1fe5-cf19-43f0-b2e2-12612db29a2a"},"vehicle_type_id":"4","last_reported":1762924327,"current_range_meters":18000,"station_id":"","pricing_plan_id":"cebpf4jnsgd1na2vs0mg"},{"bike_id":"837a4499-0ecf-4b22-b9be-aca5adaa63e5","system_id":"levelo_inurba_marseille","lat":43.27203,"lon":5.40964,"is_reserved":false,"is_disabled":true,"rental_uris":{"android":"levelo://app?vid=837a4499-0ecf-4b22-b9be-aca5adaa63e5","ios":"levelo://app?vid=837a4499-0ecf-4b22-b9be-aca5adaa63e5"},"vehicle_type_id":"4","last_reported":1762924327,"current_range_meters":18000,"station_id":"ce4bhl12rcd13ifvqgf0","pricing_plan_id":"cebpf4jnsgd1na2vs0mg"},{"bike_id":"3aa20850-90c8-48fd-9c84-6aceb82b4454","system_id":"levelo_inurba_marseille","lat":43.30775,"lon":5.37669,"is_reserved":false,"is_disabled":false,"rental_uris":{"android":"levelo://app?vid=3aa20850-90c8-48fd-9c84-6aceb82b4454","ios":"levelo://app?vid=3aa20850-90c8-48fd-9c84-6aceb82b4454"},"vehicle_type_id":"4","last_reported":1762924327,"current_range_meters":18000,"station_id":"ce4bgv92rcd13ifvqcq0","pricing_plan_id":"cebpf4jnsgd1na2vs0mg"},{"bike_id":"40bb8158-5ccf-4ce6-b2d1-22554fb9efba","system_id":"levelo_inurba_marseille","lat":43.25086,"lon":5.39502,"is_reserved":false,"is_disabled":false,"rental_uris":{"android":"levelo://app?vid=40bb8158-5ccf-4ce6-b2d1-22554fb9efba","ios":"levelo://app?vid=40bb8158-5ccf-4ce6-b2d1-22554fb9efba"},"vehicle_type_id":"4","last_reported":1762924327,"current_range_meters":18000,"station_id":"ce4bhm12rcd13ifvqgkg","pricing_plan_id":"cebpf4jnsgd1na2vs0mg"},{"bike_id":"65a4abe7-288e-4d53-9a3a-9c7ef2e7d4a6","system_id":"levelo_inurba_marseille","lat":43.281542,"lon":5.426412,"is_reserved":false,"is_disabled":false,"rental_uris":{"android":"levelo://app?vid=65a4abe7-288e-4d53-9a3a-9c7ef2e7d4a6","ios":"levelo://app?vid=65a4abe7-288e-4d53-9a3a-9c7ef2e7d4a6"},"vehicle_type_id":"4","last_reported":1762924327,"current_range_meters":18000,"station_id":"ce4bhnh2rcd13ifvqgug","pricing_plan_id":"cebpf4jnsgd1na2vs0mg"},{"bike_id":"4dc51680-cd9a-4415-8ec0-481aee339c68","system_id":"levelo_inurba_marseille","lat":43.27859,"lon":5.40685,"is_reserved":false,"is_disabled":false,"rental_uris":{"android":"levelo://app?vid=4dc51680-cd9a-4415-8ec0-481aee339c68","ios":"levelo://app?vid=4dc51680-cd9a-4415-8ec0-481aee339c68"},"vehicle_type_id":"4","last_reported":1762924327,"current_range_meters":18000,"station_id":"","pricing_plan_id":"cebpf4jnsgd1na2vs0mg"},{"bike_id":"a76ed384-8adb-4855-8ea9-608b64e9d92b","system_id":"levelo_inurba_marseille","lat":43.32287,"lon":5.3695,"is_reserved":false,"is_disabled":false,"rental_uris":{"android":"levelo://app?vid=a76ed384-8adb-4855-8ea9-608b64e9d92b","ios":"levelo://app?vid=a76ed384-8adb-4855-8ea9-608b64e9d92b"},"vehicle_type_id":"4","last_reported":1762924327,"current_range_meters":18000,"station_id":"","pricing_plan_id":"cebpf4jnsgd1na2vs0mg"},{"bike_id":"6faca5e0-f5f3-4419-a7e2-34fda1621326","system_id":"levelo_inurba_marseille","lat":43.21189,"lon":5.35075,"is_reserved":false,"is_disabled":true,"rental_uris":{"android":"levelo://app?vid=6faca5e0-f5f3-4419-a7e2-34fda1621326","ios":"levelo://app?vid=6faca5e0-f5f3-4419-a7e2-34fda1621326"},"vehicle_type_id":"4","last_reported":1762924327,"current_range_meters":18000,"station_id":"st_cvj6sg6p6f1abm77japg","pricing_plan_id":"cebpf4jnsgd1na2vs0mg"},{"bike_id":"801e6308-ea8b-4cb8-9fe9-7b54d1f4c2ef","system_id":"levelo_inurba_marseille","lat":43.25075,"lon":5.39523,"is_reserved":false,"is_disabled":false,"rental_uris":{"android":"levelo://app?vid=801e6308-ea8b-4cb8-9fe9-7b54d1f4c2ef","ios":"levelo://app?vid=801e6308-ea8b-4cb8-9fe9-7b54d1f4c2ef"},"vehicle_type_id":"4","last_reported":1762924327,"current_range_meters":18000,"station_id":"ce4bhm12rcd13ifvqgkg","pricing_plan_id":"cebpf4jnsgd1na2vs0mg"},{"bike_id":"01571923-980e-446a-ba2d-4d18a11dfcdd","system_id":"levelo_inurba_marseille","lat":43.248002,"lon":5.374499,"is_reserved":false,"is_disabled":false,"rental_uris":{"android":"levelo://app?vid=01571923-980e-446a-ba2d-4d18a11dfcdd","ios":"levelo://app?vid=01571923-980e-446a-ba2d-4d18a11dfcdd"},"vehicle_type_id":"4","last_reported":1762924327,"current_range_meters":18800,"station_id":"ce4bhgh2rcd13ifvqfb0","pricing_plan_id":"cebpf4jnsgd1na2vs0mg"},{"bike_id":"316e9176-1dea-447e-8619-699d401755c0","system_id":"levelo_inurba_marseille","lat":43.27587,"lon":5.36136,"is_reserved":false,"is_disabled":true,"rental_uris":{"android":"levelo://app?vid=316e9176-1dea-447e-8619-699d401755c0","ios":"levelo://app?vid=316e9176-1dea-447e-8619-699d401755c0"},"vehicle_type_id":"4","last_reported":1762924327,"current_range_meters":18800,"station_id":"ce4bgj92rcd13ifvqbe0","pricing_plan_id":"cebpf4jnsgd1na2vs0mg"},{"bike_id":"ce0ce839-db9a-4918-b5a5-e5936f70ce7b","system_id":"levelo_inurba_marseille","lat":43.28388,"lon":5.3752,"is_reserved":false,"is_disabled":false,"rental_uris":{"android":"levelo://app?vid=ce0ce839-db9a-4918-b5a5-e5936f70ce7b","ios":"levelo://app?vid=ce0ce839-db9a-4918-b5a5-e5936f70ce7b"},"vehicle_type_id":"4","last_reported":1762924327,"current_range_meters":18800,"station_id":"ce4bh412rcd13ifvqds0","pricing_plan_id":"cebpf4jnsgd1na2vs0mg"},{"bike_id":"6e2caa74-d1f5-4152-855d-e673413d500d","system_id":"levelo_inurba_marseille","lat":43.24422,"lon":5.37043,"is_reserved":false,"is_disabled":false,"rental_uris":{"android":"levelo://app?vid=6e2caa74-d1f5-4152-855d-e673413d500d","ios":"levelo://app?vid=6e2caa74-d1f5-4152-855d-e673413d500d"},"vehicle_type_id":"4","last_reported":1762924327,"current_range_meters":18800,"station_id":"ce4bhhh2rcd13ifvqfk0","pricing_plan_id":"cebpf4jnsgd1na2vs0mg"},{"bike_id":"98d9ed27-1c51-4232-bb05-142a9e7f98db","system_id":"levelo_inurba_marseille","lat":43.31077,"lon":5.38348,"is_reserved":false,"is_disabled":true,"rental_uris":{"android":"levelo://app?vid=98d9ed27-1c51-4232-bb05-142a9e7f98db","ios":"levelo://app?vid=98d9ed27-1c51-4232-bb05-142a9e7f98db"},"vehicle_type_id":"4","last_reported":1762924327,"current_range_meters":18800,"station_id":"ce4bgv92rcd13ifvqcr0","pricing_plan_id":"cebpf4jnsgd1na2vs0mg"},{"bike_id":"62311722-31da-4cce-bff7-23a7462a8611","system_id":"levelo_inurba_marseille","lat":43.22933,"lon":5.35378,"is_reserved":false,"is_disabled":false,"rental_uris":{"android":"levelo://app?vid=62311722-31da-4cce-bff7-23a7462a8611","ios":"levelo://app?vid=62311722-31da-4cce-bff7-23a7462a8611"},"vehicle_type_id":"4","last_reported":1762924327,"current_range_meters":18800,"station_id":"cpo3532slgdg3j2ikp40","pricing_plan_id":"cebpf4jnsgd1na2vs0mg"},{"bike_id":"1f10aa07-17b5-420e-b6f2-b695d3cbb769","system_id":"levelo_inurba_marseille","lat":43.306013,"lon":5.393659,"is_reserved":false,"is_disabled":true,"rental_uris":{"android":"levelo://app?vid=1f10aa07-17b5-420e-b6f2-b695d3cbb769","ios":"levelo://app?vid=1f10aa07-17b5-420e-b6f2-b695d3cbb769"},"vehicle_type_id":"4","last_reported":1762924327,"current_range_meters":19200,"station_id":"ce4bh0p2rcd13ifvqd80","pricing_plan_id":"cebpf4jnsgd1na2vs0mg"},{"bike_id":"87370960-bdef-4a5a-ad06-af6cb8055d88","system_id":"levelo_inurba_marseille","lat":43.27061,"lon":5.40257,"is_reserved":false,"is_disabled":false,"rental_uris":{"android":"levelo://app?vid=87370960-bdef-4a5a-ad06-af6cb8055d88","ios":"levelo://app?vid=87370960-bdef-4a5a-ad06-af6cb8055d88"},"vehicle_type_id":"4","last_reported":1762924327,"current_range_meters":19200,"station_id":"ce4bhk92rcd13ifvqgc0","pricing_plan_id":"cebpf4jnsgd1na2vs0mg"},{"bike_id":"db31d365-8eae-48a5-8f63-89e1adb35276","system_id":"levelo_inurba_marseille","lat":43.27849,"lon":5.40708,"is_reserved":false,"is_disabled":false,"rental_uris":{"android":"levelo://app?vid=db31d365-8eae-48a5-8f63-89e1adb35276","ios":"levelo://app?vid=db31d365-8eae-48a5-8f63-89e1adb35276"},"vehicle_type_id":"4","last_reported":1762924327,"current_range_meters":19200,"station_id":"ce4bhnh2rcd13ifvqgtg","pricing_plan_id":"cebpf4jnsgd1na2vs0mg"},{"bike_id":"23f9c78c-ca0a-48be-8a9d-156c748920c2","system_id":"levelo_inurba_marseille","lat":43.27925,"lon":5.41042,"is_reserved":false,"is_disabled":false,"rental_uris":{"android":"levelo://app?vid=23f9c78c-ca0a-48be-8a9d-156c748920c2","ios":"levelo://app?vid=23f9c78c-ca0a-48be-8a9d-156c748920c2"},"vehicle_type_id":"4","last_reported":1762924327,"current_range_meters":19200,"station_id":"ce4bhnp2rcd13ifvqh0g","pricing_plan_id":"cebpf4jnsgd1na2vs0mg"},{"bike_id":"b555f445-c0c6-4cd4-898e-fc42738ad47a","system_id":"levelo_inurba_marseille","lat":43.284726,"lon":5.358989,"is_reserved":false,"is_disabled":false,"rental_uris":{"android":"levelo://app?vid=b555f445-c0c6-4cd4-898e-fc42738ad47a","ios":"levelo://app?vid=b555f445-c0c6-4cd4-898e-fc42738ad47a"},"vehicle_type_id":"4","last_reported":1762924327,"current_range_meters":19200,"station_id":"ce4bhah2rcd13ifvqei0","pricing_plan_id":"cebpf4jnsgd1na2vs0mg"},{"bike_id":"b3d16a6d-0471-48a5-8737-66b518d20806","system_id":"levelo_inurba_marseille","lat":43.274268,"lon":5.394143,"is_reserved":false,"is_disabled":false,"rental_uris":{"android":"levelo://app?vid=b3d16a6d-0471-48a5-8737-66b518d20806","ios":"levelo://app?vid=b3d16a6d-0471-48a5-8737-66b518d20806"},"vehicle_type_id":"4","last_reported":1762924327,"current_range_meters":19200,"station_id":"ce4bhdp2rcd13ifvqf20","pricing_plan_id":"cebpf4jnsgd1na2vs0mg"},{"bike_id":"ce4fd53c-a4b3-4645-8462-8207b946f75f","system_id":"levelo_inurba_marseille","lat":43.28722,"lon":5.39966,"is_reserved":false,"is_disabled":false,"rental_uris":{"android":"levelo://app?vid=ce4fd53c-a4b3-4645-8462-8207b946f75f","ios":"levelo://app?vid=ce4fd53c-a4b3-4645-8462-8207b946f75f"},"vehicle_type_id":"4","last_reported":1762924327,"current_range_meters":19200,"station_id":"ce4bho92rcd13ifvqh3g","pricing_plan_id":"cebpf4jnsgd1na2vs0mg"},{"bike_id":"04e35545-e91e-4e18-97e4-9bc9c8ec3ba0","system_id":"levelo_inurba_marseille","lat":43.30308,"lon":5.39213,"is_reserved":false,"is_disabled":false,"rental_uris":{"android":"levelo://app?vid=04e35545-e91e-4e18-97e4-9bc9c8ec3ba0","ios":"levelo://app?vid=04e35545-e91e-4e18-97e4-9bc9c8ec3ba0"},"vehicle_type_id":"4","last_reported":1762924327,"current_range_meters":19200,"station_id":"ce4bgkh2rcd13ifvqbk0","pricing_plan_id":"cebpf4jnsgd1na2vs0mg"},{"bike_id":"97322d8c-d38c-47c3-850d-0d18a05c18c9","system_id":"levelo_inurba_marseille","lat":43.30916,"lon":5.40147,"is_reserved":false,"is_disabled":false,"rental_uris":{"android":"levelo://app?vid=97322d8c-d38c-47c3-850d-0d18a05c18c9","ios":"levelo://app?vid=97322d8c-d38c-47c3-850d-0d18a05c18c9"},"vehicle_type_id":"4","last_reported":1762924327,"current_range_meters":19200,"station_id":"ce4bgvp2rcd13ifvqct0","pricing_plan_id":"cebpf4jnsgd1na2vs0mg"},{"bike_id":"21388149-3190-4ece-8988-09eff4e78e6e","system_id":"levelo_inurba_marseille","lat":43.29537,"lon":5.37506,"is_reserved":false,"is_disabled":true,"rental_uris":{"android":"levelo://app?vid=21388149-3190-4ece-8988-09eff4e78e6e","ios":"levelo://app?vid=21388149-3190-4ece-8988-09eff4e78e6e"},"vehicle_type_id":"4","last_reported":1762924327,"current_range_meters":19200,"station_id":"ce4bgkp2rcd13ifvqbmg","pricing_plan_id":"cebpf4jnsgd1na2vs0mg"},{"bike_id":"bd350635-2c8b-4bd9-923c-6c95d0ed5e32","system_id":"levelo_inurba_marseille","lat":43.31981,"lon":5.38127,"is_reserved":false,"is_disabled":false,"rental_uris":{"android":"levelo://app?vid=bd350635-2c8b-4bd9-923c-6c95d0ed5e32","ios":"levelo://app?vid=bd350635-2c8b-4bd9-923c-6c95d0ed5e32"},"vehicle_type_id":"4","last_reported":1762924327,"current_range_meters":19600,"station_id":"ce4bhr12rcd13ifvqhpg","pricing_plan_id":"cebpf4jnsgd1na2vs0mg"},{"bike_id":"bde68cd8-1b25-4aa4-afd9-6cc910e106d2","system_id":"levelo_inurba_marseille","lat":43.3376,"lon":5.37451,"is_reserved":false,"is_disabled":false,"rental_uris":{"android":"levelo://app?vid=bde68cd8-1b25-4aa4-afd9-6cc910e106d2","ios":"levelo://app?vid=bde68cd8-1b25-4aa4-afd9-6cc910e106d2"},"vehicle_type_id":"4","last_reported":1762924327,"current_range_meters":19600,"station_id":"","pricing_plan_id":"cebpf4jnsgd1na2vs0mg"},{"bike_id":"c317c916-e826-46b4-b006-c0ea66f4f629","system_id":"levelo_inurba_marseille","lat":43.26776,"lon":5.39414,"is_reserved":false,"is_disabled":false,"rental_uris":{"android":"levelo://app?vid=c317c916-e826-46b4-b006-c0ea66f4f629","ios":"levelo://app?vid=c317c916-e826-46b4-b006-c0ea66f4f629"},"vehicle_type_id":"4","last_reported":1762924327,"current_range_meters":19600,"station_id":"ce4bhh12rcd13ifvqfg0","pricing_plan_id":"cebpf4jnsgd1na2vs0mg"},{"bike_id":"feba1818-bd8b-4490-b819-a63599738f3b","system_id":"levelo_inurba_marseille","lat":43.303041,"lon":5.368985,"is_reserved":false,"is_disabled":false,"rental_uris":{"android":"levelo://app?vid=feba1818-bd8b-4490-b819-a63599738f3b","ios":"levelo://app?vid=feba1818-bd8b-4490-b819-a63599738f3b"},"vehicle_type_id":"4","last_reported":1762924327,"current_range_meters":19600,"station_id":"ce4bgqh2rcd13ifvqc5g","pricing_plan_id":"cebpf4jnsgd1na2vs0mg"},{"bike_id":"58be8180-967b-40b9-b299-90937a7eea47","system_id":"levelo_inurba_marseille","lat":43.28532,"lon":5.44114,"is_reserved":false,"is_disabled":false,"rental_uris":{"android":"levelo://app?vid=58be8180-967b-40b9-b299-90937a7eea47","ios":"levelo://app?vid=58be8180-967b-40b9-b299-90937a7eea47"},"vehicle_type_id":"4","last_reported":1762924327,"current_range_meters":19600,"station_id":"st_d3j3df2ikq2c7380ej80","pricing_plan_id":"cebpf4jnsgd1na2vs0mg"},{"bike_id":"d6c318ec-de00-4180-a017-0a717b75d8da","system_id":"levelo_inurba_marseille","lat":43.24065,"lon":5.37749,"is_reserved":false,"is_disabled":false,"rental_uris":{"android":"levelo://app?vid=d6c318ec-de00-4180-a017-0a717b75d8da","ios":"levelo://app?vid=d6c318ec-de00-4180-a017-0a717b75d8da"},"vehicle_type_id":"4","last_reported":1762924327,"current_range_meters":19600,"station_id":"ce4bhnp2rcd13ifvqgvg","pricing_plan_id":"cebpf4jnsgd1na2vs0mg"},{"bike_id":"5faed28a-3f08-4f6d-a110-44bb484ac71b","system_id":"levelo_inurba_marseille","lat":43.25868,"lon":5.39916,"is_reserved":false,"is_disabled":true,"rental_uris":{"android":"levelo://app?vid=5faed28a-3f08-4f6d-a110-44bb484ac71b","ios":"levelo://app?vid=5faed28a-3f08-4f6d-a110-44bb484ac71b"},"vehicle_type_id":"4","last_reported":1762924327,"current_range_meters":19600,"station_id":"ce4bhl92rcd13ifvqghg","pricing_plan_id":"cebpf4jnsgd1na2vs0mg"},{"bike_id":"9f257429-210e-4187-b310-fa3b4c5c3978","system_id":"levelo_inurba_marseille","lat":43.273365,"lon":5.401412,"is_reserved":false,"is_disabled":false,"rental_uris":{"android":"levelo://app?vid=9f257429-210e-4187-b310-fa3b4c5c3978","ios":"levelo://app?vid=9f257429-210e-4187-b310-fa3b4c5c3978"},"vehicle_type_id":"4","last_reported":1762924327,"current_range_meters":19600,"station_id":"","pricing_plan_id":"cebpf4jnsgd1na2vs0mg"},{"bike_id":"4f27c235-11df-4df2-bfdf-8938c3d9c6ba","system_id":"levelo_inurba_marseille","lat":43.337808,"lon":5.374263,"is_reserved":false,"is_disabled":false,"rental_uris":{"android":"levelo://app?vid=4f27c235-11df-4df2-bfdf-8938c3d9c6ba","ios":"levelo://app?vid=4f27c235-11df-4df2-bfdf-8938c3d9c6ba"},"vehicle_type_id":"4","last_reported":1762924327,"current_range_meters":19600,"station_id":"","pricing_plan_id":"cebpf4jnsgd1na2vs0mg"},{"bike_id":"de48a6c2-3627-4fa9-afdb-334f4768cff6","system_id":"levelo_inurba_marseille","lat":43.28409,"lon":5.37533,"is_reserved":false,"is_disabled":false,"rental_uris":{"android":"levelo://app?vid=de48a6c2-3627-4fa9-afdb-334f4768cff6","ios":"levelo://app?vid=de48a6c2-3627-4fa9-afdb-334f4768cff6"},"vehicle_type_id":"4","last_reported":1762924327,"current_range_meters":19600,"station_id":"ce4bh412rcd13ifvqds0","pricing_plan_id":"cebpf4jnsgd1na2vs0mg"},{"bike_id":"1cb7c144-5f68-408d-ac57-9c968a313e05","system_id":"levelo_inurba_marseille","lat":43.28385,"lon":5.3753,"is_reserved":false,"is_disabled":false,"rental_uris":{"android":"levelo://app?vid=1cb7c144-5f68-408d-ac57-9c968a313e05","ios":"levelo://app?vid=1cb7c144-5f68-408d-ac57-9c968a313e05"},"vehicle_type_id":"4","last_reported":1762924327,"current_range_meters":19600,"station_id":"ce4bh412rcd13ifvqds0","pricing_plan_id":"cebpf4jnsgd1na2vs0mg"},{"bike_id":"21a1c427-8a44-4cdc-bdc4-820ecb76f74b","system_id":"levelo_inurba_marseille","lat":43.3088,"lon":5.39643,"is_reserved":false,"is_disabled":false,"rental_uris":{"android":"levelo://app?vid=21a1c427-8a44-4cdc-bdc4-820ecb76f74b","ios":"levelo://app?vid=21a1c427-8a44-4cdc-bdc4-820ecb76f74b"},"vehicle_type_id":"4","last_reported":1762924327,"current_range_meters":20000,"station_id":"ce4bh012rcd13ifvqcv0","pricing_plan_id":"cebpf4jnsgd1na2vs0mg"},{"bike_id":"ab2a6561-261b-442a-9ee5-f70c8b9beef9","system_id":"levelo_inurba_marseille","lat":43.26198,"lon":5.40441,"is_reserved":false,"is_disabled":false,"rental_uris":{"android":"levelo://app?vid=ab2a6561-261b-442a-9ee5-f70c8b9beef9","ios":"levelo://app?vid=ab2a6561-261b-442a-9ee5-f70c8b9beef9"},"vehicle_type_id":"4","last_reported":1762924327,"current_range_meters":20000,"station_id":"ce4bhmh2rcd13ifvqgmg","pricing_plan_id":"cebpf4jnsgd1na2vs0mg"},{"bike_id":"69ca0916-03df-4b96-9ade-22943673cf25","system_id":"levelo_inurba_marseille","lat":43.27941,"lon":5.41026,"is_reserved":false,"is_disabled":false,"rental_uris":{"android":"levelo://app?vid=69ca0916-03df-4b96-9ade-22943673cf25","ios":"levelo://app?vid=69ca0916-03df-4b96-9ade-22943673cf25"},"vehicle_type_id":"4","last_reported":1762924327,"current_range_meters":20000,"station_id":"ce4bhnp2rcd13ifvqh0g","pricing_plan_id":"cebpf4jnsgd1na2vs0mg"},{"bike_id":"497b08dd-0d08-4452-95a2-bd975d3ce501","system_id":"levelo_inurba_marseille","lat":43.24793,"lon":5.37463,"is_reserved":false,"is_disabled":true,"rental_uris":{"android":"levelo://app?vid=497b08dd-0d08-4452-95a2-bd975d3ce501","ios":"levelo://app?vid=497b08dd-0d08-4452-95a2-bd975d3ce501"},"vehicle_type_id":"4","last_reported":1762924327,"current_range_meters":20000,"station_id":"ce4bhgh2rcd13ifvqfb0","pricing_plan_id":"cebpf4jnsgd1na2vs0mg"},{"bike_id":"32f78753-838d-436e-8d30-309db156e1aa","system_id":"levelo_inurba_marseille","lat":43.23196,"lon":5.35564,"is_reserved":false,"is_disabled":false,"rental_uris":{"android":"levelo://app?vid=32f78753-838d-436e-8d30-309db156e1aa","ios":"levelo://app?vid=32f78753-838d-436e-8d30-309db156e1aa"},"vehicle_type_id":"4","last_reported":1762924327,"current_range_meters":20000,"station_id":"ce4bhu92rcd13ifvqi70","pricing_plan_id":"cebpf4jnsgd1na2vs0mg"},{"bike_id":"54e79b48-7523-415b-9bd7-293c690c29f1","system_id":"levelo_inurba_marseille","lat":43.29768,"lon":5.39183,"is_reserved":false,"is_disabled":true,"rental_uris":{"android":"levelo://app?vid=54e79b48-7523-415b-9bd7-293c690c29f1","ios":"levelo://app?vid=54e79b48-7523-415b-9bd7-293c690c29f1"},"vehicle_type_id":"4","last_reported":1762924327,"current_range_meters":20000,"station_id":"","pricing_plan_id":"cebpf4jnsgd1na2vs0mg"},{"bike_id":"3f3db3e0-8786-462c-9790-1156703a5fd2","system_id":"levelo_inurba_marseille","lat":43.229217,"lon":5.35386,"is_reserved":false,"is_disabled":false,"rental_uris":{"android":"levelo://app?vid=3f3db3e0-8786-462c-9790-1156703a5fd2","ios":"levelo://app?vid=3f3db3e0-8786-462c-9790-1156703a5fd2"},"vehicle_type_id":"4","last_reported":1762924327,"current_range_meters":20000,"station_id":"cpo3532slgdg3j2ikp40","pricing_plan_id":"cebpf4jnsgd1na2vs0mg"},{"bike_id":"ee1e2802-dd23-44e4-9af8-d0a354457b2e","system_id":"levelo_inurba_marseille","lat":43.28715,"lon":5.36085,"is_reserved":false,"is_disabled":false,"rental_uris":{"android":"levelo://app?vid=ee1e2802-dd23-44e4-9af8-d0a354457b2e","ios":"levelo://app?vid=ee1e2802-dd23-44e4-9af8-d0a354457b2e"},"vehicle_type_id":"4","last_reported":1762924327,"current_range_meters":20000,"station_id":"cki0cbj6b192h4jlfktg","pricing_plan_id":"cebpf4jnsgd1na2vs0mg"},{"bike_id":"720440d0-c44d-462c-b6e6-e525dc1a25da","system_id":"levelo_inurba_marseille","lat":43.2794,"lon":5.4106,"is_reserved":false,"is_disabled":false,"rental_uris":{"android":"levelo://app?vid=720440d0-c44d-462c-b6e6-e525dc1a25da","ios":"levelo://app?vid=720440d0-c44d-462c-b6e6-e525dc1a25da"},"vehicle_type_id":"4","last_reported":1762924327,"current_range_meters":20000,"station_id":"ce4bhnp2rcd13ifvqh0g","pricing_plan_id":"cebpf4jnsgd1na2vs0mg"},{"bike_id":"b0d3e9a4-c179-4dde-95e5-879978cf48af","system_id":"levelo_inurba_marseille","lat":43.285263,"lon":5.440985,"is_reserved":false,"is_disabled":false,"rental_uris":{"android":"levelo://app?vid=b0d3e9a4-c179-4dde-95e5-879978cf48af","ios":"levelo://app?vid=b0d3e9a4-c179-4dde-95e5-879978cf48af"},"vehicle_type_id":"4","last_reported":1762924327,"current_range_meters":20000,"station_id":"st_d3j3df2ikq2c7380ej80","pricing_plan_id":"cebpf4jnsgd1na2vs0mg"},{"bike_id":"6ae33d51-49e8-4628-912b-cc0de89cfa63","system_id":"levelo_inurba_marseille","lat":43.2583,"lon":5.39426,"is_reserved":false,"is_disabled":false,"rental_uris":{"android":"levelo://app?vid=6ae33d51-49e8-4628-912b-cc0de89cfa63","ios":"levelo://app?vid=6ae33d51-49e8-4628-912b-cc0de89cfa63"},"vehicle_type_id":"4","last_reported":1762924327,"current_range_meters":20400,"station_id":"ce4bhip2rcd13ifvqft0","pricing_plan_id":"cebpf4jnsgd1na2vs0mg"},{"bike_id":"a1e2b707-f2fd-4f8b-8a66-5aad67b77869","system_id":"levelo_inurba_marseille","lat":43.30143,"lon":5.38074,"is_reserved":false,"is_disabled":false,"rental_uris":{"android":"levelo://app?vid=a1e2b707-f2fd-4f8b-8a66-5aad67b77869","ios":"levelo://app?vid=a1e2b707-f2fd-4f8b-8a66-5aad67b77869"},"vehicle_type_id":"4","last_reported":1762924327,"current_range_meters":20400,"station_id":"ce4bgjp2rcd13ifvqbh0","pricing_plan_id":"cebpf4jnsgd1na2vs0mg"},{"bike_id":"3cbcd951-e854-41d3-ab35-635f4d6c4b11","system_id":"levelo_inurba_marseille","lat":43.31886,"lon":5.40734,"is_reserved":false,"is_disabled":false,"rental_uris":{"android":"levelo://app?vid=3cbcd951-e854-41d3-ab35-635f4d6c4b11","ios":"levelo://app?vid=3cbcd951-e854-41d3-ab35-635f4d6c4b11"},"vehicle_type_id":"4","last_reported":1762924327,"current_range_meters":20400,"station_id":"ce4bhq12rcd13ifvqhig","pricing_plan_id":"cebpf4jnsgd1na2vs0mg"},{"bike_id":"7284ab91-f2e2-4a29-af3c-4b6b934720c5","system_id":"levelo_inurba_marseille","lat":43.257243,"lon":5.411025,"is_reserved":false,"is_disabled":false,"rental_uris":{"android":"levelo://app?vid=7284ab91-f2e2-4a29-af3c-4b6b934720c5","ios":"levelo://app?vid=7284ab91-f2e2-4a29-af3c-4b6b934720c5"},"vehicle_type_id":"4","last_reported":1762924327,"current_range_meters":20400,"station_id":"ce4bhkp2rcd13ifvqgd0","pricing_plan_id":"cebpf4jnsgd1na2vs0mg"},{"bike_id":"bb033b23-e157-4620-9357-822947ddae13","system_id":"levelo_inurba_marseille","lat":43.28011,"lon":5.40016,"is_reserved":false,"is_disabled":false,"rental_uris":{"android":"levelo://app?vid=bb033b23-e157-4620-9357-822947ddae13","ios":"levelo://app?vid=bb033b23-e157-4620-9357-822947ddae13"},"vehicle_type_id":"4","last_reported":1762924327,"current_range_meters":20400,"station_id":"ce4bho92rcd13ifvqh4g","pricing_plan_id":"cebpf4jnsgd1na2vs0mg"},{"bike_id":"17b45ae9-b21d-4123-b2bb-a8045e355843","system_id":"levelo_inurba_marseille","lat":43.24079,"lon":5.37758,"is_reserved":false,"is_disabled":false,"rental_uris":{"android":"levelo://app?vid=17b45ae9-b21d-4123-b2bb-a8045e355843","ios":"levelo://app?vid=17b45ae9-b21d-4123-b2bb-a8045e355843"},"vehicle_type_id":"4","last_reported":1762924327,"current_range_meters":20400,"station_id":"ce4bhnp2rcd13ifvqgvg","pricing_plan_id":"cebpf4jnsgd1na2vs0mg"},{"bike_id":"c6721cec-80d3-4039-949c-d6c1c72097cc","system_id":"levelo_inurba_marseille","lat":43.29272,"lon":5.4014,"is_reserved":false,"is_disabled":false,"rental_uris":{"android":"levelo://app?vid=c6721cec-80d3-4039-949c-d6c1c72097cc","ios":"levelo://app?vid=c6721cec-80d3-4039-949c-d6c1c72097cc"},"vehicle_type_id":"4","last_reported":1762924327,"current_range_meters":20400,"station_id":"ce4bh312rcd13ifvqdk0","pricing_plan_id":"cebpf4jnsgd1na2vs0mg"},{"bike_id":"e3764e02-5564-4b3f-81e0-349f85be6597","system_id":"levelo_inurba_marseille","lat":43.292727,"lon":5.401193,"is_reserved":false,"is_disabled":false,"rental_uris":{"android":"levelo://app?vid=e3764e02-5564-4b3f-81e0-349f85be6597","ios":"levelo://app?vid=e3764e02-5564-4b3f-81e0-349f85be6597"},"vehicle_type_id":"4","last_reported":1762924327,"current_range_meters":20400,"station_id":"ce4bh312rcd13ifvqdk0","pricing_plan_id":"cebpf4jnsgd1na2vs0mg"},{"bike_id":"7a1ef263-c216-402e-bafc-92d8214c104a","system_id":"levelo_inurba_marseille","lat":43.337444,"lon":5.374475,"is_reserved":false,"is_disabled":false,"rental_uris":{"android":"levelo://app?vid=7a1ef263-c216-402e-bafc-92d8214c104a","ios":"levelo://app?vid=7a1ef263-c216-402e-bafc-92d8214c104a"},"vehicle_type_id":"4","last_reported":1762924327,"current_range_meters":20800,"station_id":"","pricing_plan_id":"cebpf4jnsgd1na2vs0mg"},{"bike_id":"716c1808-93d5-4beb-956e-c0917c9c533c","system_id":"levelo_inurba_marseille","lat":43.30145,"lon":5.38086,"is_reserved":false,"is_disabled":false,"rental_uris":{"android":"levelo://app?vid=716c1808-93d5-4beb-956e-c0917c9c533c","ios":"levelo://app?vid=716c1808-93d5-4beb-956e-c0917c9c533c"},"vehicle_type_id":"4","last_reported":1762924327,"current_range_meters":20800,"station_id":"ce4bgjp2rcd13ifvqbh0","pricing_plan_id":"cebpf4jnsgd1na2vs0mg"},{"bike_id":"4733c8eb-e5e9-4225-9040-5e650f204f81","system_id":"levelo_inurba_marseille","lat":43.2558,"lon":5.38263,"is_reserved":false,"is_disabled":false,"rental_uris":{"android":"levelo://app?vid=4733c8eb-e5e9-4225-9040-5e650f204f81","ios":"levelo://app?vid=4733c8eb-e5e9-4225-9040-5e650f204f81"},"vehicle_type_id":"4","last_reported":1762924327,"current_range_meters":20800,"station_id":"ce4bhih2rcd13ifvqfs0","pricing_plan_id":"cebpf4jnsgd1na2vs0mg"},{"bike_id":"10e2ace1-a52d-4fff-b3c1-5391b43fcb42","system_id":"levelo_inurba_marseille","lat":43.24697,"lon":5.38129,"is_reserved":false,"is_disabled":false,"rental_uris":{"android":"levelo://app?vid=10e2ace1-a52d-4fff-b3c1-5391b43fcb42","ios":"levelo://app?vid=10e2ace1-a52d-4fff-b3c1-5391b43fcb42"},"vehicle_type_id":"4","last_reported":1762924327,"current_range_meters":20800,"station_id":"ce4bhih2rcd13ifvqfr0","pricing_plan_id":"cebpf4jnsgd1na2vs0mg"},{"bike_id":"43ce8be6-8457-4fad-8532-6755f2c633c6","system_id":"levelo_inurba_marseille","lat":43.30137,"lon":5.39877,"is_reserved":false,"is_disabled":true,"rental_uris":{"android":"levelo://app?vid=43ce8be6-8457-4fad-8532-6755f2c633c6","ios":"levelo://app?vid=43ce8be6-8457-4fad-8532-6755f2c633c6"},"vehicle_type_id":"4","last_reported":1762924327,"current_range_meters":20800,"station_id":"ce4bh0h2rcd13ifvqd40","pricing_plan_id":"cebpf4jnsgd1na2vs0mg"},{"bike_id":"8bf3e8d6-4fde-4b4a-bda9-42152114a4f1","system_id":"levelo_inurba_marseille","lat":43.306997,"lon":5.399915,"is_reserved":false,"is_disabled":false,"rental_uris":{"android":"levelo://app?vid=8bf3e8d6-4fde-4b4a-bda9-42152114a4f1","ios":"levelo://app?vid=8bf3e8d6-4fde-4b4a-bda9-42152114a4f1"},"vehicle_type_id":"4","last_reported":1762924327,"current_range_meters":20800,"station_id":"","pricing_plan_id":"cebpf4jnsgd1na2vs0mg"},{"bike_id":"eb227189-77d8-408c-8bf8-937c880532dd","system_id":"levelo_inurba_marseille","lat":43.284768,"lon":5.38418,"is_reserved":false,"is_disabled":false,"rental_uris":{"android":"levelo://app?vid=eb227189-77d8-408c-8bf8-937c880532dd","ios":"levelo://app?vid=eb227189-77d8-408c-8bf8-937c880532dd"},"vehicle_type_id":"4","last_reported":1762924327,"current_range_meters":20800,"station_id":"","pricing_plan_id":"cebpf4jnsgd1na2vs0mg"},{"bike_id":"cc0f8ca4-ae33-432c-aefe-5c00c9e85faf","system_id":"levelo_inurba_marseille","lat":43.28863,"lon":5.42518,"is_reserved":false,"is_disabled":false,"rental_uris":{"android":"levelo://app?vid=cc0f8ca4-ae33-432c-aefe-5c00c9e85faf","ios":"levelo://app?vid=cc0f8ca4-ae33-432c-aefe-5c00c9e85faf"},"vehicle_type_id":"4","last_reported":1762924327,"current_range_meters":20800,"station_id":"st_d3b462108ojc7389ooeg","pricing_plan_id":"cebpf4jnsgd1na2vs0mg"},{"bike_id":"9982385c-2835-44ea-b27e-d8d0de0d4977","system_id":"levelo_inurba_marseille","lat":43.30136,"lon":5.3808,"is_reserved":false,"is_disabled":false,"rental_uris":{"android":"levelo://app?vid=9982385c-2835-44ea-b27e-d8d0de0d4977","ios":"levelo://app?vid=9982385c-2835-44ea-b27e-d8d0de0d4977"},"vehicle_type_id":"4","last_reported":1762924327,"current_range_meters":20800,"station_id":"ce4bgjp2rcd13ifvqbh0","pricing_plan_id":"cebpf4jnsgd1na2vs0mg"},{"bike_id":"829b2674-ab79-49ef-82d7-47d9f1c1d0ae","system_id":"levelo_inurba_marseille","lat":43.306126,"lon":5.393527,"is_reserved":false,"is_disabled":false,"rental_uris":{"android":"levelo://app?vid=829b2674-ab79-49ef-82d7-47d9f1c1d0ae","ios":"levelo://app?vid=829b2674-ab79-49ef-82d7-47d9f1c1d0ae"},"vehicle_type_id":"4","last_reported":1762924327,"current_range_meters":21600,"station_id":"ce4bh0p2rcd13ifvqd80","pricing_plan_id":"cebpf4jnsgd1na2vs0mg"},{"bike_id":"d1fb9769-0236-4d8c-a3ad-caa11fe0af17","system_id":"levelo_inurba_marseille","lat":43.28852,"lon":5.35842,"is_reserved":false,"is_disabled":false,"rental_uris":{"android":"levelo://app?vid=d1fb9769-0236-4d8c-a3ad-caa11fe0af17","ios":"levelo://app?vid=d1fb9769-0236-4d8c-a3ad-caa11fe0af17"},"vehicle_type_id":"4","last_reported":1762924327,"current_range_meters":21600,"station_id":"ce4bhb12rcd13ifvqem0","pricing_plan_id":"cebpf4jnsgd1na2vs0mg"},{"bike_id":"cab335c1-1861-494f-87d8-6ad1bdf5bd4d","system_id":"levelo_inurba_marseille","lat":43.28713,"lon":5.39985,"is_reserved":false,"is_disabled":false,"rental_uris":{"android":"levelo://app?vid=cab335c1-1861-494f-87d8-6ad1bdf5bd4d","ios":"levelo://app?vid=cab335c1-1861-494f-87d8-6ad1bdf5bd4d"},"vehicle_type_id":"4","last_reported":1762924327,"current_range_meters":21600,"station_id":"ce4bho92rcd13ifvqh3g","pricing_plan_id":"cebpf4jnsgd1na2vs0mg"},{"bike_id":"862d0c70-ad68-4dc5-86f5-dfdc29017098","system_id":"levelo_inurba_marseille","lat":43.2407,"lon":5.37747,"is_reserved":false,"is_disabled":false,"rental_uris":{"android":"levelo://app?vid=862d0c70-ad68-4dc5-86f5-dfdc29017098","ios":"levelo://app?vid=862d0c70-ad68-4dc5-86f5-dfdc29017098"},"vehicle_type_id":"4","last_reported":1762924327,"current_range_meters":21600,"station_id":"ce4bhnp2rcd13ifvqgvg","pricing_plan_id":"cebpf4jnsgd1na2vs0mg"},{"bike_id":"48fd0c14-5f17-40fd-b247-83f58c012590","system_id":"levelo_inurba_marseille","lat":43.311,"lon":5.37751,"is_reserved":false,"is_disabled":false,"rental_uris":{"android":"levelo://app?vid=48fd0c14-5f17-40fd-b247-83f58c012590","ios":"levelo://app?vid=48fd0c14-5f17-40fd-b247-83f58c012590"},"vehicle_type_id":"4","last_reported":1762924327,"current_range_meters":21600,"station_id":"ce4bgt92rcd13ifvqcg0","pricing_plan_id":"cebpf4jnsgd1na2vs0mg"},{"bike_id":"7b8dfc4e-1c49-4773-9c63-5027e4523af4","system_id":"levelo_inurba_marseille","lat":43.268878,"lon":5.42552,"is_reserved":false,"is_disabled":false,"rental_uris":{"android":"levelo://app?vid=7b8dfc4e-1c49-4773-9c63-5027e4523af4","ios":"levelo://app?vid=7b8dfc4e-1c49-4773-9c63-5027e4523af4"},"vehicle_type_id":"4","last_reported":1762924327,"current_range_meters":21600,"station_id":"","pricing_plan_id":"cebpf4jnsgd1na2vs0mg"},{"bike_id":"a47ba9de-d1fc-4ab7-86c7-947a3243ec6d","system_id":"levelo_inurba_marseille","lat":43.279453,"lon":5.410457,"is_reserved":false,"is_disabled":false,"rental_uris":{"android":"levelo://app?vid=a47ba9de-d1fc-4ab7-86c7-947a3243ec6d","ios":"levelo://app?vid=a47ba9de-d1fc-4ab7-86c7-947a3243ec6d"},"vehicle_type_id":"4","last_reported":1762924327,"current_range_meters":22000,"station_id":"ce4bhnp2rcd13ifvqh0g","pricing_plan_id":"cebpf4jnsgd1na2vs0mg"},{"bike_id":"8e8d7857-c535-4a51-af5d-25ea6c23a122","system_id":"levelo_inurba_marseille","lat":43.29805,"lon":5.40415,"is_reserved":false,"is_disabled":false,"rental_uris":{"android":"levelo://app?vid=8e8d7857-c535-4a51-af5d-25ea6c23a122","ios":"levelo://app?vid=8e8d7857-c535-4a51-af5d-25ea6c23a122"},"vehicle_type_id":"4","last_reported":1762924327,"current_range_meters":22000,"station_id":"ce4bh112rcd13ifvqd90","pricing_plan_id":"cebpf4jnsgd1na2vs0mg"},{"bike_id":"5cddbf07-6733-4e42-a838-271dac68b134","system_id":"levelo_inurba_marseille","lat":43.31716,"lon":5.40444,"is_reserved":false,"is_disabled":false,"rental_uris":{"android":"levelo://app?vid=5cddbf07-6733-4e42-a838-271dac68b134","ios":"levelo://app?vid=5cddbf07-6733-4e42-a838-271dac68b134"},"vehicle_type_id":"4","last_reported":1762924327,"current_range_meters":22000,"station_id":"ce4bh012rcd13ifvqd00","pricing_plan_id":"cebpf4jnsgd1na2vs0mg"},{"bike_id":"52f036b6-6d6d-4db5-beb0-322704f34f11","system_id":"levelo_inurba_marseille","lat":43.2932,"lon":5.39414,"is_reserved":false,"is_disabled":false,"rental_uris":{"android":"levelo://app?vid=52f036b6-6d6d-4db5-beb0-322704f34f11","ios":"levelo://app?vid=52f036b6-6d6d-4db5-beb0-322704f34f11"},"vehicle_type_id":"4","last_reported":1762924327,"current_range_meters":22000,"station_id":"","pricing_plan_id":"cebpf4jnsgd1na2vs0mg"},{"bike_id":"a707547a-7ae5-4bf8-95d9-179d110aba09","system_id":"levelo_inurba_marseille","lat":43.261888,"lon":5.374727,"is_reserved":false,"is_disabled":false,"rental_uris":{"android":"levelo://app?vid=a707547a-7ae5-4bf8-95d9-179d110aba09","ios":"levelo://app?vid=a707547a-7ae5-4bf8-95d9-179d110aba09"},"vehicle_type_id":"4","last_reported":1762924327,"current_range_meters":22000,"station_id":"ce4bhgp2rcd13ifvqfc0","pricing_plan_id":"cebpf4jnsgd1na2vs0mg"},{"bike_id":"ac9e1a7e-437b-4b8f-807b-eb46c03b322f","system_id":"levelo_inurba_marseille","lat":43.31335,"lon":5.39736,"is_reserved":false,"is_disabled":false,"rental_uris":{"android":"levelo://app?vid=ac9e1a7e-437b-4b8f-807b-eb46c03b322f","ios":"levelo://app?vid=ac9e1a7e-437b-4b8f-807b-eb46c03b322f"},"vehicle_type_id":"4","last_reported":1762924327,"current_range_meters":22400,"station_id":"ce4bgvp2rcd13ifvqcu0","pricing_plan_id":"cebpf4jnsgd1na2vs0mg"},{"bike_id":"1cd94639-ec8b-4901-a526-c1b3a8882626","system_id":"levelo_inurba_marseille","lat":43.21746,"lon":5.34603,"is_reserved":false,"is_disabled":false,"rental_uris":{"android":"levelo://app?vid=1cd94639-ec8b-4901-a526-c1b3a8882626","ios":"levelo://app?vid=1cd94639-ec8b-4901-a526-c1b3a8882626"},"vehicle_type_id":"4","last_reported":1762924327,"current_range_meters":22400,"station_id":"st_cvj6r9ubvosntc0bgbag","pricing_plan_id":"cebpf4jnsgd1na2vs0mg"},{"bike_id":"248197b1-56da-49a0-ae3c-2d115c2e7768","system_id":"levelo_inurba_marseille","lat":43.26537,"lon":5.3906,"is_reserved":false,"is_disabled":false,"rental_uris":{"android":"levelo://app?vid=248197b1-56da-49a0-ae3c-2d115c2e7768","ios":"levelo://app?vid=248197b1-56da-49a0-ae3c-2d115c2e7768"},"vehicle_type_id":"4","last_reported":1762924327,"current_range_meters":22400,"station_id":"ce4bhe12rcd13ifvqf30","pricing_plan_id":"cebpf4jnsgd1na2vs0mg"},{"bike_id":"2a41175f-8684-4036-954a-afd6741220f5","system_id":"levelo_inurba_marseille","lat":43.309299,"lon":5.401685,"is_reserved":false,"is_disabled":false,"rental_uris":{"android":"levelo://app?vid=2a41175f-8684-4036-954a-afd6741220f5","ios":"levelo://app?vid=2a41175f-8684-4036-954a-afd6741220f5"},"vehicle_type_id":"4","last_reported":1762924327,"current_range_meters":22400,"station_id":"ce4bgvp2rcd13ifvqct0","pricing_plan_id":"cebpf4jnsgd1na2vs0mg"},{"bike_id":"ef376023-8d12-4e39-9095-b616110889d9","system_id":"levelo_inurba_marseille","lat":43.29507,"lon":5.37395,"is_reserved":false,"is_disabled":false,"rental_uris":{"android":"levelo://app?vid=ef376023-8d12-4e39-9095-b616110889d9","ios":"levelo://app?vid=ef376023-8d12-4e39-9095-b616110889d9"},"vehicle_type_id":"4","last_reported":1762924327,"current_range_meters":22400,"station_id":"","pricing_plan_id":"cebpf4jnsgd1na2vs0mg"},{"bike_id":"0acf92eb-1f7b-433b-83de-4882ab4fdc8d","system_id":"levelo_inurba_marseille","lat":43.278364,"lon":5.392225,"is_reserved":false,"is_disabled":false,"rental_uris":{"android":"levelo://app?vid=0acf92eb-1f7b-433b-83de-4882ab4fdc8d","ios":"levelo://app?vid=0acf92eb-1f7b-433b-83de-4882ab4fdc8d"},"vehicle_type_id":"4","last_reported":1762924327,"current_range_meters":22400,"station_id":"ce4bhjp2rcd13ifvqga0","pricing_plan_id":"cebpf4jnsgd1na2vs0mg"},{"bike_id":"3f9eb01b-94b6-41aa-a5a0-a9626ac46868","system_id":"levelo_inurba_marseille","lat":43.31296,"lon":5.37844,"is_reserved":false,"is_disabled":false,"rental_uris":{"android":"levelo://app?vid=3f9eb01b-94b6-41aa-a5a0-a9626ac46868","ios":"levelo://app?vid=3f9eb01b-94b6-41aa-a5a0-a9626ac46868"},"vehicle_type_id":"4","last_reported":1762924327,"current_range_meters":22400,"station_id":"","pricing_plan_id":"cebpf4jnsgd1na2vs0mg"},{"bike_id":"94e27c8b-bd76-4769-994b-6d127529e37a","system_id":"levelo_inurba_marseille","lat":43.30898,"lon":5.39686,"is_reserved":false,"is_disabled":false,"rental_uris":{"android":"levelo://app?vid=94e27c8b-bd76-4769-994b-6d127529e37a","ios":"levelo://app?vid=94e27c8b-bd76-4769-994b-6d127529e37a"},"vehicle_type_id":"4","last_reported":1762924327,"current_range_meters":22400,"station_id":"ce4bh012rcd13ifvqcv0","pricing_plan_id":"cebpf4jnsgd1na2vs0mg"},{"bike_id":"f15c8d82-4e83-44c8-bf64-5607f6375b20","system_id":"levelo_inurba_marseille","lat":43.285364,"lon":5.440955,"is_reserved":false,"is_disabled":false,"rental_uris":{"android":"levelo://app?vid=f15c8d82-4e83-44c8-bf64-5607f6375b20","ios":"levelo://app?vid=f15c8d82-4e83-44c8-bf64-5607f6375b20"},"vehicle_type_id":"4","last_reported":1762924327,"current_range_meters":22800,"station_id":"st_d3j3df2ikq2c7380ej80","pricing_plan_id":"cebpf4jnsgd1na2vs0mg"},{"bike_id":"20832689-4d63-4431-8cde-741943eba01d","system_id":"levelo_inurba_marseille","lat":43.32252,"lon":5.36718,"is_reserved":false,"is_disabled":false,"rental_uris":{"android":"levelo://app?vid=20832689-4d63-4431-8cde-741943eba01d","ios":"levelo://app?vid=20832689-4d63-4431-8cde-741943eba01d"},"vehicle_type_id":"4","last_reported":1762924327,"current_range_meters":22800,"station_id":"ce4bhsh2rcd13ifvqi2g","pricing_plan_id":"cebpf4jnsgd1na2vs0mg"},{"bike_id":"a8dc05a9-3264-44e1-b0a8-45001c784391","system_id":"levelo_inurba_marseille","lat":43.290351,"lon":5.359147,"is_reserved":false,"is_disabled":true,"rental_uris":{"android":"levelo://app?vid=a8dc05a9-3264-44e1-b0a8-45001c784391","ios":"levelo://app?vid=a8dc05a9-3264-44e1-b0a8-45001c784391"},"vehicle_type_id":"4","last_reported":1762924327,"current_range_meters":22800,"station_id":"ce4bha92rcd13ifvqeg0","pricing_plan_id":"cebpf4jnsgd1na2vs0mg"},