{"last_updated":1737371260,"ttl":60,"version":"2.2","data":{"bikes":[{"bike_id":"976d939b-a82d-41e6-abb4-e25496ddb17f","system_id":"levelo_inurba_marseille","lat":43.25908,"lon":5.40913,"is_reserved":false,"is_disabled":false,"rental_uris":{"android":"levelo://app?vid=976d939b-a82d-41e6-abb4-e25496ddb17f","ios":"levelo://app?vid=976d939b-a82d-41e6-abb4-e25496ddb17f"},"vehicle_type_id":"4","last_reported":1737371260,"current_range_meters":28000,"station_id":"ce4bhm92rcd13ifvqglg","pricing_plan_id":"cebpf4jnsgd1na2vs0mg"},{"bike_id":"54699930-2dbc-4d91-ab1b-41cfe810e817","system_id":"levelo_inurba_marseille","lat":43.29182,"lon":5.39392,"is_reserved":false,"is_disabled":true,"rental_uris":{"android":"levelo://app?vid=54699930-2dbc-4d91-ab1b-41cfe810e817","ios":"levelo://app?vid=54699930-2dbc-4d91-ab1b-41cfe810e817"},"vehicle_type_id":"4","last_reported":1737371260,"current_range_meters":0,"station_id":"","pricing_plan_id":"cebpf4jnsgd1na2vs0mg"},{"bike_id":"97895ebf-d09c-4c8b-9e0a-2dc38f2cc398","system_id":"levelo_inurba_marseille","lat":43.25105,"lon":5.40344,"is_reserved":false,"is_disabled":false,"rental_uris":{"android":"levelo://app?vid=97895ebf-d09c-4c8b-9e0a-2dc38f2cc398","ios":"levelo://app?vid=97895ebf-d09c-4c8b-9e0a-2dc38f2cc398"},"vehicle_type_id":"4","last_reported":1737371260,"current_range_meters":34000,"station_id":"ce4bhlh2rcd13ifvqgig","pricing_plan_id":"cebpf4jnsgd1na2vs0mg"},{"bike_id":"e841df29-8d21-48cf-a019-18bc26b21d64","system_id":"levelo_inurba_marseille","lat":43.27358,"lon":5.3625,"is_reserved":false,"is_disabled":false,"rental_uris":{"android":"levelo://app?vid=e841df29-8d21-48cf-a019-18bc26b21d64","ios":"levelo://app?vid=e841df29-8d21-48cf-a019-18bc26b21d64"},"vehicle_type_id":"4","last_reported":1737371260,"current_range_meters":38800,"station_id":"ce4bhbh2rcd13ifvqeo0","pricing_plan_id":"cebpf4jnsgd1na2vs0mg"},{"bike_id":"26d92998-8ba2-4647-a669-43b8de185c89","system_id":"levelo_inurba_marseille","lat":43.23044,"lon":5.35497,"is_reserved":false,"is_disabled":true,"rental_uris":{"android":"levelo://app?vid=26d92998-8ba2-4647-a669-43b8de185c89","ios":"levelo://app?vid=26d92998-8ba2-4647-a669-43b8de185c89"},"vehicle_type_id":"4","last_reported":1737371260,"current_range_meters":19200,"station_id":"cpo3342slgdg3j2ifvpg","pricing_plan_id":"cebpf4jnsgd1na2vs0mg"},{"bike_id":"fde2972f-10b6-4382-8fdc-8a279f7b4d92","system_id":"levelo_inurba_marseille","lat":43.30117,"lon":5.39865,"is_reserved":false,"is_disabled":false,"rental_uris":{"android":"levelo://app?vid=fde2972f-10b6-4382-8fdc-8a279f7b4d92","ios":"levelo://app?vid=fde2972f-10b6-4382-8fdc-8a279f7b4d92"},"vehicle_type_id":"4","last_reported":1737371260,"current_range_meters":22400,"station_id":"ce4bh0h2rcd13ifvqd40","pricing_plan_id":"cebpf4jnsgd1na2vs0mg"},{"bike_id":"70ac5e43-1a65-4943-bf4c-9459b26a7429","system_id":"levelo_inurba_marseille","lat":43.25721,"lon":5.41108,"is_reserved":false,"is_disabled":false,"rental_uris":{"android":"levelo://app?vid=70ac5e43-1a65-4943-bf4c-9459b26a7429","ios":"levelo://app?vid=70ac5e43-1a65-4943-bf4c-9459b26a7429"},"vehicle_type_id":"4","last_reported":1737371260,"current_range_meters":16400,"station_id":"ce4bhkp2rcd13ifvqgd0","pricing_plan_id":"cebpf4jnsgd1na2vs0mg"},{"bike_id":"df58e329-f965-400a-bdeb-530cef255b9a","system_id":"levelo_inurba_marseille","lat":43.285,"lon":5.38399,"is_reserved":false,"is_disabled":false,"rental_uris":{"android":"levelo://app?vid=df58e329-f965-400a-bdeb-530cef255b9a","ios":"levelo://app?vid=df58e329-f965-400a-bdeb-530cef255b9a"},"vehicle_type_id":"4","last_reported":1737371260,"current_range_meters":35200,"station_id":"ce4bh512rcd13ifvqe3g","pricing_plan_id":"cebpf4jnsgd1na2vs0mg"},{"bike_id":"89c60171-e7c9-486b-9ccc-9e4795e53faf","system_id":"levelo_inurba_marseille","lat":43.33609,"lon":5.41016,"is_reserved":false,"is_disabled":true,"rental_uris":{"android":"levelo://app?vid=89c60171-e7c9-486b-9ccc-9e4795e53faf","ios":"levelo://app?vid=89c60171-e7c9-486b-9ccc-9e4795e53faf"},"vehicle_type_id":"4","last_reported":1737371260,"current_range_meters":0,"station_id":"ce4bhqh2rcd13ifvqhmg","pricing_plan_id":"cebpf4jnsgd1na2vs0mg"},{"bike_id":"e3d5a69f-7604-4ab5-bfce-dc9cf0dd7b56","system_id":"levelo_inurba_marseille","lat":43.29562,"lon":5.40022,"is_reserved":false,"is_disabled":true,"rental_uris":{"android":"levelo://app?vid=e3d5a69f-7604-4ab5-bfce-dc9cf0dd7b56","ios":"levelo://app?vid=e3d5a69f-7604-4ab5-bfce-dc9cf0dd7b56"},"vehicle_type_id":"4","last_reported":1737371260,"current_range_meters":38000,"station_id":"ce4bh312rcd13ifvqdj0","pricing_plan_id":"cebpf4jnsgd1na2vs0mg"},{"bike_id":"9c0fd3c1-e419-4d89-88bd-d6f5d38ac254","system_id":"levelo_inurba_marseille","lat":43.27368,"lon":5.3626,"is_reserved":false,"is_disabled":false,"rental_uris":{"android":"levelo://app?vid=9c0fd3c1-e419-4d89-88bd-d6f5d38ac254","ios":"levelo://app?vid=9c0fd3c1-e419-4d89-88bd-d6f5d38ac254"},"vehicle_type_id":"4","last_reported":1737371260,"current_range_meters":37600,"station_id":"ce4bhbh2rcd13ifvqeo0","pricing_plan_id":"cebpf4jnsgd1na2vs0mg"},{"bike_id":"8525ef0c-1062-48a7-8d2f-f97832a79b19","system_id":"levelo_inurba_marseille","lat":43.2558,"lon":5.38237,"is_reserved":false,"is_disabled":false,"rental_uris":{"android":"levelo://app?vid=8525ef0c-1062-48a7-8d2f-f97832a79b19","ios":"levelo://app?vid=8525ef0c-1062-48a7-8d2f-f97832a79b19"},"vehicle_type_id":"4","last_reported":1737371260,"current_range_meters":6800,"station_id":"ce4bhih2rcd13ifvqfs0","pricing_plan_id":"cebpf4jnsgd1na2vs0mg"},{"bike_id":"77bd2703-d2d9-474a-b79f-02c75e2dc359","system_id":"levelo_inurba_marseille","lat":43.30307,"lon":5.36915,"is_reserved":false,"is_disabled":false,"rental_uris":{"android":"levelo://app?vid=77bd2703-d2d9-474a-b79f-02c75e2dc359","ios":"levelo://app?vid=77bd2703-d2d9-474a-b79f-02c75e2dc359"},"vehicle_type_id":"4","last_reported":1737371260,"current_range_meters":36400,"station_id":"ce4bgqh2rcd13ifvqc5g","pricing_plan_id":"cebpf4jnsgd1na2vs0mg"},{"bike_id":"5e6195a5-e309-4963-a35e-43079b309b0d","system_id":"levelo_inurba_marseille","lat":43.27317,"lon":5.39084,"is_reserved":false,"is_disabled":false,"rental_uris":{"android":"levelo://app?vid=5e6195a5-e309-4963-a35e-43079b309b0d","ios":"levelo://app?vid=5e6195a5-e309-4963-a35e-43079b309b0d"},"vehicle_type_id":"4","last_reported":1737371260,"current_range_meters":38800,"station_id":"ce4bhgp2rcd13ifvqfe0","pricing_plan_id":"cebpf4jnsgd1na2vs0mg"},{"bike_id":"763ed4fc-16fd-47a0-aedf-62c028daa66f","system_id":"levelo_inurba_marseille","lat":43.36391,"lon":5.35573,"is_reserved":false,"is_disabled":false,"rental_uris":{"android":"levelo://app?vid=763ed4fc-16fd-47a0-aedf-62c028daa66f","ios":"levelo://app?vid=763ed4fc-16fd-47a0-aedf-62c028daa66f"},"vehicle_type_id":"4","last_reported":1737371260,"current_range_meters":9200,"station_id":"","pricing_plan_id":"cebpf4jnsgd1na2vs0mg"},{"bike_id":"54e47bbf-d358-4fc6-9623-23d2eb6b92a9","system_id":"levelo_inurba_marseille","lat":43.276747,"lon":5.388474,"is_reserved":false,"is_disabled":true,"rental_uris":{"android":"levelo://app?vid=54e47bbf-d358-4fc6-9623-23d2eb6b92a9","ios":"levelo://app?vid=54e47bbf-d358-4fc6-9623-23d2eb6b92a9"},"vehicle_type_id":"4","last_reported":1737371260,"current_range_meters":17200,"station_id":"","pricing_plan_id":"cebpf4jnsgd1na2vs0mg"},{"bike_id":"a2771881-b956-4a9a-9bc9-a89642d437c9","system_id":"levelo_inurba_marseille","lat":43.23183,"lon":5.35555,"is_reserved":false,"is_disabled":false,"rental_uris":{"android":"levelo://app?vid=a2771881-b956-4a9a-9bc9-a89642d437c9","ios":"levelo://app?vid=a2771881-b956-4a9a-9bc9-a89642d437c9"},"vehicle_type_id":"4","last_reported":1737371260,"current_range_meters":38400,"station_id":"ce4bhu92rcd13ifvqi70","pricing_plan_id":"cebpf4jnsgd1na2vs0mg"},{"bike_id":"94445cba-eeb6-45e9-ac03-517495875889","system_id":"levelo_inurba_marseille","lat":43.30538,"lon":5.36558,"is_reserved":false,"is_disabled":false,"rental_uris":{"android":"levelo://app?vid=94445cba-eeb6-45e9-ac03-517495875889","ios":"levelo://app?vid=94445cba-eeb6-45e9-ac03-517495875889"},"vehicle_type_id":"4","last_reported":1737371260,"current_range_meters":22400,"station_id":"ce4bgs12rcd13ifvqcag","pricing_plan_id":"cebpf4jnsgd1na2vs0mg"},{"bike_id":"0be1187a-5975-4d58-85d8-03195cdaf1ca","system_id":"levelo_inurba_marseille","lat":43.32459,"lon":5.3659,"is_reserved":false,"is_disabled":false,"rental_uris":{"android":"levelo://app?vid=0be1187a-5975-4d58-85d8-03195cdaf1ca","ios":"levelo://app?vid=0be1187a-5975-4d58-85d8-03195cdaf1ca"},"vehicle_type_id":"4","last_reported":1737371260,"current_range_meters":15200,"station_id":"ce4bhs12rcd13ifvqhvg","pricing_plan_id":"cebpf4jnsgd1na2vs0mg"},{"bike_id":"f3c94274-f861-4c89-8bb1-1ebe1a531935","system_id":"levelo_inurba_marseille","lat":43.25004,"lon":5.38925,"is_reserved":false,"is_disabled":false,"rental_uris":{"android":"levelo://app?vid=f3c94274-f861-4c89-8bb1-1ebe1a531935","ios":"levelo://app?vid=f3c94274-f861-4c89-8bb1-1ebe1a531935"},"vehicle_type_id":"4","last_reported":1737371260,"current_range_meters":34800,"station_id":"ce4bhgp2rcd13ifvqfd0","pricing_plan_id":"cebpf4jnsgd1na2vs0mg"},{"bike_id":"fb86402b-4e54-46af-beab-fa4078efd67c","system_id":"levelo_inurba_marseille","lat":43.30548,"lon":5.36556,"is_reserved":false,"is_disabled":false,"rental_uris":{"android":"levelo://app?vid=fb86402b-4e54-46af-beab-fa4078efd67c","ios":"levelo://app?vid=fb86402b-4e54-46af-beab-fa4078efd67c"},"vehicle_type_id":"4","last_reported":1737371260,"current_range_meters":24400,"station_id":"ce4bgs12rcd13ifvqcag","pricing_plan_id":"cebpf4jnsgd1na2vs0mg"},{"bike_id":"ea820ade-d81d-428e-82b9-7f165f7e8e75","system_id":"levelo_inurba_marseille","lat":43.32366,"lon":5.36771,"is_reserved":false,"is_disabled":false,"rental_uris":{"android":"levelo://app?vid=ea820ade-d81d-428e-82b9-7f165f7e8e75","ios":"levelo://app?vid=ea820ade-d81d-428e-82b9-7f165f7e8e75"},"vehicle_type_id":"4","last_reported":1737371260,"current_range_meters":10800,"station_id":"ce4bhsh2rcd13ifvqi2g","pricing_plan_id":"cebpf4jnsgd1na2vs0mg"},{"bike_id":"c29020e0-83ef-4b06-ac4f-c4422257f84a","system_id":"levelo_inurba_marseille","lat":43.36383,"lon":5.35628,"is_reserved":false,"is_disabled":false,"rental_uris":{"android":"levelo://app?vid=c29020e0-83ef-4b06-ac4f-c4422257f84a","ios":"levelo://app?vid=c29020e0-83ef-4b06-ac4f-c4422257f84a"},"vehicle_type_id":"4","last_reported":1737371260,"current_range_meters":14000,"station_id":"","pricing_plan_id":"cebpf4jnsgd1na2vs0mg"},{"bike_id":"fd7f3eb1-9522-4b92-bc46-6988ba72d181","system_id":"levelo_inurba_marseille","lat":43.295248,"lon":5.385406,"is_reserved":false,"is_disabled":false,"rental_uris":{"android":"levelo://app?vid=fd7f3eb1-9522-4b92-bc46-6988ba72d181","ios":"levelo://app?vid=fd7f3eb1-9522-4b92-bc46-6988ba72d181"},"vehicle_type_id":"4","last_reported":1737371260,"current_range_meters":26000,"station_id":"ce4bh4p2rcd13ifvqe0g","pricing_plan_id":"cebpf4jnsgd1na2vs0mg"},{"bike_id":"2134fa96-3287-49a0-8c4d-ce46e95d9fc9","system_id":"levelo_inurba_marseille","lat":43.25933,"lon":5.40906,"is_reserved":false,"is_disabled":false,"rental_uris":{"android":"levelo://app?vid=2134fa96-3287-49a0-8c4d-ce46e95d9fc9","ios":"levelo://app?vid=2134fa96-3287-49a0-8c4d-ce46e95d9fc9"},"vehicle_type_id":"4","last_reported":1737371260,"current_range_meters":29600,"station_id":"ce4bhm92rcd13ifvqglg","pricing_plan_id":"cebpf4jnsgd1na2vs0mg"},{"bike_id":"963dc661-c10f-478a-a4c3-6a67429abb8f","system_id":"levelo_inurba_marseille","lat":43.31698,"lon":5.40478,"is_reserved":false,"is_disabled":false,"rental_uris":{"android":"levelo://app?vid=963dc661-c10f-478a-a4c3-6a67429abb8f","ios":"levelo://app?vid=963dc661-c10f-478a-a4c3-6a67429abb8f"},"vehicle_type_id":"4","last_reported":1737371260,"current_range_meters":9600,"station_id":"ce4bh012rcd13ifvqd00","pricing_plan_id":"cebpf4jnsgd1na2vs0mg"},{"bike_id":"6bf5bd29-3e54-437a-9020-86384919dc04","system_id":"levelo_inurba_marseille","lat":43.3226,"lon":5.38366,"is_reserved":false,"is_disabled":false,"rental_uris":{"android":"levelo://app?vid=6bf5bd29-3e54-437a-9020-86384919dc04","ios":"levelo://app?vid=6bf5bd29-3e54-437a-9020-86384919dc04"},"vehicle_type_id":"4","last_reported":1737371260,"current_range_meters":38800,"station_id":"ce4bhr12rcd13ifvqhqg","pricing_plan_id":"cebpf4jnsgd1na2vs0mg"},{"bike_id":"ca8687b7-f142-4d55-8eef-bd375946bd02","system_id":"levelo_inurba_marseille","lat":43.29737,"lon":5.37667,"is_reserved":false,"is_disabled":false,"rental_uris":{"android":"levelo://app?vid=ca8687b7-f142-4d55-8eef-bd375946bd02","ios":"levelo://app?vid=ca8687b7-f142-4d55-8eef-bd375946bd02"},"vehicle_type_id":"4","last_reported":1737371260,"current_range_meters":26000,"station_id":"ce4bgkh2rcd13ifvqbl0","pricing_plan_id":"cebpf4jnsgd1na2vs0mg"},{"bike_id":"d1fe8692-eb9a-4c29-b94c-0567b580aa37","system_id":"levelo_inurba_marseille","lat":43.2928,"lon":5.37452,"is_reserved":false,"is_disabled":false,"rental_uris":{"android":"levelo://app?vid=d1fe8692-eb9a-4c29-b94c-0567b580aa37","ios":"levelo://app?vid=d1fe8692-eb9a-4c29-b94c-0567b580aa37"},"vehicle_type_id":"4","last_reported":1737371260,"current_range_meters":39200,"station_id":"ce4bgi12rcd13ifvqb70","pricing_plan_id":"cebpf4jnsgd1na2vs0mg"},{"bike_id":"04e7f6b2-1170-476d-8eb7-54bc6ab7d23c","system_id":"levelo_inurba_marseille","lat":43.24383,"lon":5.37089,"is_reserved":false,"is_disabled":false,"rental_uris":{"android":"levelo://app?vid=04e7f6b2-1170-476d-8eb7-54bc6ab7d23c","ios":"levelo://app?vid=04e7f6b2-1170-476d-8eb7-54bc6ab7d23c"},"vehicle_type_id":"4","last_reported":1737371260,"current_range_meters":34800,"station_id":"ce4bhhh2rcd13ifvqfk0","pricing_plan_id":"cebpf4jnsgd1na2vs0mg"},{"bike_id":"bee473c1-b4bb-40f3-b08c-263326dc4a80","system_id":"levelo_inurba_marseille","lat":43.31326,"lon":5.39702,"is_reserved":false,"is_disabled":false,"rental_uris":{"android":"levelo://app?vid=bee473c1-b4bb-40f3-b08c-263326dc4a80","ios":"levelo://app?vid=bee473c1-b4bb-40f3-b08c-263326dc4a80"},"vehicle_type_id":"4","last_reported":1737371260,"current_range_meters":20000,"station_id":"ce4bgvp2rcd13ifvqcu0","pricing_plan_id":"cebpf4jnsgd1na2vs0mg"},{"bike_id":"c8fe6bd0-5be5-4ede-8e98-69d8c19fd7cf","system_id":"levelo_inurba_marseille","lat":43.2314,"lon":5.43716,"is_reserved":false,"is_disabled":false,"rental_uris":{"android":"levelo://app?vid=c8fe6bd0-5be5-4ede-8e98-69d8c19fd7cf","ios":"levelo://app?vid=c8fe6bd0-5be5-4ede-8e98-69d8c19fd7cf"},"vehicle_type_id":"4","last_reported":1737371260,"current_range_meters":39200,"station_id":"ce4bhmp2rcd13ifvqgog","pricing_plan_id":"cebpf4jnsgd1na2vs0mg"},{"bike_id":"57b0e606-8fdf-401d-8223-87c7978ca31e","system_id":"levelo_inurba_marseille","lat":43.262142,"lon":5.404532,"is_reserved":false,"is_disabled":false,"rental_uris":{"android":"levelo://app?vid=57b0e606-8fdf-401d-8223-87c7978ca31e","ios":"levelo://app?vid=57b0e606-8fdf-401d-8223-87c7978ca31e"},"vehicle_type_id":"4","last_reported":1737371260,"current_range_meters":31200,"station_id":"","pricing_plan_id":"cebpf4jnsgd1na2vs0mg"},{"bike_id":"d6dda788-2ee0-45e5-a6fd-f8b98f248df1","system_id":"levelo_inurba_marseille","lat":43.23146,"lon":5.43712,"is_reserved":false,"is_disabled":false,"rental_uris":{"android":"levelo://app?vid=d6dda788-2ee0-45e5-a6fd-f8b98f248df1","ios":"levelo://app?vid=d6dda788-2ee0-45e5-a6fd-f8b98f248df1"},"vehicle_type_id":"4","last_reported":1737371260,"current_range_meters":39200,"station_id":"ce4bhmp2rcd13ifvqgog","pricing_plan_id":"cebpf4jnsgd1na2vs0mg"},{"bike_id":"94bdaa84-8d49-464b-898c-663f4980c5b8","system_id":"levelo_inurba_marseille","lat":43.32516,"lon":5.41499,"is_reserved":false,"is_disabled":false,"rental_uris":{"android":"levelo://app?vid=94bdaa84-8d49-464b-898c-663f4980c5b8","ios":"levelo://app?vid=94bdaa84-8d49-464b-898c-663f4980c5b8"},"vehicle_type_id":"4","last_reported":1737371260,"current_range_meters":38800,"station_id":"","pricing_plan_id":"cebpf4jnsgd1na2vs0mg"},{"bike_id":"afe1430a-f5d9-47c6-9b1e-7309b885f552","system_id":"levelo_inurba_marseille","lat":43.31333,"lon":5.397,"is_reserved":false,"is_disabled":false,"rental_uris":{"android":"levelo://app?vid=afe1430a-f5d9-47c6-9b1e-7309b885f552","ios":"levelo://app?vid=afe1430a-f5d9-47c6-9b1e-7309b885f552"},"vehicle_type_id":"4","last_reported":1737371260,"current_range_meters":39200,"station_id":"ce4bgvp2rcd13ifvqcu0","pricing_plan_id":"cebpf4jnsgd1na2vs0mg"},{"bike_id":"81112329-1dad-4775-ba9b-1357b51686d0","system_id":"levelo_inurba_marseille","lat":43.31311,"lon":5.37333,"is_reserved":false,"is_disabled":false,"rental_uris":{"android":"levelo://app?vid=81112329-1dad-4775-ba9b-1357b51686d0","ios":"levelo://app?vid=81112329-1dad-4775-ba9b-1357b51686d0"},"vehicle_type_id":"4","last_reported":1737371260,"current_range_meters":33200,"station_id":"","pricing_plan_id":"cebpf4jnsgd1na2vs0mg"},{"bike_id":"dc931b31-68d0-4296-b002-a92d73686ffc","system_id":"levelo_inurba_marseille","lat":43.27492,"lon":5.42472,"is_reserved":false,"is_disabled":false,"rental_uris":{"android":"levelo://app?vid=dc931b31-68d0-4296-b002-a92d73686ffc","ios":"levelo://app?vid=dc931b31-68d0-4296-b002-a92d73686ffc"},"vehicle_type_id":"4","last_reported":1737371260,"current_range_meters":17200,"station_id":"ce4bhn92rcd13ifvqgrg","pricing_plan_id":"cebpf4jnsgd1na2vs0mg"},{"bike_id":"a9210d60-cff2-494c-a17e-d7551367d8d5","system_id":"levelo_inurba_marseille","lat":43.29675,"lon":5.37293,"is_reserved":false,"is_disabled":false,"rental_uris":{"android":"levelo://app?vid=a9210d60-cff2-494c-a17e-d7551367d8d5","ios":"levelo://app?vid=a9210d60-cff2-494c-a17e-d7551367d8d5"},"vehicle_type_id":"4","last_reported":1737371260,"current_range_meters":31200,"station_id":"ce4bgk12rcd13ifvqbj0","pricing_plan_id":"cebpf4jnsgd1na2vs0mg"},{"bike_id":"723ec519-2c6e-4b27-96af-5795a19ae78c","system_id":"levelo_inurba_marseille","lat":43.31493,"lon":5.37306,"is_reserved":false,"is_disabled":false,"rental_uris":{"android":"levelo://app?vid=723ec519-2c6e-4b27-96af-5795a19ae78c","ios":"levelo://app?vid=723ec519-2c6e-4b27-96af-5795a19ae78c"},"vehicle_type_id":"4","last_reported":1737371260,"current_range_meters":36000,"station_id":"ce4bgt12rcd13ifvqcd0","pricing_plan_id":"cebpf4jnsgd1na2vs0mg"},{"bike_id":"4023ba12-f726-4929-9f87-c56eb565bad6","system_id":"levelo_inurba_marseille","lat":43.28153,"lon":5.42644,"is_reserved":false,"is_disabled":false,"rental_uris":{"android":"levelo://app?vid=4023ba12-f726-4929-9f87-c56eb565bad6","ios":"levelo://app?vid=4023ba12-f726-4929-9f87-c56eb565bad6"},"vehicle_type_id":"4","last_reported":1737371260,"current_range_meters":16400,"station_id":"ce4bhnh2rcd13ifvqgug","pricing_plan_id":"cebpf4jnsgd1na2vs0mg"},{"bike_id":"c6a73baa-940c-493d-9e5f-8b1c83163920","system_id":"levelo_inurba_marseille","lat":43.30217,"lon":5.39467,"is_reserved":false,"is_disabled":false,"rental_uris":{"android":"levelo://app?vid=c6a73baa-940c-493d-9e5f-8b1c83163920","ios":"levelo://app?vid=c6a73baa-940c-493d-9e5f-8b1c83163920"},"vehicle_type_id":"4","last_reported":1737371260,"current_range_meters":15200,"station_id":"ce4bh0p2rcd13ifvqd70","pricing_plan_id":"cebpf4jnsgd1na2vs0mg"},{"bike_id":"3860f79b-6390-4baa-9962-103869425bc6","system_id":"levelo_inurba_marseille","lat":43.29894,"lon":5.43668,"is_reserved":false,"is_disabled":false,"rental_uris":{"android":"levelo://app?vid=3860f79b-6390-4baa-9962-103869425bc6","ios":"levelo://app?vid=3860f79b-6390-4baa-9962-103869425bc6"},"vehicle_type_id":"4","last_reported":1737371260,"current_range_meters":17600,"station_id":"ce4bhpp2rcd13ifvqhfg","pricing_plan_id":"cebpf4jnsgd1na2vs0mg"},{"bike_id":"f1f9c3fa-ac56-44c4-bfbd-04ee59ea0d5a","system_id":"levelo_inurba_marseille","lat":43.30267,"lon":5.37736,"is_reserved":false,"is_disabled":false,"rental_uris":{"android":"levelo://app?vid=f1f9c3fa-ac56-44c4-bfbd-04ee59ea0d5a","ios":"levelo://app?vid=f1f9c3fa-ac56-44c4-bfbd-04ee59ea0d5a"},"vehicle_type_id":"4","last_reported":1737371260,"current_range_meters":27200,"station_id":"ce4bguh2rcd13ifvqcj0","pricing_plan_id":"cebpf4jnsgd1na2vs0mg"},{"bike_id":"e05cfd67-2fa3-49cf-9cca-4f0057a960aa","system_id":"levelo_inurba_marseille","lat":43.24641,"lon":5.38904,"is_reserved":false,"is_disabled":false,"rental_uris":{"android":"levelo://app?vid=e05cfd67-2fa3-49cf-9cca-4f0057a960aa","ios":"levelo://app?vid=e05cfd67-2fa3-49cf-9cca-4f0057a960aa"},"vehicle_type_id":"4","last_reported":1737371260,"current_range_meters":38400,"station_id":"ce4bhg12rcd13ifvqf60","pricing_plan_id":"cebpf4jnsgd1na2vs0mg"},{"bike_id":"38fb162e-917c-4074-91dc-15121c1185e5","system_id":"levelo_inurba_marseille","lat":43.29594,"lon":5.37722,"is_reserved":false,"is_disabled":false,"rental_uris":{"android":"levelo://app?vid=38fb162e-917c-4074-91dc-15121c1185e5","ios":"levelo://app?vid=38fb162e-917c-4074-91dc-15121c1185e5"},"vehicle_type_id":"4","last_reported":1737371260,"current_range_meters":30000,"station_id":"ce4bgi92rcd13ifvqb90","pricing_plan_id":"cebpf4jnsgd1na2vs0mg"},{"bike_id":"ffb78305-7254-49d5-91ac-d66e39094b97","system_id":"levelo_inurba_marseille","lat":43.29909,"lon":5.37472,"is_reserved":false,"is_disabled":false,"rental_uris":{"android":"levelo://app?vid=ffb78305-7254-49d5-91ac-d66e39094b97","ios":"levelo://app?vid=ffb78305-7254-49d5-91ac-d66e39094b97"},"vehicle_type_id":"4","last_reported":1737371260,"current_range_meters":37600,"station_id":"ce4bgjh2rcd13ifvqbg0","pricing_plan_id":"cebpf4jnsgd1na2vs0mg"},{"bike_id":"c7c775a5-01b4-4f74-b0f8-0562e62f7ca7","system_id":"levelo_inurba_marseille","lat":43.25112,"lon":5.40322,"is_reserved":false,"is_disabled":false,"rental_uris":{"android":"levelo://app?vid=c7c775a5-01b4-4f74-b0f8-0562e62f7ca7","ios":"levelo://app?vid=c7c775a5-01b4-4f74-b0f8-0562e62f7ca7"},"vehicle_type_id":"4","last_reported":1737371260,"current_range_meters":28800,"station_id":"ce4bhlh2rcd13ifvqgig","pricing_plan_id":"cebpf4jnsgd1na2vs0mg"},{"bike_id":"ca8aa51d-4833-4c77-8009-59b7c07323a3","system_id":"levelo_inurba_marseille","lat":43.32368,"lon":5.36761,"is_reserved":false,"is_disabled":false,"rental_uris":{"android":"levelo://app?vid=ca8aa51d-4833-4c77-8009-59b7c07323a3","ios":"levelo://app?vid=ca8aa51d-4833-4c77-8009-59b7c07323a3"},"vehicle_type_id":"4","last_reported":1737371260,"current_range_meters":32400,"station_id":"ce4bhsh2rcd13ifvqi2g","pricing_plan_id":"cebpf4jnsgd1na2vs0mg"},{"bike_id":"9abe4455-8431-4558-8269-cd3b3335cf98","system_id":"levelo_inurba_marseille","lat":43.28485,"lon":5.38424,"is_reserved":false,"is_disabled":false,"rental_uris":{"android":"levelo://app?vid=9abe4455-8431-4558-8269-cd3b3335cf98","ios":"levelo://app?vid=9abe4455-8431-4558-8269-cd3b3335cf98"},"vehicle_type_id":"4","last_reported":1737371260,"current_range_meters":36000,"station_id":"ce4bh512rcd13ifvqe3g","pricing_plan_id":"cebpf4jnsgd1na2vs0mg"},{"bike_id":"b2eb5e4d-22a0-4f9e-8a89-51bd832bc768","system_id":"levelo_inurba_marseille","lat":43.3096,"lon":5.39058,"is_reserved":false,"is_disabled":false,"rental_uris":{"android":"levelo://app?vid=b2eb5e4d-22a0-4f9e-8a89-51bd832bc768","ios":"levelo://app?vid=b2eb5e4d-22a0-4f9e-8a89-51bd832bc768"},"vehicle_type_id":"4","last_reported":1737371260,"current_range_meters":30000,"station_id":"ce4bgup2rcd13ifvqco0","pricing_plan_id":"cebpf4jnsgd1na2vs0mg"},{"bike_id":"317343a1-a00b-46fd-97ea-daf386f580ce","system_id":"levelo_inurba_marseille","lat":43.28915,"lon":5.38403,"is_reserved":false,"is_disabled":false,"rental_uris":{"android":"levelo://app?vid=317343a1-a00b-46fd-97ea-daf386f580ce","ios":"levelo://app?vid=317343a1-a00b-46fd-97ea-daf386f580ce"},"vehicle_type_id":"4","last_reported":1737371260,"current_range_meters":36000,"station_id":"ce4bh612rcd13ifvqe6g","pricing_plan_id":"cebpf4jnsgd1na2vs0mg"},{"bike_id":"49edd341-1744-445c-b1f6-ec80c4f617c5","system_id":"levelo_inurba_marseille","lat":43.2707,"lon":5.42303,"is_reserved":false,"is_disabled":false,"rental_uris":{"android":"levelo://app?vid=49edd341-1744-445c-b1f6-ec80c4f617c5","ios":"levelo://app?vid=49edd341-1744-445c-b1f6-ec80c4f617c5"},"vehicle_type_id":"4","last_reported":1737371260,"current_range_meters":39200,"station_id":"ce4bhk92rcd13ifvqgb0","pricing_plan_id":"cebpf4jnsgd1na2vs0mg"},{"bike_id":"51379e9f-1ebd-43ee-bd84-6927ab606473","system_id":"levelo_inurba_marseille","lat":43.24172,"lon":5.3643,"is_reserved":false,"is_disabled":false,"rental_uris":{"android":"levelo://app?vid=51379e9f-1ebd-43ee-bd84-6927ab606473","ios":"levelo://app?vid=51379e9f-1ebd-43ee-bd84-6927ab606473"},"vehicle_type_id":"4","last_reported":1737371260,"current_range_meters":22800,"station_id":"cpo36qri1sfpv3e86is0","pricing_plan_id":"cebpf4jnsgd1na2vs0mg"},{"bike_id":"57d9fa47-e597-4ea4-913f-9b45079bd718","system_id":"levelo_inurba_marseille","lat":43.3298,"lon":5.38989,"is_reserved":false,"is_disabled":false,"rental_uris":{"android":"levelo://app?vid=57d9fa47-e597-4ea4-913f-9b45079bd718","ios":"levelo://app?vid=57d9fa47-e597-4ea4-913f-9b45079bd718"},"vehicle_type_id":"4","last_reported":1737371260,"current_range_meters":38800,"station_id":"ce4bhr92rcd13ifvqhrg","pricing_plan_id":"cebpf4jnsgd1na2vs0mg"},{"bike_id":"4d2c3a79-6b6f-46a2-ae11-574a3d2fedfa","system_id":"levelo_inurba_marseille","lat":43.29021,"lon":5.38647,"is_reserved":false,"is_disabled":false,"rental_uris":{"android":"levelo://app?vid=4d2c3a79-6b6f-46a2-ae11-574a3d2fedfa","ios":"levelo://app?vid=4d2c3a79-6b6f-46a2-ae11-574a3d2fedfa"},"vehicle_type_id":"4","last_reported":1737371260,"current_range_meters":38000,"station_id":"ce4bh4p2rcd13ifvqe0g","pricing_plan_id":"cebpf4jnsgd1na2vs0mg"},{"bike_id":"a6817152-9db4-45be-84b1-a30b6bbc47cf","system_id":"levelo_inurba_marseille","lat":43.24174,"lon":5.39735,"is_reserved":false,"is_disabled":false,"rental_uris":{"android":"levelo://app?vid=a6817152-9db4-45be-84b1-a30b6bbc47cf","ios":"levelo://app?vid=a6817152-9db4-45be-84b1-a30b6bbc47cf"},"vehicle_type_id":"4","last_reported":1737371260,"current_range_meters":38800,"station_id":"ce4bhn12rcd13ifvqgpg","pricing_plan_id":"cebpf4jnsgd1na2vs0mg"},{"bike_id":"d7b57092-5089-4c4a-819e-bef9772d11d8","system_id":"levelo_inurba_marseille","lat":43.31797,"lon":5.37818,"is_reserved":false,"is_disabled":false,"rental_uris":{"android":"levelo://app?vid=d7b57092-5089-4c4a-819e-bef9772d11d8","ios":"levelo://app?vid=d7b57092-5089-4c4a-819e-bef9772d11d8"},"vehicle_type_id":"4","last_reported":1737371260,"current_range_meters":28800,"station_id":"","pricing_plan_id":"cebpf4jnsgd1na2vs0mg"},{"bike_id":"f8285391-65c7-4933-97c9-1a73bc9cdc8d","system_id":"levelo_inurba_marseille","lat":43.28151,"lon":5.42643,"is_reserved":false,"is_disabled":false,"rental_uris":{"android":"levelo://app?vid=f8285391-65c7-4933-97c9-1a73bc9cdc8d","ios":"levelo://app?vid=f8285391-65c7-4933-97c9-1a73bc9cdc8d"},"vehicle_type_id":"4","last_reported":1737371260,"current_range_meters":38800,"station_id":"ce4bhnh2rcd13ifvqgug","pricing_plan_id":"cebpf4jnsgd1na2vs0mg"},{"bike_id":"970eacc2-5e8f-4753-aa3e-5d8cafb72393","system_id":"levelo_inurba_marseille","lat":43.25918,"lon":5.40892,"is_reserved":false,"is_disabled":false,"rental_uris":{"android":"levelo://app?vid=970eacc2-5e8f-4753-aa3e-5d8cafb72393","ios":"levelo://app?vid=970eacc2-5e8f-4753-aa3e-5d8cafb72393"},"vehicle_type_id":"4","last_reported":1737371260,"current_range_meters":32000,"station_id":"ce4bhm92rcd13ifvqglg","pricing_plan_id":"cebpf4jnsgd1na2vs0mg"},{"bike_id":"ae35589b-d85c-4f9a-b98c-9bc44748a230","system_id":"levelo_inurba_marseille","lat":43.25718,"lon":5.41122,"is_reserved":false,"is_disabled":false,"rental_uris":{"android":"levelo://app?vid=ae35589b-d85c-4f9a-b98c-9bc44748a230","ios":"levelo://app?vid=ae35589b-d85c-4f9a-b98c-9bc44748a230"},"vehicle_type_id":"4","last_reported":1737371260,"current_range_meters":16400,"station_id":"ce4bhkp2rcd13ifvqgd0","pricing_plan_id":"cebpf4jnsgd1na2vs0mg"},{"bike_id":"36c683e7-d43c-411b-9824-b4c7927686d1","system_id":"levelo_inurba_marseille","lat":43.28454,"lon":5.35896,"is_reserved":false,"is_disabled":false,"rental_uris":{"android":"levelo://app?vid=36c683e7-d43c-411b-9824-b4c7927686d1","ios":"levelo://app?vid=36c683e7-d43c-411b-9824-b4c7927686d1"},"vehicle_type_id":"4","last_reported":1737371260,"current_range_meters":38800,"station_id":"ce4bhah2rcd13ifvqei0","pricing_plan_id":"cebpf4jnsgd1na2vs0mg"},{"bike_id":"4104cbba-088f-4383-b2a0-261d17699731","system_id":"levelo_inurba_marseille","lat":43.23962,"lon":5.36652,"is_reserved":false,"is_disabled":false,"rental_uris":{"android":"levelo://app?vid=4104cbba-088f-4383-b2a0-261d17699731","ios":"levelo://app?vid=4104cbba-088f-4383-b2a0-261d17699731"},"vehicle_type_id":"4","last_reported":1737371260,"current_range_meters":32800,"station_id":"ce4bhi12rcd13ifvqfp0","pricing_plan_id":"cebpf4jnsgd1na2vs0mg"},{"bike_id":"7be810f6-d21f-44ca-8f08-d9a4a9e1b082","system_id":"levelo_inurba_marseille","lat":43.32357,"lon":5.36796,"is_reserved":false,"is_disabled":false,"rental_uris":{"android":"levelo://app?vid=7be810f6-d21f-44ca-8f08-d9a4a9e1b082","ios":"levelo://app?vid=7be810f6-d21f-44ca-8f08-d9a4a9e1b082"},"vehicle_type_id":"4","last_reported":1737371260,"current_range_meters":10800,"station_id":"ce4bhsh2rcd13ifvqi2g","pricing_plan_id":"cebpf4jnsgd1na2vs0mg"},{"bike_id":"2c38fa8e-0d86-4436-b148-173639b86651","system_id":"levelo_inurba_marseille","lat":43.30936,"lon":5.40159,"is_reserved":false,"is_disabled":false,"rental_uris":{"android":"levelo://app?vid=2c38fa8e-0d86-4436-b148-173639b86651","ios":"levelo://app?vid=2c38fa8e-0d86-4436-b148-173639b86651"},"vehicle_type_id":"4","last_reported":1737371260,"current_range_meters":37600,"station_id":"ce4bgvp2rcd13ifvqct0","pricing_plan_id":"cebpf4jnsgd1na2vs0mg"},{"bike_id":"e769477c-b503-4bb8-b7d3-b7f7ff9ddf2d","system_id":"levelo_inurba_marseille","lat":43.29197,"lon":5.36909,"is_reserved":false,"is_disabled":false,"rental_uris":{"android":"levelo://app?vid=e769477c-b503-4bb8-b7d3-b7f7ff9ddf2d","ios":"levelo://app?vid=e769477c-b503-4bb8-b7d3-b7f7ff9ddf2d"},"vehicle_type_id":"4","last_reported":1737371260,"current_range_meters":16000,"station_id":"","pricing_plan_id":"cebpf4jnsgd1na2vs0mg"},{"bike_id":"87f748ae-200c-46f9-a87e-58da3bbaecae","system_id":"levelo_inurba_marseille","lat":43.33387,"lon":5.42962,"is_reserved":false,"is_disabled":false,"rental_uris":{"android":"levelo://app?vid=87f748ae-200c-46f9-a87e-58da3bbaecae","ios":"levelo://app?vid=87f748ae-200c-46f9-a87e-58da3bbaecae"},"vehicle_type_id":"4","last_reported":1737371260,"current_range_meters":23200,"station_id":"","pricing_plan_id":"cebpf4jnsgd1na2vs0mg"},{"bike_id":"28ef1c1e-dd89-43e8-817b-9b489831397b","system_id":"levelo_inurba_marseille","lat":43.27108,"lon":5.39627,"is_reserved":false,"is_disabled":true,"rental_uris":{"android":"levelo://app?vid=28ef1c1e-dd89-43e8-817b-9b489831397b","ios":"levelo://app?vid=28ef1c1e-dd89-43e8-817b-9b489831397b"},"vehicle_type_id":"4","last_reported":1737371260,"current_range_meters":0,"station_id":"","pricing_plan_id":"cebpf4jnsgd1na2vs0mg"},{"bike_id":"a090d58d-a1fb-4921-bd15-f1d1e2db9ea4","system_id":"levelo_inurba_marseille","lat":43.2417,"lon":5.39735,"is_reserved":false,"is_disabled":false,"rental_uris":{"android":"levelo://app?vid=a090d58d-a1fb-4921-bd15-f1d1e2db9ea4","ios":"levelo://app?vid=a090d58d-a1fb-4921-bd15-f1d1e2db9ea4"},"vehicle_type_id":"4","last_reported":1737371260,"current_range_meters":27200,"station_id":"ce4bhn12rcd13ifvqgpg","pricing_plan_id":"cebpf4jnsgd1na2vs0mg"},{"bike_id":"b8c33cc5-e538-44b1-a7f5-a0c6163b2176","system_id":"levelo_inurba_marseille","lat":43.27211,"lon":5.39198,"is_reserved":false,"is_disabled":false,"rental_uris":{"android":"levelo://app?vid=b8c33cc5-e538-44b1-a7f5-a0c6163b2176","ios":"levelo://app?vid=b8c33cc5-e538-44b1-a7f5-a0c6163b2176"},"vehicle_type_id":"4","last_reported":1737371260,"current_range_meters":26800,"station_id":"ce4bhhp2rcd13ifvqfm0","pricing_plan_id":"cebpf4jnsgd1na2vs0mg"},{"bike_id":"973357c8-dead-42ca-92e9-500225bc994c","system_id":"levelo_inurba_marseille","lat":43.33024,"lon":5.3905,"is_reserved":false,"is_disabled":false,"rental_uris":{"android":"levelo://app?vid=973357c8-dead-42ca-92e9-500225bc994c","ios":"levelo://app?vid=973357c8-dead-42ca-92e9-500225bc994c"},"vehicle_type_id":"4","last_reported":1737371260,"current_range_meters":22800,"station_id":"ce4bhr92rcd13ifvqhrg","pricing_plan_id":"cebpf4jnsgd1na2vs0mg"},{"bike_id":"bbd6e56f-1a5f-4813-a7fd-d882eb94346c","system_id":"levelo_inurba_marseille","lat":43.31701,"lon":5.4371,"is_reserved":false,"is_disabled":true,"rental_uris":{"android":"levelo://app?vid=bbd6e56f-1a5f-4813-a7fd-d882eb94346c","ios":"levelo://app?vid=bbd6e56f-1a5f-4813-a7fd-d882eb94346c"},"vehicle_type_id":"4","last_reported":1737371260,"current_range_meters":39200,"station_id":"ce4bhp92rcd13ifvqhcg","pricing_plan_id":"cebpf4jnsgd1na2vs0mg"},{"bike_id":"25ab3857-b989-4b59-a2ab-bde27b49aadd","system_id":"levelo_inurba_marseille","lat":43.29265,"lon":5.40136,"is_reserved":false,"is_disabled":true,"rental_uris":{"android":"levelo://app?vid=25ab3857-b989-4b59-a2ab-bde27b49aadd","ios":"levelo://app?vid=25ab3857-b989-4b59-a2ab-bde27b49aadd"},"vehicle_type_id":"4","last_reported":1737371260,"current_range_meters":36800,"station_id":"ce4bh312rcd13ifvqdk0","pricing_plan_id":"cebpf4jnsgd1na2vs0mg"},{"bike_id":"fb8c76cb-9398-4d30-bd91-5e5333e1b9a0","system_id":"levelo_inurba_marseille","lat":43.28453,"lon":5.35889,"is_reserved":false,"is_disabled":false,"rental_uris":{"android":"levelo://app?vid=fb8c76cb-9398-4d30-bd91-5e5333e1b9a0","ios":"levelo://app?vid=fb8c76cb-9398-4d30-bd91-5e5333e1b9a0"},"vehicle_type_id":"4","last_reported":1737371260,"current_range_meters":38800,"station_id":"ce4bhah2rcd13ifvqei0","pricing_plan_id":"cebpf4jnsgd1na2vs0mg"},{"bike_id":"e362fcac-a1c2-40b0-99b0-8310143e8a12","system_id":"levelo_inurba_marseille","lat":43.31333,"lon":5.39698,"is_reserved":false,"is_disabled":false,"rental_uris":{"android":"levelo://app?vid=e362fcac-a1c2-40b0-99b0-8310143e8a12","ios":"levelo://app?vid=e362fcac-a1c2-40b0-99b0-8310143e8a12"},"vehicle_type_id":"4","last_reported":1737371260,"current_range_meters":37600,"station_id":"ce4bgvp2rcd13ifvqcu0","pricing_plan_id":"cebpf4jnsgd1na2vs0mg"},{"bike_id":"4ca0c0a8-ebec-4495-a31b-51805b75ee6d","system_id":"levelo_inurba_marseille","lat":43.2465,"lon":5.38903,"is_reserved":false,"is_disabled":false,"rental_uris":{"android":"levelo://app?vid=4ca0c0a8-ebec-4495-a31b-51805b75ee6d","ios":"levelo://app?vid=4ca0c0a8-ebec-4495-a31b-51805b75ee6d"},"vehicle_type_id":"4","last_reported":1737371260,"current_range_meters":38800,"station_id":"ce4bhg12rcd13ifvqf60","pricing_plan_id":"cebpf4jnsgd1na2vs0mg"},{"bike_id":"5a4fd843-4e42-4135-b5f4-a7048097d4d3","system_id":"levelo_inurba_marseille","lat":43.29735,"lon":5.37707,"is_reserved":false,"is_disabled":false,"rental_uris":{"android":"levelo://app?vid=5a4fd843-4e42-4135-b5f4-a7048097d4d3","ios":"levelo://app?vid=5a4fd843-4e42-4135-b5f4-a7048097d4d3"},"vehicle_type_id":"4","last_reported":1737371260,"current_range_meters":36400,"station_id":"ce4bgkh2rcd13ifvqbl0","pricing_plan_id":"cebpf4jnsgd1na2vs0mg"},{"bike_id":"d714004e-0a5d-46dc-8f45-dcd4ee7c47a7","system_id":"levelo_inurba_marseille","lat":43.29547,"lon":5.3749,"is_reserved":false,"is_disabled":false,"rental_uris":{"android":"levelo://app?vid=d714004e-0a5d-46dc-8f45-dcd4ee7c47a7","ios":"levelo://app?vid=d714004e-0a5d-46dc-8f45-dcd4ee7c47a7"},"vehicle_type_id":"4","last_reported":1737371260,"current_range_meters":39200,"station_id":"ce4bgkp2rcd13ifvqbmg","pricing_plan_id":"cebpf4jnsgd1na2vs0mg"},{"bike_id":"d1fbee56-a8f7-4480-a4bd-ba66bb143867","system_id":"levelo_inurba_marseille","lat":43.30241,"lon":5.37757,"is_reserved":false,"is_disabled":false,"rental_uris":{"android":"levelo://app?vid=d1fbee56-a8f7-4480-a4bd-ba66bb143867","ios":"levelo://app?vid=d1fbee56-a8f7-4480-a4bd-ba66bb143867"},"vehicle_type_id":"4","last_reported":1737371260,"current_range_meters":39200,"station_id":"ce4bguh2rcd13ifvqcj0","pricing_plan_id":"cebpf4jnsgd1na2vs0mg"},{"bike_id":"7edfec00-4b2e-4f8f-84c8-80dc19a05f65","system_id":"levelo_inurba_marseille","lat":43.26677,"lon":5.38273,"is_reserved":false,"is_disabled":false,"rental_uris":{"android":"levelo://app?vid=7edfec00-4b2e-4f8f-84c8-80dc19a05f65","ios":"levelo://app?vid=7edfec00-4b2e-4f8f-84c8-80dc19a05f65"},"vehicle_type_id":"4","last_reported":1737371260,"current_range_meters":37600,"station_id":"ce4bhg92rcd13ifvqf90","pricing_plan_id":"cebpf4jnsgd1na2vs0mg"},{"bike_id":"d2420bec-3d56-4379-9c60-dccd464e9eac","system_id":"levelo_inurba_marseille","lat":43.26745,"lon":5.39398,"is_reserved":false,"is_disabled":false,"rental_uris":{"android":"levelo://app?vid=d2420bec-3d56-4379-9c60-dccd464e9eac","ios":"levelo://app?vid=d2420bec-3d56-4379-9c60-dccd464e9eac"},"vehicle_type_id":"4","last_reported":1737371260,"current_range_meters":32800,"station_id":"","pricing_plan_id":"cebpf4jnsgd1na2vs0mg"},{"bike_id":"01a07bd9-36a1-4c19-a88b-7c9e3a6ee490","system_id":"levelo_inurba_marseille","lat":43.25091,"lon":5.39519,"is_reserved":false,"is_disabled":false,"rental_uris":{"android":"levelo://app?vid=01a07bd9-36a1-4c19-a88b-7c9e3a6ee490","ios":"levelo://app?vid=01a07bd9-36a1-4c19-a88b-7c9e3a6ee490"},"vehicle_type_id":"4","last_reported":1737371260,"current_range_meters":29600,"station_id":"ce4bhm12rcd13ifvqgkg","pricing_plan_id":"cebpf4jnsgd1na2vs0mg"},{"bike_id":"ed2666a4-4c5a-4a7e-be22-49a938cd6bbe","system_id":"levelo_inurba_marseille","lat":43.29918,"lon":5.37473,"is_reserved":false,"is_disabled":false,"rental_uris":{"android":"levelo://app?vid=ed2666a4-4c5a-4a7e-be22-49a938cd6bbe","ios":"levelo://app?vid=ed2666a4-4c5a-4a7e-be22-49a938cd6bbe"},"vehicle_type_id":"4","last_reported":1737371260,"current_range_meters":24400,"station_id":"ce4bgjh2rcd13ifvqbg0","pricing_plan_id":"cebpf4jnsgd1na2vs0mg"},{"bike_id":"b22c44fc-076a-48d3-b338-5c31d1781bf5","system_id":"levelo_inurba_marseille","lat":43.30188,"lon":5.36623,"is_reserved":false,"is_disabled":false,"rental_uris":{"android":"levelo://app?vid=b22c44fc-076a-48d3-b338-5c31d1781bf5","ios":"levelo://app?vid=b22c44fc-076a-48d3-b338-5c31d1781bf5"},"vehicle_type_id":"4","last_reported":1737371260,"current_range_meters":37600,"station_id":"ce4bgrh2rcd13ifvqc8g","pricing_plan_id":"cebpf4jnsgd1na2vs0mg"},{"bike_id":"c42268c0-a5e0-42b8-b874-93ef21576df8","system_id":"levelo_inurba_marseille","lat":43.28153,"lon":5.42665,"is_reserved":false,"is_disabled":false,"rental_uris":{"android":"levelo://app?vid=c42268c0-a5e0-42b8-b874-93ef21576df8","ios":"levelo://app?vid=c42268c0-a5e0-42b8-b874-93ef21576df8"},"vehicle_type_id":"4","last_reported":1737371260,"current_range_meters":24400,"station_id":"ce4bhnh2rcd13ifvqgug","pricing_plan_id":"cebpf4jnsgd1na2vs0mg"},{"bike_id":"77192f79-2b12-4ff4-874e-f5cab7df388a","system_id":"levelo_inurba_marseille","lat":43.28425,"lon":5.34994,"is_reserved":false,"is_disabled":true,"rental_uris":{"android":"levelo://app?vid=77192f79-2b12-4ff4-874e-f5cab7df388a","ios":"levelo://app?vid=77192f79-2b12-4ff4-874e-f5cab7df388a"},"vehicle_type_id":"4","last_reported":1737371260,"current_range_meters":33600,"station_id":"ce4bhbh2rcd13ifvqepg","pricing_plan_id":"cebpf4jnsgd1na2vs0mg"},{"bike_id":"f6477394-37ad-474b-869e-23ecf9fee49a","system_id":"levelo_inurba_marseille","lat":43.24167,"lon":5.39755,"is_reserved":false,"is_disabled":false,"rental_uris":{"android":"levelo://app?vid=f6477394-37ad-474b-869e-23ecf9fee49a","ios":"levelo://app?vid=f6477394-37ad-474b-869e-23ecf9fee49a"},"vehicle_type_id":"4","last_reported":1737371260,"current_range_meters":38800,"station_id":"ce4bhn12rcd13ifvqgpg","pricing_plan_id":"cebpf4jnsgd1na2vs0mg"},{"bike_id":"01e6e722-f692-47ad-9954-e66b12f335ac","system_id":"levelo_inurba_marseille","lat":43.29985,"lon":5.37189,"is_reserved":false,"is_disabled":false,"rental_uris":{"android":"levelo://app?vid=01e6e722-f692-47ad-9954-e66b12f335ac","ios":"levelo://app?vid=01e6e722-f692-47ad-9954-e66b12f335ac"},"vehicle_type_id":"4","last_reported":1737371260,"current_range_meters":16800,"station_id":"ce4bgr92rcd13ifvqc7g","pricing_plan_id":"cebpf4jnsgd1na2vs0mg"},{"bike_id":"4291632b-b89c-4c47-8e03-1ac2c74e4815","system_id":"levelo_inurba_marseille","lat":43.24156,"lon":5.397,"is_reserved":false,"is_disabled":false,"rental_uris":{"android":"levelo://app?vid=4291632b-b89c-4c47-8e03-1ac2c74e4815","ios":"levelo://app?vid=4291632b-b89c-4c47-8e03-1ac2c74e4815"},"vehicle_type_id":"4","last_reported":1737371260,"current_range_meters":35200,"station_id":"ce4bhn12rcd13ifvqgpg","pricing_plan_id":"cebpf4jnsgd1na2vs0mg"},{"bike_id":"49ec1c53-8b1b-4aab-9bfa-c7c99f891f25","system_id":"levelo_inurba_marseille","lat":43.28605,"lon":5.35105,"is_reserved":false,"is_disabled":false,"rental_uris":{"android":"levelo://app?vid=49ec1c53-8b1b-4aab-9bfa-c7c99f891f25","ios":"levelo://app?vid=49ec1c53-8b1b-4aab-9bfa-c7c99f891f25"},"vehicle_type_id":"4","last_reported":1737371260,"current_range_meters":4000,"station_id":"ce4bhch2rcd13ifvqeug","pricing_plan_id":"cebpf4jnsgd1na2vs0mg"},{"bike_id":"5c355f1f-2346-434b-b0b1-1dbab4b16da7","system_id":"levelo_inurba_marseille","lat":43.309082,"lon":5.368486,"is_reserved":false,"is_disabled":false,"rental_uris":{"android":"levelo://app?vid=5c355f1f-2346-434b-b0b1-1dbab4b16da7","ios":"levelo://app?vid=5c355f1f-2346-434b-b0b1-1dbab4b16da7"},"vehicle_type_id":"4","last_reported":1737371260,"current_range_meters":38800,"station_id":"ce4bgn92rcd13ifvqbvg","pricing_plan_id":"cebpf4jnsgd1na2vs0mg"},{"bike_id":"f9be9437-13be-4302-8cb6-459c7bce5ece","system_id":"levelo_inurba_marseille","lat":43.27492,"lon":5.42456,"is_reserved":false,"is_disabled":false,"rental_uris":{"android":"levelo://app?vid=f9be9437-13be-4302-8cb6-459c7bce5ece","ios":"levelo://app?vid=f9be9437-13be-4302-8cb6-459c7bce5ece"},"vehicle_type_id":"4","last_reported":1737371260,"current_range_meters":28000,"station_id":"ce4bhn92rcd13ifvqgrg","pricing_plan_id":"cebpf4jnsgd1na2vs0mg"},{"bike_id":"58cee66f-0bcc-403c-b699-b409f0eb1d80","system_id":"levelo_inurba_marseille","lat":43.24173,"lon":5.39727,"is_reserved":false,"is_disabled":false,"rental_uris":{"android":"levelo://app?vid=58cee66f-0bcc-403c-b699-b409f0eb1d80","ios":"levelo://app?vid=58cee66f-0bcc-403c-b699-b409f0eb1d80"},"vehicle_type_id":"4","last_reported":1737371260,"current_range_meters":32000,"station_id":"ce4bhn12rcd13ifvqgpg","pricing_plan_id":"cebpf4jnsgd1na2vs0mg"},{"bike_id":"a928f3f8-500f-4949-9198-e59e77dfdb5f","system_id":"levelo_inurba_marseille","lat":43.25023,"lon":5.38866,"is_reserved":false,"is_disabled":false,"rental_uris":{"android":"levelo://app?vid=a928f3f8-500f-4949-9198-e59e77dfdb5f","ios":"levelo://app?vid=a928f3f8-500f-4949-9198-e59e77dfdb5f"},"vehicle_type_id":"4","last_reported":1737371260,"current_range_meters":24800,"station_id":"ce4bhgp2rcd13ifvqfd0","pricing_plan_id":"cebpf4jnsgd1na2vs0mg"},{"bike_id":"0897e627-1690-4b1c-984d-29cb463c9770","system_id":"levelo_inurba_marseille","lat":43.319,"lon":5.40748,"is_reserved":false,"is_disabled":true,"rental_uris":{"android":"levelo://app?vid=0897e627-1690-4b1c-984d-29cb463c9770","ios":"levelo://app?vid=0897e627-1690-4b1c-984d-29cb463c9770"},"vehicle_type_id":"4","last_reported":1737371260,"current_range_meters":0,"station_id":"ce4bhq12rcd13ifvqhig","pricing_plan_id":"cebpf4jnsgd1na2vs0mg"},{"bike_id":"80bcc3e7-77de-44a5-8965-f19acb6d7452","system_id":"levelo_inurba_marseille","lat":43.33027,"lon":5.3905,"is_reserved":false,"is_disabled":false,"rental_uris":{"android":"levelo://app?vid=80bcc3e7-77de-44a5-8965-f19acb6d7452","ios":"levelo://app?vid=80bcc3e7-77de-44a5-8965-f19acb6d7452"},"vehicle_type_id":"4","last_reported":1737371260,"current_range_meters":39200,"station_id":"ce4bhr92rcd13ifvqhrg","pricing_plan_id":"cebpf4jnsgd1na2vs0mg"},{"bike_id":"04f1edb5-f486-4a30-a06a-2ee90f2a76a0","system_id":"levelo_inurba_marseille","lat":43.28471,"lon":5.35894,"is_reserved":false,"is_disabled":false,"rental_uris":{"android":"levelo://app?vid=04f1edb5-f486-4a30-a06a-2ee90f2a76a0","ios":"levelo://app?vid=04f1edb5-f486-4a30-a06a-2ee90f2a76a0"},"vehicle_type_id":"4","last_reported":1737371260,"current_range_meters":23200,"station_id":"ce4bhah2rcd13ifvqei0","pricing_plan_id":"cebpf4jnsgd1na2vs0mg"},{"bike_id":"b3bbec6d-8e05-4d19-8fdb-b6e3ec816df6","system_id":"levelo_inurba_marseille","lat":43.31239,"lon":5.36859,"is_reserved":false,"is_disabled":false,"rental_uris":{"android":"levelo://app?vid=b3bbec6d-8e05-4d19-8fdb-b6e3ec816df6","ios":"levelo://app?vid=b3bbec6d-8e05-4d19-8fdb-b6e3ec816df6"},"vehicle_type_id":"4","last_reported":1737371260,"current_range_meters":32400,"station_id":"ce4bgl92rcd13ifvqbq0","pricing_plan_id":"cebpf4jnsgd1na2vs0mg"},{"bike_id":"210ffe2d-27bf-471a-a897-ba0eb55d9e2b","system_id":"levelo_inurba_marseille","lat":43.27051,"lon":5.42307,"is_reserved":false,"is_disabled":false,"rental_uris":{"android":"levelo://app?vid=210ffe2d-27bf-471a-a897-ba0eb55d9e2b","ios":"levelo://app?vid=210ffe2d-27bf-471a-a897-ba0eb55d9e2b"},"vehicle_type_id":"4","last_reported":1737371260,"current_range_meters":30400,"station_id":"ce4bhk92rcd13ifvqgb0","pricing_plan_id":"cebpf4jnsgd1na2vs0mg"},{"bike_id":"c17a9fd0-dfc9-4003-b545-807d643133a2","system_id":"levelo_inurba_marseille","lat":43.32288,"lon":5.38267,"is_reserved":false,"is_disabled":false,"rental_uris":{"android":"levelo://app?vid=c17a9fd0-dfc9-4003-b545-807d643133a2","ios":"levelo://app?vid=c17a9fd0-dfc9-4003-b545-807d643133a2"},"vehicle_type_id":"4","last_reported":1737371260,"current_range_meters":8400,"station_id":"ce4bhr12rcd13ifvqhqg","pricing_plan_id":"cebpf4jnsgd1na2vs0mg"},{"bike_id":"c4eadc09-1e12-4b83-a376-4b93cd50b98c","system_id":"levelo_inurba_marseille","lat":43.29967,"lon":5.38497,"is_reserved":false,"is_disabled":true,"rental_uris":{"android":"levelo://app?vid=c4eadc09-1e12-4b83-a376-4b93cd50b98c","ios":"levelo://app?vid=c4eadc09-1e12-4b83-a376-4b93cd50b98c"},"vehicle_type_id":"4","last_reported":1737371260,"current_range_meters":2000,"station_id":"ce4bgj92rcd13ifvqbd0","pricing_plan_id":"cebpf4jnsgd1na2vs0mg"},{"bike_id":"e16bfad3-6e5c-42b6-90cd-e77c51d0ba6a","system_id":"levelo_inurba_marseille","lat":43.29883,"lon":5.38143,"is_reserved":false,"is_disabled":false,"rental_uris":{"android":"levelo://app?vid=e16bfad3-6e5c-42b6-90cd-e77c51d0ba6a","ios":"levelo://app?vid=e16bfad3-6e5c-42b6-90cd-e77c51d0ba6a"},"vehicle_type_id":"4","last_reported":1737371260,"current_range_meters":26000,"station_id":"ce4bgj12rcd13ifvqbc0","pricing_plan_id":"cebpf4jnsgd1na2vs0mg"},{"bike_id":"ab191ae3-3427-4d3d-87f3-826750c7ceb7","system_id":"levelo_inurba_marseille","lat":43.29039,"lon":5.38651,"is_reserved":false,"is_disabled":false,"rental_uris":{"android":"levelo://app?vid=ab191ae3-3427-4d3d-87f3-826750c7ceb7","ios":"levelo://app?vid=ab191ae3-3427-4d3d-87f3-826750c7ceb7"},"vehicle_type_id":"4","last_reported":1737371260,"current_range_meters":28800,"station_id":"ce4bh4p2rcd13ifvqe0g","pricing_plan_id":"cebpf4jnsgd1na2vs0mg"},{"bike_id":"50343fe7-b049-4115-b6cd-1d192f0464f8","system_id":"levelo_inurba_marseille","lat":43.25823,"lon":5.3944,"is_reserved":false,"is_disabled":false,"rental_uris":{"android":"levelo://app?vid=50343fe7-b049-4115-b6cd-1d192f0464f8","ios":"levelo://app?vid=50343fe7-b049-4115-b6cd-1d192f0464f8"},"vehicle_type_id":"4","last_reported":1737371260,"current_range_meters":39200,"station_id":"ce4bhip2rcd13ifvqft0","pricing_plan_id":"cebpf4jnsgd1na2vs0mg"},{"bike_id":"de830174-746f-42c2-b6c4-6223e9b88cf1","system_id":"levelo_inurba_marseille","lat":43.308757,"lon":5.396378,"is_reserved":false,"is_disabled":false,"rental_uris":{"android":"levelo://app?vid=de830174-746f-42c2-b6c4-6223e9b88cf1","ios":"levelo://app?vid=de830174-746f-42c2-b6c4-6223e9b88cf1"},"vehicle_type_id":"4","last_reported":1737371260,"current_range_meters":24800,"station_id":"ce4bh012rcd13ifvqcv0","pricing_plan_id":"cebpf4jnsgd1na2vs0mg"},{"bike_id":"a647e767-5199-4dd6-913b-4df8a3b985b1","system_id":"levelo_inurba_marseille","lat":43.29303,"lon":5.37426,"is_reserved":false,"is_disabled":false,"rental_uris":{"android":"levelo://app?vid=a647e767-5199-4dd6-913b-4df8a3b985b1","ios":"levelo://app?vid=a647e767-5199-4dd6-913b-4df8a3b985b1"},"vehicle_type_id":"4","last_reported":1737371260,"current_range_meters":12800,"station_id":"ce4bgi12rcd13ifvqb70","pricing_plan_id":"cebpf4jnsgd1na2vs0mg"},{"bike_id":"43ab6a6e-18b0-45a2-bdfd-26946078537a","system_id":"levelo_inurba_marseille","lat":43.25021,"lon":5.38913,"is_reserved":false,"is_disabled":false,"rental_uris":{"android":"levelo://app?vid=43ab6a6e-18b0-45a2-bdfd-26946078537a","ios":"levelo://app?vid=43ab6a6e-18b0-45a2-bdfd-26946078537a"},"vehicle_type_id":"4","last_reported":1737371260,"current_range_meters":38000,"station_id":"ce4bhgp2rcd13ifvqfd0","pricing_plan_id":"cebpf4jnsgd1na2vs0mg"},{"bike_id":"5ae8ec47-921a-4a21-8ff2-83fb110c111a","system_id":"levelo_inurba_marseille","lat":43.29863,"lon":5.38924,"is_reserved":false,"is_disabled":false,"rental_uris":{"android":"levelo://app?vid=5ae8ec47-921a-4a21-8ff2-83fb110c111a","ios":"levelo://app?vid=5ae8ec47-921a-4a21-8ff2-83fb110c111a"},"vehicle_type_id":"4","last_reported":1737371260,"current_range_meters":15200,"station_id":"ce4bh392rcd13ifvqdl0","pricing_plan_id":"cebpf4jnsgd1na2vs0mg"},{"bike_id":"b69f7b86-d90e-491b-a17d-ddcffba66e34","system_id":"levelo_inurba_marseille","lat":43.29614,"lon":5.37723,"is_reserved":false,"is_disabled":false,"rental_uris":{"android":"levelo://app?vid=b69f7b86-d90e-491b-a17d-ddcffba66e34","ios":"levelo://app?vid=b69f7b86-d90e-491b-a17d-ddcffba66e34"},"vehicle_type_id":"4","last_reported":1737371260,"current_range_meters":39200,"station_id":"ce4bgi92rcd13ifvqb90","pricing_plan_id":"cebpf4jnsgd1na2vs0mg"},{"bike_id":"f50c355d-0a75-47b0-b4cf-cd0ad431856e","system_id":"levelo_inurba_marseille","lat":43.30144,"lon":5.38091,"is_reserved":false,"is_disabled":false,"rental_uris":{"android":"levelo://app?vid=f50c355d-0a75-47b0-b4cf-cd0ad431856e","ios":"levelo://app?vid=f50c355d-0a75-47b0-b4cf-cd0ad431856e"},"vehicle_type_id":"4","last_reported":1737371260,"current_range_meters":38800,"station_id":"ce4bgjp2rcd13ifvqbh0","pricing_plan_id":"cebpf4jnsgd1na2vs0mg"},{"bike_id":"ec33765d-7a06-4502-8d3b-fca25f7adf6c","system_id":"levelo_inurba_marseille","lat":43.297,"lon":5.3771,"is_reserved":false,"is_disabled":false,"rental_uris":{"android":"levelo://app?vid=ec33765d-7a06-4502-8d3b-fca25f7adf6c","ios":"levelo://app?vid=ec33765d-7a06-4502-8d3b-fca25f7adf6c"},"vehicle_type_id":"4","last_reported":1737371260,"current_range_meters":19600,"station_id":"ce4bgkh2rcd13ifvqbl0","pricing_plan_id":"cebpf4jnsgd1na2vs0mg"},{"bike_id":"0da2ecad-d3b6-4585-836d-795f50ec6d78","system_id":"levelo_inurba_marseille","lat":43.27946,"lon":5.41057,"is_reserved":false,"is_disabled":false,"rental_uris":{"android":"levelo://app?vid=0da2ecad-d3b6-4585-836d-795f50ec6d78","ios":"levelo://app?vid=0da2ecad-d3b6-4585-836d-795f50ec6d78"},"vehicle_type_id":"4","last_reported":1737371260,"current_range_meters":16400,"station_id":"ce4bhnp2rcd13ifvqh0g","pricing_plan_id":"cebpf4jnsgd1na2vs0mg"},{"bike_id":"0b770f8c-3caf-4b0f-b1b7-e2264ff2f2a6","system_id":"levelo_inurba_marseille","lat":43.28459,"lon":5.35887,"is_reserved":false,"is_disabled":false,"rental_uris":{"android":"levelo://app?vid=0b770f8c-3caf-4b0f-b1b7-e2264ff2f2a6","ios":"levelo://app?vid=0b770f8c-3caf-4b0f-b1b7-e2264ff2f2a6"},"vehicle_type_id":"4","last_reported":1737371260,"current_range_meters":26800,"station_id":"ce4bhah2rcd13ifvqei0","pricing_plan_id":"cebpf4jnsgd1na2vs0mg"},{"bike_id":"0e91b70c-1e42-4d65-a90a-72cbd40954b0","system_id":"levelo_inurba_marseille","lat":43.32356,"lon":5.36754,"is_reserved":false,"is_disabled":false,"rental_uris":{"android":"levelo://app?vid=0e91b70c-1e42-4d65-a90a-72cbd40954b0","ios":"levelo://app?vid=0e91b70c-1e42-4d65-a90a-72cbd40954b0"},"vehicle_type_id":"4","last_reported":1737371260,"current_range_meters":38000,"station_id":"ce4bhsh2rcd13ifvqi2g","pricing_plan_id":"cebpf4jnsgd1na2vs0mg"},{"bike_id":"809cb738-c150-49d8-8dbb-7ac1d2ee4312","system_id":"levelo_inurba_marseille","lat":43.30224,"lon":5.36548,"is_reserved":false,"is_disabled":false,"rental_uris":{"android":"levelo://app?vid=809cb738-c150-49d8-8dbb-7ac1d2ee4312","ios":"levelo://app?vid=809cb738-c150-49d8-8dbb-7ac1d2ee4312"},"vehicle_type_id":"4","last_reported":1737371260,"current_range_meters":39200,"station_id":"ce4bgrh2rcd13ifvqc8g","pricing_plan_id":"cebpf4jnsgd1na2vs0mg"},{"bike_id":"c4f59ddd-da2d-4524-a40d-d119740a67c5","system_id":"levelo_inurba_marseille","lat":43.29049,"lon":5.3716,"is_reserved":false,"is_disabled":false,"rental_uris":{"android":"levelo://app?vid=c4f59ddd-da2d-4524-a40d-d119740a67c5","ios":"levelo://app?vid=c4f59ddd-da2d-4524-a40d-d119740a67c5"},"vehicle_type_id":"4","last_reported":1737371260,"current_range_meters":23200,"station_id":"ce4bh5p2rcd13ifvqe4g","pricing_plan_id":"cebpf4jnsgd1na2vs0mg"},{"bike_id":"7f6908f7-cfcb-4080-a4c3-d5b221bf885b","system_id":"levelo_inurba_marseille","lat":43.320475,"lon":5.415823,"is_reserved":false,"is_disabled":true,"rental_uris":{"android":"levelo://app?vid=7f6908f7-cfcb-4080-a4c3-d5b221bf885b","ios":"levelo://app?vid=7f6908f7-cfcb-4080-a4c3-d5b221bf885b"},"vehicle_type_id":"4","last_reported":1737371260,"current_range_meters":0,"station_id":"ce4bhq92rcd13ifvqhkg","pricing_plan_id":"cebpf4jnsgd1na2vs0mg"},{"bike_id":"146a0fc6-102c-4b68-8436-40e86162d01b","system_id":"levelo_inurba_marseille","lat":43.25926,"lon":5.40914,"is_reserved":false,"is_disabled":false,"rental_uris":{"android":"levelo://app?vid=146a0fc6-102c-4b68-8436-40e86162d01b","ios":"levelo://app?vid=146a0fc6-102c-4b68-8436-40e86162d01b"},"vehicle_type_id":"4","last_reported":1737371260,"current_range_meters":36800,"station_id":"ce4bhm92rcd13ifvqglg","pricing_plan_id":"cebpf4jnsgd1na2vs0mg"},{"bike_id":"d5cdfc7d-786b-48b6-ab2e-87b6b0bfb667","system_id":"levelo_inurba_marseille","lat":43.28569,"lon":5.39497,"is_reserved":false,"is_disabled":false,"rental_uris":{"android":"levelo://app?vid=d5cdfc7d-786b-48b6-ab2e-87b6b0bfb667","ios":"levelo://app?vid=d5cdfc7d-786b-48b6-ab2e-87b6b0bfb667"},"vehicle_type_id":"4","last_reported":1737371260,"current_range_meters":36800,"station_id":"ce4bh292rcd13ifvqdg0","pricing_plan_id":"cebpf4jnsgd1na2vs0mg"},{"bike_id":"02f25583-5bae-4143-b3b2-7b8d3f3e60d9","system_id":"levelo_inurba_marseille","lat":43.28471,"lon":5.38458,"is_reserved":false,"is_disabled":true,"rental_uris":{"android":"levelo://app?vid=02f25583-5bae-4143-b3b2-7b8d3f3e60d9","ios":"levelo://app?vid=02f25583-5bae-4143-b3b2-7b8d3f3e60d9"},"vehicle_type_id":"4","last_reported":1737371260,"current_range_meters":32000,"station_id":"ce4bh512rcd13ifvqe3g","pricing_plan_id":"cebpf4jnsgd1na2vs0mg"},{"bike_id":"49a402ee-9426-4480-851d-32c270e8931d","system_id":"levelo_inurba_marseille","lat":43.27167,"lon":5.40996,"is_reserved":false,"is_disabled":false,"rental_uris":{"android":"levelo://app?vid=49a402ee-9426-4480-851d-32c270e8931d","ios":"levelo://app?vid=49a402ee-9426-4480-851d-32c270e8931d"},"vehicle_type_id":"4","last_reported":1737371260,"current_range_meters":31200,"station_id":"ce4bhl12rcd13ifvqgf0","pricing_plan_id":"cebpf4jnsgd1na2vs0mg"},{"bike_id":"825415c5-b344-4283-b47f-98ddc61746b7","system_id":"levelo_inurba_marseille","lat":43.28467,"lon":5.38546,"is_reserved":false,"is_disabled":false,"rental_uris":{"android":"levelo://app?vid=825415c5-b344-4283-b47f-98ddc61746b7","ios":"levelo://app?vid=825415c5-b344-4283-b47f-98ddc61746b7"},"vehicle_type_id":"4","last_reported":1737371260,"current_range_meters":2800,"station_id":"ce4bh8p2rcd13ifvqeb0","pricing_plan_id":"cebpf4jnsgd1na2vs0mg"},{"bike_id":"1ed3e132-8162-468a-bb72-1cf91c18a765","system_id":"levelo_inurba_marseille","lat":43.30204,"lon":5.39476,"is_reserved":false,"is_disabled":false,"rental_uris":{"android":"levelo://app?vid=1ed3e132-8162-468a-bb72-1cf91c18a765","ios":"levelo://app?vid=1ed3e132-8162-468a-bb72-1cf91c18a765"},"vehicle_type_id":"4","last_reported":1737371260,"current_range_meters":38800,"station_id":"ce4bh0p2rcd13ifvqd70","pricing_plan_id":"cebpf4jnsgd1na2vs0mg"},{"bike_id":"7944f103-435e-484a-8b2c-2f4ab0a687c2","system_id":"levelo_inurba_marseille","lat":43.24085,"lon":5.37751,"is_reserved":false,"is_disabled":false,"rental_uris":{"android":"levelo://app?vid=7944f103-435e-484a-8b2c-2f4ab0a687c2","ios":"levelo://app?vid=7944f103-435e-484a-8b2c-2f4ab0a687c2"},"vehicle_type_id":"4","last_reported":1737371260,"current_range_meters":5600,"station_id":"ce4bhnp2rcd13ifvqgvg","pricing_plan_id":"cebpf4jnsgd1na2vs0mg"},{"bike_id":"f50183e4-71ca-412a-b3a0-01a0e393ecef","system_id":"levelo_inurba_marseille","lat":43.281489,"lon":5.426439,"is_reserved":false,"is_disabled":false,"rental_uris":{"android":"levelo://app?vid=f50183e4-71ca-412a-b3a0-01a0e393ecef","ios":"levelo://app?vid=f50183e4-71ca-412a-b3a0-01a0e393ecef"},"vehicle_type_id":"4","last_reported":1737371260,"current_range_meters":26000,"station_id":"ce4bhnh2rcd13ifvqgug","pricing_plan_id":"cebpf4jnsgd1na2vs0mg"},{"bike_id":"06815d35-757d-4280-814a-8dba22433ced","system_id":"levelo_inurba_marseille","lat":43.27062,"lon":5.42297,"is_reserved":false,"is_disabled":false,"rental_uris":{"android":"levelo://app?vid=06815d35-757d-4280-814a-8dba22433ced","ios":"levelo://app?vid=06815d35-757d-4280-814a-8dba22433ced"},"vehicle_type_id":"4","last_reported":1737371260,"current_range_meters":36800,"station_id":"ce4bhk92rcd13ifvqgb0","pricing_plan_id":"cebpf4jnsgd1na2vs0mg"},{"bike_id":"9d8c985f-9ddd-4ed5-810e-e641fc79bfe6","system_id":"levelo_inurba_marseille","lat":43.298,"lon":5.38062,"is_reserved":false,"is_disabled":false,"rental_uris":{"android":"levelo://app?vid=9d8c985f-9ddd-4ed5-810e-e641fc79bfe6","ios":"levelo://app?vid=9d8c985f-9ddd-4ed5-810e-e641fc79bfe6"},"vehicle_type_id":"4","last_reported":1737371260,"current_range_meters":36400,"station_id":"ce4bgip2rcd13ifvqbb0","pricing_plan_id":"cebpf4jnsgd1na2vs0mg"},{"bike_id":"86ad6afd-f93d-4eb2-9a6e-b19106ea8e71","system_id":"levelo_inurba_marseille","lat":43.2811,"lon":5.37841,"is_reserved":false,"is_disabled":false,"rental_uris":{"android":"levelo://app?vid=86ad6afd-f93d-4eb2-9a6e-b19106ea8e71","ios":"levelo://app?vid=86ad6afd-f93d-4eb2-9a6e-b19106ea8e71"},"vehicle_type_id":"4","last_reported":1737371260,"current_range_meters":6800,"station_id":"ce4bha12rcd13ifvqee0","pricing_plan_id":"cebpf4jnsgd1na2vs0mg"},{"bike_id":"7a956b0b-b8f6-4389-bb50-97bccab2a50c","system_id":"levelo_inurba_marseille","lat":43.25916,"lon":5.40872,"is_reserved":false,"is_disabled":false,"rental_uris":{"android":"levelo://app?vid=7a956b0b-b8f6-4389-bb50-97bccab2a50c","ios":"levelo://app?vid=7a956b0b-b8f6-4389-bb50-97bccab2a50c"},"vehicle_type_id":"4","last_reported":1737371260,"current_range_meters":38800,"station_id":"ce4bhm92rcd13ifvqglg","pricing_plan_id":"cebpf4jnsgd1na2vs0mg"},{"bike_id":"7f89e5a1-b2af-46b9-ad79-8855b33adb33","system_id":"levelo_inurba_marseille","lat":43.2845,"lon":5.35883,"is_reserved":false,"is_disabled":false,"rental_uris":{"android":"levelo://app?vid=7f89e5a1-b2af-46b9-ad79-8855b33adb33","ios":"levelo://app?vid=7f89e5a1-b2af-46b9-ad79-8855b33adb33"},"vehicle_type_id":"4","last_reported":1737371260,"current_range_meters":17200,"station_id":"ce4bhah2rcd13ifvqei0","pricing_plan_id":"cebpf4jnsgd1na2vs0mg"},{"bike_id":"45b46742-a62d-4855-9ae3-d6f0621cbfdc","system_id":"levelo_inurba_marseille","lat":43.25817,"lon":5.39426,"is_reserved":false,"is_disabled":false,"rental_uris":{"android":"levelo://app?vid=45b46742-a62d-4855-9ae3-d6f0621cbfdc","ios":"levelo://app?vid=45b46742-a62d-4855-9ae3-d6f0621cbfdc"},"vehicle_type_id":"4","last_reported":1737371260,"current_range_meters":37600,"station_id":"ce4bhip2rcd13ifvqft0","pricing_plan_id":"cebpf4jnsgd1na2vs0mg"},{"bike_id":"a80b852c-67f7-4f92-bf4d-54e70b44a4b9","system_id":"levelo_inurba_marseille","lat":43.29838,"lon":5.36272,"is_reserved":false,"is_disabled":false,"rental_uris":{"android":"levelo://app?vid=a80b852c-67f7-4f92-bf4d-54e70b44a4b9","ios":"levelo://app?vid=a80b852c-67f7-4f92-bf4d-54e70b44a4b9"},"vehicle_type_id":"4","last_reported":1737371260,"current_range_meters":9200,"station_id":"ce4bgpp2rcd13ifvqc3g","pricing_plan_id":"cebpf4jnsgd1na2vs0mg"},{"bike_id":"b6d1ac21-fc62-4f37-818a-ccd3f22a727f","system_id":"levelo_inurba_marseille","lat":43.30939,"lon":5.39065,"is_reserved":false,"is_disabled":false,"rental_uris":{"android":"levelo://app?vid=b6d1ac21-fc62-4f37-818a-ccd3f22a727f","ios":"levelo://app?vid=b6d1ac21-fc62-4f37-818a-ccd3f22a727f"},"vehicle_type_id":"4","last_reported":1737371260,"current_range_meters":12400,"station_id":"ce4bgup2rcd13ifvqco0","pricing_plan_id":"cebpf4jnsgd1na2vs0mg"},{"bike_id":"1fff2a9f-023a-43ec-bd02-633596668a23","system_id":"levelo_inurba_marseille","lat":43.29619,"lon":5.37167,"is_reserved":false,"is_disabled":false,"rental_uris":{"android":"levelo://app?vid=1fff2a9f-023a-43ec-bd02-633596668a23","ios":"levelo://app?vid=1fff2a9f-023a-43ec-bd02-633596668a23"},"vehicle_type_id":"4","last_reported":1737371260,"current_range_meters":38800,"station_id":"ce4bgnh2rcd13ifvqc0g","pricing_plan_id":"cebpf4jnsgd1na2vs0mg"},{"bike_id":"072c3726-49c0-4288-9182-c88fa0a8900c","system_id":"levelo_inurba_marseille","lat":43.27818,"lon":5.40718,"is_reserved":false,"is_disabled":false,"rental_uris":{"android":"levelo://app?vid=072c3726-49c0-4288-9182-c88fa0a8900c","ios":"levelo://app?vid=072c3726-49c0-4288-9182-c88fa0a8900c"},"vehicle_type_id":"4","last_reported":1737371260,"current_range_meters":38800,"station_id":"ce4bhnh2rcd13ifvqgtg","pricing_plan_id":"cebpf4jnsgd1na2vs0mg"},{"bike_id":"daa469d1-906a-422d-a928-7db834887741","system_id":"levelo_inurba_marseille","lat":43.31233,"lon":5.36867,"is_reserved":false,"is_disabled":false,"rental_uris":{"android":"levelo://app?vid=daa469d1-906a-422d-a928-7db834887741","ios":"levelo://app?vid=daa469d1-906a-422d-a928-7db834887741"},"vehicle_type_id":"4","last_reported":1737371260,"current_range_meters":30400,"station_id":"ce4bgl92rcd13ifvqbq0","pricing_plan_id":"cebpf4jnsgd1na2vs0mg"},{"bike_id":"5d9adbbc-4203-4461-801c-45face10ed6b","system_id":"levelo_inurba_marseille","lat":43.3153,"lon":5.38038,"is_reserved":false,"is_disabled":false,"rental_uris":{"android":"levelo://app?vid=5d9adbbc-4203-4461-801c-45face10ed6b","ios":"levelo://app?vid=5d9adbbc-4203-4461-801c-45face10ed6b"},"vehicle_type_id":"4","last_reported":1737371260,"current_range_meters":33600,"station_id":"ce4bhsp2rcd13ifvqi50","pricing_plan_id":"cebpf4jnsgd1na2vs0mg"},{"bike_id":"46ae7c80-7c8b-4fcb-bc3e-12063783f245","system_id":"levelo_inurba_marseille","lat":43.248,"lon":5.37462,"is_reserved":false,"is_disabled":false,"rental_uris":{"android":"levelo://app?vid=46ae7c80-7c8b-4fcb-bc3e-12063783f245","ios":"levelo://app?vid=46ae7c80-7c8b-4fcb-bc3e-12063783f245"},"vehicle_type_id":"4","last_reported":1737371260,"current_range_meters":38800,"station_id":"ce4bhgh2rcd13ifvqfb0","pricing_plan_id":"cebpf4jnsgd1na2vs0mg"},{"bike_id":"5a868be9-e1c4-4f9c-a6a9-bf1df3c6b0ed","system_id":"levelo_inurba_marseille","lat":43.32335,"lon":5.38918,"is_reserved":false,"is_disabled":false,"rental_uris":{"android":"levelo://app?vid=5a868be9-e1c4-4f9c-a6a9-bf1df3c6b0ed","ios":"levelo://app?vid=5a868be9-e1c4-4f9c-a6a9-bf1df3c6b0ed"},"vehicle_type_id":"4","last_reported":1737371260,"current_range_meters":3600,"station_id":"ce4bhqp2rcd13ifvqhog","pricing_plan_id":"cebpf4jnsgd1na2vs0mg"},{"bike_id":"f2390374-e060-4fe1-bcfa-cb2711193e58","system_id":"levelo_inurba_marseille","lat":43.25121,"lon":5.39504,"is_reserved":false,"is_disabled":false,"rental_uris":{"android":"levelo://app?vid=f2390374-e060-4fe1-bcfa-cb2711193e58","ios":"levelo://app?vid=f2390374-e060-4fe1-bcfa-cb2711193e58"},"vehicle_type_id":"4","last_reported":1737371260,"current_range_meters":36000,"station_id":"ce4bhm12rcd13ifvqgkg","pricing_plan_id":"cebpf4jnsgd1na2vs0mg"},{"bike_id":"4739fcef-9188-42ed-9804-c8db66e5947c","system_id":"levelo_inurba_marseille","lat":43.30927,"lon":5.36851,"is_reserved":false,"is_disabled":false,"rental_uris":{"android":"levelo://app?vid=4739fcef-9188-42ed-9804-c8db66e5947c","ios":"levelo://app?vid=4739fcef-9188-42ed-9804-c8db66e5947c"},"vehicle_type_id":"4","last_reported":1737371260,"current_range_meters":32000,"station_id":"ce4bgn92rcd13ifvqbvg","pricing_plan_id":"cebpf4jnsgd1na2vs0mg"},{"bike_id":"dce3c90d-37f4-4b01-88a0-6c51ce8cf835","system_id":"levelo_inurba_marseille","lat":43.30948,"lon":5.39055,"is_reserved":false,"is_disabled":false,"rental_uris":{"android":"levelo://app?vid=dce3c90d-37f4-4b01-88a0-6c51ce8cf835","ios":"levelo://app?vid=dce3c90d-37f4-4b01-88a0-6c51ce8cf835"},"vehicle_type_id":"4","last_reported":1737371260,"current_range_meters":28400,"station_id":"ce4bgup2rcd13ifvqco0","pricing_plan_id":"cebpf4jnsgd1na2vs0mg"},{"bike_id":"845d7cf4-ec17-43a3-894e-c1ef7ef7a886","system_id":"levelo_inurba_marseille","lat":43.290988,"lon":5.381371,"is_reserved":false,"is_disabled":false,"rental_uris":{"android":"levelo://app?vid=845d7cf4-ec17-43a3-894e-c1ef7ef7a886","ios":"levelo://app?vid=845d7cf4-ec17-43a3-894e-c1ef7ef7a886"},"vehicle_type_id":"4","last_reported":1737371260,"current_range_meters":14800,"station_id":"ce4bh512rcd13ifvqe2g","pricing_plan_id":"cebpf4jnsgd1na2vs0mg"},{"bike_id":"b9e5574d-e6d5-48b5-b96d-dbd4c4ee194e","system_id":"levelo_inurba_marseille","lat":43.30951,"lon":5.39035,"is_reserved":false,"is_disabled":false,"rental_uris":{"android":"levelo://app?vid=b9e5574d-e6d5-48b5-b96d-dbd4c4ee194e","ios":"levelo://app?vid=b9e5574d-e6d5-48b5-b96d-dbd4c4ee194e"},"vehicle_type_id":"4","last_reported":1737371260,"current_range_meters":24000,"station_id":"ce4bgup2rcd13ifvqco0","pricing_plan_id":"cebpf4jnsgd1na2vs0mg"},{"bike_id":"e7e5efb6-7753-4636-9496-83307e65eeb6","system_id":"levelo_inurba_marseille","lat":43.26044,"lon":5.39402,"is_reserved":false,"is_disabled":false,"rental_uris":{"android":"levelo://app?vid=e7e5efb6-7753-4636-9496-83307e65eeb6","ios":"levelo://app?vid=e7e5efb6-7753-4636-9496-83307e65eeb6"},"vehicle_type_id":"4","last_reported":1737371260,"current_range_meters":27600,"station_id":"ce4bhh92rcd13ifvqfj0","pricing_plan_id":"cebpf4jnsgd1na2vs0mg"},{"bike_id":"6bbc47c9-ed18-464f-ae15-c7d53e2bd9ba","system_id":"levelo_inurba_marseille","lat":43.29753,"lon":5.37105,"is_reserved":false,"is_disabled":false,"rental_uris":{"android":"levelo://app?vid=6bbc47c9-ed18-464f-ae15-c7d53e2bd9ba","ios":"levelo://app?vid=6bbc47c9-ed18-464f-ae15-c7d53e2bd9ba"},"vehicle_type_id":"4","last_reported":1737371260,"current_range_meters":38800,"station_id":"ce4bgop2rcd13ifvqc1g","pricing_plan_id":"cebpf4jnsgd1na2vs0mg"},{"bike_id":"5c5bd4e8-fb2d-401c-90ca-a89a2ddb4152","system_id":"levelo_inurba_marseille","lat":43.30781,"lon":5.37647,"is_reserved":false,"is_disabled":false,"rental_uris":{"android":"levelo://app?vid=5c5bd4e8-fb2d-401c-90ca-a89a2ddb4152","ios":"levelo://app?vid=5c5bd4e8-fb2d-401c-90ca-a89a2ddb4152"},"vehicle_type_id":"4","last_reported":1737371260,"current_range_meters":38000,"station_id":"ce4bgv92rcd13ifvqcq0","pricing_plan_id":"cebpf4jnsgd1na2vs0mg"},{"bike_id":"5e339aa2-ed7e-44c6-9974-2fdc1901c1ee","system_id":"levelo_inurba_marseille","lat":43.31739,"lon":5.39035,"is_reserved":false,"is_disabled":false,"rental_uris":{"android":"levelo://app?vid=5e339aa2-ed7e-44c6-9974-2fdc1901c1ee","ios":"levelo://app?vid=5e339aa2-ed7e-44c6-9974-2fdc1901c1ee"},"vehicle_type_id":"4","last_reported":1737371260,"current_range_meters":10800,"station_id":"ce4bhqp2rcd13ifvqhng","pricing_plan_id":"cebpf4jnsgd1na2vs0mg"},{"bike_id":"f0b5b00d-6eb1-453a-ac03-9fb67d5a6a1f","system_id":"levelo_inurba_marseille","lat":43.27211,"lon":5.39184,"is_reserved":false,"is_disabled":false,"rental_uris":{"android":"levelo://app?vid=f0b5b00d-6eb1-453a-ac03-9fb67d5a6a1f","ios":"levelo://app?vid=f0b5b00d-6eb1-453a-ac03-9fb67d5a6a1f"},"vehicle_type_id":"4","last_reported":1737371260,"current_range_meters":29600,"station_id":"ce4bhhp2rcd13ifvqfm0","pricing_plan_id":"cebpf4jnsgd1na2vs0mg"},{"bike_id":"490838b6-f744-4b79-ac77-a247533aa296","system_id":"levelo_inurba_marseille","lat":43.316948,"lon":5.404763,"is_reserved":false,"is_disabled":false,"rental_uris":{"android":"levelo://app?vid=490838b6-f744-4b79-ac77-a247533aa296","ios":"levelo://app?vid=490838b6-f744-4b79-ac77-a247533aa296"},"vehicle_type_id":"4","last_reported":1737371260,"current_range_meters":38400,"station_id":"ce4bh012rcd13ifvqd00","pricing_plan_id":"cebpf4jnsgd1na2vs0mg"},{"bike_id":"4ad51266-48e4-4d1b-8631-93a7a7c83fc9","system_id":"levelo_inurba_marseille","lat":43.30956,"lon":5.39049,"is_reserved":false,"is_disabled":false,"rental_uris":{"android":"levelo://app?vid=4ad51266-48e4-4d1b-8631-93a7a7c83fc9","ios":"levelo://app?vid=4ad51266-48e4-4d1b-8631-93a7a7c83fc9"},"vehicle_type_id":"4","last_reported":1737371260,"current_range_meters":12800,"station_id":"ce4bgup2rcd13ifvqco0","pricing_plan_id":"cebpf4jnsgd1na2vs0mg"},{"bike_id":"4f0ff530-dfb4-423a-a949-731343171449","system_id":"levelo_inurba_marseille","lat":43.33584,"lon":5.41043,"is_reserved":false,"is_disabled":false,"rental_uris":{"android":"levelo://app?vid=4f0ff530-dfb4-423a-a949-731343171449","ios":"levelo://app?vid=4f0ff530-dfb4-423a-a949-731343171449"},"vehicle_type_id":"4","last_reported":1737371260,"current_range_meters":36800,"station_id":"ce4bhqh2rcd13ifvqhmg","pricing_plan_id":"cebpf4jnsgd1na2vs0mg"},{"bike_id":"5957b55c-bbf3-4d79-a9fa-182e34bda710","system_id":"levelo_inurba_marseille","lat":43.266709,"lon":5.402981,"is_reserved":false,"is_disabled":false,"rental_uris":{"android":"levelo://app?vid=5957b55c-bbf3-4d79-a9fa-182e34bda710","ios":"levelo://app?vid=5957b55c-bbf3-4d79-a9fa-182e34bda710"},"vehicle_type_id":"4","last_reported":1737371260,"current_range_meters":10800,"station_id":"","pricing_plan_id":"cebpf4jnsgd1na2vs0mg"},{"bike_id":"85ecc783-1dcd-4d7b-9945-51ef75ced28d","system_id":"levelo_inurba_marseille","lat":43.30304,"lon":5.36904,"is_reserved":false,"is_disabled":false,"rental_uris":{"android":"levelo://app?vid=85ecc783-1dcd-4d7b-9945-51ef75ced28d","ios":"levelo://app?vid=85ecc783-1dcd-4d7b-9945-51ef75ced28d"},"vehicle_type_id":"4","last_reported":1737371260,"current_range_meters":12800,"station_id":"ce4bgqh2rcd13ifvqc5g","pricing_plan_id":"cebpf4jnsgd1na2vs0mg"},{"bike_id":"22127a39-61a0-40f0-bfe9-3941ee863681","system_id":"levelo_inurba_marseille","lat":43.27498,"lon":5.42465,"is_reserved":false,"is_disabled":false,"rental_uris":{"android":"levelo://app?vid=22127a39-61a0-40f0-bfe9-3941ee863681","ios":"levelo://app?vid=22127a39-61a0-40f0-bfe9-3941ee863681"},"vehicle_type_id":"4","last_reported":1737371260,"current_range_meters":28000,"station_id":"ce4bhn92rcd13ifvqgrg","pricing_plan_id":"cebpf4jnsgd1na2vs0mg"},{"bike_id":"668f9767-c78d-438a-96bb-c0760f782967","system_id":"levelo_inurba_marseille","lat":43.26214,"lon":5.37923,"is_reserved":false,"is_disabled":false,"rental_uris":{"android":"levelo://app?vid=668f9767-c78d-438a-96bb-c0760f782967","ios":"levelo://app?vid=668f9767-c78d-438a-96bb-c0760f782967"},"vehicle_type_id":"4","last_reported":1737371260,"current_range_meters":32400,"station_id":"ce4bhjp2rcd13ifvqg90","pricing_plan_id":"cebpf4jnsgd1na2vs0mg"},{"bike_id":"b4fa5c01-cecc-49e4-9482-65309291a760","system_id":"levelo_inurba_marseille","lat":43.25001,"lon":5.38944,"is_reserved":false,"is_disabled":false,"rental_uris":{"android":"levelo://app?vid=b4fa5c01-cecc-49e4-9482-65309291a760","ios":"levelo://app?vid=b4fa5c01-cecc-49e4-9482-65309291a760"},"vehicle_type_id":"4","last_reported":1737371260,"current_range_meters":33600,"station_id":"ce4bhgp2rcd13ifvqfd0","pricing_plan_id":"cebpf4jnsgd1na2vs0mg"},{"bike_id":"3a3f982b-b14e-47e9-945d-5db56162aaab","system_id":"levelo_inurba_marseille","lat":43.3061,"lon":5.37236,"is_reserved":false,"is_disabled":false,"rental_uris":{"android":"levelo://app?vid=3a3f982b-b14e-47e9-945d-5db56162aaab","ios":"levelo://app?vid=3a3f982b-b14e-47e9-945d-5db56162aaab"},"vehicle_type_id":"4","last_reported":1737371260,"current_range_meters":31200,"station_id":"ce4bgqh2rcd13ifvqc4g","pricing_plan_id":"cebpf4jnsgd1na2vs0mg"},{"bike_id":"6516d9b2-17b7-4e39-a499-f7b485673d72","system_id":"levelo_inurba_marseille","lat":43.23964,"lon":5.36633,"is_reserved":false,"is_disabled":false,"rental_uris":{"android":"levelo://app?vid=6516d9b2-17b7-4e39-a499-f7b485673d72","ios":"levelo://app?vid=6516d9b2-17b7-4e39-a499-f7b485673d72"},"vehicle_type_id":"4","last_reported":1737371260,"current_range_meters":6000,"station_id":"ce4bhi12rcd13ifvqfp0","pricing_plan_id":"cebpf4jnsgd1na2vs0mg"},{"bike_id":"74de75ba-f7aa-41f0-90fe-9ddc584b1243","system_id":"levelo_inurba_marseille","lat":43.28463,"lon":5.35887,"is_reserved":false,"is_disabled":false,"rental_uris":{"android":"levelo://app?vid=74de75ba-f7aa-41f0-90fe-9ddc584b1243","ios":"levelo://app?vid=74de75ba-f7aa-41f0-90fe-9ddc584b1243"},"vehicle_type_id":"4","last_reported":1737371260,"current_range_meters":38800,"station_id":"ce4bhah2rcd13ifvqei0","pricing_plan_id":"cebpf4jnsgd1na2vs0mg"},{"bike_id":"8067b919-0cc6-431c-8eed-3e5b0a4c01dd","system_id":"levelo_inurba_marseille","lat":43.26798,"lon":5.40263,"is_reserved":false,"is_disabled":false,"rental_uris":{"android":"levelo://app?vid=8067b919-0cc6-431c-8eed-3e5b0a4c01dd","ios":"levelo://app?vid=8067b919-0cc6-431c-8eed-3e5b0a4c01dd"},"vehicle_type_id":"4","last_reported":1737371260,"current_range_meters":28400,"station_id":"ce501612rcd8frsf0b60","pricing_plan_id":"cebpf4jnsgd1na2vs0mg"},{"bike_id":"55ffbcd1-eef7-48c6-8e1e-15dc3a2da4c1","system_id":"levelo_inurba_marseille","lat":43.28136,"lon":5.42691,"is_reserved":false,"is_disabled":false,"rental_uris":{"android":"levelo://app?vid=55ffbcd1-eef7-48c6-8e1e-15dc3a2da4c1","ios":"levelo://app?vid=55ffbcd1-eef7-48c6-8e1e-15dc3a2da4c1"},"vehicle_type_id":"4","last_reported":1737371260,"current_range_meters":26800,"station_id":"ce4bhnh2rcd13ifvqgug","pricing_plan_id":"cebpf4jnsgd1na2vs0mg"},{"bike_id":"c92cbb9f-5a8c-4f30-b00a-221ba31b944d","system_id":"levelo_inurba_marseille","lat":43.28412,"lon":5.34994,"is_reserved":false,"is_disabled":true,"rental_uris":{"android":"levelo://app?vid=c92cbb9f-5a8c-4f30-b00a-221ba31b944d","ios":"levelo://app?vid=c92cbb9f-5a8c-4f30-b00a-221ba31b944d"},"vehicle_type_id":"4","last_reported":1737371260,"current_range_meters":27600,"station_id":"ce4bhbh2rcd13ifvqepg","pricing_plan_id":"cebpf4jnsgd1na2vs0mg"},{"bike_id":"0494aee5-720b-41bb-9089-898589ae1ece","system_id":"levelo_inurba_marseille","lat":43.32367,"lon":5.38869,"is_reserved":false,"is_disabled":false,"rental_uris":{"android":"levelo://app?vid=0494aee5-720b-41bb-9089-898589ae1ece","ios":"levelo://app?vid=0494aee5-720b-41bb-9089-898589ae1ece"},"vehicle_type_id":"4","last_reported":1737371260,"current_range_meters":35200,"station_id":"ce4bhqp2rcd13ifvqhog","pricing_plan_id":"cebpf4jnsgd1na2vs0mg"},{"bike_id":"2398b642-cd0a-4a16-abf3-3ac0b4a8c4a8","system_id":"levelo_inurba_marseille","lat":43.32472,"lon":5.36598,"is_reserved":false,"is_disabled":false,"rental_uris":{"android":"levelo://app?vid=2398b642-cd0a-4a16-abf3-3ac0b4a8c4a8","ios":"levelo://app?vid=2398b642-cd0a-4a16-abf3-3ac0b4a8c4a8"},"vehicle_type_id":"4","last_reported":1737371260,"current_range_meters":16400,"station_id":"ce4bhs12rcd13ifvqhvg","pricing_plan_id":"cebpf4jnsgd1na2vs0mg"},{"bike_id":"fe90f7a6-3920-456a-9451-50d213b7000f","system_id":"levelo_inurba_marseille","lat":43.28452,"lon":5.38436,"is_reserved":false,"is_disabled":true,"rental_uris":{"android":"levelo://app?vid=fe90f7a6-3920-456a-9451-50d213b7000f","ios":"levelo://app?vid=fe90f7a6-3920-456a-9451-50d213b7000f"},"vehicle_type_id":"4","last_reported":1737371260,"current_range_meters":28000,"station_id":"ce4bh512rcd13ifvqe3g","pricing_plan_id":"cebpf4jnsgd1na2vs0mg"},{"bike_id":"fc5e1f00-56bf-4fdd-97a9-753fd5fc0fd4","system_id":"levelo_inurba_marseille","lat":43.2892,"lon":5.38405,"is_reserved":false,"is_disabled":false,"rental_uris":{"android":"levelo://app?vid=fc5e1f00-56bf-4fdd-97a9-753fd5fc0fd4","ios":"levelo://app?vid=fc5e1f00-56bf-4fdd-97a9-753fd5fc0fd4"},"vehicle_type_id":"4","last_reported":1737371260,"current_range_meters":39200,"station_id":"ce4bh612rcd13ifvqe6g","pricing_plan_id":"cebpf4jnsgd1na2vs0mg"},{"bike_id":"ed868312-ee35-4b8b-bb0e-7ded591ae493","system_id":"levelo_inurba_marseille","lat":43.3032,"lon":5.37736,"is_reserved":false,"is_disabled":false,"rental_uris":{"android":"levelo://app?vid=ed868312-ee35-4b8b-bb0e-7ded591ae493","ios":"levelo://app?vid=ed868312-ee35-4b8b-bb0e-7ded591ae493"},"vehicle_type_id":"4","last_reported":1737371260,"current_range_meters":33600,"station_id":"ce4bguh2rcd13ifvqcj0","pricing_plan_id":"cebpf4jnsgd1na2vs0mg"},{"bike_id":"aeeb7245-8a7c-4b79-b9ac-efca69f7818a","system_id":"levelo_inurba_marseille","lat":43.32105,"lon":5.3678,"is_reserved":false,"is_disabled":false,"rental_uris":{"android":"levelo://app?vid=aeeb7245-8a7c-4b79-b9ac-efca69f7818a","ios":"levelo://app?vid=aeeb7245-8a7c-4b79-b9ac-efca69f7818a"},"vehicle_type_id":"4","last_reported":1737371260,"current_range_meters":16400,"station_id":"ce4bhrh2rcd13ifvqhug","pricing_plan_id":"cebpf4jnsgd1na2vs0mg"},{"bike_id":"6ec9f812-b198-4628-80bc-44f3a4aec8bf","system_id":"levelo_inurba_marseille","lat":43.27203,"lon":5.39193,"is_reserved":false,"is_disabled":false,"rental_uris":{"android":"levelo://app?vid=6ec9f812-b198-4628-80bc-44f3a4aec8bf","ios":"levelo://app?vid=6ec9f812-b198-4628-80bc-44f3a4aec8bf"},"vehicle_type_id":"4","last_reported":1737371260,"current_range_meters":37600,"station_id":"ce4bhhp2rcd13ifvqfm0","pricing_plan_id":"cebpf4jnsgd1na2vs0mg"},{"bike_id":"d7ebea74-ea94-4f72-85c3-775497bc315c","system_id":"levelo_inurba_marseille","lat":43.32334,"lon":5.38321,"is_reserved":false,"is_disabled":false,"rental_uris":{"android":"levelo://app?vid=d7ebea74-ea94-4f72-85c3-775497bc315c","ios":"levelo://app?vid=d7ebea74-ea94-4f72-85c3-775497bc315c"},"vehicle_type_id":"4","last_reported":1737371260,"current_range_meters":38800,"station_id":"ce4bhr12rcd13ifvqhqg","pricing_plan_id":"cebpf4jnsgd1na2vs0mg"},{"bike_id":"01c5dbcb-0ce1-4138-ac1b-29294ab651c5","system_id":"levelo_inurba_marseille","lat":43.30953,"lon":5.3906,"is_reserved":false,"is_disabled":false,"rental_uris":{"android":"levelo://app?vid=01c5dbcb-0ce1-4138-ac1b-29294ab651c5","ios":"levelo://app?vid=01c5dbcb-0ce1-4138-ac1b-29294ab651c5"},"vehicle_type_id":"4","last_reported":1737371260,"current_range_meters":34800,"station_id":"ce4bgup2rcd13ifvqco0","pricing_plan_id":"cebpf4jnsgd1na2vs0mg"},{"bike_id":"9eb335b9-be9e-4d87-ab11-b7aad1d486a4","system_id":"levelo_inurba_marseille","lat":43.23164,"lon":5.43727,"is_reserved":false,"is_disabled":false,"rental_uris":{"android":"levelo://app?vid=9eb335b9-be9e-4d87-ab11-b7aad1d486a4","ios":"levelo://app?vid=9eb335b9-be9e-4d87-ab11-b7aad1d486a4"},"vehicle_type_id":"4","last_reported":1737371260,"current_range_meters":38400,"station_id":"ce4bhmp2rcd13ifvqgog","pricing_plan_id":"cebpf4jnsgd1na2vs0mg"},{"bike_id":"30f7c008-83db-41a2-9001-893147853026","system_id":"levelo_inurba_marseille","lat":43.32474,"lon":5.36576,"is_reserved":false,"is_disabled":false,"rental_uris":{"android":"levelo://app?vid=30f7c008-83db-41a2-9001-893147853026","ios":"levelo://app?vid=30f7c008-83db-41a2-9001-893147853026"},"vehicle_type_id":"4","last_reported":1737371260,"current_range_meters":28400,"station_id":"ce4bhs12rcd13ifvqhvg","pricing_plan_id":"cebpf4jnsgd1na2vs0mg"},{"bike_id":"d59e0ecc-ed04-4c70-a073-cd2b09d410dd","system_id":"levelo_inurba_marseille","lat":43.31226,"lon":5.36881,"is_reserved":false,"is_disabled":false,"rental_uris":{"android":"levelo://app?vid=d59e0ecc-ed04-4c70-a073-cd2b09d410dd","ios":"levelo://app?vid=d59e0ecc-ed04-4c70-a073-cd2b09d410dd"},"vehicle_type_id":"4","last_reported":1737371260,"current_range_meters":13600,"station_id":"ce4bgl92rcd13ifvqbq0","pricing_plan_id":"cebpf4jnsgd1na2vs0mg"},{"bike_id":"c152fc79-1cd4-48b6-9683-75e37b136f35","system_id":"levelo_inurba_marseille","lat":43.24987,"lon":5.38929,"is_reserved":false,"is_disabled":false,"rental_uris":{"android":"levelo://app?vid=c152fc79-1cd4-48b6-9683-75e37b136f35","ios":"levelo://app?vid=c152fc79-1cd4-48b6-9683-75e37b136f35"},"vehicle_type_id":"4","last_reported":1737371260,"current_range_meters":38800,"station_id":"ce4bhgp2rcd13ifvqfd0","pricing_plan_id":"cebpf4jnsgd1na2vs0mg"},{"bike_id":"b1356036-2fed-455a-8e60-b0ac8936a562","system_id":"levelo_inurba_marseille","lat":43.27208,"lon":5.39171,"is_reserved":false,"is_disabled":false,"rental_uris":{"android":"levelo://app?vid=b1356036-2fed-455a-8e60-b0ac8936a562","ios":"levelo://app?vid=b1356036-2fed-455a-8e60-b0ac8936a562"},"vehicle_type_id":"4","last_reported":1737371260,"current_range_meters":39200,"station_id":"ce4bhhp2rcd13ifvqfm0","pricing_plan_id":"cebpf4jnsgd1na2vs0mg"},{"bike_id":"5434439c-80a7-45ef-8e7d-a897cb833684","system_id":"levelo_inurba_marseille","lat":43.32428,"lon":5.3678,"is_reserved":false,"is_disabled":false,"rental_uris":{"android":"levelo://app?vid=5434439c-80a7-45ef-8e7d-a897cb833684","ios":"levelo://app?vid=5434439c-80a7-45ef-8e7d-a897cb833684"},"vehicle_type_id":"4","last_reported":1737371260,"current_range_meters":8000,"station_id":"","pricing_plan_id":"cebpf4jnsgd1na2vs0mg"},{"bike_id":"dd8248dd-11c2-4641-bbb2-26e14d5ff911","system_id":"levelo_inurba_marseille","lat":43.28452,"lon":5.35895,"is_reserved":false,"is_disabled":false,"rental_uris":{"android":"levelo://app?vid=dd8248dd-11c2-4641-bbb2-26e14d5ff911","ios":"levelo://app?vid=dd8248dd-11c2-4641-bbb2-26e14d5ff911"},"vehicle_type_id":"4","last_reported":1737371260,"current_range_meters":36400,"station_id":"ce4bhah2rcd13ifvqei0","pricing_plan_id":"cebpf4jnsgd1na2vs0mg"},{"bike_id":"50267a36-8428-4ee1-ac27-ac6a771a71af","system_id":"levelo_inurba_marseille","lat":43.3369,"lon":5.35597,"is_reserved":false,"is_disabled":true,"rental_uris":{"android":"levelo://app?vid=50267a36-8428-4ee1-ac27-ac6a771a71af","ios":"levelo://app?vid=50267a36-8428-4ee1-ac27-ac6a771a71af"},"vehicle_type_id":"4","last_reported":1737371260,"current_range_meters":1200,"station_id":"","pricing_plan_id":"cebpf4jnsgd1na2vs0mg"},{"bike_id":"08d34818-9cac-4845-84bd-1094d0e0e83e","system_id":"levelo_inurba_marseille","lat":43.29527,"lon":5.37503,"is_reserved":false,"is_disabled":false,"rental_uris":{"android":"levelo://app?vid=08d34818-9cac-4845-84bd-1094d0e0e83e","ios":"levelo://app?vid=08d34818-9cac-4845-84bd-1094d0e0e83e"},"vehicle_type_id":"4","last_reported":1737371260,"current_range_meters":28000,"station_id":"ce4bgkp2rcd13ifvqbmg","pricing_plan_id":"cebpf4jnsgd1na2vs0mg"},{"bike_id":"f5863b18-13a1-4c6e-92de-5668ea912ad3","system_id":"levelo_inurba_marseille","lat":43.26234,"lon":5.40439,"is_reserved":false,"is_disabled":true,"rental_uris":{"android":"levelo://app?vid=f5863b18-13a1-4c6e-92de-5668ea912ad3","ios":"levelo://app?vid=f5863b18-13a1-4c6e-92de-5668ea912ad3"},"vehicle_type_id":"4","last_reported":1737371260,"current_range_meters":0,"station_id":"","pricing_plan_id":"cebpf4jnsgd1na2vs0mg"},{"bike_id":"e3969d47-7a98-48ce-95b3-bbad5d42c766","system_id":"levelo_inurba_marseille","lat":43.25118,"lon":5.40362,"is_reserved":false,"is_disabled":false,"rental_uris":{"android":"levelo://app?vid=e3969d47-7a98-48ce-95b3-bbad5d42c766","ios":"levelo://app?vid=e3969d47-7a98-48ce-95b3-bbad5d42c766"},"vehicle_type_id":"4","last_reported":1737371260,"current_range_meters":39200,"station_id":"ce4bhlh2rcd13ifvqgig","pricing_plan_id":"cebpf4jnsgd1na2vs0mg"},{"bike_id":"aadeea6a-4f60-4f7c-87ee-1d6ddbecb58b","system_id":"levelo_inurba_marseille","lat":43.2749,"lon":5.42464,"is_reserved":false,"is_disabled":false,"rental_uris":{"android":"levelo://app?vid=aadeea6a-4f60-4f7c-87ee-1d6ddbecb58b","ios":"levelo://app?vid=aadeea6a-4f60-4f7c-87ee-1d6ddbecb58b"},"vehicle_type_id":"4","last_reported":1737371260,"current_range_meters":26800,"station_id":"ce4bhn92rcd13ifvqgrg","pricing_plan_id":"cebpf4jnsgd1na2vs0mg"},{"bike_id":"eb6fcbf2-4dba-4dcc-a3a1-6b992d95097c","system_id":"levelo_inurba_marseille","lat":43.2396,"lon":5.36635,"is_reserved":false,"is_disabled":false,"rental_uris":{"android":"levelo://app?vid=eb6fcbf2-4dba-4dcc-a3a1-6b992d95097c","ios":"levelo://app?vid=eb6fcbf2-4dba-4dcc-a3a1-6b992d95097c"},"vehicle_type_id":"4","last_reported":1737371260,"current_range_meters":28400,"station_id":"ce4bhi12rcd13ifvqfp0","pricing_plan_id":"cebpf4jnsgd1na2vs0mg"},{"bike_id":"c160579d-57a0-455c-96db-5193fb7ebdc0","system_id":"levelo_inurba_marseille","lat":43.33036,"lon":5.39031,"is_reserved":false,"is_disabled":false,"rental_uris":{"android":"levelo://app?vid=c160579d-57a0-455c-96db-5193fb7ebdc0","ios":"levelo://app?vid=c160579d-57a0-455c-96db-5193fb7ebdc0"},"vehicle_type_id":"4","last_reported":1737371260,"current_range_meters":12000,"station_id":"ce4bhr92rcd13ifvqhrg","pricing_plan_id":"cebpf4jnsgd1na2vs0mg"},{"bike_id":"701ad8a5-4a2f-4eda-bee4-d8f2c0da4dac","system_id":"levelo_inurba_marseille","lat":43.29868,"lon":5.3891,"is_reserved":false,"is_disabled":true,"rental_uris":{"android":"levelo://app?vid=701ad8a5-4a2f-4eda-bee4-d8f2c0da4dac","ios":"levelo://app?vid=701ad8a5-4a2f-4eda-bee4-d8f2c0da4dac"},"vehicle_type_id":"4","last_reported":1737371260,"current_range_meters":25600,"station_id":"ce4bh392rcd13ifvqdl0","pricing_plan_id":"cebpf4jnsgd1na2vs0mg"},{"bike_id":"d8d5f0ae-9344-48ac-968e-18f810da050a","system_id":"levelo_inurba_marseille","lat":43.26025,"lon":5.37553,"is_reserved":false,"is_disabled":false,"rental_uris":{"android":"levelo://app?vid=d8d5f0ae-9344-48ac-968e-18f810da050a","ios":"levelo://app?vid=d8d5f0ae-9344-48ac-968e-18f810da050a"},"vehicle_type_id":"4","last_reported":1737371260,"current_range_meters":38800,"station_id":"ce4bhgh2rcd13ifvqfa0","pricing_plan_id":"cebpf4jnsgd1na2vs0mg"},{"bike_id":"f0f7ae09-777e-4d19-af74-78fcd2e44652","system_id":"levelo_inurba_marseille","lat":43.25004,"lon":5.38934,"is_reserved":false,"is_disabled":false,"rental_uris":{"android":"levelo://app?vid=f0f7ae09-777e-4d19-af74-78fcd2e44652","ios":"levelo://app?vid=f0f7ae09-777e-4d19-af74-78fcd2e44652"},"vehicle_type_id":"4","last_reported":1737371260,"current_range_meters":10800,"station_id":"ce4bhgp2rcd13ifvqfd0","pricing_plan_id":"cebpf4jnsgd1na2vs0mg"},{"bike_id":"4fe58642-8ec3-4f25-a4fc-eb5dc3dc47a8","system_id":"levelo_inurba_marseille","lat":43.33551,"lon":5.36127,"is_reserved":false,"is_disabled":true,"rental_uris":{"android":"levelo://app?vid=4fe58642-8ec3-4f25-a4fc-eb5dc3dc47a8","ios":"levelo://app?vid=4fe58642-8ec3-4f25-a4fc-eb5dc3dc47a8"},"vehicle_type_id":"4","last_reported":1737371260,"current_range_meters":26000,"station_id":"","pricing_plan_id":"cebpf4jnsgd1na2vs0mg"},{"bike_id":"9cccd2ff-b864-466b-83c6-b52ec2815836","system_id":"levelo_inurba_marseille","lat":43.2569,"lon":5.41174,"is_reserved":false,"is_disabled":false,"rental_uris":{"android":"levelo://app?vid=9cccd2ff-b864-466b-83c6-b52ec2815836","ios":"levelo://app?vid=9cccd2ff-b864-466b-83c6-b52ec2815836"},"vehicle_type_id":"4","last_reported":1737371260,"current_range_meters":32800,"station_id":"","pricing_plan_id":"cebpf4jnsgd1na2vs0mg"},{"bike_id":"b5b91842-f1aa-4bba-964f-7a9484225fb0","system_id":"levelo_inurba_marseille","lat":43.25857,"lon":5.39918,"is_reserved":false,"is_disabled":false,"rental_uris":{"android":"levelo://app?vid=b5b91842-f1aa-4bba-964f-7a9484225fb0","ios":"levelo://app?vid=b5b91842-f1aa-4bba-964f-7a9484225fb0"},"vehicle_type_id":"4","last_reported":1737371260,"current_range_meters":38800,"station_id":"ce4bhl92rcd13ifvqghg","pricing_plan_id":"cebpf4jnsgd1na2vs0mg"},{"bike_id":"13a9853e-21c2-4d7a-8ae7-af374064a8b8","system_id":"levelo_inurba_marseille","lat":43.31785,"lon":5.37374,"is_reserved":false,"is_disabled":false,"rental_uris":{"android":"levelo://app?vid=13a9853e-21c2-4d7a-8ae7-af374064a8b8","ios":"levelo://app?vid=13a9853e-21c2-4d7a-8ae7-af374064a8b8"},"vehicle_type_id":"4","last_reported":1737371260,"current_range_meters":22400,"station_id":"","pricing_plan_id":"cebpf4jnsgd1na2vs0mg"},{"bike_id":"60b7d049-237a-4dbd-ad0c-436ecde1802f","system_id":"levelo_inurba_marseille","lat":43.231839,"lon":5.355776,"is_reserved":false,"is_disabled":false,"rental_uris":{"android":"levelo://app?vid=60b7d049-237a-4dbd-ad0c-436ecde1802f","ios":"levelo://app?vid=60b7d049-237a-4dbd-ad0c-436ecde1802f"},"vehicle_type_id":"4","last_reported":1737371260,"current_range_meters":24800,"station_id":"ce4bhu92rcd13ifvqi70","pricing_plan_id":"cebpf4jnsgd1na2vs0mg"},{"bike_id":"23a5b3f4-0f7a-4a4e-8090-ef0fdae8d7e5","system_id":"levelo_inurba_marseille","lat":43.32485,"lon":5.36583,"is_reserved":false,"is_disabled":false,"rental_uris":{"android":"levelo://app?vid=23a5b3f4-0f7a-4a4e-8090-ef0fdae8d7e5","ios":"levelo://app?vid=23a5b3f4-0f7a-4a4e-8090-ef0fdae8d7e5"},"vehicle_type_id":"4","last_reported":1737371260,"current_range_meters":16000,"station_id":"ce4bhs12rcd13ifvqhvg","pricing_plan_id":"cebpf4jnsgd1na2vs0mg"},{"bike_id":"85c98260-362a-4903-ab01-b97a98d411e1","system_id":"levelo_inurba_marseille","lat":43.24804,"lon":5.3746,"is_reserved":false,"is_disabled":false,"rental_uris":{"android":"levelo://app?vid=85c98260-362a-4903-ab01-b97a98d411e1","ios":"levelo://app?vid=85c98260-362a-4903-ab01-b97a98d411e1"},"vehicle_type_id":"4","last_reported":1737371260,"current_range_meters":29600,"station_id":"ce4bhgh2rcd13ifvqfb0","pricing_plan_id":"cebpf4jnsgd1na2vs0mg"},{"bike_id":"c73224c5-8662-473f-8844-f010af6d2952","system_id":"levelo_inurba_marseille","lat":43.27189,"lon":5.40998,"is_reserved":false,"is_disabled":true,"rental_uris":{"android":"levelo://app?vid=c73224c5-8662-473f-8844-f010af6d2952","ios":"levelo://app?vid=c73224c5-8662-473f-8844-f010af6d2952"},"vehicle_type_id":"4","last_reported":1737371260,"current_range_meters":14000,"station_id":"ce4bhl12rcd13ifvqgf0","pricing_plan_id":"cebpf4jnsgd1na2vs0mg"},{"bike_id":"511441a2-57fd-40c6-9873-dc1f8837f88c","system_id":"levelo_inurba_marseille","lat":43.34139,"lon":5.40921,"is_reserved":false,"is_disabled":false,"rental_uris":{"android":"levelo://app?vid=511441a2-57fd-40c6-9873-dc1f8837f88c","ios":"levelo://app?vid=511441a2-57fd-40c6-9873-dc1f8837f88c"},"vehicle_type_id":"4","last_reported":1737371260,"current_range_meters":38400,"station_id":"ce4bhqh2rcd13ifvqhlg","pricing_plan_id":"cebpf4jnsgd1na2vs0mg"},{"bike_id":"95b517d0-9dcf-47f9-8053-773bec6e6a69","system_id":"levelo_inurba_marseille","lat":43.26586,"lon":5.39553,"is_reserved":false,"is_disabled":false,"rental_uris":{"android":"levelo://app?vid=95b517d0-9dcf-47f9-8053-773bec6e6a69","ios":"levelo://app?vid=95b517d0-9dcf-47f9-8053-773bec6e6a69"},"vehicle_type_id":"4","last_reported":1737371260,"current_range_meters":8400,"station_id":"","pricing_plan_id":"cebpf4jnsgd1na2vs0mg"},{"bike_id":"ef6995fd-e68e-4985-8c9d-7187adb30bbc","system_id":"levelo_inurba_marseille","lat":43.2465,"lon":5.38935,"is_reserved":false,"is_disabled":false,"rental_uris":{"android":"levelo://app?vid=ef6995fd-e68e-4985-8c9d-7187adb30bbc","ios":"levelo://app?vid=ef6995fd-e68e-4985-8c9d-7187adb30bbc"},"vehicle_type_id":"4","last_reported":1737371260,"current_range_meters":38800,"station_id":"ce4bhg12rcd13ifvqf60","pricing_plan_id":"cebpf4jnsgd1na2vs0mg"},{"bike_id":"486385f4-89df-4f44-8c44-b8da6c6dd1f8","system_id":"levelo_inurba_marseille","lat":43.27374,"lon":5.36252,"is_reserved":false,"is_disabled":false,"rental_uris":{"android":"levelo://app?vid=486385f4-89df-4f44-8c44-b8da6c6dd1f8","ios":"levelo://app?vid=486385f4-89df-4f44-8c44-b8da6c6dd1f8"},"vehicle_type_id":"4","last_reported":1737371260,"current_range_meters":38800,"station_id":"ce4bhbh2rcd13ifvqeo0","pricing_plan_id":"cebpf4jnsgd1na2vs0mg"},{"bike_id":"47ad60ef-9d71-4c2b-9c0f-48487854fa86","system_id":"levelo_inurba_marseille","lat":43.29623,"lon":5.37176,"is_reserved":false,"is_disabled":false,"rental_uris":{"android":"levelo://app?vid=47ad60ef-9d71-4c2b-9c0f-48487854fa86","ios":"levelo://app?vid=47ad60ef-9d71-4c2b-9c0f-48487854fa86"},"vehicle_type_id":"4","last_reported":1737371260,"current_range_meters":38400,"station_id":"ce4bgnh2rcd13ifvqc0g","pricing_plan_id":"cebpf4jnsgd1na2vs0mg"},{"bike_id":"b926848d-ddb3-4c8f-952a-f15c81424c61","system_id":"levelo_inurba_marseille","lat":43.28482,"lon":5.38429,"is_reserved":false,"is_disabled":false,"rental_uris":{"android":"levelo://app?vid=b926848d-ddb3-4c8f-952a-f15c81424c61","ios":"levelo://app?vid=b926848d-ddb3-4c8f-952a-f15c81424c61"},"vehicle_type_id":"4","last_reported":1737371260,"current_range_meters":36000,"station_id":"ce4bh512rcd13ifvqe3g","pricing_plan_id":"cebpf4jnsgd1na2vs0mg"},{"bike_id":"380c718f-9c53-416f-835b-574b3ed9b096","system_id":"levelo_inurba_marseille","lat":43.29566,"lon":5.39976,"is_reserved":false,"is_disabled":false,"rental_uris":{"android":"levelo://app?vid=380c718f-9c53-416f-835b-574b3ed9b096","ios":"levelo://app?vid=380c718f-9c53-416f-835b-574b3ed9b096"},"vehicle_type_id":"4","last_reported":1737371260,"current_range_meters":27600,"station_id":"ce4bh312rcd13ifvqdj0","pricing_plan_id":"cebpf4jnsgd1na2vs0mg"},{"bike_id":"06e7eb1d-a255-4004-8c61-ac878d1034a5","system_id":"levelo_inurba_marseille","lat":43.28481,"lon":5.38447,"is_reserved":false,"is_disabled":false,"rental_uris":{"android":"levelo://app?vid=06e7eb1d-a255-4004-8c61-ac878d1034a5","ios":"levelo://app?vid=06e7eb1d-a255-4004-8c61-ac878d1034a5"},"vehicle_type_id":"4","last_reported":1737371260,"current_range_meters":15200,"station_id":"ce4bh512rcd13ifvqe3g","pricing_plan_id":"cebpf4jnsgd1na2vs0mg"},{"bike_id":"015ae45b-cde0-4185-bbb1-cf29d65527a3","system_id":"levelo_inurba_marseille","lat":43.28372,"lon":5.39291,"is_reserved":false,"is_disabled":false,"rental_uris":{"android":"levelo://app?vid=015ae45b-cde0-4185-bbb1-cf29d65527a3","ios":"levelo://app?vid=015ae45b-cde0-4185-bbb1-cf29d65527a3"},"vehicle_type_id":"4","last_reported":1737371260,"current_range_meters":30000,"station_id":"ce4bhoh2rcd13ifvqh5g","pricing_plan_id":"cebpf4jnsgd1na2vs0mg"},{"bike_id":"432c47ae-0380-4e8c-833a-83a413fc293f","system_id":"levelo_inurba_marseille","lat":43.2815,"lon":5.42656,"is_reserved":false,"is_disabled":false,"rental_uris":{"android":"levelo://app?vid=432c47ae-0380-4e8c-833a-83a413fc293f","ios":"levelo://app?vid=432c47ae-0380-4e8c-833a-83a413fc293f"},"vehicle_type_id":"4","last_reported":1737371260,"current_range_meters":27600,"station_id":"ce4bhnh2rcd13ifvqgug","pricing_plan_id":"cebpf4jnsgd1na2vs0mg"},{"bike_id":"4dda61a9-3829-4ace-85ae-49fcc3ca21e5","system_id":"levelo_inurba_marseille","lat":43.2314,"lon":5.43721,"is_reserved":false,"is_disabled":false,"rental_uris":{"android":"levelo://app?vid=4dda61a9-3829-4ace-85ae-49fcc3ca21e5","ios":"levelo://app?vid=4dda61a9-3829-4ace-85ae-49fcc3ca21e5"},"vehicle_type_id":"4","last_reported":1737371260,"current_range_meters":18800,"station_id":"ce4bhmp2rcd13ifvqgog","pricing_plan_id":"cebpf4jnsgd1na2vs0mg"},{"bike_id":"37def594-d241-48d9-9cdd-96311bde1897","system_id":"levelo_inurba_marseille","lat":43.32054,"lon":5.3684,"is_reserved":false,"is_disabled":false,"rental_uris":{"android":"levelo://app?vid=37def594-d241-48d9-9cdd-96311bde1897","ios":"levelo://app?vid=37def594-d241-48d9-9cdd-96311bde1897"},"vehicle_type_id":"4","last_reported":1737371260,"current_range_meters":37600,"station_id":"","pricing_plan_id":"cebpf4jnsgd1na2vs0mg"},{"bike_id":"34405b41-6cc5-4b3a-876f-38fd11be1250","system_id":"levelo_inurba_marseille","lat":43.259367,"lon":5.409033,"is_reserved":false,"is_disabled":false,"rental_uris":{"android":"levelo://app?vid=34405b41-6cc5-4b3a-876f-38fd11be1250","ios":"levelo://app?vid=34405b41-6cc5-4b3a-876f-38fd11be1250"},"vehicle_type_id":"4","last_reported":1737371260,"current_range_meters":38800,"station_id":"ce4bhm92rcd13ifvqglg","pricing_plan_id":"cebpf4jnsgd1na2vs0mg"},{"bike_id":"9b570da9-d892-4de0-83fd-31f2509d0191","system_id":"levelo_inurba_marseille","lat":43.27083,"lon":5.42276,"is_reserved":false,"is_disabled":false,"rental_uris":{"android":"levelo://app?vid=9b570da9-d892-4de0-83fd-31f2509d0191","ios":"levelo://app?vid=9b570da9-d892-4de0-83fd-31f2509d0191"},"vehicle_type_id":"4","last_reported":1737371260,"current_range_meters":39200,"station_id":"ce4bhk92rcd13ifvqgb0","pricing_plan_id":"cebpf4jnsgd1na2vs0mg"},{"bike_id":"80a600a9-590c-42e3-9fa9-426bde10902a","system_id":"levelo_inurba_marseille","lat":43.29602,"lon":5.37198,"is_reserved":false,"is_disabled":false,"rental_uris":{"android":"levelo://app?vid=80a600a9-590c-42e3-9fa9-426bde10902a","ios":"levelo://app?vid=80a600a9-590c-42e3-9fa9-426bde10902a"},"vehicle_type_id":"4","last_reported":1737371260,"current_range_meters":39200,"station_id":"ce4bgnh2rcd13ifvqc0g","pricing_plan_id":"cebpf4jnsgd1na2vs0mg"},{"bike_id":"198d47be-319b-4a0a-8d88-f66666107004","system_id":"levelo_inurba_marseille","lat":43.27807,"lon":5.40725,"is_reserved":false,"is_disabled":false,"rental_uris":{"android":"levelo://app?vid=198d47be-319b-4a0a-8d88-f66666107004","ios":"levelo://app?vid=198d47be-319b-4a0a-8d88-f66666107004"},"vehicle_type_id":"4","last_reported":1737371260,"current_range_meters":11600,"station_id":"ce4bhnh2rcd13ifvqgtg","pricing_plan_id":"cebpf4jnsgd1na2vs0mg"},{"bike_id":"af78b8eb-280e-4496-83c4-335ad9aa7052","system_id":"levelo_inurba_marseille","lat":43.28466,"lon":5.38538,"is_reserved":false,"is_disabled":false,"rental_uris":{"android":"levelo://app?vid=af78b8eb-280e-4496-83c4-335ad9aa7052","ios":"levelo://app?vid=af78b8eb-280e-4496-83c4-335ad9aa7052"},"vehicle_type_id":"4","last_reported":1737371260,"current_range_meters":34800,"station_id":"ce4bh8p2rcd13ifvqeb0","pricing_plan_id":"cebpf4jnsgd1na2vs0mg"},{"bike_id":"7c13d57a-46a3-441c-aea8-625a40e73640","system_id":"levelo_inurba_marseille","lat":43.29981,"lon":5.38498,"is_reserved":false,"is_disabled":false,"rental_uris":{"android":"levelo://app?vid=7c13d57a-46a3-441c-aea8-625a40e73640","ios":"levelo://app?vid=7c13d57a-46a3-441c-aea8-625a40e73640"},"vehicle_type_id":"4","last_reported":1737371260,"current_range_meters":8000,"station_id":"ce4bgj92rcd13ifvqbd0","pricing_plan_id":"cebpf4jnsgd1na2vs0mg"},{"bike_id":"e81305f6-488e-4412-b50d-429fb140381d","system_id":"levelo_inurba_marseille","lat":43.267876,"lon":5.394205,"is_reserved":false,"is_disabled":false,"rental_uris":{"android":"levelo://app?vid=e81305f6-488e-4412-b50d-429fb140381d","ios":"levelo://app?vid=e81305f6-488e-4412-b50d-429fb140381d"},"vehicle_type_id":"4","last_reported":1737371260,"current_range_meters":38800,"station_id":"ce4bhh12rcd13ifvqfg0","pricing_plan_id":"cebpf4jnsgd1na2vs0mg"},{"bike_id":"39c2a9c8-d746-43da-9ded-905ea60b27b6","system_id":"levelo_inurba_marseille","lat":43.30128,"lon":5.38088,"is_reserved":false,"is_disabled":false,"rental_uris":{"android":"levelo://app?vid=39c2a9c8-d746-43da-9ded-905ea60b27b6","ios":"levelo://app?vid=39c2a9c8-d746-43da-9ded-905ea60b27b6"},"vehicle_type_id":"4","last_reported":1737371260,"current_range_meters":20800,"station_id":"ce4bgjp2rcd13ifvqbh0","pricing_plan_id":"cebpf4jnsgd1na2vs0mg"},{"bike_id":"042fb5c2-ffb0-4020-9f97-32677c25085c","system_id":"levelo_inurba_marseille","lat":43.29834,"lon":5.36288,"is_reserved":false,"is_disabled":false,"rental_uris":{"android":"levelo://app?vid=042fb5c2-ffb0-4020-9f97-32677c25085c","ios":"levelo://app?vid=042fb5c2-ffb0-4020-9f97-32677c25085c"},"vehicle_type_id":"4","last_reported":1737371260,"current_range_meters":39200,"station_id":"ce4bgpp2rcd13ifvqc3g","pricing_plan_id":"cebpf4jnsgd1na2vs0mg"},{"bike_id":"c1154f67-c3bf-41e3-b762-5097f106250c","system_id":"levelo_inurba_marseille","lat":43.23143,"lon":5.4373,"is_reserved":false,"is_disabled":false,"rental_uris":{"android":"levelo://app?vid=c1154f67-c3bf-41e3-b762-5097f106250c","ios":"levelo://app?vid=c1154f67-c3bf-41e3-b762-5097f106250c"},"vehicle_type_id":"4","last_reported":1737371260,"current_range_meters":36400,"station_id":"ce4bhmp2rcd13ifvqgog","pricing_plan_id":"cebpf4jnsgd1na2vs0mg"},{"bike_id":"7030efbb-063f-411b-b44c-5d2949e8b330","system_id":"levelo_inurba_marseille","lat":43.30522,"lon":5.36735,"is_reserved":false,"is_disabled":false,"rental_uris":{"android":"levelo://app?vid=7030efbb-063f-411b-b44c-5d2949e8b330","ios":"levelo://app?vid=7030efbb-063f-411b-b44c-5d2949e8b330"},