{"last_updated":1731193699,"ttl":60,"version":"2.2","data":{"bikes":[{"bike_id":"dcd8b508-2c18-4839-ab68-7b52cc2d3fb7","system_id":"levelo_inurba_marseille","lat":43.27067,"lon":5.42277,"is_reserved":false,"is_disabled":false,"rental_uris":{"android":"levelo://app?vid=dcd8b508-2c18-4839-ab68-7b52cc2d3fb7","ios":"levelo://app?vid=dcd8b508-2c18-4839-ab68-7b52cc2d3fb7"},"vehicle_type_id":"4","last_reported":1731193700,"current_range_meters":33600,"station_id":"ce4bhk92rcd13ifvqgb0","pricing_plan_id":"cebpf4jnsgd1na2vs0mg"},{"bike_id":"e94e2327-9eaf-4d26-bd7f-903afa708be6","system_id":"levelo_inurba_marseille","lat":43.33746,"lon":5.392,"is_reserved":false,"is_disabled":false,"rental_uris":{"android":"levelo://app?vid=e94e2327-9eaf-4d26-bd7f-903afa708be6","ios":"levelo://app?vid=e94e2327-9eaf-4d26-bd7f-903afa708be6"},"vehicle_type_id":"4","last_reported":1731193700,"current_range_meters":16800,"station_id":"ce4bhr92rcd13ifvqhsg","pricing_plan_id":"cebpf4jnsgd1na2vs0mg"},{"bike_id":"2304e544-6b17-4622-a619-ac8da97a0fbf","system_id":"levelo_inurba_marseille","lat":43.31359,"lon":5.38492,"is_reserved":false,"is_disabled":false,"rental_uris":{"android":"levelo://app?vid=2304e544-6b17-4622-a619-ac8da97a0fbf","ios":"levelo://app?vid=2304e544-6b17-4622-a619-ac8da97a0fbf"},"vehicle_type_id":"4","last_reported":1731193700,"current_range_meters":27600,"station_id":"ce4bgt92rcd13ifvqcf0","pricing_plan_id":"cebpf4jnsgd1na2vs0mg"},{"bike_id":"1044c177-1d80-40b2-bb54-9bfa5350a595","system_id":"levelo_inurba_marseille","lat":43.31231,"lon":5.36855,"is_reserved":false,"is_disabled":false,"rental_uris":{"android":"levelo://app?vid=1044c177-1d80-40b2-bb54-9bfa5350a595","ios":"levelo://app?vid=1044c177-1d80-40b2-bb54-9bfa5350a595"},"vehicle_type_id":"4","last_reported":1731193700,"current_range_meters":32800,"station_id":"ce4bgl92rcd13ifvqbq0","pricing_plan_id":"cebpf4jnsgd1na2vs0mg"},{"bike_id":"8d618ad3-e42f-4b7f-961b-1ad00e2aa17c","system_id":"levelo_inurba_marseille","lat":43.25008,"lon":5.38922,"is_reserved":false,"is_disabled":false,"rental_uris":{"android":"levelo://app?vid=8d618ad3-e42f-4b7f-961b-1ad00e2aa17c","ios":"levelo://app?vid=8d618ad3-e42f-4b7f-961b-1ad00e2aa17c"},"vehicle_type_id":"4","last_reported":1731193700,"current_range_meters":38400,"station_id":"ce4bhgp2rcd13ifvqfd0","pricing_plan_id":"cebpf4jnsgd1na2vs0mg"},{"bike_id":"68bb9078-c705-4e4c-81de-7ae7c7d86c43","system_id":"levelo_inurba_marseille","lat":43.31703,"lon":5.37766,"is_reserved":false,"is_disabled":false,"rental_uris":{"android":"levelo://app?vid=68bb9078-c705-4e4c-81de-7ae7c7d86c43","ios":"levelo://app?vid=68bb9078-c705-4e4c-81de-7ae7c7d86c43"},"vehicle_type_id":"4","last_reported":1731193700,"current_range_meters":26800,"station_id":"ce4bgth2rcd13ifvqch0","pricing_plan_id":"cebpf4jnsgd1na2vs0mg"},{"bike_id":"db24e85c-0936-4611-aa24-e7280f607250","system_id":"levelo_inurba_marseille","lat":43.29414,"lon":5.38633,"is_reserved":false,"is_disabled":false,"rental_uris":{"android":"levelo://app?vid=db24e85c-0936-4611-aa24-e7280f607250","ios":"levelo://app?vid=db24e85c-0936-4611-aa24-e7280f607250"},"vehicle_type_id":"4","last_reported":1731193700,"current_range_meters":32000,"station_id":"ce4bh2h2rcd13ifvqdh0","pricing_plan_id":"cebpf4jnsgd1na2vs0mg"},{"bike_id":"5daf7e81-adca-4c69-ac49-7439dac41928","system_id":"levelo_inurba_marseille","lat":43.29594,"lon":5.4218,"is_reserved":false,"is_disabled":false,"rental_uris":{"android":"levelo://app?vid=5daf7e81-adca-4c69-ac49-7439dac41928","ios":"levelo://app?vid=5daf7e81-adca-4c69-ac49-7439dac41928"},"vehicle_type_id":"4","last_reported":1731193700,"current_range_meters":38800,"station_id":"ce4bhph2rcd13ifvqhdg","pricing_plan_id":"cebpf4jnsgd1na2vs0mg"},{"bike_id":"ee4cc20c-085a-4b5d-a17b-f5faec57866c","system_id":"levelo_inurba_marseille","lat":43.29538,"lon":5.385494,"is_reserved":false,"is_disabled":false,"rental_uris":{"android":"levelo://app?vid=ee4cc20c-085a-4b5d-a17b-f5faec57866c","ios":"levelo://app?vid=ee4cc20c-085a-4b5d-a17b-f5faec57866c"},"vehicle_type_id":"4","last_reported":1731193700,"current_range_meters":37600,"station_id":"ce4bgih2rcd13ifvqba0","pricing_plan_id":"cebpf4jnsgd1na2vs0mg"},{"bike_id":"bab7e8bf-3dd9-4ba8-ae9e-1d78dcf614a2","system_id":"levelo_inurba_marseille","lat":43.25103,"lon":5.39512,"is_reserved":false,"is_disabled":false,"rental_uris":{"android":"levelo://app?vid=bab7e8bf-3dd9-4ba8-ae9e-1d78dcf614a2","ios":"levelo://app?vid=bab7e8bf-3dd9-4ba8-ae9e-1d78dcf614a2"},"vehicle_type_id":"4","last_reported":1731193700,"current_range_meters":38000,"station_id":"ce4bhm12rcd13ifvqgkg","pricing_plan_id":"cebpf4jnsgd1na2vs0mg"},{"bike_id":"e216a384-3e35-4268-818c-54b5ad9b419d","system_id":"levelo_inurba_marseille","lat":43.27616,"lon":5.36115,"is_reserved":false,"is_disabled":false,"rental_uris":{"android":"levelo://app?vid=e216a384-3e35-4268-818c-54b5ad9b419d","ios":"levelo://app?vid=e216a384-3e35-4268-818c-54b5ad9b419d"},"vehicle_type_id":"4","last_reported":1731193700,"current_range_meters":18000,"station_id":"ce4bgj92rcd13ifvqbe0","pricing_plan_id":"cebpf4jnsgd1na2vs0mg"},{"bike_id":"75d7723d-292b-4cf1-b075-38d80c293ebd","system_id":"levelo_inurba_marseille","lat":43.29977,"lon":5.37179,"is_reserved":false,"is_disabled":false,"rental_uris":{"android":"levelo://app?vid=75d7723d-292b-4cf1-b075-38d80c293ebd","ios":"levelo://app?vid=75d7723d-292b-4cf1-b075-38d80c293ebd"},"vehicle_type_id":"4","last_reported":1731193700,"current_range_meters":11600,"station_id":"ce4bgr92rcd13ifvqc7g","pricing_plan_id":"cebpf4jnsgd1na2vs0mg"},{"bike_id":"5ea278e9-e58b-4e73-bd5d-69aeffdf193a","system_id":"levelo_inurba_marseille","lat":43.29032,"lon":5.38667,"is_reserved":false,"is_disabled":false,"rental_uris":{"android":"levelo://app?vid=5ea278e9-e58b-4e73-bd5d-69aeffdf193a","ios":"levelo://app?vid=5ea278e9-e58b-4e73-bd5d-69aeffdf193a"},"vehicle_type_id":"4","last_reported":1731193700,"current_range_meters":8000,"station_id":"ce4bh4p2rcd13ifvqe0g","pricing_plan_id":"cebpf4jnsgd1na2vs0mg"},{"bike_id":"d30eb60b-b0e7-4fde-9f3c-2ecae12b7328","system_id":"levelo_inurba_marseille","lat":43.30644,"lon":5.40105,"is_reserved":false,"is_disabled":false,"rental_uris":{"android":"levelo://app?vid=d30eb60b-b0e7-4fde-9f3c-2ecae12b7328","ios":"levelo://app?vid=d30eb60b-b0e7-4fde-9f3c-2ecae12b7328"},"vehicle_type_id":"4","last_reported":1731193700,"current_range_meters":32800,"station_id":"ce4bh112rcd13ifvqda0","pricing_plan_id":"cebpf4jnsgd1na2vs0mg"},{"bike_id":"edf7c120-0d22-4436-bf52-8d48ff351261","system_id":"levelo_inurba_marseille","lat":43.30594,"lon":5.37226,"is_reserved":false,"is_disabled":false,"rental_uris":{"android":"levelo://app?vid=edf7c120-0d22-4436-bf52-8d48ff351261","ios":"levelo://app?vid=edf7c120-0d22-4436-bf52-8d48ff351261"},"vehicle_type_id":"4","last_reported":1731193700,"current_range_meters":19200,"station_id":"ce4bgqh2rcd13ifvqc4g","pricing_plan_id":"cebpf4jnsgd1na2vs0mg"},{"bike_id":"9c38ce58-02e0-458d-baf5-e45e12ce62d2","system_id":"levelo_inurba_marseille","lat":43.29546,"lon":5.38532,"is_reserved":false,"is_disabled":false,"rental_uris":{"android":"levelo://app?vid=9c38ce58-02e0-458d-baf5-e45e12ce62d2","ios":"levelo://app?vid=9c38ce58-02e0-458d-baf5-e45e12ce62d2"},"vehicle_type_id":"4","last_reported":1731193700,"current_range_meters":38000,"station_id":"ce4bgih2rcd13ifvqba0","pricing_plan_id":"cebpf4jnsgd1na2vs0mg"},{"bike_id":"0541e0e1-31f9-436f-814e-54411498a8c0","system_id":"levelo_inurba_marseille","lat":43.31351,"lon":5.38492,"is_reserved":false,"is_disabled":false,"rental_uris":{"android":"levelo://app?vid=0541e0e1-31f9-436f-814e-54411498a8c0","ios":"levelo://app?vid=0541e0e1-31f9-436f-814e-54411498a8c0"},"vehicle_type_id":"4","last_reported":1731193700,"current_range_meters":9200,"station_id":"ce4bgt92rcd13ifvqcf0","pricing_plan_id":"cebpf4jnsgd1na2vs0mg"},{"bike_id":"7defb6b2-8a22-4446-a519-80d52013912b","system_id":"levelo_inurba_marseille","lat":43.25004,"lon":5.38919,"is_reserved":false,"is_disabled":false,"rental_uris":{"android":"levelo://app?vid=7defb6b2-8a22-4446-a519-80d52013912b","ios":"levelo://app?vid=7defb6b2-8a22-4446-a519-80d52013912b"},"vehicle_type_id":"4","last_reported":1731193700,"current_range_meters":10800,"station_id":"ce4bhgp2rcd13ifvqfd0","pricing_plan_id":"cebpf4jnsgd1na2vs0mg"},{"bike_id":"5302ff5a-57e8-4b08-8be0-6da06e470d43","system_id":"levelo_inurba_marseille","lat":43.26559,"lon":5.37281,"is_reserved":false,"is_disabled":false,"rental_uris":{"android":"levelo://app?vid=5302ff5a-57e8-4b08-8be0-6da06e470d43","ios":"levelo://app?vid=5302ff5a-57e8-4b08-8be0-6da06e470d43"},"vehicle_type_id":"4","last_reported":1731193700,"current_range_meters":16800,"station_id":"ce4bhg12rcd13ifvqf70","pricing_plan_id":"cebpf4jnsgd1na2vs0mg"},{"bike_id":"ac497fa7-10d3-4ff0-bcf4-f822c6042086","system_id":"levelo_inurba_marseille","lat":43.29969,"lon":5.37184,"is_reserved":false,"is_disabled":false,"rental_uris":{"android":"levelo://app?vid=ac497fa7-10d3-4ff0-bcf4-f822c6042086","ios":"levelo://app?vid=ac497fa7-10d3-4ff0-bcf4-f822c6042086"},"vehicle_type_id":"4","last_reported":1731193700,"current_range_meters":35200,"station_id":"ce4bgr92rcd13ifvqc7g","pricing_plan_id":"cebpf4jnsgd1na2vs0mg"},{"bike_id":"e999b3da-a163-47fc-99f5-2a9e68001e1c","system_id":"levelo_inurba_marseille","lat":43.26201,"lon":5.37936,"is_reserved":false,"is_disabled":false,"rental_uris":{"android":"levelo://app?vid=e999b3da-a163-47fc-99f5-2a9e68001e1c","ios":"levelo://app?vid=e999b3da-a163-47fc-99f5-2a9e68001e1c"},"vehicle_type_id":"4","last_reported":1731193700,"current_range_meters":2800,"station_id":"ce4bhjp2rcd13ifvqg90","pricing_plan_id":"cebpf4jnsgd1na2vs0mg"},{"bike_id":"b3e47c63-7f80-4237-b227-50e17af583df","system_id":"levelo_inurba_marseille","lat":43.30299,"lon":5.39216,"is_reserved":false,"is_disabled":false,"rental_uris":{"android":"levelo://app?vid=b3e47c63-7f80-4237-b227-50e17af583df","ios":"levelo://app?vid=b3e47c63-7f80-4237-b227-50e17af583df"},"vehicle_type_id":"4","last_reported":1731193700,"current_range_meters":38800,"station_id":"ce4bgkh2rcd13ifvqbk0","pricing_plan_id":"cebpf4jnsgd1na2vs0mg"},{"bike_id":"b9059161-bc2a-4853-8231-de961bd5f1e7","system_id":"levelo_inurba_marseille","lat":43.33715,"lon":5.39189,"is_reserved":false,"is_disabled":false,"rental_uris":{"android":"levelo://app?vid=b9059161-bc2a-4853-8231-de961bd5f1e7","ios":"levelo://app?vid=b9059161-bc2a-4853-8231-de961bd5f1e7"},"vehicle_type_id":"4","last_reported":1731193700,"current_range_meters":20000,"station_id":"ce4bhr92rcd13ifvqhsg","pricing_plan_id":"cebpf4jnsgd1na2vs0mg"},{"bike_id":"49a8f101-7d98-4b53-89a3-bb2b3868ae83","system_id":"levelo_inurba_marseille","lat":43.28351,"lon":5.38108,"is_reserved":false,"is_disabled":false,"rental_uris":{"android":"levelo://app?vid=49a8f101-7d98-4b53-89a3-bb2b3868ae83","ios":"levelo://app?vid=49a8f101-7d98-4b53-89a3-bb2b3868ae83"},"vehicle_type_id":"4","last_reported":1731193700,"current_range_meters":22000,"station_id":"ce4bh412rcd13ifvqdr0","pricing_plan_id":"cebpf4jnsgd1na2vs0mg"},{"bike_id":"9e00ae8d-b3a9-4d4b-a691-62debbf0e14c","system_id":"levelo_inurba_marseille","lat":43.23187,"lon":5.39991,"is_reserved":false,"is_disabled":false,"rental_uris":{"android":"levelo://app?vid=9e00ae8d-b3a9-4d4b-a691-62debbf0e14c","ios":"levelo://app?vid=9e00ae8d-b3a9-4d4b-a691-62debbf0e14c"},"vehicle_type_id":"4","last_reported":1731193700,"current_range_meters":38400,"station_id":"ce4bhn12rcd13ifvqgqg","pricing_plan_id":"cebpf4jnsgd1na2vs0mg"},{"bike_id":"3e09356d-842a-4c31-9cc1-46c2d49b70cc","system_id":"levelo_inurba_marseille","lat":43.32365,"lon":5.38881,"is_reserved":false,"is_disabled":false,"rental_uris":{"android":"levelo://app?vid=3e09356d-842a-4c31-9cc1-46c2d49b70cc","ios":"levelo://app?vid=3e09356d-842a-4c31-9cc1-46c2d49b70cc"},"vehicle_type_id":"4","last_reported":1731193700,"current_range_meters":35200,"station_id":"ce4bhqp2rcd13ifvqhog","pricing_plan_id":"cebpf4jnsgd1na2vs0mg"},{"bike_id":"2c132dd2-0641-4cc1-a96a-1b2b0f708fe2","system_id":"levelo_inurba_marseille","lat":43.25488,"lon":5.37646,"is_reserved":false,"is_disabled":false,"rental_uris":{"android":"levelo://app?vid=2c132dd2-0641-4cc1-a96a-1b2b0f708fe2","ios":"levelo://app?vid=2c132dd2-0641-4cc1-a96a-1b2b0f708fe2"},"vehicle_type_id":"4","last_reported":1731193700,"current_range_meters":8800,"station_id":"ce4bhh12rcd13ifvqff0","pricing_plan_id":"cebpf4jnsgd1na2vs0mg"},{"bike_id":"0c840890-4ab7-41f8-8e64-cf28adac14a2","system_id":"levelo_inurba_marseille","lat":43.24996,"lon":5.38933,"is_reserved":false,"is_disabled":false,"rental_uris":{"android":"levelo://app?vid=0c840890-4ab7-41f8-8e64-cf28adac14a2","ios":"levelo://app?vid=0c840890-4ab7-41f8-8e64-cf28adac14a2"},"vehicle_type_id":"4","last_reported":1731193700,"current_range_meters":30400,"station_id":"ce4bhgp2rcd13ifvqfd0","pricing_plan_id":"cebpf4jnsgd1na2vs0mg"},{"bike_id":"7f6039b9-3968-4840-8062-3d5a572ce874","system_id":"levelo_inurba_marseille","lat":43.29624,"lon":5.38786,"is_reserved":false,"is_disabled":false,"rental_uris":{"android":"levelo://app?vid=7f6039b9-3968-4840-8062-3d5a572ce874","ios":"levelo://app?vid=7f6039b9-3968-4840-8062-3d5a572ce874"},"vehicle_type_id":"4","last_reported":1731193700,"current_range_meters":36000,"station_id":"","pricing_plan_id":"cebpf4jnsgd1na2vs0mg"},{"bike_id":"089aacb3-c907-40f9-a9d1-efcd2c644f9c","system_id":"levelo_inurba_marseille","lat":43.28463,"lon":5.35885,"is_reserved":false,"is_disabled":false,"rental_uris":{"android":"levelo://app?vid=089aacb3-c907-40f9-a9d1-efcd2c644f9c","ios":"levelo://app?vid=089aacb3-c907-40f9-a9d1-efcd2c644f9c"},"vehicle_type_id":"4","last_reported":1731193700,"current_range_meters":36400,"station_id":"ce4bhah2rcd13ifvqei0","pricing_plan_id":"cebpf4jnsgd1na2vs0mg"},{"bike_id":"eadc5544-d74f-4b08-ad57-ddeb63b596fa","system_id":"levelo_inurba_marseille","lat":43.29536,"lon":5.38546,"is_reserved":false,"is_disabled":false,"rental_uris":{"android":"levelo://app?vid=eadc5544-d74f-4b08-ad57-ddeb63b596fa","ios":"levelo://app?vid=eadc5544-d74f-4b08-ad57-ddeb63b596fa"},"vehicle_type_id":"4","last_reported":1731193700,"current_range_meters":24400,"station_id":"ce4bgih2rcd13ifvqba0","pricing_plan_id":"cebpf4jnsgd1na2vs0mg"},{"bike_id":"d2b69f2e-daf8-4233-be65-2d8ca4c447e9","system_id":"levelo_inurba_marseille","lat":43.25821,"lon":5.39434,"is_reserved":false,"is_disabled":false,"rental_uris":{"android":"levelo://app?vid=d2b69f2e-daf8-4233-be65-2d8ca4c447e9","ios":"levelo://app?vid=d2b69f2e-daf8-4233-be65-2d8ca4c447e9"},"vehicle_type_id":"4","last_reported":1731193700,"current_range_meters":33200,"station_id":"ce4bhip2rcd13ifvqft0","pricing_plan_id":"cebpf4jnsgd1na2vs0mg"},{"bike_id":"259cb56b-c0e6-43b7-8c24-c973364fbd90","system_id":"levelo_inurba_marseille","lat":43.31175,"lon":5.3872,"is_reserved":false,"is_disabled":false,"rental_uris":{"android":"levelo://app?vid=259cb56b-c0e6-43b7-8c24-c973364fbd90","ios":"levelo://app?vid=259cb56b-c0e6-43b7-8c24-c973364fbd90"},"vehicle_type_id":"4","last_reported":1731193700,"current_range_meters":38800,"station_id":"ce4bgv12rcd13ifvqcp0","pricing_plan_id":"cebpf4jnsgd1na2vs0mg"},{"bike_id":"022a6c3f-2c40-4cbf-9753-f6fa44b0f843","system_id":"levelo_inurba_marseille","lat":43.3128,"lon":5.4016,"is_reserved":false,"is_disabled":false,"rental_uris":{"android":"levelo://app?vid=022a6c3f-2c40-4cbf-9753-f6fa44b0f843","ios":"levelo://app?vid=022a6c3f-2c40-4cbf-9753-f6fa44b0f843"},"vehicle_type_id":"4","last_reported":1731193700,"current_range_meters":37600,"station_id":"ce4bh092rcd13ifvqd30","pricing_plan_id":"cebpf4jnsgd1na2vs0mg"},{"bike_id":"f558ea4f-d047-481c-9fbf-d3b1e5bd4e51","system_id":"levelo_inurba_marseille","lat":43.29908,"lon":5.38145,"is_reserved":false,"is_disabled":false,"rental_uris":{"android":"levelo://app?vid=f558ea4f-d047-481c-9fbf-d3b1e5bd4e51","ios":"levelo://app?vid=f558ea4f-d047-481c-9fbf-d3b1e5bd4e51"},"vehicle_type_id":"4","last_reported":1731193700,"current_range_meters":38000,"station_id":"ce4bgj12rcd13ifvqbc0","pricing_plan_id":"cebpf4jnsgd1na2vs0mg"},{"bike_id":"b51d004f-3c4c-4fc0-9c38-6feab66e4360","system_id":"levelo_inurba_marseille","lat":43.31076,"lon":5.38353,"is_reserved":false,"is_disabled":false,"rental_uris":{"android":"levelo://app?vid=b51d004f-3c4c-4fc0-9c38-6feab66e4360","ios":"levelo://app?vid=b51d004f-3c4c-4fc0-9c38-6feab66e4360"},"vehicle_type_id":"4","last_reported":1731193700,"current_range_meters":24800,"station_id":"ce4bgv92rcd13ifvqcr0","pricing_plan_id":"cebpf4jnsgd1na2vs0mg"},{"bike_id":"0372fede-2494-49af-96fb-519c63df2481","system_id":"levelo_inurba_marseille","lat":43.24804,"lon":5.37458,"is_reserved":false,"is_disabled":false,"rental_uris":{"android":"levelo://app?vid=0372fede-2494-49af-96fb-519c63df2481","ios":"levelo://app?vid=0372fede-2494-49af-96fb-519c63df2481"},"vehicle_type_id":"4","last_reported":1731193700,"current_range_meters":6800,"station_id":"ce4bhgh2rcd13ifvqfb0","pricing_plan_id":"cebpf4jnsgd1na2vs0mg"},{"bike_id":"c598413b-4611-4061-9162-a6cc558d0b86","system_id":"levelo_inurba_marseille","lat":43.31169,"lon":5.38727,"is_reserved":false,"is_disabled":false,"rental_uris":{"android":"levelo://app?vid=c598413b-4611-4061-9162-a6cc558d0b86","ios":"levelo://app?vid=c598413b-4611-4061-9162-a6cc558d0b86"},"vehicle_type_id":"4","last_reported":1731193700,"current_range_meters":25600,"station_id":"ce4bgv12rcd13ifvqcp0","pricing_plan_id":"cebpf4jnsgd1na2vs0mg"},{"bike_id":"cbe52ca1-7ea1-4cfa-9099-43c9013d88ca","system_id":"levelo_inurba_marseille","lat":43.23961,"lon":5.36628,"is_reserved":false,"is_disabled":false,"rental_uris":{"android":"levelo://app?vid=cbe52ca1-7ea1-4cfa-9099-43c9013d88ca","ios":"levelo://app?vid=cbe52ca1-7ea1-4cfa-9099-43c9013d88ca"},"vehicle_type_id":"4","last_reported":1731193700,"current_range_meters":10800,"station_id":"ce4bhi12rcd13ifvqfp0","pricing_plan_id":"cebpf4jnsgd1na2vs0mg"},{"bike_id":"23c8734e-f1f1-4a38-a451-a0064f1f8342","system_id":"levelo_inurba_marseille","lat":43.2407,"lon":5.37759,"is_reserved":false,"is_disabled":false,"rental_uris":{"android":"levelo://app?vid=23c8734e-f1f1-4a38-a451-a0064f1f8342","ios":"levelo://app?vid=23c8734e-f1f1-4a38-a451-a0064f1f8342"},"vehicle_type_id":"4","last_reported":1731193700,"current_range_meters":33600,"station_id":"ce4bhnp2rcd13ifvqgvg","pricing_plan_id":"cebpf4jnsgd1na2vs0mg"},{"bike_id":"bdd6c1e4-4d64-4f78-b0c1-188ffa73cc53","system_id":"levelo_inurba_marseille","lat":43.2954,"lon":5.3854,"is_reserved":false,"is_disabled":false,"rental_uris":{"android":"levelo://app?vid=bdd6c1e4-4d64-4f78-b0c1-188ffa73cc53","ios":"levelo://app?vid=bdd6c1e4-4d64-4f78-b0c1-188ffa73cc53"},"vehicle_type_id":"4","last_reported":1731193700,"current_range_meters":11600,"station_id":"ce4bgih2rcd13ifvqba0","pricing_plan_id":"cebpf4jnsgd1na2vs0mg"},{"bike_id":"1a763965-ad51-40d8-b7f8-4346d6e44def","system_id":"levelo_inurba_marseille","lat":43.308013,"lon":5.381557,"is_reserved":false,"is_disabled":false,"rental_uris":{"android":"levelo://app?vid=1a763965-ad51-40d8-b7f8-4346d6e44def","ios":"levelo://app?vid=1a763965-ad51-40d8-b7f8-4346d6e44def"},"vehicle_type_id":"4","last_reported":1731193700,"current_range_meters":39200,"station_id":"ce4bgt12rcd13ifvqce0","pricing_plan_id":"cebpf4jnsgd1na2vs0mg"},{"bike_id":"4e167b6a-95ea-4c5a-b48a-967acf7cdae4","system_id":"levelo_inurba_marseille","lat":43.29423,"lon":5.38624,"is_reserved":false,"is_disabled":false,"rental_uris":{"android":"levelo://app?vid=4e167b6a-95ea-4c5a-b48a-967acf7cdae4","ios":"levelo://app?vid=4e167b6a-95ea-4c5a-b48a-967acf7cdae4"},"vehicle_type_id":"4","last_reported":1731193700,"current_range_meters":38800,"station_id":"ce4bh2h2rcd13ifvqdh0","pricing_plan_id":"cebpf4jnsgd1na2vs0mg"},{"bike_id":"e931dbea-a637-4f2a-b715-63e0aded4802","system_id":"levelo_inurba_marseille","lat":43.311715,"lon":5.387093,"is_reserved":false,"is_disabled":false,"rental_uris":{"android":"levelo://app?vid=e931dbea-a637-4f2a-b715-63e0aded4802","ios":"levelo://app?vid=e931dbea-a637-4f2a-b715-63e0aded4802"},"vehicle_type_id":"4","last_reported":1731193700,"current_range_meters":39200,"station_id":"ce4bgv12rcd13ifvqcp0","pricing_plan_id":"cebpf4jnsgd1na2vs0mg"},{"bike_id":"c2e7ed3a-f62d-4fe5-9088-bf07ba717243","system_id":"levelo_inurba_marseille","lat":43.26679,"lon":5.38267,"is_reserved":false,"is_disabled":false,"rental_uris":{"android":"levelo://app?vid=c2e7ed3a-f62d-4fe5-9088-bf07ba717243","ios":"levelo://app?vid=c2e7ed3a-f62d-4fe5-9088-bf07ba717243"},"vehicle_type_id":"4","last_reported":1731193700,"current_range_meters":28400,"station_id":"ce4bhg92rcd13ifvqf90","pricing_plan_id":"cebpf4jnsgd1na2vs0mg"},{"bike_id":"b2bda100-55bb-4b95-840e-426b436ee1ac","system_id":"levelo_inurba_marseille","lat":43.3149,"lon":5.37304,"is_reserved":false,"is_disabled":false,"rental_uris":{"android":"levelo://app?vid=b2bda100-55bb-4b95-840e-426b436ee1ac","ios":"levelo://app?vid=b2bda100-55bb-4b95-840e-426b436ee1ac"},"vehicle_type_id":"4","last_reported":1731193700,"current_range_meters":24800,"station_id":"ce4bgt12rcd13ifvqcd0","pricing_plan_id":"cebpf4jnsgd1na2vs0mg"},{"bike_id":"c94909dd-e782-4a49-bf66-6d27f36ac2ee","system_id":"levelo_inurba_marseille","lat":43.29633,"lon":5.38076,"is_reserved":false,"is_disabled":false,"rental_uris":{"android":"levelo://app?vid=c94909dd-e782-4a49-bf66-6d27f36ac2ee","ios":"levelo://app?vid=c94909dd-e782-4a49-bf66-6d27f36ac2ee"},"vehicle_type_id":"4","last_reported":1731193700,"current_range_meters":32800,"station_id":"ce4bgl12rcd13ifvqbo0","pricing_plan_id":"cebpf4jnsgd1na2vs0mg"},{"bike_id":"c221efe7-efcb-49b8-a1b0-1dd8d171a453","system_id":"levelo_inurba_marseille","lat":43.33726,"lon":5.39179,"is_reserved":false,"is_disabled":false,"rental_uris":{"android":"levelo://app?vid=c221efe7-efcb-49b8-a1b0-1dd8d171a453","ios":"levelo://app?vid=c221efe7-efcb-49b8-a1b0-1dd8d171a453"},"vehicle_type_id":"4","last_reported":1731193700,"current_range_meters":38000,"station_id":"ce4bhr92rcd13ifvqhsg","pricing_plan_id":"cebpf4jnsgd1na2vs0mg"},{"bike_id":"b8fdd341-0697-41ca-82c9-e4253415f4e6","system_id":"levelo_inurba_marseille","lat":43.23062,"lon":5.35493,"is_reserved":false,"is_disabled":false,"rental_uris":{"android":"levelo://app?vid=b8fdd341-0697-41ca-82c9-e4253415f4e6","ios":"levelo://app?vid=b8fdd341-0697-41ca-82c9-e4253415f4e6"},"vehicle_type_id":"4","last_reported":1731193700,"current_range_meters":30000,"station_id":"cpo3342slgdg3j2ifvpg","pricing_plan_id":"cebpf4jnsgd1na2vs0mg"},{"bike_id":"cf9daf46-3bd1-47e7-80ac-0de06577c598","system_id":"levelo_inurba_marseille","lat":43.24386,"lon":5.37053,"is_reserved":false,"is_disabled":false,"rental_uris":{"android":"levelo://app?vid=cf9daf46-3bd1-47e7-80ac-0de06577c598","ios":"levelo://app?vid=cf9daf46-3bd1-47e7-80ac-0de06577c598"},"vehicle_type_id":"4","last_reported":1731193700,"current_range_meters":39200,"station_id":"ce4bhhh2rcd13ifvqfk0","pricing_plan_id":"cebpf4jnsgd1na2vs0mg"},{"bike_id":"e44b3744-3989-4f49-805e-68da9c21350d","system_id":"levelo_inurba_marseille","lat":43.29778,"lon":5.39324,"is_reserved":false,"is_disabled":false,"rental_uris":{"android":"levelo://app?vid=e44b3744-3989-4f49-805e-68da9c21350d","ios":"levelo://app?vid=e44b3744-3989-4f49-805e-68da9c21350d"},"vehicle_type_id":"4","last_reported":1731193700,"current_range_meters":7200,"station_id":"chh1huq6cuj3fo74tm60","pricing_plan_id":"cebpf4jnsgd1na2vs0mg"},{"bike_id":"d7307759-7f0f-4029-a1e2-53a28e23e3a5","system_id":"levelo_inurba_marseille","lat":43.28701,"lon":5.37396,"is_reserved":false,"is_disabled":false,"rental_uris":{"android":"levelo://app?vid=d7307759-7f0f-4029-a1e2-53a28e23e3a5","ios":"levelo://app?vid=d7307759-7f0f-4029-a1e2-53a28e23e3a5"},"vehicle_type_id":"4","last_reported":1731193700,"current_range_meters":18800,"station_id":"ce4bh3p2rcd13ifvqdq0","pricing_plan_id":"cebpf4jnsgd1na2vs0mg"},{"bike_id":"464d7b3b-083f-4dc4-bfe6-db522c8570a4","system_id":"levelo_inurba_marseille","lat":43.31354,"lon":5.38491,"is_reserved":false,"is_disabled":false,"rental_uris":{"android":"levelo://app?vid=464d7b3b-083f-4dc4-bfe6-db522c8570a4","ios":"levelo://app?vid=464d7b3b-083f-4dc4-bfe6-db522c8570a4"},"vehicle_type_id":"4","last_reported":1731193700,"current_range_meters":17600,"station_id":"ce4bgt92rcd13ifvqcf0","pricing_plan_id":"cebpf4jnsgd1na2vs0mg"},{"bike_id":"c67a1795-3146-4b01-8240-7fe64c056eca","system_id":"levelo_inurba_marseille","lat":43.30929,"lon":5.40147,"is_reserved":false,"is_disabled":false,"rental_uris":{"android":"levelo://app?vid=c67a1795-3146-4b01-8240-7fe64c056eca","ios":"levelo://app?vid=c67a1795-3146-4b01-8240-7fe64c056eca"},"vehicle_type_id":"4","last_reported":1731193700,"current_range_meters":22000,"station_id":"ce4bgvp2rcd13ifvqct0","pricing_plan_id":"cebpf4jnsgd1na2vs0mg"},{"bike_id":"48ac5c04-4660-41a3-b787-f30e05fcc0f0","system_id":"levelo_inurba_marseille","lat":43.28461,"lon":5.35893,"is_reserved":false,"is_disabled":false,"rental_uris":{"android":"levelo://app?vid=48ac5c04-4660-41a3-b787-f30e05fcc0f0","ios":"levelo://app?vid=48ac5c04-4660-41a3-b787-f30e05fcc0f0"},"vehicle_type_id":"4","last_reported":1731193700,"current_range_meters":27200,"station_id":"ce4bhah2rcd13ifvqei0","pricing_plan_id":"cebpf4jnsgd1na2vs0mg"},{"bike_id":"79cfb2da-a585-4fce-98cf-dc3b63c5a31f","system_id":"levelo_inurba_marseille","lat":43.25086,"lon":5.39519,"is_reserved":false,"is_disabled":false,"rental_uris":{"android":"levelo://app?vid=79cfb2da-a585-4fce-98cf-dc3b63c5a31f","ios":"levelo://app?vid=79cfb2da-a585-4fce-98cf-dc3b63c5a31f"},"vehicle_type_id":"4","last_reported":1731193700,"current_range_meters":37600,"station_id":"ce4bhm12rcd13ifvqgkg","pricing_plan_id":"cebpf4jnsgd1na2vs0mg"},{"bike_id":"388bccca-bdb5-4031-9e3c-b3950c0a071e","system_id":"levelo_inurba_marseille","lat":43.24645,"lon":5.38173,"is_reserved":false,"is_disabled":false,"rental_uris":{"android":"levelo://app?vid=388bccca-bdb5-4031-9e3c-b3950c0a071e","ios":"levelo://app?vid=388bccca-bdb5-4031-9e3c-b3950c0a071e"},"vehicle_type_id":"4","last_reported":1731193700,"current_range_meters":28400,"station_id":"ce4bhih2rcd13ifvqfr0","pricing_plan_id":"cebpf4jnsgd1na2vs0mg"},{"bike_id":"bc4759fa-afe0-409c-990b-9bc7a136ee1f","system_id":"levelo_inurba_marseille","lat":43.29251,"lon":5.40906,"is_reserved":false,"is_disabled":false,"rental_uris":{"android":"levelo://app?vid=bc4759fa-afe0-409c-990b-9bc7a136ee1f","ios":"levelo://app?vid=bc4759fa-afe0-409c-990b-9bc7a136ee1f"},"vehicle_type_id":"4","last_reported":1731193700,"current_range_meters":23200,"station_id":"ce4bh192rcd13ifvqdc0","pricing_plan_id":"cebpf4jnsgd1na2vs0mg"},{"bike_id":"67379801-ff11-4450-92a3-699259c2505a","system_id":"levelo_inurba_marseille","lat":43.29799,"lon":5.40393,"is_reserved":false,"is_disabled":false,"rental_uris":{"android":"levelo://app?vid=67379801-ff11-4450-92a3-699259c2505a","ios":"levelo://app?vid=67379801-ff11-4450-92a3-699259c2505a"},"vehicle_type_id":"4","last_reported":1731193700,"current_range_meters":36800,"station_id":"ce4bh112rcd13ifvqd90","pricing_plan_id":"cebpf4jnsgd1na2vs0mg"},{"bike_id":"45da62df-7f80-44a3-ba8e-1acd781a5f69","system_id":"levelo_inurba_marseille","lat":43.29554,"lon":5.42293,"is_reserved":false,"is_disabled":false,"rental_uris":{"android":"levelo://app?vid=45da62df-7f80-44a3-ba8e-1acd781a5f69","ios":"levelo://app?vid=45da62df-7f80-44a3-ba8e-1acd781a5f69"},"vehicle_type_id":"4","last_reported":1731193700,"current_range_meters":27600,"station_id":"ce4bhph2rcd13ifvqhdg","pricing_plan_id":"cebpf4jnsgd1na2vs0mg"},{"bike_id":"2972f759-c98e-4fe7-9758-85d215895273","system_id":"levelo_inurba_marseille","lat":43.2396,"lon":5.36622,"is_reserved":false,"is_disabled":false,"rental_uris":{"android":"levelo://app?vid=2972f759-c98e-4fe7-9758-85d215895273","ios":"levelo://app?vid=2972f759-c98e-4fe7-9758-85d215895273"},"vehicle_type_id":"4","last_reported":1731193700,"current_range_meters":38000,"station_id":"ce4bhi12rcd13ifvqfp0","pricing_plan_id":"cebpf4jnsgd1na2vs0mg"},{"bike_id":"010d3bc6-1da9-4e2e-9558-6436a5780c21","system_id":"levelo_inurba_marseille","lat":43.23194,"lon":5.3555,"is_reserved":false,"is_disabled":false,"rental_uris":{"android":"levelo://app?vid=010d3bc6-1da9-4e2e-9558-6436a5780c21","ios":"levelo://app?vid=010d3bc6-1da9-4e2e-9558-6436a5780c21"},"vehicle_type_id":"4","last_reported":1731193700,"current_range_meters":38800,"station_id":"ce4bhu92rcd13ifvqi70","pricing_plan_id":"cebpf4jnsgd1na2vs0mg"},{"bike_id":"197c105a-f7c0-4383-adea-686cdf323f28","system_id":"levelo_inurba_marseille","lat":43.31713,"lon":5.43712,"is_reserved":false,"is_disabled":false,"rental_uris":{"android":"levelo://app?vid=197c105a-f7c0-4383-adea-686cdf323f28","ios":"levelo://app?vid=197c105a-f7c0-4383-adea-686cdf323f28"},"vehicle_type_id":"4","last_reported":1731193700,"current_range_meters":38800,"station_id":"ce4bhp92rcd13ifvqhcg","pricing_plan_id":"cebpf4jnsgd1na2vs0mg"},{"bike_id":"720179be-536c-414c-b19d-c298d2a8d0ec","system_id":"levelo_inurba_marseille","lat":43.29563,"lon":5.42287,"is_reserved":false,"is_disabled":false,"rental_uris":{"android":"levelo://app?vid=720179be-536c-414c-b19d-c298d2a8d0ec","ios":"levelo://app?vid=720179be-536c-414c-b19d-c298d2a8d0ec"},"vehicle_type_id":"4","last_reported":1731193700,"current_range_meters":14000,"station_id":"ce4bhph2rcd13ifvqhdg","pricing_plan_id":"cebpf4jnsgd1na2vs0mg"},{"bike_id":"5d6c0b66-6ba1-4aaa-9118-9737eb905f4d","system_id":"levelo_inurba_marseille","lat":43.27974,"lon":5.38746,"is_reserved":false,"is_disabled":false,"rental_uris":{"android":"levelo://app?vid=5d6c0b66-6ba1-4aaa-9118-9737eb905f4d","ios":"levelo://app?vid=5d6c0b66-6ba1-4aaa-9118-9737eb905f4d"},"vehicle_type_id":"4","last_reported":1731193700,"current_range_meters":8000,"station_id":"ce4bhg12rcd13ifvqf80","pricing_plan_id":"cebpf4jnsgd1na2vs0mg"},{"bike_id":"b25de221-e9a7-4c18-8d50-062dbb86e768","system_id":"levelo_inurba_marseille","lat":43.32484,"lon":5.36569,"is_reserved":false,"is_disabled":false,"rental_uris":{"android":"levelo://app?vid=b25de221-e9a7-4c18-8d50-062dbb86e768","ios":"levelo://app?vid=b25de221-e9a7-4c18-8d50-062dbb86e768"},"vehicle_type_id":"4","last_reported":1731193700,"current_range_meters":39200,"station_id":"ce4bhs12rcd13ifvqhvg","pricing_plan_id":"cebpf4jnsgd1na2vs0mg"},{"bike_id":"018a3589-77d8-4b19-83ac-f9642172d886","system_id":"levelo_inurba_marseille","lat":43.28108,"lon":5.37846,"is_reserved":false,"is_disabled":false,"rental_uris":{"android":"levelo://app?vid=018a3589-77d8-4b19-83ac-f9642172d886","ios":"levelo://app?vid=018a3589-77d8-4b19-83ac-f9642172d886"},"vehicle_type_id":"4","last_reported":1731193700,"current_range_meters":37600,"station_id":"ce4bha12rcd13ifvqee0","pricing_plan_id":"cebpf4jnsgd1na2vs0mg"},{"bike_id":"91aa931e-ce05-4714-b789-efb09acea2cc","system_id":"levelo_inurba_marseille","lat":43.2721,"lon":5.39184,"is_reserved":false,"is_disabled":false,"rental_uris":{"android":"levelo://app?vid=91aa931e-ce05-4714-b789-efb09acea2cc","ios":"levelo://app?vid=91aa931e-ce05-4714-b789-efb09acea2cc"},"vehicle_type_id":"4","last_reported":1731193700,"current_range_meters":37600,"station_id":"ce4bhhp2rcd13ifvqfm0","pricing_plan_id":"cebpf4jnsgd1na2vs0mg"},{"bike_id":"b69ed352-f5e4-4470-9d1b-9ce134e97c50","system_id":"levelo_inurba_marseille","lat":43.27944,"lon":5.41037,"is_reserved":false,"is_disabled":false,"rental_uris":{"android":"levelo://app?vid=b69ed352-f5e4-4470-9d1b-9ce134e97c50","ios":"levelo://app?vid=b69ed352-f5e4-4470-9d1b-9ce134e97c50"},"vehicle_type_id":"4","last_reported":1731193700,"current_range_meters":29600,"station_id":"ce4bhnp2rcd13ifvqh0g","pricing_plan_id":"cebpf4jnsgd1na2vs0mg"},{"bike_id":"7412918f-e852-4734-ac8b-c4b5d62b6217","system_id":"levelo_inurba_marseille","lat":43.31362,"lon":5.38509,"is_reserved":false,"is_disabled":false,"rental_uris":{"android":"levelo://app?vid=7412918f-e852-4734-ac8b-c4b5d62b6217","ios":"levelo://app?vid=7412918f-e852-4734-ac8b-c4b5d62b6217"},"vehicle_type_id":"4","last_reported":1731193700,"current_range_meters":18800,"station_id":"ce4bgt92rcd13ifvqcf0","pricing_plan_id":"cebpf4jnsgd1na2vs0mg"},{"bike_id":"2ad361b6-540e-4873-9e5b-6b5de9b52523","system_id":"levelo_inurba_marseille","lat":43.23963,"lon":5.36622,"is_reserved":false,"is_disabled":false,"rental_uris":{"android":"levelo://app?vid=2ad361b6-540e-4873-9e5b-6b5de9b52523","ios":"levelo://app?vid=2ad361b6-540e-4873-9e5b-6b5de9b52523"},"vehicle_type_id":"4","last_reported":1731193700,"current_range_meters":5600,"station_id":"ce4bhi12rcd13ifvqfp0","pricing_plan_id":"cebpf4jnsgd1na2vs0mg"},{"bike_id":"fa290c10-0eac-401f-bd34-34c77d81c917","system_id":"levelo_inurba_marseille","lat":43.2396,"lon":5.36652,"is_reserved":false,"is_disabled":false,"rental_uris":{"android":"levelo://app?vid=fa290c10-0eac-401f-bd34-34c77d81c917","ios":"levelo://app?vid=fa290c10-0eac-401f-bd34-34c77d81c917"},"vehicle_type_id":"4","last_reported":1731193700,"current_range_meters":18800,"station_id":"ce4bhi12rcd13ifvqfp0","pricing_plan_id":"cebpf4jnsgd1na2vs0mg"},{"bike_id":"cb9b0141-af3c-4068-925c-38c2867ded80","system_id":"levelo_inurba_marseille","lat":43.27375,"lon":5.36249,"is_reserved":false,"is_disabled":false,"rental_uris":{"android":"levelo://app?vid=cb9b0141-af3c-4068-925c-38c2867ded80","ios":"levelo://app?vid=cb9b0141-af3c-4068-925c-38c2867ded80"},"vehicle_type_id":"4","last_reported":1731193700,"current_range_meters":10800,"station_id":"ce4bhbh2rcd13ifvqeo0","pricing_plan_id":"cebpf4jnsgd1na2vs0mg"},{"bike_id":"c741c1a6-4284-461e-8f48-2b3a03880538","system_id":"levelo_inurba_marseille","lat":43.2795,"lon":5.41054,"is_reserved":false,"is_disabled":false,"rental_uris":{"android":"levelo://app?vid=c741c1a6-4284-461e-8f48-2b3a03880538","ios":"levelo://app?vid=c741c1a6-4284-461e-8f48-2b3a03880538"},"vehicle_type_id":"4","last_reported":1731193700,"current_range_meters":20800,"station_id":"ce4bhnp2rcd13ifvqh0g","pricing_plan_id":"cebpf4jnsgd1na2vs0mg"},{"bike_id":"5e9b58e1-3c83-4d6d-8e63-bd401c235d13","system_id":"levelo_inurba_marseille","lat":43.2417,"lon":5.36404,"is_reserved":false,"is_disabled":false,"rental_uris":{"android":"levelo://app?vid=5e9b58e1-3c83-4d6d-8e63-bd401c235d13","ios":"levelo://app?vid=5e9b58e1-3c83-4d6d-8e63-bd401c235d13"},"vehicle_type_id":"4","last_reported":1731193700,"current_range_meters":9200,"station_id":"cpo36qri1sfpv3e86is0","pricing_plan_id":"cebpf4jnsgd1na2vs0mg"},{"bike_id":"b9478b1d-79e3-44c9-ae60-496dd5151f62","system_id":"levelo_inurba_marseille","lat":43.29166,"lon":5.37146,"is_reserved":false,"is_disabled":false,"rental_uris":{"android":"levelo://app?vid=b9478b1d-79e3-44c9-ae60-496dd5151f62","ios":"levelo://app?vid=b9478b1d-79e3-44c9-ae60-496dd5151f62"},"vehicle_type_id":"4","last_reported":1731193700,"current_range_meters":35200,"station_id":"ce4bha92rcd13ifvqeh0","pricing_plan_id":"cebpf4jnsgd1na2vs0mg"},{"bike_id":"9dfbe33f-1bcb-47e3-adf9-7d852b82ff1f","system_id":"levelo_inurba_marseille","lat":43.26493,"lon":5.39551,"is_reserved":false,"is_disabled":false,"rental_uris":{"android":"levelo://app?vid=9dfbe33f-1bcb-47e3-adf9-7d852b82ff1f","ios":"levelo://app?vid=9dfbe33f-1bcb-47e3-adf9-7d852b82ff1f"},"vehicle_type_id":"4","last_reported":1731193700,"current_range_meters":21600,"station_id":"ce4bhi12rcd13ifvqfq0","pricing_plan_id":"cebpf4jnsgd1na2vs0mg"},{"bike_id":"4204c697-9142-4d6f-a64b-20f319f8c9a7","system_id":"levelo_inurba_marseille","lat":43.2707,"lon":5.42277,"is_reserved":false,"is_disabled":false,"rental_uris":{"android":"levelo://app?vid=4204c697-9142-4d6f-a64b-20f319f8c9a7","ios":"levelo://app?vid=4204c697-9142-4d6f-a64b-20f319f8c9a7"},"vehicle_type_id":"4","last_reported":1731193700,"current_range_meters":10800,"station_id":"ce4bhk92rcd13ifvqgb0","pricing_plan_id":"cebpf4jnsgd1na2vs0mg"},{"bike_id":"784b2a2a-419a-460b-9e9b-be804f36db5c","system_id":"levelo_inurba_marseille","lat":43.24807,"lon":5.37453,"is_reserved":false,"is_disabled":false,"rental_uris":{"android":"levelo://app?vid=784b2a2a-419a-460b-9e9b-be804f36db5c","ios":"levelo://app?vid=784b2a2a-419a-460b-9e9b-be804f36db5c"},"vehicle_type_id":"4","last_reported":1731193700,"current_range_meters":6400,"station_id":"ce4bhgh2rcd13ifvqfb0","pricing_plan_id":"cebpf4jnsgd1na2vs0mg"},{"bike_id":"b4d541a0-93bc-439c-91a4-47479bc68375","system_id":"levelo_inurba_marseille","lat":43.29041,"lon":5.35922,"is_reserved":false,"is_disabled":false,"rental_uris":{"android":"levelo://app?vid=b4d541a0-93bc-439c-91a4-47479bc68375","ios":"levelo://app?vid=b4d541a0-93bc-439c-91a4-47479bc68375"},"vehicle_type_id":"4","last_reported":1731193700,"current_range_meters":26800,"station_id":"ce4bha92rcd13ifvqeg0","pricing_plan_id":"cebpf4jnsgd1na2vs0mg"},{"bike_id":"415471c6-7f52-459b-81ba-8d25880bb5f5","system_id":"levelo_inurba_marseille","lat":43.251068,"lon":5.403188,"is_reserved":false,"is_disabled":false,"rental_uris":{"android":"levelo://app?vid=415471c6-7f52-459b-81ba-8d25880bb5f5","ios":"levelo://app?vid=415471c6-7f52-459b-81ba-8d25880bb5f5"},"vehicle_type_id":"4","last_reported":1731193700,"current_range_meters":17200,"station_id":"ce4bgj12rcd13ifvqbc0","pricing_plan_id":"cebpf4jnsgd1na2vs0mg"},{"bike_id":"4f8f3d05-77a1-4608-a529-e5ae940296cc","system_id":"levelo_inurba_marseille","lat":43.28944,"lon":5.36637,"is_reserved":false,"is_disabled":false,"rental_uris":{"android":"levelo://app?vid=4f8f3d05-77a1-4608-a529-e5ae940296cc","ios":"levelo://app?vid=4f8f3d05-77a1-4608-a529-e5ae940296cc"},"vehicle_type_id":"4","last_reported":1731193700,"current_range_meters":38800,"station_id":"ce4bhap2rcd13ifvqek0","pricing_plan_id":"cebpf4jnsgd1na2vs0mg"},{"bike_id":"bee0ebad-1be1-4aa0-9bad-7c010541c55c","system_id":"levelo_inurba_marseille","lat":43.30087,"lon":5.39088,"is_reserved":false,"is_disabled":false,"rental_uris":{"android":"levelo://app?vid=bee0ebad-1be1-4aa0-9bad-7c010541c55c","ios":"levelo://app?vid=bee0ebad-1be1-4aa0-9bad-7c010541c55c"},"vehicle_type_id":"4","last_reported":1731193700,"current_range_meters":23200,"station_id":"ce4bh192rcd13ifvqdb0","pricing_plan_id":"cebpf4jnsgd1na2vs0mg"},{"bike_id":"72209f68-d3ea-4a0c-9190-6a49cfe843ba","system_id":"levelo_inurba_marseille","lat":43.27954,"lon":5.41052,"is_reserved":false,"is_disabled":false,"rental_uris":{"android":"levelo://app?vid=72209f68-d3ea-4a0c-9190-6a49cfe843ba","ios":"levelo://app?vid=72209f68-d3ea-4a0c-9190-6a49cfe843ba"},"vehicle_type_id":"4","last_reported":1731193700,"current_range_meters":8400,"station_id":"ce4bhnp2rcd13ifvqh0g","pricing_plan_id":"cebpf4jnsgd1na2vs0mg"},{"bike_id":"3d35a84d-d2e5-4e42-811b-597b89e5e6ed","system_id":"levelo_inurba_marseille","lat":43.28862,"lon":5.3586,"is_reserved":false,"is_disabled":false,"rental_uris":{"android":"levelo://app?vid=3d35a84d-d2e5-4e42-811b-597b89e5e6ed","ios":"levelo://app?vid=3d35a84d-d2e5-4e42-811b-597b89e5e6ed"},"vehicle_type_id":"4","last_reported":1731193700,"current_range_meters":30800,"station_id":"ce4bhb12rcd13ifvqem0","pricing_plan_id":"cebpf4jnsgd1na2vs0mg"},{"bike_id":"aa1f7452-3c8e-4bbd-b352-ac234539263e","system_id":"levelo_inurba_marseille","lat":43.27171,"lon":5.4099,"is_reserved":false,"is_disabled":false,"rental_uris":{"android":"levelo://app?vid=aa1f7452-3c8e-4bbd-b352-ac234539263e","ios":"levelo://app?vid=aa1f7452-3c8e-4bbd-b352-ac234539263e"},"vehicle_type_id":"4","last_reported":1731193700,"current_range_meters":35600,"station_id":"ce4bhl12rcd13ifvqgf0","pricing_plan_id":"cebpf4jnsgd1na2vs0mg"},{"bike_id":"74f2c483-f014-4ffb-ab20-67f2b5c0f41f","system_id":"levelo_inurba_marseille","lat":43.29799,"lon":5.40392,"is_reserved":false,"is_disabled":false,"rental_uris":{"android":"levelo://app?vid=74f2c483-f014-4ffb-ab20-67f2b5c0f41f","ios":"levelo://app?vid=74f2c483-f014-4ffb-ab20-67f2b5c0f41f"},"vehicle_type_id":"4","last_reported":1731193700,"current_range_meters":28800,"station_id":"ce4bh112rcd13ifvqd90","pricing_plan_id":"cebpf4jnsgd1na2vs0mg"},{"bike_id":"e6dc57cf-44da-4102-9d69-7c7b35161e11","system_id":"levelo_inurba_marseille","lat":43.241731,"lon":5.363878,"is_reserved":false,"is_disabled":false,"rental_uris":{"android":"levelo://app?vid=e6dc57cf-44da-4102-9d69-7c7b35161e11","ios":"levelo://app?vid=e6dc57cf-44da-4102-9d69-7c7b35161e11"},"vehicle_type_id":"4","last_reported":1731193700,"current_range_meters":38800,"station_id":"cpo36qri1sfpv3e86is0","pricing_plan_id":"cebpf4jnsgd1na2vs0mg"},{"bike_id":"ef288286-229d-4b9a-a189-8d61840dcffb","system_id":"levelo_inurba_marseille","lat":43.23198,"lon":5.355518,"is_reserved":false,"is_disabled":false,"rental_uris":{"android":"levelo://app?vid=ef288286-229d-4b9a-a189-8d61840dcffb","ios":"levelo://app?vid=ef288286-229d-4b9a-a189-8d61840dcffb"},"vehicle_type_id":"4","last_reported":1731193700,"current_range_meters":31200,"station_id":"ce4bhu92rcd13ifvqi70","pricing_plan_id":"cebpf4jnsgd1na2vs0mg"},{"bike_id":"03ef40f7-7db4-402d-9c38-c1778c492384","system_id":"levelo_inurba_marseille","lat":43.28678,"lon":5.38672,"is_reserved":false,"is_disabled":false,"rental_uris":{"android":"levelo://app?vid=03ef40f7-7db4-402d-9c38-c1778c492384","ios":"levelo://app?vid=03ef40f7-7db4-402d-9c38-c1778c492384"},"vehicle_type_id":"4","last_reported":1731193700,"current_range_meters":30800,"station_id":"ce4bh492rcd13ifvqdug","pricing_plan_id":"cebpf4jnsgd1na2vs0mg"},{"bike_id":"7f0b151f-707d-4e17-92a8-e86a0b1a1933","system_id":"levelo_inurba_marseille","lat":43.29025,"lon":5.38652,"is_reserved":false,"is_disabled":false,"rental_uris":{"android":"levelo://app?vid=7f0b151f-707d-4e17-92a8-e86a0b1a1933","ios":"levelo://app?vid=7f0b151f-707d-4e17-92a8-e86a0b1a1933"},"vehicle_type_id":"4","last_reported":1731193700,"current_range_meters":35600,"station_id":"ce4bh4p2rcd13ifvqe0g","pricing_plan_id":"cebpf4jnsgd1na2vs0mg"},{"bike_id":"47cf9501-42b8-4fa6-be0d-8f63e446636c","system_id":"levelo_inurba_marseille","lat":43.31721,"lon":5.42397,"is_reserved":false,"is_disabled":false,"rental_uris":{"android":"levelo://app?vid=47cf9501-42b8-4fa6-be0d-8f63e446636c","ios":"levelo://app?vid=47cf9501-42b8-4fa6-be0d-8f63e446636c"},"vehicle_type_id":"4","last_reported":1731193700,"current_range_meters":28000,"station_id":"ce4bhp92rcd13ifvqhbg","pricing_plan_id":"cebpf4jnsgd1na2vs0mg"},{"bike_id":"ccb02611-45d8-4fa0-aa68-3857c94c3f76","system_id":"levelo_inurba_marseille","lat":43.284088,"lon":5.349757,"is_reserved":false,"is_disabled":false,"rental_uris":{"android":"levelo://app?vid=ccb02611-45d8-4fa0-aa68-3857c94c3f76","ios":"levelo://app?vid=ccb02611-45d8-4fa0-aa68-3857c94c3f76"},"vehicle_type_id":"4","last_reported":1731193700,"current_range_meters":34800,"station_id":"cjm6bp8fraef2m0cb0m0","pricing_plan_id":"cebpf4jnsgd1na2vs0mg"},{"bike_id":"50dbf5a8-127a-4b83-8559-ce30ebb77bae","system_id":"levelo_inurba_marseille","lat":43.25089,"lon":5.39528,"is_reserved":false,"is_disabled":false,"rental_uris":{"android":"levelo://app?vid=50dbf5a8-127a-4b83-8559-ce30ebb77bae","ios":"levelo://app?vid=50dbf5a8-127a-4b83-8559-ce30ebb77bae"},"vehicle_type_id":"4","last_reported":1731193700,"current_range_meters":38800,"station_id":"ce4bhm12rcd13ifvqgkg","pricing_plan_id":"cebpf4jnsgd1na2vs0mg"},{"bike_id":"81d75b94-235f-4d66-95b8-a1c86584fb9a","system_id":"levelo_inurba_marseille","lat":43.29911,"lon":5.38067,"is_reserved":false,"is_disabled":false,"rental_uris":{"android":"levelo://app?vid=81d75b94-235f-4d66-95b8-a1c86584fb9a","ios":"levelo://app?vid=81d75b94-235f-4d66-95b8-a1c86584fb9a"},"vehicle_type_id":"4","last_reported":1731193700,"current_range_meters":7200,"station_id":"","pricing_plan_id":"cebpf4jnsgd1na2vs0mg"},{"bike_id":"5e838960-a672-4678-8e71-572179d5d04b","system_id":"levelo_inurba_marseille","lat":43.29528,"lon":5.39041,"is_reserved":false,"is_disabled":false,"rental_uris":{"android":"levelo://app?vid=5e838960-a672-4678-8e71-572179d5d04b","ios":"levelo://app?vid=5e838960-a672-4678-8e71-572179d5d04b"},"vehicle_type_id":"4","last_reported":1731193700,"current_range_meters":38000,"station_id":"ce4bh3p2rcd13ifvqdp0","pricing_plan_id":"cebpf4jnsgd1na2vs0mg"},{"bike_id":"85afecca-9872-42b1-b0f9-356f06f0af11","system_id":"levelo_inurba_marseille","lat":43.2454,"lon":5.43747,"is_reserved":false,"is_disabled":false,"rental_uris":{"android":"levelo://app?vid=85afecca-9872-42b1-b0f9-356f06f0af11","ios":"levelo://app?vid=85afecca-9872-42b1-b0f9-356f06f0af11"},"vehicle_type_id":"4","last_reported":1731193700,"current_range_meters":16800,"station_id":"","pricing_plan_id":"cebpf4jnsgd1na2vs0mg"},{"bike_id":"4279a6e4-9f33-4724-822e-dfd129b72bdb","system_id":"levelo_inurba_marseille","lat":43.3089,"lon":5.37202,"is_reserved":false,"is_disabled":false,"rental_uris":{"android":"levelo://app?vid=4279a6e4-9f33-4724-822e-dfd129b72bdb","ios":"levelo://app?vid=4279a6e4-9f33-4724-822e-dfd129b72bdb"},"vehicle_type_id":"4","last_reported":1731193700,"current_range_meters":29600,"station_id":"ce4bguh2rcd13ifvqckg","pricing_plan_id":"cebpf4jnsgd1na2vs0mg"},{"bike_id":"f0730e13-11c4-4020-956a-ca204d2dd6c0","system_id":"levelo_inurba_marseille","lat":43.29557,"lon":5.42296,"is_reserved":false,"is_disabled":false,"rental_uris":{"android":"levelo://app?vid=f0730e13-11c4-4020-956a-ca204d2dd6c0","ios":"levelo://app?vid=f0730e13-11c4-4020-956a-ca204d2dd6c0"},"vehicle_type_id":"4","last_reported":1731193700,"current_range_meters":18000,"station_id":"ce4bhph2rcd13ifvqhdg","pricing_plan_id":"cebpf4jnsgd1na2vs0mg"},{"bike_id":"da169ceb-ae56-419a-8329-1caa20980f29","system_id":"levelo_inurba_marseille","lat":43.25824,"lon":5.39438,"is_reserved":false,"is_disabled":false,"rental_uris":{"android":"levelo://app?vid=da169ceb-ae56-419a-8329-1caa20980f29","ios":"levelo://app?vid=da169ceb-ae56-419a-8329-1caa20980f29"},"vehicle_type_id":"4","last_reported":1731193700,"current_range_meters":31200,"station_id":"ce4bhip2rcd13ifvqft0","pricing_plan_id":"cebpf4jnsgd1na2vs0mg"},{"bike_id":"7dd58fa2-256b-4976-9ccd-79d00d13c0e3","system_id":"levelo_inurba_marseille","lat":43.28079,"lon":5.3966,"is_reserved":false,"is_disabled":false,"rental_uris":{"android":"levelo://app?vid=7dd58fa2-256b-4976-9ccd-79d00d13c0e3","ios":"levelo://app?vid=7dd58fa2-256b-4976-9ccd-79d00d13c0e3"},"vehicle_type_id":"4","last_reported":1731193700,"current_range_meters":38800,"station_id":"ce4bho12rcd13ifvqh2g","pricing_plan_id":"cebpf4jnsgd1na2vs0mg"},{"bike_id":"b66b1d6b-71a0-477f-a8e4-5c83ce8687f4","system_id":"levelo_inurba_marseille","lat":43.29534,"lon":5.38542,"is_reserved":false,"is_disabled":false,"rental_uris":{"android":"levelo://app?vid=b66b1d6b-71a0-477f-a8e4-5c83ce8687f4","ios":"levelo://app?vid=b66b1d6b-71a0-477f-a8e4-5c83ce8687f4"},"vehicle_type_id":"4","last_reported":1731193700,"current_range_meters":29600,"station_id":"ce4bgih2rcd13ifvqba0","pricing_plan_id":"cebpf4jnsgd1na2vs0mg"},{"bike_id":"acfc4c88-f0d5-497e-86c1-c566b23c1747","system_id":"levelo_inurba_marseille","lat":43.24808,"lon":5.37457,"is_reserved":false,"is_disabled":false,"rental_uris":{"android":"levelo://app?vid=acfc4c88-f0d5-497e-86c1-c566b23c1747","ios":"levelo://app?vid=acfc4c88-f0d5-497e-86c1-c566b23c1747"},"vehicle_type_id":"4","last_reported":1731193700,"current_range_meters":6000,"station_id":"ce4bhgh2rcd13ifvqfb0","pricing_plan_id":"cebpf4jnsgd1na2vs0mg"},{"bike_id":"d8b069df-29e1-4273-99b0-c9104446d9c3","system_id":"levelo_inurba_marseille","lat":43.23191,"lon":5.3556,"is_reserved":false,"is_disabled":false,"rental_uris":{"android":"levelo://app?vid=d8b069df-29e1-4273-99b0-c9104446d9c3","ios":"levelo://app?vid=d8b069df-29e1-4273-99b0-c9104446d9c3"},"vehicle_type_id":"4","last_reported":1731193700,"current_range_meters":8000,"station_id":"ce4bhu92rcd13ifvqi70","pricing_plan_id":"cebpf4jnsgd1na2vs0mg"},{"bike_id":"7bb5871f-cc9d-417c-af00-3f2a72d466bc","system_id":"levelo_inurba_marseille","lat":43.30804,"lon":5.38158,"is_reserved":false,"is_disabled":false,"rental_uris":{"android":"levelo://app?vid=7bb5871f-cc9d-417c-af00-3f2a72d466bc","ios":"levelo://app?vid=7bb5871f-cc9d-417c-af00-3f2a72d466bc"},"vehicle_type_id":"4","last_reported":1731193700,"current_range_meters":38800,"station_id":"ce4bgt12rcd13ifvqce0","pricing_plan_id":"cebpf4jnsgd1na2vs0mg"},{"bike_id":"aed49dd4-304d-4222-a024-c67cec1bcce7","system_id":"levelo_inurba_marseille","lat":43.25727,"lon":5.41108,"is_reserved":false,"is_disabled":false,"rental_uris":{"android":"levelo://app?vid=aed49dd4-304d-4222-a024-c67cec1bcce7","ios":"levelo://app?vid=aed49dd4-304d-4222-a024-c67cec1bcce7"},"vehicle_type_id":"4","last_reported":1731193700,"current_range_meters":38800,"station_id":"ce4bhkp2rcd13ifvqgd0","pricing_plan_id":"cebpf4jnsgd1na2vs0mg"},{"bike_id":"4b7a8334-ed96-4275-a012-3781d1b5ccc3","system_id":"levelo_inurba_marseille","lat":43.3095,"lon":5.39036,"is_reserved":false,"is_disabled":false,"rental_uris":{"android":"levelo://app?vid=4b7a8334-ed96-4275-a012-3781d1b5ccc3","ios":"levelo://app?vid=4b7a8334-ed96-4275-a012-3781d1b5ccc3"},"vehicle_type_id":"4","last_reported":1731193700,"current_range_meters":24000,"station_id":"ce4bgup2rcd13ifvqco0","pricing_plan_id":"cebpf4jnsgd1na2vs0mg"},{"bike_id":"0990e218-05d5-4324-954b-c240d963bb60","system_id":"levelo_inurba_marseille","lat":43.30641,"lon":5.40101,"is_reserved":false,"is_disabled":false,"rental_uris":{"android":"levelo://app?vid=0990e218-05d5-4324-954b-c240d963bb60","ios":"levelo://app?vid=0990e218-05d5-4324-954b-c240d963bb60"},"vehicle_type_id":"4","last_reported":1731193700,"current_range_meters":30800,"station_id":"ce4bh112rcd13ifvqda0","pricing_plan_id":"cebpf4jnsgd1na2vs0mg"},{"bike_id":"fbbe362b-7b29-4c8f-b506-484f07761f02","system_id":"levelo_inurba_marseille","lat":43.29915,"lon":5.37461,"is_reserved":false,"is_disabled":false,"rental_uris":{"android":"levelo://app?vid=fbbe362b-7b29-4c8f-b506-484f07761f02","ios":"levelo://app?vid=fbbe362b-7b29-4c8f-b506-484f07761f02"},"vehicle_type_id":"4","last_reported":1731193700,"current_range_meters":36400,"station_id":"ce4bgjh2rcd13ifvqbg0","pricing_plan_id":"cebpf4jnsgd1na2vs0mg"},{"bike_id":"018a5969-48d6-493e-abbb-cd5d32841d3f","system_id":"levelo_inurba_marseille","lat":43.28273,"lon":5.35076,"is_reserved":false,"is_disabled":false,"rental_uris":{"android":"levelo://app?vid=018a5969-48d6-493e-abbb-cd5d32841d3f","ios":"levelo://app?vid=018a5969-48d6-493e-abbb-cd5d32841d3f"},"vehicle_type_id":"4","last_reported":1731193700,"current_range_meters":38800,"station_id":"ce4bhbp2rcd13ifvqerg","pricing_plan_id":"cebpf4jnsgd1na2vs0mg"},{"bike_id":"dcd709ed-79d9-41fc-9445-9918e3f66a59","system_id":"levelo_inurba_marseille","lat":43.30599,"lon":5.37225,"is_reserved":false,"is_disabled":false,"rental_uris":{"android":"levelo://app?vid=dcd709ed-79d9-41fc-9445-9918e3f66a59","ios":"levelo://app?vid=dcd709ed-79d9-41fc-9445-9918e3f66a59"},"vehicle_type_id":"4","last_reported":1731193700,"current_range_meters":38800,"station_id":"ce4bgqh2rcd13ifvqc4g","pricing_plan_id":"cebpf4jnsgd1na2vs0mg"},{"bike_id":"f9aeacdd-bf01-432f-bf4e-03e65cef4bbd","system_id":"levelo_inurba_marseille","lat":43.29553,"lon":5.42296,"is_reserved":false,"is_disabled":false,"rental_uris":{"android":"levelo://app?vid=f9aeacdd-bf01-432f-bf4e-03e65cef4bbd","ios":"levelo://app?vid=f9aeacdd-bf01-432f-bf4e-03e65cef4bbd"},"vehicle_type_id":"4","last_reported":1731193700,"current_range_meters":38800,"station_id":"ce4bhph2rcd13ifvqhdg","pricing_plan_id":"cebpf4jnsgd1na2vs0mg"},{"bike_id":"6fa90ed0-4acb-4c40-b44f-198da1da3b57","system_id":"levelo_inurba_marseille","lat":43.23187,"lon":5.39986,"is_reserved":false,"is_disabled":false,"rental_uris":{"android":"levelo://app?vid=6fa90ed0-4acb-4c40-b44f-198da1da3b57","ios":"levelo://app?vid=6fa90ed0-4acb-4c40-b44f-198da1da3b57"},"vehicle_type_id":"4","last_reported":1731193700,"current_range_meters":17200,"station_id":"ce4bhn12rcd13ifvqgqg","pricing_plan_id":"cebpf4jnsgd1na2vs0mg"},{"bike_id":"c57a525c-f071-4533-b30f-a7e0981a7452","system_id":"levelo_inurba_marseille","lat":43.31364,"lon":5.38493,"is_reserved":false,"is_disabled":false,"rental_uris":{"android":"levelo://app?vid=c57a525c-f071-4533-b30f-a7e0981a7452","ios":"levelo://app?vid=c57a525c-f071-4533-b30f-a7e0981a7452"},"vehicle_type_id":"4","last_reported":1731193700,"current_range_meters":37600,"station_id":"ce4bgt92rcd13ifvqcf0","pricing_plan_id":"cebpf4jnsgd1na2vs0mg"},{"bike_id":"993e66e8-c808-4f00-967c-e6fec9c42d1b","system_id":"levelo_inurba_marseille","lat":43.29769,"lon":5.39328,"is_reserved":false,"is_disabled":false,"rental_uris":{"android":"levelo://app?vid=993e66e8-c808-4f00-967c-e6fec9c42d1b","ios":"levelo://app?vid=993e66e8-c808-4f00-967c-e6fec9c42d1b"},"vehicle_type_id":"4","last_reported":1731193700,"current_range_meters":30400,"station_id":"chh1huq6cuj3fo74tm60","pricing_plan_id":"cebpf4jnsgd1na2vs0mg"},{"bike_id":"cfce580b-5f0b-4f3e-850b-bda83bbf1dbc","system_id":"levelo_inurba_marseille","lat":43.27949,"lon":5.4105,"is_reserved":false,"is_disabled":false,"rental_uris":{"android":"levelo://app?vid=cfce580b-5f0b-4f3e-850b-bda83bbf1dbc","ios":"levelo://app?vid=cfce580b-5f0b-4f3e-850b-bda83bbf1dbc"},"vehicle_type_id":"4","last_reported":1731193700,"current_range_meters":6400,"station_id":"ce4bhnp2rcd13ifvqh0g","pricing_plan_id":"cebpf4jnsgd1na2vs0mg"},{"bike_id":"a0d628bc-c539-49fd-980d-f76882cd55b9","system_id":"levelo_inurba_marseille","lat":43.30911,"lon":5.36845,"is_reserved":false,"is_disabled":false,"rental_uris":{"android":"levelo://app?vid=a0d628bc-c539-49fd-980d-f76882cd55b9","ios":"levelo://app?vid=a0d628bc-c539-49fd-980d-f76882cd55b9"},"vehicle_type_id":"4","last_reported":1731193700,"current_range_meters":38000,"station_id":"ce4bgn92rcd13ifvqbvg","pricing_plan_id":"cebpf4jnsgd1na2vs0mg"},{"bike_id":"ef86cab5-f16b-4a24-b6d4-e587627d88fb","system_id":"levelo_inurba_marseille","lat":43.2972,"lon":5.36607,"is_reserved":false,"is_disabled":false,"rental_uris":{"android":"levelo://app?vid=ef86cab5-f16b-4a24-b6d4-e587627d88fb","ios":"levelo://app?vid=ef86cab5-f16b-4a24-b6d4-e587627d88fb"},"vehicle_type_id":"4","last_reported":1731193700,"current_range_meters":38800,"station_id":"ce4bgn12rcd13ifvqbt0","pricing_plan_id":"cebpf4jnsgd1na2vs0mg"},{"bike_id":"0e0927fd-6870-4f0d-95d2-a322362844a9","system_id":"levelo_inurba_marseille","lat":43.23146,"lon":5.43719,"is_reserved":false,"is_disabled":false,"rental_uris":{"android":"levelo://app?vid=0e0927fd-6870-4f0d-95d2-a322362844a9","ios":"levelo://app?vid=0e0927fd-6870-4f0d-95d2-a322362844a9"},"vehicle_type_id":"4","last_reported":1731193700,"current_range_meters":38400,"station_id":"ce4bhmp2rcd13ifvqgog","pricing_plan_id":"cebpf4jnsgd1na2vs0mg"},{"bike_id":"30a878ff-eb9d-436f-bfff-7d2ca1ce4c25","system_id":"levelo_inurba_marseille","lat":43.30913,"lon":5.36855,"is_reserved":false,"is_disabled":false,"rental_uris":{"android":"levelo://app?vid=30a878ff-eb9d-436f-bfff-7d2ca1ce4c25","ios":"levelo://app?vid=30a878ff-eb9d-436f-bfff-7d2ca1ce4c25"},"vehicle_type_id":"4","last_reported":1731193700,"current_range_meters":38800,"station_id":"ce4bgn92rcd13ifvqbvg","pricing_plan_id":"cebpf4jnsgd1na2vs0mg"},{"bike_id":"ae6ee6df-5779-49bd-a122-e5a8ebd03b7d","system_id":"levelo_inurba_marseille","lat":43.29306,"lon":5.37159,"is_reserved":false,"is_disabled":false,"rental_uris":{"android":"levelo://app?vid=ae6ee6df-5779-49bd-a122-e5a8ebd03b7d","ios":"levelo://app?vid=ae6ee6df-5779-49bd-a122-e5a8ebd03b7d"},"vehicle_type_id":"4","last_reported":1731193700,"current_range_meters":38800,"station_id":"ce4bgh92rcd13ifvqb40","pricing_plan_id":"cebpf4jnsgd1na2vs0mg"},{"bike_id":"93586a53-6b2f-473f-973d-b214bef1f466","system_id":"levelo_inurba_marseille","lat":43.24392,"lon":5.37058,"is_reserved":false,"is_disabled":false,"rental_uris":{"android":"levelo://app?vid=93586a53-6b2f-473f-973d-b214bef1f466","ios":"levelo://app?vid=93586a53-6b2f-473f-973d-b214bef1f466"},"vehicle_type_id":"4","last_reported":1731193700,"current_range_meters":11200,"station_id":"ce4bhhh2rcd13ifvqfk0","pricing_plan_id":"cebpf4jnsgd1na2vs0mg"},{"bike_id":"4ee176aa-62ce-43ff-965b-8f612d211053","system_id":"levelo_inurba_marseille","lat":43.30325,"lon":5.40435,"is_reserved":false,"is_disabled":false,"rental_uris":{"android":"levelo://app?vid=4ee176aa-62ce-43ff-965b-8f612d211053","ios":"levelo://app?vid=4ee176aa-62ce-43ff-965b-8f612d211053"},"vehicle_type_id":"4","last_reported":1731193700,"current_range_meters":26800,"station_id":"ce4bh012rcd13ifvqd10","pricing_plan_id":"cebpf4jnsgd1na2vs0mg"},{"bike_id":"714387ef-6da5-49bb-a035-afc4fefaccc4","system_id":"levelo_inurba_marseille","lat":43.322174,"lon":5.41285,"is_reserved":false,"is_disabled":false,"rental_uris":{"android":"levelo://app?vid=714387ef-6da5-49bb-a035-afc4fefaccc4","ios":"levelo://app?vid=714387ef-6da5-49bb-a035-afc4fefaccc4"},"vehicle_type_id":"4","last_reported":1731193700,"current_range_meters":24800,"station_id":"ce4bhq92rcd13ifvqhkg","pricing_plan_id":"cebpf4jnsgd1na2vs0mg"},{"bike_id":"cd1de95f-3202-4489-9b25-a1bcc257b07c","system_id":"levelo_inurba_marseille","lat":43.29256,"lon":5.40909,"is_reserved":false,"is_disabled":false,"rental_uris":{"android":"levelo://app?vid=cd1de95f-3202-4489-9b25-a1bcc257b07c","ios":"levelo://app?vid=cd1de95f-3202-4489-9b25-a1bcc257b07c"},"vehicle_type_id":"4","last_reported":1731193700,"current_range_meters":37600,"station_id":"ce4bh192rcd13ifvqdc0","pricing_plan_id":"cebpf4jnsgd1na2vs0mg"},{"bike_id":"13b4a197-6831-4b68-9981-da5dcf4350fa","system_id":"levelo_inurba_marseille","lat":43.287,"lon":5.39989,"is_reserved":false,"is_disabled":false,"rental_uris":{"android":"levelo://app?vid=13b4a197-6831-4b68-9981-da5dcf4350fa","ios":"levelo://app?vid=13b4a197-6831-4b68-9981-da5dcf4350fa"},"vehicle_type_id":"4","last_reported":1731193700,"current_range_meters":3600,"station_id":"ce4bho92rcd13ifvqh3g","pricing_plan_id":"cebpf4jnsgd1na2vs0mg"},{"bike_id":"297f033e-87da-4632-8152-550bc3bd6546","system_id":"levelo_inurba_marseille","lat":43.24804,"lon":5.3745,"is_reserved":false,"is_disabled":false,"rental_uris":{"android":"levelo://app?vid=297f033e-87da-4632-8152-550bc3bd6546","ios":"levelo://app?vid=297f033e-87da-4632-8152-550bc3bd6546"},"vehicle_type_id":"4","last_reported":1731193700,"current_range_meters":39200,"station_id":"ce4bhgh2rcd13ifvqfb0","pricing_plan_id":"cebpf4jnsgd1na2vs0mg"},{"bike_id":"181119f1-e49b-47fa-b0ae-ebb5b6ad4b2a","system_id":"levelo_inurba_marseille","lat":43.29345,"lon":5.37377,"is_reserved":false,"is_disabled":false,"rental_uris":{"android":"levelo://app?vid=181119f1-e49b-47fa-b0ae-ebb5b6ad4b2a","ios":"levelo://app?vid=181119f1-e49b-47fa-b0ae-ebb5b6ad4b2a"},"vehicle_type_id":"4","last_reported":1731193700,"current_range_meters":36400,"station_id":"","pricing_plan_id":"cebpf4jnsgd1na2vs0mg"},{"bike_id":"7e714f10-032a-4c83-8fa5-f1210325f98c","system_id":"levelo_inurba_marseille","lat":43.25824,"lon":5.39442,"is_reserved":false,"is_disabled":false,"rental_uris":{"android":"levelo://app?vid=7e714f10-032a-4c83-8fa5-f1210325f98c","ios":"levelo://app?vid=7e714f10-032a-4c83-8fa5-f1210325f98c"},"vehicle_type_id":"4","last_reported":1731193700,"current_range_meters":4400,"station_id":"ce4bhip2rcd13ifvqft0","pricing_plan_id":"cebpf4jnsgd1na2vs0mg"},{"bike_id":"26b19a86-03b6-439d-a286-d17362989328","system_id":"levelo_inurba_marseille","lat":43.28,"lon":5.40014,"is_reserved":false,"is_disabled":false,"rental_uris":{"android":"levelo://app?vid=26b19a86-03b6-439d-a286-d17362989328","ios":"levelo://app?vid=26b19a86-03b6-439d-a286-d17362989328"},"vehicle_type_id":"4","last_reported":1731193700,"current_range_meters":16800,"station_id":"ce4bho92rcd13ifvqh4g","pricing_plan_id":"cebpf4jnsgd1na2vs0mg"},{"bike_id":"1c1b9064-bbd8-41cc-8218-e0ed3880971a","system_id":"levelo_inurba_marseille","lat":43.29903,"lon":5.38134,"is_reserved":false,"is_disabled":false,"rental_uris":{"android":"levelo://app?vid=1c1b9064-bbd8-41cc-8218-e0ed3880971a","ios":"levelo://app?vid=1c1b9064-bbd8-41cc-8218-e0ed3880971a"},"vehicle_type_id":"4","last_reported":1731193700,"current_range_meters":36800,"station_id":"ce4bgj12rcd13ifvqbc0","pricing_plan_id":"cebpf4jnsgd1na2vs0mg"},{"bike_id":"6aae269e-8155-4150-9733-cd5c5482b6df","system_id":"levelo_inurba_marseille","lat":43.28469,"lon":5.35888,"is_reserved":false,"is_disabled":false,"rental_uris":{"android":"levelo://app?vid=6aae269e-8155-4150-9733-cd5c5482b6df","ios":"levelo://app?vid=6aae269e-8155-4150-9733-cd5c5482b6df"},"vehicle_type_id":"4","last_reported":1731193700,"current_range_meters":25200,"station_id":"ce4bhah2rcd13ifvqei0","pricing_plan_id":"cebpf4jnsgd1na2vs0mg"},{"bike_id":"7b18ce53-b5c9-46e0-9631-12226180a17d","system_id":"levelo_inurba_marseille","lat":43.2937,"lon":5.37838,"is_reserved":false,"is_disabled":false,"rental_uris":{"android":"levelo://app?vid=7b18ce53-b5c9-46e0-9631-12226180a17d","ios":"levelo://app?vid=7b18ce53-b5c9-46e0-9631-12226180a17d"},"vehicle_type_id":"4","last_reported":1731193700,"current_range_meters":38800,"station_id":"ce4bgjh2rcd13ifvqbf0","pricing_plan_id":"cebpf4jnsgd1na2vs0mg"},{"bike_id":"2a68a47a-1f1e-4f03-9455-8d96cfc18b07","system_id":"levelo_inurba_marseille","lat":43.30889,"lon":5.37205,"is_reserved":false,"is_disabled":false,"rental_uris":{"android":"levelo://app?vid=2a68a47a-1f1e-4f03-9455-8d96cfc18b07","ios":"levelo://app?vid=2a68a47a-1f1e-4f03-9455-8d96cfc18b07"},"vehicle_type_id":"4","last_reported":1731193700,"current_range_meters":37600,"station_id":"ce4bguh2rcd13ifvqckg","pricing_plan_id":"cebpf4jnsgd1na2vs0mg"},{"bike_id":"2b73c203-9b50-4ad0-b65f-19c75470baf0","system_id":"levelo_inurba_marseille","lat":43.30214,"lon":5.39472,"is_reserved":false,"is_disabled":false,"rental_uris":{"android":"levelo://app?vid=2b73c203-9b50-4ad0-b65f-19c75470baf0","ios":"levelo://app?vid=2b73c203-9b50-4ad0-b65f-19c75470baf0"},"vehicle_type_id":"4","last_reported":1731193700,"current_range_meters":37600,"station_id":"ce4bh0p2rcd13ifvqd70","pricing_plan_id":"cebpf4jnsgd1na2vs0mg"},{"bike_id":"96aef8c1-f007-442e-b872-036e6f6c58ad","system_id":"levelo_inurba_marseille","lat":43.31759,"lon":5.39021,"is_reserved":false,"is_disabled":false,"rental_uris":{"android":"levelo://app?vid=96aef8c1-f007-442e-b872-036e6f6c58ad","ios":"levelo://app?vid=96aef8c1-f007-442e-b872-036e6f6c58ad"},"vehicle_type_id":"4","last_reported":1731193700,"current_range_meters":38800,"station_id":"ce4bhqp2rcd13ifvqhng","pricing_plan_id":"cebpf4jnsgd1na2vs0mg"},{"bike_id":"48b5ac08-9e0c-42d5-b37f-57e0c8fe2cd4","system_id":"levelo_inurba_marseille","lat":43.29422,"lon":5.3864,"is_reserved":false,"is_disabled":false,"rental_uris":{"android":"levelo://app?vid=48b5ac08-9e0c-42d5-b37f-57e0c8fe2cd4","ios":"levelo://app?vid=48b5ac08-9e0c-42d5-b37f-57e0c8fe2cd4"},"vehicle_type_id":"4","last_reported":1731193700,"current_range_meters":24000,"station_id":"ce4bh2h2rcd13ifvqdh0","pricing_plan_id":"cebpf4jnsgd1na2vs0mg"},{"bike_id":"134ce1ce-579d-4d82-bde6-b146c0c11c11","system_id":"levelo_inurba_marseille","lat":43.29893,"lon":5.43683,"is_reserved":false,"is_disabled":false,"rental_uris":{"android":"levelo://app?vid=134ce1ce-579d-4d82-bde6-b146c0c11c11","ios":"levelo://app?vid=134ce1ce-579d-4d82-bde6-b146c0c11c11"},"vehicle_type_id":"4","last_reported":1731193700,"current_range_meters":6400,"station_id":"ce4bhpp2rcd13ifvqhfg","pricing_plan_id":"cebpf4jnsgd1na2vs0mg"},{"bike_id":"901d0e1b-e30d-4036-b73c-cb7c4fb9a461","system_id":"levelo_inurba_marseille","lat":43.27905,"lon":5.39584,"is_reserved":false,"is_disabled":false,"rental_uris":{"android":"levelo://app?vid=901d0e1b-e30d-4036-b73c-cb7c4fb9a461","ios":"levelo://app?vid=901d0e1b-e30d-4036-b73c-cb7c4fb9a461"},"vehicle_type_id":"4","last_reported":1731193700,"current_range_meters":8400,"station_id":"ce4bhf92rcd13ifvqf40","pricing_plan_id":"cebpf4jnsgd1na2vs0mg"},{"bike_id":"74a41359-ed80-4cd3-85be-bd7b0ea67a0d","system_id":"levelo_inurba_marseille","lat":43.31527,"lon":5.38034,"is_reserved":false,"is_disabled":false,"rental_uris":{"android":"levelo://app?vid=74a41359-ed80-4cd3-85be-bd7b0ea67a0d","ios":"levelo://app?vid=74a41359-ed80-4cd3-85be-bd7b0ea67a0d"},"vehicle_type_id":"4","last_reported":1731193700,"current_range_meters":24800,"station_id":"ce4bhsp2rcd13ifvqi50","pricing_plan_id":"cebpf4jnsgd1na2vs0mg"},{"bike_id":"6d7cbc58-75af-438e-a9ad-8eeb00b9ba8c","system_id":"levelo_inurba_marseille","lat":43.28461,"lon":5.35876,"is_reserved":false,"is_disabled":false,"rental_uris":{"android":"levelo://app?vid=6d7cbc58-75af-438e-a9ad-8eeb00b9ba8c","ios":"levelo://app?vid=6d7cbc58-75af-438e-a9ad-8eeb00b9ba8c"},"vehicle_type_id":"4","last_reported":1731193700,"current_range_meters":38800,"station_id":"ce4bhah2rcd13ifvqei0","pricing_plan_id":"cebpf4jnsgd1na2vs0mg"},{"bike_id":"181fa628-fd06-4339-88f4-5d411c857699","system_id":"levelo_inurba_marseille","lat":43.27073,"lon":5.42281,"is_reserved":false,"is_disabled":false,"rental_uris":{"android":"levelo://app?vid=181fa628-fd06-4339-88f4-5d411c857699","ios":"levelo://app?vid=181fa628-fd06-4339-88f4-5d411c857699"},"vehicle_type_id":"4","last_reported":1731193700,"current_range_meters":11600,"station_id":"ce4bhk92rcd13ifvqgb0","pricing_plan_id":"cebpf4jnsgd1na2vs0mg"},{"bike_id":"d9a5da0a-59f7-40f5-8e63-d8883b3e81f7","system_id":"levelo_inurba_marseille","lat":43.287,"lon":5.37394,"is_reserved":false,"is_disabled":false,"rental_uris":{"android":"levelo://app?vid=d9a5da0a-59f7-40f5-8e63-d8883b3e81f7","ios":"levelo://app?vid=d9a5da0a-59f7-40f5-8e63-d8883b3e81f7"},"vehicle_type_id":"4","last_reported":1731193700,"current_range_meters":35600,"station_id":"ce4bh3p2rcd13ifvqdq0","pricing_plan_id":"cebpf4jnsgd1na2vs0mg"},{"bike_id":"7ad1fcfb-dbad-4f2f-94e3-26a08d9ba442","system_id":"levelo_inurba_marseille","lat":43.27999,"lon":5.41663,"is_reserved":false,"is_disabled":false,"rental_uris":{"android":"levelo://app?vid=7ad1fcfb-dbad-4f2f-94e3-26a08d9ba442","ios":"levelo://app?vid=7ad1fcfb-dbad-4f2f-94e3-26a08d9ba442"},"vehicle_type_id":"4","last_reported":1731193700,"current_range_meters":16000,"station_id":"ce4bho12rcd13ifvqh1g","pricing_plan_id":"cebpf4jnsgd1na2vs0mg"},{"bike_id":"64f1e304-55fc-4bb7-bb27-4faaf7cf65c1","system_id":"levelo_inurba_marseille","lat":43.2754,"lon":5.40921,"is_reserved":false,"is_disabled":false,"rental_uris":{"android":"levelo://app?vid=64f1e304-55fc-4bb7-bb27-4faaf7cf65c1","ios":"levelo://app?vid=64f1e304-55fc-4bb7-bb27-4faaf7cf65c1"},"vehicle_type_id":"4","last_reported":1731193700,"current_range_meters":8800,"station_id":"","pricing_plan_id":"cebpf4jnsgd1na2vs0mg"},{"bike_id":"ccf9e60a-81f7-41b5-8aae-481249e62f8f","system_id":"levelo_inurba_marseille","lat":43.24808,"lon":5.37459,"is_reserved":false,"is_disabled":false,"rental_uris":{"android":"levelo://app?vid=ccf9e60a-81f7-41b5-8aae-481249e62f8f","ios":"levelo://app?vid=ccf9e60a-81f7-41b5-8aae-481249e62f8f"},"vehicle_type_id":"4","last_reported":1731193700,"current_range_meters":36800,"station_id":"ce4bhgh2rcd13ifvqfb0","pricing_plan_id":"cebpf4jnsgd1na2vs0mg"},{"bike_id":"2e5e7fbb-7125-428f-9d16-75a5584fe9f5","system_id":"levelo_inurba_marseille","lat":43.28616,"lon":5.35104,"is_reserved":false,"is_disabled":false,"rental_uris":{"android":"levelo://app?vid=2e5e7fbb-7125-428f-9d16-75a5584fe9f5","ios":"levelo://app?vid=2e5e7fbb-7125-428f-9d16-75a5584fe9f5"},"vehicle_type_id":"4","last_reported":1731193700,"current_range_meters":30400,"station_id":"ce4bhch2rcd13ifvqeug","pricing_plan_id":"cebpf4jnsgd1na2vs0mg"},{"bike_id":"607664c8-a97e-430d-bd73-4898f4cdc580","system_id":"levelo_inurba_marseille","lat":43.33018,"lon":5.39037,"is_reserved":false,"is_disabled":false,"rental_uris":{"android":"levelo://app?vid=607664c8-a97e-430d-bd73-4898f4cdc580","ios":"levelo://app?vid=607664c8-a97e-430d-bd73-4898f4cdc580"},"vehicle_type_id":"4","last_reported":1731193700,"current_range_meters":8800,"station_id":"ce4bhr92rcd13ifvqhrg","pricing_plan_id":"cebpf4jnsgd1na2vs0mg"},{"bike_id":"27e15419-d9b0-4647-890e-e21a7149b1cd","system_id":"levelo_inurba_marseille","lat":43.27069,"lon":5.42284,"is_reserved":false,"is_disabled":false,"rental_uris":{"android":"levelo://app?vid=27e15419-d9b0-4647-890e-e21a7149b1cd","ios":"levelo://app?vid=27e15419-d9b0-4647-890e-e21a7149b1cd"},"vehicle_type_id":"4","last_reported":1731193700,"current_range_meters":10800,"station_id":"ce4bhk92rcd13ifvqgb0","pricing_plan_id":"cebpf4jnsgd1na2vs0mg"},{"bike_id":"55f47cbb-4cd2-4214-9965-9e0698b16e2e","system_id":"levelo_inurba_marseille","lat":43.32392,"lon":5.37004,"is_reserved":false,"is_disabled":false,"rental_uris":{"android":"levelo://app?vid=55f47cbb-4cd2-4214-9965-9e0698b16e2e","ios":"levelo://app?vid=55f47cbb-4cd2-4214-9965-9e0698b16e2e"},"vehicle_type_id":"4","last_reported":1731193700,"current_range_meters":38800,"station_id":"","pricing_plan_id":"cebpf4jnsgd1na2vs0mg"},{"bike_id":"f07a4190-4168-4596-b25d-0c0257dbb886","system_id":"levelo_inurba_marseille","lat":43.2919,"lon":5.39314,"is_reserved":false,"is_disabled":false,"rental_uris":{"android":"levelo://app?vid=f07a4190-4168-4596-b25d-0c0257dbb886","ios":"levelo://app?vid=f07a4190-4168-4596-b25d-0c0257dbb886"},"vehicle_type_id":"4","last_reported":1731193700,"current_range_meters":35200,"station_id":"ce4bh192rcd13ifvqdd0","pricing_plan_id":"cebpf4jnsgd1na2vs0mg"},{"bike_id":"57a7a0a1-a7fc-4092-97e3-3368dc18470d","system_id":"levelo_inurba_marseille","lat":43.30537,"lon":5.36717,"is_reserved":false,"is_disabled":false,"rental_uris":{"android":"levelo://app?vid=57a7a0a1-a7fc-4092-97e3-3368dc18470d","ios":"levelo://app?vid=57a7a0a1-a7fc-4092-97e3-3368dc18470d"},"vehicle_type_id":"4","last_reported":1731193700,"current_range_meters":37600,"station_id":"ce4bgrp2rcd13ifvqc9g","pricing_plan_id":"cebpf4jnsgd1na2vs0mg"},{"bike_id":"9005c685-cfb4-498c-8547-dcd7b0076889","system_id":"levelo_inurba_marseille","lat":43.29417,"lon":5.38618,"is_reserved":false,"is_disabled":false,"rental_uris":{"android":"levelo://app?vid=9005c685-cfb4-498c-8547-dcd7b0076889","ios":"levelo://app?vid=9005c685-cfb4-498c-8547-dcd7b0076889"},"vehicle_type_id":"4","last_reported":1731193700,"current_range_meters":36800,"station_id":"ce4bh2h2rcd13ifvqdh0","pricing_plan_id":"cebpf4jnsgd1na2vs0mg"},{"bike_id":"0d93b31b-854a-4c31-b287-70df5cbe7d07","system_id":"levelo_inurba_marseille","lat":43.24087,"lon":5.3775,"is_reserved":false,"is_disabled":false,"rental_uris":{"android":"levelo://app?vid=0d93b31b-854a-4c31-b287-70df5cbe7d07","ios":"levelo://app?vid=0d93b31b-854a-4c31-b287-70df5cbe7d07"},"vehicle_type_id":"4","last_reported":1731193700,"current_range_meters":14000,"station_id":"ce4bhnp2rcd13ifvqgvg","pricing_plan_id":"cebpf4jnsgd1na2vs0mg"},{"bike_id":"8d2b72fb-c6f8-44de-b9b8-8b5223930e89","system_id":"levelo_inurba_marseille","lat":43.24606,"lon":5.38969,"is_reserved":false,"is_disabled":false,"rental_uris":{"android":"levelo://app?vid=8d2b72fb-c6f8-44de-b9b8-8b5223930e89","ios":"levelo://app?vid=8d2b72fb-c6f8-44de-b9b8-8b5223930e89"},"vehicle_type_id":"4","last_reported":1731193700,"current_range_meters":27200,"station_id":"","pricing_plan_id":"cebpf4jnsgd1na2vs0mg"},{"bike_id":"25fe25a4-403f-4e6f-b9e1-cc790ad299ec","system_id":"levelo_inurba_marseille","lat":43.24389,"lon":5.37063,"is_reserved":false,"is_disabled":false,"rental_uris":{"android":"levelo://app?vid=25fe25a4-403f-4e6f-b9e1-cc790ad299ec","ios":"levelo://app?vid=25fe25a4-403f-4e6f-b9e1-cc790ad299ec"},"vehicle_type_id":"4","last_reported":1731193700,"current_range_meters":24000,"station_id":"ce4bhhh2rcd13ifvqfk0","pricing_plan_id":"cebpf4jnsgd1na2vs0mg"},{"bike_id":"f3bf7e69-48df-4afb-93a9-ec803cd90f94","system_id":"levelo_inurba_marseille","lat":43.28856,"lon":5.35867,"is_reserved":false,"is_disabled":false,"rental_uris":{"android":"levelo://app?vid=f3bf7e69-48df-4afb-93a9-ec803cd90f94","ios":"levelo://app?vid=f3bf7e69-48df-4afb-93a9-ec803cd90f94"},"vehicle_type_id":"4","last_reported":1731193700,"current_range_meters":30400,"station_id":"ce4bhb12rcd13ifvqem0","pricing_plan_id":"cebpf4jnsgd1na2vs0mg"},{"bike_id":"e2abec00-3ef2-41a5-b9f5-46bbbaa02e60","system_id":"levelo_inurba_marseille","lat":43.25497,"lon":5.37651,"is_reserved":false,"is_disabled":false,"rental_uris":{"android":"levelo://app?vid=e2abec00-3ef2-41a5-b9f5-46bbbaa02e60","ios":"levelo://app?vid=e2abec00-3ef2-41a5-b9f5-46bbbaa02e60"},"vehicle_type_id":"4","last_reported":1731193700,"current_range_meters":4800,"station_id":"ce4bhh12rcd13ifvqff0","pricing_plan_id":"cebpf4jnsgd1na2vs0mg"},{"bike_id":"09fd6b48-5b17-42a1-a15e-dce7aa293b94","system_id":"levelo_inurba_marseille","lat":43.28345,"lon":5.38114,"is_reserved":false,"is_disabled":false,"rental_uris":{"android":"levelo://app?vid=09fd6b48-5b17-42a1-a15e-dce7aa293b94","ios":"levelo://app?vid=09fd6b48-5b17-42a1-a15e-dce7aa293b94"},"vehicle_type_id":"4","last_reported":1731193700,"current_range_meters":28000,"station_id":"ce4bh412rcd13ifvqdr0","pricing_plan_id":"cebpf4jnsgd1na2vs0mg"},{"bike_id":"701166e1-7885-4df2-90af-30728f933df0","system_id":"levelo_inurba_marseille","lat":43.2963,"lon":5.40594,"is_reserved":false,"is_disabled":false,"rental_uris":{"android":"levelo://app?vid=701166e1-7885-4df2-90af-30728f933df0","ios":"levelo://app?vid=701166e1-7885-4df2-90af-30728f933df0"},"vehicle_type_id":"4","last_reported":1731193700,"current_range_meters":24400,"station_id":"ce4bh0h2rcd13ifvqd60","pricing_plan_id":"cebpf4jnsgd1na2vs0mg"},{"bike_id":"8c003b91-8903-492b-a8d4-f7da3364d268","system_id":"levelo_inurba_marseille","lat":43.28561,"lon":5.39502,"is_reserved":false,"is_disabled":false,"rental_uris":{"android":"levelo://app?vid=8c003b91-8903-492b-a8d4-f7da3364d268","ios":"levelo://app?vid=8c003b91-8903-492b-a8d4-f7da3364d268"},"vehicle_type_id":"4","last_reported":1731193700,"current_range_meters":27600,"station_id":"ce4bh292rcd13ifvqdg0","pricing_plan_id":"cebpf4jnsgd1na2vs0mg"},{"bike_id":"28ca929a-76d3-4185-86ab-f3f5e6d28eda","system_id":"levelo_inurba_marseille","lat":43.2926,"lon":5.38451,"is_reserved":false,"is_disabled":false,"rental_uris":{"android":"levelo://app?vid=28ca929a-76d3-4185-86ab-f3f5e6d28eda","ios":"levelo://app?vid=28ca929a-76d3-4185-86ab-f3f5e6d28eda"},"vehicle_type_id":"4","last_reported":1731193700,"current_range_meters":38800,"station_id":"ce4bh692rcd13ifvqea0","pricing_plan_id":"cebpf4jnsgd1na2vs0mg"},{"bike_id":"2528636a-da2b-4d92-947d-4f76e0e8e5ea","system_id":"levelo_inurba_marseille","lat":43.29441,"lon":5.39739,"is_reserved":false,"is_disabled":false,"rental_uris":{"android":"levelo://app?vid=2528636a-da2b-4d92-947d-4f76e0e8e5ea","ios":"levelo://app?vid=2528636a-da2b-4d92-947d-4f76e0e8e5ea"},"vehicle_type_id":"4","last_reported":1731193700,"current_range_meters":38400,"station_id":"ce4bh3h2rcd13ifvqdo0","pricing_plan_id":"cebpf4jnsgd1na2vs0mg"},{"bike_id":"c7057ba6-697b-4814-876e-11ed214bec97","system_id":"levelo_inurba_marseille","lat":43.30305,"lon":5.37697,"is_reserved":false,"is_disabled":false,"rental_uris":{"android":"levelo://app?vid=c7057ba6-697b-4814-876e-11ed214bec97","ios":"levelo://app?vid=c7057ba6-697b-4814-876e-11ed214bec97"},"vehicle_type_id":"4","last_reported":1731193700,"current_range_meters":38800,"station_id":"ce4bguh2rcd13ifvqcj0","pricing_plan_id":"cebpf4jnsgd1na2vs0mg"},{"bike_id":"c6ae65bf-8d5e-4ea9-a3a9-adc79d0ebafe","system_id":"levelo_inurba_marseille","lat":43.24387,"lon":5.37052,"is_reserved":false,"is_disabled":false,"rental_uris":{"android":"levelo://app?vid=c6ae65bf-8d5e-4ea9-a3a9-adc79d0ebafe","ios":"levelo://app?vid=c6ae65bf-8d5e-4ea9-a3a9-adc79d0ebafe"},"vehicle_type_id":"4","last_reported":1731193700,"current_range_meters":25200,"station_id":"ce4bhhh2rcd13ifvqfk0","pricing_plan_id":"cebpf4jnsgd1na2vs0mg"},{"bike_id":"99ee7c5d-6e65-4a9b-a86a-ad54643ebf7a","system_id":"levelo_inurba_marseille","lat":43.3137,"lon":5.3849,"is_reserved":false,"is_disabled":false,"rental_uris":{"android":"levelo://app?vid=99ee7c5d-6e65-4a9b-a86a-ad54643ebf7a","ios":"levelo://app?vid=99ee7c5d-6e65-4a9b-a86a-ad54643ebf7a"},"vehicle_type_id":"4","last_reported":1731193700,"current_range_meters":38800,"station_id":"ce4bgt92rcd13ifvqcf0","pricing_plan_id":"cebpf4jnsgd1na2vs0mg"},{"bike_id":"1b641421-2e55-46f2-aa52-a5bd61345632","system_id":"levelo_inurba_marseille","lat":43.2417,"lon":5.36396,"is_reserved":false,"is_disabled":false,"rental_uris":{"android":"levelo://app?vid=1b641421-2e55-46f2-aa52-a5bd61345632","ios":"levelo://app?vid=1b641421-2e55-46f2-aa52-a5bd61345632"},"vehicle_type_id":"4","last_reported":1731193700,"current_range_meters":14800,"station_id":"cpo36qri1sfpv3e86is0","pricing_plan_id":"cebpf4jnsgd1na2vs0mg"},{"bike_id":"93ded1bb-e971-4d61-9b1f-d9c37f4ab3f5","system_id":"levelo_inurba_marseille","lat":43.29312,"lon":5.37176,"is_reserved":false,"is_disabled":false,"rental_uris":{"android":"levelo://app?vid=93ded1bb-e971-4d61-9b1f-d9c37f4ab3f5","ios":"levelo://app?vid=93ded1bb-e971-4d61-9b1f-d9c37f4ab3f5"},"vehicle_type_id":"4","last_reported":1731193700,"current_range_meters":36800,"station_id":"ce4bgh92rcd13ifvqb40","pricing_plan_id":"cebpf4jnsgd1na2vs0mg"},{"bike_id":"ba4109b1-d99b-4b96-b8be-e7a7d80ac365","system_id":"levelo_inurba_marseille","lat":43.32371,"lon":5.38883,"is_reserved":false,"is_disabled":false,"rental_uris":{"android":"levelo://app?vid=ba4109b1-d99b-4b96-b8be-e7a7d80ac365","ios":"levelo://app?vid=ba4109b1-d99b-4b96-b8be-e7a7d80ac365"},"vehicle_type_id":"4","last_reported":1731193700,"current_range_meters":38800,"station_id":"ce4bhqp2rcd13ifvqhog","pricing_plan_id":"cebpf4jnsgd1na2vs0mg"},{"bike_id":"27b464f9-caaa-4ce7-9079-f637dd48276c","system_id":"levelo_inurba_marseille","lat":43.31373,"lon":5.38504,"is_reserved":false,"is_disabled":false,"rental_uris":{"android":"levelo://app?vid=27b464f9-caaa-4ce7-9079-f637dd48276c","ios":"levelo://app?vid=27b464f9-caaa-4ce7-9079-f637dd48276c"},"vehicle_type_id":"4","last_reported":1731193700,"current_range_meters":29600,"station_id":"ce4bgt92rcd13ifvqcf0","pricing_plan_id":"cebpf4jnsgd1na2vs0mg"},{"bike_id":"e4a539db-2fe7-452d-977d-bb7960e31883","system_id":"levelo_inurba_marseille","lat":43.326569,"lon":5.40991,"is_reserved":false,"is_disabled":false,"rental_uris":{"android":"levelo://app?vid=e4a539db-2fe7-452d-977d-bb7960e31883","ios":"levelo://app?vid=e4a539db-2fe7-452d-977d-bb7960e31883"},"vehicle_type_id":"4","last_reported":1731193700,"current_range_meters":38000,"station_id":"ce4bhq12rcd13ifvqhhg","pricing_plan_id":"cebpf4jnsgd1na2vs0mg"},{"bike_id":"0d0ef880-2434-4d1b-be5b-12320ed92e83","system_id":"levelo_inurba_marseille","lat":43.25729,"lon":5.41109,"is_reserved":false,"is_disabled":false,"rental_uris":{"android":"levelo://app?vid=0d0ef880-2434-4d1b-be5b-12320ed92e83","ios":"levelo://app?vid=0d0ef880-2434-4d1b-be5b-12320ed92e83"},"vehicle_type_id":"4","last_reported":1731193700,"current_range_meters":27600,"station_id":"ce4bhkp2rcd13ifvqgd0","pricing_plan_id":"cebpf4jnsgd1na2vs0mg"},{"bike_id":"07704a86-dbed-425a-854d-11b1a4e3d84c","system_id":"levelo_inurba_marseille","lat":43.33749,"lon":5.37442,"is_reserved":false,"is_disabled":false,"rental_uris":{"android":"levelo://app?vid=07704a86-dbed-425a-854d-11b1a4e3d84c","ios":"levelo://app?vid=07704a86-dbed-425a-854d-11b1a4e3d84c"},"vehicle_type_id":"4","last_reported":1731193700,"current_range_meters":34800,"station_id":"","pricing_plan_id":"cebpf4jnsgd1na2vs0mg"},{"bike_id":"79b39923-b687-4420-a58b-1f85feafef16","system_id":"levelo_inurba_marseille","lat":43.29988,"lon":5.37431,"is_reserved":false,"is_disabled":false,"rental_uris":{"android":"levelo://app?vid=79b39923-b687-4420-a58b-1f85feafef16","ios":"levelo://app?vid=79b39923-b687-4420-a58b-1f85feafef16"},"vehicle_type_id":"4","last_reported":1731193700,"current_range_meters":38800,"station_id":"","pricing_plan_id":"cebpf4jnsgd1na2vs0mg"},{"bike_id":"a5827e51-4331-4ffa-bada-9e81e717a89c","system_id":"levelo_inurba_marseille","lat":43.29524,"lon":5.37501,"is_reserved":false,"is_disabled":false,"rental_uris":{"android":"levelo://app?vid=a5827e51-4331-4ffa-bada-9e81e717a89c","ios":"levelo://app?vid=a5827e51-4331-4ffa-bada-9e81e717a89c"},"vehicle_type_id":"4","last_reported":1731193700,"current_range_meters":37600,"station_id":"ce4bgkp2rcd13ifvqbmg","pricing_plan_id":"cebpf4jnsgd1na2vs0mg"},{"bike_id":"81abc5b8-f7c3-49f1-865e-3d42da567318","system_id":"levelo_inurba_marseille","lat":43.29531,"lon":5.38538,"is_reserved":false,"is_disabled":false,"rental_uris":{"android":"levelo://app?vid=81abc5b8-f7c3-49f1-865e-3d42da567318","ios":"levelo://app?vid=81abc5b8-f7c3-49f1-865e-3d42da567318"},"vehicle_type_id":"4","last_reported":1731193700,"current_range_meters":24400,"station_id":"ce4bgih2rcd13ifvqba0","pricing_plan_id":"cebpf4jnsgd1na2vs0mg"},{"bike_id":"39e0fb1d-6066-4204-83e9-c454b4b8332c","system_id":"levelo_inurba_marseille","lat":43.27835,"lon":5.39204,"is_reserved":false,"is_disabled":false,"rental_uris":{"android":"levelo://app?vid=39e0fb1d-6066-4204-83e9-c454b4b8332c","ios":"levelo://app?vid=39e0fb1d-6066-4204-83e9-c454b4b8332c"},"vehicle_type_id":"4","last_reported":1731193700,"current_range_meters":30400,"station_id":"ce4bhjp2rcd13ifvqga0","pricing_plan_id":"cebpf4jnsgd1na2vs0mg"},{"bike_id":"0b74ce83-e6b1-4485-8ca6-3897f29a426e","system_id":"levelo_inurba_marseille","lat":43.23957,"lon":5.36627,"is_reserved":false,"is_disabled":false,"rental_uris":{"android":"levelo://app?vid=0b74ce83-e6b1-4485-8ca6-3897f29a426e","ios":"levelo://app?vid=0b74ce83-e6b1-4485-8ca6-3897f29a426e"},"vehicle_type_id":"4","last_reported":1731193700,"current_range_meters":12400,"station_id":"ce4bhi12rcd13ifvqfp0","pricing_plan_id":"cebpf4jnsgd1na2vs0mg"},{"bike_id":"926ebe17-7a92-4ddf-8505-3efdfdbca073","system_id":"levelo_inurba_marseille","lat":43.25489,"lon":5.37647,"is_reserved":false,"is_disabled":false,"rental_uris":{"android":"levelo://app?vid=926ebe17-7a92-4ddf-8505-3efdfdbca073","ios":"levelo://app?vid=926ebe17-7a92-4ddf-8505-3efdfdbca073"},"vehicle_type_id":"4","last_reported":1731193700,"current_range_meters":26000,"station_id":"ce4bhh12rcd13ifvqff0","pricing_plan_id":"cebpf4jnsgd1na2vs0mg"},{"bike_id":"2c342691-4553-4cce-b007-e89e690aafbe","system_id":"levelo_inurba_marseille","lat":43.28259,"lon":5.35075,"is_reserved":false,"is_disabled":false,"rental_uris":{"android":"levelo://app?vid=2c342691-4553-4cce-b007-e89e690aafbe","ios":"levelo://app?vid=2c342691-4553-4cce-b007-e89e690aafbe"},"vehicle_type_id":"4","last_reported":1731193700,"current_range_meters":38800,"station_id":"ce4bhbp2rcd13ifvqerg","pricing_plan_id":"cebpf4jnsgd1na2vs0mg"},{"bike_id":"6034dd49-caa9-4209-bd61-bced8dfc7a87","system_id":"levelo_inurba_marseille","lat":43.29898,"lon":5.38143,"is_reserved":false,"is_disabled":false,"rental_uris":{"android":"levelo://app?vid=6034dd49-caa9-4209-bd61-bced8dfc7a87","ios":"levelo://app?vid=6034dd49-caa9-4209-bd61-bced8dfc7a87"},"vehicle_type_id":"4","last_reported":1731193700,"current_range_meters":30000,"station_id":"ce4bgj12rcd13ifvqbc0","pricing_plan_id":"cebpf4jnsgd1na2vs0mg"},{"bike_id":"dd864a7f-f1a7-4305-835f-3d04cff744ea","system_id":"levelo_inurba_marseille","lat":43.30928,"lon":5.40156,"is_reserved":false,"is_disabled":false,"rental_uris":{"android":"levelo://app?vid=dd864a7f-f1a7-4305-835f-3d04cff744ea","ios":"levelo://app?vid=dd864a7f-f1a7-4305-835f-3d04cff744ea"},"vehicle_type_id":"4","last_reported":1731193700,"current_range_meters":16800,"station_id":"ce4bgvp2rcd13ifvqct0","pricing_plan_id":"cebpf4jnsgd1na2vs0mg"},{"bike_id":"c9ad0dd3-1717-45f0-b6fd-d1036bba5dcb","system_id":"levelo_inurba_marseille","lat":43.32538,"lon":5.41427,"is_reserved":false,"is_disabled":false,"rental_uris":{"android":"levelo://app?vid=c9ad0dd3-1717-45f0-b6fd-d1036bba5dcb","ios":"levelo://app?vid=c9ad0dd3-1717-45f0-b6fd-d1036bba5dcb"},"vehicle_type_id":"4","last_reported":1731193700,"current_range_meters":9200,"station_id":"ce4bhq12rcd13ifvqhhg","pricing_plan_id":"cebpf4jnsgd1na2vs0mg"},{"bike_id":"af9cd3eb-6786-4eb5-818d-938dc019f111","system_id":"levelo_inurba_marseille","lat":43.31169,"lon":5.38716,"is_reserved":false,"is_disabled":false,"rental_uris":{"android":"levelo://app?vid=af9cd3eb-6786-4eb5-818d-938dc019f111","ios":"levelo://app?vid=af9cd3eb-6786-4eb5-818d-938dc019f111"},"vehicle_type_id":"4","last_reported":1731193700,"current_range_meters":33600,"station_id":"ce4bgv12rcd13ifvqcp0","pricing_plan_id":"cebpf4jnsgd1na2vs0mg"},{"bike_id":"896a2ba9-5285-4686-975d-79ddd9cd99a3","system_id":"levelo_inurba_marseille","lat":43.25828,"lon":5.39442,"is_reserved":false,"is_disabled":false,"rental_uris":{"android":"levelo://app?vid=896a2ba9-5285-4686-975d-79ddd9cd99a3","ios":"levelo://app?vid=896a2ba9-5285-4686-975d-79ddd9cd99a3"},"vehicle_type_id":"4","last_reported":1731193700,"current_range_meters":36400,"station_id":"ce4bhip2rcd13ifvqft0","pricing_plan_id":"cebpf4jnsgd1na2vs0mg"},{"bike_id":"bc947982-4313-4264-aab0-ba10b887de87","system_id":"levelo_inurba_marseille","lat":43.31325,"lon":5.39693,"is_reserved":false,"is_disabled":false,"rental_uris":{"android":"levelo://app?vid=bc947982-4313-4264-aab0-ba10b887de87","ios":"levelo://app?vid=bc947982-4313-4264-aab0-ba10b887de87"},"vehicle_type_id":"4","last_reported":1731193700,"current_range_meters":20400,"station_id":"ce4bgvp2rcd13ifvqcu0","pricing_plan_id":"cebpf4jnsgd1na2vs0mg"},{"bike_id":"2c42f401-8588-45b2-801d-41b9137e6000","system_id":"levelo_inurba_marseille","lat":43.31713,"lon":5.40473,"is_reserved":false,"is_disabled":false,"rental_uris":{"android":"levelo://app?vid=2c42f401-8588-45b2-801d-41b9137e6000","ios":"levelo://app?vid=2c42f401-8588-45b2-801d-41b9137e6000"},"vehicle_type_id":"4","last_reported":1731193700,"current_range_meters":27600,"station_id":"ce4bh012rcd13ifvqd00","pricing_plan_id":"cebpf4jnsgd1na2vs0mg"},{"bike_id":"baac3be3-010c-4ab7-b814-2af962c842f8","system_id":"levelo_inurba_marseille","lat":43.28358,"lon":5.37518,"is_reserved":false,"is_disabled":false,"rental_uris":{"android":"levelo://app?vid=baac3be3-010c-4ab7-b814-2af962c842f8","ios":"levelo://app?vid=baac3be3-010c-4ab7-b814-2af962c842f8"},"vehicle_type_id":"4","last_reported":1731193700,"current_range_meters":28800,"station_id":"ce4bh412rcd13ifvqds0","pricing_plan_id":"cebpf4jnsgd1na2vs0mg"},{"bike_id":"00760ec1-cc76-43c8-b9c4-f943bf95bb11","system_id":"levelo_inurba_marseille","lat":43.29872,"lon":5.39729,"is_reserved":false,"is_disabled":false,"rental_uris":{"android":"levelo://app?vid=00760ec1-cc76-43c8-b9c4-f943bf95bb11","ios":"levelo://app?vid=00760ec1-cc76-43c8-b9c4-f943bf95bb11"},"vehicle_type_id":"4","last_reported":1731193700,"current_range_meters":22000,"station_id":"ce4bh0h2rcd13ifvqd50","pricing_plan_id":"cebpf4jnsgd1na2vs0mg"},{"bike_id":"04d2e88f-c5a5-441d-a13d-50ee686a0c76","system_id":"levelo_inurba_marseille","lat":43.30946,"lon":5.39011,"is_reserved":false,"is_disabled":false,"rental_uris":{"android":"levelo://app?vid=04d2e88f-c5a5-441d-a13d-50ee686a0c76","ios":"levelo://app?vid=04d2e88f-c5a5-441d-a13d-50ee686a0c76"},"vehicle_type_id":"4","last_reported":1731193700,"current_range_meters":14400,"station_id":"ce4bgup2rcd13ifvqco0","pricing_plan_id":"cebpf4jnsgd1na2vs0mg"},{"bike_id":"ce2879f6-b67d-4289-ac71-73576ea9f6c4","system_id":"levelo_inurba_marseille","lat":43.33029,"lon":5.39039,"is_reserved":false,"is_disabled":false,"rental_uris":{"android":"levelo://app?vid=ce2879f6-b67d-4289-ac71-73576ea9f6c4","ios":"levelo://app?vid=ce2879f6-b67d-4289-ac71-73576ea9f6c4"},"vehicle_type_id":"4","last_reported":1731193700,"current_range_meters":24800,"station_id":"ce4bhr92rcd13ifvqhrg","pricing_plan_id":"cebpf4jnsgd1na2vs0mg"},{"bike_id":"d17d14b6-bd39-4f6f-860c-b6baae4afc33","system_id":"levelo_inurba_marseille","lat":43.26064,"lon":5.39401,"is_reserved":false,"is_disabled":false,"rental_uris":{"android":"levelo://app?vid=d17d14b6-bd39-4f6f-860c-b6baae4afc33","ios":"levelo://app?vid=d17d14b6-bd39-4f6f-860c-b6baae4afc33"},"vehicle_type_id":"4","last_reported":1731193700,"current_range_meters":17600,"station_id":"ce4bhh92rcd13ifvqfj0","pricing_plan_id":"cebpf4jnsgd1na2vs0mg"},{"bike_id":"8ce6f633-0f5a-460c-a3e1-34556e06cfde","system_id":"levelo_inurba_marseille","lat":43.28856,"lon":5.35871,"is_reserved":false,"is_disabled":false,"rental_uris":{"android":"levelo://app?vid=8ce6f633-0f5a-460c-a3e1-34556e06cfde","ios":"levelo://app?vid=8ce6f633-0f5a-460c-a3e1-34556e06cfde"},"vehicle_type_id":"4","last_reported":1731193700,"current_range_meters":30400,"station_id":"ce4bhb12rcd13ifvqem0","pricing_plan_id":"cebpf4jnsgd1na2vs0mg"},{"bike_id":"40f593b1-c6b4-4056-9082-85c23863896b","system_id":"levelo_inurba_marseille","lat":43.25495,"lon":5.37647,"is_reserved":false,"is_disabled":false,"rental_uris":{"android":"levelo://app?vid=40f593b1-c6b4-4056-9082-85c23863896b","ios":"levelo://app?vid=40f593b1-c6b4-4056-9082-85c23863896b"},"vehicle_type_id":"4","last_reported":1731193700,"current_range_meters":38400,"station_id":"ce4bhh12rcd13ifvqff0","pricing_plan_id":"cebpf4jnsgd1na2vs0mg"},{"bike_id":"704db654-401c-45e6-bc2d-cc005358368c","system_id":"levelo_inurba_marseille","lat":43.24391,"lon":5.37058,"is_reserved":false,"is_disabled":false,"rental_uris":{"android":"levelo://app?vid=704db654-401c-45e6-bc2d-cc005358368c","ios":"levelo://app?vid=704db654-401c-45e6-bc2d-cc005358368c"},"vehicle_type_id":"4","last_reported":1731193700,"current_range_meters":36400,"station_id":"ce4bhhh2rcd13ifvqfk0","pricing_plan_id":"cebpf4jnsgd1na2vs0mg"},{"bike_id":"25845ab9-1181-480c-b25b-a96b7f2023da","system_id":"levelo_inurba_marseille","lat":43.29913,"lon":5.37464,"is_reserved":false,"is_disabled":false,"rental_uris":{"android":"levelo://app?vid=25845ab9-1181-480c-b25b-a96b7f2023da","ios":"levelo://app?vid=25845ab9-1181-480c-b25b-a96b7f2023da"},"vehicle_type_id":"4","last_reported":1731193700,"current_range_meters":32000,"station_id":"ce4bgjh2rcd13ifvqbg0","pricing_plan_id":"cebpf4jnsgd1na2vs0mg"},{"bike_id":"b4eb30bc-dd09-4cbf-8ece-3b8ada662aaf","system_id":"levelo_inurba_marseille","lat":43.25005,"lon":5.38916,"is_reserved":false,"is_disabled":false,"rental_uris":{"android":"levelo://app?vid=b4eb30bc-dd09-4cbf-8ece-3b8ada662aaf","ios":"levelo://app?vid=b4eb30bc-dd09-4cbf-8ece-3b8ada662aaf"},"vehicle_type_id":"4","last_reported":1731193700,"current_range_meters":17200,"station_id":"ce4bhgp2rcd13ifvqfd0","pricing_plan_id":"cebpf4jnsgd1na2vs0mg"},{"bike_id":"1afcaa9e-ea84-4954-84dd-ca676ff4a65b","system_id":"levelo_inurba_marseille","lat":43.29004,"lon":5.35615,"is_reserved":false,"is_disabled":false,"rental_uris":{"android":"levelo://app?vid=1afcaa9e-ea84-4954-84dd-ca676ff4a65b","ios":"levelo://app?vid=1afcaa9e-ea84-4954-84dd-ca676ff4a65b"},"vehicle_type_id":"4","last_reported":1731193700,"current_range_meters":33200,"station_id":"ce4bhb92rcd13ifvqen0","pricing_plan_id":"cebpf4jnsgd1na2vs0mg"},{"bike_id":"ec8d8eec-0eba-4e2f-b8b6-8b469f03cc6e","system_id":"levelo_inurba_marseille","lat":43.30135,"lon":5.39864,"is_reserved":false,"is_disabled":false,"rental_uris":{"android":"levelo://app?vid=ec8d8eec-0eba-4e2f-b8b6-8b469f03cc6e","ios":"levelo://app?vid=ec8d8eec-0eba-4e2f-b8b6-8b469f03cc6e"},"vehicle_type_id":"4","last_reported":1731193700,"current_range_meters":23200,"station_id":"ce4bh0h2rcd13ifvqd40","pricing_plan_id":"cebpf4jnsgd1na2vs0mg"},{"bike_id":"e42f3fff-92a5-49c7-b148-63e623215c87","system_id":"levelo_inurba_marseille","lat":43.28674,"lon":5.38665,"is_reserved":false,"is_disabled":false,"rental_uris":{"android":"levelo://app?vid=e42f3fff-92a5-49c7-b148-63e623215c87","ios":"levelo://app?vid=e42f3fff-92a5-49c7-b148-63e623215c87"},"vehicle_type_id":"4","last_reported":1731193700,"current_range_meters":8800,"station_id":"ce4bh492rcd13ifvqdug","pricing_plan_id":"cebpf4jnsgd1na2vs0mg"},{"bike_id":"d19d38e7-34df-44f8-bbe6-4862f8fbaa71","system_id":"levelo_inurba_marseille","lat":43.24075,"lon":5.37751,"is_reserved":false,"is_disabled":false,"rental_uris":{"android":"levelo://app?vid=d19d38e7-34df-44f8-bbe6-4862f8fbaa71","ios":"levelo://app?vid=d19d38e7-34df-44f8-bbe6-4862f8fbaa71"},"vehicle_type_id":"4","last_reported":1731193700,"current_range_meters":25600,"station_id":"ce4bhnp2rcd13ifvqgvg","pricing_plan_id":"cebpf4jnsgd1na2vs0mg"},{"bike_id":"be94c940-c56d-4132-af66-fedb762b3e0f","system_id":"levelo_inurba_marseille","lat":43.23187,"lon":5.35554,"is_reserved":false,"is_disabled":false,"rental_uris":{"android":"levelo://app?vid=be94c940-c56d-4132-af66-fedb762b3e0f","ios":"levelo://app?vid=be94c940-c56d-4132-af66-fedb762b3e0f"},"vehicle_type_id":"4","last_reported":1731193700,"current_range_meters":35600,"station_id":"ce4bhu92rcd13ifvqi70","pricing_plan_id":"cebpf4jnsgd1na2vs0mg"},{"bike_id":"9769b54a-608a-49dc-ab6a-d885f78ea978","system_id":"levelo_inurba_marseille","lat":43.31122,"lon":5.37769,"is_reserved":false,"is_disabled":false,"rental_uris":{"android":"levelo://app?vid=9769b54a-608a-49dc-ab6a-d885f78ea978","ios":"levelo://app?vid=9769b54a-608a-49dc-ab6a-d885f78ea978"},"vehicle_type_id":"4","last_reported":1731193700,"current_range_meters":18800,"station_id":"ce4bgt92rcd13ifvqcg0","pricing_plan_id":"cebpf4jnsgd1na2vs0mg"},{"bike_id":"6a8f90cf-dd6b-4336-809c-cc3deb3a9c75","system_id":"levelo_inurba_marseille","lat":43.27938,"lon":5.41042,"is_reserved":false,"is_disabled":false,"rental_uris":{"android":"levelo://app?vid=6a8f90cf-dd6b-4336-809c-cc3deb3a9c75","ios":"levelo://app?vid=6a8f90cf-dd6b-4336-809c-cc3deb3a9c75"},"vehicle_type_id":"4","last_reported":1731193700,"current_range_meters":32400,"station_id":"ce4bhnp2rcd13ifvqh0g","pricing_plan_id":"cebpf4jnsgd1na2vs0mg"},{"bike_id":"5ef9fd6f-4b20-4393-a8a6-914b9723a6a4","system_id":"levelo_inurba_marseille","lat":43.25487,"lon":5.37648,"is_reserved":false,"is_disabled":false,"rental_uris":{"android":"levelo://app?vid=5ef9fd6f-4b20-4393-a8a6-914b9723a6a4","ios":"levelo://app?vid=5ef9fd6f-4b20-4393-a8a6-914b9723a6a4"},"vehicle_type_id":"4","last_reported":1731193700,"current_range_meters":38800,"station_id":"ce4bhh12rcd13ifvqff0","pricing_plan_id":"cebpf4jnsgd1na2vs0mg"},{"bike_id":"eed87996-13e1-4c3d-810e-3962f595aa19","system_id":"levelo_inurba_marseille","lat":43.2978,"lon":5.37104,"is_reserved":false,"is_disabled":false,"rental_uris":{"android":"levelo://app?vid=eed87996-13e1-4c3d-810e-3962f595aa19","ios":"levelo://app?vid=eed87996-13e1-4c3d-810e-3962f595aa19"},"vehicle_type_id":"4","last_reported":1731193700,"current_range_meters":28800,"station_id":"ce4bgop2rcd13ifvqc1g","pricing_plan_id":"cebpf4jnsgd1na2vs0mg"},{"bike_id":"cace7286-a269-4059-903b-643dcac29c08","system_id":"levelo_inurba_marseille","lat":43.31723,"lon":5.42395,"is_reserved":false,"is_disabled":false,"rental_uris":{"android":"levelo://app?vid=cace7286-a269-4059-903b-643dcac29c08","ios":"levelo://app?vid=cace7286-a269-4059-903b-643dcac29c08"},"vehicle_type_id":"4","last_reported":1731193700,"current_range_meters":9200,"station_id":"ce4bhp92rcd13ifvqhbg","pricing_plan_id":"cebpf4jnsgd1na2vs0mg"},{"bike_id":"799051fd-d983-438d-b1a6-f94aa3428752","system_id":"levelo_inurba_marseille","lat":43.29556,"lon":5.42293,"is_reserved":false,"is_disabled":false,"rental_uris":{"android":"levelo://app?vid=799051fd-d983-438d-b1a6-f94aa3428752","ios":"levelo://app?vid=799051fd-d983-438d-b1a6-f94aa3428752"},"vehicle_type_id":"4","last_reported":1731193700,"current_range_meters":38800,"station_id":"ce4bhph2rcd13ifvqhdg","pricing_plan_id":"cebpf4jnsgd1na2vs0mg"},{"bike_id":"1c65b7c0-3720-477c-8cda-f75b6262185e","system_id":"levelo_inurba_marseille","lat":43.2962,"lon":5.37155,"is_reserved":false,"is_disabled":false,"rental_uris":{"android":"levelo://app?vid=1c65b7c0-3720-477c-8cda-f75b6262185e","ios":"levelo://app?vid=1c65b7c0-3720-477c-8cda-f75b6262185e"},"vehicle_type_id":"4","last_reported":1731193700,"current_range_meters":18800,"station_id":"ce4bgnh2rcd13ifvqc0g","pricing_plan_id":"cebpf4jnsgd1na2vs0mg"},{"bike_id":"657860e9-6e53-4c2a-ac03-12fe9ee61d38","system_id":"levelo_inurba_marseille","lat":43.3107,"lon":5.38354,"is_reserved":false,"is_disabled":false,"rental_uris":{"android":"levelo://app?vid=657860e9-6e53-4c2a-ac03-12fe9ee61d38","ios":"levelo://app?vid=657860e9-6e53-4c2a-ac03-12fe9ee61d38"},"vehicle_type_id":"4","last_reported":1731193700,"current_range_meters":32400,"station_id":"ce4bgv92rcd13ifvqcr0","pricing_plan_id":"cebpf4jnsgd1na2vs0mg"},{"bike_id":"6da863f9-b1f5-4ce2-ba72-ca1bb82a1827","system_id":"levelo_inurba_marseille","lat":43.30931,"lon":5.40147,"is_reserved":false,"is_disabled":false,"rental_uris":{"android":"levelo://app?vid=6da863f9-b1f5-4ce2-ba72-ca1bb82a1827","ios":"levelo://app?vid=6da863f9-b1f5-4ce2-ba72-ca1bb82a1827"},"vehicle_type_id":"4","last_reported":1731193700,"current_range_meters":7200,"station_id":"ce4bgvp2rcd13ifvqct0","pricing_plan_id":"cebpf4jnsgd1na2vs0mg"},{"bike_id":"f72b2085-259d-46a1-85f4-e5379370f7c2","system_id":"levelo_inurba_marseille","lat":43.29529,"lon":5.394,"is_reserved":false,"is_disabled":false,"rental_uris":{"android":"levelo://app?vid=f72b2085-259d-46a1-85f4-e5379370f7c2","ios":"levelo://app?vid=f72b2085-259d-46a1-85f4-e5379370f7c2"},"vehicle_type_id":"4","last_reported":1731193700,"current_range_meters":18800,"station_id":"ce4bh292rcd13ifvqdf0","pricing_plan_id":"cebpf4jnsgd1na2vs0mg"},{"bike_id":"ba0cc63a-f291-4b2c-a585-fec837e7fffe","system_id":"levelo_inurba_marseille","lat":43.30142,"lon":5.37424,"is_reserved":false,"is_disabled":false,"rental_uris":{"android":"levelo://app?vid=ba0cc63a-f291-4b2c-a585-fec837e7fffe","ios":"levelo://app?vid=ba0cc63a-f291-4b2c-a585-fec837e7fffe"},"vehicle_type_id":"4","last_reported":1731193700,"current_range_meters":25200,"station_id":"ce4bgs92rcd13ifvqcc0","pricing_plan_id":"cebpf4jnsgd1na2vs0mg"},{"bike_id":"fa51ae50-b009-4d7e-bf04-d2fb70c06944","system_id":"levelo_inurba_marseille","lat":43.28364,"lon":5.38638,"is_reserved":false,"is_disabled":false,"rental_uris":{"android":"levelo://app?vid=fa51ae50-b009-4d7e-bf04-d2fb70c06944","ios":"levelo://app?vid=fa51ae50-b009-4d7e-bf04-d2fb70c06944"},"vehicle_type_id":"4","last_reported":1731193700,"current_range_meters":38800,"station_id":"ce4bh492rcd13ifvqdvg","pricing_plan_id":"cebpf4jnsgd1na2vs0mg"},{"bike_id":"d93e0dfa-2654-40a7-855d-07d4cdc6d608","system_id":"levelo_inurba_marseille","lat":43.30417,"lon":5.41279,"is_reserved":false,"is_disabled":false,"rental_uris":{"android":"levelo://app?vid=d93e0dfa-2654-40a7-855d-07d4cdc6d608","ios":"levelo://app?vid=d93e0dfa-2654-40a7-855d-07d4cdc6d608"},"vehicle_type_id":"4","last_reported":1731193700,"current_range_meters":38000,"station_id":"ce4bhop2rcd13ifvqh8g","pricing_plan_id":"cebpf4jnsgd1na2vs0mg"},{"bike_id":"ec9c7755-ff98-4680-93df-dd7f7d72f12b","system_id":"levelo_inurba_marseille","lat":43.31723,"lon":5.424,"is_reserved":false,"is_disabled":false,"rental_uris":{"android":"levelo://app?vid=ec9c7755-ff98-4680-93df-dd7f7d72f12b","ios":"levelo://app?vid=ec9c7755-ff98-4680-93df-dd7f7d72f12b"},"vehicle_type_id":"4","last_reported":1731193700,"current_range_meters":38800,"station_id":"ce4bhp92rcd13ifvqhbg","pricing_plan_id":"cebpf4jnsgd1na2vs0mg"},{"bike_id":"2a2b6bd4-7604-497d-9ca3-0e5e501b0d20","system_id":"levelo_inurba_marseille","lat":43.3117,"lon":5.38715,"is_reserved":false,"is_disabled":false,"rental_uris":{"android":"levelo://app?vid=2a2b6bd4-7604-497d-9ca3-0e5e501b0d20","ios":"levelo://app?vid=2a2b6bd4-7604-497d-9ca3-0e5e501b0d20"},"vehicle_type_id":"4","last_reported":1731193700,"current_range_meters":38800,"station_id":"ce4bgv12rcd13ifvqcp0","pricing_plan_id":"cebpf4jnsgd1na2vs0mg"},{"bike_id":"c3f3ba9b-52d5-4a86-8324-231ede433e97","system_id":"levelo_inurba_marseille","lat":43.31362,"lon":5.385,"is_reserved":false,"is_disabled":false,"rental_uris":{"android":"levelo://app?vid=c3f3ba9b-52d5-4a86-8324-231ede433e97","ios":"levelo://app?vid=c3f3ba9b-52d5-4a86-8324-231ede433e97"},"vehicle_type_id":"4","last_reported":1731193700,"current_range_meters":39200,"station_id":"ce4bgt92rcd13ifvqcf0","pricing_plan_id":"cebpf4jnsgd1na2vs0mg"},{"bike_id":"e61e0940-c088-4879-95f6-2eeeebf20835","system_id":"levelo_inurba_marseille","lat":43.3169,"lon":5.37757,"is_reserved":false,"is_disabled":false,"rental_uris":{"android":"levelo://app?vid=e61e0940-c088-4879-95f6-2eeeebf20835","ios":"levelo://app?vid=e61e0940-c088-4879-95f6-2eeeebf20835"},"vehicle_type_id":"4","last_reported":1731193700,"current_range_meters":17600,"station_id":"ce4bgth2rcd13ifvqch0","pricing_plan_id":"cebpf4jnsgd1na2vs0mg"},