{"last_updated":1732195164,"ttl":60,"version":"2.2","data":{"bikes":[{"bike_id":"aafb4067-d7af-47ed-81dd-6d51e9a8b32f","system_id":"levelo_inurba_marseille","lat":43.30539,"lon":5.36538,"is_reserved":false,"is_disabled":false,"rental_uris":{"android":"levelo://app?vid=aafb4067-d7af-47ed-81dd-6d51e9a8b32f","ios":"levelo://app?vid=aafb4067-d7af-47ed-81dd-6d51e9a8b32f"},"vehicle_type_id":"4","last_reported":1732195164,"current_range_meters":38800,"station_id":"ce4bgs12rcd13ifvqcag","pricing_plan_id":"cebpf4jnsgd1na2vs0mg"},{"bike_id":"0ec6eba6-3dc5-4795-9499-1aac9954324d","system_id":"levelo_inurba_marseille","lat":43.29378,"lon":5.37863,"is_reserved":false,"is_disabled":true,"rental_uris":{"android":"levelo://app?vid=0ec6eba6-3dc5-4795-9499-1aac9954324d","ios":"levelo://app?vid=0ec6eba6-3dc5-4795-9499-1aac9954324d"},"vehicle_type_id":"4","last_reported":1732195164,"current_range_meters":0,"station_id":"ce4bgjh2rcd13ifvqbf0","pricing_plan_id":"cebpf4jnsgd1na2vs0mg"},{"bike_id":"156320ae-cdf1-448d-a5dd-5f82d48b8bf7","system_id":"levelo_inurba_marseille","lat":43.28622,"lon":5.35102,"is_reserved":false,"is_disabled":false,"rental_uris":{"android":"levelo://app?vid=156320ae-cdf1-448d-a5dd-5f82d48b8bf7","ios":"levelo://app?vid=156320ae-cdf1-448d-a5dd-5f82d48b8bf7"},"vehicle_type_id":"4","last_reported":1732195164,"current_range_meters":36800,"station_id":"ce4bhch2rcd13ifvqeug","pricing_plan_id":"cebpf4jnsgd1na2vs0mg"},{"bike_id":"d416b63a-d018-4e8d-afd8-883ef95789aa","system_id":"levelo_inurba_marseille","lat":43.28338,"lon":5.38103,"is_reserved":false,"is_disabled":false,"rental_uris":{"android":"levelo://app?vid=d416b63a-d018-4e8d-afd8-883ef95789aa","ios":"levelo://app?vid=d416b63a-d018-4e8d-afd8-883ef95789aa"},"vehicle_type_id":"4","last_reported":1732195164,"current_range_meters":32000,"station_id":"ce4bh412rcd13ifvqdr0","pricing_plan_id":"cebpf4jnsgd1na2vs0mg"},{"bike_id":"0c37c268-c7b4-4cae-b105-98b39e15c450","system_id":"levelo_inurba_marseille","lat":43.28343,"lon":5.38108,"is_reserved":false,"is_disabled":false,"rental_uris":{"android":"levelo://app?vid=0c37c268-c7b4-4cae-b105-98b39e15c450","ios":"levelo://app?vid=0c37c268-c7b4-4cae-b105-98b39e15c450"},"vehicle_type_id":"4","last_reported":1732195164,"current_range_meters":32800,"station_id":"ce4bh412rcd13ifvqdr0","pricing_plan_id":"cebpf4jnsgd1na2vs0mg"},{"bike_id":"fa3b4529-ac0b-456b-acfc-4e5f8fd0d89d","system_id":"levelo_inurba_marseille","lat":43.2669,"lon":5.3827,"is_reserved":false,"is_disabled":false,"rental_uris":{"android":"levelo://app?vid=fa3b4529-ac0b-456b-acfc-4e5f8fd0d89d","ios":"levelo://app?vid=fa3b4529-ac0b-456b-acfc-4e5f8fd0d89d"},"vehicle_type_id":"4","last_reported":1732195164,"current_range_meters":38800,"station_id":"ce4bhg92rcd13ifvqf90","pricing_plan_id":"cebpf4jnsgd1na2vs0mg"},{"bike_id":"3d4f4541-0ce5-44c4-b89f-9a920af4dfeb","system_id":"levelo_inurba_marseille","lat":43.27319,"lon":5.39101,"is_reserved":false,"is_disabled":true,"rental_uris":{"android":"levelo://app?vid=3d4f4541-0ce5-44c4-b89f-9a920af4dfeb","ios":"levelo://app?vid=3d4f4541-0ce5-44c4-b89f-9a920af4dfeb"},"vehicle_type_id":"4","last_reported":1732195164,"current_range_meters":25200,"station_id":"ce4bhgp2rcd13ifvqfe0","pricing_plan_id":"cebpf4jnsgd1na2vs0mg"},{"bike_id":"d2581040-8772-4d35-a569-af5f240334a7","system_id":"levelo_inurba_marseille","lat":43.26946,"lon":5.40253,"is_reserved":false,"is_disabled":false,"rental_uris":{"android":"levelo://app?vid=d2581040-8772-4d35-a569-af5f240334a7","ios":"levelo://app?vid=d2581040-8772-4d35-a569-af5f240334a7"},"vehicle_type_id":"4","last_reported":1732195164,"current_range_meters":10000,"station_id":"cjm6bp8fraef2m0cb0m0","pricing_plan_id":"cebpf4jnsgd1na2vs0mg"},{"bike_id":"e70c0b4b-1abb-43a2-847a-51a701f130d6","system_id":"levelo_inurba_marseille","lat":43.30129,"lon":5.3988,"is_reserved":false,"is_disabled":false,"rental_uris":{"android":"levelo://app?vid=e70c0b4b-1abb-43a2-847a-51a701f130d6","ios":"levelo://app?vid=e70c0b4b-1abb-43a2-847a-51a701f130d6"},"vehicle_type_id":"4","last_reported":1732195164,"current_range_meters":19200,"station_id":"ce4bh0h2rcd13ifvqd40","pricing_plan_id":"cebpf4jnsgd1na2vs0mg"},{"bike_id":"59cb64f0-65a0-445b-81e8-49caa1869c19","system_id":"levelo_inurba_marseille","lat":43.29791,"lon":5.40415,"is_reserved":false,"is_disabled":false,"rental_uris":{"android":"levelo://app?vid=59cb64f0-65a0-445b-81e8-49caa1869c19","ios":"levelo://app?vid=59cb64f0-65a0-445b-81e8-49caa1869c19"},"vehicle_type_id":"4","last_reported":1732195164,"current_range_meters":32800,"station_id":"ce4bh112rcd13ifvqd90","pricing_plan_id":"cebpf4jnsgd1na2vs0mg"},{"bike_id":"8e6a3078-d201-4b7f-83a6-596972387b0b","system_id":"levelo_inurba_marseille","lat":43.26949,"lon":5.38637,"is_reserved":false,"is_disabled":false,"rental_uris":{"android":"levelo://app?vid=8e6a3078-d201-4b7f-83a6-596972387b0b","ios":"levelo://app?vid=8e6a3078-d201-4b7f-83a6-596972387b0b"},"vehicle_type_id":"4","last_reported":1732195164,"current_range_meters":38800,"station_id":"ce4bhh92rcd13ifvqfh0","pricing_plan_id":"cebpf4jnsgd1na2vs0mg"},{"bike_id":"ab95fd7f-a825-4add-9a37-d3865730f19e","system_id":"levelo_inurba_marseille","lat":43.29634,"lon":5.40598,"is_reserved":false,"is_disabled":false,"rental_uris":{"android":"levelo://app?vid=ab95fd7f-a825-4add-9a37-d3865730f19e","ios":"levelo://app?vid=ab95fd7f-a825-4add-9a37-d3865730f19e"},"vehicle_type_id":"4","last_reported":1732195164,"current_range_meters":18800,"station_id":"ce4bh0h2rcd13ifvqd60","pricing_plan_id":"cebpf4jnsgd1na2vs0mg"},{"bike_id":"1f203897-1164-43c5-8a36-2a35df13aaf6","system_id":"levelo_inurba_marseille","lat":43.23154,"lon":5.43723,"is_reserved":false,"is_disabled":true,"rental_uris":{"android":"levelo://app?vid=1f203897-1164-43c5-8a36-2a35df13aaf6","ios":"levelo://app?vid=1f203897-1164-43c5-8a36-2a35df13aaf6"},"vehicle_type_id":"4","last_reported":1732195164,"current_range_meters":2800,"station_id":"ce4bhmp2rcd13ifvqgog","pricing_plan_id":"cebpf4jnsgd1na2vs0mg"},{"bike_id":"4be3997b-0298-4a92-a78f-ce2230a4e3ad","system_id":"levelo_inurba_marseille","lat":43.29902,"lon":5.38147,"is_reserved":false,"is_disabled":true,"rental_uris":{"android":"levelo://app?vid=4be3997b-0298-4a92-a78f-ce2230a4e3ad","ios":"levelo://app?vid=4be3997b-0298-4a92-a78f-ce2230a4e3ad"},"vehicle_type_id":"4","last_reported":1732195164,"current_range_meters":32000,"station_id":"ce4bgj12rcd13ifvqbc0","pricing_plan_id":"cebpf4jnsgd1na2vs0mg"},{"bike_id":"50a036f0-7dff-4f4f-8db2-53242eda436a","system_id":"levelo_inurba_marseille","lat":43.284301,"lon":5.375024,"is_reserved":false,"is_disabled":false,"rental_uris":{"android":"levelo://app?vid=50a036f0-7dff-4f4f-8db2-53242eda436a","ios":"levelo://app?vid=50a036f0-7dff-4f4f-8db2-53242eda436a"},"vehicle_type_id":"4","last_reported":1732195164,"current_range_meters":37600,"station_id":"ce4bh412rcd13ifvqds0","pricing_plan_id":"cebpf4jnsgd1na2vs0mg"},{"bike_id":"4633b1c2-ce30-49c6-98e5-95d4bb70140f","system_id":"levelo_inurba_marseille","lat":43.31366,"lon":5.3672,"is_reserved":false,"is_disabled":false,"rental_uris":{"android":"levelo://app?vid=4633b1c2-ce30-49c6-98e5-95d4bb70140f","ios":"levelo://app?vid=4633b1c2-ce30-49c6-98e5-95d4bb70140f"},"vehicle_type_id":"4","last_reported":1732195164,"current_range_meters":26000,"station_id":"ce4bgr92rcd13ifvqc6g","pricing_plan_id":"cebpf4jnsgd1na2vs0mg"},{"bike_id":"e642ccdb-cb84-421c-a18f-c3de34e58923","system_id":"levelo_inurba_marseille","lat":43.29789,"lon":5.38111,"is_reserved":false,"is_disabled":false,"rental_uris":{"android":"levelo://app?vid=e642ccdb-cb84-421c-a18f-c3de34e58923","ios":"levelo://app?vid=e642ccdb-cb84-421c-a18f-c3de34e58923"},"vehicle_type_id":"4","last_reported":1732195164,"current_range_meters":19200,"station_id":"ce4bgip2rcd13ifvqbb0","pricing_plan_id":"cebpf4jnsgd1na2vs0mg"},{"bike_id":"c0755ad7-8353-40d1-98a4-bba43ca0e3ab","system_id":"levelo_inurba_marseille","lat":43.33724,"lon":5.39194,"is_reserved":false,"is_disabled":false,"rental_uris":{"android":"levelo://app?vid=c0755ad7-8353-40d1-98a4-bba43ca0e3ab","ios":"levelo://app?vid=c0755ad7-8353-40d1-98a4-bba43ca0e3ab"},"vehicle_type_id":"4","last_reported":1732195164,"current_range_meters":19200,"station_id":"ce4bhr92rcd13ifvqhsg","pricing_plan_id":"cebpf4jnsgd1na2vs0mg"},{"bike_id":"bc0ba603-4aeb-42a6-8a6d-9b9dc69c650f","system_id":"levelo_inurba_marseille","lat":43.2693,"lon":5.38914,"is_reserved":false,"is_disabled":false,"rental_uris":{"android":"levelo://app?vid=bc0ba603-4aeb-42a6-8a6d-9b9dc69c650f","ios":"levelo://app?vid=bc0ba603-4aeb-42a6-8a6d-9b9dc69c650f"},"vehicle_type_id":"4","last_reported":1732195164,"current_range_meters":5600,"station_id":"ce4bhhh2rcd13ifvqfl0","pricing_plan_id":"cebpf4jnsgd1na2vs0mg"},{"bike_id":"5996db57-59a4-4fac-a07b-fe6f610f8f44","system_id":"levelo_inurba_marseille","lat":43.30143,"lon":5.3878,"is_reserved":false,"is_disabled":true,"rental_uris":{"android":"levelo://app?vid=5996db57-59a4-4fac-a07b-fe6f610f8f44","ios":"levelo://app?vid=5996db57-59a4-4fac-a07b-fe6f610f8f44"},"vehicle_type_id":"4","last_reported":1732195164,"current_range_meters":34000,"station_id":"ce4bghh2rcd13ifvqb60","pricing_plan_id":"cebpf4jnsgd1na2vs0mg"},{"bike_id":"b8e74fa2-c82f-4ec7-84db-84bdfff9a537","system_id":"levelo_inurba_marseille","lat":43.29868,"lon":5.36281,"is_reserved":false,"is_disabled":false,"rental_uris":{"android":"levelo://app?vid=b8e74fa2-c82f-4ec7-84db-84bdfff9a537","ios":"levelo://app?vid=b8e74fa2-c82f-4ec7-84db-84bdfff9a537"},"vehicle_type_id":"4","last_reported":1732195164,"current_range_meters":14400,"station_id":"ce4bgpp2rcd13ifvqc3g","pricing_plan_id":"cebpf4jnsgd1na2vs0mg"},{"bike_id":"35a8628f-fb93-4db6-94c8-fa1706ae2626","system_id":"levelo_inurba_marseille","lat":43.30421,"lon":5.41296,"is_reserved":false,"is_disabled":false,"rental_uris":{"android":"levelo://app?vid=35a8628f-fb93-4db6-94c8-fa1706ae2626","ios":"levelo://app?vid=35a8628f-fb93-4db6-94c8-fa1706ae2626"},"vehicle_type_id":"4","last_reported":1732195164,"current_range_meters":38800,"station_id":"ce4bhop2rcd13ifvqh8g","pricing_plan_id":"cebpf4jnsgd1na2vs0mg"},{"bike_id":"aaa68104-60d6-454b-9438-4e38b46ffb6c","system_id":"levelo_inurba_marseille","lat":43.30815,"lon":5.37055,"is_reserved":false,"is_disabled":false,"rental_uris":{"android":"levelo://app?vid=aaa68104-60d6-454b-9438-4e38b46ffb6c","ios":"levelo://app?vid=aaa68104-60d6-454b-9438-4e38b46ffb6c"},"vehicle_type_id":"4","last_reported":1732195164,"current_range_meters":16800,"station_id":"","pricing_plan_id":"cebpf4jnsgd1na2vs0mg"},{"bike_id":"d2321b4c-ae3a-4b43-8bcd-12cb7984481d","system_id":"levelo_inurba_marseille","lat":43.30756,"lon":5.37017,"is_reserved":false,"is_disabled":true,"rental_uris":{"android":"levelo://app?vid=d2321b4c-ae3a-4b43-8bcd-12cb7984481d","ios":"levelo://app?vid=d2321b4c-ae3a-4b43-8bcd-12cb7984481d"},"vehicle_type_id":"4","last_reported":1732195164,"current_range_meters":24000,"station_id":"","pricing_plan_id":"cebpf4jnsgd1na2vs0mg"},{"bike_id":"eba35b14-0ea4-4a4f-9525-dc9511c16675","system_id":"levelo_inurba_marseille","lat":43.2971,"lon":5.36622,"is_reserved":false,"is_disabled":false,"rental_uris":{"android":"levelo://app?vid=eba35b14-0ea4-4a4f-9525-dc9511c16675","ios":"levelo://app?vid=eba35b14-0ea4-4a4f-9525-dc9511c16675"},"vehicle_type_id":"4","last_reported":1732195164,"current_range_meters":22800,"station_id":"ce4bgn12rcd13ifvqbt0","pricing_plan_id":"cebpf4jnsgd1na2vs0mg"},{"bike_id":"ab29e05e-7a50-4e13-8031-d682b514f3f9","system_id":"levelo_inurba_marseille","lat":43.33763,"lon":5.37452,"is_reserved":false,"is_disabled":false,"rental_uris":{"android":"levelo://app?vid=ab29e05e-7a50-4e13-8031-d682b514f3f9","ios":"levelo://app?vid=ab29e05e-7a50-4e13-8031-d682b514f3f9"},"vehicle_type_id":"4","last_reported":1732195164,"current_range_meters":18800,"station_id":"","pricing_plan_id":"cebpf4jnsgd1na2vs0mg"},{"bike_id":"110c493a-5aec-440a-a0b7-e928ebc0e426","system_id":"levelo_inurba_marseille","lat":43.29037,"lon":5.39963,"is_reserved":false,"is_disabled":false,"rental_uris":{"android":"levelo://app?vid=110c493a-5aec-440a-a0b7-e928ebc0e426","ios":"levelo://app?vid=110c493a-5aec-440a-a0b7-e928ebc0e426"},"vehicle_type_id":"4","last_reported":1732195164,"current_range_meters":10000,"station_id":"ce4bh392rcd13ifvqdm0","pricing_plan_id":"cebpf4jnsgd1na2vs0mg"},{"bike_id":"ed37508a-b0e4-437f-9a04-e25844b72733","system_id":"levelo_inurba_marseille","lat":43.25857,"lon":5.39904,"is_reserved":false,"is_disabled":true,"rental_uris":{"android":"levelo://app?vid=ed37508a-b0e4-437f-9a04-e25844b72733","ios":"levelo://app?vid=ed37508a-b0e4-437f-9a04-e25844b72733"},"vehicle_type_id":"4","last_reported":1732195164,"current_range_meters":8000,"station_id":"ce4bhl92rcd13ifvqghg","pricing_plan_id":"cebpf4jnsgd1na2vs0mg"},{"bike_id":"a01317b5-7a7e-497a-9b85-248058728779","system_id":"levelo_inurba_marseille","lat":43.29565,"lon":5.37515,"is_reserved":false,"is_disabled":false,"rental_uris":{"android":"levelo://app?vid=a01317b5-7a7e-497a-9b85-248058728779","ios":"levelo://app?vid=a01317b5-7a7e-497a-9b85-248058728779"},"vehicle_type_id":"4","last_reported":1732195164,"current_range_meters":37600,"station_id":"ce4bgh92rcd13ifvqb50","pricing_plan_id":"cebpf4jnsgd1na2vs0mg"},{"bike_id":"c732e272-4dfc-4feb-9c2d-614fd82c6e8c","system_id":"levelo_inurba_marseille","lat":43.30183,"lon":5.36614,"is_reserved":false,"is_disabled":false,"rental_uris":{"android":"levelo://app?vid=c732e272-4dfc-4feb-9c2d-614fd82c6e8c","ios":"levelo://app?vid=c732e272-4dfc-4feb-9c2d-614fd82c6e8c"},"vehicle_type_id":"4","last_reported":1732195164,"current_range_meters":38000,"station_id":"ce4bgrh2rcd13ifvqc8g","pricing_plan_id":"cebpf4jnsgd1na2vs0mg"},{"bike_id":"5c3000a0-a190-4007-a723-aa2707fd1ce3","system_id":"levelo_inurba_marseille","lat":43.22932,"lon":5.35377,"is_reserved":false,"is_disabled":false,"rental_uris":{"android":"levelo://app?vid=5c3000a0-a190-4007-a723-aa2707fd1ce3","ios":"levelo://app?vid=5c3000a0-a190-4007-a723-aa2707fd1ce3"},"vehicle_type_id":"4","last_reported":1732195164,"current_range_meters":38800,"station_id":"cpo3532slgdg3j2ikp40","pricing_plan_id":"cebpf4jnsgd1na2vs0mg"},{"bike_id":"749dcff2-f3db-46db-bd3a-aabc18114a16","system_id":"levelo_inurba_marseille","lat":43.31228,"lon":5.36868,"is_reserved":false,"is_disabled":false,"rental_uris":{"android":"levelo://app?vid=749dcff2-f3db-46db-bd3a-aabc18114a16","ios":"levelo://app?vid=749dcff2-f3db-46db-bd3a-aabc18114a16"},"vehicle_type_id":"4","last_reported":1732195164,"current_range_meters":38800,"station_id":"ce4bgl92rcd13ifvqbq0","pricing_plan_id":"cebpf4jnsgd1na2vs0mg"},{"bike_id":"a768f948-ce58-4b81-8621-3e16c9dce053","system_id":"levelo_inurba_marseille","lat":43.27322,"lon":5.39089,"is_reserved":false,"is_disabled":false,"rental_uris":{"android":"levelo://app?vid=a768f948-ce58-4b81-8621-3e16c9dce053","ios":"levelo://app?vid=a768f948-ce58-4b81-8621-3e16c9dce053"},"vehicle_type_id":"4","last_reported":1732195164,"current_range_meters":34000,"station_id":"ce4bhgp2rcd13ifvqfe0","pricing_plan_id":"cebpf4jnsgd1na2vs0mg"},{"bike_id":"0859851e-27b8-475b-8035-ec631749168e","system_id":"levelo_inurba_marseille","lat":43.28857,"lon":5.35853,"is_reserved":false,"is_disabled":false,"rental_uris":{"android":"levelo://app?vid=0859851e-27b8-475b-8035-ec631749168e","ios":"levelo://app?vid=0859851e-27b8-475b-8035-ec631749168e"},"vehicle_type_id":"4","last_reported":1732195164,"current_range_meters":24800,"station_id":"ce4bhb12rcd13ifvqem0","pricing_plan_id":"cebpf4jnsgd1na2vs0mg"},{"bike_id":"e1a3f6f3-27ff-49aa-a3bb-d4d13c88d7f1","system_id":"levelo_inurba_marseille","lat":43.28474,"lon":5.38557,"is_reserved":false,"is_disabled":false,"rental_uris":{"android":"levelo://app?vid=e1a3f6f3-27ff-49aa-a3bb-d4d13c88d7f1","ios":"levelo://app?vid=e1a3f6f3-27ff-49aa-a3bb-d4d13c88d7f1"},"vehicle_type_id":"4","last_reported":1732195164,"current_range_meters":36000,"station_id":"ce4bh8p2rcd13ifvqeb0","pricing_plan_id":"cebpf4jnsgd1na2vs0mg"},{"bike_id":"62d0ee86-5b1c-494d-b80a-0c29643d8236","system_id":"levelo_inurba_marseille","lat":43.2984,"lon":5.36264,"is_reserved":false,"is_disabled":false,"rental_uris":{"android":"levelo://app?vid=62d0ee86-5b1c-494d-b80a-0c29643d8236","ios":"levelo://app?vid=62d0ee86-5b1c-494d-b80a-0c29643d8236"},"vehicle_type_id":"4","last_reported":1732195164,"current_range_meters":38800,"station_id":"ce4bgpp2rcd13ifvqc3g","pricing_plan_id":"cebpf4jnsgd1na2vs0mg"},{"bike_id":"895dae95-9dde-4a45-9252-bfb2ffb1ef60","system_id":"levelo_inurba_marseille","lat":43.29848,"lon":5.36274,"is_reserved":false,"is_disabled":false,"rental_uris":{"android":"levelo://app?vid=895dae95-9dde-4a45-9252-bfb2ffb1ef60","ios":"levelo://app?vid=895dae95-9dde-4a45-9252-bfb2ffb1ef60"},"vehicle_type_id":"4","last_reported":1732195164,"current_range_meters":39200,"station_id":"ce4bgpp2rcd13ifvqc3g","pricing_plan_id":"cebpf4jnsgd1na2vs0mg"},{"bike_id":"0537b288-f6d5-4a4a-b5a0-fbb6f073f2c1","system_id":"levelo_inurba_marseille","lat":43.30517,"lon":5.36551,"is_reserved":false,"is_disabled":false,"rental_uris":{"android":"levelo://app?vid=0537b288-f6d5-4a4a-b5a0-fbb6f073f2c1","ios":"levelo://app?vid=0537b288-f6d5-4a4a-b5a0-fbb6f073f2c1"},"vehicle_type_id":"4","last_reported":1732195164,"current_range_meters":38800,"station_id":"ce4bgs12rcd13ifvqcag","pricing_plan_id":"cebpf4jnsgd1na2vs0mg"},{"bike_id":"f1a5529f-d308-4bb7-8ccd-2d79295e5b55","system_id":"levelo_inurba_marseille","lat":43.25582,"lon":5.38237,"is_reserved":false,"is_disabled":false,"rental_uris":{"android":"levelo://app?vid=f1a5529f-d308-4bb7-8ccd-2d79295e5b55","ios":"levelo://app?vid=f1a5529f-d308-4bb7-8ccd-2d79295e5b55"},"vehicle_type_id":"4","last_reported":1732195164,"current_range_meters":36800,"station_id":"ce4bhih2rcd13ifvqfs0","pricing_plan_id":"cebpf4jnsgd1na2vs0mg"},{"bike_id":"fce5cead-f708-488c-9b32-ae07588a04b4","system_id":"levelo_inurba_marseille","lat":43.32366,"lon":5.38883,"is_reserved":false,"is_disabled":true,"rental_uris":{"android":"levelo://app?vid=fce5cead-f708-488c-9b32-ae07588a04b4","ios":"levelo://app?vid=fce5cead-f708-488c-9b32-ae07588a04b4"},"vehicle_type_id":"4","last_reported":1732195164,"current_range_meters":400,"station_id":"ce4bhqp2rcd13ifvqhog","pricing_plan_id":"cebpf4jnsgd1na2vs0mg"},{"bike_id":"78112314-0167-4770-aec6-47ed16f97dd3","system_id":"levelo_inurba_marseille","lat":43.27555,"lon":5.38431,"is_reserved":false,"is_disabled":true,"rental_uris":{"android":"levelo://app?vid=78112314-0167-4770-aec6-47ed16f97dd3","ios":"levelo://app?vid=78112314-0167-4770-aec6-47ed16f97dd3"},"vehicle_type_id":"4","last_reported":1732195164,"current_range_meters":0,"station_id":"ce4bhh92rcd13ifvqfi0","pricing_plan_id":"cebpf4jnsgd1na2vs0mg"},{"bike_id":"1cd0daee-d68a-4e66-9883-fbe67fd8260f","system_id":"levelo_inurba_marseille","lat":43.30592,"lon":5.37121,"is_reserved":false,"is_disabled":true,"rental_uris":{"android":"levelo://app?vid=1cd0daee-d68a-4e66-9883-fbe67fd8260f","ios":"levelo://app?vid=1cd0daee-d68a-4e66-9883-fbe67fd8260f"},"vehicle_type_id":"4","last_reported":1732195164,"current_range_meters":0,"station_id":"","pricing_plan_id":"cebpf4jnsgd1na2vs0mg"},{"bike_id":"786acae4-7966-4486-8f38-7db6511f40d3","system_id":"levelo_inurba_marseille","lat":43.29567,"lon":5.37517,"is_reserved":false,"is_disabled":false,"rental_uris":{"android":"levelo://app?vid=786acae4-7966-4486-8f38-7db6511f40d3","ios":"levelo://app?vid=786acae4-7966-4486-8f38-7db6511f40d3"},"vehicle_type_id":"4","last_reported":1732195164,"current_range_meters":21600,"station_id":"ce4bgh92rcd13ifvqb50","pricing_plan_id":"cebpf4jnsgd1na2vs0mg"},{"bike_id":"86a89804-36ec-438c-bc01-475db48bc788","system_id":"levelo_inurba_marseille","lat":43.29105,"lon":5.3816,"is_reserved":false,"is_disabled":false,"rental_uris":{"android":"levelo://app?vid=86a89804-36ec-438c-bc01-475db48bc788","ios":"levelo://app?vid=86a89804-36ec-438c-bc01-475db48bc788"},"vehicle_type_id":"4","last_reported":1732195164,"current_range_meters":33600,"station_id":"ce4bh512rcd13ifvqe2g","pricing_plan_id":"cebpf4jnsgd1na2vs0mg"},{"bike_id":"b7991d04-4d9b-4f7b-8adc-53eda61fa0f9","system_id":"levelo_inurba_marseille","lat":43.24089,"lon":5.3775,"is_reserved":false,"is_disabled":false,"rental_uris":{"android":"levelo://app?vid=b7991d04-4d9b-4f7b-8adc-53eda61fa0f9","ios":"levelo://app?vid=b7991d04-4d9b-4f7b-8adc-53eda61fa0f9"},"vehicle_type_id":"4","last_reported":1732195164,"current_range_meters":36400,"station_id":"ce4bhnp2rcd13ifvqgvg","pricing_plan_id":"cebpf4jnsgd1na2vs0mg"},{"bike_id":"2aa5db3e-f71e-43a1-ba0c-ffe86e7384e5","system_id":"levelo_inurba_marseille","lat":43.2902,"lon":5.37551,"is_reserved":false,"is_disabled":false,"rental_uris":{"android":"levelo://app?vid=2aa5db3e-f71e-43a1-ba0c-ffe86e7384e5","ios":"levelo://app?vid=2aa5db3e-f71e-43a1-ba0c-ffe86e7384e5"},"vehicle_type_id":"4","last_reported":1732195164,"current_range_meters":8800,"station_id":"ce4bh692rcd13ifvqe90","pricing_plan_id":"cebpf4jnsgd1na2vs0mg"},{"bike_id":"a91d19d3-8057-4b70-88f1-be828ea306bd","system_id":"levelo_inurba_marseille","lat":43.26691,"lon":5.38273,"is_reserved":false,"is_disabled":false,"rental_uris":{"android":"levelo://app?vid=a91d19d3-8057-4b70-88f1-be828ea306bd","ios":"levelo://app?vid=a91d19d3-8057-4b70-88f1-be828ea306bd"},"vehicle_type_id":"4","last_reported":1732195164,"current_range_meters":22800,"station_id":"ce4bhg92rcd13ifvqf90","pricing_plan_id":"cebpf4jnsgd1na2vs0mg"},{"bike_id":"f34cf7c9-e81a-4077-b794-00609e27ee9f","system_id":"levelo_inurba_marseille","lat":43.32539,"lon":5.41426,"is_reserved":false,"is_disabled":false,"rental_uris":{"android":"levelo://app?vid=f34cf7c9-e81a-4077-b794-00609e27ee9f","ios":"levelo://app?vid=f34cf7c9-e81a-4077-b794-00609e27ee9f"},"vehicle_type_id":"4","last_reported":1732195164,"current_range_meters":35600,"station_id":"ce4bhq12rcd13ifvqhhg","pricing_plan_id":"cebpf4jnsgd1na2vs0mg"},{"bike_id":"05cb2897-8ba0-44c6-a0a8-269865ae5cf4","system_id":"levelo_inurba_marseille","lat":43.3035,"lon":5.4188,"is_reserved":false,"is_disabled":false,"rental_uris":{"android":"levelo://app?vid=05cb2897-8ba0-44c6-a0a8-269865ae5cf4","ios":"levelo://app?vid=05cb2897-8ba0-44c6-a0a8-269865ae5cf4"},"vehicle_type_id":"4","last_reported":1732195164,"current_range_meters":38800,"station_id":"ce4bhop2rcd13ifvqh7g","pricing_plan_id":"cebpf4jnsgd1na2vs0mg"},{"bike_id":"e3424ef3-00b4-4d10-8ee6-83fba6add79b","system_id":"levelo_inurba_marseille","lat":43.27375,"lon":5.36261,"is_reserved":false,"is_disabled":false,"rental_uris":{"android":"levelo://app?vid=e3424ef3-00b4-4d10-8ee6-83fba6add79b","ios":"levelo://app?vid=e3424ef3-00b4-4d10-8ee6-83fba6add79b"},"vehicle_type_id":"4","last_reported":1732195164,"current_range_meters":22800,"station_id":"ce4bhbh2rcd13ifvqeo0","pricing_plan_id":"cebpf4jnsgd1na2vs0mg"},{"bike_id":"e5bf3afe-e290-4776-a2bb-f436af787119","system_id":"levelo_inurba_marseille","lat":43.29572,"lon":5.37501,"is_reserved":false,"is_disabled":false,"rental_uris":{"android":"levelo://app?vid=e5bf3afe-e290-4776-a2bb-f436af787119","ios":"levelo://app?vid=e5bf3afe-e290-4776-a2bb-f436af787119"},"vehicle_type_id":"4","last_reported":1732195164,"current_range_meters":25200,"station_id":"ce4bgh92rcd13ifvqb50","pricing_plan_id":"cebpf4jnsgd1na2vs0mg"},{"bike_id":"a7fce1eb-2f2a-4561-bd8b-f77092da043b","system_id":"levelo_inurba_marseille","lat":43.27066,"lon":5.42278,"is_reserved":false,"is_disabled":true,"rental_uris":{"android":"levelo://app?vid=a7fce1eb-2f2a-4561-bd8b-f77092da043b","ios":"levelo://app?vid=a7fce1eb-2f2a-4561-bd8b-f77092da043b"},"vehicle_type_id":"4","last_reported":1732195164,"current_range_meters":34800,"station_id":"ce4bhk92rcd13ifvqgb0","pricing_plan_id":"cebpf4jnsgd1na2vs0mg"},{"bike_id":"2d32f13d-8fda-4915-96e6-d97fb3233a24","system_id":"levelo_inurba_marseille","lat":43.28671,"lon":5.38658,"is_reserved":false,"is_disabled":false,"rental_uris":{"android":"levelo://app?vid=2d32f13d-8fda-4915-96e6-d97fb3233a24","ios":"levelo://app?vid=2d32f13d-8fda-4915-96e6-d97fb3233a24"},"vehicle_type_id":"4","last_reported":1732195164,"current_range_meters":26000,"station_id":"ce4bh492rcd13ifvqdug","pricing_plan_id":"cebpf4jnsgd1na2vs0mg"},{"bike_id":"1a7c3ac1-36d3-4b1a-8a79-a5747d49877f","system_id":"levelo_inurba_marseille","lat":43.2991,"lon":5.3814,"is_reserved":false,"is_disabled":false,"rental_uris":{"android":"levelo://app?vid=1a7c3ac1-36d3-4b1a-8a79-a5747d49877f","ios":"levelo://app?vid=1a7c3ac1-36d3-4b1a-8a79-a5747d49877f"},"vehicle_type_id":"4","last_reported":1732195164,"current_range_meters":38000,"station_id":"ce4bgj12rcd13ifvqbc0","pricing_plan_id":"cebpf4jnsgd1na2vs0mg"},{"bike_id":"3fd5bebc-428a-4b96-b754-ca818ccd1f16","system_id":"levelo_inurba_marseille","lat":43.25945,"lon":5.40919,"is_reserved":false,"is_disabled":true,"rental_uris":{"android":"levelo://app?vid=3fd5bebc-428a-4b96-b754-ca818ccd1f16","ios":"levelo://app?vid=3fd5bebc-428a-4b96-b754-ca818ccd1f16"},"vehicle_type_id":"4","last_reported":1732195164,"current_range_meters":36800,"station_id":"ce4bhm92rcd13ifvqglg","pricing_plan_id":"cebpf4jnsgd1na2vs0mg"},{"bike_id":"a764c778-c8a8-4fae-886e-64f3d5668825","system_id":"levelo_inurba_marseille","lat":43.28155,"lon":5.42654,"is_reserved":false,"is_disabled":true,"rental_uris":{"android":"levelo://app?vid=a764c778-c8a8-4fae-886e-64f3d5668825","ios":"levelo://app?vid=a764c778-c8a8-4fae-886e-64f3d5668825"},"vehicle_type_id":"4","last_reported":1732195164,"current_range_meters":38400,"station_id":"ce4bhnh2rcd13ifvqgug","pricing_plan_id":"cebpf4jnsgd1na2vs0mg"},{"bike_id":"9c7a30dd-75dd-49b4-ba57-49afb2facd2d","system_id":"levelo_inurba_marseille","lat":43.27056,"lon":5.40258,"is_reserved":false,"is_disabled":false,"rental_uris":{"android":"levelo://app?vid=9c7a30dd-75dd-49b4-ba57-49afb2facd2d","ios":"levelo://app?vid=9c7a30dd-75dd-49b4-ba57-49afb2facd2d"},"vehicle_type_id":"4","last_reported":1732195164,"current_range_meters":16800,"station_id":"ce4bhk92rcd13ifvqgc0","pricing_plan_id":"cebpf4jnsgd1na2vs0mg"},{"bike_id":"04809465-5c0c-4b6a-aae9-e5fe9ea931d3","system_id":"levelo_inurba_marseille","lat":43.27566,"lon":5.3843,"is_reserved":false,"is_disabled":false,"rental_uris":{"android":"levelo://app?vid=04809465-5c0c-4b6a-aae9-e5fe9ea931d3","ios":"levelo://app?vid=04809465-5c0c-4b6a-aae9-e5fe9ea931d3"},"vehicle_type_id":"4","last_reported":1732195164,"current_range_meters":14400,"station_id":"ce4bhh92rcd13ifvqfi0","pricing_plan_id":"cebpf4jnsgd1na2vs0mg"},{"bike_id":"5dd4afbb-16bd-43bd-b0db-67e7146c68d0","system_id":"levelo_inurba_marseille","lat":43.30552,"lon":5.36709,"is_reserved":false,"is_disabled":false,"rental_uris":{"android":"levelo://app?vid=5dd4afbb-16bd-43bd-b0db-67e7146c68d0","ios":"levelo://app?vid=5dd4afbb-16bd-43bd-b0db-67e7146c68d0"},"vehicle_type_id":"4","last_reported":1732195164,"current_range_meters":32000,"station_id":"ce4bgrp2rcd13ifvqc9g","pricing_plan_id":"cebpf4jnsgd1na2vs0mg"},{"bike_id":"694abb70-2cc4-4cfc-b045-f5ffca11cc85","system_id":"levelo_inurba_marseille","lat":43.29045,"lon":5.39968,"is_reserved":false,"is_disabled":false,"rental_uris":{"android":"levelo://app?vid=694abb70-2cc4-4cfc-b045-f5ffca11cc85","ios":"levelo://app?vid=694abb70-2cc4-4cfc-b045-f5ffca11cc85"},"vehicle_type_id":"4","last_reported":1732195164,"current_range_meters":36000,"station_id":"ce4bh392rcd13ifvqdm0","pricing_plan_id":"cebpf4jnsgd1na2vs0mg"},{"bike_id":"571825fc-1c1f-4e61-ba4d-fc13912fcda9","system_id":"levelo_inurba_marseille","lat":43.32474,"lon":5.36564,"is_reserved":false,"is_disabled":false,"rental_uris":{"android":"levelo://app?vid=571825fc-1c1f-4e61-ba4d-fc13912fcda9","ios":"levelo://app?vid=571825fc-1c1f-4e61-ba4d-fc13912fcda9"},"vehicle_type_id":"4","last_reported":1732195164,"current_range_meters":39200,"station_id":"ce4bhs12rcd13ifvqhvg","pricing_plan_id":"cebpf4jnsgd1na2vs0mg"},{"bike_id":"4d598418-a01c-45c6-b777-a2c3632da517","system_id":"levelo_inurba_marseille","lat":43.30954,"lon":5.39039,"is_reserved":false,"is_disabled":false,"rental_uris":{"android":"levelo://app?vid=4d598418-a01c-45c6-b777-a2c3632da517","ios":"levelo://app?vid=4d598418-a01c-45c6-b777-a2c3632da517"},"vehicle_type_id":"4","last_reported":1732195164,"current_range_meters":37600,"station_id":"ce4bgup2rcd13ifvqco0","pricing_plan_id":"cebpf4jnsgd1na2vs0mg"},{"bike_id":"6d8d4026-73c3-4703-a895-b6045425d457","system_id":"levelo_inurba_marseille","lat":43.30551,"lon":5.36712,"is_reserved":false,"is_disabled":false,"rental_uris":{"android":"levelo://app?vid=6d8d4026-73c3-4703-a895-b6045425d457","ios":"levelo://app?vid=6d8d4026-73c3-4703-a895-b6045425d457"},"vehicle_type_id":"4","last_reported":1732195164,"current_range_meters":38800,"station_id":"ce4bgrp2rcd13ifvqc9g","pricing_plan_id":"cebpf4jnsgd1na2vs0mg"},{"bike_id":"634938c0-e67b-424b-9b64-d5776822017b","system_id":"levelo_inurba_marseille","lat":43.30537,"lon":5.38425,"is_reserved":false,"is_disabled":false,"rental_uris":{"android":"levelo://app?vid=634938c0-e67b-424b-9b64-d5776822017b","ios":"levelo://app?vid=634938c0-e67b-424b-9b64-d5776822017b"},"vehicle_type_id":"4","last_reported":1732195164,"current_range_meters":22400,"station_id":"ce4bgg92rcd13ifvqb30","pricing_plan_id":"cebpf4jnsgd1na2vs0mg"},{"bike_id":"505a1a15-ff62-4e7b-ac27-dcb91b8d0648","system_id":"levelo_inurba_marseille","lat":43.2834,"lon":5.38101,"is_reserved":false,"is_disabled":false,"rental_uris":{"android":"levelo://app?vid=505a1a15-ff62-4e7b-ac27-dcb91b8d0648","ios":"levelo://app?vid=505a1a15-ff62-4e7b-ac27-dcb91b8d0648"},"vehicle_type_id":"4","last_reported":1732195164,"current_range_meters":35200,"station_id":"ce4bh412rcd13ifvqdr0","pricing_plan_id":"cebpf4jnsgd1na2vs0mg"},{"bike_id":"be9ae0a8-c549-4adb-a0f6-54609edbc62f","system_id":"levelo_inurba_marseille","lat":43.29859,"lon":5.36278,"is_reserved":false,"is_disabled":false,"rental_uris":{"android":"levelo://app?vid=be9ae0a8-c549-4adb-a0f6-54609edbc62f","ios":"levelo://app?vid=be9ae0a8-c549-4adb-a0f6-54609edbc62f"},"vehicle_type_id":"4","last_reported":1732195164,"current_range_meters":38400,"station_id":"ce4bgpp2rcd13ifvqc3g","pricing_plan_id":"cebpf4jnsgd1na2vs0mg"},{"bike_id":"c172d9d0-ede4-49c5-b256-6c8ea7b60db6","system_id":"levelo_inurba_marseille","lat":43.31996,"lon":5.38156,"is_reserved":false,"is_disabled":false,"rental_uris":{"android":"levelo://app?vid=c172d9d0-ede4-49c5-b256-6c8ea7b60db6","ios":"levelo://app?vid=c172d9d0-ede4-49c5-b256-6c8ea7b60db6"},"vehicle_type_id":"4","last_reported":1732195164,"current_range_meters":3200,"station_id":"ce4bhr12rcd13ifvqhpg","pricing_plan_id":"cebpf4jnsgd1na2vs0mg"},{"bike_id":"57e4235a-8009-4ce2-b6f7-98a683f66d90","system_id":"levelo_inurba_marseille","lat":43.27976,"lon":5.3876,"is_reserved":false,"is_disabled":false,"rental_uris":{"android":"levelo://app?vid=57e4235a-8009-4ce2-b6f7-98a683f66d90","ios":"levelo://app?vid=57e4235a-8009-4ce2-b6f7-98a683f66d90"},"vehicle_type_id":"4","last_reported":1732195164,"current_range_meters":33600,"station_id":"ce4bhg12rcd13ifvqf80","pricing_plan_id":"cebpf4jnsgd1na2vs0mg"},{"bike_id":"f0fa4e60-0a2b-48c7-9942-83170358dd4a","system_id":"levelo_inurba_marseille","lat":43.32293,"lon":5.38278,"is_reserved":false,"is_disabled":false,"rental_uris":{"android":"levelo://app?vid=f0fa4e60-0a2b-48c7-9942-83170358dd4a","ios":"levelo://app?vid=f0fa4e60-0a2b-48c7-9942-83170358dd4a"},"vehicle_type_id":"4","last_reported":1732195164,"current_range_meters":38800,"station_id":"ce4bhr12rcd13ifvqhqg","pricing_plan_id":"cebpf4jnsgd1na2vs0mg"},{"bike_id":"550f0269-af81-4f74-bed5-fe17c4459dfd","system_id":"levelo_inurba_marseille","lat":43.25935,"lon":5.40907,"is_reserved":false,"is_disabled":true,"rental_uris":{"android":"levelo://app?vid=550f0269-af81-4f74-bed5-fe17c4459dfd","ios":"levelo://app?vid=550f0269-af81-4f74-bed5-fe17c4459dfd"},"vehicle_type_id":"4","last_reported":1732195164,"current_range_meters":0,"station_id":"ce4bhm92rcd13ifvqglg","pricing_plan_id":"cebpf4jnsgd1na2vs0mg"},{"bike_id":"9c37a5af-6b01-4e75-9657-7ef6bddc1bc6","system_id":"levelo_inurba_marseille","lat":43.33024,"lon":5.39041,"is_reserved":false,"is_disabled":false,"rental_uris":{"android":"levelo://app?vid=9c37a5af-6b01-4e75-9657-7ef6bddc1bc6","ios":"levelo://app?vid=9c37a5af-6b01-4e75-9657-7ef6bddc1bc6"},"vehicle_type_id":"4","last_reported":1732195164,"current_range_meters":27600,"station_id":"ce4bhr92rcd13ifvqhrg","pricing_plan_id":"cebpf4jnsgd1na2vs0mg"},{"bike_id":"12e09f24-8ae3-48be-9753-7913e18788eb","system_id":"levelo_inurba_marseille","lat":43.25868,"lon":5.39897,"is_reserved":false,"is_disabled":false,"rental_uris":{"android":"levelo://app?vid=12e09f24-8ae3-48be-9753-7913e18788eb","ios":"levelo://app?vid=12e09f24-8ae3-48be-9753-7913e18788eb"},"vehicle_type_id":"4","last_reported":1732195164,"current_range_meters":38800,"station_id":"ce4bhl92rcd13ifvqghg","pricing_plan_id":"cebpf4jnsgd1na2vs0mg"},{"bike_id":"1e5c7b22-6442-4f11-8f13-d09813d395f8","system_id":"levelo_inurba_marseille","lat":43.30326,"lon":5.40436,"is_reserved":false,"is_disabled":false,"rental_uris":{"android":"levelo://app?vid=1e5c7b22-6442-4f11-8f13-d09813d395f8","ios":"levelo://app?vid=1e5c7b22-6442-4f11-8f13-d09813d395f8"},"vehicle_type_id":"4","last_reported":1732195164,"current_range_meters":35600,"station_id":"ce4bh012rcd13ifvqd10","pricing_plan_id":"cebpf4jnsgd1na2vs0mg"},{"bike_id":"3585d018-4b66-4cf5-bca5-17fcec2fef21","system_id":"levelo_inurba_marseille","lat":43.23189,"lon":5.35558,"is_reserved":false,"is_disabled":false,"rental_uris":{"android":"levelo://app?vid=3585d018-4b66-4cf5-bca5-17fcec2fef21","ios":"levelo://app?vid=3585d018-4b66-4cf5-bca5-17fcec2fef21"},"vehicle_type_id":"4","last_reported":1732195164,"current_range_meters":32800,"station_id":"ce4bhu92rcd13ifvqi70","pricing_plan_id":"cebpf4jnsgd1na2vs0mg"},{"bike_id":"5f94102a-92bf-473a-a926-bc765900825f","system_id":"levelo_inurba_marseille","lat":43.30414,"lon":5.41292,"is_reserved":false,"is_disabled":false,"rental_uris":{"android":"levelo://app?vid=5f94102a-92bf-473a-a926-bc765900825f","ios":"levelo://app?vid=5f94102a-92bf-473a-a926-bc765900825f"},"vehicle_type_id":"4","last_reported":1732195164,"current_range_meters":30800,"station_id":"ce4bhop2rcd13ifvqh8g","pricing_plan_id":"cebpf4jnsgd1na2vs0mg"},{"bike_id":"7f67eab4-a851-414d-a7b0-e99e7a8fac51","system_id":"levelo_inurba_marseille","lat":43.28268,"lon":5.35077,"is_reserved":false,"is_disabled":false,"rental_uris":{"android":"levelo://app?vid=7f67eab4-a851-414d-a7b0-e99e7a8fac51","ios":"levelo://app?vid=7f67eab4-a851-414d-a7b0-e99e7a8fac51"},"vehicle_type_id":"4","last_reported":1732195164,"current_range_meters":39200,"station_id":"ce4bhbp2rcd13ifvqerg","pricing_plan_id":"cebpf4jnsgd1na2vs0mg"},{"bike_id":"b7af818c-618d-45b2-9edf-b5e0ce9049b0","system_id":"levelo_inurba_marseille","lat":43.29914,"lon":5.38133,"is_reserved":false,"is_disabled":true,"rental_uris":{"android":"levelo://app?vid=b7af818c-618d-45b2-9edf-b5e0ce9049b0","ios":"levelo://app?vid=b7af818c-618d-45b2-9edf-b5e0ce9049b0"},"vehicle_type_id":"4","last_reported":1732195164,"current_range_meters":36400,"station_id":"ce4bgj12rcd13ifvqbc0","pricing_plan_id":"cebpf4jnsgd1na2vs0mg"},{"bike_id":"a6d5ad62-cc28-4f8d-bea7-62693026e2bf","system_id":"levelo_inurba_marseille","lat":43.29235,"lon":5.36066,"is_reserved":false,"is_disabled":false,"rental_uris":{"android":"levelo://app?vid=a6d5ad62-cc28-4f8d-bea7-62693026e2bf","ios":"levelo://app?vid=a6d5ad62-cc28-4f8d-bea7-62693026e2bf"},"vehicle_type_id":"4","last_reported":1732195164,"current_range_meters":39200,"station_id":"ce4bhbh2rcd13ifvqeqg","pricing_plan_id":"cebpf4jnsgd1na2vs0mg"},{"bike_id":"e57590cc-a844-462b-b95c-023047b497c3","system_id":"levelo_inurba_marseille","lat":43.26027,"lon":5.3755,"is_reserved":false,"is_disabled":false,"rental_uris":{"android":"levelo://app?vid=e57590cc-a844-462b-b95c-023047b497c3","ios":"levelo://app?vid=e57590cc-a844-462b-b95c-023047b497c3"},"vehicle_type_id":"4","last_reported":1732195164,"current_range_meters":38000,"station_id":"ce4bhgh2rcd13ifvqfa0","pricing_plan_id":"cebpf4jnsgd1na2vs0mg"},{"bike_id":"02548de1-a79f-4bc6-8c03-f2b86f8bd8f9","system_id":"levelo_inurba_marseille","lat":43.32367,"lon":5.38885,"is_reserved":false,"is_disabled":false,"rental_uris":{"android":"levelo://app?vid=02548de1-a79f-4bc6-8c03-f2b86f8bd8f9","ios":"levelo://app?vid=02548de1-a79f-4bc6-8c03-f2b86f8bd8f9"},"vehicle_type_id":"4","last_reported":1732195164,"current_range_meters":8400,"station_id":"ce4bhqp2rcd13ifvqhog","pricing_plan_id":"cebpf4jnsgd1na2vs0mg"},{"bike_id":"63bf48fc-a073-420d-9ea5-15fd4487df25","system_id":"levelo_inurba_marseille","lat":43.29443,"lon":5.39736,"is_reserved":false,"is_disabled":false,"rental_uris":{"android":"levelo://app?vid=63bf48fc-a073-420d-9ea5-15fd4487df25","ios":"levelo://app?vid=63bf48fc-a073-420d-9ea5-15fd4487df25"},"vehicle_type_id":"4","last_reported":1732195164,"current_range_meters":17200,"station_id":"ce4bh3h2rcd13ifvqdo0","pricing_plan_id":"cebpf4jnsgd1na2vs0mg"},{"bike_id":"442acdc7-d628-44bd-a1aa-8017b95e373d","system_id":"levelo_inurba_marseille","lat":43.25942,"lon":5.40899,"is_reserved":false,"is_disabled":false,"rental_uris":{"android":"levelo://app?vid=442acdc7-d628-44bd-a1aa-8017b95e373d","ios":"levelo://app?vid=442acdc7-d628-44bd-a1aa-8017b95e373d"},"vehicle_type_id":"4","last_reported":1732195164,"current_range_meters":15200,"station_id":"ce4bhm92rcd13ifvqglg","pricing_plan_id":"cebpf4jnsgd1na2vs0mg"},{"bike_id":"7ef9a5ef-b3b2-4ff2-82cc-f161ced30464","system_id":"levelo_inurba_marseille","lat":43.29417,"lon":5.38607,"is_reserved":false,"is_disabled":true,"rental_uris":{"android":"levelo://app?vid=7ef9a5ef-b3b2-4ff2-82cc-f161ced30464","ios":"levelo://app?vid=7ef9a5ef-b3b2-4ff2-82cc-f161ced30464"},"vehicle_type_id":"4","last_reported":1732195164,"current_range_meters":34000,"station_id":"ce4bh2h2rcd13ifvqdh0","pricing_plan_id":"cebpf4jnsgd1na2vs0mg"},{"bike_id":"ccd208dd-3d0b-41e2-93a6-fda6e537f6b8","system_id":"levelo_inurba_marseille","lat":43.31355,"lon":5.36709,"is_reserved":false,"is_disabled":false,"rental_uris":{"android":"levelo://app?vid=ccd208dd-3d0b-41e2-93a6-fda6e537f6b8","ios":"levelo://app?vid=ccd208dd-3d0b-41e2-93a6-fda6e537f6b8"},"vehicle_type_id":"4","last_reported":1732195164,"current_range_meters":7200,"station_id":"ce4bgr92rcd13ifvqc6g","pricing_plan_id":"cebpf4jnsgd1na2vs0mg"},{"bike_id":"3a87bd62-e239-4cdd-b633-957d0047bea1","system_id":"levelo_inurba_marseille","lat":43.313625,"lon":5.367043,"is_reserved":false,"is_disabled":false,"rental_uris":{"android":"levelo://app?vid=3a87bd62-e239-4cdd-b633-957d0047bea1","ios":"levelo://app?vid=3a87bd62-e239-4cdd-b633-957d0047bea1"},"vehicle_type_id":"4","last_reported":1732195164,"current_range_meters":36000,"station_id":"ce4bgr92rcd13ifvqc6g","pricing_plan_id":"cebpf4jnsgd1na2vs0mg"},{"bike_id":"33d90dea-5255-41d8-8779-b8b60f563856","system_id":"levelo_inurba_marseille","lat":43.28467,"lon":5.35898,"is_reserved":false,"is_disabled":false,"rental_uris":{"android":"levelo://app?vid=33d90dea-5255-41d8-8779-b8b60f563856","ios":"levelo://app?vid=33d90dea-5255-41d8-8779-b8b60f563856"},"vehicle_type_id":"4","last_reported":1732195164,"current_range_meters":38800,"station_id":"ce4bhah2rcd13ifvqei0","pricing_plan_id":"cebpf4jnsgd1na2vs0mg"},{"bike_id":"1fe2f133-8d49-4f9e-9343-02c2af7f3209","system_id":"levelo_inurba_marseille","lat":43.30559,"lon":5.36536,"is_reserved":false,"is_disabled":false,"rental_uris":{"android":"levelo://app?vid=1fe2f133-8d49-4f9e-9343-02c2af7f3209","ios":"levelo://app?vid=1fe2f133-8d49-4f9e-9343-02c2af7f3209"},"vehicle_type_id":"4","last_reported":1732195164,"current_range_meters":36400,"station_id":"ce4bgs12rcd13ifvqcag","pricing_plan_id":"cebpf4jnsgd1na2vs0mg"},{"bike_id":"8d5e8e54-f87c-49b3-8720-7e21078f8fcd","system_id":"levelo_inurba_marseille","lat":43.26492,"lon":5.39551,"is_reserved":false,"is_disabled":false,"rental_uris":{"android":"levelo://app?vid=8d5e8e54-f87c-49b3-8720-7e21078f8fcd","ios":"levelo://app?vid=8d5e8e54-f87c-49b3-8720-7e21078f8fcd"},"vehicle_type_id":"4","last_reported":1732195164,"current_range_meters":36800,"station_id":"ce4bhi12rcd13ifvqfq0","pricing_plan_id":"cebpf4jnsgd1na2vs0mg"},{"bike_id":"844cb461-f780-45f5-88b2-3951b51e6462","system_id":"levelo_inurba_marseille","lat":43.30119,"lon":5.37824,"is_reserved":false,"is_disabled":true,"rental_uris":{"android":"levelo://app?vid=844cb461-f780-45f5-88b2-3951b51e6462","ios":"levelo://app?vid=844cb461-f780-45f5-88b2-3951b51e6462"},"vehicle_type_id":"4","last_reported":1732195164,"current_range_meters":0,"station_id":"","pricing_plan_id":"cebpf4jnsgd1na2vs0mg"},{"bike_id":"866d7382-4957-419f-b040-d2e6bda65e44","system_id":"levelo_inurba_marseille","lat":43.2657,"lon":5.39007,"is_reserved":false,"is_disabled":false,"rental_uris":{"android":"levelo://app?vid=866d7382-4957-419f-b040-d2e6bda65e44","ios":"levelo://app?vid=866d7382-4957-419f-b040-d2e6bda65e44"},"vehicle_type_id":"4","last_reported":1732195164,"current_range_meters":14400,"station_id":"ce4bhe12rcd13ifvqf30","pricing_plan_id":"cebpf4jnsgd1na2vs0mg"},{"bike_id":"5e40f376-4713-4509-a484-6f6d63bac293","system_id":"levelo_inurba_marseille","lat":43.31117,"lon":5.37772,"is_reserved":false,"is_disabled":false,"rental_uris":{"android":"levelo://app?vid=5e40f376-4713-4509-a484-6f6d63bac293","ios":"levelo://app?vid=5e40f376-4713-4509-a484-6f6d63bac293"},"vehicle_type_id":"4","last_reported":1732195164,"current_range_meters":20000,"station_id":"ce4bgt92rcd13ifvqcg0","pricing_plan_id":"cebpf4jnsgd1na2vs0mg"},{"bike_id":"03c3a0ad-5ae3-421a-90f7-7a26e9286ea2","system_id":"levelo_inurba_marseille","lat":43.29523,"lon":5.3905,"is_reserved":false,"is_disabled":false,"rental_uris":{"android":"levelo://app?vid=03c3a0ad-5ae3-421a-90f7-7a26e9286ea2","ios":"levelo://app?vid=03c3a0ad-5ae3-421a-90f7-7a26e9286ea2"},"vehicle_type_id":"4","last_reported":1732195164,"current_range_meters":38800,"station_id":"ce4bh3p2rcd13ifvqdp0","pricing_plan_id":"cebpf4jnsgd1na2vs0mg"},{"bike_id":"d5fad729-dcc6-46f0-b4be-9f69354c8b21","system_id":"levelo_inurba_marseille","lat":43.33757,"lon":5.374561,"is_reserved":false,"is_disabled":false,"rental_uris":{"android":"levelo://app?vid=d5fad729-dcc6-46f0-b4be-9f69354c8b21","ios":"levelo://app?vid=d5fad729-dcc6-46f0-b4be-9f69354c8b21"},"vehicle_type_id":"4","last_reported":1732195164,"current_range_meters":33600,"station_id":"","pricing_plan_id":"cebpf4jnsgd1na2vs0mg"},{"bike_id":"141a6003-9c1b-40ba-b273-5abd7a8326b6","system_id":"levelo_inurba_marseille","lat":43.26555,"lon":5.37291,"is_reserved":false,"is_disabled":false,"rental_uris":{"android":"levelo://app?vid=141a6003-9c1b-40ba-b273-5abd7a8326b6","ios":"levelo://app?vid=141a6003-9c1b-40ba-b273-5abd7a8326b6"},"vehicle_type_id":"4","last_reported":1732195164,"current_range_meters":38800,"station_id":"ce4bhg12rcd13ifvqf70","pricing_plan_id":"cebpf4jnsgd1na2vs0mg"},{"bike_id":"51555b90-b7c7-4e79-bc4e-60c6b5e837a5","system_id":"levelo_inurba_marseille","lat":43.29622,"lon":5.37169,"is_reserved":false,"is_disabled":false,"rental_uris":{"android":"levelo://app?vid=51555b90-b7c7-4e79-bc4e-60c6b5e837a5","ios":"levelo://app?vid=51555b90-b7c7-4e79-bc4e-60c6b5e837a5"},"vehicle_type_id":"4","last_reported":1732195164,"current_range_meters":38400,"station_id":"ce4bgnh2rcd13ifvqc0g","pricing_plan_id":"cebpf4jnsgd1na2vs0mg"},{"bike_id":"7e647cfe-54cf-490a-bb7e-01f10acdb5a0","system_id":"levelo_inurba_marseille","lat":43.28364,"lon":5.38638,"is_reserved":false,"is_disabled":true,"rental_uris":{"android":"levelo://app?vid=7e647cfe-54cf-490a-bb7e-01f10acdb5a0","ios":"levelo://app?vid=7e647cfe-54cf-490a-bb7e-01f10acdb5a0"},"vehicle_type_id":"4","last_reported":1732195164,"current_range_meters":39200,"station_id":"ce4bh492rcd13ifvqdvg","pricing_plan_id":"cebpf4jnsgd1na2vs0mg"},{"bike_id":"cdaafd2d-0da1-4fac-9881-15c66a7cd7c0","system_id":"levelo_inurba_marseille","lat":43.23151,"lon":5.43707,"is_reserved":false,"is_disabled":false,"rental_uris":{"android":"levelo://app?vid=cdaafd2d-0da1-4fac-9881-15c66a7cd7c0","ios":"levelo://app?vid=cdaafd2d-0da1-4fac-9881-15c66a7cd7c0"},"vehicle_type_id":"4","last_reported":1732195164,"current_range_meters":39200,"station_id":"ce4bhmp2rcd13ifvqgog","pricing_plan_id":"cebpf4jnsgd1na2vs0mg"},{"bike_id":"a08ecdd5-22d5-4486-81c9-89d3c7400955","system_id":"levelo_inurba_marseille","lat":43.34397,"lon":5.42048,"is_reserved":false,"is_disabled":false,"rental_uris":{"android":"levelo://app?vid=a08ecdd5-22d5-4486-81c9-89d3c7400955","ios":"levelo://app?vid=a08ecdd5-22d5-4486-81c9-89d3c7400955"},"vehicle_type_id":"4","last_reported":1732195164,"current_range_meters":38000,"station_id":"","pricing_plan_id":"cebpf4jnsgd1na2vs0mg"},{"bike_id":"0b4dc008-37df-48e6-838c-8e8dcae01549","system_id":"levelo_inurba_marseille","lat":43.30892,"lon":5.3966,"is_reserved":false,"is_disabled":false,"rental_uris":{"android":"levelo://app?vid=0b4dc008-37df-48e6-838c-8e8dcae01549","ios":"levelo://app?vid=0b4dc008-37df-48e6-838c-8e8dcae01549"},"vehicle_type_id":"4","last_reported":1732195164,"current_range_meters":22800,"station_id":"ce4bh012rcd13ifvqcv0","pricing_plan_id":"cebpf4jnsgd1na2vs0mg"},{"bike_id":"8d5ad0a8-268e-4afd-be61-7919f93826c7","system_id":"levelo_inurba_marseille","lat":43.29908,"lon":5.37484,"is_reserved":false,"is_disabled":true,"rental_uris":{"android":"levelo://app?vid=8d5ad0a8-268e-4afd-be61-7919f93826c7","ios":"levelo://app?vid=8d5ad0a8-268e-4afd-be61-7919f93826c7"},"vehicle_type_id":"4","last_reported":1732195164,"current_range_meters":33200,"station_id":"ce4bgjh2rcd13ifvqbg0","pricing_plan_id":"cebpf4jnsgd1na2vs0mg"},{"bike_id":"7bc52ef8-b780-4f98-8fa2-b2125397c84e","system_id":"levelo_inurba_marseille","lat":43.32368,"lon":5.38889,"is_reserved":false,"is_disabled":false,"rental_uris":{"android":"levelo://app?vid=7bc52ef8-b780-4f98-8fa2-b2125397c84e","ios":"levelo://app?vid=7bc52ef8-b780-4f98-8fa2-b2125397c84e"},"vehicle_type_id":"4","last_reported":1732195164,"current_range_meters":31200,"station_id":"ce4bhqp2rcd13ifvqhog","pricing_plan_id":"cebpf4jnsgd1na2vs0mg"},{"bike_id":"3eb5abba-f5cf-4707-9a17-84b6c5d3fb62","system_id":"levelo_inurba_marseille","lat":43.32542,"lon":5.41427,"is_reserved":false,"is_disabled":true,"rental_uris":{"android":"levelo://app?vid=3eb5abba-f5cf-4707-9a17-84b6c5d3fb62","ios":"levelo://app?vid=3eb5abba-f5cf-4707-9a17-84b6c5d3fb62"},"vehicle_type_id":"4","last_reported":1732195164,"current_range_meters":0,"station_id":"ce4bhq12rcd13ifvqhhg","pricing_plan_id":"cebpf4jnsgd1na2vs0mg"},{"bike_id":"26ef3bf1-5967-4c9e-90dc-77d70dd1c17d","system_id":"levelo_inurba_marseille","lat":43.2835,"lon":5.38108,"is_reserved":false,"is_disabled":false,"rental_uris":{"android":"levelo://app?vid=26ef3bf1-5967-4c9e-90dc-77d70dd1c17d","ios":"levelo://app?vid=26ef3bf1-5967-4c9e-90dc-77d70dd1c17d"},"vehicle_type_id":"4","last_reported":1732195164,"current_range_meters":28800,"station_id":"ce4bh412rcd13ifvqdr0","pricing_plan_id":"cebpf4jnsgd1na2vs0mg"},{"bike_id":"a0f25dd1-45fa-41c5-a5e6-d0d0bea9c865","system_id":"levelo_inurba_marseille","lat":43.30895,"lon":5.39654,"is_reserved":false,"is_disabled":false,"rental_uris":{"android":"levelo://app?vid=a0f25dd1-45fa-41c5-a5e6-d0d0bea9c865","ios":"levelo://app?vid=a0f25dd1-45fa-41c5-a5e6-d0d0bea9c865"},"vehicle_type_id":"4","last_reported":1732195164,"current_range_meters":16800,"station_id":"ce4bh012rcd13ifvqcv0","pricing_plan_id":"cebpf4jnsgd1na2vs0mg"},{"bike_id":"62e4a358-c2a0-48ac-be94-b0cfc53ce058","system_id":"levelo_inurba_marseille","lat":43.30283,"lon":5.37702,"is_reserved":false,"is_disabled":false,"rental_uris":{"android":"levelo://app?vid=62e4a358-c2a0-48ac-be94-b0cfc53ce058","ios":"levelo://app?vid=62e4a358-c2a0-48ac-be94-b0cfc53ce058"},"vehicle_type_id":"4","last_reported":1732195164,"current_range_meters":39200,"station_id":"ce4bguh2rcd13ifvqcj0","pricing_plan_id":"cebpf4jnsgd1na2vs0mg"},{"bike_id":"e27cd008-406b-4d2f-bdab-82d9db8a3149","system_id":"levelo_inurba_marseille","lat":43.28946,"lon":5.36642,"is_reserved":false,"is_disabled":false,"rental_uris":{"android":"levelo://app?vid=e27cd008-406b-4d2f-bdab-82d9db8a3149","ios":"levelo://app?vid=e27cd008-406b-4d2f-bdab-82d9db8a3149"},"vehicle_type_id":"4","last_reported":1732195164,"current_range_meters":34800,"station_id":"ce4bhap2rcd13ifvqek0","pricing_plan_id":"cebpf4jnsgd1na2vs0mg"},{"bike_id":"e41e2b51-c116-404e-9858-995a8625acfc","system_id":"levelo_inurba_marseille","lat":43.30546,"lon":5.36702,"is_reserved":false,"is_disabled":false,"rental_uris":{"android":"levelo://app?vid=e41e2b51-c116-404e-9858-995a8625acfc","ios":"levelo://app?vid=e41e2b51-c116-404e-9858-995a8625acfc"},"vehicle_type_id":"4","last_reported":1732195164,"current_range_meters":38800,"station_id":"ce4bgrp2rcd13ifvqc9g","pricing_plan_id":"cebpf4jnsgd1na2vs0mg"},{"bike_id":"3663e551-0669-4733-ba48-df97cefac38e","system_id":"levelo_inurba_marseille","lat":43.26551,"lon":5.37285,"is_reserved":false,"is_disabled":false,"rental_uris":{"android":"levelo://app?vid=3663e551-0669-4733-ba48-df97cefac38e","ios":"levelo://app?vid=3663e551-0669-4733-ba48-df97cefac38e"},"vehicle_type_id":"4","last_reported":1732195164,"current_range_meters":38800,"station_id":"ce4bhg12rcd13ifvqf70","pricing_plan_id":"cebpf4jnsgd1na2vs0mg"},{"bike_id":"f3d1de11-ea0c-4809-8e9c-3957146035eb","system_id":"levelo_inurba_marseille","lat":43.26025,"lon":5.37553,"is_reserved":false,"is_disabled":false,"rental_uris":{"android":"levelo://app?vid=f3d1de11-ea0c-4809-8e9c-3957146035eb","ios":"levelo://app?vid=f3d1de11-ea0c-4809-8e9c-3957146035eb"},"vehicle_type_id":"4","last_reported":1732195164,"current_range_meters":31200,"station_id":"ce4bhgh2rcd13ifvqfa0","pricing_plan_id":"cebpf4jnsgd1na2vs0mg"},{"bike_id":"319639f6-c364-407e-9612-56f449d4d076","system_id":"levelo_inurba_marseille","lat":43.28081,"lon":5.39659,"is_reserved":false,"is_disabled":true,"rental_uris":{"android":"levelo://app?vid=319639f6-c364-407e-9612-56f449d4d076","ios":"levelo://app?vid=319639f6-c364-407e-9612-56f449d4d076"},"vehicle_type_id":"4","last_reported":1732195164,"current_range_meters":0,"station_id":"ce4bho12rcd13ifvqh2g","pricing_plan_id":"cebpf4jnsgd1na2vs0mg"},{"bike_id":"e2e728ba-3901-4272-b09d-6daa9934b6cc","system_id":"levelo_inurba_marseille","lat":43.28856,"lon":5.39325,"is_reserved":false,"is_disabled":false,"rental_uris":{"android":"levelo://app?vid=e2e728ba-3901-4272-b09d-6daa9934b6cc","ios":"levelo://app?vid=e2e728ba-3901-4272-b09d-6daa9934b6cc"},"vehicle_type_id":"4","last_reported":1732195164,"current_range_meters":24000,"station_id":"ce4bh2p2rcd13ifvqdi0","pricing_plan_id":"cebpf4jnsgd1na2vs0mg"},{"bike_id":"8727f506-efd9-44b3-b7b2-be310975e066","system_id":"levelo_inurba_marseille","lat":43.30949,"lon":5.39035,"is_reserved":false,"is_disabled":false,"rental_uris":{"android":"levelo://app?vid=8727f506-efd9-44b3-b7b2-be310975e066","ios":"levelo://app?vid=8727f506-efd9-44b3-b7b2-be310975e066"},"vehicle_type_id":"4","last_reported":1732195164,"current_range_meters":3200,"station_id":"ce4bgup2rcd13ifvqco0","pricing_plan_id":"cebpf4jnsgd1na2vs0mg"},{"bike_id":"bde32dc5-5e9f-4c6c-8b90-ccdeaf280e73","system_id":"levelo_inurba_marseille","lat":43.30091,"lon":5.39072,"is_reserved":false,"is_disabled":false,"rental_uris":{"android":"levelo://app?vid=bde32dc5-5e9f-4c6c-8b90-ccdeaf280e73","ios":"levelo://app?vid=bde32dc5-5e9f-4c6c-8b90-ccdeaf280e73"},"vehicle_type_id":"4","last_reported":1732195164,"current_range_meters":20000,"station_id":"ce4bh192rcd13ifvqdb0","pricing_plan_id":"cebpf4jnsgd1na2vs0mg"},{"bike_id":"20327a65-d185-47c0-9c7a-139090f9fbdf","system_id":"levelo_inurba_marseille","lat":43.26215,"lon":5.3744,"is_reserved":false,"is_disabled":false,"rental_uris":{"android":"levelo://app?vid=20327a65-d185-47c0-9c7a-139090f9fbdf","ios":"levelo://app?vid=20327a65-d185-47c0-9c7a-139090f9fbdf"},"vehicle_type_id":"4","last_reported":1732195164,"current_range_meters":7200,"station_id":"ce4bhgp2rcd13ifvqfc0","pricing_plan_id":"cebpf4jnsgd1na2vs0mg"},{"bike_id":"6f155331-8e3d-45f1-bf9b-825a300ceeb8","system_id":"levelo_inurba_marseille","lat":43.31497,"lon":5.37314,"is_reserved":false,"is_disabled":false,"rental_uris":{"android":"levelo://app?vid=6f155331-8e3d-45f1-bf9b-825a300ceeb8","ios":"levelo://app?vid=6f155331-8e3d-45f1-bf9b-825a300ceeb8"},"vehicle_type_id":"4","last_reported":1732195164,"current_range_meters":8000,"station_id":"ce4bgt12rcd13ifvqcd0","pricing_plan_id":"cebpf4jnsgd1na2vs0mg"},{"bike_id":"cdab2ca8-7689-4288-93b7-db16ef8d8966","system_id":"levelo_inurba_marseille","lat":43.30553,"lon":5.36548,"is_reserved":false,"is_disabled":false,"rental_uris":{"android":"levelo://app?vid=cdab2ca8-7689-4288-93b7-db16ef8d8966","ios":"levelo://app?vid=cdab2ca8-7689-4288-93b7-db16ef8d8966"},"vehicle_type_id":"4","last_reported":1732195164,"current_range_meters":25600,"station_id":"ce4bgs12rcd13ifvqcag","pricing_plan_id":"cebpf4jnsgd1na2vs0mg"},{"bike_id":"53bbdfc0-4d63-4cc4-86e6-4ec910061123","system_id":"levelo_inurba_marseille","lat":43.30906,"lon":5.3671,"is_reserved":false,"is_disabled":true,"rental_uris":{"android":"levelo://app?vid=53bbdfc0-4d63-4cc4-86e6-4ec910061123","ios":"levelo://app?vid=53bbdfc0-4d63-4cc4-86e6-4ec910061123"},"vehicle_type_id":"4","last_reported":1732195164,"current_range_meters":0,"station_id":"","pricing_plan_id":"cebpf4jnsgd1na2vs0mg"},{"bike_id":"08d62434-66da-4920-8294-dbecd33c63f9","system_id":"levelo_inurba_marseille","lat":43.25718,"lon":5.41115,"is_reserved":false,"is_disabled":false,"rental_uris":{"android":"levelo://app?vid=08d62434-66da-4920-8294-dbecd33c63f9","ios":"levelo://app?vid=08d62434-66da-4920-8294-dbecd33c63f9"},"vehicle_type_id":"4","last_reported":1732195164,"current_range_meters":30800,"station_id":"ce4bhkp2rcd13ifvqgd0","pricing_plan_id":"cebpf4jnsgd1na2vs0mg"},{"bike_id":"b494a81b-9378-4a05-b7e5-9de8ae63939b","system_id":"levelo_inurba_marseille","lat":43.24998,"lon":5.38931,"is_reserved":false,"is_disabled":false,"rental_uris":{"android":"levelo://app?vid=b494a81b-9378-4a05-b7e5-9de8ae63939b","ios":"levelo://app?vid=b494a81b-9378-4a05-b7e5-9de8ae63939b"},"vehicle_type_id":"4","last_reported":1732195164,"current_range_meters":16800,"station_id":"ce4bhgp2rcd13ifvqfd0","pricing_plan_id":"cebpf4jnsgd1na2vs0mg"},{"bike_id":"433910b7-628a-4cab-a804-014e99ac8438","system_id":"levelo_inurba_marseille","lat":43.27493,"lon":5.42454,"is_reserved":false,"is_disabled":false,"rental_uris":{"android":"levelo://app?vid=433910b7-628a-4cab-a804-014e99ac8438","ios":"levelo://app?vid=433910b7-628a-4cab-a804-014e99ac8438"},"vehicle_type_id":"4","last_reported":1732195164,"current_range_meters":21600,"station_id":"ce4bhn92rcd13ifvqgrg","pricing_plan_id":"cebpf4jnsgd1na2vs0mg"},{"bike_id":"dfca3e23-b1dd-40cd-81b2-441e5e82c803","system_id":"levelo_inurba_marseille","lat":43.2417,"lon":5.36397,"is_reserved":false,"is_disabled":true,"rental_uris":{"android":"levelo://app?vid=dfca3e23-b1dd-40cd-81b2-441e5e82c803","ios":"levelo://app?vid=dfca3e23-b1dd-40cd-81b2-441e5e82c803"},"vehicle_type_id":"4","last_reported":1732195164,"current_range_meters":1600,"station_id":"cpo36qri1sfpv3e86is0","pricing_plan_id":"cebpf4jnsgd1na2vs0mg"},{"bike_id":"3193222d-584b-4642-a1d8-0c04b2309736","system_id":"levelo_inurba_marseille","lat":43.33729,"lon":5.39186,"is_reserved":false,"is_disabled":false,"rental_uris":{"android":"levelo://app?vid=3193222d-584b-4642-a1d8-0c04b2309736","ios":"levelo://app?vid=3193222d-584b-4642-a1d8-0c04b2309736"},"vehicle_type_id":"4","last_reported":1732195164,"current_range_meters":8000,"station_id":"ce4bhr92rcd13ifvqhsg","pricing_plan_id":"cebpf4jnsgd1na2vs0mg"},{"bike_id":"587fae13-7a67-4ef5-80f2-09f712f9a519","system_id":"levelo_inurba_marseille","lat":43.31489,"lon":5.37307,"is_reserved":false,"is_disabled":false,"rental_uris":{"android":"levelo://app?vid=587fae13-7a67-4ef5-80f2-09f712f9a519","ios":"levelo://app?vid=587fae13-7a67-4ef5-80f2-09f712f9a519"},"vehicle_type_id":"4","last_reported":1732195164,"current_range_meters":27600,"station_id":"ce4bgt12rcd13ifvqcd0","pricing_plan_id":"cebpf4jnsgd1na2vs0mg"},{"bike_id":"bc287d9c-98f8-4217-96a4-14fcc9b0f36d","system_id":"levelo_inurba_marseille","lat":43.29237,"lon":5.36069,"is_reserved":false,"is_disabled":false,"rental_uris":{"android":"levelo://app?vid=bc287d9c-98f8-4217-96a4-14fcc9b0f36d","ios":"levelo://app?vid=bc287d9c-98f8-4217-96a4-14fcc9b0f36d"},"vehicle_type_id":"4","last_reported":1732195164,"current_range_meters":37600,"station_id":"ce4bhbh2rcd13ifvqeqg","pricing_plan_id":"cebpf4jnsgd1na2vs0mg"},{"bike_id":"8ddac3a6-721f-4d40-8ef6-b8dce199bd66","system_id":"levelo_inurba_marseille","lat":43.29635,"lon":5.40597,"is_reserved":false,"is_disabled":false,"rental_uris":{"android":"levelo://app?vid=8ddac3a6-721f-4d40-8ef6-b8dce199bd66","ios":"levelo://app?vid=8ddac3a6-721f-4d40-8ef6-b8dce199bd66"},"vehicle_type_id":"4","last_reported":1732195164,"current_range_meters":38000,"station_id":"ce4bh0h2rcd13ifvqd60","pricing_plan_id":"cebpf4jnsgd1na2vs0mg"},{"bike_id":"452d503e-5d6c-436d-b77c-983f695025d1","system_id":"levelo_inurba_marseille","lat":43.30197,"lon":5.36632,"is_reserved":false,"is_disabled":false,"rental_uris":{"android":"levelo://app?vid=452d503e-5d6c-436d-b77c-983f695025d1","ios":"levelo://app?vid=452d503e-5d6c-436d-b77c-983f695025d1"},"vehicle_type_id":"4","last_reported":1732195164,"current_range_meters":38400,"station_id":"ce4bgrh2rcd13ifvqc8g","pricing_plan_id":"cebpf4jnsgd1na2vs0mg"},{"bike_id":"fae4826f-7cb0-49ab-84f6-0e67dea50443","system_id":"levelo_inurba_marseille","lat":43.27211,"lon":5.39185,"is_reserved":false,"is_disabled":true,"rental_uris":{"android":"levelo://app?vid=fae4826f-7cb0-49ab-84f6-0e67dea50443","ios":"levelo://app?vid=fae4826f-7cb0-49ab-84f6-0e67dea50443"},"vehicle_type_id":"4","last_reported":1732195164,"current_range_meters":0,"station_id":"ce4bhhp2rcd13ifvqfm0","pricing_plan_id":"cebpf4jnsgd1na2vs0mg"},{"bike_id":"8ae288fe-7f9e-4636-bc68-3daa0c790f34","system_id":"levelo_inurba_marseille","lat":43.24662,"lon":5.38168,"is_reserved":false,"is_disabled":false,"rental_uris":{"android":"levelo://app?vid=8ae288fe-7f9e-4636-bc68-3daa0c790f34","ios":"levelo://app?vid=8ae288fe-7f9e-4636-bc68-3daa0c790f34"},"vehicle_type_id":"4","last_reported":1732195164,"current_range_meters":36800,"station_id":"ce4bhih2rcd13ifvqfr0","pricing_plan_id":"cebpf4jnsgd1na2vs0mg"},{"bike_id":"89b7136b-e175-488a-b517-0ccdfebe8bed","system_id":"levelo_inurba_marseille","lat":43.287,"lon":5.39986,"is_reserved":false,"is_disabled":false,"rental_uris":{"android":"levelo://app?vid=89b7136b-e175-488a-b517-0ccdfebe8bed","ios":"levelo://app?vid=89b7136b-e175-488a-b517-0ccdfebe8bed"},"vehicle_type_id":"4","last_reported":1732195164,"current_range_meters":16000,"station_id":"ce4bho92rcd13ifvqh3g","pricing_plan_id":"cebpf4jnsgd1na2vs0mg"},{"bike_id":"5c3a39ac-a744-488a-b733-163a448f5a95","system_id":"levelo_inurba_marseille","lat":43.3136,"lon":5.38491,"is_reserved":false,"is_disabled":false,"rental_uris":{"android":"levelo://app?vid=5c3a39ac-a744-488a-b733-163a448f5a95","ios":"levelo://app?vid=5c3a39ac-a744-488a-b733-163a448f5a95"},"vehicle_type_id":"4","last_reported":1732195164,"current_range_meters":26800,"station_id":"ce4bgt92rcd13ifvqcf0","pricing_plan_id":"cebpf4jnsgd1na2vs0mg"},{"bike_id":"1b584c03-0446-497f-9331-2f21b5c98f79","system_id":"levelo_inurba_marseille","lat":43.299405,"lon":5.372102,"is_reserved":false,"is_disabled":false,"rental_uris":{"android":"levelo://app?vid=1b584c03-0446-497f-9331-2f21b5c98f79","ios":"levelo://app?vid=1b584c03-0446-497f-9331-2f21b5c98f79"},"vehicle_type_id":"4","last_reported":1732195164,"current_range_meters":20000,"station_id":"ce4bgr92rcd13ifvqc7g","pricing_plan_id":"cebpf4jnsgd1na2vs0mg"},{"bike_id":"beb38203-3c72-444b-9302-f5ea33823b29","system_id":"levelo_inurba_marseille","lat":43.28002,"lon":5.40005,"is_reserved":false,"is_disabled":false,"rental_uris":{"android":"levelo://app?vid=beb38203-3c72-444b-9302-f5ea33823b29","ios":"levelo://app?vid=beb38203-3c72-444b-9302-f5ea33823b29"},"vehicle_type_id":"4","last_reported":1732195164,"current_range_meters":38800,"station_id":"ce4bho92rcd13ifvqh4g","pricing_plan_id":"cebpf4jnsgd1na2vs0mg"},{"bike_id":"612e2fb5-5bdd-4493-9d90-eaa49396d072","system_id":"levelo_inurba_marseille","lat":43.30543,"lon":5.36526,"is_reserved":false,"is_disabled":false,"rental_uris":{"android":"levelo://app?vid=612e2fb5-5bdd-4493-9d90-eaa49396d072","ios":"levelo://app?vid=612e2fb5-5bdd-4493-9d90-eaa49396d072"},"vehicle_type_id":"4","last_reported":1732195164,"current_range_meters":38800,"station_id":"ce4bgs12rcd13ifvqcag","pricing_plan_id":"cebpf4jnsgd1na2vs0mg"},{"bike_id":"24618c6c-9f3e-4480-ac3f-3dfa9b93dc99","system_id":"levelo_inurba_marseille","lat":43.27941,"lon":5.41072,"is_reserved":false,"is_disabled":true,"rental_uris":{"android":"levelo://app?vid=24618c6c-9f3e-4480-ac3f-3dfa9b93dc99","ios":"levelo://app?vid=24618c6c-9f3e-4480-ac3f-3dfa9b93dc99"},"vehicle_type_id":"4","last_reported":1732195164,"current_range_meters":0,"station_id":"ce4bhnp2rcd13ifvqh0g","pricing_plan_id":"cebpf4jnsgd1na2vs0mg"},{"bike_id":"d67adecc-f4bc-486c-995c-7f6c894d54fe","system_id":"levelo_inurba_marseille","lat":43.2992,"lon":5.37482,"is_reserved":false,"is_disabled":false,"rental_uris":{"android":"levelo://app?vid=d67adecc-f4bc-486c-995c-7f6c894d54fe","ios":"levelo://app?vid=d67adecc-f4bc-486c-995c-7f6c894d54fe"},"vehicle_type_id":"4","last_reported":1732195164,"current_range_meters":39200,"station_id":"ce4bgjh2rcd13ifvqbg0","pricing_plan_id":"cebpf4jnsgd1na2vs0mg"},{"bike_id":"9a224ce9-2993-48b2-9e56-d24e870555b1","system_id":"levelo_inurba_marseille","lat":43.26785,"lon":5.39411,"is_reserved":false,"is_disabled":false,"rental_uris":{"android":"levelo://app?vid=9a224ce9-2993-48b2-9e56-d24e870555b1","ios":"levelo://app?vid=9a224ce9-2993-48b2-9e56-d24e870555b1"},"vehicle_type_id":"4","last_reported":1732195164,"current_range_meters":38800,"station_id":"ce4bhh12rcd13ifvqfg0","pricing_plan_id":"cebpf4jnsgd1na2vs0mg"},{"bike_id":"db238ef1-07dc-452b-9a26-3571bf544548","system_id":"levelo_inurba_marseille","lat":43.29795,"lon":5.381,"is_reserved":false,"is_disabled":false,"rental_uris":{"android":"levelo://app?vid=db238ef1-07dc-452b-9a26-3571bf544548","ios":"levelo://app?vid=db238ef1-07dc-452b-9a26-3571bf544548"},"vehicle_type_id":"4","last_reported":1732195164,"current_range_meters":7200,"station_id":"ce4bgip2rcd13ifvqbb0","pricing_plan_id":"cebpf4jnsgd1na2vs0mg"},{"bike_id":"6f3a2c32-febe-4d20-b478-1904fbbc827c","system_id":"levelo_inurba_marseille","lat":43.30614,"lon":5.37212,"is_reserved":false,"is_disabled":false,"rental_uris":{"android":"levelo://app?vid=6f3a2c32-febe-4d20-b478-1904fbbc827c","ios":"levelo://app?vid=6f3a2c32-febe-4d20-b478-1904fbbc827c"},"vehicle_type_id":"4","last_reported":1732195164,"current_range_meters":16400,"station_id":"ce4bgqh2rcd13ifvqc4g","pricing_plan_id":"cebpf4jnsgd1na2vs0mg"},{"bike_id":"889549f4-52db-4c10-8952-2d713c9cb7e7","system_id":"levelo_inurba_marseille","lat":43.24081,"lon":5.37744,"is_reserved":false,"is_disabled":false,"rental_uris":{"android":"levelo://app?vid=889549f4-52db-4c10-8952-2d713c9cb7e7","ios":"levelo://app?vid=889549f4-52db-4c10-8952-2d713c9cb7e7"},"vehicle_type_id":"4","last_reported":1732195164,"current_range_meters":38800,"station_id":"ce4bhnp2rcd13ifvqgvg","pricing_plan_id":"cebpf4jnsgd1na2vs0mg"},{"bike_id":"f739db3d-e57b-4e04-a4d0-90a64085c96d","system_id":"levelo_inurba_marseille","lat":43.23969,"lon":5.3664,"is_reserved":false,"is_disabled":false,"rental_uris":{"android":"levelo://app?vid=f739db3d-e57b-4e04-a4d0-90a64085c96d","ios":"levelo://app?vid=f739db3d-e57b-4e04-a4d0-90a64085c96d"},"vehicle_type_id":"4","last_reported":1732195164,"current_range_meters":21600,"station_id":"ce4bhi12rcd13ifvqfp0","pricing_plan_id":"cebpf4jnsgd1na2vs0mg"},{"bike_id":"089fadd4-bd3e-433a-b4d1-be4d9cb61c9f","system_id":"levelo_inurba_marseille","lat":43.30147,"lon":5.37411,"is_reserved":false,"is_disabled":false,"rental_uris":{"android":"levelo://app?vid=089fadd4-bd3e-433a-b4d1-be4d9cb61c9f","ios":"levelo://app?vid=089fadd4-bd3e-433a-b4d1-be4d9cb61c9f"},"vehicle_type_id":"4","last_reported":1732195164,"current_range_meters":25600,"station_id":"ce4bgs92rcd13ifvqcc0","pricing_plan_id":"cebpf4jnsgd1na2vs0mg"},{"bike_id":"8fff82c0-94c8-4109-9d0c-0de6261ecbde","system_id":"levelo_inurba_marseille","lat":43.26551,"lon":5.37296,"is_reserved":false,"is_disabled":false,"rental_uris":{"android":"levelo://app?vid=8fff82c0-94c8-4109-9d0c-0de6261ecbde","ios":"levelo://app?vid=8fff82c0-94c8-4109-9d0c-0de6261ecbde"},"vehicle_type_id":"4","last_reported":1732195164,"current_range_meters":38800,"station_id":"ce4bhg12rcd13ifvqf70","pricing_plan_id":"cebpf4jnsgd1na2vs0mg"},{"bike_id":"4616b56a-5b7e-41b2-ac65-7c91aca899d4","system_id":"levelo_inurba_marseille","lat":43.28574,"lon":5.39502,"is_reserved":false,"is_disabled":false,"rental_uris":{"android":"levelo://app?vid=4616b56a-5b7e-41b2-ac65-7c91aca899d4","ios":"levelo://app?vid=4616b56a-5b7e-41b2-ac65-7c91aca899d4"},"vehicle_type_id":"4","last_reported":1732195164,"current_range_meters":38800,"station_id":"ce4bh292rcd13ifvqdg0","pricing_plan_id":"cebpf4jnsgd1na2vs0mg"},{"bike_id":"e8c8887f-3cd4-4d1f-9fd0-fe21006084e3","system_id":"levelo_inurba_marseille","lat":43.29034,"lon":5.37562,"is_reserved":false,"is_disabled":false,"rental_uris":{"android":"levelo://app?vid=e8c8887f-3cd4-4d1f-9fd0-fe21006084e3","ios":"levelo://app?vid=e8c8887f-3cd4-4d1f-9fd0-fe21006084e3"},"vehicle_type_id":"4","last_reported":1732195164,"current_range_meters":14000,"station_id":"ce4bh692rcd13ifvqe90","pricing_plan_id":"cebpf4jnsgd1na2vs0mg"},{"bike_id":"1a51f640-6b48-41c3-8e7d-c6952041deac","system_id":"levelo_inurba_marseille","lat":43.29801,"lon":5.40409,"is_reserved":false,"is_disabled":false,"rental_uris":{"android":"levelo://app?vid=1a51f640-6b48-41c3-8e7d-c6952041deac","ios":"levelo://app?vid=1a51f640-6b48-41c3-8e7d-c6952041deac"},"vehicle_type_id":"4","last_reported":1732195164,"current_range_meters":38800,"station_id":"ce4bh112rcd13ifvqd90","pricing_plan_id":"cebpf4jnsgd1na2vs0mg"},{"bike_id":"ec0cebc6-0ebe-4c4d-85c4-944040b59561","system_id":"levelo_inurba_marseille","lat":43.26684,"lon":5.38272,"is_reserved":false,"is_disabled":false,"rental_uris":{"android":"levelo://app?vid=ec0cebc6-0ebe-4c4d-85c4-944040b59561","ios":"levelo://app?vid=ec0cebc6-0ebe-4c4d-85c4-944040b59561"},"vehicle_type_id":"4","last_reported":1732195164,"current_range_meters":38800,"station_id":"ce4bhg92rcd13ifvqf90","pricing_plan_id":"cebpf4jnsgd1na2vs0mg"},{"bike_id":"5d65b627-3435-4723-9775-b5218e9b2a7a","system_id":"levelo_inurba_marseille","lat":43.27207,"lon":5.39186,"is_reserved":false,"is_disabled":true,"rental_uris":{"android":"levelo://app?vid=5d65b627-3435-4723-9775-b5218e9b2a7a","ios":"levelo://app?vid=5d65b627-3435-4723-9775-b5218e9b2a7a"},"vehicle_type_id":"4","last_reported":1732195164,"current_range_meters":2800,"station_id":"ce4bhhp2rcd13ifvqfm0","pricing_plan_id":"cebpf4jnsgd1na2vs0mg"},{"bike_id":"9c2f56c3-b6c0-4a04-ad1c-456b29248b9e","system_id":"levelo_inurba_marseille","lat":43.30565,"lon":5.36706,"is_reserved":false,"is_disabled":false,"rental_uris":{"android":"levelo://app?vid=9c2f56c3-b6c0-4a04-ad1c-456b29248b9e","ios":"levelo://app?vid=9c2f56c3-b6c0-4a04-ad1c-456b29248b9e"},"vehicle_type_id":"4","last_reported":1732195164,"current_range_meters":26800,"station_id":"ce4bgrp2rcd13ifvqc9g","pricing_plan_id":"cebpf4jnsgd1na2vs0mg"},{"bike_id":"32c2fe9f-a607-4c07-a100-4beef28636ed","system_id":"levelo_inurba_marseille","lat":43.32479,"lon":5.36566,"is_reserved":false,"is_disabled":false,"rental_uris":{"android":"levelo://app?vid=32c2fe9f-a607-4c07-a100-4beef28636ed","ios":"levelo://app?vid=32c2fe9f-a607-4c07-a100-4beef28636ed"},"vehicle_type_id":"4","last_reported":1732195164,"current_range_meters":24800,"station_id":"ce4bhs12rcd13ifvqhvg","pricing_plan_id":"cebpf4jnsgd1na2vs0mg"},{"bike_id":"43c8e9b3-9b4a-4510-a969-75b32db670f0","system_id":"levelo_inurba_marseille","lat":43.26796,"lon":5.39417,"is_reserved":false,"is_disabled":true,"rental_uris":{"android":"levelo://app?vid=43c8e9b3-9b4a-4510-a969-75b32db670f0","ios":"levelo://app?vid=43c8e9b3-9b4a-4510-a969-75b32db670f0"},"vehicle_type_id":"4","last_reported":1732195164,"current_range_meters":0,"station_id":"ce4bhh12rcd13ifvqfg0","pricing_plan_id":"cebpf4jnsgd1na2vs0mg"},{"bike_id":"1904e4d6-e1e0-456f-9800-8b0e0e7107b4","system_id":"levelo_inurba_marseille","lat":43.23152,"lon":5.43708,"is_reserved":false,"is_disabled":false,"rental_uris":{"android":"levelo://app?vid=1904e4d6-e1e0-456f-9800-8b0e0e7107b4","ios":"levelo://app?vid=1904e4d6-e1e0-456f-9800-8b0e0e7107b4"},"vehicle_type_id":"4","last_reported":1732195164,"current_range_meters":39200,"station_id":"ce4bhmp2rcd13ifvqgog","pricing_plan_id":"cebpf4jnsgd1na2vs0mg"},{"bike_id":"6ff44b7f-9941-43f0-a7a3-9aedf9ab431c","system_id":"levelo_inurba_marseille","lat":43.30586,"lon":5.3936,"is_reserved":false,"is_disabled":false,"rental_uris":{"android":"levelo://app?vid=6ff44b7f-9941-43f0-a7a3-9aedf9ab431c","ios":"levelo://app?vid=6ff44b7f-9941-43f0-a7a3-9aedf9ab431c"},"vehicle_type_id":"4","last_reported":1732195164,"current_range_meters":27600,"station_id":"ce4bh0p2rcd13ifvqd80","pricing_plan_id":"cebpf4jnsgd1na2vs0mg"},{"bike_id":"910acaca-1fd5-47a9-8099-4a1ea3edf288","system_id":"levelo_inurba_marseille","lat":43.30804,"lon":5.38158,"is_reserved":false,"is_disabled":false,"rental_uris":{"android":"levelo://app?vid=910acaca-1fd5-47a9-8099-4a1ea3edf288","ios":"levelo://app?vid=910acaca-1fd5-47a9-8099-4a1ea3edf288"},"vehicle_type_id":"4","last_reported":1732195164,"current_range_meters":39200,"station_id":"ce4bgt12rcd13ifvqce0","pricing_plan_id":"cebpf4jnsgd1na2vs0mg"},{"bike_id":"127665e9-5e79-4027-a558-2ec8a38cb1b7","system_id":"levelo_inurba_marseille","lat":43.29054,"lon":5.37744,"is_reserved":false,"is_disabled":false,"rental_uris":{"android":"levelo://app?vid=127665e9-5e79-4027-a558-2ec8a38cb1b7","ios":"levelo://app?vid=127665e9-5e79-4027-a558-2ec8a38cb1b7"},"vehicle_type_id":"4","last_reported":1732195164,"current_range_meters":6800,"station_id":"ce4bh0h2rcd13ifvqd60","pricing_plan_id":"cebpf4jnsgd1na2vs0mg"},{"bike_id":"1eff5ce5-2d56-4465-a12c-60db9ec2175a","system_id":"levelo_inurba_marseille","lat":43.22931,"lon":5.35371,"is_reserved":false,"is_disabled":false,"rental_uris":{"android":"levelo://app?vid=1eff5ce5-2d56-4465-a12c-60db9ec2175a","ios":"levelo://app?vid=1eff5ce5-2d56-4465-a12c-60db9ec2175a"},"vehicle_type_id":"4","last_reported":1732195164,"current_range_meters":9600,"station_id":"cpo3532slgdg3j2ikp40","pricing_plan_id":"cebpf4jnsgd1na2vs0mg"},{"bike_id":"ce6d46e5-4223-4bce-a0db-85f63ca84039","system_id":"levelo_inurba_marseille","lat":43.29393,"lon":5.44985,"is_reserved":false,"is_disabled":true,"rental_uris":{"android":"levelo://app?vid=ce6d46e5-4223-4bce-a0db-85f63ca84039","ios":"levelo://app?vid=ce6d46e5-4223-4bce-a0db-85f63ca84039"},"vehicle_type_id":"4","last_reported":1732195164,"current_range_meters":2000,"station_id":"","pricing_plan_id":"cebpf4jnsgd1na2vs0mg"},{"bike_id":"dc815649-e3e3-48aa-b0fd-022cdb8ac58a","system_id":"levelo_inurba_marseille","lat":43.32373,"lon":5.38889,"is_reserved":false,"is_disabled":false,"rental_uris":{"android":"levelo://app?vid=dc815649-e3e3-48aa-b0fd-022cdb8ac58a","ios":"levelo://app?vid=dc815649-e3e3-48aa-b0fd-022cdb8ac58a"},"vehicle_type_id":"4","last_reported":1732195164,"current_range_meters":8000,"station_id":"ce4bhqp2rcd13ifvqhog","pricing_plan_id":"cebpf4jnsgd1na2vs0mg"},{"bike_id":"47310b0f-0522-4a10-9e11-cb19d879d8b0","system_id":"levelo_inurba_marseille","lat":43.29734,"lon":5.37682,"is_reserved":false,"is_disabled":false,"rental_uris":{"android":"levelo://app?vid=47310b0f-0522-4a10-9e11-cb19d879d8b0","ios":"levelo://app?vid=47310b0f-0522-4a10-9e11-cb19d879d8b0"},"vehicle_type_id":"4","last_reported":1732195164,"current_range_meters":38800,"station_id":"ce4bgkh2rcd13ifvqbl0","pricing_plan_id":"cebpf4jnsgd1na2vs0mg"},{"bike_id":"1b9d58c0-2079-4442-bf64-daf4896ef267","system_id":"levelo_inurba_marseille","lat":43.30478,"lon":5.37907,"is_reserved":false,"is_disabled":false,"rental_uris":{"android":"levelo://app?vid=1b9d58c0-2079-4442-bf64-daf4896ef267","ios":"levelo://app?vid=1b9d58c0-2079-4442-bf64-daf4896ef267"},"vehicle_type_id":"4","last_reported":1732195164,"current_range_meters":35200,"station_id":"ce4bgup2rcd13ifvqcn0","pricing_plan_id":"cebpf4jnsgd1na2vs0mg"},{"bike_id":"5c801927-33bd-48a8-8984-1ac5bb499b83","system_id":"levelo_inurba_marseille","lat":43.30543,"lon":5.36536,"is_reserved":false,"is_disabled":false,"rental_uris":{"android":"levelo://app?vid=5c801927-33bd-48a8-8984-1ac5bb499b83","ios":"levelo://app?vid=5c801927-33bd-48a8-8984-1ac5bb499b83"},"vehicle_type_id":"4","last_reported":1732195164,"current_range_meters":25200,"station_id":"ce4bgs12rcd13ifvqcag","pricing_plan_id":"cebpf4jnsgd1na2vs0mg"},{"bike_id":"971bc59d-3905-4305-a7ab-d4c18176b064","system_id":"levelo_inurba_marseille","lat":43.24079,"lon":5.3777,"is_reserved":false,"is_disabled":false,"rental_uris":{"android":"levelo://app?vid=971bc59d-3905-4305-a7ab-d4c18176b064","ios":"levelo://app?vid=971bc59d-3905-4305-a7ab-d4c18176b064"},"vehicle_type_id":"4","last_reported":1732195164,"current_range_meters":17600,"station_id":"ce4bhnp2rcd13ifvqgvg","pricing_plan_id":"cebpf4jnsgd1na2vs0mg"},{"bike_id":"e9386bde-fd13-4aae-a480-c840c52b9f9b","system_id":"levelo_inurba_marseille","lat":43.28533,"lon":5.3841,"is_reserved":false,"is_disabled":false,"rental_uris":{"android":"levelo://app?vid=e9386bde-fd13-4aae-a480-c840c52b9f9b","ios":"levelo://app?vid=e9386bde-fd13-4aae-a480-c840c52b9f9b"},"vehicle_type_id":"4","last_reported":1732195164,"current_range_meters":18800,"station_id":"","pricing_plan_id":"cebpf4jnsgd1na2vs0mg"},{"bike_id":"6e1202d7-79a0-4929-9ed3-a6242fdc8587","system_id":"levelo_inurba_marseille","lat":43.25583,"lon":5.38238,"is_reserved":false,"is_disabled":false,"rental_uris":{"android":"levelo://app?vid=6e1202d7-79a0-4929-9ed3-a6242fdc8587","ios":"levelo://app?vid=6e1202d7-79a0-4929-9ed3-a6242fdc8587"},"vehicle_type_id":"4","last_reported":1732195164,"current_range_meters":38000,"station_id":"ce4bhih2rcd13ifvqfs0","pricing_plan_id":"cebpf4jnsgd1na2vs0mg"},{"bike_id":"c6fdf4ea-bbbc-4e84-92b7-aec9541f2487","system_id":"levelo_inurba_marseille","lat":43.29035,"lon":5.39964,"is_reserved":false,"is_disabled":false,"rental_uris":{"android":"levelo://app?vid=c6fdf4ea-bbbc-4e84-92b7-aec9541f2487","ios":"levelo://app?vid=c6fdf4ea-bbbc-4e84-92b7-aec9541f2487"},"vehicle_type_id":"4","last_reported":1732195164,"current_range_meters":17200,"station_id":"ce4bh392rcd13ifvqdm0","pricing_plan_id":"cebpf4jnsgd1na2vs0mg"},{"bike_id":"d5e18f5c-b2ab-4047-84c8-18de805c95b5","system_id":"levelo_inurba_marseille","lat":43.26949,"lon":5.38644,"is_reserved":false,"is_disabled":true,"rental_uris":{"android":"levelo://app?vid=d5e18f5c-b2ab-4047-84c8-18de805c95b5","ios":"levelo://app?vid=d5e18f5c-b2ab-4047-84c8-18de805c95b5"},"vehicle_type_id":"4","last_reported":1732195164,"current_range_meters":8400,"station_id":"ce4bhh92rcd13ifvqfh0","pricing_plan_id":"cebpf4jnsgd1na2vs0mg"},{"bike_id":"87bdbe60-5511-4418-a4e4-682b5da37bfd","system_id":"levelo_inurba_marseille","lat":43.25865,"lon":5.39897,"is_reserved":false,"is_disabled":true,"rental_uris":{"android":"levelo://app?vid=87bdbe60-5511-4418-a4e4-682b5da37bfd","ios":"levelo://app?vid=87bdbe60-5511-4418-a4e4-682b5da37bfd"},"vehicle_type_id":"4","last_reported":1732195164,"current_range_meters":39200,"station_id":"ce4bhl92rcd13ifvqghg","pricing_plan_id":"cebpf4jnsgd1na2vs0mg"},{"bike_id":"47052fe1-a05c-49c3-b626-f5c628f20fc0","system_id":"levelo_inurba_marseille","lat":43.29099,"lon":5.38147,"is_reserved":false,"is_disabled":false,"rental_uris":{"android":"levelo://app?vid=47052fe1-a05c-49c3-b626-f5c628f20fc0","ios":"levelo://app?vid=47052fe1-a05c-49c3-b626-f5c628f20fc0"},"vehicle_type_id":"4","last_reported":1732195164,"current_range_meters":38800,"station_id":"ce4bh512rcd13ifvqe2g","pricing_plan_id":"cebpf4jnsgd1na2vs0mg"},{"bike_id":"3fbe99a9-12ca-4576-a9f7-40446b8230d0","system_id":"levelo_inurba_marseille","lat":43.23155,"lon":5.43706,"is_reserved":false,"is_disabled":false,"rental_uris":{"android":"levelo://app?vid=3fbe99a9-12ca-4576-a9f7-40446b8230d0","ios":"levelo://app?vid=3fbe99a9-12ca-4576-a9f7-40446b8230d0"},"vehicle_type_id":"4","last_reported":1732195164,"current_range_meters":12800,"station_id":"ce4bhmp2rcd13ifvqgog","pricing_plan_id":"cebpf4jnsgd1na2vs0mg"},{"bike_id":"97454afa-8968-4c76-be26-299daa06718c","system_id":"levelo_inurba_marseille","lat":43.31484,"lon":5.3731,"is_reserved":false,"is_disabled":false,"rental_uris":{"android":"levelo://app?vid=97454afa-8968-4c76-be26-299daa06718c","ios":"levelo://app?vid=97454afa-8968-4c76-be26-299daa06718c"},"vehicle_type_id":"4","last_reported":1732195164,"current_range_meters":11200,"station_id":"ce4bgt12rcd13ifvqcd0","pricing_plan_id":"cebpf4jnsgd1na2vs0mg"},{"bike_id":"7c844ab3-05c3-424d-88f8-8e168d38888a","system_id":"levelo_inurba_marseille","lat":43.29045,"lon":5.37164,"is_reserved":false,"is_disabled":false,"rental_uris":{"android":"levelo://app?vid=7c844ab3-05c3-424d-88f8-8e168d38888a","ios":"levelo://app?vid=7c844ab3-05c3-424d-88f8-8e168d38888a"},"vehicle_type_id":"4","last_reported":1732195164,"current_range_meters":38800,"station_id":"ce4bh5p2rcd13ifvqe4g","pricing_plan_id":"cebpf4jnsgd1na2vs0mg"},{"bike_id":"c74528e0-ae6e-446f-b436-91ec4ca23880","system_id":"levelo_inurba_marseille","lat":43.28496,"lon":5.38559,"is_reserved":false,"is_disabled":true,"rental_uris":{"android":"levelo://app?vid=c74528e0-ae6e-446f-b436-91ec4ca23880","ios":"levelo://app?vid=c74528e0-ae6e-446f-b436-91ec4ca23880"},"vehicle_type_id":"4","last_reported":1732195164,"current_range_meters":6000,"station_id":"ce4bh8p2rcd13ifvqeb0","pricing_plan_id":"cebpf4jnsgd1na2vs0mg"},{"bike_id":"74000b05-0418-42cc-927b-dce87855eb6f","system_id":"levelo_inurba_marseille","lat":43.31364,"lon":5.3849,"is_reserved":false,"is_disabled":false,"rental_uris":{"android":"levelo://app?vid=74000b05-0418-42cc-927b-dce87855eb6f","ios":"levelo://app?vid=74000b05-0418-42cc-927b-dce87855eb6f"},"vehicle_type_id":"4","last_reported":1732195164,"current_range_meters":38800,"station_id":"ce4bgt92rcd13ifvqcf0","pricing_plan_id":"cebpf4jnsgd1na2vs0mg"},{"bike_id":"e9fa929c-8d0c-4b11-96e9-4c8f00808128","system_id":"levelo_inurba_marseille","lat":43.28677,"lon":5.38669,"is_reserved":false,"is_disabled":false,"rental_uris":{"android":"levelo://app?vid=e9fa929c-8d0c-4b11-96e9-4c8f00808128","ios":"levelo://app?vid=e9fa929c-8d0c-4b11-96e9-4c8f00808128"},"vehicle_type_id":"4","last_reported":1732195164,"current_range_meters":26000,"station_id":"ce4bh492rcd13ifvqdug","pricing_plan_id":"cebpf4jnsgd1na2vs0mg"},{"bike_id":"42d6fa67-3d3d-427c-a63a-15e267a4a6ee","system_id":"levelo_inurba_marseille","lat":43.27964,"lon":5.41051,"is_reserved":false,"is_disabled":true,"rental_uris":{"android":"levelo://app?vid=42d6fa67-3d3d-427c-a63a-15e267a4a6ee","ios":"levelo://app?vid=42d6fa67-3d3d-427c-a63a-15e267a4a6ee"},"vehicle_type_id":"4","last_reported":1732195164,"current_range_meters":24000,"station_id":"ce4bhnp2rcd13ifvqh0g","pricing_plan_id":"cebpf4jnsgd1na2vs0mg"},{"bike_id":"719f3477-a835-478f-a872-829b54e82498","system_id":"levelo_inurba_marseille","lat":43.29956,"lon":5.41316,"is_reserved":false,"is_disabled":false,"rental_uris":{"android":"levelo://app?vid=719f3477-a835-478f-a872-829b54e82498","ios":"levelo://app?vid=719f3477-a835-478f-a872-829b54e82498"},"vehicle_type_id":"4","last_reported":1732195164,"current_range_meters":38000,"station_id":"ce4bhp12rcd13ifvqh9g","pricing_plan_id":"cebpf4jnsgd1na2vs0mg"},{"bike_id":"c534a875-bdfb-439d-8fdd-faa757628176","system_id":"levelo_inurba_marseille","lat":43.23968,"lon":5.36646,"is_reserved":false,"is_disabled":false,"rental_uris":{"android":"levelo://app?vid=c534a875-bdfb-439d-8fdd-faa757628176","ios":"levelo://app?vid=c534a875-bdfb-439d-8fdd-faa757628176"},"vehicle_type_id":"4","last_reported":1732195164,"current_range_meters":38800,"station_id":"ce4bhi12rcd13ifvqfp0","pricing_plan_id":"cebpf4jnsgd1na2vs0mg"},{"bike_id":"b7cc5daa-c7f7-4edc-ac39-aecbeffae53c","system_id":"levelo_inurba_marseille","lat":43.2897,"lon":5.37849,"is_reserved":false,"is_disabled":false,"rental_uris":{"android":"levelo://app?vid=b7cc5daa-c7f7-4edc-ac39-aecbeffae53c","ios":"levelo://app?vid=b7cc5daa-c7f7-4edc-ac39-aecbeffae53c"},"vehicle_type_id":"4","last_reported":1732195164,"current_range_meters":38800,"station_id":"ce4bh9p2rcd13ifvqed0","pricing_plan_id":"cebpf4jnsgd1na2vs0mg"},{"bike_id":"6a1cf72b-8b4d-4929-af84-9c436a903bb4","system_id":"levelo_inurba_marseille","lat":43.29918,"lon":5.37475,"is_reserved":false,"is_disabled":false,"rental_uris":{"android":"levelo://app?vid=6a1cf72b-8b4d-4929-af84-9c436a903bb4","ios":"levelo://app?vid=6a1cf72b-8b4d-4929-af84-9c436a903bb4"},"vehicle_type_id":"4","last_reported":1732195164,"current_range_meters":39200,"station_id":"ce4bgjh2rcd13ifvqbg0","pricing_plan_id":"cebpf4jnsgd1na2vs0mg"},{"bike_id":"763f2290-7c08-4148-a774-5727b7f723cc","system_id":"levelo_inurba_marseille","lat":43.30947,"lon":5.39044,"is_reserved":false,"is_disabled":false,"rental_uris":{"android":"levelo://app?vid=763f2290-7c08-4148-a774-5727b7f723cc","ios":"levelo://app?vid=763f2290-7c08-4148-a774-5727b7f723cc"},"vehicle_type_id":"4","last_reported":1732195164,"current_range_meters":31200,"station_id":"ce4bgup2rcd13ifvqco0","pricing_plan_id":"cebpf4jnsgd1na2vs0mg"},{"bike_id":"b40ede3d-3df1-4e75-aa7c-f784505f0ad9","system_id":"levelo_inurba_marseille","lat":43.31993,"lon":5.38155,"is_reserved":false,"is_disabled":false,"rental_uris":{"android":"levelo://app?vid=b40ede3d-3df1-4e75-aa7c-f784505f0ad9","ios":"levelo://app?vid=b40ede3d-3df1-4e75-aa7c-f784505f0ad9"},"vehicle_type_id":"4","last_reported":1732195164,"current_range_meters":39200,"station_id":"ce4bhr12rcd13ifvqhpg","pricing_plan_id":"cebpf4jnsgd1na2vs0mg"},{"bike_id":"c33dd439-3ae0-446f-9d2f-a030337032f2","system_id":"levelo_inurba_marseille","lat":43.29793,"lon":5.38109,"is_reserved":false,"is_disabled":false,"rental_uris":{"android":"levelo://app?vid=c33dd439-3ae0-446f-9d2f-a030337032f2","ios":"levelo://app?vid=c33dd439-3ae0-446f-9d2f-a030337032f2"},"vehicle_type_id":"4","last_reported":1732195164,"current_range_meters":6800,"station_id":"ce4bgip2rcd13ifvqbb0","pricing_plan_id":"cebpf4jnsgd1na2vs0mg"},{"bike_id":"01c81827-d820-4edc-9a26-38eac8bf434e","system_id":"levelo_inurba_marseille","lat":43.30133,"lon":5.38801,"is_reserved":false,"is_disabled":false,"rental_uris":{"android":"levelo://app?vid=01c81827-d820-4edc-9a26-38eac8bf434e","ios":"levelo://app?vid=01c81827-d820-4edc-9a26-38eac8bf434e"},"vehicle_type_id":"4","last_reported":1732195164,"current_range_meters":25200,"station_id":"ce4bghh2rcd13ifvqb60","pricing_plan_id":"cebpf4jnsgd1na2vs0mg"},{"bike_id":"0b3fe690-93e2-45fa-a389-62ee4335c2aa","system_id":"levelo_inurba_marseille","lat":43.30909,"lon":5.36847,"is_reserved":false,"is_disabled":true,"rental_uris":{"android":"levelo://app?vid=0b3fe690-93e2-45fa-a389-62ee4335c2aa","ios":"levelo://app?vid=0b3fe690-93e2-45fa-a389-62ee4335c2aa"},"vehicle_type_id":"4","last_reported":1732195164,"current_range_meters":800,"station_id":"ce4bgn92rcd13ifvqbvg","pricing_plan_id":"cebpf4jnsgd1na2vs0mg"},{"bike_id":"1a88079e-ca3a-4e16-9bb1-2dbd342dd3a2","system_id":"levelo_inurba_marseille","lat":43.2721,"lon":5.39196,"is_reserved":false,"is_disabled":true,"rental_uris":{"android":"levelo://app?vid=1a88079e-ca3a-4e16-9bb1-2dbd342dd3a2","ios":"levelo://app?vid=1a88079e-ca3a-4e16-9bb1-2dbd342dd3a2"},"vehicle_type_id":"4","last_reported":1732195164,"current_range_meters":10000,"station_id":"ce4bhhp2rcd13ifvqfm0","pricing_plan_id":"cebpf4jnsgd1na2vs0mg"},{"bike_id":"f5f2903f-8d89-4f06-a0ca-61046726b31f","system_id":"levelo_inurba_marseille","lat":43.31162,"lon":5.38724,"is_reserved":false,"is_disabled":false,"rental_uris":{"android":"levelo://app?vid=f5f2903f-8d89-4f06-a0ca-61046726b31f","ios":"levelo://app?vid=f5f2903f-8d89-4f06-a0ca-61046726b31f"},"vehicle_type_id":"4","last_reported":1732195164,"current_range_meters":29600,"station_id":"ce4bgv12rcd13ifvqcp0","pricing_plan_id":"cebpf4jnsgd1na2vs0mg"},{"bike_id":"436225a6-4694-4ff0-bed2-3c1da85ae302","system_id":"levelo_inurba_marseille","lat":43.30553,"lon":5.36713,"is_reserved":false,"is_disabled":false,"rental_uris":{"android":"levelo://app?vid=436225a6-4694-4ff0-bed2-3c1da85ae302","ios":"levelo://app?vid=436225a6-4694-4ff0-bed2-3c1da85ae302"},"vehicle_type_id":"4","last_reported":1732195164,"current_range_meters":38800,"station_id":"ce4bgrp2rcd13ifvqc9g","pricing_plan_id":"cebpf4jnsgd1na2vs0mg"},{"bike_id":"eb61e3d8-1e2a-446b-9a20-9a30543a99d8","system_id":"levelo_inurba_marseille","lat":43.27058,"lon":5.4026,"is_reserved":false,"is_disabled":false,"rental_uris":{"android":"levelo://app?vid=eb61e3d8-1e2a-446b-9a20-9a30543a99d8","ios":"levelo://app?vid=eb61e3d8-1e2a-446b-9a20-9a30543a99d8"},"vehicle_type_id":"4","last_reported":1732195164,"current_range_meters":36800,"station_id":"ce4bhk92rcd13ifvqgc0","pricing_plan_id":"cebpf4jnsgd1na2vs0mg"},{"bike_id":"552ae1f9-34eb-4d70-a19b-3616d3661778","system_id":"levelo_inurba_marseille","lat":43.33723,"lon":5.39173,"is_reserved":false,"is_disabled":false,"rental_uris":{"android":"levelo://app?vid=552ae1f9-34eb-4d70-a19b-3616d3661778","ios":"levelo://app?vid=552ae1f9-34eb-4d70-a19b-3616d3661778"},"vehicle_type_id":"4","last_reported":1732195164,"current_range_meters":29600,"station_id":"ce4bhr92rcd13ifvqhsg","pricing_plan_id":"cebpf4jnsgd1na2vs0mg"},{"bike_id":"1bf91585-1655-41ca-aa3f-ff0ba6e8cc52","system_id":"levelo_inurba_marseille","lat":43.33027,"lon":5.3904,"is_reserved":false,"is_disabled":false,"rental_uris":{"android":"levelo://app?vid=1bf91585-1655-41ca-aa3f-ff0ba6e8cc52","ios":"levelo://app?vid=1bf91585-1655-41ca-aa3f-ff0ba6e8cc52"},"vehicle_type_id":"4","last_reported":1732195164,"current_range_meters":38800,"station_id":"ce4bhr92rcd13ifvqhrg","pricing_plan_id":"cebpf4jnsgd1na2vs0mg"},{"bike_id":"c7918193-fa65-4835-86b6-87f36f654569","system_id":"levelo_inurba_marseille","lat":43.2315,"lon":5.43725,"is_reserved":false,"is_disabled":false,"rental_uris":{"android":"levelo://app?vid=c7918193-fa65-4835-86b6-87f36f654569","ios":"levelo://app?vid=c7918193-fa65-4835-86b6-87f36f654569"},"vehicle_type_id":"4","last_reported":1732195164,"current_range_meters":24000,"station_id":"ce4bhmp2rcd13ifvqgog","pricing_plan_id":"cebpf4jnsgd1na2vs0mg"},{"bike_id":"4ca7ef37-5bdd-48b4-98c9-6f8d4b3df702","system_id":"levelo_inurba_marseille","lat":43.23185,"lon":5.39978,"is_reserved":false,"is_disabled":false,"rental_uris":{"android":"levelo://app?vid=4ca7ef37-5bdd-48b4-98c9-6f8d4b3df702","ios":"levelo://app?vid=4ca7ef37-5bdd-48b4-98c9-6f8d4b3df702"},"vehicle_type_id":"4","last_reported":1732195164,"current_range_meters":10800,"station_id":"ce4bhn12rcd13ifvqgqg","pricing_plan_id":"cebpf4jnsgd1na2vs0mg"},{"bike_id":"7a942108-16ea-4f98-9d80-82c238759071","system_id":"levelo_inurba_marseille","lat":43.29571,"lon":5.39968,"is_reserved":false,"is_disabled":true,"rental_uris":{"android":"levelo://app?vid=7a942108-16ea-4f98-9d80-82c238759071","ios":"levelo://app?vid=7a942108-16ea-4f98-9d80-82c238759071"},"vehicle_type_id":"4","last_reported":1732195164,"current_range_meters":33600,"station_id":"ce4bh312rcd13ifvqdj0","pricing_plan_id":"cebpf4jnsgd1na2vs0mg"},{"bike_id":"028e5427-36e2-49e1-b3db-260058fffb58","system_id":"levelo_inurba_marseille","lat":43.25574,"lon":5.38231,"is_reserved":false,"is_disabled":false,"rental_uris":{"android":"levelo://app?vid=028e5427-36e2-49e1-b3db-260058fffb58","ios":"levelo://app?vid=028e5427-36e2-49e1-b3db-260058fffb58"},"vehicle_type_id":"4","last_reported":1732195164,"current_range_meters":23200,"station_id":"ce4bhih2rcd13ifvqfs0","pricing_plan_id":"cebpf4jnsgd1na2vs0mg"},{"bike_id":"8ab13483-81de-496c-b0f9-7476ee7c1375","system_id":"levelo_inurba_marseille","lat":43.29852,"lon":5.36267,"is_reserved":false,"is_disabled":false,"rental_uris":{"android":"levelo://app?vid=8ab13483-81de-496c-b0f9-7476ee7c1375","ios":"levelo://app?vid=8ab13483-81de-496c-b0f9-7476ee7c1375"},"vehicle_type_id":"4","last_reported":1732195164,"current_range_meters":30000,"station_id":"ce4bgpp2rcd13ifvqc3g","pricing_plan_id":"cebpf4jnsgd1na2vs0mg"},{"bike_id":"63040a37-b56a-40a0-9558-af960131330e","system_id":"levelo_inurba_marseille","lat":43.34143,"lon":5.40901,"is_reserved":false,"is_disabled":false,"rental_uris":{"android":"levelo://app?vid=63040a37-b56a-40a0-9558-af960131330e","ios":"levelo://app?vid=63040a37-b56a-40a0-9558-af960131330e"},"vehicle_type_id":"4","last_reported":1732195164,"current_range_meters":16800,"station_id":"ce4bhqh2rcd13ifvqhlg","pricing_plan_id":"cebpf4jnsgd1na2vs0mg"},{"bike_id":"7e17a81f-3b24-49e1-a5fc-e88f9462d78d","system_id":"levelo_inurba_marseille","lat":43.284137,"lon":5.409297,"is_reserved":false,"is_disabled":false,"rental_uris":{"android":"levelo://app?vid=7e17a81f-3b24-49e1-a5fc-e88f9462d78d","ios":"levelo://app?vid=7e17a81f-3b24-49e1-a5fc-e88f9462d78d"},"vehicle_type_id":"4","last_reported":1732195164,"current_range_meters":8800,"station_id":"","pricing_plan_id":"cebpf4jnsgd1na2vs0mg"},{"bike_id":"0d5efe48-32bd-461f-be09-c1d5e2d6ef37","system_id":"levelo_inurba_marseille","lat":43.32363,"lon":5.38881,"is_reserved":false,"is_disabled":false,"rental_uris":{"android":"levelo://app?vid=0d5efe48-32bd-461f-be09-c1d5e2d6ef37","ios":"levelo://app?vid=0d5efe48-32bd-461f-be09-c1d5e2d6ef37"},"vehicle_type_id":"4","last_reported":1732195164,"current_range_meters":37600,"station_id":"ce4bhqp2rcd13ifvqhog","pricing_plan_id":"cebpf4jnsgd1na2vs0mg"},{"bike_id":"a5d68f29-503f-4f91-bf1c-d258cf8ea913","system_id":"levelo_inurba_marseille","lat":43.25581,"lon":5.38236,"is_reserved":false,"is_disabled":false,"rental_uris":{"android":"levelo://app?vid=a5d68f29-503f-4f91-bf1c-d258cf8ea913","ios":"levelo://app?vid=a5d68f29-503f-4f91-bf1c-d258cf8ea913"},"vehicle_type_id":"4","last_reported":1732195164,"current_range_meters":37600,"station_id":"ce4bhih2rcd13ifvqfs0","pricing_plan_id":"cebpf4jnsgd1na2vs0mg"},{"bike_id":"31ca2839-f58c-43d8-be59-0565ef89ef7e","system_id":"levelo_inurba_marseille","lat":43.3061,"lon":5.37209,"is_reserved":false,"is_disabled":false,"rental_uris":{"android":"levelo://app?vid=31ca2839-f58c-43d8-be59-0565ef89ef7e","ios":"levelo://app?vid=31ca2839-f58c-43d8-be59-0565ef89ef7e"},"vehicle_type_id":"4","last_reported":1732195164,"current_range_meters":37600,"station_id":"ce4bgqh2rcd13ifvqc4g","pricing_plan_id":"cebpf4jnsgd1na2vs0mg"},{"bike_id":"4c22d997-c814-45b9-8793-31f76b906fcc","system_id":"levelo_inurba_marseille","lat":43.30537,"lon":5.36551,"is_reserved":false,"is_disabled":false,"rental_uris":{"android":"levelo://app?vid=4c22d997-c814-45b9-8793-31f76b906fcc","ios":"levelo://app?vid=4c22d997-c814-45b9-8793-31f76b906fcc"},"vehicle_type_id":"4","last_reported":1732195164,"current_range_meters":19200,"station_id":"ce4bgs12rcd13ifvqcag","pricing_plan_id":"cebpf4jnsgd1na2vs0mg"},{"bike_id":"41b66025-5082-421d-922c-552de41f1f1b","system_id":"levelo_inurba_marseille","lat":43.33763,"lon":5.37358,"is_reserved":false,"is_disabled":false,"rental_uris":{"android":"levelo://app?vid=41b66025-5082-421d-922c-552de41f1f1b","ios":"levelo://app?vid=41b66025-5082-421d-922c-552de41f1f1b"},"vehicle_type_id":"4","last_reported":1732195164,"current_range_meters":28800,"station_id":"","pricing_plan_id":"cebpf4jnsgd1na2vs0mg"},{"bike_id":"b1bf8ce3-72d7-40b1-8813-50ceac3d27ce","system_id":"levelo_inurba_marseille","lat":43.2903,"lon":5.38133,"is_reserved":false,"is_disabled":false,"rental_uris":{"android":"levelo://app?vid=b1bf8ce3-72d7-40b1-8813-50ceac3d27ce","ios":"levelo://app?vid=b1bf8ce3-72d7-40b1-8813-50ceac3d27ce"},"vehicle_type_id":"4","last_reported":1732195164,"current_range_meters":36400,"station_id":"ce4bh4p2rcd13ifvqe1g","pricing_plan_id":"cebpf4jnsgd1na2vs0mg"},{"bike_id":"96edda0d-898a-4c00-9def-9f665371f0a8","system_id":"levelo_inurba_marseille","lat":43.2872,"lon":5.37944,"is_reserved":false,"is_disabled":false,"rental_uris":{"android":"levelo://app?vid=96edda0d-898a-4c00-9def-9f665371f0a8","ios":"levelo://app?vid=96edda0d-898a-4c00-9def-9f665371f0a8"},"vehicle_type_id":"4","last_reported":1732195164,"current_range_meters":22400,"station_id":"ce4bh9p2rcd13ifvqec0","pricing_plan_id":"cebpf4jnsgd1na2vs0mg"},{"bike_id":"89026eea-3ed0-4cfa-8e92-065e8a0fea05","system_id":"levelo_inurba_marseille","lat":43.29527,"lon":5.3855,"is_reserved":false,"is_disabled":false,"rental_uris":{"android":"levelo://app?vid=89026eea-3ed0-4cfa-8e92-065e8a0fea05","ios":"levelo://app?vid=89026eea-3ed0-4cfa-8e92-065e8a0fea05"},"vehicle_type_id":"4","last_reported":1732195164,"current_range_meters":16800,"station_id":"ce4bgih2rcd13ifvqba0","pricing_plan_id":"cebpf4jnsgd1na2vs0mg"},{"bike_id":"209c12fe-52b7-4c55-b43e-bbfbcd7305d8","system_id":"levelo_inurba_marseille","lat":43.34142,"lon":5.40908,"is_reserved":false,"is_disabled":false,"rental_uris":{"android":"levelo://app?vid=209c12fe-52b7-4c55-b43e-bbfbcd7305d8","ios":"levelo://app?vid=209c12fe-52b7-4c55-b43e-bbfbcd7305d8"},"vehicle_type_id":"4","last_reported":1732195164,"current_range_meters":32400,"station_id":"ce4bhqh2rcd13ifvqhlg","pricing_plan_id":"cebpf4jnsgd1na2vs0mg"},{"bike_id":"e092006c-73fc-47d0-9953-16a161a38977","system_id":"levelo_inurba_marseille","lat":43.30193,"lon":5.36613,"is_reserved":false,"is_disabled":false,"rental_uris":{"android":"levelo://app?vid=e092006c-73fc-47d0-9953-16a161a38977","ios":"levelo://app?vid=e092006c-73fc-47d0-9953-16a161a38977"},"vehicle_type_id":"4","last_reported":1732195164,"current_range_meters":24400,"station_id":"ce4bgrh2rcd13ifvqc8g","pricing_plan_id":"cebpf4jnsgd1na2vs0mg"},{"bike_id":"0aeb214c-fde7-45c8-b020-03be17efcbb9","system_id":"levelo_inurba_marseille","lat":43.33028,"lon":5.39041,"is_reserved":false,"is_disabled":false,"rental_uris":{"android":"levelo://app?vid=0aeb214c-fde7-45c8-b020-03be17efcbb9","ios":"levelo://app?vid=0aeb214c-fde7-45c8-b020-03be17efcbb9"},"vehicle_type_id":"4","last_reported":1732195164,"current_range_meters":28800,"station_id":"ce4bhr92rcd13ifvqhrg","pricing_plan_id":"cebpf4jnsgd1na2vs0mg"},{"bike_id":"b8628497-6580-476e-8d5d-93f6290dd463","system_id":"levelo_inurba_marseille","lat":43.29623,"lon":5.37739,"is_reserved":false,"is_disabled":false,"rental_uris":{"android":"levelo://app?vid=b8628497-6580-476e-8d5d-93f6290dd463","ios":"levelo://app?vid=b8628497-6580-476e-8d5d-93f6290dd463"},"vehicle_type_id":"4","last_reported":1732195164,"current_range_meters":22000,"station_id":"ce4bgi92rcd13ifvqb90","pricing_plan_id":"cebpf4jnsgd1na2vs0mg"},{"bike_id":"e4e3495c-9d93-4eff-a4ab-712e0ae01181","system_id":"levelo_inurba_marseille","lat":43.26553,"lon":5.3903,"is_reserved":false,"is_disabled":false,"rental_uris":{"android":"levelo://app?vid=e4e3495c-9d93-4eff-a4ab-712e0ae01181","ios":"levelo://app?vid=e4e3495c-9d93-4eff-a4ab-712e0ae01181"},"vehicle_type_id":"4","last_reported":1732195164,"current_range_meters":2800,"station_id":"ce4bhe12rcd13ifvqf30","pricing_plan_id":"cebpf4jnsgd1na2vs0mg"},{"bike_id":"796b733f-49d0-45e2-becf-a5ec2492cb3c","system_id":"levelo_inurba_marseille","lat":43.25107,"lon":5.40324,"is_reserved":false,"is_disabled":true,"rental_uris":{"android":"levelo://app?vid=796b733f-49d0-45e2-becf-a5ec2492cb3c","ios":"levelo://app?vid=796b733f-49d0-45e2-becf-a5ec2492cb3c"},"vehicle_type_id":"4","last_reported":1732195164,"current_range_meters":400,"station_id":"ce4bhlh2rcd13ifvqgig","pricing_plan_id":"cebpf4jnsgd1na2vs0mg"},{"bike_id":"da7f8bd4-8fd7-46fd-961a-7182e334da8d","system_id":"levelo_inurba_marseille","lat":43.30281,"lon":5.37701,"is_reserved":false,"is_disabled":false,"rental_uris":{"android":"levelo://app?vid=da7f8bd4-8fd7-46fd-961a-7182e334da8d","ios":"levelo://app?vid=da7f8bd4-8fd7-46fd-961a-7182e334da8d"},"vehicle_type_id":"4","last_reported":1732195164,"current_range_meters":38800,"station_id":"ce4bguh2rcd13ifvqcj0","pricing_plan_id":"cebpf4jnsgd1na2vs0mg"},{"bike_id":"ebaae13e-b40e-4ce6-83a4-37b80158d750","system_id":"levelo_inurba_marseille","lat":43.29978,"lon":5.37194,"is_reserved":false,"is_disabled":false,"rental_uris":{"android":"levelo://app?vid=ebaae13e-b40e-4ce6-83a4-37b80158d750","ios":"levelo://app?vid=ebaae13e-b40e-4ce6-83a4-37b80158d750"},"vehicle_type_id":"4","last_reported":1732195164,"current_range_meters":37600,"station_id":"ce4bgr92rcd13ifvqc7g","pricing_plan_id":"cebpf4jnsgd1na2vs0mg"},{"bike_id":"e5951ee3-4a5a-4ebb-b469-096c5188dfa3","system_id":"levelo_inurba_marseille","lat":43.23193,"lon":5.35551,"is_reserved":false,"is_disabled":false,"rental_uris":{"android":"levelo://app?vid=e5951ee3-4a5a-4ebb-b469-096c5188dfa3","ios":"levelo://app?vid=e5951ee3-4a5a-4ebb-b469-096c5188dfa3"},"vehicle_type_id":"4","last_reported":1732195164,"current_range_meters":34000,"station_id":"ce4bhu92rcd13ifvqi70","pricing_plan_id":"cebpf4jnsgd1na2vs0mg"},{"bike_id":"ba8df0b3-9288-423d-9995-b04b81fa6c10","system_id":"levelo_inurba_marseille","lat":43.30952,"lon":5.39039,"is_reserved":false,"is_disabled":false,"rental_uris":{"android":"levelo://app?vid=ba8df0b3-9288-423d-9995-b04b81fa6c10","ios":"levelo://app?vid=ba8df0b3-9288-423d-9995-b04b81fa6c10"},"vehicle_type_id":"4","last_reported":1732195164,"current_range_meters":2800,"station_id":"ce4bgup2rcd13ifvqco0","pricing_plan_id":"cebpf4jnsgd1na2vs0mg"},{"bike_id":"b2f6b9cf-69db-40ab-8230-689c41a2c16c","system_id":"levelo_inurba_marseille","lat":43.24166,"lon":5.36395,"is_reserved":false,"is_disabled":false,"rental_uris":{"android":"levelo://app?vid=b2f6b9cf-69db-40ab-8230-689c41a2c16c","ios":"levelo://app?vid=b2f6b9cf-69db-40ab-8230-689c41a2c16c"},"vehicle_type_id":"4","last_reported":1732195164,"current_range_meters":33200,"station_id":"cpo36qri1sfpv3e86is0","pricing_plan_id":"cebpf4jnsgd1na2vs0mg"},{"bike_id":"58a208f4-fd83-44a4-bf12-9a135848ed36","system_id":"levelo_inurba_marseille","lat":43.33722,"lon":5.39178,"is_reserved":false,"is_disabled":false,"rental_uris":{"android":"levelo://app?vid=58a208f4-fd83-44a4-bf12-9a135848ed36","ios":"levelo://app?vid=58a208f4-fd83-44a4-bf12-9a135848ed36"},"vehicle_type_id":"4","last_reported":1732195164,"current_range_meters":38800,"station_id":"ce4bhr92rcd13ifvqhsg","pricing_plan_id":"cebpf4jnsgd1na2vs0mg"},{"bike_id":"5eae2684-d2c3-41cd-82c9-e155577ef54b","system_id":"levelo_inurba_marseille","lat":43.29019,"lon":5.35619,"is_reserved":false,"is_disabled":false,"rental_uris":{"android":"levelo://app?vid=5eae2684-d2c3-41cd-82c9-e155577ef54b","ios":"levelo://app?vid=5eae2684-d2c3-41cd-82c9-e155577ef54b"},"vehicle_type_id":"4","last_reported":1732195164,"current_range_meters":8000,"station_id":"ce4bhb92rcd13ifvqen0","pricing_plan_id":"cebpf4jnsgd1na2vs0mg"},{"bike_id":"8a0b3bb7-e6ee-41d8-9425-afec6db17651","system_id":"levelo_inurba_marseille","lat":43.29519,"lon":5.39401,"is_reserved":false,"is_disabled":false,"rental_uris":{"android":"levelo://app?vid=8a0b3bb7-e6ee-41d8-9425-afec6db17651","ios":"levelo://app?vid=8a0b3bb7-e6ee-41d8-9425-afec6db17651"},"vehicle_type_id":"4","last_reported":1732195164,"current_range_meters":38800,"station_id":"ce4bh292rcd13ifvqdf0","pricing_plan_id":"cebpf4jnsgd1na2vs0mg"},{"bike_id":"2dc62d2b-79ca-433b-ad6f-17fb4bb3bae5","system_id":"levelo_inurba_marseille","lat":43.24081,"lon":5.3774,"is_reserved":false,"is_disabled":true,"rental_uris":{"android":"levelo://app?vid=2dc62d2b-79ca-433b-ad6f-17fb4bb3bae5","ios":"levelo://app?vid=2dc62d2b-79ca-433b-ad6f-17fb4bb3bae5"},"vehicle_type_id":"4","last_reported":1732195164,"current_range_meters":30000,"station_id":"ce4bhnp2rcd13ifvqgvg","pricing_plan_id":"cebpf4jnsgd1na2vs0mg"},