{"last_updated":1706555102,"ttl":30,"version":"2.2","data":{"bikes":[{"bike_id":"66b3b6e0-4767-4104-a8c9-204bf27e8e2d","system_id":"levelo_inurba_marseille","lat":43.313391,"lon":5.36706,"is_reserved":false,"is_disabled":false,"rental_uris":{"android":"levelo://app?vid=66b3b6e0-4767-4104-a8c9-204bf27e8e2d","ios":"levelo://app?vid=66b3b6e0-4767-4104-a8c9-204bf27e8e2d"},"vehicle_type_id":"4","last_reported":1706555102,"current_range_meters":17600,"station_id":"ce4bgr92rcd13ifvqc6g","pricing_plan_id":"free"},{"bike_id":"e6c7ffd2-4eaa-4ef9-ad7f-169b8c71688e","system_id":"levelo_inurba_marseille","lat":43.313391,"lon":5.36706,"is_reserved":false,"is_disabled":false,"rental_uris":{"android":"levelo://app?vid=e6c7ffd2-4eaa-4ef9-ad7f-169b8c71688e","ios":"levelo://app?vid=e6c7ffd2-4eaa-4ef9-ad7f-169b8c71688e"},"vehicle_type_id":"4","last_reported":1706555102,"current_range_meters":8400,"station_id":"ce4bgr92rcd13ifvqc6g","pricing_plan_id":"free"},{"bike_id":"d5c9f8c6-89a0-48b0-af92-8533199586a7","system_id":"levelo_inurba_marseille","lat":43.309076,"lon":5.368465,"is_reserved":false,"is_disabled":false,"rental_uris":{"android":"levelo://app?vid=d5c9f8c6-89a0-48b0-af92-8533199586a7","ios":"levelo://app?vid=d5c9f8c6-89a0-48b0-af92-8533199586a7"},"vehicle_type_id":"4","last_reported":1706555102,"current_range_meters":11200,"station_id":"ce4bgn92rcd13ifvqbvg","pricing_plan_id":"free"},{"bike_id":"c7c5e295-0036-47cb-958a-cd8d809f9db6","system_id":"levelo_inurba_marseille","lat":43.309076,"lon":5.368465,"is_reserved":false,"is_disabled":false,"rental_uris":{"android":"levelo://app?vid=c7c5e295-0036-47cb-958a-cd8d809f9db6","ios":"levelo://app?vid=c7c5e295-0036-47cb-958a-cd8d809f9db6"},"vehicle_type_id":"4","last_reported":1706555102,"current_range_meters":13200,"station_id":"ce4bgn92rcd13ifvqbvg","pricing_plan_id":"free"},{"bike_id":"c1bda3ae-fbd3-4604-9da6-15403ac2caf7","system_id":"levelo_inurba_marseille","lat":43.31479,"lon":5.37309,"is_reserved":false,"is_disabled":false,"rental_uris":{"android":"levelo://app?vid=c1bda3ae-fbd3-4604-9da6-15403ac2caf7","ios":"levelo://app?vid=c1bda3ae-fbd3-4604-9da6-15403ac2caf7"},"vehicle_type_id":"4","last_reported":1706555102,"current_range_meters":0,"station_id":"ce4bgt12rcd13ifvqcd0","pricing_plan_id":"free"},{"bike_id":"800ba750-69ce-4974-a2e9-99ac35eceb40","system_id":"levelo_inurba_marseille","lat":43.31492,"lon":5.37311,"is_reserved":false,"is_disabled":false,"rental_uris":{"android":"levelo://app?vid=800ba750-69ce-4974-a2e9-99ac35eceb40","ios":"levelo://app?vid=800ba750-69ce-4974-a2e9-99ac35eceb40"},"vehicle_type_id":"4","last_reported":1706555102,"current_range_meters":3600,"station_id":"ce4bgt12rcd13ifvqcd0","pricing_plan_id":"free"},{"bike_id":"12b67795-e658-4fa1-8c61-6dc7a65f0425","system_id":"levelo_inurba_marseille","lat":43.305989,"lon":5.37225,"is_reserved":false,"is_disabled":false,"rental_uris":{"android":"levelo://app?vid=12b67795-e658-4fa1-8c61-6dc7a65f0425","ios":"levelo://app?vid=12b67795-e658-4fa1-8c61-6dc7a65f0425"},"vehicle_type_id":"4","last_reported":1706555102,"current_range_meters":12400,"station_id":"ce4bgqh2rcd13ifvqc4g","pricing_plan_id":"free"},{"bike_id":"67729521-91ce-482e-89d2-f1b57d900451","system_id":"levelo_inurba_marseille","lat":43.305875,"lon":5.37226,"is_reserved":false,"is_disabled":false,"rental_uris":{"android":"levelo://app?vid=67729521-91ce-482e-89d2-f1b57d900451","ios":"levelo://app?vid=67729521-91ce-482e-89d2-f1b57d900451"},"vehicle_type_id":"4","last_reported":1706555102,"current_range_meters":0,"station_id":"ce4bgqh2rcd13ifvqc4g","pricing_plan_id":"free"},{"bike_id":"3e7143e6-9bb8-48ee-a4d3-ecd334eb6c36","system_id":"levelo_inurba_marseille","lat":43.31115,"lon":5.377699,"is_reserved":false,"is_disabled":false,"rental_uris":{"android":"levelo://app?vid=3e7143e6-9bb8-48ee-a4d3-ecd334eb6c36","ios":"levelo://app?vid=3e7143e6-9bb8-48ee-a4d3-ecd334eb6c36"},"vehicle_type_id":"4","last_reported":1706555102,"current_range_meters":0,"station_id":"ce4bgt92rcd13ifvqcg0","pricing_plan_id":"free"},{"bike_id":"d3f31ab8-054b-4b16-9d12-a2cea84be87d","system_id":"levelo_inurba_marseille","lat":43.31119,"lon":5.37773,"is_reserved":false,"is_disabled":false,"rental_uris":{"android":"levelo://app?vid=d3f31ab8-054b-4b16-9d12-a2cea84be87d","ios":"levelo://app?vid=d3f31ab8-054b-4b16-9d12-a2cea84be87d"},"vehicle_type_id":"4","last_reported":1706555102,"current_range_meters":14800,"station_id":"ce4bgt92rcd13ifvqcg0","pricing_plan_id":"free"},{"bike_id":"bd6fd7d1-826b-4c4c-9a10-e5fe5ec671f3","system_id":"levelo_inurba_marseille","lat":43.311131,"lon":5.377651,"is_reserved":false,"is_disabled":false,"rental_uris":{"android":"levelo://app?vid=bd6fd7d1-826b-4c4c-9a10-e5fe5ec671f3","ios":"levelo://app?vid=bd6fd7d1-826b-4c4c-9a10-e5fe5ec671f3"},"vehicle_type_id":"4","last_reported":1706555102,"current_range_meters":13200,"station_id":"ce4bgt92rcd13ifvqcg0","pricing_plan_id":"free"},{"bike_id":"f893163e-124f-4989-8b9a-9fe6ce7ccd02","system_id":"levelo_inurba_marseille","lat":43.311131,"lon":5.377651,"is_reserved":false,"is_disabled":false,"rental_uris":{"android":"levelo://app?vid=f893163e-124f-4989-8b9a-9fe6ce7ccd02","ios":"levelo://app?vid=f893163e-124f-4989-8b9a-9fe6ce7ccd02"},"vehicle_type_id":"4","last_reported":1706555102,"current_range_meters":12800,"station_id":"ce4bgt92rcd13ifvqcg0","pricing_plan_id":"free"},{"bike_id":"9f22572f-6f75-40e5-bcd2-bf04a3a6e156","system_id":"levelo_inurba_marseille","lat":43.307945,"lon":5.376487,"is_reserved":false,"is_disabled":false,"rental_uris":{"android":"levelo://app?vid=9f22572f-6f75-40e5-bcd2-bf04a3a6e156","ios":"levelo://app?vid=9f22572f-6f75-40e5-bcd2-bf04a3a6e156"},"vehicle_type_id":"4","last_reported":1706555102,"current_range_meters":4800,"station_id":"ce4bgv92rcd13ifvqcq0","pricing_plan_id":"free"},{"bike_id":"494d44a0-de2d-4c2d-a1da-9a5d00123fff","system_id":"levelo_inurba_marseille","lat":43.307945,"lon":5.376487,"is_reserved":false,"is_disabled":false,"rental_uris":{"android":"levelo://app?vid=494d44a0-de2d-4c2d-a1da-9a5d00123fff","ios":"levelo://app?vid=494d44a0-de2d-4c2d-a1da-9a5d00123fff"},"vehicle_type_id":"4","last_reported":1706555102,"current_range_meters":1600,"station_id":"ce4bgv92rcd13ifvqcq0","pricing_plan_id":"free"},{"bike_id":"fa7fc8ff-bb1a-4210-aabf-edfd43824bee","system_id":"levelo_inurba_marseille","lat":43.317075,"lon":5.377367,"is_reserved":false,"is_disabled":false,"rental_uris":{"android":"levelo://app?vid=fa7fc8ff-bb1a-4210-aabf-edfd43824bee","ios":"levelo://app?vid=fa7fc8ff-bb1a-4210-aabf-edfd43824bee"},"vehicle_type_id":"4","last_reported":1706555102,"current_range_meters":2800,"station_id":"ce4bgth2rcd13ifvqch0","pricing_plan_id":"free"},{"bike_id":"d8e887b2-d33c-4c73-8afe-c3f42b6cb5bd","system_id":"levelo_inurba_marseille","lat":43.30304,"lon":5.368987,"is_reserved":false,"is_disabled":false,"rental_uris":{"android":"levelo://app?vid=d8e887b2-d33c-4c73-8afe-c3f42b6cb5bd","ios":"levelo://app?vid=d8e887b2-d33c-4c73-8afe-c3f42b6cb5bd"},"vehicle_type_id":"4","last_reported":1706555102,"current_range_meters":16800,"station_id":"ce4bgqh2rcd13ifvqc5g","pricing_plan_id":"free"},{"bike_id":"b83daeb9-a39c-4884-86e2-16a37c651f7f","system_id":"levelo_inurba_marseille","lat":43.319969,"lon":5.37619,"is_reserved":false,"is_disabled":false,"rental_uris":{"android":"levelo://app?vid=b83daeb9-a39c-4884-86e2-16a37c651f7f","ios":"levelo://app?vid=b83daeb9-a39c-4884-86e2-16a37c651f7f"},"vehicle_type_id":"4","last_reported":1706555102,"current_range_meters":400,"station_id":"","pricing_plan_id":"free"},{"bike_id":"78331664-9b25-472a-85e9-f61051304054","system_id":"levelo_inurba_marseille","lat":43.315293,"lon":5.380349,"is_reserved":false,"is_disabled":false,"rental_uris":{"android":"levelo://app?vid=78331664-9b25-472a-85e9-f61051304054","ios":"levelo://app?vid=78331664-9b25-472a-85e9-f61051304054"},"vehicle_type_id":"4","last_reported":1706555102,"current_range_meters":5200,"station_id":"ce4bhsp2rcd13ifvqi50","pricing_plan_id":"free"},{"bike_id":"dd11690c-1bdc-496d-8c2b-becd0f85a4b6","system_id":"levelo_inurba_marseille","lat":43.315293,"lon":5.380349,"is_reserved":false,"is_disabled":false,"rental_uris":{"android":"levelo://app?vid=dd11690c-1bdc-496d-8c2b-becd0f85a4b6","ios":"levelo://app?vid=dd11690c-1bdc-496d-8c2b-becd0f85a4b6"},"vehicle_type_id":"4","last_reported":1706555102,"current_range_meters":12800,"station_id":"ce4bhsp2rcd13ifvqi50","pricing_plan_id":"free"},{"bike_id":"cc61af7d-b6ad-4682-8953-bb29eb41b7f0","system_id":"levelo_inurba_marseille","lat":43.30428,"lon":5.377351,"is_reserved":false,"is_disabled":false,"rental_uris":{"android":"levelo://app?vid=cc61af7d-b6ad-4682-8953-bb29eb41b7f0","ios":"levelo://app?vid=cc61af7d-b6ad-4682-8953-bb29eb41b7f0"},"vehicle_type_id":"4","last_reported":1706555102,"current_range_meters":0,"station_id":"","pricing_plan_id":"free"},{"bike_id":"f461ed2a-3f6b-4131-9152-c47c99bdfb3f","system_id":"levelo_inurba_marseille","lat":43.304606,"lon":5.379026,"is_reserved":false,"is_disabled":false,"rental_uris":{"android":"levelo://app?vid=f461ed2a-3f6b-4131-9152-c47c99bdfb3f","ios":"levelo://app?vid=f461ed2a-3f6b-4131-9152-c47c99bdfb3f"},"vehicle_type_id":"4","last_reported":1706555102,"current_range_meters":20400,"station_id":"ce4bgup2rcd13ifvqcn0","pricing_plan_id":"free"},{"bike_id":"11c30585-a193-4157-8eb9-d99a32e94516","system_id":"levelo_inurba_marseille","lat":43.324771,"lon":5.36557,"is_reserved":false,"is_disabled":false,"rental_uris":{"android":"levelo://app?vid=11c30585-a193-4157-8eb9-d99a32e94516","ios":"levelo://app?vid=11c30585-a193-4157-8eb9-d99a32e94516"},"vehicle_type_id":"4","last_reported":1706555102,"current_range_meters":19200,"station_id":"ce4bhs12rcd13ifvqhvg","pricing_plan_id":"free"},{"bike_id":"4c1d912b-8425-4b28-bcd4-0691a1724560","system_id":"levelo_inurba_marseille","lat":43.324853,"lon":5.365776,"is_reserved":false,"is_disabled":false,"rental_uris":{"android":"levelo://app?vid=4c1d912b-8425-4b28-bcd4-0691a1724560","ios":"levelo://app?vid=4c1d912b-8425-4b28-bcd4-0691a1724560"},"vehicle_type_id":"4","last_reported":1706555102,"current_range_meters":27600,"station_id":"ce4bhs12rcd13ifvqhvg","pricing_plan_id":"free"},{"bike_id":"dc00bdf8-dc57-4b02-8d44-8ea4906debe3","system_id":"levelo_inurba_marseille","lat":43.324771,"lon":5.36557,"is_reserved":false,"is_disabled":false,"rental_uris":{"android":"levelo://app?vid=dc00bdf8-dc57-4b02-8d44-8ea4906debe3","ios":"levelo://app?vid=dc00bdf8-dc57-4b02-8d44-8ea4906debe3"},"vehicle_type_id":"4","last_reported":1706555102,"current_range_meters":12400,"station_id":"ce4bhs12rcd13ifvqhvg","pricing_plan_id":"free"},{"bike_id":"13bd44b9-8ecb-46da-981f-fe222ffce708","system_id":"levelo_inurba_marseille","lat":43.324771,"lon":5.36557,"is_reserved":false,"is_disabled":false,"rental_uris":{"android":"levelo://app?vid=13bd44b9-8ecb-46da-981f-fe222ffce708","ios":"levelo://app?vid=13bd44b9-8ecb-46da-981f-fe222ffce708"},"vehicle_type_id":"4","last_reported":1706555102,"current_range_meters":12800,"station_id":"ce4bhs12rcd13ifvqhvg","pricing_plan_id":"free"},{"bike_id":"2d40c143-6cb5-4df6-a200-396289dcd0f5","system_id":"levelo_inurba_marseille","lat":43.324771,"lon":5.36557,"is_reserved":false,"is_disabled":false,"rental_uris":{"android":"levelo://app?vid=2d40c143-6cb5-4df6-a200-396289dcd0f5","ios":"levelo://app?vid=2d40c143-6cb5-4df6-a200-396289dcd0f5"},"vehicle_type_id":"4","last_reported":1706555102,"current_range_meters":2800,"station_id":"ce4bhs12rcd13ifvqhvg","pricing_plan_id":"free"},{"bike_id":"96bada0b-1fa9-4706-87e9-8f67e261e440","system_id":"levelo_inurba_marseille","lat":43.324771,"lon":5.36557,"is_reserved":false,"is_disabled":false,"rental_uris":{"android":"levelo://app?vid=96bada0b-1fa9-4706-87e9-8f67e261e440","ios":"levelo://app?vid=96bada0b-1fa9-4706-87e9-8f67e261e440"},"vehicle_type_id":"4","last_reported":1706555102,"current_range_meters":24000,"station_id":"ce4bhs12rcd13ifvqhvg","pricing_plan_id":"free"},{"bike_id":"b4f5dd9b-a47f-4863-a832-41e79edd4459","system_id":"levelo_inurba_marseille","lat":43.3028,"lon":5.37701,"is_reserved":false,"is_disabled":false,"rental_uris":{"android":"levelo://app?vid=b4f5dd9b-a47f-4863-a832-41e79edd4459","ios":"levelo://app?vid=b4f5dd9b-a47f-4863-a832-41e79edd4459"},"vehicle_type_id":"4","last_reported":1706555102,"current_range_meters":10000,"station_id":"ce4bguh2rcd13ifvqcj0","pricing_plan_id":"free"},{"bike_id":"dd6b7008-c30f-4316-8921-b5028f9d3f38","system_id":"levelo_inurba_marseille","lat":43.319935,"lon":5.381699,"is_reserved":false,"is_disabled":false,"rental_uris":{"android":"levelo://app?vid=dd6b7008-c30f-4316-8921-b5028f9d3f38","ios":"levelo://app?vid=dd6b7008-c30f-4316-8921-b5028f9d3f38"},"vehicle_type_id":"4","last_reported":1706555102,"current_range_meters":21200,"station_id":"ce4bhr12rcd13ifvqhpg","pricing_plan_id":"free"},{"bike_id":"0ca84510-6630-47d1-867a-145dbc99d2a1","system_id":"levelo_inurba_marseille","lat":43.319935,"lon":5.381699,"is_reserved":false,"is_disabled":false,"rental_uris":{"android":"levelo://app?vid=0ca84510-6630-47d1-867a-145dbc99d2a1","ios":"levelo://app?vid=0ca84510-6630-47d1-867a-145dbc99d2a1"},"vehicle_type_id":"4","last_reported":1706555102,"current_range_meters":21200,"station_id":"ce4bhr12rcd13ifvqhpg","pricing_plan_id":"free"},{"bike_id":"a6345780-30db-47f2-acfb-6adc1facc2d6","system_id":"levelo_inurba_marseille","lat":43.319935,"lon":5.381699,"is_reserved":false,"is_disabled":false,"rental_uris":{"android":"levelo://app?vid=a6345780-30db-47f2-acfb-6adc1facc2d6","ios":"levelo://app?vid=a6345780-30db-47f2-acfb-6adc1facc2d6"},"vehicle_type_id":"4","last_reported":1706555102,"current_range_meters":2000,"station_id":"ce4bhr12rcd13ifvqhpg","pricing_plan_id":"free"},{"bike_id":"bb929bd9-481f-47ef-b3a2-06363540c0cc","system_id":"levelo_inurba_marseille","lat":43.319935,"lon":5.381699,"is_reserved":false,"is_disabled":false,"rental_uris":{"android":"levelo://app?vid=bb929bd9-481f-47ef-b3a2-06363540c0cc","ios":"levelo://app?vid=bb929bd9-481f-47ef-b3a2-06363540c0cc"},"vehicle_type_id":"4","last_reported":1706555102,"current_range_meters":5600,"station_id":"ce4bhr12rcd13ifvqhpg","pricing_plan_id":"free"},{"bike_id":"62359dd4-e5a2-43d3-8c03-a9073c8bb30e","system_id":"levelo_inurba_marseille","lat":43.314811,"lon":5.373103,"is_reserved":false,"is_disabled":false,"rental_uris":{"android":"levelo://app?vid=62359dd4-e5a2-43d3-8c03-a9073c8bb30e","ios":"levelo://app?vid=62359dd4-e5a2-43d3-8c03-a9073c8bb30e"},"vehicle_type_id":"4","last_reported":1706555102,"current_range_meters":17200,"station_id":"ce4bgt12rcd13ifvqcd0","pricing_plan_id":"free"},{"bike_id":"e163d0f3-cac3-48a6-9514-1f57ae24562b","system_id":"levelo_inurba_marseille","lat":43.319935,"lon":5.381699,"is_reserved":false,"is_disabled":false,"rental_uris":{"android":"levelo://app?vid=e163d0f3-cac3-48a6-9514-1f57ae24562b","ios":"levelo://app?vid=e163d0f3-cac3-48a6-9514-1f57ae24562b"},"vehicle_type_id":"4","last_reported":1706555102,"current_range_meters":19600,"station_id":"ce4bhr12rcd13ifvqhpg","pricing_plan_id":"free"},{"bike_id":"bcff8e8c-f51f-47bc-95e6-f6d6da3e1a3a","system_id":"levelo_inurba_marseille","lat":43.313571,"lon":5.384829,"is_reserved":false,"is_disabled":false,"rental_uris":{"android":"levelo://app?vid=bcff8e8c-f51f-47bc-95e6-f6d6da3e1a3a","ios":"levelo://app?vid=bcff8e8c-f51f-47bc-95e6-f6d6da3e1a3a"},"vehicle_type_id":"4","last_reported":1706555102,"current_range_meters":7200,"station_id":"ce4bgt92rcd13ifvqcf0","pricing_plan_id":"free"},{"bike_id":"e655e91b-10df-46e7-b5f6-feb56137cc3a","system_id":"levelo_inurba_marseille","lat":43.313571,"lon":5.384829,"is_reserved":false,"is_disabled":false,"rental_uris":{"android":"levelo://app?vid=e655e91b-10df-46e7-b5f6-feb56137cc3a","ios":"levelo://app?vid=e655e91b-10df-46e7-b5f6-feb56137cc3a"},"vehicle_type_id":"4","last_reported":1706555102,"current_range_meters":25200,"station_id":"ce4bgt92rcd13ifvqcf0","pricing_plan_id":"free"},{"bike_id":"bb1cfbca-21e7-43c8-86c9-6de6edc257dd","system_id":"levelo_inurba_marseille","lat":43.313571,"lon":5.384829,"is_reserved":false,"is_disabled":false,"rental_uris":{"android":"levelo://app?vid=bb1cfbca-21e7-43c8-86c9-6de6edc257dd","ios":"levelo://app?vid=bb1cfbca-21e7-43c8-86c9-6de6edc257dd"},"vehicle_type_id":"4","last_reported":1706555102,"current_range_meters":20000,"station_id":"ce4bgt92rcd13ifvqcf0","pricing_plan_id":"free"},{"bike_id":"89c84ddc-d0f7-4fa9-b5fb-cf3c79c1de46","system_id":"levelo_inurba_marseille","lat":43.313571,"lon":5.384829,"is_reserved":false,"is_disabled":false,"rental_uris":{"android":"levelo://app?vid=89c84ddc-d0f7-4fa9-b5fb-cf3c79c1de46","ios":"levelo://app?vid=89c84ddc-d0f7-4fa9-b5fb-cf3c79c1de46"},"vehicle_type_id":"4","last_reported":1706555102,"current_range_meters":0,"station_id":"ce4bgt92rcd13ifvqcf0","pricing_plan_id":"free"},{"bike_id":"a0a55396-692c-4805-bb09-fd3a79d9db74","system_id":"levelo_inurba_marseille","lat":43.31366,"lon":5.38492,"is_reserved":false,"is_disabled":false,"rental_uris":{"android":"levelo://app?vid=a0a55396-692c-4805-bb09-fd3a79d9db74","ios":"levelo://app?vid=a0a55396-692c-4805-bb09-fd3a79d9db74"},"vehicle_type_id":"4","last_reported":1706555102,"current_range_meters":13600,"station_id":"ce4bgt92rcd13ifvqcf0","pricing_plan_id":"free"},{"bike_id":"9d1d2d94-0d30-438d-b517-be5d38ed1194","system_id":"levelo_inurba_marseille","lat":43.299209,"lon":5.365547,"is_reserved":false,"is_disabled":false,"rental_uris":{"android":"levelo://app?vid=9d1d2d94-0d30-438d-b517-be5d38ed1194","ios":"levelo://app?vid=9d1d2d94-0d30-438d-b517-be5d38ed1194"},"vehicle_type_id":"4","last_reported":1706555102,"current_range_meters":2000,"station_id":"ce4bgm92rcd13ifvqbr0","pricing_plan_id":"free"},{"bike_id":"90af10d2-7f4f-4866-a073-0f8d9da53454","system_id":"levelo_inurba_marseille","lat":43.299222,"lon":5.365554,"is_reserved":false,"is_disabled":false,"rental_uris":{"android":"levelo://app?vid=90af10d2-7f4f-4866-a073-0f8d9da53454","ios":"levelo://app?vid=90af10d2-7f4f-4866-a073-0f8d9da53454"},"vehicle_type_id":"4","last_reported":1706555102,"current_range_meters":6400,"station_id":"ce4bgm92rcd13ifvqbr0","pricing_plan_id":"free"},{"bike_id":"c21a1780-117f-4fdc-8b93-977ffa817f25","system_id":"levelo_inurba_marseille","lat":43.305364,"lon":5.384119,"is_reserved":false,"is_disabled":false,"rental_uris":{"android":"levelo://app?vid=c21a1780-117f-4fdc-8b93-977ffa817f25","ios":"levelo://app?vid=c21a1780-117f-4fdc-8b93-977ffa817f25"},"vehicle_type_id":"4","last_reported":1706555102,"current_range_meters":27600,"station_id":"ce4bgg92rcd13ifvqb30","pricing_plan_id":"free"},{"bike_id":"6a8fea50-2ce2-484b-8a83-03133ada392d","system_id":"levelo_inurba_marseille","lat":43.305364,"lon":5.384119,"is_reserved":false,"is_disabled":false,"rental_uris":{"android":"levelo://app?vid=6a8fea50-2ce2-484b-8a83-03133ada392d","ios":"levelo://app?vid=6a8fea50-2ce2-484b-8a83-03133ada392d"},"vehicle_type_id":"4","last_reported":1706555102,"current_range_meters":2800,"station_id":"ce4bgg92rcd13ifvqb30","pricing_plan_id":"free"},{"bike_id":"42086f5e-77ac-48d7-845b-12029625e110","system_id":"levelo_inurba_marseille","lat":43.298433,"lon":5.362774,"is_reserved":false,"is_disabled":false,"rental_uris":{"android":"levelo://app?vid=42086f5e-77ac-48d7-845b-12029625e110","ios":"levelo://app?vid=42086f5e-77ac-48d7-845b-12029625e110"},"vehicle_type_id":"4","last_reported":1706555102,"current_range_meters":22000,"station_id":"ce4bgpp2rcd13ifvqc3g","pricing_plan_id":"free"},{"bike_id":"1ea1df20-ea84-4ece-8b9f-42e7d69ab281","system_id":"levelo_inurba_marseille","lat":43.298433,"lon":5.362774,"is_reserved":false,"is_disabled":false,"rental_uris":{"android":"levelo://app?vid=1ea1df20-ea84-4ece-8b9f-42e7d69ab281","ios":"levelo://app?vid=1ea1df20-ea84-4ece-8b9f-42e7d69ab281"},"vehicle_type_id":"4","last_reported":1706555102,"current_range_meters":6400,"station_id":"ce4bgpp2rcd13ifvqc3g","pricing_plan_id":"free"},{"bike_id":"c15cea4c-2046-40dd-bb9f-c27aa41028eb","system_id":"levelo_inurba_marseille","lat":43.298433,"lon":5.362774,"is_reserved":false,"is_disabled":false,"rental_uris":{"android":"levelo://app?vid=c15cea4c-2046-40dd-bb9f-c27aa41028eb","ios":"levelo://app?vid=c15cea4c-2046-40dd-bb9f-c27aa41028eb"},"vehicle_type_id":"4","last_reported":1706555102,"current_range_meters":2000,"station_id":"ce4bgpp2rcd13ifvqc3g","pricing_plan_id":"free"},{"bike_id":"e88ecf03-45fd-4093-989a-5cf308bb5698","system_id":"levelo_inurba_marseille","lat":43.298433,"lon":5.362774,"is_reserved":false,"is_disabled":false,"rental_uris":{"android":"levelo://app?vid=e88ecf03-45fd-4093-989a-5cf308bb5698","ios":"levelo://app?vid=e88ecf03-45fd-4093-989a-5cf308bb5698"},"vehicle_type_id":"4","last_reported":1706555102,"current_range_meters":23200,"station_id":"ce4bgpp2rcd13ifvqc3g","pricing_plan_id":"free"},{"bike_id":"c9975522-a47f-421d-82d9-4a67b7a42740","system_id":"levelo_inurba_marseille","lat":43.298433,"lon":5.362774,"is_reserved":false,"is_disabled":false,"rental_uris":{"android":"levelo://app?vid=c9975522-a47f-421d-82d9-4a67b7a42740","ios":"levelo://app?vid=c9975522-a47f-421d-82d9-4a67b7a42740"},"vehicle_type_id":"4","last_reported":1706555102,"current_range_meters":400,"station_id":"ce4bgpp2rcd13ifvqc3g","pricing_plan_id":"free"},{"bike_id":"6e57927d-33c6-4b4e-b43d-05a8e97676cb","system_id":"levelo_inurba_marseille","lat":43.298433,"lon":5.362774,"is_reserved":false,"is_disabled":false,"rental_uris":{"android":"levelo://app?vid=6e57927d-33c6-4b4e-b43d-05a8e97676cb","ios":"levelo://app?vid=6e57927d-33c6-4b4e-b43d-05a8e97676cb"},"vehicle_type_id":"4","last_reported":1706555102,"current_range_meters":10400,"station_id":"ce4bgpp2rcd13ifvqc3g","pricing_plan_id":"free"},{"bike_id":"0f204089-8036-41aa-8154-73e73ef85fae","system_id":"levelo_inurba_marseille","lat":43.31165,"lon":5.38716,"is_reserved":false,"is_disabled":false,"rental_uris":{"android":"levelo://app?vid=0f204089-8036-41aa-8154-73e73ef85fae","ios":"levelo://app?vid=0f204089-8036-41aa-8154-73e73ef85fae"},"vehicle_type_id":"4","last_reported":1706555102,"current_range_meters":0,"station_id":"ce4bgv12rcd13ifvqcp0","pricing_plan_id":"free"},{"bike_id":"bbfd2fe8-5ab8-4046-a597-96677d792067","system_id":"levelo_inurba_marseille","lat":43.311696,"lon":5.387168,"is_reserved":false,"is_disabled":false,"rental_uris":{"android":"levelo://app?vid=bbfd2fe8-5ab8-4046-a597-96677d792067","ios":"levelo://app?vid=bbfd2fe8-5ab8-4046-a597-96677d792067"},"vehicle_type_id":"4","last_reported":1706555102,"current_range_meters":30800,"station_id":"ce4bgv12rcd13ifvqcp0","pricing_plan_id":"free"},{"bike_id":"bf6d7d92-c6fb-483b-962e-c72bfff71072","system_id":"levelo_inurba_marseille","lat":43.3117,"lon":5.38717,"is_reserved":false,"is_disabled":false,"rental_uris":{"android":"levelo://app?vid=bf6d7d92-c6fb-483b-962e-c72bfff71072","ios":"levelo://app?vid=bf6d7d92-c6fb-483b-962e-c72bfff71072"},"vehicle_type_id":"4","last_reported":1706555102,"current_range_meters":17200,"station_id":"ce4bgv12rcd13ifvqcp0","pricing_plan_id":"free"},{"bike_id":"11276585-f17b-4b0c-9778-7880d29226f1","system_id":"levelo_inurba_marseille","lat":43.3117,"lon":5.38722,"is_reserved":false,"is_disabled":false,"rental_uris":{"android":"levelo://app?vid=11276585-f17b-4b0c-9778-7880d29226f1","ios":"levelo://app?vid=11276585-f17b-4b0c-9778-7880d29226f1"},"vehicle_type_id":"4","last_reported":1706555102,"current_range_meters":24400,"station_id":"ce4bgv12rcd13ifvqcp0","pricing_plan_id":"free"},{"bike_id":"52c0ddbb-c50b-44be-820a-25591618067a","system_id":"levelo_inurba_marseille","lat":43.311875,"lon":5.387284,"is_reserved":false,"is_disabled":false,"rental_uris":{"android":"levelo://app?vid=52c0ddbb-c50b-44be-820a-25591618067a","ios":"levelo://app?vid=52c0ddbb-c50b-44be-820a-25591618067a"},"vehicle_type_id":"4","last_reported":1706555102,"current_range_meters":0,"station_id":"ce4bgv12rcd13ifvqcp0","pricing_plan_id":"free"},{"bike_id":"ecc16a4e-aa68-43b2-a249-41326e74d1fd","system_id":"levelo_inurba_marseille","lat":43.311722,"lon":5.387247,"is_reserved":false,"is_disabled":false,"rental_uris":{"android":"levelo://app?vid=ecc16a4e-aa68-43b2-a249-41326e74d1fd","ios":"levelo://app?vid=ecc16a4e-aa68-43b2-a249-41326e74d1fd"},"vehicle_type_id":"4","last_reported":1706555102,"current_range_meters":26800,"station_id":"ce4bgv12rcd13ifvqcp0","pricing_plan_id":"free"},{"bike_id":"b1f20554-a69e-4b47-8cbd-a32dbe8662f3","system_id":"levelo_inurba_marseille","lat":43.311722,"lon":5.387247,"is_reserved":false,"is_disabled":false,"rental_uris":{"android":"levelo://app?vid=b1f20554-a69e-4b47-8cbd-a32dbe8662f3","ios":"levelo://app?vid=b1f20554-a69e-4b47-8cbd-a32dbe8662f3"},"vehicle_type_id":"4","last_reported":1706555102,"current_range_meters":4400,"station_id":"ce4bgv12rcd13ifvqcp0","pricing_plan_id":"free"},{"bike_id":"e1539f0d-02e3-46ca-8fd2-b115fd55a782","system_id":"levelo_inurba_marseille","lat":43.322872,"lon":5.382756,"is_reserved":false,"is_disabled":false,"rental_uris":{"android":"levelo://app?vid=e1539f0d-02e3-46ca-8fd2-b115fd55a782","ios":"levelo://app?vid=e1539f0d-02e3-46ca-8fd2-b115fd55a782"},"vehicle_type_id":"4","last_reported":1706555102,"current_range_meters":19200,"station_id":"ce4bhr12rcd13ifvqhqg","pricing_plan_id":"free"},{"bike_id":"792c74ed-b81a-4b41-8359-1eefda119ec3","system_id":"levelo_inurba_marseille","lat":43.322872,"lon":5.382756,"is_reserved":false,"is_disabled":false,"rental_uris":{"android":"levelo://app?vid=792c74ed-b81a-4b41-8359-1eefda119ec3","ios":"levelo://app?vid=792c74ed-b81a-4b41-8359-1eefda119ec3"},"vehicle_type_id":"4","last_reported":1706555102,"current_range_meters":4800,"station_id":"ce4bhr12rcd13ifvqhqg","pricing_plan_id":"free"},{"bike_id":"09ec5261-6dc4-4f45-a640-bac2ae33bdc0","system_id":"levelo_inurba_marseille","lat":43.322872,"lon":5.382756,"is_reserved":false,"is_disabled":false,"rental_uris":{"android":"levelo://app?vid=09ec5261-6dc4-4f45-a640-bac2ae33bdc0","ios":"levelo://app?vid=09ec5261-6dc4-4f45-a640-bac2ae33bdc0"},"vehicle_type_id":"4","last_reported":1706555102,"current_range_meters":13600,"station_id":"ce4bhr12rcd13ifvqhqg","pricing_plan_id":"free"},{"bike_id":"4c76a369-40e2-427c-bdd2-4ff8a4634e1e","system_id":"levelo_inurba_marseille","lat":43.322872,"lon":5.382756,"is_reserved":false,"is_disabled":false,"rental_uris":{"android":"levelo://app?vid=4c76a369-40e2-427c-bdd2-4ff8a4634e1e","ios":"levelo://app?vid=4c76a369-40e2-427c-bdd2-4ff8a4634e1e"},"vehicle_type_id":"4","last_reported":1706555102,"current_range_meters":18800,"station_id":"ce4bhr12rcd13ifvqhqg","pricing_plan_id":"free"},{"bike_id":"b393d938-03e9-4493-bb59-0ad2df777920","system_id":"levelo_inurba_marseille","lat":43.322872,"lon":5.382756,"is_reserved":false,"is_disabled":false,"rental_uris":{"android":"levelo://app?vid=b393d938-03e9-4493-bb59-0ad2df777920","ios":"levelo://app?vid=b393d938-03e9-4493-bb59-0ad2df777920"},"vehicle_type_id":"4","last_reported":1706555102,"current_range_meters":16800,"station_id":"ce4bhr12rcd13ifvqhqg","pricing_plan_id":"free"},{"bike_id":"889580a8-390b-425d-ba86-1d259400af7d","system_id":"levelo_inurba_marseille","lat":43.322872,"lon":5.382756,"is_reserved":false,"is_disabled":false,"rental_uris":{"android":"levelo://app?vid=889580a8-390b-425d-ba86-1d259400af7d","ios":"levelo://app?vid=889580a8-390b-425d-ba86-1d259400af7d"},"vehicle_type_id":"4","last_reported":1706555102,"current_range_meters":30000,"station_id":"ce4bhr12rcd13ifvqhqg","pricing_plan_id":"free"},{"bike_id":"1c9d37d0-9c22-419e-afa7-1697cb75aab3","system_id":"levelo_inurba_marseille","lat":43.32831,"lon":5.36688,"is_reserved":false,"is_disabled":false,"rental_uris":{"android":"levelo://app?vid=1c9d37d0-9c22-419e-afa7-1697cb75aab3","ios":"levelo://app?vid=1c9d37d0-9c22-419e-afa7-1697cb75aab3"},"vehicle_type_id":"4","last_reported":1706555102,"current_range_meters":17600,"station_id":"ce4bhs92rcd13ifvqi0g","pricing_plan_id":"free"},{"bike_id":"9cc30769-75e2-40a7-b116-b561ec6b360f","system_id":"levelo_inurba_marseille","lat":43.32833,"lon":5.36672,"is_reserved":false,"is_disabled":false,"rental_uris":{"android":"levelo://app?vid=9cc30769-75e2-40a7-b116-b561ec6b360f","ios":"levelo://app?vid=9cc30769-75e2-40a7-b116-b561ec6b360f"},"vehicle_type_id":"4","last_reported":1706555102,"current_range_meters":2400,"station_id":"ce4bhs92rcd13ifvqi0g","pricing_plan_id":"free"},{"bike_id":"12d7300c-7281-4d65-b928-1f4a31310a0c","system_id":"levelo_inurba_marseille","lat":43.32834,"lon":5.36685,"is_reserved":false,"is_disabled":false,"rental_uris":{"android":"levelo://app?vid=12d7300c-7281-4d65-b928-1f4a31310a0c","ios":"levelo://app?vid=12d7300c-7281-4d65-b928-1f4a31310a0c"},"vehicle_type_id":"4","last_reported":1706555102,"current_range_meters":20000,"station_id":"ce4bhs92rcd13ifvqi0g","pricing_plan_id":"free"},{"bike_id":"d2b97ecc-d3fe-4623-8a49-3bca3638979b","system_id":"levelo_inurba_marseille","lat":43.297794,"lon":5.370888,"is_reserved":false,"is_disabled":false,"rental_uris":{"android":"levelo://app?vid=d2b97ecc-d3fe-4623-8a49-3bca3638979b","ios":"levelo://app?vid=d2b97ecc-d3fe-4623-8a49-3bca3638979b"},"vehicle_type_id":"4","last_reported":1706555102,"current_range_meters":24400,"station_id":"ce4bgop2rcd13ifvqc1g","pricing_plan_id":"free"},{"bike_id":"8b120c8b-1ecf-47eb-bfec-8c5b904aeb13","system_id":"levelo_inurba_marseille","lat":43.29704,"lon":5.36618,"is_reserved":false,"is_disabled":false,"rental_uris":{"android":"levelo://app?vid=8b120c8b-1ecf-47eb-bfec-8c5b904aeb13","ios":"levelo://app?vid=8b120c8b-1ecf-47eb-bfec-8c5b904aeb13"},"vehicle_type_id":"4","last_reported":1706555102,"current_range_meters":8400,"station_id":"","pricing_plan_id":"free"},{"bike_id":"be21abe5-fcc4-4c4b-93e8-0e82eb541cfd","system_id":"levelo_inurba_marseille","lat":43.296131,"lon":5.370791,"is_reserved":false,"is_disabled":false,"rental_uris":{"android":"levelo://app?vid=be21abe5-fcc4-4c4b-93e8-0e82eb541cfd","ios":"levelo://app?vid=be21abe5-fcc4-4c4b-93e8-0e82eb541cfd"},"vehicle_type_id":"4","last_reported":1706555102,"current_range_meters":7600,"station_id":"ce4bgnh2rcd13ifvqc0g","pricing_plan_id":"free"},{"bike_id":"741354ce-64cd-4402-a3c9-d6815523c557","system_id":"levelo_inurba_marseille","lat":43.29573,"lon":5.367355,"is_reserved":false,"is_disabled":false,"rental_uris":{"android":"levelo://app?vid=741354ce-64cd-4402-a3c9-d6815523c557","ios":"levelo://app?vid=741354ce-64cd-4402-a3c9-d6815523c557"},"vehicle_type_id":"4","last_reported":1706555102,"current_range_meters":6000,"station_id":"ce4bgph2rcd13ifvqc2g","pricing_plan_id":"free"},{"bike_id":"e967c2a2-4189-4fe7-8e92-38307a05ce64","system_id":"levelo_inurba_marseille","lat":43.299028,"lon":5.381509,"is_reserved":false,"is_disabled":false,"rental_uris":{"android":"levelo://app?vid=e967c2a2-4189-4fe7-8e92-38307a05ce64","ios":"levelo://app?vid=e967c2a2-4189-4fe7-8e92-38307a05ce64"},"vehicle_type_id":"4","last_reported":1706555102,"current_range_meters":0,"station_id":"ce4bgj12rcd13ifvqbc0","pricing_plan_id":"free"},{"bike_id":"a7b46d30-9a70-4680-b75f-47377b8b9b0a","system_id":"levelo_inurba_marseille","lat":43.30944,"lon":5.39039,"is_reserved":false,"is_disabled":false,"rental_uris":{"android":"levelo://app?vid=a7b46d30-9a70-4680-b75f-47377b8b9b0a","ios":"levelo://app?vid=a7b46d30-9a70-4680-b75f-47377b8b9b0a"},"vehicle_type_id":"4","last_reported":1706555102,"current_range_meters":0,"station_id":"ce4bgup2rcd13ifvqco0","pricing_plan_id":"free"},{"bike_id":"792ca53d-a85b-4708-a86b-198a6178534c","system_id":"levelo_inurba_marseille","lat":43.317557,"lon":5.390173,"is_reserved":false,"is_disabled":false,"rental_uris":{"android":"levelo://app?vid=792ca53d-a85b-4708-a86b-198a6178534c","ios":"levelo://app?vid=792ca53d-a85b-4708-a86b-198a6178534c"},"vehicle_type_id":"4","last_reported":1706555102,"current_range_meters":23200,"station_id":"ce4bhqp2rcd13ifvqhng","pricing_plan_id":"free"},{"bike_id":"4e7b26c9-6ab7-4801-8b09-6ac03146f5cc","system_id":"levelo_inurba_marseille","lat":43.317557,"lon":5.390173,"is_reserved":false,"is_disabled":false,"rental_uris":{"android":"levelo://app?vid=4e7b26c9-6ab7-4801-8b09-6ac03146f5cc","ios":"levelo://app?vid=4e7b26c9-6ab7-4801-8b09-6ac03146f5cc"},"vehicle_type_id":"4","last_reported":1706555102,"current_range_meters":25200,"station_id":"ce4bhqp2rcd13ifvqhng","pricing_plan_id":"free"},{"bike_id":"e089453b-319c-4b50-8352-cfa6bbc27328","system_id":"levelo_inurba_marseille","lat":43.317557,"lon":5.390173,"is_reserved":false,"is_disabled":false,"rental_uris":{"android":"levelo://app?vid=e089453b-319c-4b50-8352-cfa6bbc27328","ios":"levelo://app?vid=e089453b-319c-4b50-8352-cfa6bbc27328"},"vehicle_type_id":"4","last_reported":1706555102,"current_range_meters":25600,"station_id":"ce4bhqp2rcd13ifvqhng","pricing_plan_id":"free"},{"bike_id":"5f823a78-890c-43da-968a-59bddc3d11b4","system_id":"levelo_inurba_marseille","lat":43.29792,"lon":5.380827,"is_reserved":false,"is_disabled":false,"rental_uris":{"android":"levelo://app?vid=5f823a78-890c-43da-968a-59bddc3d11b4","ios":"levelo://app?vid=5f823a78-890c-43da-968a-59bddc3d11b4"},"vehicle_type_id":"4","last_reported":1706555102,"current_range_meters":0,"station_id":"ce4bgip2rcd13ifvqbb0","pricing_plan_id":"free"},{"bike_id":"321e211d-075c-4c7f-b1d4-5fe8554180b3","system_id":"levelo_inurba_marseille","lat":43.304274,"lon":5.388873,"is_reserved":false,"is_disabled":false,"rental_uris":{"android":"levelo://app?vid=321e211d-075c-4c7f-b1d4-5fe8554180b3","ios":"levelo://app?vid=321e211d-075c-4c7f-b1d4-5fe8554180b3"},"vehicle_type_id":"4","last_reported":1706555102,"current_range_meters":4400,"station_id":"ce4bgk12rcd13ifvqbi0","pricing_plan_id":"free"},{"bike_id":"11774811-71ac-4a3b-90a1-50bda41dfa74","system_id":"levelo_inurba_marseille","lat":43.29785,"lon":5.38128,"is_reserved":false,"is_disabled":false,"rental_uris":{"android":"levelo://app?vid=11774811-71ac-4a3b-90a1-50bda41dfa74","ios":"levelo://app?vid=11774811-71ac-4a3b-90a1-50bda41dfa74"},"vehicle_type_id":"4","last_reported":1706555102,"current_range_meters":0,"station_id":"ce4bgip2rcd13ifvqbb0","pricing_plan_id":"free"},{"bike_id":"44dad157-632a-465a-8005-88778558f5bf","system_id":"levelo_inurba_marseille","lat":43.29525,"lon":5.37505,"is_reserved":false,"is_disabled":false,"rental_uris":{"android":"levelo://app?vid=44dad157-632a-465a-8005-88778558f5bf","ios":"levelo://app?vid=44dad157-632a-465a-8005-88778558f5bf"},"vehicle_type_id":"4","last_reported":1706555102,"current_range_meters":11600,"station_id":"ce4bgkp2rcd13ifvqbmg","pricing_plan_id":"free"},{"bike_id":"20377827-eb1b-44d5-8167-f65cdeccd606","system_id":"levelo_inurba_marseille","lat":43.299724,"lon":5.371829,"is_reserved":false,"is_disabled":false,"rental_uris":{"android":"levelo://app?vid=20377827-eb1b-44d5-8167-f65cdeccd606","ios":"levelo://app?vid=20377827-eb1b-44d5-8167-f65cdeccd606"},"vehicle_type_id":"4","last_reported":1706555102,"current_range_meters":0,"station_id":"ce4bgr92rcd13ifvqc7g","pricing_plan_id":"free"},{"bike_id":"cb866c79-5a3e-4660-b879-c500bc81e5bd","system_id":"levelo_inurba_marseille","lat":43.299717,"lon":5.384845,"is_reserved":false,"is_disabled":false,"rental_uris":{"android":"levelo://app?vid=cb866c79-5a3e-4660-b879-c500bc81e5bd","ios":"levelo://app?vid=cb866c79-5a3e-4660-b879-c500bc81e5bd"},"vehicle_type_id":"4","last_reported":1706555102,"current_range_meters":10000,"station_id":"ce4bgj92rcd13ifvqbd0","pricing_plan_id":"free"},{"bike_id":"de25d637-84ec-4203-b892-3e1c2d7c4ddb","system_id":"levelo_inurba_marseille","lat":43.331763,"lon":5.3644,"is_reserved":false,"is_disabled":false,"rental_uris":{"android":"levelo://app?vid=de25d637-84ec-4203-b892-3e1c2d7c4ddb","ios":"levelo://app?vid=de25d637-84ec-4203-b892-3e1c2d7c4ddb"},"vehicle_type_id":"4","last_reported":1706555102,"current_range_meters":16000,"station_id":"","pricing_plan_id":"free"},{"bike_id":"12dd9e47-1ac3-44a4-b056-e02bc32175a7","system_id":"levelo_inurba_marseille","lat":43.32365,"lon":5.38876,"is_reserved":false,"is_disabled":false,"rental_uris":{"android":"levelo://app?vid=12dd9e47-1ac3-44a4-b056-e02bc32175a7","ios":"levelo://app?vid=12dd9e47-1ac3-44a4-b056-e02bc32175a7"},"vehicle_type_id":"4","last_reported":1706555102,"current_range_meters":28800,"station_id":"ce4bhqp2rcd13ifvqhog","pricing_plan_id":"free"},{"bike_id":"25e224de-8b9c-45ce-8303-81296717e208","system_id":"levelo_inurba_marseille","lat":43.32366,"lon":5.38882,"is_reserved":false,"is_disabled":false,"rental_uris":{"android":"levelo://app?vid=25e224de-8b9c-45ce-8303-81296717e208","ios":"levelo://app?vid=25e224de-8b9c-45ce-8303-81296717e208"},"vehicle_type_id":"4","last_reported":1706555102,"current_range_meters":5600,"station_id":"ce4bhqp2rcd13ifvqhog","pricing_plan_id":"free"},{"bike_id":"e96e5f0e-6977-4664-98d3-6b720cb0b420","system_id":"levelo_inurba_marseille","lat":43.29601,"lon":5.381084,"is_reserved":false,"is_disabled":false,"rental_uris":{"android":"levelo://app?vid=e96e5f0e-6977-4664-98d3-6b720cb0b420","ios":"levelo://app?vid=e96e5f0e-6977-4664-98d3-6b720cb0b420"},"vehicle_type_id":"4","last_reported":1706555102,"current_range_meters":0,"station_id":"ce4bgl12rcd13ifvqbo0","pricing_plan_id":"free"},{"bike_id":"765d5e39-31c4-47b3-bf28-a19fd3ef0933","system_id":"levelo_inurba_marseille","lat":43.293259,"lon":5.371586,"is_reserved":false,"is_disabled":false,"rental_uris":{"android":"levelo://app?vid=765d5e39-31c4-47b3-bf28-a19fd3ef0933","ios":"levelo://app?vid=765d5e39-31c4-47b3-bf28-a19fd3ef0933"},"vehicle_type_id":"4","last_reported":1706555102,"current_range_meters":14000,"station_id":"ce4bgh92rcd13ifvqb40","pricing_plan_id":"free"},{"bike_id":"4a03dd38-16ad-468c-8e5f-46cf0e6dc708","system_id":"levelo_inurba_marseille","lat":43.292749,"lon":5.368402,"is_reserved":false,"is_disabled":false,"rental_uris":{"android":"levelo://app?vid=4a03dd38-16ad-468c-8e5f-46cf0e6dc708","ios":"levelo://app?vid=4a03dd38-16ad-468c-8e5f-46cf0e6dc708"},"vehicle_type_id":"4","last_reported":1706555102,"current_range_meters":4800,"station_id":"ce4bhbp2rcd13ifvqesg","pricing_plan_id":"free"},{"bike_id":"6f81888c-fcea-4f85-844a-b34625373182","system_id":"levelo_inurba_marseille","lat":43.30592,"lon":5.39359,"is_reserved":false,"is_disabled":false,"rental_uris":{"android":"levelo://app?vid=6f81888c-fcea-4f85-844a-b34625373182","ios":"levelo://app?vid=6f81888c-fcea-4f85-844a-b34625373182"},"vehicle_type_id":"4","last_reported":1706555102,"current_range_meters":0,"station_id":"ce4bh0p2rcd13ifvqd80","pricing_plan_id":"free"},{"bike_id":"00d3b2fb-e390-4bd4-993b-d5acf0ed8549","system_id":"levelo_inurba_marseille","lat":43.303002,"lon":5.392142,"is_reserved":false,"is_disabled":false,"rental_uris":{"android":"levelo://app?vid=00d3b2fb-e390-4bd4-993b-d5acf0ed8549","ios":"levelo://app?vid=00d3b2fb-e390-4bd4-993b-d5acf0ed8549"},"vehicle_type_id":"4","last_reported":1706555102,"current_range_meters":0,"station_id":"ce4bgkh2rcd13ifvqbk0","pricing_plan_id":"free"},{"bike_id":"059ad8de-3991-4fed-b7d5-f52de59d5c78","system_id":"levelo_inurba_marseille","lat":43.302992,"lon":5.392136,"is_reserved":false,"is_disabled":false,"rental_uris":{"android":"levelo://app?vid=059ad8de-3991-4fed-b7d5-f52de59d5c78","ios":"levelo://app?vid=059ad8de-3991-4fed-b7d5-f52de59d5c78"},"vehicle_type_id":"4","last_reported":1706555102,"current_range_meters":18000,"station_id":"ce4bgkh2rcd13ifvqbk0","pricing_plan_id":"free"},{"bike_id":"d3ed491c-7f5a-4dda-907d-c46a15c313ec","system_id":"levelo_inurba_marseille","lat":43.302992,"lon":5.392136,"is_reserved":false,"is_disabled":false,"rental_uris":{"android":"levelo://app?vid=d3ed491c-7f5a-4dda-907d-c46a15c313ec","ios":"levelo://app?vid=d3ed491c-7f5a-4dda-907d-c46a15c313ec"},"vehicle_type_id":"4","last_reported":1706555102,"current_range_meters":6800,"station_id":"ce4bgkh2rcd13ifvqbk0","pricing_plan_id":"free"},{"bike_id":"8385f63b-6a6f-481a-90e5-cd2b103f850f","system_id":"levelo_inurba_marseille","lat":43.302992,"lon":5.392136,"is_reserved":false,"is_disabled":false,"rental_uris":{"android":"levelo://app?vid=8385f63b-6a6f-481a-90e5-cd2b103f850f","ios":"levelo://app?vid=8385f63b-6a6f-481a-90e5-cd2b103f850f"},"vehicle_type_id":"4","last_reported":1706555102,"current_range_meters":15200,"station_id":"ce4bgkh2rcd13ifvqbk0","pricing_plan_id":"free"},{"bike_id":"992bd2b1-50d7-495f-9d9a-79966ca94b48","system_id":"levelo_inurba_marseille","lat":43.303002,"lon":5.392142,"is_reserved":false,"is_disabled":false,"rental_uris":{"android":"levelo://app?vid=992bd2b1-50d7-495f-9d9a-79966ca94b48","ios":"levelo://app?vid=992bd2b1-50d7-495f-9d9a-79966ca94b48"},"vehicle_type_id":"4","last_reported":1706555102,"current_range_meters":20400,"station_id":"ce4bgkh2rcd13ifvqbk0","pricing_plan_id":"free"},{"bike_id":"9f9f66c8-9218-4e98-bf7e-5dc23bf858e6","system_id":"levelo_inurba_marseille","lat":43.30085,"lon":5.390856,"is_reserved":false,"is_disabled":false,"rental_uris":{"android":"levelo://app?vid=9f9f66c8-9218-4e98-bf7e-5dc23bf858e6","ios":"levelo://app?vid=9f9f66c8-9218-4e98-bf7e-5dc23bf858e6"},"vehicle_type_id":"4","last_reported":1706555102,"current_range_meters":5200,"station_id":"ce4bh192rcd13ifvqdb0","pricing_plan_id":"free"},{"bike_id":"eb5a3f41-446f-44e5-943c-c105756b723d","system_id":"levelo_inurba_marseille","lat":43.291675,"lon":5.371583,"is_reserved":false,"is_disabled":false,"rental_uris":{"android":"levelo://app?vid=eb5a3f41-446f-44e5-943c-c105756b723d","ios":"levelo://app?vid=eb5a3f41-446f-44e5-943c-c105756b723d"},"vehicle_type_id":"4","last_reported":1706555102,"current_range_meters":2400,"station_id":"ce4bha92rcd13ifvqeh0","pricing_plan_id":"free"},{"bike_id":"42752d60-ce5a-4aba-bb4d-6befb053704d","system_id":"levelo_inurba_marseille","lat":43.29877,"lon":5.3891,"is_reserved":false,"is_disabled":false,"rental_uris":{"android":"levelo://app?vid=42752d60-ce5a-4aba-bb4d-6befb053704d","ios":"levelo://app?vid=42752d60-ce5a-4aba-bb4d-6befb053704d"},"vehicle_type_id":"4","last_reported":1706555102,"current_range_meters":22000,"station_id":"","pricing_plan_id":"free"},{"bike_id":"58abfaf0-9b00-4fb3-8037-d937dc0d9d18","system_id":"levelo_inurba_marseille","lat":43.309038,"lon":5.396546,"is_reserved":false,"is_disabled":false,"rental_uris":{"android":"levelo://app?vid=58abfaf0-9b00-4fb3-8037-d937dc0d9d18","ios":"levelo://app?vid=58abfaf0-9b00-4fb3-8037-d937dc0d9d18"},"vehicle_type_id":"4","last_reported":1706555102,"current_range_meters":31600,"station_id":"ce4bh012rcd13ifvqcv0","pricing_plan_id":"free"},{"bike_id":"c07daf04-e21b-4f24-a83e-49b9ec655b9c","system_id":"levelo_inurba_marseille","lat":43.309038,"lon":5.396546,"is_reserved":false,"is_disabled":false,"rental_uris":{"android":"levelo://app?vid=c07daf04-e21b-4f24-a83e-49b9ec655b9c","ios":"levelo://app?vid=c07daf04-e21b-4f24-a83e-49b9ec655b9c"},"vehicle_type_id":"4","last_reported":1706555102,"current_range_meters":31600,"station_id":"ce4bh012rcd13ifvqcv0","pricing_plan_id":"free"},{"bike_id":"f53485f9-f98f-46e0-b0ca-bab93f000b79","system_id":"levelo_inurba_marseille","lat":43.31328,"lon":5.3969,"is_reserved":false,"is_disabled":false,"rental_uris":{"android":"levelo://app?vid=f53485f9-f98f-46e0-b0ca-bab93f000b79","ios":"levelo://app?vid=f53485f9-f98f-46e0-b0ca-bab93f000b79"},"vehicle_type_id":"4","last_reported":1706555102,"current_range_meters":20000,"station_id":"ce4bgvp2rcd13ifvqcu0","pricing_plan_id":"free"},{"bike_id":"0c9e817e-c7c8-48a7-a32d-61161f33e401","system_id":"levelo_inurba_marseille","lat":43.31332,"lon":5.39691,"is_reserved":false,"is_disabled":false,"rental_uris":{"android":"levelo://app?vid=0c9e817e-c7c8-48a7-a32d-61161f33e401","ios":"levelo://app?vid=0c9e817e-c7c8-48a7-a32d-61161f33e401"},"vehicle_type_id":"4","last_reported":1706555102,"current_range_meters":15200,"station_id":"","pricing_plan_id":"free"},{"bike_id":"d485ecf2-367c-43a1-b72b-feb3e4b25e11","system_id":"levelo_inurba_marseille","lat":43.31331,"lon":5.396916,"is_reserved":false,"is_disabled":false,"rental_uris":{"android":"levelo://app?vid=d485ecf2-367c-43a1-b72b-feb3e4b25e11","ios":"levelo://app?vid=d485ecf2-367c-43a1-b72b-feb3e4b25e11"},"vehicle_type_id":"4","last_reported":1706555102,"current_range_meters":17600,"station_id":"ce4bgvp2rcd13ifvqcu0","pricing_plan_id":"free"},{"bike_id":"f01ba673-8744-4ddc-b04e-b482ea23aed0","system_id":"levelo_inurba_marseille","lat":43.309038,"lon":5.396546,"is_reserved":false,"is_disabled":false,"rental_uris":{"android":"levelo://app?vid=f01ba673-8744-4ddc-b04e-b482ea23aed0","ios":"levelo://app?vid=f01ba673-8744-4ddc-b04e-b482ea23aed0"},"vehicle_type_id":"4","last_reported":1706555102,"current_range_meters":24800,"station_id":"ce4bh012rcd13ifvqcv0","pricing_plan_id":"free"},{"bike_id":"05342dcd-fa39-4a3d-8efe-7144b2b91637","system_id":"levelo_inurba_marseille","lat":43.313291,"lon":5.396838,"is_reserved":false,"is_disabled":false,"rental_uris":{"android":"levelo://app?vid=05342dcd-fa39-4a3d-8efe-7144b2b91637","ios":"levelo://app?vid=05342dcd-fa39-4a3d-8efe-7144b2b91637"},"vehicle_type_id":"4","last_reported":1706555102,"current_range_meters":31600,"station_id":"ce4bgvp2rcd13ifvqcu0","pricing_plan_id":"free"},{"bike_id":"fb17a4ee-4e95-46e3-a3ad-8113320125a8","system_id":"levelo_inurba_marseille","lat":43.313291,"lon":5.396838,"is_reserved":false,"is_disabled":false,"rental_uris":{"android":"levelo://app?vid=fb17a4ee-4e95-46e3-a3ad-8113320125a8","ios":"levelo://app?vid=fb17a4ee-4e95-46e3-a3ad-8113320125a8"},"vehicle_type_id":"4","last_reported":1706555102,"current_range_meters":17200,"station_id":"ce4bgvp2rcd13ifvqcu0","pricing_plan_id":"free"},{"bike_id":"b36fd92c-f2dc-4b9f-b79f-68b10cd4ccd8","system_id":"levelo_inurba_marseille","lat":43.31325,"lon":5.39694,"is_reserved":false,"is_disabled":false,"rental_uris":{"android":"levelo://app?vid=b36fd92c-f2dc-4b9f-b79f-68b10cd4ccd8","ios":"levelo://app?vid=b36fd92c-f2dc-4b9f-b79f-68b10cd4ccd8"},"vehicle_type_id":"4","last_reported":1706555102,"current_range_meters":14800,"station_id":"ce4bgvp2rcd13ifvqcu0","pricing_plan_id":"free"},{"bike_id":"f5e7ae9a-d3e2-40d7-b6a6-13962af8917f","system_id":"levelo_inurba_marseille","lat":43.31329,"lon":5.39694,"is_reserved":false,"is_disabled":false,"rental_uris":{"android":"levelo://app?vid=f5e7ae9a-d3e2-40d7-b6a6-13962af8917f","ios":"levelo://app?vid=f5e7ae9a-d3e2-40d7-b6a6-13962af8917f"},"vehicle_type_id":"4","last_reported":1706555102,"current_range_meters":27600,"station_id":"ce4bgvp2rcd13ifvqcu0","pricing_plan_id":"free"},{"bike_id":"a98330eb-a9a0-4a2e-a8a3-4dd1858a8ab0","system_id":"levelo_inurba_marseille","lat":43.313291,"lon":5.396838,"is_reserved":false,"is_disabled":false,"rental_uris":{"android":"levelo://app?vid=a98330eb-a9a0-4a2e-a8a3-4dd1858a8ab0","ios":"levelo://app?vid=a98330eb-a9a0-4a2e-a8a3-4dd1858a8ab0"},"vehicle_type_id":"4","last_reported":1706555102,"current_range_meters":0,"station_id":"ce4bgvp2rcd13ifvqcu0","pricing_plan_id":"free"},{"bike_id":"9ff86a96-fd20-486d-b875-86f908f0d73a","system_id":"levelo_inurba_marseille","lat":43.309038,"lon":5.396546,"is_reserved":false,"is_disabled":false,"rental_uris":{"android":"levelo://app?vid=9ff86a96-fd20-486d-b875-86f908f0d73a","ios":"levelo://app?vid=9ff86a96-fd20-486d-b875-86f908f0d73a"},"vehicle_type_id":"4","last_reported":1706555102,"current_range_meters":0,"station_id":"ce4bh012rcd13ifvqcv0","pricing_plan_id":"free"},{"bike_id":"2ba9c382-4c2a-41d5-a599-588cca805834","system_id":"levelo_inurba_marseille","lat":43.313291,"lon":5.396838,"is_reserved":false,"is_disabled":false,"rental_uris":{"android":"levelo://app?vid=2ba9c382-4c2a-41d5-a599-588cca805834","ios":"levelo://app?vid=2ba9c382-4c2a-41d5-a599-588cca805834"},"vehicle_type_id":"4","last_reported":1706555102,"current_range_meters":14400,"station_id":"ce4bgvp2rcd13ifvqcu0","pricing_plan_id":"free"},{"bike_id":"cc52c09c-7a69-4db8-8458-5524e6df3151","system_id":"levelo_inurba_marseille","lat":43.31324,"lon":5.39699,"is_reserved":false,"is_disabled":false,"rental_uris":{"android":"levelo://app?vid=cc52c09c-7a69-4db8-8458-5524e6df3151","ios":"levelo://app?vid=cc52c09c-7a69-4db8-8458-5524e6df3151"},"vehicle_type_id":"4","last_reported":1706555102,"current_range_meters":10400,"station_id":"ce4bgvp2rcd13ifvqcu0","pricing_plan_id":"free"},{"bike_id":"2b9c6f9e-3706-4447-bf40-c81e83ff61a2","system_id":"levelo_inurba_marseille","lat":43.313291,"lon":5.396838,"is_reserved":false,"is_disabled":false,"rental_uris":{"android":"levelo://app?vid=2b9c6f9e-3706-4447-bf40-c81e83ff61a2","ios":"levelo://app?vid=2b9c6f9e-3706-4447-bf40-c81e83ff61a2"},"vehicle_type_id":"4","last_reported":1706555102,"current_range_meters":0,"station_id":"ce4bgvp2rcd13ifvqcu0","pricing_plan_id":"free"},{"bike_id":"f17e3cc8-695b-4fcb-a4c2-51d5477f1cf5","system_id":"levelo_inurba_marseille","lat":43.309038,"lon":5.396546,"is_reserved":false,"is_disabled":false,"rental_uris":{"android":"levelo://app?vid=f17e3cc8-695b-4fcb-a4c2-51d5477f1cf5","ios":"levelo://app?vid=f17e3cc8-695b-4fcb-a4c2-51d5477f1cf5"},"vehicle_type_id":"4","last_reported":1706555102,"current_range_meters":9200,"station_id":"ce4bh012rcd13ifvqcv0","pricing_plan_id":"free"},{"bike_id":"add4db3c-a11e-4b31-a8b2-577b79b32993","system_id":"levelo_inurba_marseille","lat":43.309038,"lon":5.396546,"is_reserved":false,"is_disabled":false,"rental_uris":{"android":"levelo://app?vid=add4db3c-a11e-4b31-a8b2-577b79b32993","ios":"levelo://app?vid=add4db3c-a11e-4b31-a8b2-577b79b32993"},"vehicle_type_id":"4","last_reported":1706555102,"current_range_meters":10800,"station_id":"ce4bh012rcd13ifvqcv0","pricing_plan_id":"free"},{"bike_id":"067a3f54-cdb1-4351-888c-7235aaac275f","system_id":"levelo_inurba_marseille","lat":43.313291,"lon":5.396838,"is_reserved":false,"is_disabled":false,"rental_uris":{"android":"levelo://app?vid=067a3f54-cdb1-4351-888c-7235aaac275f","ios":"levelo://app?vid=067a3f54-cdb1-4351-888c-7235aaac275f"},"vehicle_type_id":"4","last_reported":1706555102,"current_range_meters":10400,"station_id":"ce4bgvp2rcd13ifvqcu0","pricing_plan_id":"free"},{"bike_id":"cc206f0b-847a-4412-a94c-c7eab99391df","system_id":"levelo_inurba_marseille","lat":43.29529,"lon":5.385581,"is_reserved":false,"is_disabled":false,"rental_uris":{"android":"levelo://app?vid=cc206f0b-847a-4412-a94c-c7eab99391df","ios":"levelo://app?vid=cc206f0b-847a-4412-a94c-c7eab99391df"},"vehicle_type_id":"4","last_reported":1706555102,"current_range_meters":0,"station_id":"ce4bgih2rcd13ifvqba0","pricing_plan_id":"free"},{"bike_id":"204b7930-49ae-4668-8e1d-eacb5e531069","system_id":"levelo_inurba_marseille","lat":43.290779,"lon":5.371482,"is_reserved":false,"is_disabled":false,"rental_uris":{"android":"levelo://app?vid=204b7930-49ae-4668-8e1d-eacb5e531069","ios":"levelo://app?vid=204b7930-49ae-4668-8e1d-eacb5e531069"},"vehicle_type_id":"4","last_reported":1706555102,"current_range_meters":1200,"station_id":"ce4bh5p2rcd13ifvqe4g","pricing_plan_id":"free"},{"bike_id":"afcd5bf5-e8cf-4776-b897-cc0918c04203","system_id":"levelo_inurba_marseille","lat":43.290779,"lon":5.371482,"is_reserved":false,"is_disabled":false,"rental_uris":{"android":"levelo://app?vid=afcd5bf5-e8cf-4776-b897-cc0918c04203","ios":"levelo://app?vid=afcd5bf5-e8cf-4776-b897-cc0918c04203"},"vehicle_type_id":"4","last_reported":1706555102,"current_range_meters":3200,"station_id":"ce4bh5p2rcd13ifvqe4g","pricing_plan_id":"free"},{"bike_id":"3f4fe7c9-b3ff-4fee-b946-d4feafbf27d9","system_id":"levelo_inurba_marseille","lat":43.3021,"lon":5.39468,"is_reserved":false,"is_disabled":false,"rental_uris":{"android":"levelo://app?vid=3f4fe7c9-b3ff-4fee-b946-d4feafbf27d9","ios":"levelo://app?vid=3f4fe7c9-b3ff-4fee-b946-d4feafbf27d9"},"vehicle_type_id":"4","last_reported":1706555102,"current_range_meters":0,"station_id":"ce4bh0p2rcd13ifvqd70","pricing_plan_id":"free"},{"bike_id":"c3785a8d-4dc0-42b2-a6b6-19b42eedbc45","system_id":"levelo_inurba_marseille","lat":43.290631,"lon":5.359244,"is_reserved":false,"is_disabled":false,"rental_uris":{"android":"levelo://app?vid=c3785a8d-4dc0-42b2-a6b6-19b42eedbc45","ios":"levelo://app?vid=c3785a8d-4dc0-42b2-a6b6-19b42eedbc45"},"vehicle_type_id":"4","last_reported":1706555102,"current_range_meters":22800,"station_id":"ce4bha92rcd13ifvqeg0","pricing_plan_id":"free"},{"bike_id":"60f1cf31-39c9-48e4-a389-3f64a40a8605","system_id":"levelo_inurba_marseille","lat":43.290624,"lon":5.359245,"is_reserved":false,"is_disabled":false,"rental_uris":{"android":"levelo://app?vid=60f1cf31-39c9-48e4-a389-3f64a40a8605","ios":"levelo://app?vid=60f1cf31-39c9-48e4-a389-3f64a40a8605"},"vehicle_type_id":"4","last_reported":1706555102,"current_range_meters":10000,"station_id":"ce4bha92rcd13ifvqeg0","pricing_plan_id":"free"},{"bike_id":"2c1e47ad-3478-424c-8c66-23a600b1f0dc","system_id":"levelo_inurba_marseille","lat":43.290441,"lon":5.359123,"is_reserved":false,"is_disabled":false,"rental_uris":{"android":"levelo://app?vid=2c1e47ad-3478-424c-8c66-23a600b1f0dc","ios":"levelo://app?vid=2c1e47ad-3478-424c-8c66-23a600b1f0dc"},"vehicle_type_id":"4","last_reported":1706555102,"current_range_meters":20800,"station_id":"","pricing_plan_id":"free"},{"bike_id":"78f2d48b-a967-4457-9d54-10f52768e3df","system_id":"levelo_inurba_marseille","lat":43.290631,"lon":5.359244,"is_reserved":false,"is_disabled":false,"rental_uris":{"android":"levelo://app?vid=78f2d48b-a967-4457-9d54-10f52768e3df","ios":"levelo://app?vid=78f2d48b-a967-4457-9d54-10f52768e3df"},"vehicle_type_id":"4","last_reported":1706555102,"current_range_meters":22400,"station_id":"ce4bha92rcd13ifvqeg0","pricing_plan_id":"free"},{"bike_id":"97404771-33ec-4987-9af4-a9d4a5d3e747","system_id":"levelo_inurba_marseille","lat":43.290624,"lon":5.359245,"is_reserved":false,"is_disabled":false,"rental_uris":{"android":"levelo://app?vid=97404771-33ec-4987-9af4-a9d4a5d3e747","ios":"levelo://app?vid=97404771-33ec-4987-9af4-a9d4a5d3e747"},"vehicle_type_id":"4","last_reported":1706555102,"current_range_meters":8400,"station_id":"ce4bha92rcd13ifvqeg0","pricing_plan_id":"free"},{"bike_id":"facdc712-4c11-4c2c-8b1a-354446d671b2","system_id":"levelo_inurba_marseille","lat":43.294162,"lon":5.386292,"is_reserved":false,"is_disabled":false,"rental_uris":{"android":"levelo://app?vid=facdc712-4c11-4c2c-8b1a-354446d671b2","ios":"levelo://app?vid=facdc712-4c11-4c2c-8b1a-354446d671b2"},"vehicle_type_id":"4","last_reported":1706555102,"current_range_meters":7200,"station_id":"ce4bh2h2rcd13ifvqdh0","pricing_plan_id":"free"},{"bike_id":"64a11694-1568-41c3-9ef3-252938baf52b","system_id":"levelo_inurba_marseille","lat":43.294162,"lon":5.386292,"is_reserved":false,"is_disabled":false,"rental_uris":{"android":"levelo://app?vid=64a11694-1568-41c3-9ef3-252938baf52b","ios":"levelo://app?vid=64a11694-1568-41c3-9ef3-252938baf52b"},"vehicle_type_id":"4","last_reported":1706555102,"current_range_meters":16800,"station_id":"ce4bh2h2rcd13ifvqdh0","pricing_plan_id":"free"},{"bike_id":"d0dc1499-0c07-42eb-b26a-58fe94417f5b","system_id":"levelo_inurba_marseille","lat":43.294162,"lon":5.386292,"is_reserved":false,"is_disabled":false,"rental_uris":{"android":"levelo://app?vid=d0dc1499-0c07-42eb-b26a-58fe94417f5b","ios":"levelo://app?vid=d0dc1499-0c07-42eb-b26a-58fe94417f5b"},"vehicle_type_id":"4","last_reported":1706555102,"current_range_meters":17200,"station_id":"ce4bh2h2rcd13ifvqdh0","pricing_plan_id":"free"},{"bike_id":"0725ccbf-9f70-421c-85e5-3f5c8fe175a7","system_id":"levelo_inurba_marseille","lat":43.294162,"lon":5.386292,"is_reserved":false,"is_disabled":false,"rental_uris":{"android":"levelo://app?vid=0725ccbf-9f70-421c-85e5-3f5c8fe175a7","ios":"levelo://app?vid=0725ccbf-9f70-421c-85e5-3f5c8fe175a7"},"vehicle_type_id":"4","last_reported":1706555102,"current_range_meters":2000,"station_id":"ce4bh2h2rcd13ifvqdh0","pricing_plan_id":"free"},{"bike_id":"4d10671b-0feb-4feb-ba60-cceda73a4a14","system_id":"levelo_inurba_marseille","lat":43.294153,"lon":5.386305,"is_reserved":false,"is_disabled":false,"rental_uris":{"android":"levelo://app?vid=4d10671b-0feb-4feb-ba60-cceda73a4a14","ios":"levelo://app?vid=4d10671b-0feb-4feb-ba60-cceda73a4a14"},"vehicle_type_id":"4","last_reported":1706555102,"current_range_meters":21600,"station_id":"ce4bh2h2rcd13ifvqdh0","pricing_plan_id":"free"},{"bike_id":"3889135c-a0d2-4cfd-987c-e444da3ab972","system_id":"levelo_inurba_marseille","lat":43.294162,"lon":5.386292,"is_reserved":false,"is_disabled":false,"rental_uris":{"android":"levelo://app?vid=3889135c-a0d2-4cfd-987c-e444da3ab972","ios":"levelo://app?vid=3889135c-a0d2-4cfd-987c-e444da3ab972"},"vehicle_type_id":"4","last_reported":1706555102,"current_range_meters":400,"station_id":"ce4bh2h2rcd13ifvqdh0","pricing_plan_id":"free"},{"bike_id":"1b865d7c-e8db-4e76-b301-a6ee3e1f0f46","system_id":"levelo_inurba_marseille","lat":43.289184,"lon":5.366408,"is_reserved":false,"is_disabled":false,"rental_uris":{"android":"levelo://app?vid=1b865d7c-e8db-4e76-b301-a6ee3e1f0f46","ios":"levelo://app?vid=1b865d7c-e8db-4e76-b301-a6ee3e1f0f46"},"vehicle_type_id":"4","last_reported":1706555102,"current_range_meters":1600,"station_id":"ce4bhap2rcd13ifvqek0","pricing_plan_id":"free"},{"bike_id":"3232283e-e3ef-4ec2-92e0-a15a247a09ae","system_id":"levelo_inurba_marseille","lat":43.29418,"lon":5.38631,"is_reserved":false,"is_disabled":false,"rental_uris":{"android":"levelo://app?vid=3232283e-e3ef-4ec2-92e0-a15a247a09ae","ios":"levelo://app?vid=3232283e-e3ef-4ec2-92e0-a15a247a09ae"},"vehicle_type_id":"4","last_reported":1706555102,"current_range_meters":24400,"station_id":"ce4bh2h2rcd13ifvqdh0","pricing_plan_id":"free"},{"bike_id":"177c6148-7087-4a37-b934-4f8182d8990c","system_id":"levelo_inurba_marseille","lat":43.289184,"lon":5.366408,"is_reserved":false,"is_disabled":false,"rental_uris":{"android":"levelo://app?vid=177c6148-7087-4a37-b934-4f8182d8990c","ios":"levelo://app?vid=177c6148-7087-4a37-b934-4f8182d8990c"},"vehicle_type_id":"4","last_reported":1706555102,"current_range_meters":12800,"station_id":"ce4bhap2rcd13ifvqek0","pricing_plan_id":"free"},{"bike_id":"dfaa0623-ce2f-471f-ab06-0508d1705b47","system_id":"levelo_inurba_marseille","lat":43.289184,"lon":5.366408,"is_reserved":false,"is_disabled":false,"rental_uris":{"android":"levelo://app?vid=dfaa0623-ce2f-471f-ab06-0508d1705b47","ios":"levelo://app?vid=dfaa0623-ce2f-471f-ab06-0508d1705b47"},"vehicle_type_id":"4","last_reported":1706555102,"current_range_meters":0,"station_id":"ce4bhap2rcd13ifvqek0","pricing_plan_id":"free"},{"bike_id":"2bccb6e7-0d6b-4977-8fe0-e8b85c06f0e3","system_id":"levelo_inurba_marseille","lat":43.289184,"lon":5.366408,"is_reserved":false,"is_disabled":false,"rental_uris":{"android":"levelo://app?vid=2bccb6e7-0d6b-4977-8fe0-e8b85c06f0e3","ios":"levelo://app?vid=2bccb6e7-0d6b-4977-8fe0-e8b85c06f0e3"},"vehicle_type_id":"4","last_reported":1706555102,"current_range_meters":12800,"station_id":"ce4bhap2rcd13ifvqek0","pricing_plan_id":"free"},{"bike_id":"dd88e1bd-44ff-47c8-be6d-2a0d498073c1","system_id":"levelo_inurba_marseille","lat":43.294153,"lon":5.386305,"is_reserved":false,"is_disabled":false,"rental_uris":{"android":"levelo://app?vid=dd88e1bd-44ff-47c8-be6d-2a0d498073c1","ios":"levelo://app?vid=dd88e1bd-44ff-47c8-be6d-2a0d498073c1"},"vehicle_type_id":"4","last_reported":1706555102,"current_range_meters":3200,"station_id":"ce4bh2h2rcd13ifvqdh0","pricing_plan_id":"free"},{"bike_id":"947059b3-9f18-4094-95ea-9e84b5f296f6","system_id":"levelo_inurba_marseille","lat":43.289468,"lon":5.363719,"is_reserved":false,"is_disabled":false,"rental_uris":{"android":"levelo://app?vid=947059b3-9f18-4094-95ea-9e84b5f296f6","ios":"levelo://app?vid=947059b3-9f18-4094-95ea-9e84b5f296f6"},"vehicle_type_id":"4","last_reported":1706555102,"current_range_meters":0,"station_id":"ce4bhc92rcd13ifvqetg","pricing_plan_id":"free"},{"bike_id":"16d589da-d935-40a8-adce-34bbbff47be4","system_id":"levelo_inurba_marseille","lat":43.294162,"lon":5.386292,"is_reserved":false,"is_disabled":false,"rental_uris":{"android":"levelo://app?vid=16d589da-d935-40a8-adce-34bbbff47be4","ios":"levelo://app?vid=16d589da-d935-40a8-adce-34bbbff47be4"},"vehicle_type_id":"4","last_reported":1706555102,"current_range_meters":28000,"station_id":"ce4bh2h2rcd13ifvqdh0","pricing_plan_id":"free"},{"bike_id":"ad745826-684e-4b08-8498-9e019989ec30","system_id":"levelo_inurba_marseille","lat":43.289184,"lon":5.366408,"is_reserved":false,"is_disabled":false,"rental_uris":{"android":"levelo://app?vid=ad745826-684e-4b08-8498-9e019989ec30","ios":"levelo://app?vid=ad745826-684e-4b08-8498-9e019989ec30"},"vehicle_type_id":"4","last_reported":1706555102,"current_range_meters":20800,"station_id":"ce4bhap2rcd13ifvqek0","pricing_plan_id":"free"},{"bike_id":"d2986293-5dc2-4ff1-a501-b9cc26f9c107","system_id":"levelo_inurba_marseille","lat":43.294162,"lon":5.386292,"is_reserved":false,"is_disabled":false,"rental_uris":{"android":"levelo://app?vid=d2986293-5dc2-4ff1-a501-b9cc26f9c107","ios":"levelo://app?vid=d2986293-5dc2-4ff1-a501-b9cc26f9c107"},"vehicle_type_id":"4","last_reported":1706555102,"current_range_meters":400,"station_id":"ce4bh2h2rcd13ifvqdh0","pricing_plan_id":"free"},{"bike_id":"e727dfd3-6e41-4d83-ac06-8a9c97e4cb0f","system_id":"levelo_inurba_marseille","lat":43.289184,"lon":5.366408,"is_reserved":false,"is_disabled":false,"rental_uris":{"android":"levelo://app?vid=e727dfd3-6e41-4d83-ac06-8a9c97e4cb0f","ios":"levelo://app?vid=e727dfd3-6e41-4d83-ac06-8a9c97e4cb0f"},"vehicle_type_id":"4","last_reported":1706555102,"current_range_meters":9200,"station_id":"ce4bhap2rcd13ifvqek0","pricing_plan_id":"free"},{"bike_id":"507e99fb-43e1-40ff-91e1-9cf7825ed419","system_id":"levelo_inurba_marseille","lat":43.289184,"lon":5.366408,"is_reserved":false,"is_disabled":false,"rental_uris":{"android":"levelo://app?vid=507e99fb-43e1-40ff-91e1-9cf7825ed419","ios":"levelo://app?vid=507e99fb-43e1-40ff-91e1-9cf7825ed419"},"vehicle_type_id":"4","last_reported":1706555102,"current_range_meters":23200,"station_id":"ce4bhap2rcd13ifvqek0","pricing_plan_id":"free"},{"bike_id":"fbb33163-4eda-46c1-b5ee-6042cb7e3646","system_id":"levelo_inurba_marseille","lat":43.289468,"lon":5.363719,"is_reserved":false,"is_disabled":false,"rental_uris":{"android":"levelo://app?vid=fbb33163-4eda-46c1-b5ee-6042cb7e3646","ios":"levelo://app?vid=fbb33163-4eda-46c1-b5ee-6042cb7e3646"},"vehicle_type_id":"4","last_reported":1706555102,"current_range_meters":24000,"station_id":"ce4bhc92rcd13ifvqetg","pricing_plan_id":"free"},{"bike_id":"81db44b2-2bc9-4893-81af-644e7036631c","system_id":"levelo_inurba_marseille","lat":43.289184,"lon":5.366408,"is_reserved":false,"is_disabled":false,"rental_uris":{"android":"levelo://app?vid=81db44b2-2bc9-4893-81af-644e7036631c","ios":"levelo://app?vid=81db44b2-2bc9-4893-81af-644e7036631c"},"vehicle_type_id":"4","last_reported":1706555102,"current_range_meters":5600,"station_id":"ce4bhap2rcd13ifvqek0","pricing_plan_id":"free"},{"bike_id":"8e65bb9a-092a-41d7-81a4-2bfb64228907","system_id":"levelo_inurba_marseille","lat":43.289184,"lon":5.366408,"is_reserved":false,"is_disabled":false,"rental_uris":{"android":"levelo://app?vid=8e65bb9a-092a-41d7-81a4-2bfb64228907","ios":"levelo://app?vid=8e65bb9a-092a-41d7-81a4-2bfb64228907"},"vehicle_type_id":"4","last_reported":1706555102,"current_range_meters":0,"station_id":"ce4bhap2rcd13ifvqek0","pricing_plan_id":"free"},{"bike_id":"363aa926-8866-4fcb-a9cf-e28d558fadec","system_id":"levelo_inurba_marseille","lat":43.289184,"lon":5.366408,"is_reserved":false,"is_disabled":false,"rental_uris":{"android":"levelo://app?vid=363aa926-8866-4fcb-a9cf-e28d558fadec","ios":"levelo://app?vid=363aa926-8866-4fcb-a9cf-e28d558fadec"},"vehicle_type_id":"4","last_reported":1706555102,"current_range_meters":20000,"station_id":"ce4bhap2rcd13ifvqek0","pricing_plan_id":"free"},{"bike_id":"d26f5bdf-3c12-49a2-b03b-eb4fca799f15","system_id":"levelo_inurba_marseille","lat":43.289468,"lon":5.363719,"is_reserved":false,"is_disabled":false,"rental_uris":{"android":"levelo://app?vid=d26f5bdf-3c12-49a2-b03b-eb4fca799f15","ios":"levelo://app?vid=d26f5bdf-3c12-49a2-b03b-eb4fca799f15"},"vehicle_type_id":"4","last_reported":1706555102,"current_range_meters":25600,"station_id":"ce4bhc92rcd13ifvqetg","pricing_plan_id":"free"},{"bike_id":"03e7b9a9-c575-4575-ad17-1c98c5f8c8fe","system_id":"levelo_inurba_marseille","lat":43.292644,"lon":5.384257,"is_reserved":false,"is_disabled":false,"rental_uris":{"android":"levelo://app?vid=03e7b9a9-c575-4575-ad17-1c98c5f8c8fe","ios":"levelo://app?vid=03e7b9a9-c575-4575-ad17-1c98c5f8c8fe"},"vehicle_type_id":"4","last_reported":1706555102,"current_range_meters":15200,"station_id":"ce4bh692rcd13ifvqea0","pricing_plan_id":"free"},{"bike_id":"408a3134-c2df-4744-88d7-aa3682f32ca8","system_id":"levelo_inurba_marseille","lat":43.292644,"lon":5.384257,"is_reserved":false,"is_disabled":false,"rental_uris":{"android":"levelo://app?vid=408a3134-c2df-4744-88d7-aa3682f32ca8","ios":"levelo://app?vid=408a3134-c2df-4744-88d7-aa3682f32ca8"},"vehicle_type_id":"4","last_reported":1706555102,"current_range_meters":9200,"station_id":"ce4bh692rcd13ifvqea0","pricing_plan_id":"free"},{"bike_id":"2857e10e-86c6-4147-8bf1-2b8777925806","system_id":"levelo_inurba_marseille","lat":43.292644,"lon":5.384257,"is_reserved":false,"is_disabled":false,"rental_uris":{"android":"levelo://app?vid=2857e10e-86c6-4147-8bf1-2b8777925806","ios":"levelo://app?vid=2857e10e-86c6-4147-8bf1-2b8777925806"},"vehicle_type_id":"4","last_reported":1706555102,"current_range_meters":0,"station_id":"ce4bh692rcd13ifvqea0","pricing_plan_id":"free"},{"bike_id":"ef0b4de9-5165-4bfe-8123-c89cc4069c6c","system_id":"levelo_inurba_marseille","lat":43.292642,"lon":5.384254,"is_reserved":false,"is_disabled":false,"rental_uris":{"android":"levelo://app?vid=ef0b4de9-5165-4bfe-8123-c89cc4069c6c","ios":"levelo://app?vid=ef0b4de9-5165-4bfe-8123-c89cc4069c6c"},"vehicle_type_id":"4","last_reported":1706555102,"current_range_meters":4000,"station_id":"ce4bh692rcd13ifvqea0","pricing_plan_id":"free"},{"bike_id":"c6dc3a86-1221-4e31-9549-71619586481a","system_id":"levelo_inurba_marseille","lat":43.292644,"lon":5.384257,"is_reserved":false,"is_disabled":false,"rental_uris":{"android":"levelo://app?vid=c6dc3a86-1221-4e31-9549-71619586481a","ios":"levelo://app?vid=c6dc3a86-1221-4e31-9549-71619586481a"},"vehicle_type_id":"4","last_reported":1706555102,"current_range_meters":21600,"station_id":"ce4bh692rcd13ifvqea0","pricing_plan_id":"free"},{"bike_id":"6873015c-3a23-4e22-b5c9-a7a1e9f5d45b","system_id":"levelo_inurba_marseille","lat":43.290104,"lon":5.356111,"is_reserved":false,"is_disabled":false,"rental_uris":{"android":"levelo://app?vid=6873015c-3a23-4e22-b5c9-a7a1e9f5d45b","ios":"levelo://app?vid=6873015c-3a23-4e22-b5c9-a7a1e9f5d45b"},"vehicle_type_id":"4","last_reported":1706555102,"current_range_meters":8400,"station_id":"ce4bhb92rcd13ifvqen0","pricing_plan_id":"free"},{"bike_id":"09b28bb1-eaef-4fc5-8e92-a20af9f04676","system_id":"levelo_inurba_marseille","lat":43.290104,"lon":5.356111,"is_reserved":false,"is_disabled":false,"rental_uris":{"android":"levelo://app?vid=09b28bb1-eaef-4fc5-8e92-a20af9f04676","ios":"levelo://app?vid=09b28bb1-eaef-4fc5-8e92-a20af9f04676"},"vehicle_type_id":"4","last_reported":1706555102,"current_range_meters":26400,"station_id":"ce4bhb92rcd13ifvqen0","pricing_plan_id":"free"},{"bike_id":"3976a428-840c-4786-ba99-d47b4ba4e93e","system_id":"levelo_inurba_marseille","lat":43.290104,"lon":5.356111,"is_reserved":false,"is_disabled":false,"rental_uris":{"android":"levelo://app?vid=3976a428-840c-4786-ba99-d47b4ba4e93e","ios":"levelo://app?vid=3976a428-840c-4786-ba99-d47b4ba4e93e"},"vehicle_type_id":"4","last_reported":1706555102,"current_range_meters":6000,"station_id":"ce4bhb92rcd13ifvqen0","pricing_plan_id":"free"},{"bike_id":"a7509b3c-4672-4852-9ad3-cfc45a8ca465","system_id":"levelo_inurba_marseille","lat":43.290995,"lon":5.381361,"is_reserved":false,"is_disabled":false,"rental_uris":{"android":"levelo://app?vid=a7509b3c-4672-4852-9ad3-cfc45a8ca465","ios":"levelo://app?vid=a7509b3c-4672-4852-9ad3-cfc45a8ca465"},"vehicle_type_id":"4","last_reported":1706555102,"current_range_meters":5200,"station_id":"ce4bh512rcd13ifvqe2g","pricing_plan_id":"free"},{"bike_id":"529cf030-bef8-480e-badd-77ab69b88721","system_id":"levelo_inurba_marseille","lat":43.290995,"lon":5.381361,"is_reserved":false,"is_disabled":false,"rental_uris":{"android":"levelo://app?vid=529cf030-bef8-480e-badd-77ab69b88721","ios":"levelo://app?vid=529cf030-bef8-480e-badd-77ab69b88721"},"vehicle_type_id":"4","last_reported":1706555102,"current_range_meters":0,"station_id":"ce4bh512rcd13ifvqe2g","pricing_plan_id":"free"},{"bike_id":"d51b1970-66e9-4745-a2d3-9782ad9b9410","system_id":"levelo_inurba_marseille","lat":43.297815,"lon":5.393548,"is_reserved":false,"is_disabled":false,"rental_uris":{"android":"levelo://app?vid=d51b1970-66e9-4745-a2d3-9782ad9b9410","ios":"levelo://app?vid=d51b1970-66e9-4745-a2d3-9782ad9b9410"},"vehicle_type_id":"4","last_reported":1706555102,"current_range_meters":26400,"station_id":"chh1huq6cuj3fo74tm60","pricing_plan_id":"free"},{"bike_id":"20ea5f87-60a8-4c54-bf47-7cf5fe6c9a70","system_id":"levelo_inurba_marseille","lat":43.289743,"lon":5.378304,"is_reserved":false,"is_disabled":false,"rental_uris":{"android":"levelo://app?vid=20ea5f87-60a8-4c54-bf47-7cf5fe6c9a70","ios":"levelo://app?vid=20ea5f87-60a8-4c54-bf47-7cf5fe6c9a70"},"vehicle_type_id":"4","last_reported":1706555102,"current_range_meters":0,"station_id":"ce4bh9p2rcd13ifvqed0","pricing_plan_id":"free"},{"bike_id":"a1df9e09-21b8-4c02-8ee9-7524fc7ade4f","system_id":"levelo_inurba_marseille","lat":43.289743,"lon":5.378304,"is_reserved":false,"is_disabled":false,"rental_uris":{"android":"levelo://app?vid=a1df9e09-21b8-4c02-8ee9-7524fc7ade4f","ios":"levelo://app?vid=a1df9e09-21b8-4c02-8ee9-7524fc7ade4f"},"vehicle_type_id":"4","last_reported":1706555102,"current_range_meters":4000,"station_id":"ce4bh9p2rcd13ifvqed0","pricing_plan_id":"free"},{"bike_id":"2c35eee9-0a73-4a36-80a9-96c0004dabf1","system_id":"levelo_inurba_marseille","lat":43.330442,"lon":5.389148,"is_reserved":false,"is_disabled":false,"rental_uris":{"android":"levelo://app?vid=2c35eee9-0a73-4a36-80a9-96c0004dabf1","ios":"levelo://app?vid=2c35eee9-0a73-4a36-80a9-96c0004dabf1"},"vehicle_type_id":"4","last_reported":1706555102,"current_range_meters":30400,"station_id":"ce4bhr92rcd13ifvqhrg","pricing_plan_id":"free"},{"bike_id":"536d2704-3927-4957-837a-b2b86a24d827","system_id":"levelo_inurba_marseille","lat":43.330442,"lon":5.389148,"is_reserved":false,"is_disabled":false,"rental_uris":{"android":"levelo://app?vid=536d2704-3927-4957-837a-b2b86a24d827","ios":"levelo://app?vid=536d2704-3927-4957-837a-b2b86a24d827"},"vehicle_type_id":"4","last_reported":1706555102,"current_range_meters":18000,"station_id":"ce4bhr92rcd13ifvqhrg","pricing_plan_id":"free"},{"bike_id":"e3773d17-b3ff-4c6d-a9e3-b9f663b101b1","system_id":"levelo_inurba_marseille","lat":43.29783,"lon":5.39349,"is_reserved":false,"is_disabled":false,"rental_uris":{"android":"levelo://app?vid=e3773d17-b3ff-4c6d-a9e3-b9f663b101b1","ios":"levelo://app?vid=e3773d17-b3ff-4c6d-a9e3-b9f663b101b1"},"vehicle_type_id":"4","last_reported":1706555102,"current_range_meters":800,"station_id":"chh1huq6cuj3fo74tm60","pricing_plan_id":"free"},{"bike_id":"1b595fdb-dca1-4bb2-891b-d0665c2159f2","system_id":"levelo_inurba_marseille","lat":43.289743,"lon":5.378304,"is_reserved":false,"is_disabled":false,"rental_uris":{"android":"levelo://app?vid=1b595fdb-dca1-4bb2-891b-d0665c2159f2","ios":"levelo://app?vid=1b595fdb-dca1-4bb2-891b-d0665c2159f2"},"vehicle_type_id":"4","last_reported":1706555102,"current_range_meters":0,"station_id":"ce4bh9p2rcd13ifvqed0","pricing_plan_id":"free"},{"bike_id":"560df544-b0a0-46e5-bc31-37959c9ad887","system_id":"levelo_inurba_marseille","lat":43.297815,"lon":5.393548,"is_reserved":false,"is_disabled":false,"rental_uris":{"android":"levelo://app?vid=560df544-b0a0-46e5-bc31-37959c9ad887","ios":"levelo://app?vid=560df544-b0a0-46e5-bc31-37959c9ad887"},"vehicle_type_id":"4","last_reported":1706555102,"current_range_meters":29200,"station_id":"chh1huq6cuj3fo74tm60","pricing_plan_id":"free"},{"bike_id":"7c5b2c2d-6d58-4424-9b1b-d83dd6812b39","system_id":"levelo_inurba_marseille","lat":43.295169,"lon":5.390426,"is_reserved":false,"is_disabled":false,"rental_uris":{"android":"levelo://app?vid=7c5b2c2d-6d58-4424-9b1b-d83dd6812b39","ios":"levelo://app?vid=7c5b2c2d-6d58-4424-9b1b-d83dd6812b39"},"vehicle_type_id":"4","last_reported":1706555102,"current_range_meters":22000,"station_id":"ce4bh3p2rcd13ifvqdp0","pricing_plan_id":"free"},{"bike_id":"ca0d8e53-0e04-4cb7-a2a9-e398803487ef","system_id":"levelo_inurba_marseille","lat":43.330442,"lon":5.389148,"is_reserved":false,"is_disabled":false,"rental_uris":{"android":"levelo://app?vid=ca0d8e53-0e04-4cb7-a2a9-e398803487ef","ios":"levelo://app?vid=ca0d8e53-0e04-4cb7-a2a9-e398803487ef"},"vehicle_type_id":"4","last_reported":1706555102,"current_range_meters":30800,"station_id":"ce4bhr92rcd13ifvqhrg","pricing_plan_id":"free"},{"bike_id":"b7e9febd-67eb-4972-9aa9-ea8a8f06e051","system_id":"levelo_inurba_marseille","lat":43.330442,"lon":5.389148,"is_reserved":false,"is_disabled":false,"rental_uris":{"android":"levelo://app?vid=b7e9febd-67eb-4972-9aa9-ea8a8f06e051","ios":"levelo://app?vid=b7e9febd-67eb-4972-9aa9-ea8a8f06e051"},"vehicle_type_id":"4","last_reported":1706555102,"current_range_meters":16800,"station_id":"ce4bhr92rcd13ifvqhrg","pricing_plan_id":"free"},{"bike_id":"84c18c5f-064f-4753-ad49-7892cdfac9ff","system_id":"levelo_inurba_marseille","lat":43.330442,"lon":5.389148,"is_reserved":false,"is_disabled":false,"rental_uris":{"android":"levelo://app?vid=84c18c5f-064f-4753-ad49-7892cdfac9ff","ios":"levelo://app?vid=84c18c5f-064f-4753-ad49-7892cdfac9ff"},"vehicle_type_id":"4","last_reported":1706555102,"current_range_meters":15600,"station_id":"ce4bhr92rcd13ifvqhrg","pricing_plan_id":"free"},{"bike_id":"d63b2dfe-736b-417f-b8bf-416dcfe32c7f","system_id":"levelo_inurba_marseille","lat":43.295169,"lon":5.390426,"is_reserved":false,"is_disabled":false,"rental_uris":{"android":"levelo://app?vid=d63b2dfe-736b-417f-b8bf-416dcfe32c7f","ios":"levelo://app?vid=d63b2dfe-736b-417f-b8bf-416dcfe32c7f"},"vehicle_type_id":"4","last_reported":1706555102,"current_range_meters":12800,"station_id":"ce4bh3p2rcd13ifvqdp0","pricing_plan_id":"free"},{"bike_id":"e87b583a-d640-42ab-a628-61b09c329ce9","system_id":"levelo_inurba_marseille","lat":43.330442,"lon":5.389148,"is_reserved":false,"is_disabled":false,"rental_uris":{"android":"levelo://app?vid=e87b583a-d640-42ab-a628-61b09c329ce9","ios":"levelo://app?vid=e87b583a-d640-42ab-a628-61b09c329ce9"},"vehicle_type_id":"4","last_reported":1706555102,"current_range_meters":30400,"station_id":"ce4bhr92rcd13ifvqhrg","pricing_plan_id":"free"},{"bike_id":"6f178efd-782d-4a1d-bb2b-022ab9c2d302","system_id":"levelo_inurba_marseille","lat":43.295169,"lon":5.390426,"is_reserved":false,"is_disabled":false,"rental_uris":{"android":"levelo://app?vid=6f178efd-782d-4a1d-bb2b-022ab9c2d302","ios":"levelo://app?vid=6f178efd-782d-4a1d-bb2b-022ab9c2d302"},"vehicle_type_id":"4","last_reported":1706555102,"current_range_meters":18400,"station_id":"ce4bh3p2rcd13ifvqdp0","pricing_plan_id":"free"},{"bike_id":"e20b1263-328a-4d93-95fe-8c2b35060a8d","system_id":"levelo_inurba_marseille","lat":43.295169,"lon":5.390426,"is_reserved":false,"is_disabled":false,"rental_uris":{"android":"levelo://app?vid=e20b1263-328a-4d93-95fe-8c2b35060a8d","ios":"levelo://app?vid=e20b1263-328a-4d93-95fe-8c2b35060a8d"},"vehicle_type_id":"4","last_reported":1706555102,"current_range_meters":4000,"station_id":"ce4bh3p2rcd13ifvqdp0","pricing_plan_id":"free"},{"bike_id":"bcb4a93d-67d3-41e9-bff5-adfd3537a796","system_id":"levelo_inurba_marseille","lat":43.28856,"lon":5.358371,"is_reserved":false,"is_disabled":false,"rental_uris":{"android":"levelo://app?vid=bcb4a93d-67d3-41e9-bff5-adfd3537a796","ios":"levelo://app?vid=bcb4a93d-67d3-41e9-bff5-adfd3537a796"},"vehicle_type_id":"4","last_reported":1706555102,"current_range_meters":24800,"station_id":"ce4bhb12rcd13ifvqem0","pricing_plan_id":"free"},{"bike_id":"1390820a-21ee-4be8-9142-26d4fe7aab03","system_id":"levelo_inurba_marseille","lat":43.2901,"lon":5.381269,"is_reserved":false,"is_disabled":false,"rental_uris":{"android":"levelo://app?vid=1390820a-21ee-4be8-9142-26d4fe7aab03","ios":"levelo://app?vid=1390820a-21ee-4be8-9142-26d4fe7aab03"},"vehicle_type_id":"4","last_reported":1706555102,"current_range_meters":0,"station_id":"ce4bh4p2rcd13ifvqe1g","pricing_plan_id":"free"},{"bike_id":"aa7aa871-37b1-4ba0-9e45-abce3106479d","system_id":"levelo_inurba_marseille","lat":43.28856,"lon":5.358371,"is_reserved":false,"is_disabled":false,"rental_uris":{"android":"levelo://app?vid=aa7aa871-37b1-4ba0-9e45-abce3106479d","ios":"levelo://app?vid=aa7aa871-37b1-4ba0-9e45-abce3106479d"},"vehicle_type_id":"4","last_reported":1706555102,"current_range_meters":4400,"station_id":"ce4bhb12rcd13ifvqem0","pricing_plan_id":"free"},{"bike_id":"4729c0d4-9a73-419c-919f-11172d77f3d4","system_id":"levelo_inurba_marseille","lat":43.28856,"lon":5.358371,"is_reserved":false,"is_disabled":false,"rental_uris":{"android":"levelo://app?vid=4729c0d4-9a73-419c-919f-11172d77f3d4","ios":"levelo://app?vid=4729c0d4-9a73-419c-919f-11172d77f3d4"},"vehicle_type_id":"4","last_reported":1706555102,"current_range_meters":0,"station_id":"ce4bhb12rcd13ifvqem0","pricing_plan_id":"free"},{"bike_id":"d745797d-d48b-41a2-a87a-e95b1ea7a4eb","system_id":"levelo_inurba_marseille","lat":43.28856,"lon":5.358371,"is_reserved":false,"is_disabled":false,"rental_uris":{"android":"levelo://app?vid=d745797d-d48b-41a2-a87a-e95b1ea7a4eb","ios":"levelo://app?vid=d745797d-d48b-41a2-a87a-e95b1ea7a4eb"},"vehicle_type_id":"4","last_reported":1706555102,"current_range_meters":10400,"station_id":"ce4bhb12rcd13ifvqem0","pricing_plan_id":"free"},{"bike_id":"dc0cb5b0-1098-450d-af84-8fb9ff29bf5f","system_id":"levelo_inurba_marseille","lat":43.28856,"lon":5.358371,"is_reserved":false,"is_disabled":false,"rental_uris":{"android":"levelo://app?vid=dc0cb5b0-1098-450d-af84-8fb9ff29bf5f","ios":"levelo://app?vid=dc0cb5b0-1098-450d-af84-8fb9ff29bf5f"},"vehicle_type_id":"4","last_reported":1706555102,"current_range_meters":7600,"station_id":"ce4bhb12rcd13ifvqem0","pricing_plan_id":"free"},{"bike_id":"bd3899d8-ec28-431b-bf01-9b6662f0824a","system_id":"levelo_inurba_marseille","lat":43.28856,"lon":5.358371,"is_reserved":false,"is_disabled":false,"rental_uris":{"android":"levelo://app?vid=bd3899d8-ec28-431b-bf01-9b6662f0824a","ios":"levelo://app?vid=bd3899d8-ec28-431b-bf01-9b6662f0824a"},"vehicle_type_id":"4","last_reported":1706555102,"current_range_meters":22800,"station_id":"ce4bhb12rcd13ifvqem0","pricing_plan_id":"free"},{"bike_id":"996874ac-4858-428d-9bcb-6194a257f641","system_id":"levelo_inurba_marseille","lat":43.28856,"lon":5.358371,"is_reserved":false,"is_disabled":false,"rental_uris":{"android":"levelo://app?vid=996874ac-4858-428d-9bcb-6194a257f641","ios":"levelo://app?vid=996874ac-4858-428d-9bcb-6194a257f641"},"vehicle_type_id":"4","last_reported":1706555102,"current_range_meters":9600,"station_id":"ce4bhb12rcd13ifvqem0","pricing_plan_id":"free"},{"bike_id":"3f5a1704-2581-433f-baf0-646f390f1ba9","system_id":"levelo_inurba_marseille","lat":43.309371,"lon":5.401449,"is_reserved":false,"is_disabled":false,"rental_uris":{"android":"levelo://app?vid=3f5a1704-2581-433f-baf0-646f390f1ba9","ios":"levelo://app?vid=3f5a1704-2581-433f-baf0-646f390f1ba9"},"vehicle_type_id":"4","last_reported":1706555102,"current_range_meters":6000,"station_id":"ce4bgvp2rcd13ifvqct0","pricing_plan_id":"free"},{"bike_id":"7128ed34-91ea-4022-82c3-1136ced4ab6f","system_id":"levelo_inurba_marseille","lat":43.309371,"lon":5.401449,"is_reserved":false,"is_disabled":false,"rental_uris":{"android":"levelo://app?vid=7128ed34-91ea-4022-82c3-1136ced4ab6f","ios":"levelo://app?vid=7128ed34-91ea-4022-82c3-1136ced4ab6f"},"vehicle_type_id":"4","last_reported":1706555102,"current_range_meters":0,"station_id":"ce4bgvp2rcd13ifvqct0","pricing_plan_id":"free"},{"bike_id":"a563cdbf-78b8-441c-8dce-8da1c3325b92","system_id":"levelo_inurba_marseille","lat":43.337502,"lon":5.374518,"is_reserved":false,"is_disabled":false,"rental_uris":{"android":"levelo://app?vid=a563cdbf-78b8-441c-8dce-8da1c3325b92","ios":"levelo://app?vid=a563cdbf-78b8-441c-8dce-8da1c3325b92"},"vehicle_type_id":"4","last_reported":1706555102,"current_range_meters":20000,"station_id":"","pricing_plan_id":"free"},{"bike_id":"9969667f-1d24-488d-a8d3-9c8731952304","system_id":"levelo_inurba_marseille","lat":43.30933,"lon":5.40149,"is_reserved":false,"is_disabled":false,"rental_uris":{"android":"levelo://app?vid=9969667f-1d24-488d-a8d3-9c8731952304","ios":"levelo://app?vid=9969667f-1d24-488d-a8d3-9c8731952304"},"vehicle_type_id":"4","last_reported":1706555102,"current_range_meters":1600,"station_id":"ce4bgvp2rcd13ifvqct0","pricing_plan_id":"free"},{"bike_id":"b7f12eab-e0a6-499e-87ec-2b4381c4602a","system_id":"levelo_inurba_marseille","lat":43.337544,"lon":5.374554,"is_reserved":false,"is_disabled":false,"rental_uris":{"android":"levelo://app?vid=b7f12eab-e0a6-499e-87ec-2b4381c4602a","ios":"levelo://app?vid=b7f12eab-e0a6-499e-87ec-2b4381c4602a"},"vehicle_type_id":"4","last_reported":1706555102,"current_range_meters":21200,"station_id":"","pricing_plan_id":"free"},{"bike_id":"f7e38767-d006-4982-a901-2c36f318c099","system_id":"levelo_inurba_marseille","lat":43.309371,"lon":5.401449,"is_reserved":false,"is_disabled":false,"rental_uris":{"android":"levelo://app?vid=f7e38767-d006-4982-a901-2c36f318c099","ios":"levelo://app?vid=f7e38767-d006-4982-a901-2c36f318c099"},"vehicle_type_id":"4","last_reported":1706555102,"current_range_meters":0,"station_id":"ce4bgvp2rcd13ifvqct0","pricing_plan_id":"free"},{"bike_id":"2fe24097-b1c2-4583-ba1f-cf8501171a4c","system_id":"levelo_inurba_marseille","lat":43.33752,"lon":5.37489,"is_reserved":false,"is_disabled":false,"rental_uris":{"android":"levelo://app?vid=2fe24097-b1c2-4583-ba1f-cf8501171a4c","ios":"levelo://app?vid=2fe24097-b1c2-4583-ba1f-cf8501171a4c"},"vehicle_type_id":"4","last_reported":1706555102,"current_range_meters":6000,"station_id":"","pricing_plan_id":"free"},{"bike_id":"663b4048-76fd-43f1-8346-64e09c2c7288","system_id":"levelo_inurba_marseille","lat":43.337579,"lon":5.374576,"is_reserved":false,"is_disabled":false,"rental_uris":{"android":"levelo://app?vid=663b4048-76fd-43f1-8346-64e09c2c7288","ios":"levelo://app?vid=663b4048-76fd-43f1-8346-64e09c2c7288"},"vehicle_type_id":"4","last_reported":1706555102,"current_range_meters":17600,"station_id":"","pricing_plan_id":"free"},{"bike_id":"91b6ff85-6ee5-4dda-afcf-7e77437e0e9c","system_id":"levelo_inurba_marseille","lat":43.337622,"lon":5.37437,"is_reserved":false,"is_disabled":false,"rental_uris":{"android":"levelo://app?vid=91b6ff85-6ee5-4dda-afcf-7e77437e0e9c","ios":"levelo://app?vid=91b6ff85-6ee5-4dda-afcf-7e77437e0e9c"},"vehicle_type_id":"4","last_reported":1706555102,"current_range_meters":22000,"station_id":"","pricing_plan_id":"free"},{"bike_id":"b7d3b81d-d85a-44b5-a0c7-8f9c9f74639e","system_id":"levelo_inurba_marseille","lat":43.337652,"lon":5.374317,"is_reserved":false,"is_disabled":false,"rental_uris":{"android":"levelo://app?vid=b7d3b81d-d85a-44b5-a0c7-8f9c9f74639e","ios":"levelo://app?vid=b7d3b81d-d85a-44b5-a0c7-8f9c9f74639e"},"vehicle_type_id":"4","last_reported":1706555102,"current_range_meters":25600,"station_id":"","pricing_plan_id":"free"},{"bike_id":"22f2ddad-3b54-4c31-8db7-750ed6b09aaa","system_id":"levelo_inurba_marseille","lat":43.29943,"lon":5.39689,"is_reserved":false,"is_disabled":false,"rental_uris":{"android":"levelo://app?vid=22f2ddad-3b54-4c31-8db7-750ed6b09aaa","ios":"levelo://app?vid=22f2ddad-3b54-4c31-8db7-750ed6b09aaa"},"vehicle_type_id":"4","last_reported":1706555102,"current_range_meters":14400,"station_id":"","pricing_plan_id":"free"},{"bike_id":"1facbbf3-baac-42f8-85eb-cb1e36f3e4b9","system_id":"levelo_inurba_marseille","lat":43.33762,"lon":5.374955,"is_reserved":false,"is_disabled":false,"rental_uris":{"android":"levelo://app?vid=1facbbf3-baac-42f8-85eb-cb1e36f3e4b9","ios":"levelo://app?vid=1facbbf3-baac-42f8-85eb-cb1e36f3e4b9"},"vehicle_type_id":"4","last_reported":1706555102,"current_range_meters":8000,"station_id":"","pricing_plan_id":"free"},{"bike_id":"12568932-a9a7-4d52-8b2c-668683b75358","system_id":"levelo_inurba_marseille","lat":43.337644,"lon":5.374869,"is_reserved":false,"is_disabled":false,"rental_uris":{"android":"levelo://app?vid=12568932-a9a7-4d52-8b2c-668683b75358","ios":"levelo://app?vid=12568932-a9a7-4d52-8b2c-668683b75358"},"vehicle_type_id":"4","last_reported":1706555102,"current_range_meters":18000,"station_id":"","pricing_plan_id":"free"},{"bike_id":"c4f83dcc-dc22-4f8d-97de-a4419da5558f","system_id":"levelo_inurba_marseille","lat":43.301117,"lon":5.398795,"is_reserved":false,"is_disabled":false,"rental_uris":{"android":"levelo://app?vid=c4f83dcc-dc22-4f8d-97de-a4419da5558f","ios":"levelo://app?vid=c4f83dcc-dc22-4f8d-97de-a4419da5558f"},"vehicle_type_id":"4","last_reported":1706555102,"current_range_meters":800,"station_id":"ce4bh0h2rcd13ifvqd40","pricing_plan_id":"free"},{"bike_id":"e70056f7-7c7e-48bc-ac05-2016088c4f26","system_id":"levelo_inurba_marseille","lat":43.301117,"lon":5.398795,"is_reserved":false,"is_disabled":false,"rental_uris":{"android":"levelo://app?vid=e70056f7-7c7e-48bc-ac05-2016088c4f26","ios":"levelo://app?vid=e70056f7-7c7e-48bc-ac05-2016088c4f26"},"vehicle_type_id":"4","last_reported":1706555102,"current_range_meters":16000,"station_id":"ce4bh0h2rcd13ifvqd40","pricing_plan_id":"free"},{"bike_id":"11c451b0-58dc-4e9d-bb0a-3a3ebffc0540","system_id":"levelo_inurba_marseille","lat":43.301117,"lon":5.398795,"is_reserved":false,"is_disabled":false,"rental_uris":{"android":"levelo://app?vid=11c451b0-58dc-4e9d-bb0a-3a3ebffc0540","ios":"levelo://app?vid=11c451b0-58dc-4e9d-bb0a-3a3ebffc0540"},"vehicle_type_id":"4","last_reported":1706555102,"current_range_meters":8400,"station_id":"ce4bh0h2rcd13ifvqd40","pricing_plan_id":"free"},{"bike_id":"16f195f1-694e-4366-9c05-7bc3e544bd02","system_id":"levelo_inurba_marseille","lat":43.301117,"lon":5.398795,"is_reserved":false,"is_disabled":false,"rental_uris":{"android":"levelo://app?vid=16f195f1-694e-4366-9c05-7bc3e544bd02","ios":"levelo://app?vid=16f195f1-694e-4366-9c05-7bc3e544bd02"},"vehicle_type_id":"4","last_reported":1706555102,"current_range_meters":17200,"station_id":"ce4bh0h2rcd13ifvqd40","pricing_plan_id":"free"},{"bike_id":"23e8d7b3-8bca-40b5-b77e-6c26efbb4cf9","system_id":"levelo_inurba_marseille","lat":43.301117,"lon":5.398795,"is_reserved":false,"is_disabled":false,"rental_uris":{"android":"levelo://app?vid=23e8d7b3-8bca-40b5-b77e-6c26efbb4cf9","ios":"levelo://app?vid=23e8d7b3-8bca-40b5-b77e-6c26efbb4cf9"},"vehicle_type_id":"4","last_reported":1706555102,"current_range_meters":0,"station_id":"ce4bh0h2rcd13ifvqd40","pricing_plan_id":"free"},{"bike_id":"c77238a3-22c2-4cc0-978c-c10c0a714161","system_id":"levelo_inurba_marseille","lat":43.28727,"lon":5.36078,"is_reserved":false,"is_disabled":false,"rental_uris":{"android":"levelo://app?vid=c77238a3-22c2-4cc0-978c-c10c0a714161","ios":"levelo://app?vid=c77238a3-22c2-4cc0-978c-c10c0a714161"},"vehicle_type_id":"4","last_reported":1706555102,"current_range_meters":6000,"station_id":"cki0cbj6b192h4jlfktg","pricing_plan_id":"free"},{"bike_id":"3c082ef8-998e-4b68-a29d-6b97c12f9805","system_id":"levelo_inurba_marseille","lat":43.30473,"lon":5.40072,"is_reserved":false,"is_disabled":false,"rental_uris":{"android":"levelo://app?vid=3c082ef8-998e-4b68-a29d-6b97c12f9805","ios":"levelo://app?vid=3c082ef8-998e-4b68-a29d-6b97c12f9805"},"vehicle_type_id":"4","last_reported":1706555102,"current_range_meters":25200,"station_id":"","pricing_plan_id":"free"},{"bike_id":"aa0b0188-9b90-44ea-8753-68e9a43b227e","system_id":"levelo_inurba_marseille","lat":43.298681,"lon":5.397225,"is_reserved":false,"is_disabled":false,"rental_uris":{"android":"levelo://app?vid=aa0b0188-9b90-44ea-8753-68e9a43b227e","ios":"levelo://app?vid=aa0b0188-9b90-44ea-8753-68e9a43b227e"},"vehicle_type_id":"4","last_reported":1706555102,"current_range_meters":8400,"station_id":"ce4bh0h2rcd13ifvqd50","pricing_plan_id":"free"},{"bike_id":"1b1fb395-0bd7-4d4a-8dc5-30cc98791e6f","system_id":"levelo_inurba_marseille","lat":43.298681,"lon":5.397225,"is_reserved":false,"is_disabled":false,"rental_uris":{"android":"levelo://app?vid=1b1fb395-0bd7-4d4a-8dc5-30cc98791e6f","ios":"levelo://app?vid=1b1fb395-0bd7-4d4a-8dc5-30cc98791e6f"},"vehicle_type_id":"4","last_reported":1706555102,"current_range_meters":27600,"station_id":"ce4bh0h2rcd13ifvqd50","pricing_plan_id":"free"},{"bike_id":"035e8b1d-38ee-4a2a-9c48-56623716c567","system_id":"levelo_inurba_marseille","lat":43.298681,"lon":5.397225,"is_reserved":false,"is_disabled":false,"rental_uris":{"android":"levelo://app?vid=035e8b1d-38ee-4a2a-9c48-56623716c567","ios":"levelo://app?vid=035e8b1d-38ee-4a2a-9c48-56623716c567"},"vehicle_type_id":"4","last_reported":1706555102,"current_range_meters":8800,"station_id":"ce4bh0h2rcd13ifvqd50","pricing_plan_id":"free"},{"bike_id":"54c7e8bc-34b9-4735-9532-d5fc6184a089","system_id":"levelo_inurba_marseille","lat":43.286663,"lon":5.363462,"is_reserved":false,"is_disabled":false,"rental_uris":{"android":"levelo://app?vid=54c7e8bc-34b9-4735-9532-d5fc6184a089","ios":"levelo://app?vid=54c7e8bc-34b9-4735-9532-d5fc6184a089"},"vehicle_type_id":"4","last_reported":1706555102,"current_range_meters":15600,"station_id":"","pricing_plan_id":"free"},{"bike_id":"c7da7882-a508-46a7-9e0d-4a8273b959f6","system_id":"levelo_inurba_marseille","lat":43.298681,"lon":5.397225,"is_reserved":false,"is_disabled":false,"rental_uris":{"android":"levelo://app?vid=c7da7882-a508-46a7-9e0d-4a8273b959f6","ios":"levelo://app?vid=c7da7882-a508-46a7-9e0d-4a8273b959f6"},"vehicle_type_id":"4","last_reported":1706555102,"current_range_meters":4000,"station_id":"ce4bh0h2rcd13ifvqd50","pricing_plan_id":"free"},{"bike_id":"9dc00ff7-ba5d-4354-9486-56278cd0763b","system_id":"levelo_inurba_marseille","lat":43.298604,"lon":5.39732,"is_reserved":false,"is_disabled":false,"rental_uris":{"android":"levelo://app?vid=9dc00ff7-ba5d-4354-9486-56278cd0763b","ios":"levelo://app?vid=9dc00ff7-ba5d-4354-9486-56278cd0763b"},"vehicle_type_id":"4","last_reported":1706555102,"current_range_meters":0,"station_id":"ce4bh0h2rcd13ifvqd50","pricing_plan_id":"free"},{"bike_id":"dd1fa56d-1b1d-4b85-89c4-7e0a354977bf","system_id":"levelo_inurba_marseille","lat":43.295196,"lon":5.39397,"is_reserved":false,"is_disabled":false,"rental_uris":{"android":"levelo://app?vid=dd1fa56d-1b1d-4b85-89c4-7e0a354977bf","ios":"levelo://app?vid=dd1fa56d-1b1d-4b85-89c4-7e0a354977bf"},"vehicle_type_id":"4","last_reported":1706555102,"current_range_meters":13200,"station_id":"ce4bh292rcd13ifvqdf0","pricing_plan_id":"free"},{"bike_id":"36685a7d-b33c-4492-bee1-f619f7189862","system_id":"levelo_inurba_marseille","lat":43.286961,"lon":5.373785,"is_reserved":false,"is_disabled":false,"rental_uris":{"android":"levelo://app?vid=36685a7d-b33c-4492-bee1-f619f7189862","ios":"levelo://app?vid=36685a7d-b33c-4492-bee1-f619f7189862"},"vehicle_type_id":"4","last_reported":1706555102,"current_range_meters":4400,"station_id":"ce4bh3p2rcd13ifvqdq0","pricing_plan_id":"free"},{"bike_id":"99ea0bd4-5a8e-475d-8db6-460d10156135","system_id":"levelo_inurba_marseille","lat":43.295196,"lon":5.39397,"is_reserved":false,"is_disabled":false,"rental_uris":{"android":"levelo://app?vid=99ea0bd4-5a8e-475d-8db6-460d10156135","ios":"levelo://app?vid=99ea0bd4-5a8e-475d-8db6-460d10156135"},"vehicle_type_id":"4","last_reported":1706555102,"current_range_meters":10000,"station_id":"ce4bh292rcd13ifvqdf0","pricing_plan_id":"free"},{"bike_id":"646a717c-f34c-497a-b893-118280475801","system_id":"levelo_inurba_marseille","lat":43.295196,"lon":5.39397,"is_reserved":false,"is_disabled":false,"rental_uris":{"android":"levelo://app?vid=646a717c-f34c-497a-b893-118280475801","ios":"levelo://app?vid=646a717c-f34c-497a-b893-118280475801"},"vehicle_type_id":"4","last_reported":1706555102,"current_range_meters":4400,"station_id":"ce4bh292rcd13ifvqdf0","pricing_plan_id":"free"},{"bike_id":"b0d57152-704f-42fb-b106-fcfe62a59d7a","system_id":"levelo_inurba_marseille","lat":43.295196,"lon":5.39397,"is_reserved":false,"is_disabled":false,"rental_uris":{"android":"levelo://app?vid=b0d57152-704f-42fb-b106-fcfe62a59d7a","ios":"levelo://app?vid=b0d57152-704f-42fb-b106-fcfe62a59d7a"},"vehicle_type_id":"4","last_reported":1706555102,"current_range_meters":0,"station_id":"ce4bh292rcd13ifvqdf0","pricing_plan_id":"free"},{"bike_id":"24abb9b3-76ae-40f1-a84a-4281315fbeb1","system_id":"levelo_inurba_marseille","lat":43.30414,"lon":5.401077,"is_reserved":false,"is_disabled":false,"rental_uris":{"android":"levelo://app?vid=24abb9b3-76ae-40f1-a84a-4281315fbeb1","ios":"levelo://app?vid=24abb9b3-76ae-40f1-a84a-4281315fbeb1"},"vehicle_type_id":"4","last_reported":1706555102,"current_range_meters":0,"station_id":"","pricing_plan_id":"free"},{"bike_id":"00f7faba-ab45-4919-a5bc-05f4c11459ac","system_id":"levelo_inurba_marseille","lat":43.295196,"lon":5.39397,"is_reserved":false,"is_disabled":false,"rental_uris":{"android":"levelo://app?vid=00f7faba-ab45-4919-a5bc-05f4c11459ac","ios":"levelo://app?vid=00f7faba-ab45-4919-a5bc-05f4c11459ac"},"vehicle_type_id":"4","last_reported":1706555102,"current_range_meters":16000,"station_id":"ce4bh292rcd13ifvqdf0","pricing_plan_id":"free"},{"bike_id":"8048f061-361d-46aa-b6c7-1a07e6561be1","system_id":"levelo_inurba_marseille","lat":43.298681,"lon":5.397225,"is_reserved":false,"is_disabled":false,"rental_uris":{"android":"levelo://app?vid=8048f061-361d-46aa-b6c7-1a07e6561be1","ios":"levelo://app?vid=8048f061-361d-46aa-b6c7-1a07e6561be1"},"vehicle_type_id":"4","last_reported":1706555102,"current_range_meters":9600,"station_id":"ce4bh0h2rcd13ifvqd50","pricing_plan_id":"free"},{"bike_id":"310612b9-a072-4bd4-a20c-a0fe97fb6d64","system_id":"levelo_inurba_marseille","lat":43.30246,"lon":5.4003,"is_reserved":false,"is_disabled":false,"rental_uris":{"android":"levelo://app?vid=310612b9-a072-4bd4-a20c-a0fe97fb6d64","ios":"levelo://app?vid=310612b9-a072-4bd4-a20c-a0fe97fb6d64"},"vehicle_type_id":"4","last_reported":1706555102,"current_range_meters":10400,"station_id":"ce4bgvh2rcd13ifvqcs0","pricing_plan_id":"free"},{"bike_id":"e2dfd965-afe1-40e9-8a1f-34c0760e596a","system_id":"levelo_inurba_marseille","lat":43.295196,"lon":5.39397,"is_reserved":false,"is_disabled":false,"rental_uris":{"android":"levelo://app?vid=e2dfd965-afe1-40e9-8a1f-34c0760e596a","ios":"levelo://app?vid=e2dfd965-afe1-40e9-8a1f-34c0760e596a"},"vehicle_type_id":"4","last_reported":1706555102,"current_range_meters":12800,"station_id":"ce4bh292rcd13ifvqdf0","pricing_plan_id":"free"},{"bike_id":"df9a8a74-91a6-46e6-afaa-49452e00e5da","system_id":"levelo_inurba_marseille","lat":43.286961,"lon":5.373785,"is_reserved":false,"is_disabled":false,"rental_uris":{"android":"levelo://app?vid=df9a8a74-91a6-46e6-afaa-49452e00e5da","ios":"levelo://app?vid=df9a8a74-91a6-46e6-afaa-49452e00e5da"},"vehicle_type_id":"4","last_reported":1706555102,"current_range_meters":20800,"station_id":"ce4bh3p2rcd13ifvqdq0","pricing_plan_id":"free"},{"bike_id":"27e0cec4-8f09-41ad-a013-345793207aa4","system_id":"levelo_inurba_marseille","lat":43.302759,"lon":5.400793,"is_reserved":false,"is_disabled":false,"rental_uris":{"android":"levelo://app?vid=27e0cec4-8f09-41ad-a013-345793207aa4","ios":"levelo://app?vid=27e0cec4-8f09-41ad-a013-345793207aa4"},"vehicle_type_id":"4","last_reported":1706555102,"current_range_meters":3200,"station_id":"ce4bgvh2rcd13ifvqcs0","pricing_plan_id":"free"},{"bike_id":"8e26753f-a588-4155-a683-2e87de7874df","system_id":"levelo_inurba_marseille","lat":43.302759,"lon":5.400793,"is_reserved":false,"is_disabled":false,"rental_uris":{"android":"levelo://app?vid=8e26753f-a588-4155-a683-2e87de7874df","ios":"levelo://app?vid=8e26753f-a588-4155-a683-2e87de7874df"},"vehicle_type_id":"4","last_reported":1706555102,"current_range_meters":20800,"station_id":"ce4bgvh2rcd13ifvqcs0","pricing_plan_id":"free"},{"bike_id":"90582d8a-a12f-4b8c-9c20-3133f75db733","system_id":"levelo_inurba_marseille","lat":43.28607,"lon":5.37073,"is_reserved":false,"is_disabled":false,"rental_uris":{"android":"levelo://app?vid=90582d8a-a12f-4b8c-9c20-3133f75db733","ios":"levelo://app?vid=90582d8a-a12f-4b8c-9c20-3133f75db733"},"vehicle_type_id":"4","last_reported":1706555102,"current_range_meters":14000,"station_id":"ce4bht12rcd13ifvqi60","pricing_plan_id":"free"},{"bike_id":"807665df-a4a0-4d1f-93e9-1a9c1f652134","system_id":"levelo_inurba_marseille","lat":43.286066,"lon":5.370681,"is_reserved":false,"is_disabled":false,"rental_uris":{"android":"levelo://app?vid=807665df-a4a0-4d1f-93e9-1a9c1f652134","ios":"levelo://app?vid=807665df-a4a0-4d1f-93e9-1a9c1f652134"},"vehicle_type_id":"4","last_reported":1706555102,"current_range_meters":2800,"station_id":"ce4bht12rcd13ifvqi60","pricing_plan_id":"free"},{"bike_id":"b0a81108-6938-414d-abd4-0220f16756ca","system_id":"levelo_inurba_marseille","lat":43.28604,"lon":5.37069,"is_reserved":false,"is_disabled":false,"rental_uris":{"android":"levelo://app?vid=b0a81108-6938-414d-abd4-0220f16756ca","ios":"levelo://app?vid=b0a81108-6938-414d-abd4-0220f16756ca"},"vehicle_type_id":"4","last_reported":1706555102,"current_range_meters":5200,"station_id":"ce4bht12rcd13ifvqi60","pricing_plan_id":"free"},{"bike_id":"b7452e26-86bb-4cc9-b0ed-9dcada914a9e","system_id":"levelo_inurba_marseille","lat":43.287184,"lon":5.37937,"is_reserved":false,"is_disabled":false,"rental_uris":{"android":"levelo://app?vid=b7452e26-86bb-4cc9-b0ed-9dcada914a9e","ios":"levelo://app?vid=b7452e26-86bb-4cc9-b0ed-9dcada914a9e"},"vehicle_type_id":"4","last_reported":1706555102,"current_range_meters":2800,"station_id":"ce4bh9p2rcd13ifvqec0","pricing_plan_id":"free"},{"bike_id":"67952daa-9e2d-4d76-90ea-c3fb8b06acae","system_id":"levelo_inurba_marseille","lat":43.287184,"lon":5.37937,"is_reserved":false,"is_disabled":false,"rental_uris":{"android":"levelo://app?vid=67952daa-9e2d-4d76-90ea-c3fb8b06acae","ios":"levelo://app?vid=67952daa-9e2d-4d76-90ea-c3fb8b06acae"},"vehicle_type_id":"4","last_reported":1706555102,"current_range_meters":4400,"station_id":"ce4bh9p2rcd13ifvqec0","pricing_plan_id":"free"},{"bike_id":"4e4f6581-0877-4bf9-a5d6-3e09359cb613","system_id":"levelo_inurba_marseille","lat":43.287185,"lon":5.379373,"is_reserved":false,"is_disabled":false,"rental_uris":{"android":"levelo://app?vid=4e4f6581-0877-4bf9-a5d6-3e09359cb613","ios":"levelo://app?vid=4e4f6581-0877-4bf9-a5d6-3e09359cb613"},"vehicle_type_id":"4","last_reported":1706555102,"current_range_meters":25200,"station_id":"ce4bh9p2rcd13ifvqec0","pricing_plan_id":"free"},{"bike_id":"97b0bde0-bd3d-4e18-b61d-44a138bde320","system_id":"levelo_inurba_marseille","lat":43.29995,"lon":5.40057,"is_reserved":false,"is_disabled":false,"rental_uris":{"android":"levelo://app?vid=97b0bde0-bd3d-4e18-b61d-44a138bde320","ios":"levelo://app?vid=97b0bde0-bd3d-4e18-b61d-44a138bde320"},"vehicle_type_id":"4","last_reported":1706555102,"current_range_meters":27600,"station_id":"","pricing_plan_id":"free"},{"bike_id":"81e8d6d6-8922-41a4-a235-d296735137cc","system_id":"levelo_inurba_marseille","lat":43.291994,"lon":5.392907,"is_reserved":false,"is_disabled":false,"rental_uris":{"android":"levelo://app?vid=81e8d6d6-8922-41a4-a235-d296735137cc","ios":"levelo://app?vid=81e8d6d6-8922-41a4-a235-d296735137cc"},"vehicle_type_id":"4","last_reported":1706555102,"current_range_meters":8000,"station_id":"ce4bh192rcd13ifvqdd0","pricing_plan_id":"free"},{"bike_id":"48b5ec4b-2c7e-4256-b9a1-100bea975b11","system_id":"levelo_inurba_marseille","lat":43.286565,"lon":5.351486,"is_reserved":false,"is_disabled":false,"rental_uris":{"android":"levelo://app?vid=48b5ec4b-2c7e-4256-b9a1-100bea975b11","ios":"levelo://app?vid=48b5ec4b-2c7e-4256-b9a1-100bea975b11"},"vehicle_type_id":"4","last_reported":1706555102,"current_range_meters":0,"station_id":"","pricing_plan_id":"free"},