{"last_updated":1719252650,"ttl":30,"version":"2.2","data":{"bikes":[{"bike_id":"3e6229a9-daa1-4e8e-b7ec-60b28f97252f","system_id":"levelo_inurba_marseille","lat":43.31452,"lon":5.373706,"is_reserved":false,"is_disabled":false,"rental_uris":{"android":"levelo://app?vid=3e6229a9-daa1-4e8e-b7ec-60b28f97252f","ios":"levelo://app?vid=3e6229a9-daa1-4e8e-b7ec-60b28f97252f"},"vehicle_type_id":"4","last_reported":1719252651,"current_range_meters":2000,"station_id":"ce4bgt12rcd13ifvqcd0","pricing_plan_id":"cebpf4jnsgd1na2vs0mg"},{"bike_id":"77460ccb-960a-4153-8783-e0a172f31a95","system_id":"levelo_inurba_marseille","lat":43.314513,"lon":5.373723,"is_reserved":false,"is_disabled":false,"rental_uris":{"android":"levelo://app?vid=77460ccb-960a-4153-8783-e0a172f31a95","ios":"levelo://app?vid=77460ccb-960a-4153-8783-e0a172f31a95"},"vehicle_type_id":"4","last_reported":1719252651,"current_range_meters":5600,"station_id":"","pricing_plan_id":"cebpf4jnsgd1na2vs0mg"},{"bike_id":"cb81d902-842c-4104-90cb-875ddb39ee7f","system_id":"levelo_inurba_marseille","lat":43.306357,"lon":5.36587,"is_reserved":false,"is_disabled":false,"rental_uris":{"android":"levelo://app?vid=cb81d902-842c-4104-90cb-875ddb39ee7f","ios":"levelo://app?vid=cb81d902-842c-4104-90cb-875ddb39ee7f"},"vehicle_type_id":"4","last_reported":1719252651,"current_range_meters":19200,"station_id":"","pricing_plan_id":"cebpf4jnsgd1na2vs0mg"},{"bike_id":"d74d496a-a267-4f58-b9d3-4f468f416945","system_id":"levelo_inurba_marseille","lat":43.30546,"lon":5.366555,"is_reserved":false,"is_disabled":false,"rental_uris":{"android":"levelo://app?vid=d74d496a-a267-4f58-b9d3-4f468f416945","ios":"levelo://app?vid=d74d496a-a267-4f58-b9d3-4f468f416945"},"vehicle_type_id":"4","last_reported":1719252651,"current_range_meters":20400,"station_id":"","pricing_plan_id":"cebpf4jnsgd1na2vs0mg"},{"bike_id":"fdbb72b2-9b73-46e2-84cb-84432d918207","system_id":"levelo_inurba_marseille","lat":43.305714,"lon":5.365633,"is_reserved":false,"is_disabled":false,"rental_uris":{"android":"levelo://app?vid=fdbb72b2-9b73-46e2-84cb-84432d918207","ios":"levelo://app?vid=fdbb72b2-9b73-46e2-84cb-84432d918207"},"vehicle_type_id":"4","last_reported":1719252651,"current_range_meters":13600,"station_id":"ce4bgs12rcd13ifvqcag","pricing_plan_id":"cebpf4jnsgd1na2vs0mg"},{"bike_id":"a069f992-6d6b-40ee-8640-0967ec9dca04","system_id":"levelo_inurba_marseille","lat":43.305368,"lon":5.367343,"is_reserved":false,"is_disabled":false,"rental_uris":{"android":"levelo://app?vid=a069f992-6d6b-40ee-8640-0967ec9dca04","ios":"levelo://app?vid=a069f992-6d6b-40ee-8640-0967ec9dca04"},"vehicle_type_id":"4","last_reported":1719252651,"current_range_meters":8000,"station_id":"ce4bgrp2rcd13ifvqc9g","pricing_plan_id":"cebpf4jnsgd1na2vs0mg"},{"bike_id":"4f9b4749-8f37-43ae-9df1-0ec7cc3b89e6","system_id":"levelo_inurba_marseille","lat":43.305276,"lon":5.365829,"is_reserved":false,"is_disabled":false,"rental_uris":{"android":"levelo://app?vid=4f9b4749-8f37-43ae-9df1-0ec7cc3b89e6","ios":"levelo://app?vid=4f9b4749-8f37-43ae-9df1-0ec7cc3b89e6"},"vehicle_type_id":"4","last_reported":1719252651,"current_range_meters":29600,"station_id":"ce4bgs12rcd13ifvqcag","pricing_plan_id":"cebpf4jnsgd1na2vs0mg"},{"bike_id":"ab87ef8f-0d61-4743-a307-72b6dea47db8","system_id":"levelo_inurba_marseille","lat":43.305989,"lon":5.37225,"is_reserved":false,"is_disabled":false,"rental_uris":{"android":"levelo://app?vid=ab87ef8f-0d61-4743-a307-72b6dea47db8","ios":"levelo://app?vid=ab87ef8f-0d61-4743-a307-72b6dea47db8"},"vehicle_type_id":"4","last_reported":1719252651,"current_range_meters":2000,"station_id":"ce4bgqh2rcd13ifvqc4g","pricing_plan_id":"cebpf4jnsgd1na2vs0mg"},{"bike_id":"0300077e-8225-48cf-8091-77e3526b0ea9","system_id":"levelo_inurba_marseille","lat":43.305989,"lon":5.37225,"is_reserved":false,"is_disabled":false,"rental_uris":{"android":"levelo://app?vid=0300077e-8225-48cf-8091-77e3526b0ea9","ios":"levelo://app?vid=0300077e-8225-48cf-8091-77e3526b0ea9"},"vehicle_type_id":"4","last_reported":1719252651,"current_range_meters":10000,"station_id":"ce4bgqh2rcd13ifvqc4g","pricing_plan_id":"cebpf4jnsgd1na2vs0mg"},{"bike_id":"25ce7da0-0642-4236-a230-0a3e1cf69694","system_id":"levelo_inurba_marseille","lat":43.31673,"lon":5.37687,"is_reserved":false,"is_disabled":false,"rental_uris":{"android":"levelo://app?vid=25ce7da0-0642-4236-a230-0a3e1cf69694","ios":"levelo://app?vid=25ce7da0-0642-4236-a230-0a3e1cf69694"},"vehicle_type_id":"4","last_reported":1719252651,"current_range_meters":0,"station_id":"","pricing_plan_id":"cebpf4jnsgd1na2vs0mg"},{"bike_id":"fccbd82f-9070-456a-ba5a-bfb718123b31","system_id":"levelo_inurba_marseille","lat":43.307945,"lon":5.376487,"is_reserved":false,"is_disabled":false,"rental_uris":{"android":"levelo://app?vid=fccbd82f-9070-456a-ba5a-bfb718123b31","ios":"levelo://app?vid=fccbd82f-9070-456a-ba5a-bfb718123b31"},"vehicle_type_id":"4","last_reported":1719252651,"current_range_meters":21200,"station_id":"ce4bgv92rcd13ifvqcq0","pricing_plan_id":"cebpf4jnsgd1na2vs0mg"},{"bike_id":"ceb59741-a096-4d2f-bbe1-279128e28608","system_id":"levelo_inurba_marseille","lat":43.307945,"lon":5.376487,"is_reserved":false,"is_disabled":false,"rental_uris":{"android":"levelo://app?vid=ceb59741-a096-4d2f-bbe1-279128e28608","ios":"levelo://app?vid=ceb59741-a096-4d2f-bbe1-279128e28608"},"vehicle_type_id":"4","last_reported":1719252651,"current_range_meters":12400,"station_id":"ce4bgv92rcd13ifvqcq0","pricing_plan_id":"cebpf4jnsgd1na2vs0mg"},{"bike_id":"5544542c-8a84-463e-935e-6d40009ceefd","system_id":"levelo_inurba_marseille","lat":43.30313,"lon":5.36877,"is_reserved":false,"is_disabled":false,"rental_uris":{"android":"levelo://app?vid=5544542c-8a84-463e-935e-6d40009ceefd","ios":"levelo://app?vid=5544542c-8a84-463e-935e-6d40009ceefd"},"vehicle_type_id":"4","last_reported":1719252651,"current_range_meters":2800,"station_id":"ce4bgqh2rcd13ifvqc5g","pricing_plan_id":"cebpf4jnsgd1na2vs0mg"},{"bike_id":"b4838f41-acf5-428d-a352-8e12e949afe5","system_id":"levelo_inurba_marseille","lat":43.30302,"lon":5.36886,"is_reserved":false,"is_disabled":false,"rental_uris":{"android":"levelo://app?vid=b4838f41-acf5-428d-a352-8e12e949afe5","ios":"levelo://app?vid=b4838f41-acf5-428d-a352-8e12e949afe5"},"vehicle_type_id":"4","last_reported":1719252651,"current_range_meters":4800,"station_id":"ce4bgqh2rcd13ifvqc5g","pricing_plan_id":"cebpf4jnsgd1na2vs0mg"},{"bike_id":"f4b2a785-15e1-48bc-a6b5-497f84fc92df","system_id":"levelo_inurba_marseille","lat":43.310374,"lon":5.381072,"is_reserved":false,"is_disabled":false,"rental_uris":{"android":"levelo://app?vid=f4b2a785-15e1-48bc-a6b5-497f84fc92df","ios":"levelo://app?vid=f4b2a785-15e1-48bc-a6b5-497f84fc92df"},"vehicle_type_id":"4","last_reported":1719252651,"current_range_meters":0,"station_id":"","pricing_plan_id":"cebpf4jnsgd1na2vs0mg"},{"bike_id":"23bdc983-a519-4720-8b31-435b4b587dc7","system_id":"levelo_inurba_marseille","lat":43.301939,"lon":5.366286,"is_reserved":false,"is_disabled":false,"rental_uris":{"android":"levelo://app?vid=23bdc983-a519-4720-8b31-435b4b587dc7","ios":"levelo://app?vid=23bdc983-a519-4720-8b31-435b4b587dc7"},"vehicle_type_id":"4","last_reported":1719252651,"current_range_meters":8800,"station_id":"ce4bgrh2rcd13ifvqc8g","pricing_plan_id":"cebpf4jnsgd1na2vs0mg"},{"bike_id":"a204d2a6-f534-4fb5-af82-6794cc0d7bae","system_id":"levelo_inurba_marseille","lat":43.301939,"lon":5.366286,"is_reserved":false,"is_disabled":false,"rental_uris":{"android":"levelo://app?vid=a204d2a6-f534-4fb5-af82-6794cc0d7bae","ios":"levelo://app?vid=a204d2a6-f534-4fb5-af82-6794cc0d7bae"},"vehicle_type_id":"4","last_reported":1719252651,"current_range_meters":12400,"station_id":"ce4bgrh2rcd13ifvqc8g","pricing_plan_id":"cebpf4jnsgd1na2vs0mg"},{"bike_id":"53426e0e-231c-42ce-861c-42ee36850442","system_id":"levelo_inurba_marseille","lat":43.308012,"lon":5.381511,"is_reserved":false,"is_disabled":false,"rental_uris":{"android":"levelo://app?vid=53426e0e-231c-42ce-861c-42ee36850442","ios":"levelo://app?vid=53426e0e-231c-42ce-861c-42ee36850442"},"vehicle_type_id":"4","last_reported":1719252651,"current_range_meters":28000,"station_id":"ce4bgt12rcd13ifvqce0","pricing_plan_id":"cebpf4jnsgd1na2vs0mg"},{"bike_id":"5338a0f6-37d6-449f-8f65-8a20094d17d6","system_id":"levelo_inurba_marseille","lat":43.304606,"lon":5.379026,"is_reserved":false,"is_disabled":false,"rental_uris":{"android":"levelo://app?vid=5338a0f6-37d6-449f-8f65-8a20094d17d6","ios":"levelo://app?vid=5338a0f6-37d6-449f-8f65-8a20094d17d6"},"vehicle_type_id":"4","last_reported":1719252651,"current_range_meters":19600,"station_id":"ce4bgup2rcd13ifvqcn0","pricing_plan_id":"cebpf4jnsgd1na2vs0mg"},{"bike_id":"7c7a0d0e-3f53-4a76-913c-a7a234524d1e","system_id":"levelo_inurba_marseille","lat":43.304606,"lon":5.379026,"is_reserved":false,"is_disabled":false,"rental_uris":{"android":"levelo://app?vid=7c7a0d0e-3f53-4a76-913c-a7a234524d1e","ios":"levelo://app?vid=7c7a0d0e-3f53-4a76-913c-a7a234524d1e"},"vehicle_type_id":"4","last_reported":1719252651,"current_range_meters":24800,"station_id":"ce4bgup2rcd13ifvqcn0","pricing_plan_id":"cebpf4jnsgd1na2vs0mg"},{"bike_id":"2dde5ab8-0a86-437f-b67c-65ec28003ec6","system_id":"levelo_inurba_marseille","lat":43.304606,"lon":5.379026,"is_reserved":false,"is_disabled":false,"rental_uris":{"android":"levelo://app?vid=2dde5ab8-0a86-437f-b67c-65ec28003ec6","ios":"levelo://app?vid=2dde5ab8-0a86-437f-b67c-65ec28003ec6"},"vehicle_type_id":"4","last_reported":1719252651,"current_range_meters":20800,"station_id":"ce4bgup2rcd13ifvqcn0","pricing_plan_id":"cebpf4jnsgd1na2vs0mg"},{"bike_id":"bab24c65-ef82-4b91-9704-02b22aeb659b","system_id":"levelo_inurba_marseille","lat":43.30459,"lon":5.37903,"is_reserved":false,"is_disabled":false,"rental_uris":{"android":"levelo://app?vid=bab24c65-ef82-4b91-9704-02b22aeb659b","ios":"levelo://app?vid=bab24c65-ef82-4b91-9704-02b22aeb659b"},"vehicle_type_id":"4","last_reported":1719252651,"current_range_meters":27200,"station_id":"ce4bgup2rcd13ifvqcn0","pricing_plan_id":"cebpf4jnsgd1na2vs0mg"},{"bike_id":"512d955c-5d11-4958-9cbe-8e05d03fc931","system_id":"levelo_inurba_marseille","lat":43.304606,"lon":5.379026,"is_reserved":false,"is_disabled":false,"rental_uris":{"android":"levelo://app?vid=512d955c-5d11-4958-9cbe-8e05d03fc931","ios":"levelo://app?vid=512d955c-5d11-4958-9cbe-8e05d03fc931"},"vehicle_type_id":"4","last_reported":1719252651,"current_range_meters":7600,"station_id":"ce4bgup2rcd13ifvqcn0","pricing_plan_id":"cebpf4jnsgd1na2vs0mg"},{"bike_id":"fb32552d-ba70-42c4-a1b8-9913488cf41b","system_id":"levelo_inurba_marseille","lat":43.304606,"lon":5.379026,"is_reserved":false,"is_disabled":false,"rental_uris":{"android":"levelo://app?vid=fb32552d-ba70-42c4-a1b8-9913488cf41b","ios":"levelo://app?vid=fb32552d-ba70-42c4-a1b8-9913488cf41b"},"vehicle_type_id":"4","last_reported":1719252651,"current_range_meters":31200,"station_id":"ce4bgup2rcd13ifvqcn0","pricing_plan_id":"cebpf4jnsgd1na2vs0mg"},{"bike_id":"9339bcc0-cc27-4575-a3ca-12d4af9ccd00","system_id":"levelo_inurba_marseille","lat":43.32477,"lon":5.36579,"is_reserved":false,"is_disabled":false,"rental_uris":{"android":"levelo://app?vid=9339bcc0-cc27-4575-a3ca-12d4af9ccd00","ios":"levelo://app?vid=9339bcc0-cc27-4575-a3ca-12d4af9ccd00"},"vehicle_type_id":"4","last_reported":1719252651,"current_range_meters":31200,"station_id":"ce4bhs12rcd13ifvqhvg","pricing_plan_id":"cebpf4jnsgd1na2vs0mg"},{"bike_id":"99940d12-8816-4939-9d2f-6c5fc5e8f53a","system_id":"levelo_inurba_marseille","lat":43.324771,"lon":5.36557,"is_reserved":false,"is_disabled":false,"rental_uris":{"android":"levelo://app?vid=99940d12-8816-4939-9d2f-6c5fc5e8f53a","ios":"levelo://app?vid=99940d12-8816-4939-9d2f-6c5fc5e8f53a"},"vehicle_type_id":"4","last_reported":1719252651,"current_range_meters":21200,"station_id":"ce4bhs12rcd13ifvqhvg","pricing_plan_id":"cebpf4jnsgd1na2vs0mg"},{"bike_id":"15992822-2bb1-46fc-a43a-68b7bf806d99","system_id":"levelo_inurba_marseille","lat":43.324771,"lon":5.36557,"is_reserved":false,"is_disabled":false,"rental_uris":{"android":"levelo://app?vid=15992822-2bb1-46fc-a43a-68b7bf806d99","ios":"levelo://app?vid=15992822-2bb1-46fc-a43a-68b7bf806d99"},"vehicle_type_id":"4","last_reported":1719252651,"current_range_meters":28400,"station_id":"ce4bhs12rcd13ifvqhvg","pricing_plan_id":"cebpf4jnsgd1na2vs0mg"},{"bike_id":"a9461242-4a57-4140-99c5-57df5f14a372","system_id":"levelo_inurba_marseille","lat":43.324771,"lon":5.36557,"is_reserved":false,"is_disabled":false,"rental_uris":{"android":"levelo://app?vid=a9461242-4a57-4140-99c5-57df5f14a372","ios":"levelo://app?vid=a9461242-4a57-4140-99c5-57df5f14a372"},"vehicle_type_id":"4","last_reported":1719252651,"current_range_meters":30800,"station_id":"ce4bhs12rcd13ifvqhvg","pricing_plan_id":"cebpf4jnsgd1na2vs0mg"},{"bike_id":"bf375fc4-978f-4556-be49-eff8a5204a8b","system_id":"levelo_inurba_marseille","lat":43.302784,"lon":5.377158,"is_reserved":false,"is_disabled":false,"rental_uris":{"android":"levelo://app?vid=bf375fc4-978f-4556-be49-eff8a5204a8b","ios":"levelo://app?vid=bf375fc4-978f-4556-be49-eff8a5204a8b"},"vehicle_type_id":"4","last_reported":1719252651,"current_range_meters":6800,"station_id":"ce4bguh2rcd13ifvqcj0","pricing_plan_id":"cebpf4jnsgd1na2vs0mg"},{"bike_id":"df41c31b-b261-4ddf-a67f-3a46cfd6df04","system_id":"levelo_inurba_marseille","lat":43.319935,"lon":5.381699,"is_reserved":false,"is_disabled":false,"rental_uris":{"android":"levelo://app?vid=df41c31b-b261-4ddf-a67f-3a46cfd6df04","ios":"levelo://app?vid=df41c31b-b261-4ddf-a67f-3a46cfd6df04"},"vehicle_type_id":"4","last_reported":1719252651,"current_range_meters":16000,"station_id":"ce4bhr12rcd13ifvqhpg","pricing_plan_id":"cebpf4jnsgd1na2vs0mg"},{"bike_id":"d126ba85-c1bc-4e7a-ad8c-23d94ae266c9","system_id":"levelo_inurba_marseille","lat":43.313571,"lon":5.384829,"is_reserved":false,"is_disabled":false,"rental_uris":{"android":"levelo://app?vid=d126ba85-c1bc-4e7a-ad8c-23d94ae266c9","ios":"levelo://app?vid=d126ba85-c1bc-4e7a-ad8c-23d94ae266c9"},"vehicle_type_id":"4","last_reported":1719252651,"current_range_meters":26400,"station_id":"ce4bgt92rcd13ifvqcf0","pricing_plan_id":"cebpf4jnsgd1na2vs0mg"},{"bike_id":"92d64f1d-fd86-45ef-bada-a591f334fc3f","system_id":"levelo_inurba_marseille","lat":43.299222,"lon":5.365554,"is_reserved":false,"is_disabled":false,"rental_uris":{"android":"levelo://app?vid=92d64f1d-fd86-45ef-bada-a591f334fc3f","ios":"levelo://app?vid=92d64f1d-fd86-45ef-bada-a591f334fc3f"},"vehicle_type_id":"4","last_reported":1719252651,"current_range_meters":9600,"station_id":"ce4bgm92rcd13ifvqbr0","pricing_plan_id":"cebpf4jnsgd1na2vs0mg"},{"bike_id":"4ba83d38-3001-4111-ac9c-f345a91a7c6c","system_id":"levelo_inurba_marseille","lat":43.299222,"lon":5.365554,"is_reserved":false,"is_disabled":false,"rental_uris":{"android":"levelo://app?vid=4ba83d38-3001-4111-ac9c-f345a91a7c6c","ios":"levelo://app?vid=4ba83d38-3001-4111-ac9c-f345a91a7c6c"},"vehicle_type_id":"4","last_reported":1719252651,"current_range_meters":31200,"station_id":"ce4bgm92rcd13ifvqbr0","pricing_plan_id":"cebpf4jnsgd1na2vs0mg"},{"bike_id":"1f8dda50-4157-4897-9405-7c36488024da","system_id":"levelo_inurba_marseille","lat":43.298433,"lon":5.362774,"is_reserved":false,"is_disabled":false,"rental_uris":{"android":"levelo://app?vid=1f8dda50-4157-4897-9405-7c36488024da","ios":"levelo://app?vid=1f8dda50-4157-4897-9405-7c36488024da"},"vehicle_type_id":"4","last_reported":1719252651,"current_range_meters":16400,"station_id":"ce4bgpp2rcd13ifvqc3g","pricing_plan_id":"cebpf4jnsgd1na2vs0mg"},{"bike_id":"0041f9b6-f48c-4fa0-97be-0a2f811fe82f","system_id":"levelo_inurba_marseille","lat":43.29848,"lon":5.36281,"is_reserved":false,"is_disabled":false,"rental_uris":{"android":"levelo://app?vid=0041f9b6-f48c-4fa0-97be-0a2f811fe82f","ios":"levelo://app?vid=0041f9b6-f48c-4fa0-97be-0a2f811fe82f"},"vehicle_type_id":"4","last_reported":1719252651,"current_range_meters":0,"station_id":"ce4bgpp2rcd13ifvqc3g","pricing_plan_id":"cebpf4jnsgd1na2vs0mg"},{"bike_id":"d00adec1-194a-49f4-9b45-d789c6c01558","system_id":"levelo_inurba_marseille","lat":43.29847,"lon":5.36274,"is_reserved":false,"is_disabled":false,"rental_uris":{"android":"levelo://app?vid=d00adec1-194a-49f4-9b45-d789c6c01558","ios":"levelo://app?vid=d00adec1-194a-49f4-9b45-d789c6c01558"},"vehicle_type_id":"4","last_reported":1719252651,"current_range_meters":0,"station_id":"ce4bgpp2rcd13ifvqc3g","pricing_plan_id":"cebpf4jnsgd1na2vs0mg"},{"bike_id":"bc9502cf-cb24-4982-98a1-d036e3a2dfc4","system_id":"levelo_inurba_marseille","lat":43.29845,"lon":5.36275,"is_reserved":false,"is_disabled":false,"rental_uris":{"android":"levelo://app?vid=bc9502cf-cb24-4982-98a1-d036e3a2dfc4","ios":"levelo://app?vid=bc9502cf-cb24-4982-98a1-d036e3a2dfc4"},"vehicle_type_id":"4","last_reported":1719252651,"current_range_meters":0,"station_id":"ce4bgpp2rcd13ifvqc3g","pricing_plan_id":"cebpf4jnsgd1na2vs0mg"},{"bike_id":"6a482d5f-3072-461e-a8d7-36f6e6f9d143","system_id":"levelo_inurba_marseille","lat":43.305364,"lon":5.384119,"is_reserved":false,"is_disabled":false,"rental_uris":{"android":"levelo://app?vid=6a482d5f-3072-461e-a8d7-36f6e6f9d143","ios":"levelo://app?vid=6a482d5f-3072-461e-a8d7-36f6e6f9d143"},"vehicle_type_id":"4","last_reported":1719252651,"current_range_meters":26800,"station_id":"ce4bgg92rcd13ifvqb30","pricing_plan_id":"cebpf4jnsgd1na2vs0mg"},{"bike_id":"7715532e-c556-4720-bd61-6d7c6eb7d120","system_id":"levelo_inurba_marseille","lat":43.298433,"lon":5.362774,"is_reserved":false,"is_disabled":false,"rental_uris":{"android":"levelo://app?vid=7715532e-c556-4720-bd61-6d7c6eb7d120","ios":"levelo://app?vid=7715532e-c556-4720-bd61-6d7c6eb7d120"},"vehicle_type_id":"4","last_reported":1719252651,"current_range_meters":12800,"station_id":"ce4bgpp2rcd13ifvqc3g","pricing_plan_id":"cebpf4jnsgd1na2vs0mg"},{"bike_id":"152ac791-7de8-4084-b7e5-1eaa091c5d10","system_id":"levelo_inurba_marseille","lat":43.305364,"lon":5.384119,"is_reserved":false,"is_disabled":false,"rental_uris":{"android":"levelo://app?vid=152ac791-7de8-4084-b7e5-1eaa091c5d10","ios":"levelo://app?vid=152ac791-7de8-4084-b7e5-1eaa091c5d10"},"vehicle_type_id":"4","last_reported":1719252651,"current_range_meters":3600,"station_id":"ce4bgg92rcd13ifvqb30","pricing_plan_id":"cebpf4jnsgd1na2vs0mg"},{"bike_id":"271aa89a-2cbd-4831-bf1e-147ab0b37bd9","system_id":"levelo_inurba_marseille","lat":43.298433,"lon":5.362774,"is_reserved":false,"is_disabled":false,"rental_uris":{"android":"levelo://app?vid=271aa89a-2cbd-4831-bf1e-147ab0b37bd9","ios":"levelo://app?vid=271aa89a-2cbd-4831-bf1e-147ab0b37bd9"},"vehicle_type_id":"4","last_reported":1719252651,"current_range_meters":28000,"station_id":"ce4bgpp2rcd13ifvqc3g","pricing_plan_id":"cebpf4jnsgd1na2vs0mg"},{"bike_id":"34159617-e596-4dbf-9981-109c4ed1fa75","system_id":"levelo_inurba_marseille","lat":43.322872,"lon":5.382756,"is_reserved":false,"is_disabled":false,"rental_uris":{"android":"levelo://app?vid=34159617-e596-4dbf-9981-109c4ed1fa75","ios":"levelo://app?vid=34159617-e596-4dbf-9981-109c4ed1fa75"},"vehicle_type_id":"4","last_reported":1719252651,"current_range_meters":20000,"station_id":"ce4bhr12rcd13ifvqhqg","pricing_plan_id":"cebpf4jnsgd1na2vs0mg"},{"bike_id":"de15eb35-9a72-4513-b9b1-9d70e26e4f8e","system_id":"levelo_inurba_marseille","lat":43.322872,"lon":5.382756,"is_reserved":false,"is_disabled":false,"rental_uris":{"android":"levelo://app?vid=de15eb35-9a72-4513-b9b1-9d70e26e4f8e","ios":"levelo://app?vid=de15eb35-9a72-4513-b9b1-9d70e26e4f8e"},"vehicle_type_id":"4","last_reported":1719252651,"current_range_meters":31200,"station_id":"ce4bhr12rcd13ifvqhqg","pricing_plan_id":"cebpf4jnsgd1na2vs0mg"},{"bike_id":"6f6fd96b-5083-4aa6-9536-9fde7bd66564","system_id":"levelo_inurba_marseille","lat":43.297163,"lon":5.365866,"is_reserved":false,"is_disabled":false,"rental_uris":{"android":"levelo://app?vid=6f6fd96b-5083-4aa6-9536-9fde7bd66564","ios":"levelo://app?vid=6f6fd96b-5083-4aa6-9536-9fde7bd66564"},"vehicle_type_id":"4","last_reported":1719252651,"current_range_meters":16400,"station_id":"ce4bgn12rcd13ifvqbt0","pricing_plan_id":"cebpf4jnsgd1na2vs0mg"},{"bike_id":"67aabae2-45a7-42b7-a270-4db4b5837479","system_id":"levelo_inurba_marseille","lat":43.297163,"lon":5.365866,"is_reserved":false,"is_disabled":false,"rental_uris":{"android":"levelo://app?vid=67aabae2-45a7-42b7-a270-4db4b5837479","ios":"levelo://app?vid=67aabae2-45a7-42b7-a270-4db4b5837479"},"vehicle_type_id":"4","last_reported":1719252651,"current_range_meters":31600,"station_id":"ce4bgn12rcd13ifvqbt0","pricing_plan_id":"cebpf4jnsgd1na2vs0mg"},{"bike_id":"5c62aea8-096c-4b40-8805-c4d3fdb2c81b","system_id":"levelo_inurba_marseille","lat":43.297163,"lon":5.365866,"is_reserved":false,"is_disabled":false,"rental_uris":{"android":"levelo://app?vid=5c62aea8-096c-4b40-8805-c4d3fdb2c81b","ios":"levelo://app?vid=5c62aea8-096c-4b40-8805-c4d3fdb2c81b"},"vehicle_type_id":"4","last_reported":1719252651,"current_range_meters":30800,"station_id":"ce4bgn12rcd13ifvqbt0","pricing_plan_id":"cebpf4jnsgd1na2vs0mg"},{"bike_id":"f47fe1ce-0f3f-4a44-88a9-37cfd8bd9efa","system_id":"levelo_inurba_marseille","lat":43.297082,"lon":5.366072,"is_reserved":false,"is_disabled":false,"rental_uris":{"android":"levelo://app?vid=f47fe1ce-0f3f-4a44-88a9-37cfd8bd9efa","ios":"levelo://app?vid=f47fe1ce-0f3f-4a44-88a9-37cfd8bd9efa"},"vehicle_type_id":"4","last_reported":1719252651,"current_range_meters":31200,"station_id":"ce4bgn12rcd13ifvqbt0","pricing_plan_id":"cebpf4jnsgd1na2vs0mg"},{"bike_id":"8a3dee68-befb-495c-8c53-779d24084da1","system_id":"levelo_inurba_marseille","lat":43.29708,"lon":5.36555,"is_reserved":false,"is_disabled":false,"rental_uris":{"android":"levelo://app?vid=8a3dee68-befb-495c-8c53-779d24084da1","ios":"levelo://app?vid=8a3dee68-befb-495c-8c53-779d24084da1"},"vehicle_type_id":"4","last_reported":1719252651,"current_range_meters":31200,"station_id":"ce4bgn12rcd13ifvqbt0","pricing_plan_id":"cebpf4jnsgd1na2vs0mg"},{"bike_id":"4b78b0b8-d778-4c8e-8335-4a8971a23903","system_id":"levelo_inurba_marseille","lat":43.29835,"lon":5.37695,"is_reserved":false,"is_disabled":false,"rental_uris":{"android":"levelo://app?vid=4b78b0b8-d778-4c8e-8335-4a8971a23903","ios":"levelo://app?vid=4b78b0b8-d778-4c8e-8335-4a8971a23903"},"vehicle_type_id":"4","last_reported":1719252651,"current_range_meters":19200,"station_id":"","pricing_plan_id":"cebpf4jnsgd1na2vs0mg"},{"bike_id":"89d14c94-774e-4cad-96ca-39ba47f8a534","system_id":"levelo_inurba_marseille","lat":43.29729,"lon":5.37685,"is_reserved":false,"is_disabled":false,"rental_uris":{"android":"levelo://app?vid=89d14c94-774e-4cad-96ca-39ba47f8a534","ios":"levelo://app?vid=89d14c94-774e-4cad-96ca-39ba47f8a534"},"vehicle_type_id":"4","last_reported":1719252651,"current_range_meters":0,"station_id":"ce4bgkh2rcd13ifvqbl0","pricing_plan_id":"cebpf4jnsgd1na2vs0mg"},{"bike_id":"780bbef4-c297-4aec-8681-2b9ec94398ad","system_id":"levelo_inurba_marseille","lat":43.299028,"lon":5.381509,"is_reserved":false,"is_disabled":false,"rental_uris":{"android":"levelo://app?vid=780bbef4-c297-4aec-8681-2b9ec94398ad","ios":"levelo://app?vid=780bbef4-c297-4aec-8681-2b9ec94398ad"},"vehicle_type_id":"4","last_reported":1719252651,"current_range_meters":3200,"station_id":"ce4bgj12rcd13ifvqbc0","pricing_plan_id":"cebpf4jnsgd1na2vs0mg"},{"bike_id":"67f3fa66-3d87-47be-8bf2-c86eca7c9212","system_id":"levelo_inurba_marseille","lat":43.29906,"lon":5.38135,"is_reserved":false,"is_disabled":false,"rental_uris":{"android":"levelo://app?vid=67f3fa66-3d87-47be-8bf2-c86eca7c9212","ios":"levelo://app?vid=67f3fa66-3d87-47be-8bf2-c86eca7c9212"},"vehicle_type_id":"4","last_reported":1719252651,"current_range_meters":0,"station_id":"ce4bgj12rcd13ifvqbc0","pricing_plan_id":"cebpf4jnsgd1na2vs0mg"},{"bike_id":"2b18dddf-00b0-4a47-a3b4-7049ebb02353","system_id":"levelo_inurba_marseille","lat":43.309425,"lon":5.390415,"is_reserved":false,"is_disabled":false,"rental_uris":{"android":"levelo://app?vid=2b18dddf-00b0-4a47-a3b4-7049ebb02353","ios":"levelo://app?vid=2b18dddf-00b0-4a47-a3b4-7049ebb02353"},"vehicle_type_id":"4","last_reported":1719252651,"current_range_meters":2000,"station_id":"ce4bgup2rcd13ifvqco0","pricing_plan_id":"cebpf4jnsgd1na2vs0mg"},{"bike_id":"1ce64620-dd26-4010-b505-1cf949c4a236","system_id":"levelo_inurba_marseille","lat":43.317557,"lon":5.390173,"is_reserved":false,"is_disabled":false,"rental_uris":{"android":"levelo://app?vid=1ce64620-dd26-4010-b505-1cf949c4a236","ios":"levelo://app?vid=1ce64620-dd26-4010-b505-1cf949c4a236"},"vehicle_type_id":"4","last_reported":1719252651,"current_range_meters":2000,"station_id":"ce4bhqp2rcd13ifvqhng","pricing_plan_id":"cebpf4jnsgd1na2vs0mg"},{"bike_id":"1a765c26-0311-47ae-9c59-617aaee96eff","system_id":"levelo_inurba_marseille","lat":43.317557,"lon":5.390173,"is_reserved":false,"is_disabled":false,"rental_uris":{"android":"levelo://app?vid=1a765c26-0311-47ae-9c59-617aaee96eff","ios":"levelo://app?vid=1a765c26-0311-47ae-9c59-617aaee96eff"},"vehicle_type_id":"4","last_reported":1719252651,"current_range_meters":2800,"station_id":"ce4bhqp2rcd13ifvqhng","pricing_plan_id":"cebpf4jnsgd1na2vs0mg"},{"bike_id":"727e57c5-ef53-49d3-8d0b-189f0f3c98e5","system_id":"levelo_inurba_marseille","lat":43.317557,"lon":5.390173,"is_reserved":false,"is_disabled":false,"rental_uris":{"android":"levelo://app?vid=727e57c5-ef53-49d3-8d0b-189f0f3c98e5","ios":"levelo://app?vid=727e57c5-ef53-49d3-8d0b-189f0f3c98e5"},"vehicle_type_id":"4","last_reported":1719252651,"current_range_meters":10000,"station_id":"ce4bhqp2rcd13ifvqhng","pricing_plan_id":"cebpf4jnsgd1na2vs0mg"},{"bike_id":"0716a64d-5a41-4ee8-8234-a8ad841cd70e","system_id":"levelo_inurba_marseille","lat":43.317557,"lon":5.390173,"is_reserved":false,"is_disabled":false,"rental_uris":{"android":"levelo://app?vid=0716a64d-5a41-4ee8-8234-a8ad841cd70e","ios":"levelo://app?vid=0716a64d-5a41-4ee8-8234-a8ad841cd70e"},"vehicle_type_id":"4","last_reported":1719252651,"current_range_meters":31600,"station_id":"ce4bhqp2rcd13ifvqhng","pricing_plan_id":"cebpf4jnsgd1na2vs0mg"},{"bike_id":"34986f47-e456-48a7-8f9f-2ff8a41a1260","system_id":"levelo_inurba_marseille","lat":43.298037,"lon":5.381066,"is_reserved":false,"is_disabled":false,"rental_uris":{"android":"levelo://app?vid=34986f47-e456-48a7-8f9f-2ff8a41a1260","ios":"levelo://app?vid=34986f47-e456-48a7-8f9f-2ff8a41a1260"},"vehicle_type_id":"4","last_reported":1719252651,"current_range_meters":6000,"station_id":"ce4bgip2rcd13ifvqbb0","pricing_plan_id":"cebpf4jnsgd1na2vs0mg"},{"bike_id":"d8e67e5d-1a71-41f9-980f-03bb6164c951","system_id":"levelo_inurba_marseille","lat":43.298037,"lon":5.381066,"is_reserved":false,"is_disabled":false,"rental_uris":{"android":"levelo://app?vid=d8e67e5d-1a71-41f9-980f-03bb6164c951","ios":"levelo://app?vid=d8e67e5d-1a71-41f9-980f-03bb6164c951"},"vehicle_type_id":"4","last_reported":1719252651,"current_range_meters":2800,"station_id":"ce4bgip2rcd13ifvqbb0","pricing_plan_id":"cebpf4jnsgd1na2vs0mg"},{"bike_id":"e9b62f0d-fa32-4e1d-abcb-0c6652e6e501","system_id":"levelo_inurba_marseille","lat":43.298037,"lon":5.381066,"is_reserved":false,"is_disabled":false,"rental_uris":{"android":"levelo://app?vid=e9b62f0d-fa32-4e1d-abcb-0c6652e6e501","ios":"levelo://app?vid=e9b62f0d-fa32-4e1d-abcb-0c6652e6e501"},"vehicle_type_id":"4","last_reported":1719252651,"current_range_meters":6800,"station_id":"ce4bgip2rcd13ifvqbb0","pricing_plan_id":"cebpf4jnsgd1na2vs0mg"},{"bike_id":"577a2985-2a50-447e-aa8a-6048d42ef5e7","system_id":"levelo_inurba_marseille","lat":43.304274,"lon":5.388873,"is_reserved":false,"is_disabled":false,"rental_uris":{"android":"levelo://app?vid=577a2985-2a50-447e-aa8a-6048d42ef5e7","ios":"levelo://app?vid=577a2985-2a50-447e-aa8a-6048d42ef5e7"},"vehicle_type_id":"4","last_reported":1719252651,"current_range_meters":17600,"station_id":"ce4bgk12rcd13ifvqbi0","pricing_plan_id":"cebpf4jnsgd1na2vs0mg"},{"bike_id":"9fab5052-a3af-461a-90d9-34f7bcf3199d","system_id":"levelo_inurba_marseille","lat":43.299707,"lon":5.384859,"is_reserved":false,"is_disabled":false,"rental_uris":{"android":"levelo://app?vid=9fab5052-a3af-461a-90d9-34f7bcf3199d","ios":"levelo://app?vid=9fab5052-a3af-461a-90d9-34f7bcf3199d"},"vehicle_type_id":"4","last_reported":1719252651,"current_range_meters":18800,"station_id":"ce4bgj92rcd13ifvqbd0","pricing_plan_id":"cebpf4jnsgd1na2vs0mg"},{"bike_id":"2bb12f86-35e0-40e4-a2b3-8fd771782c17","system_id":"levelo_inurba_marseille","lat":43.299724,"lon":5.384848,"is_reserved":false,"is_disabled":false,"rental_uris":{"android":"levelo://app?vid=2bb12f86-35e0-40e4-a2b3-8fd771782c17","ios":"levelo://app?vid=2bb12f86-35e0-40e4-a2b3-8fd771782c17"},"vehicle_type_id":"4","last_reported":1719252651,"current_range_meters":0,"station_id":"ce4bgj92rcd13ifvqbd0","pricing_plan_id":"cebpf4jnsgd1na2vs0mg"},{"bike_id":"7bc8b642-bce9-4885-98cd-3297665c5c08","system_id":"levelo_inurba_marseille","lat":43.299707,"lon":5.384859,"is_reserved":false,"is_disabled":false,"rental_uris":{"android":"levelo://app?vid=7bc8b642-bce9-4885-98cd-3297665c5c08","ios":"levelo://app?vid=7bc8b642-bce9-4885-98cd-3297665c5c08"},"vehicle_type_id":"4","last_reported":1719252651,"current_range_meters":18800,"station_id":"ce4bgj92rcd13ifvqbd0","pricing_plan_id":"cebpf4jnsgd1na2vs0mg"},{"bike_id":"ee6d85f9-00a9-466c-a42d-a5b5dde5a015","system_id":"levelo_inurba_marseille","lat":43.32367,"lon":5.388836,"is_reserved":false,"is_disabled":false,"rental_uris":{"android":"levelo://app?vid=ee6d85f9-00a9-466c-a42d-a5b5dde5a015","ios":"levelo://app?vid=ee6d85f9-00a9-466c-a42d-a5b5dde5a015"},"vehicle_type_id":"4","last_reported":1719252651,"current_range_meters":28400,"station_id":"ce4bhqp2rcd13ifvqhog","pricing_plan_id":"cebpf4jnsgd1na2vs0mg"},{"bike_id":"9966a18a-9de1-46ea-bc71-1cf9eefa16d7","system_id":"levelo_inurba_marseille","lat":43.32367,"lon":5.388836,"is_reserved":false,"is_disabled":false,"rental_uris":{"android":"levelo://app?vid=9966a18a-9de1-46ea-bc71-1cf9eefa16d7","ios":"levelo://app?vid=9966a18a-9de1-46ea-bc71-1cf9eefa16d7"},"vehicle_type_id":"4","last_reported":1719252651,"current_range_meters":8000,"station_id":"ce4bhqp2rcd13ifvqhog","pricing_plan_id":"cebpf4jnsgd1na2vs0mg"},{"bike_id":"cd4142b0-d675-4cf8-8fca-358484835f32","system_id":"levelo_inurba_marseille","lat":43.293249,"lon":5.371578,"is_reserved":false,"is_disabled":false,"rental_uris":{"android":"levelo://app?vid=cd4142b0-d675-4cf8-8fca-358484835f32","ios":"levelo://app?vid=cd4142b0-d675-4cf8-8fca-358484835f32"},"vehicle_type_id":"4","last_reported":1719252651,"current_range_meters":31200,"station_id":"ce4bgh92rcd13ifvqb40","pricing_plan_id":"cebpf4jnsgd1na2vs0mg"},{"bike_id":"ee667701-cd6f-4e1c-9c28-028e4a9921cc","system_id":"levelo_inurba_marseille","lat":43.29281,"lon":5.36846,"is_reserved":false,"is_disabled":false,"rental_uris":{"android":"levelo://app?vid=ee667701-cd6f-4e1c-9c28-028e4a9921cc","ios":"levelo://app?vid=ee667701-cd6f-4e1c-9c28-028e4a9921cc"},"vehicle_type_id":"4","last_reported":1719252651,"current_range_meters":5200,"station_id":"ce4bhbp2rcd13ifvqesg","pricing_plan_id":"cebpf4jnsgd1na2vs0mg"},{"bike_id":"c66bfc24-47d2-40fb-a4de-42f1735e1541","system_id":"levelo_inurba_marseille","lat":43.292749,"lon":5.368402,"is_reserved":false,"is_disabled":false,"rental_uris":{"android":"levelo://app?vid=c66bfc24-47d2-40fb-a4de-42f1735e1541","ios":"levelo://app?vid=c66bfc24-47d2-40fb-a4de-42f1735e1541"},"vehicle_type_id":"4","last_reported":1719252651,"current_range_meters":31200,"station_id":"ce4bhbp2rcd13ifvqesg","pricing_plan_id":"cebpf4jnsgd1na2vs0mg"},{"bike_id":"1a9bbeea-725c-4090-bd2b-b9d69ebc89f4","system_id":"levelo_inurba_marseille","lat":43.293249,"lon":5.371578,"is_reserved":false,"is_disabled":false,"rental_uris":{"android":"levelo://app?vid=1a9bbeea-725c-4090-bd2b-b9d69ebc89f4","ios":"levelo://app?vid=1a9bbeea-725c-4090-bd2b-b9d69ebc89f4"},"vehicle_type_id":"4","last_reported":1719252651,"current_range_meters":31600,"station_id":"ce4bgh92rcd13ifvqb40","pricing_plan_id":"cebpf4jnsgd1na2vs0mg"},{"bike_id":"22d6908f-6247-4e09-a720-a69b1230d863","system_id":"levelo_inurba_marseille","lat":43.292749,"lon":5.368402,"is_reserved":false,"is_disabled":false,"rental_uris":{"android":"levelo://app?vid=22d6908f-6247-4e09-a720-a69b1230d863","ios":"levelo://app?vid=22d6908f-6247-4e09-a720-a69b1230d863"},"vehicle_type_id":"4","last_reported":1719252651,"current_range_meters":12800,"station_id":"ce4bhbp2rcd13ifvqesg","pricing_plan_id":"cebpf4jnsgd1na2vs0mg"},{"bike_id":"4066cee1-963b-4ef2-a258-2c30b6a21561","system_id":"levelo_inurba_marseille","lat":43.303002,"lon":5.392142,"is_reserved":false,"is_disabled":false,"rental_uris":{"android":"levelo://app?vid=4066cee1-963b-4ef2-a258-2c30b6a21561","ios":"levelo://app?vid=4066cee1-963b-4ef2-a258-2c30b6a21561"},"vehicle_type_id":"4","last_reported":1719252651,"current_range_meters":7600,"station_id":"ce4bgkh2rcd13ifvqbk0","pricing_plan_id":"cebpf4jnsgd1na2vs0mg"},{"bike_id":"67ede4d8-8043-4608-806b-7216c7b93bc7","system_id":"levelo_inurba_marseille","lat":43.2936,"lon":5.37835,"is_reserved":false,"is_disabled":false,"rental_uris":{"android":"levelo://app?vid=67ede4d8-8043-4608-806b-7216c7b93bc7","ios":"levelo://app?vid=67ede4d8-8043-4608-806b-7216c7b93bc7"},"vehicle_type_id":"4","last_reported":1719252651,"current_range_meters":1600,"station_id":"ce4bgjh2rcd13ifvqbf0","pricing_plan_id":"cebpf4jnsgd1na2vs0mg"},{"bike_id":"f5dc8bf4-88aa-4e11-a37e-491b42355f6f","system_id":"levelo_inurba_marseille","lat":43.2936,"lon":5.37835,"is_reserved":false,"is_disabled":false,"rental_uris":{"android":"levelo://app?vid=f5dc8bf4-88aa-4e11-a37e-491b42355f6f","ios":"levelo://app?vid=f5dc8bf4-88aa-4e11-a37e-491b42355f6f"},"vehicle_type_id":"4","last_reported":1719252651,"current_range_meters":15200,"station_id":"ce4bgjh2rcd13ifvqbf0","pricing_plan_id":"cebpf4jnsgd1na2vs0mg"},{"bike_id":"e1c11ba0-a8eb-49bf-b73a-96a8ab4f06ac","system_id":"levelo_inurba_marseille","lat":43.298764,"lon":5.388973,"is_reserved":false,"is_disabled":false,"rental_uris":{"android":"levelo://app?vid=e1c11ba0-a8eb-49bf-b73a-96a8ab4f06ac","ios":"levelo://app?vid=e1c11ba0-a8eb-49bf-b73a-96a8ab4f06ac"},"vehicle_type_id":"4","last_reported":1719252651,"current_range_meters":4400,"station_id":"ce4bh392rcd13ifvqdl0","pricing_plan_id":"cebpf4jnsgd1na2vs0mg"},{"bike_id":"5c7a1af4-0c4f-4064-91e0-d7d28b8f7f5f","system_id":"levelo_inurba_marseille","lat":43.292311,"lon":5.360731,"is_reserved":false,"is_disabled":false,"rental_uris":{"android":"levelo://app?vid=5c7a1af4-0c4f-4064-91e0-d7d28b8f7f5f","ios":"levelo://app?vid=5c7a1af4-0c4f-4064-91e0-d7d28b8f7f5f"},"vehicle_type_id":"4","last_reported":1719252651,"current_range_meters":11600,"station_id":"ce4bhbh2rcd13ifvqeqg","pricing_plan_id":"cebpf4jnsgd1na2vs0mg"},{"bike_id":"6d952b52-8dac-47f0-9e5e-50e33304b1d6","system_id":"levelo_inurba_marseille","lat":43.29226,"lon":5.36075,"is_reserved":false,"is_disabled":false,"rental_uris":{"android":"levelo://app?vid=6d952b52-8dac-47f0-9e5e-50e33304b1d6","ios":"levelo://app?vid=6d952b52-8dac-47f0-9e5e-50e33304b1d6"},"vehicle_type_id":"4","last_reported":1719252651,"current_range_meters":27600,"station_id":"ce4bhbh2rcd13ifvqeqg","pricing_plan_id":"cebpf4jnsgd1na2vs0mg"},{"bike_id":"f038643c-17c1-4273-afea-8bcd5b4865e7","system_id":"levelo_inurba_marseille","lat":43.29226,"lon":5.36073,"is_reserved":false,"is_disabled":false,"rental_uris":{"android":"levelo://app?vid=f038643c-17c1-4273-afea-8bcd5b4865e7","ios":"levelo://app?vid=f038643c-17c1-4273-afea-8bcd5b4865e7"},"vehicle_type_id":"4","last_reported":1719252651,"current_range_meters":23600,"station_id":"ce4bhbh2rcd13ifvqeqg","pricing_plan_id":"cebpf4jnsgd1na2vs0mg"},{"bike_id":"b512c7a3-d486-4341-a63c-45e4c60ad3b2","system_id":"levelo_inurba_marseille","lat":43.292311,"lon":5.360731,"is_reserved":false,"is_disabled":false,"rental_uris":{"android":"levelo://app?vid=b512c7a3-d486-4341-a63c-45e4c60ad3b2","ios":"levelo://app?vid=b512c7a3-d486-4341-a63c-45e4c60ad3b2"},"vehicle_type_id":"4","last_reported":1719252651,"current_range_meters":14800,"station_id":"ce4bhbh2rcd13ifvqeqg","pricing_plan_id":"cebpf4jnsgd1na2vs0mg"},{"bike_id":"19a0a709-15ed-452d-86a2-4803ec2caf82","system_id":"levelo_inurba_marseille","lat":43.292311,"lon":5.360731,"is_reserved":false,"is_disabled":false,"rental_uris":{"android":"levelo://app?vid=19a0a709-15ed-452d-86a2-4803ec2caf82","ios":"levelo://app?vid=19a0a709-15ed-452d-86a2-4803ec2caf82"},"vehicle_type_id":"4","last_reported":1719252651,"current_range_meters":6800,"station_id":"ce4bhbh2rcd13ifvqeqg","pricing_plan_id":"cebpf4jnsgd1na2vs0mg"},{"bike_id":"313251c9-7609-4dbb-b600-99ce333c21b7","system_id":"levelo_inurba_marseille","lat":43.29225,"lon":5.36057,"is_reserved":false,"is_disabled":false,"rental_uris":{"android":"levelo://app?vid=313251c9-7609-4dbb-b600-99ce333c21b7","ios":"levelo://app?vid=313251c9-7609-4dbb-b600-99ce333c21b7"},"vehicle_type_id":"4","last_reported":1719252651,"current_range_meters":31200,"station_id":"ce4bhbh2rcd13ifvqeqg","pricing_plan_id":"cebpf4jnsgd1na2vs0mg"},{"bike_id":"b1104b9f-841c-4ded-af14-727d92a54f15","system_id":"levelo_inurba_marseille","lat":43.292311,"lon":5.360731,"is_reserved":false,"is_disabled":false,"rental_uris":{"android":"levelo://app?vid=b1104b9f-841c-4ded-af14-727d92a54f15","ios":"levelo://app?vid=b1104b9f-841c-4ded-af14-727d92a54f15"},"vehicle_type_id":"4","last_reported":1719252651,"current_range_meters":400,"station_id":"ce4bhbh2rcd13ifvqeqg","pricing_plan_id":"cebpf4jnsgd1na2vs0mg"},{"bike_id":"3fe09cad-fc6d-4800-a8a0-5e6ed93f0157","system_id":"levelo_inurba_marseille","lat":43.30085,"lon":5.390856,"is_reserved":false,"is_disabled":false,"rental_uris":{"android":"levelo://app?vid=3fe09cad-fc6d-4800-a8a0-5e6ed93f0157","ios":"levelo://app?vid=3fe09cad-fc6d-4800-a8a0-5e6ed93f0157"},"vehicle_type_id":"4","last_reported":1719252651,"current_range_meters":19600,"station_id":"ce4bh192rcd13ifvqdb0","pricing_plan_id":"cebpf4jnsgd1na2vs0mg"},{"bike_id":"03095339-f526-4079-b031-19fc99897713","system_id":"levelo_inurba_marseille","lat":43.292311,"lon":5.360731,"is_reserved":false,"is_disabled":false,"rental_uris":{"android":"levelo://app?vid=03095339-f526-4079-b031-19fc99897713","ios":"levelo://app?vid=03095339-f526-4079-b031-19fc99897713"},"vehicle_type_id":"4","last_reported":1719252651,"current_range_meters":17200,"station_id":"ce4bhbh2rcd13ifvqeqg","pricing_plan_id":"cebpf4jnsgd1na2vs0mg"},{"bike_id":"bdb1510e-7b07-42fe-bd4a-dce3283f30ae","system_id":"levelo_inurba_marseille","lat":43.30089,"lon":5.39086,"is_reserved":false,"is_disabled":false,"rental_uris":{"android":"levelo://app?vid=bdb1510e-7b07-42fe-bd4a-dce3283f30ae","ios":"levelo://app?vid=bdb1510e-7b07-42fe-bd4a-dce3283f30ae"},"vehicle_type_id":"4","last_reported":1719252651,"current_range_meters":25600,"station_id":"ce4bh192rcd13ifvqdb0","pricing_plan_id":"cebpf4jnsgd1na2vs0mg"},{"bike_id":"c96bb2fc-409f-456a-a748-0168c1645aed","system_id":"levelo_inurba_marseille","lat":43.29215,"lon":5.36056,"is_reserved":false,"is_disabled":false,"rental_uris":{"android":"levelo://app?vid=c96bb2fc-409f-456a-a748-0168c1645aed","ios":"levelo://app?vid=c96bb2fc-409f-456a-a748-0168c1645aed"},"vehicle_type_id":"4","last_reported":1719252651,"current_range_meters":25600,"station_id":"ce4bhbh2rcd13ifvqeqg","pricing_plan_id":"cebpf4jnsgd1na2vs0mg"},{"bike_id":"9c5315fb-7f7a-49ac-8270-bb360d188009","system_id":"levelo_inurba_marseille","lat":43.298764,"lon":5.388973,"is_reserved":false,"is_disabled":false,"rental_uris":{"android":"levelo://app?vid=9c5315fb-7f7a-49ac-8270-bb360d188009","ios":"levelo://app?vid=9c5315fb-7f7a-49ac-8270-bb360d188009"},"vehicle_type_id":"4","last_reported":1719252651,"current_range_meters":17600,"station_id":"ce4bh392rcd13ifvqdl0","pricing_plan_id":"cebpf4jnsgd1na2vs0mg"},{"bike_id":"06c5770f-7999-4955-84ea-9d5fb093f2c2","system_id":"levelo_inurba_marseille","lat":43.298764,"lon":5.388973,"is_reserved":false,"is_disabled":false,"rental_uris":{"android":"levelo://app?vid=06c5770f-7999-4955-84ea-9d5fb093f2c2","ios":"levelo://app?vid=06c5770f-7999-4955-84ea-9d5fb093f2c2"},"vehicle_type_id":"4","last_reported":1719252651,"current_range_meters":0,"station_id":"ce4bh392rcd13ifvqdl0","pricing_plan_id":"cebpf4jnsgd1na2vs0mg"},{"bike_id":"6d8e6eb8-59ff-40a0-8356-39a7b0cc0472","system_id":"levelo_inurba_marseille","lat":43.291675,"lon":5.371583,"is_reserved":false,"is_disabled":false,"rental_uris":{"android":"levelo://app?vid=6d8e6eb8-59ff-40a0-8356-39a7b0cc0472","ios":"levelo://app?vid=6d8e6eb8-59ff-40a0-8356-39a7b0cc0472"},"vehicle_type_id":"4","last_reported":1719252651,"current_range_meters":3200,"station_id":"ce4bha92rcd13ifvqeh0","pricing_plan_id":"cebpf4jnsgd1na2vs0mg"},{"bike_id":"b6cfa05a-5de2-4811-81e6-38ad77fd0e9d","system_id":"levelo_inurba_marseille","lat":43.29888,"lon":5.38906,"is_reserved":false,"is_disabled":false,"rental_uris":{"android":"levelo://app?vid=b6cfa05a-5de2-4811-81e6-38ad77fd0e9d","ios":"levelo://app?vid=b6cfa05a-5de2-4811-81e6-38ad77fd0e9d"},"vehicle_type_id":"4","last_reported":1719252651,"current_range_meters":0,"station_id":"ce4bh392rcd13ifvqdl0","pricing_plan_id":"cebpf4jnsgd1na2vs0mg"},{"bike_id":"afb82da6-b4c1-41b2-9a90-dd6786d37b09","system_id":"levelo_inurba_marseille","lat":43.291675,"lon":5.371583,"is_reserved":false,"is_disabled":false,"rental_uris":{"android":"levelo://app?vid=afb82da6-b4c1-41b2-9a90-dd6786d37b09","ios":"levelo://app?vid=afb82da6-b4c1-41b2-9a90-dd6786d37b09"},"vehicle_type_id":"4","last_reported":1719252651,"current_range_meters":25600,"station_id":"ce4bha92rcd13ifvqeh0","pricing_plan_id":"cebpf4jnsgd1na2vs0mg"},{"bike_id":"c943cc75-ee3a-4598-8f31-99ab8e4e69ed","system_id":"levelo_inurba_marseille","lat":43.303615,"lon":5.393443,"is_reserved":false,"is_disabled":false,"rental_uris":{"android":"levelo://app?vid=c943cc75-ee3a-4598-8f31-99ab8e4e69ed","ios":"levelo://app?vid=c943cc75-ee3a-4598-8f31-99ab8e4e69ed"},"vehicle_type_id":"4","last_reported":1719252651,"current_range_meters":0,"station_id":"","pricing_plan_id":"cebpf4jnsgd1na2vs0mg"},{"bike_id":"03637514-e0fa-406b-94c2-74a051957131","system_id":"levelo_inurba_marseille","lat":43.29871,"lon":5.38905,"is_reserved":false,"is_disabled":false,"rental_uris":{"android":"levelo://app?vid=03637514-e0fa-406b-94c2-74a051957131","ios":"levelo://app?vid=03637514-e0fa-406b-94c2-74a051957131"},"vehicle_type_id":"4","last_reported":1719252651,"current_range_meters":0,"station_id":"ce4bh392rcd13ifvqdl0","pricing_plan_id":"cebpf4jnsgd1na2vs0mg"},{"bike_id":"919c1cbb-2668-4a73-8003-a99108114b6f","system_id":"levelo_inurba_marseille","lat":43.29194,"lon":5.35813,"is_reserved":false,"is_disabled":false,"rental_uris":{"android":"levelo://app?vid=919c1cbb-2668-4a73-8003-a99108114b6f","ios":"levelo://app?vid=919c1cbb-2668-4a73-8003-a99108114b6f"},"vehicle_type_id":"4","last_reported":1719252651,"current_range_meters":18000,"station_id":"ce4bhb12rcd13ifvqel0","pricing_plan_id":"cebpf4jnsgd1na2vs0mg"},{"bike_id":"8672de8c-9c74-4636-b386-74ecf14be4d6","system_id":"levelo_inurba_marseille","lat":43.292005,"lon":5.357875,"is_reserved":false,"is_disabled":false,"rental_uris":{"android":"levelo://app?vid=8672de8c-9c74-4636-b386-74ecf14be4d6","ios":"levelo://app?vid=8672de8c-9c74-4636-b386-74ecf14be4d6"},"vehicle_type_id":"4","last_reported":1719252651,"current_range_meters":16400,"station_id":"ce4bhb12rcd13ifvqel0","pricing_plan_id":"cebpf4jnsgd1na2vs0mg"},{"bike_id":"bbd805a8-b1c2-46e4-99de-33947ad20307","system_id":"levelo_inurba_marseille","lat":43.291994,"lon":5.357886,"is_reserved":false,"is_disabled":false,"rental_uris":{"android":"levelo://app?vid=bbd805a8-b1c2-46e4-99de-33947ad20307","ios":"levelo://app?vid=bbd805a8-b1c2-46e4-99de-33947ad20307"},"vehicle_type_id":"4","last_reported":1719252651,"current_range_meters":23600,"station_id":"ce4bhb12rcd13ifvqel0","pricing_plan_id":"cebpf4jnsgd1na2vs0mg"},{"bike_id":"cfb3cf68-024d-45bb-8c05-563cd14b061f","system_id":"levelo_inurba_marseille","lat":43.313291,"lon":5.396838,"is_reserved":false,"is_disabled":false,"rental_uris":{"android":"levelo://app?vid=cfb3cf68-024d-45bb-8c05-563cd14b061f","ios":"levelo://app?vid=cfb3cf68-024d-45bb-8c05-563cd14b061f"},"vehicle_type_id":"4","last_reported":1719252651,"current_range_meters":4400,"station_id":"ce4bgvp2rcd13ifvqcu0","pricing_plan_id":"cebpf4jnsgd1na2vs0mg"},{"bike_id":"8761956f-0bf6-4a24-9802-574ae9ca4ccc","system_id":"levelo_inurba_marseille","lat":43.313291,"lon":5.396838,"is_reserved":false,"is_disabled":false,"rental_uris":{"android":"levelo://app?vid=8761956f-0bf6-4a24-9802-574ae9ca4ccc","ios":"levelo://app?vid=8761956f-0bf6-4a24-9802-574ae9ca4ccc"},"vehicle_type_id":"4","last_reported":1719252651,"current_range_meters":14400,"station_id":"ce4bgvp2rcd13ifvqcu0","pricing_plan_id":"cebpf4jnsgd1na2vs0mg"},{"bike_id":"5a8628cc-0762-498b-a0ea-48b7bc538752","system_id":"levelo_inurba_marseille","lat":43.29529,"lon":5.385581,"is_reserved":false,"is_disabled":false,"rental_uris":{"android":"levelo://app?vid=5a8628cc-0762-498b-a0ea-48b7bc538752","ios":"levelo://app?vid=5a8628cc-0762-498b-a0ea-48b7bc538752"},"vehicle_type_id":"4","last_reported":1719252651,"current_range_meters":12800,"station_id":"ce4bgih2rcd13ifvqba0","pricing_plan_id":"cebpf4jnsgd1na2vs0mg"},{"bike_id":"2a273840-d3b1-4238-82a0-82fb982ead89","system_id":"levelo_inurba_marseille","lat":43.29529,"lon":5.385581,"is_reserved":false,"is_disabled":false,"rental_uris":{"android":"levelo://app?vid=2a273840-d3b1-4238-82a0-82fb982ead89","ios":"levelo://app?vid=2a273840-d3b1-4238-82a0-82fb982ead89"},"vehicle_type_id":"4","last_reported":1719252651,"current_range_meters":17600,"station_id":"ce4bgih2rcd13ifvqba0","pricing_plan_id":"cebpf4jnsgd1na2vs0mg"},{"bike_id":"c6a1e6c0-0623-4986-be52-6cbe5167d27a","system_id":"levelo_inurba_marseille","lat":43.290779,"lon":5.371482,"is_reserved":false,"is_disabled":false,"rental_uris":{"android":"levelo://app?vid=c6a1e6c0-0623-4986-be52-6cbe5167d27a","ios":"levelo://app?vid=c6a1e6c0-0623-4986-be52-6cbe5167d27a"},"vehicle_type_id":"4","last_reported":1719252651,"current_range_meters":8400,"station_id":"ce4bh5p2rcd13ifvqe4g","pricing_plan_id":"cebpf4jnsgd1na2vs0mg"},{"bike_id":"174ca024-c270-48dd-99bd-63a463fd965e","system_id":"levelo_inurba_marseille","lat":43.290104,"lon":5.356111,"is_reserved":false,"is_disabled":false,"rental_uris":{"android":"levelo://app?vid=174ca024-c270-48dd-99bd-63a463fd965e","ios":"levelo://app?vid=174ca024-c270-48dd-99bd-63a463fd965e"},"vehicle_type_id":"4","last_reported":1719252651,"current_range_meters":2400,"station_id":"ce4bhb92rcd13ifvqen0","pricing_plan_id":"cebpf4jnsgd1na2vs0mg"},{"bike_id":"37494268-7b54-4b83-acab-9ad582f4261d","system_id":"levelo_inurba_marseille","lat":43.302008,"lon":5.394694,"is_reserved":false,"is_disabled":false,"rental_uris":{"android":"levelo://app?vid=37494268-7b54-4b83-acab-9ad582f4261d","ios":"levelo://app?vid=37494268-7b54-4b83-acab-9ad582f4261d"},"vehicle_type_id":"4","last_reported":1719252651,"current_range_meters":7600,"station_id":"ce4bh0p2rcd13ifvqd70","pricing_plan_id":"cebpf4jnsgd1na2vs0mg"},{"bike_id":"f677470e-219b-4de0-acd0-6fff2a9ea935","system_id":"levelo_inurba_marseille","lat":43.30313,"lon":5.39575,"is_reserved":false,"is_disabled":false,"rental_uris":{"android":"levelo://app?vid=f677470e-219b-4de0-acd0-6fff2a9ea935","ios":"levelo://app?vid=f677470e-219b-4de0-acd0-6fff2a9ea935"},"vehicle_type_id":"4","last_reported":1719252651,"current_range_meters":13600,"station_id":"","pricing_plan_id":"cebpf4jnsgd1na2vs0mg"},{"bike_id":"d826fbc8-ed1c-453c-9471-2cf7d2ff56c4","system_id":"levelo_inurba_marseille","lat":43.294153,"lon":5.386305,"is_reserved":false,"is_disabled":false,"rental_uris":{"android":"levelo://app?vid=d826fbc8-ed1c-453c-9471-2cf7d2ff56c4","ios":"levelo://app?vid=d826fbc8-ed1c-453c-9471-2cf7d2ff56c4"},"vehicle_type_id":"4","last_reported":1719252651,"current_range_meters":17600,"station_id":"ce4bh2h2rcd13ifvqdh0","pricing_plan_id":"cebpf4jnsgd1na2vs0mg"},{"bike_id":"f9301923-446c-4b49-bfe5-82f59daa5c2e","system_id":"levelo_inurba_marseille","lat":43.29421,"lon":5.38625,"is_reserved":false,"is_disabled":false,"rental_uris":{"android":"levelo://app?vid=f9301923-446c-4b49-bfe5-82f59daa5c2e","ios":"levelo://app?vid=f9301923-446c-4b49-bfe5-82f59daa5c2e"},"vehicle_type_id":"4","last_reported":1719252651,"current_range_meters":14800,"station_id":"ce4bh2h2rcd13ifvqdh0","pricing_plan_id":"cebpf4jnsgd1na2vs0mg"},{"bike_id":"5d948ffc-d296-4b41-acca-769e13695b91","system_id":"levelo_inurba_marseille","lat":43.29418,"lon":5.38622,"is_reserved":false,"is_disabled":false,"rental_uris":{"android":"levelo://app?vid=5d948ffc-d296-4b41-acca-769e13695b91","ios":"levelo://app?vid=5d948ffc-d296-4b41-acca-769e13695b91"},"vehicle_type_id":"4","last_reported":1719252651,"current_range_meters":5600,"station_id":"ce4bh2h2rcd13ifvqdh0","pricing_plan_id":"cebpf4jnsgd1na2vs0mg"},{"bike_id":"820612c5-18ff-42e5-bc93-3624842d738c","system_id":"levelo_inurba_marseille","lat":43.294153,"lon":5.386305,"is_reserved":false,"is_disabled":false,"rental_uris":{"android":"levelo://app?vid=820612c5-18ff-42e5-bc93-3624842d738c","ios":"levelo://app?vid=820612c5-18ff-42e5-bc93-3624842d738c"},"vehicle_type_id":"4","last_reported":1719252651,"current_range_meters":31200,"station_id":"ce4bh2h2rcd13ifvqdh0","pricing_plan_id":"cebpf4jnsgd1na2vs0mg"},{"bike_id":"d639ec98-ed59-4190-97b7-a277b1c1c65d","system_id":"levelo_inurba_marseille","lat":43.29417,"lon":5.38628,"is_reserved":false,"is_disabled":false,"rental_uris":{"android":"levelo://app?vid=d639ec98-ed59-4190-97b7-a277b1c1c65d","ios":"levelo://app?vid=d639ec98-ed59-4190-97b7-a277b1c1c65d"},"vehicle_type_id":"4","last_reported":1719252651,"current_range_meters":8400,"station_id":"ce4bh2h2rcd13ifvqdh0","pricing_plan_id":"cebpf4jnsgd1na2vs0mg"},{"bike_id":"45f1d7c7-05bd-4cfb-8589-1730afe90c98","system_id":"levelo_inurba_marseille","lat":43.294153,"lon":5.386305,"is_reserved":false,"is_disabled":false,"rental_uris":{"android":"levelo://app?vid=45f1d7c7-05bd-4cfb-8589-1730afe90c98","ios":"levelo://app?vid=45f1d7c7-05bd-4cfb-8589-1730afe90c98"},"vehicle_type_id":"4","last_reported":1719252651,"current_range_meters":31200,"station_id":"ce4bh2h2rcd13ifvqdh0","pricing_plan_id":"cebpf4jnsgd1na2vs0mg"},{"bike_id":"3e4da4fc-b75b-4008-b076-3a5b4a7a41c9","system_id":"levelo_inurba_marseille","lat":43.289184,"lon":5.366408,"is_reserved":false,"is_disabled":false,"rental_uris":{"android":"levelo://app?vid=3e4da4fc-b75b-4008-b076-3a5b4a7a41c9","ios":"levelo://app?vid=3e4da4fc-b75b-4008-b076-3a5b4a7a41c9"},"vehicle_type_id":"4","last_reported":1719252651,"current_range_meters":23200,"station_id":"ce4bhap2rcd13ifvqek0","pricing_plan_id":"cebpf4jnsgd1na2vs0mg"},{"bike_id":"1a546b88-ad66-4ba9-9ff3-4c859838e53b","system_id":"levelo_inurba_marseille","lat":43.289184,"lon":5.366408,"is_reserved":false,"is_disabled":false,"rental_uris":{"android":"levelo://app?vid=1a546b88-ad66-4ba9-9ff3-4c859838e53b","ios":"levelo://app?vid=1a546b88-ad66-4ba9-9ff3-4c859838e53b"},"vehicle_type_id":"4","last_reported":1719252651,"current_range_meters":8000,"station_id":"ce4bhap2rcd13ifvqek0","pricing_plan_id":"cebpf4jnsgd1na2vs0mg"},{"bike_id":"f8b10a53-b815-4c07-aeea-62fa39e833e0","system_id":"levelo_inurba_marseille","lat":43.294162,"lon":5.386292,"is_reserved":false,"is_disabled":false,"rental_uris":{"android":"levelo://app?vid=f8b10a53-b815-4c07-aeea-62fa39e833e0","ios":"levelo://app?vid=f8b10a53-b815-4c07-aeea-62fa39e833e0"},"vehicle_type_id":"4","last_reported":1719252651,"current_range_meters":8400,"station_id":"ce4bh2h2rcd13ifvqdh0","pricing_plan_id":"cebpf4jnsgd1na2vs0mg"},{"bike_id":"44454e19-73c9-4e61-a609-8a83d734a946","system_id":"levelo_inurba_marseille","lat":43.29415,"lon":5.38628,"is_reserved":false,"is_disabled":false,"rental_uris":{"android":"levelo://app?vid=44454e19-73c9-4e61-a609-8a83d734a946","ios":"levelo://app?vid=44454e19-73c9-4e61-a609-8a83d734a946"},"vehicle_type_id":"4","last_reported":1719252651,"current_range_meters":15200,"station_id":"ce4bh2h2rcd13ifvqdh0","pricing_plan_id":"cebpf4jnsgd1na2vs0mg"},{"bike_id":"5e02aff0-f323-4962-a5bc-daece61d4a99","system_id":"levelo_inurba_marseille","lat":43.289468,"lon":5.363719,"is_reserved":false,"is_disabled":false,"rental_uris":{"android":"levelo://app?vid=5e02aff0-f323-4962-a5bc-daece61d4a99","ios":"levelo://app?vid=5e02aff0-f323-4962-a5bc-daece61d4a99"},"vehicle_type_id":"4","last_reported":1719252651,"current_range_meters":11600,"station_id":"ce4bhc92rcd13ifvqetg","pricing_plan_id":"cebpf4jnsgd1na2vs0mg"},{"bike_id":"05efa3e0-481e-47f6-b079-bb40f2204c96","system_id":"levelo_inurba_marseille","lat":43.294153,"lon":5.386305,"is_reserved":false,"is_disabled":false,"rental_uris":{"android":"levelo://app?vid=05efa3e0-481e-47f6-b079-bb40f2204c96","ios":"levelo://app?vid=05efa3e0-481e-47f6-b079-bb40f2204c96"},"vehicle_type_id":"4","last_reported":1719252651,"current_range_meters":8000,"station_id":"ce4bh2h2rcd13ifvqdh0","pricing_plan_id":"cebpf4jnsgd1na2vs0mg"},{"bike_id":"579311f1-7e05-41c7-ba03-1d53d3455fee","system_id":"levelo_inurba_marseille","lat":43.294162,"lon":5.386292,"is_reserved":false,"is_disabled":false,"rental_uris":{"android":"levelo://app?vid=579311f1-7e05-41c7-ba03-1d53d3455fee","ios":"levelo://app?vid=579311f1-7e05-41c7-ba03-1d53d3455fee"},"vehicle_type_id":"4","last_reported":1719252651,"current_range_meters":31600,"station_id":"ce4bh2h2rcd13ifvqdh0","pricing_plan_id":"cebpf4jnsgd1na2vs0mg"},{"bike_id":"56407ad5-fa8f-467d-8a35-62572b972cd2","system_id":"levelo_inurba_marseille","lat":43.289395,"lon":5.366355,"is_reserved":false,"is_disabled":false,"rental_uris":{"android":"levelo://app?vid=56407ad5-fa8f-467d-8a35-62572b972cd2","ios":"levelo://app?vid=56407ad5-fa8f-467d-8a35-62572b972cd2"},"vehicle_type_id":"4","last_reported":1719252651,"current_range_meters":31200,"station_id":"ce4bhap2rcd13ifvqek0","pricing_plan_id":"cebpf4jnsgd1na2vs0mg"},{"bike_id":"7f12b5db-67a5-463b-be7c-899be80b0ab4","system_id":"levelo_inurba_marseille","lat":43.290327,"lon":5.375711,"is_reserved":false,"is_disabled":false,"rental_uris":{"android":"levelo://app?vid=7f12b5db-67a5-463b-be7c-899be80b0ab4","ios":"levelo://app?vid=7f12b5db-67a5-463b-be7c-899be80b0ab4"},"vehicle_type_id":"4","last_reported":1719252651,"current_range_meters":4400,"station_id":"ce4bh692rcd13ifvqe90","pricing_plan_id":"cebpf4jnsgd1na2vs0mg"},{"bike_id":"27d7cb01-1993-43bc-a27c-bac38e9ac506","system_id":"levelo_inurba_marseille","lat":43.289468,"lon":5.363719,"is_reserved":false,"is_disabled":false,"rental_uris":{"android":"levelo://app?vid=27d7cb01-1993-43bc-a27c-bac38e9ac506","ios":"levelo://app?vid=27d7cb01-1993-43bc-a27c-bac38e9ac506"},"vehicle_type_id":"4","last_reported":1719252651,"current_range_meters":31200,"station_id":"ce4bhc92rcd13ifvqetg","pricing_plan_id":"cebpf4jnsgd1na2vs0mg"},{"bike_id":"bcb82c14-769b-424b-a42c-d92ac1a31243","system_id":"levelo_inurba_marseille","lat":43.292644,"lon":5.384257,"is_reserved":false,"is_disabled":false,"rental_uris":{"android":"levelo://app?vid=bcb82c14-769b-424b-a42c-d92ac1a31243","ios":"levelo://app?vid=bcb82c14-769b-424b-a42c-d92ac1a31243"},"vehicle_type_id":"4","last_reported":1719252651,"current_range_meters":10400,"station_id":"ce4bh692rcd13ifvqea0","pricing_plan_id":"cebpf4jnsgd1na2vs0mg"},{"bike_id":"d6d99859-0a4f-4b6b-952b-5f9972337f40","system_id":"levelo_inurba_marseille","lat":43.292644,"lon":5.384257,"is_reserved":false,"is_disabled":false,"rental_uris":{"android":"levelo://app?vid=d6d99859-0a4f-4b6b-952b-5f9972337f40","ios":"levelo://app?vid=d6d99859-0a4f-4b6b-952b-5f9972337f40"},"vehicle_type_id":"4","last_reported":1719252651,"current_range_meters":0,"station_id":"ce4bh692rcd13ifvqea0","pricing_plan_id":"cebpf4jnsgd1na2vs0mg"},{"bike_id":"aa41bdb2-1310-4c30-9421-ae05203b1b87","system_id":"levelo_inurba_marseille","lat":43.304296,"lon":5.397513,"is_reserved":false,"is_disabled":false,"rental_uris":{"android":"levelo://app?vid=aa41bdb2-1310-4c30-9421-ae05203b1b87","ios":"levelo://app?vid=aa41bdb2-1310-4c30-9421-ae05203b1b87"},"vehicle_type_id":"4","last_reported":1719252651,"current_range_meters":19200,"station_id":"ce4bh092rcd13ifvqd20","pricing_plan_id":"cebpf4jnsgd1na2vs0mg"},{"bike_id":"550b3765-871d-4943-9a81-43b5f99f0d87","system_id":"levelo_inurba_marseille","lat":43.292644,"lon":5.384257,"is_reserved":false,"is_disabled":false,"rental_uris":{"android":"levelo://app?vid=550b3765-871d-4943-9a81-43b5f99f0d87","ios":"levelo://app?vid=550b3765-871d-4943-9a81-43b5f99f0d87"},"vehicle_type_id":"4","last_reported":1719252651,"current_range_meters":2800,"station_id":"ce4bh692rcd13ifvqea0","pricing_plan_id":"cebpf4jnsgd1na2vs0mg"},{"bike_id":"ce204d04-171f-455f-ba69-e358f8d1715c","system_id":"levelo_inurba_marseille","lat":43.304296,"lon":5.397513,"is_reserved":false,"is_disabled":false,"rental_uris":{"android":"levelo://app?vid=ce204d04-171f-455f-ba69-e358f8d1715c","ios":"levelo://app?vid=ce204d04-171f-455f-ba69-e358f8d1715c"},"vehicle_type_id":"4","last_reported":1719252651,"current_range_meters":13600,"station_id":"ce4bh092rcd13ifvqd20","pricing_plan_id":"cebpf4jnsgd1na2vs0mg"},{"bike_id":"f289595d-3600-434f-82f5-7f3a46c4849f","system_id":"levelo_inurba_marseille","lat":43.292644,"lon":5.384257,"is_reserved":false,"is_disabled":false,"rental_uris":{"android":"levelo://app?vid=f289595d-3600-434f-82f5-7f3a46c4849f","ios":"levelo://app?vid=f289595d-3600-434f-82f5-7f3a46c4849f"},"vehicle_type_id":"4","last_reported":1719252651,"current_range_meters":19600,"station_id":"ce4bh692rcd13ifvqea0","pricing_plan_id":"cebpf4jnsgd1na2vs0mg"},{"bike_id":"c2849ffe-3b8b-4123-9879-8defd26cfbbe","system_id":"levelo_inurba_marseille","lat":43.292644,"lon":5.384257,"is_reserved":false,"is_disabled":false,"rental_uris":{"android":"levelo://app?vid=c2849ffe-3b8b-4123-9879-8defd26cfbbe","ios":"levelo://app?vid=c2849ffe-3b8b-4123-9879-8defd26cfbbe"},"vehicle_type_id":"4","last_reported":1719252651,"current_range_meters":30800,"station_id":"ce4bh692rcd13ifvqea0","pricing_plan_id":"cebpf4jnsgd1na2vs0mg"},{"bike_id":"1e15a716-de68-465f-8de2-13320e3d437f","system_id":"levelo_inurba_marseille","lat":43.292642,"lon":5.384254,"is_reserved":false,"is_disabled":false,"rental_uris":{"android":"levelo://app?vid=1e15a716-de68-465f-8de2-13320e3d437f","ios":"levelo://app?vid=1e15a716-de68-465f-8de2-13320e3d437f"},"vehicle_type_id":"4","last_reported":1719252651,"current_range_meters":1200,"station_id":"ce4bh692rcd13ifvqea0","pricing_plan_id":"cebpf4jnsgd1na2vs0mg"},{"bike_id":"78685706-ccd2-4765-917c-06391394f187","system_id":"levelo_inurba_marseille","lat":43.292644,"lon":5.384257,"is_reserved":false,"is_disabled":false,"rental_uris":{"android":"levelo://app?vid=78685706-ccd2-4765-917c-06391394f187","ios":"levelo://app?vid=78685706-ccd2-4765-917c-06391394f187"},"vehicle_type_id":"4","last_reported":1719252651,"current_range_meters":24000,"station_id":"ce4bh692rcd13ifvqea0","pricing_plan_id":"cebpf4jnsgd1na2vs0mg"},{"bike_id":"01c291a8-da35-465c-be11-f231e1f1f324","system_id":"levelo_inurba_marseille","lat":43.290104,"lon":5.356111,"is_reserved":false,"is_disabled":false,"rental_uris":{"android":"levelo://app?vid=01c291a8-da35-465c-be11-f231e1f1f324","ios":"levelo://app?vid=01c291a8-da35-465c-be11-f231e1f1f324"},"vehicle_type_id":"4","last_reported":1719252651,"current_range_meters":16800,"station_id":"ce4bhb92rcd13ifvqen0","pricing_plan_id":"cebpf4jnsgd1na2vs0mg"},{"bike_id":"16fc988b-d220-485c-bed2-dcf08355ad48","system_id":"levelo_inurba_marseille","lat":43.290104,"lon":5.356111,"is_reserved":false,"is_disabled":false,"rental_uris":{"android":"levelo://app?vid=16fc988b-d220-485c-bed2-dcf08355ad48","ios":"levelo://app?vid=16fc988b-d220-485c-bed2-dcf08355ad48"},"vehicle_type_id":"4","last_reported":1719252651,"current_range_meters":4800,"station_id":"ce4bhb92rcd13ifvqen0","pricing_plan_id":"cebpf4jnsgd1na2vs0mg"},{"bike_id":"d4d085d4-05a4-4537-b072-a0ca36acb737","system_id":"levelo_inurba_marseille","lat":43.290103,"lon":5.356114,"is_reserved":false,"is_disabled":false,"rental_uris":{"android":"levelo://app?vid=d4d085d4-05a4-4537-b072-a0ca36acb737","ios":"levelo://app?vid=d4d085d4-05a4-4537-b072-a0ca36acb737"},"vehicle_type_id":"4","last_reported":1719252651,"current_range_meters":16000,"station_id":"ce4bhb92rcd13ifvqen0","pricing_plan_id":"cebpf4jnsgd1na2vs0mg"},{"bike_id":"2fcadda1-f8e5-4dd5-881b-d48d7d261bdb","system_id":"levelo_inurba_marseille","lat":43.290104,"lon":5.356111,"is_reserved":false,"is_disabled":false,"rental_uris":{"android":"levelo://app?vid=2fcadda1-f8e5-4dd5-881b-d48d7d261bdb","ios":"levelo://app?vid=2fcadda1-f8e5-4dd5-881b-d48d7d261bdb"},"vehicle_type_id":"4","last_reported":1719252651,"current_range_meters":30000,"station_id":"ce4bhb92rcd13ifvqen0","pricing_plan_id":"cebpf4jnsgd1na2vs0mg"},{"bike_id":"d10a20e1-8a3c-4a2b-ae51-a79ac5a37bdb","system_id":"levelo_inurba_marseille","lat":43.290103,"lon":5.356114,"is_reserved":false,"is_disabled":false,"rental_uris":{"android":"levelo://app?vid=d10a20e1-8a3c-4a2b-ae51-a79ac5a37bdb","ios":"levelo://app?vid=d10a20e1-8a3c-4a2b-ae51-a79ac5a37bdb"},"vehicle_type_id":"4","last_reported":1719252651,"current_range_meters":8000,"station_id":"ce4bhb92rcd13ifvqen0","pricing_plan_id":"cebpf4jnsgd1na2vs0mg"},{"bike_id":"dfe27dca-1bda-4831-837a-924f91d2c63f","system_id":"levelo_inurba_marseille","lat":43.290995,"lon":5.381361,"is_reserved":false,"is_disabled":false,"rental_uris":{"android":"levelo://app?vid=dfe27dca-1bda-4831-837a-924f91d2c63f","ios":"levelo://app?vid=dfe27dca-1bda-4831-837a-924f91d2c63f"},"vehicle_type_id":"4","last_reported":1719252651,"current_range_meters":13200,"station_id":"ce4bh512rcd13ifvqe2g","pricing_plan_id":"cebpf4jnsgd1na2vs0mg"},{"bike_id":"25cca56b-b7ed-43f3-a354-186cacd541ba","system_id":"levelo_inurba_marseille","lat":43.29791,"lon":5.39339,"is_reserved":false,"is_disabled":false,"rental_uris":{"android":"levelo://app?vid=25cca56b-b7ed-43f3-a354-186cacd541ba","ios":"levelo://app?vid=25cca56b-b7ed-43f3-a354-186cacd541ba"},"vehicle_type_id":"4","last_reported":1719252651,"current_range_meters":2400,"station_id":"chh1huq6cuj3fo74tm60","pricing_plan_id":"cebpf4jnsgd1na2vs0mg"},{"bike_id":"498bbb46-9655-420b-9371-4c06bd94e3f1","system_id":"levelo_inurba_marseille","lat":43.29793,"lon":5.39342,"is_reserved":false,"is_disabled":false,"rental_uris":{"android":"levelo://app?vid=498bbb46-9655-420b-9371-4c06bd94e3f1","ios":"levelo://app?vid=498bbb46-9655-420b-9371-4c06bd94e3f1"},"vehicle_type_id":"4","last_reported":1719252651,"current_range_meters":400,"station_id":"chh1huq6cuj3fo74tm60","pricing_plan_id":"cebpf4jnsgd1na2vs0mg"},{"bike_id":"75cb31fd-c80e-494e-8f90-448af3b60a27","system_id":"levelo_inurba_marseille","lat":43.2979,"lon":5.39341,"is_reserved":false,"is_disabled":false,"rental_uris":{"android":"levelo://app?vid=75cb31fd-c80e-494e-8f90-448af3b60a27","ios":"levelo://app?vid=75cb31fd-c80e-494e-8f90-448af3b60a27"},"vehicle_type_id":"4","last_reported":1719252651,"current_range_meters":20400,"station_id":"chh1huq6cuj3fo74tm60","pricing_plan_id":"cebpf4jnsgd1na2vs0mg"},{"bike_id":"b0eb5752-d252-405a-903b-80df37e4d8ac","system_id":"levelo_inurba_marseille","lat":43.295169,"lon":5.390426,"is_reserved":false,"is_disabled":false,"rental_uris":{"android":"levelo://app?vid=b0eb5752-d252-405a-903b-80df37e4d8ac","ios":"levelo://app?vid=b0eb5752-d252-405a-903b-80df37e4d8ac"},"vehicle_type_id":"4","last_reported":1719252651,"current_range_meters":27200,"station_id":"ce4bh3p2rcd13ifvqdp0","pricing_plan_id":"cebpf4jnsgd1na2vs0mg"},{"bike_id":"bc373b7d-04cb-4d3f-8b20-800b89af9a0b","system_id":"levelo_inurba_marseille","lat":43.29525,"lon":5.39028,"is_reserved":false,"is_disabled":false,"rental_uris":{"android":"levelo://app?vid=bc373b7d-04cb-4d3f-8b20-800b89af9a0b","ios":"levelo://app?vid=bc373b7d-04cb-4d3f-8b20-800b89af9a0b"},"vehicle_type_id":"4","last_reported":1719252651,"current_range_meters":0,"station_id":"ce4bh3p2rcd13ifvqdp0","pricing_plan_id":"cebpf4jnsgd1na2vs0mg"},{"bike_id":"df007fab-771b-423a-8495-6cd811cc837a","system_id":"levelo_inurba_marseille","lat":43.330442,"lon":5.389148,"is_reserved":false,"is_disabled":false,"rental_uris":{"android":"levelo://app?vid=df007fab-771b-423a-8495-6cd811cc837a","ios":"levelo://app?vid=df007fab-771b-423a-8495-6cd811cc837a"},"vehicle_type_id":"4","last_reported":1719252651,"current_range_meters":30400,"station_id":"ce4bhr92rcd13ifvqhrg","pricing_plan_id":"cebpf4jnsgd1na2vs0mg"},{"bike_id":"95aaf7e0-353a-450b-9989-16544e53ded3","system_id":"levelo_inurba_marseille","lat":43.295169,"lon":5.390426,"is_reserved":false,"is_disabled":false,"rental_uris":{"android":"levelo://app?vid=95aaf7e0-353a-450b-9989-16544e53ded3","ios":"levelo://app?vid=95aaf7e0-353a-450b-9989-16544e53ded3"},"vehicle_type_id":"4","last_reported":1719252651,"current_range_meters":14800,"station_id":"ce4bh3p2rcd13ifvqdp0","pricing_plan_id":"cebpf4jnsgd1na2vs0mg"},{"bike_id":"9fa70608-159f-40f8-aec6-ac35b41dbb22","system_id":"levelo_inurba_marseille","lat":43.33023,"lon":5.39035,"is_reserved":false,"is_disabled":false,"rental_uris":{"android":"levelo://app?vid=9fa70608-159f-40f8-aec6-ac35b41dbb22","ios":"levelo://app?vid=9fa70608-159f-40f8-aec6-ac35b41dbb22"},"vehicle_type_id":"4","last_reported":1719252651,"current_range_meters":2400,"station_id":"ce4bhr92rcd13ifvqhrg","pricing_plan_id":"cebpf4jnsgd1na2vs0mg"},{"bike_id":"1e2801ec-1e2a-4406-9de8-65db04af4e59","system_id":"levelo_inurba_marseille","lat":43.295169,"lon":5.390426,"is_reserved":false,"is_disabled":false,"rental_uris":{"android":"levelo://app?vid=1e2801ec-1e2a-4406-9de8-65db04af4e59","ios":"levelo://app?vid=1e2801ec-1e2a-4406-9de8-65db04af4e59"},"vehicle_type_id":"4","last_reported":1719252651,"current_range_meters":0,"station_id":"ce4bh3p2rcd13ifvqdp0","pricing_plan_id":"cebpf4jnsgd1na2vs0mg"},{"bike_id":"2d8e56be-d0f4-4c16-8fb2-366f8fa495a1","system_id":"levelo_inurba_marseille","lat":43.29526,"lon":5.39044,"is_reserved":false,"is_disabled":false,"rental_uris":{"android":"levelo://app?vid=2d8e56be-d0f4-4c16-8fb2-366f8fa495a1","ios":"levelo://app?vid=2d8e56be-d0f4-4c16-8fb2-366f8fa495a1"},"vehicle_type_id":"4","last_reported":1719252651,"current_range_meters":25600,"station_id":"ce4bh3p2rcd13ifvqdp0","pricing_plan_id":"cebpf4jnsgd1na2vs0mg"},{"bike_id":"f19554e7-459f-4b96-a24d-beb4227bee16","system_id":"levelo_inurba_marseille","lat":43.33024,"lon":5.39042,"is_reserved":false,"is_disabled":false,"rental_uris":{"android":"levelo://app?vid=f19554e7-459f-4b96-a24d-beb4227bee16","ios":"levelo://app?vid=f19554e7-459f-4b96-a24d-beb4227bee16"},"vehicle_type_id":"4","last_reported":1719252651,"current_range_meters":400,"station_id":"ce4bhr92rcd13ifvqhrg","pricing_plan_id":"cebpf4jnsgd1na2vs0mg"},{"bike_id":"8bda701e-30ac-4f8d-ba15-a3d02136d116","system_id":"levelo_inurba_marseille","lat":43.295169,"lon":5.390426,"is_reserved":false,"is_disabled":false,"rental_uris":{"android":"levelo://app?vid=8bda701e-30ac-4f8d-ba15-a3d02136d116","ios":"levelo://app?vid=8bda701e-30ac-4f8d-ba15-a3d02136d116"},"vehicle_type_id":"4","last_reported":1719252651,"current_range_meters":27600,"station_id":"ce4bh3p2rcd13ifvqdp0","pricing_plan_id":"cebpf4jnsgd1na2vs0mg"},{"bike_id":"9c16824a-634b-4996-b036-89484b2c1340","system_id":"levelo_inurba_marseille","lat":43.295169,"lon":5.390426,"is_reserved":false,"is_disabled":false,"rental_uris":{"android":"levelo://app?vid=9c16824a-634b-4996-b036-89484b2c1340","ios":"levelo://app?vid=9c16824a-634b-4996-b036-89484b2c1340"},"vehicle_type_id":"4","last_reported":1719252651,"current_range_meters":5200,"station_id":"ce4bh3p2rcd13ifvqdp0","pricing_plan_id":"cebpf4jnsgd1na2vs0mg"},{"bike_id":"1fb16403-ceea-450f-ab37-93d37554dae2","system_id":"levelo_inurba_marseille","lat":43.309371,"lon":5.401449,"is_reserved":false,"is_disabled":false,"rental_uris":{"android":"levelo://app?vid=1fb16403-ceea-450f-ab37-93d37554dae2","ios":"levelo://app?vid=1fb16403-ceea-450f-ab37-93d37554dae2"},"vehicle_type_id":"4","last_reported":1719252651,"current_range_meters":11600,"station_id":"ce4bgvp2rcd13ifvqct0","pricing_plan_id":"cebpf4jnsgd1na2vs0mg"},{"bike_id":"657ce371-b7fb-4791-8282-147009dcb104","system_id":"levelo_inurba_marseille","lat":43.28856,"lon":5.358371,"is_reserved":false,"is_disabled":false,"rental_uris":{"android":"levelo://app?vid=657ce371-b7fb-4791-8282-147009dcb104","ios":"levelo://app?vid=657ce371-b7fb-4791-8282-147009dcb104"},"vehicle_type_id":"4","last_reported":1719252651,"current_range_meters":7600,"station_id":"ce4bhb12rcd13ifvqem0","pricing_plan_id":"cebpf4jnsgd1na2vs0mg"},{"bike_id":"11b37874-bdd9-4bda-aa26-f48f8f6fd9b5","system_id":"levelo_inurba_marseille","lat":43.29017,"lon":5.38111,"is_reserved":false,"is_disabled":false,"rental_uris":{"android":"levelo://app?vid=11b37874-bdd9-4bda-aa26-f48f8f6fd9b5","ios":"levelo://app?vid=11b37874-bdd9-4bda-aa26-f48f8f6fd9b5"},"vehicle_type_id":"4","last_reported":1719252651,"current_range_meters":20800,"station_id":"ce4bh4p2rcd13ifvqe1g","pricing_plan_id":"cebpf4jnsgd1na2vs0mg"},{"bike_id":"fb61b173-41cd-45eb-8a81-8a7f1f4fa143","system_id":"levelo_inurba_marseille","lat":43.28856,"lon":5.358371,"is_reserved":false,"is_disabled":false,"rental_uris":{"android":"levelo://app?vid=fb61b173-41cd-45eb-8a81-8a7f1f4fa143","ios":"levelo://app?vid=fb61b173-41cd-45eb-8a81-8a7f1f4fa143"},"vehicle_type_id":"4","last_reported":1719252651,"current_range_meters":4000,"station_id":"ce4bhb12rcd13ifvqem0","pricing_plan_id":"cebpf4jnsgd1na2vs0mg"},{"bike_id":"730343d1-348a-4518-95a3-7895852d9bd4","system_id":"levelo_inurba_marseille","lat":43.28856,"lon":5.358371,"is_reserved":false,"is_disabled":false,"rental_uris":{"android":"levelo://app?vid=730343d1-348a-4518-95a3-7895852d9bd4","ios":"levelo://app?vid=730343d1-348a-4518-95a3-7895852d9bd4"},"vehicle_type_id":"4","last_reported":1719252651,"current_range_meters":29200,"station_id":"ce4bhb12rcd13ifvqem0","pricing_plan_id":"cebpf4jnsgd1na2vs0mg"},{"bike_id":"bb65fb70-df82-47d8-b27f-438620895501","system_id":"levelo_inurba_marseille","lat":43.33737,"lon":5.374646,"is_reserved":false,"is_disabled":false,"rental_uris":{"android":"levelo://app?vid=bb65fb70-df82-47d8-b27f-438620895501","ios":"levelo://app?vid=bb65fb70-df82-47d8-b27f-438620895501"},"vehicle_type_id":"0","last_reported":1719252651,"current_range_meters":22000,"station_id":"","pricing_plan_id":"cebpf4jnsgd1na2vs0mg"},{"bike_id":"c3ddbe4a-157d-4893-acf1-f1f626a65d21","system_id":"levelo_inurba_marseille","lat":43.337376,"lon":5.374672,"is_reserved":false,"is_disabled":false,"rental_uris":{"android":"levelo://app?vid=c3ddbe4a-157d-4893-acf1-f1f626a65d21","ios":"levelo://app?vid=c3ddbe4a-157d-4893-acf1-f1f626a65d21"},"vehicle_type_id":"0","last_reported":1719252651,"current_range_meters":19200,"station_id":"","pricing_plan_id":"cebpf4jnsgd1na2vs0mg"},{"bike_id":"bd9a6c26-2db3-4e30-92c7-c85ae97147aa","system_id":"levelo_inurba_marseille","lat":43.33739,"lon":5.374688,"is_reserved":false,"is_disabled":false,"rental_uris":{"android":"levelo://app?vid=bd9a6c26-2db3-4e30-92c7-c85ae97147aa","ios":"levelo://app?vid=bd9a6c26-2db3-4e30-92c7-c85ae97147aa"},"vehicle_type_id":"0","last_reported":1719252651,"current_range_meters":29600,"station_id":"","pricing_plan_id":"cebpf4jnsgd1na2vs0mg"},{"bike_id":"9f74e9db-8021-4dd1-ba9b-29ff1c3cf81d","system_id":"levelo_inurba_marseille","lat":43.312609,"lon":5.401662,"is_reserved":false,"is_disabled":false,"rental_uris":{"android":"levelo://app?vid=9f74e9db-8021-4dd1-ba9b-29ff1c3cf81d","ios":"levelo://app?vid=9f74e9db-8021-4dd1-ba9b-29ff1c3cf81d"},"vehicle_type_id":"4","last_reported":1719252651,"current_range_meters":12800,"station_id":"ce4bh092rcd13ifvqd30","pricing_plan_id":"cebpf4jnsgd1na2vs0mg"},{"bike_id":"da5e95be-b638-4eb7-9dd1-09b4b1568d91","system_id":"levelo_inurba_marseille","lat":43.312609,"lon":5.401662,"is_reserved":false,"is_disabled":false,"rental_uris":{"android":"levelo://app?vid=da5e95be-b638-4eb7-9dd1-09b4b1568d91","ios":"levelo://app?vid=da5e95be-b638-4eb7-9dd1-09b4b1568d91"},"vehicle_type_id":"4","last_reported":1719252651,"current_range_meters":400,"station_id":"ce4bh092rcd13ifvqd30","pricing_plan_id":"cebpf4jnsgd1na2vs0mg"},{"bike_id":"11da98ef-d0c3-43c2-a7e4-890f2c23ccbc","system_id":"levelo_inurba_marseille","lat":43.33741,"lon":5.37465,"is_reserved":false,"is_disabled":false,"rental_uris":{"android":"levelo://app?vid=11da98ef-d0c3-43c2-a7e4-890f2c23ccbc","ios":"levelo://app?vid=11da98ef-d0c3-43c2-a7e4-890f2c23ccbc"},"vehicle_type_id":"0","last_reported":1719252651,"current_range_meters":20800,"station_id":"","pricing_plan_id":"cebpf4jnsgd1na2vs0mg"},{"bike_id":"8043cc8a-f702-4e45-9523-d56dfd7ee432","system_id":"levelo_inurba_marseille","lat":43.337413,"lon":5.374654,"is_reserved":false,"is_disabled":false,"rental_uris":{"android":"levelo://app?vid=8043cc8a-f702-4e45-9523-d56dfd7ee432","ios":"levelo://app?vid=8043cc8a-f702-4e45-9523-d56dfd7ee432"},"vehicle_type_id":"0","last_reported":1719252651,"current_range_meters":27200,"station_id":"","pricing_plan_id":"cebpf4jnsgd1na2vs0mg"},{"bike_id":"c72d0133-521d-4029-b9e4-6598ecbcb54a","system_id":"levelo_inurba_marseille","lat":43.312609,"lon":5.401662,"is_reserved":false,"is_disabled":false,"rental_uris":{"android":"levelo://app?vid=c72d0133-521d-4029-b9e4-6598ecbcb54a","ios":"levelo://app?vid=c72d0133-521d-4029-b9e4-6598ecbcb54a"},"vehicle_type_id":"4","last_reported":1719252651,"current_range_meters":11200,"station_id":"ce4bh092rcd13ifvqd30","pricing_plan_id":"cebpf4jnsgd1na2vs0mg"},{"bike_id":"cbff8e2e-87ad-4d9e-a09d-9b1fba1c0aeb","system_id":"levelo_inurba_marseille","lat":43.337418,"lon":5.374666,"is_reserved":false,"is_disabled":false,"rental_uris":{"android":"levelo://app?vid=cbff8e2e-87ad-4d9e-a09d-9b1fba1c0aeb","ios":"levelo://app?vid=cbff8e2e-87ad-4d9e-a09d-9b1fba1c0aeb"},"vehicle_type_id":"0","last_reported":1719252651,"current_range_meters":27600,"station_id":"","pricing_plan_id":"cebpf4jnsgd1na2vs0mg"},{"bike_id":"985eda3a-8205-4c72-8b0d-a44593dd15b5","system_id":"levelo_inurba_marseille","lat":43.337424,"lon":5.374646,"is_reserved":false,"is_disabled":false,"rental_uris":{"android":"levelo://app?vid=985eda3a-8205-4c72-8b0d-a44593dd15b5","ios":"levelo://app?vid=985eda3a-8205-4c72-8b0d-a44593dd15b5"},"vehicle_type_id":"0","last_reported":1719252651,"current_range_meters":20800,"station_id":"","pricing_plan_id":"cebpf4jnsgd1na2vs0mg"},{"bike_id":"2a0fb516-a307-4861-b129-104556c40f00","system_id":"levelo_inurba_marseille","lat":43.337419,"lon":5.374706,"is_reserved":false,"is_disabled":false,"rental_uris":{"android":"levelo://app?vid=2a0fb516-a307-4861-b129-104556c40f00","ios":"levelo://app?vid=2a0fb516-a307-4861-b129-104556c40f00"},"vehicle_type_id":"0","last_reported":1719252651,"current_range_meters":18800,"station_id":"","pricing_plan_id":"cebpf4jnsgd1na2vs0mg"},{"bike_id":"c25a3696-e1cc-43ba-8656-23d4a118ee2e","system_id":"levelo_inurba_marseille","lat":43.337438,"lon":5.374651,"is_reserved":false,"is_disabled":false,"rental_uris":{"android":"levelo://app?vid=c25a3696-e1cc-43ba-8656-23d4a118ee2e","ios":"levelo://app?vid=c25a3696-e1cc-43ba-8656-23d4a118ee2e"},"vehicle_type_id":"0","last_reported":1719252651,"current_range_meters":28000,"station_id":"","pricing_plan_id":"cebpf4jnsgd1na2vs0mg"},{"bike_id":"14c1bf85-b075-4810-b1a7-477aaac7c29f","system_id":"levelo_inurba_marseille","lat":43.312609,"lon":5.401662,"is_reserved":false,"is_disabled":false,"rental_uris":{"android":"levelo://app?vid=14c1bf85-b075-4810-b1a7-477aaac7c29f","ios":"levelo://app?vid=14c1bf85-b075-4810-b1a7-477aaac7c29f"},"vehicle_type_id":"4","last_reported":1719252651,"current_range_meters":5200,"station_id":"ce4bh092rcd13ifvqd30","pricing_plan_id":"cebpf4jnsgd1na2vs0mg"},{"bike_id":"656535e7-9a8a-445a-b05c-b02792753597","system_id":"levelo_inurba_marseille","lat":43.309371,"lon":5.401449,"is_reserved":false,"is_disabled":false,"rental_uris":{"android":"levelo://app?vid=656535e7-9a8a-445a-b05c-b02792753597","ios":"levelo://app?vid=656535e7-9a8a-445a-b05c-b02792753597"},"vehicle_type_id":"4","last_reported":1719252651,"current_range_meters":21200,"station_id":"ce4bgvp2rcd13ifvqct0","pricing_plan_id":"cebpf4jnsgd1na2vs0mg"},{"bike_id":"bf709b1a-1e81-4c69-a36a-dfef45d67fee","system_id":"levelo_inurba_marseille","lat":43.337443,"lon":5.374659,"is_reserved":false,"is_disabled":false,"rental_uris":{"android":"levelo://app?vid=bf709b1a-1e81-4c69-a36a-dfef45d67fee","ios":"levelo://app?vid=bf709b1a-1e81-4c69-a36a-dfef45d67fee"},"vehicle_type_id":"0","last_reported":1719252651,"current_range_meters":27200,"station_id":"","pricing_plan_id":"cebpf4jnsgd1na2vs0mg"},{"bike_id":"aa527c2c-31a5-479b-bfbe-daae0d9bb514","system_id":"levelo_inurba_marseille","lat":43.33744,"lon":5.37469,"is_reserved":false,"is_disabled":false,"rental_uris":{"android":"levelo://app?vid=aa527c2c-31a5-479b-bfbe-daae0d9bb514","ios":"levelo://app?vid=aa527c2c-31a5-479b-bfbe-daae0d9bb514"},"vehicle_type_id":"0","last_reported":1719252651,"current_range_meters":17600,"station_id":"","pricing_plan_id":"cebpf4jnsgd1na2vs0mg"},{"bike_id":"9b81675f-44cd-4cbe-9733-2d36a516d8f7","system_id":"levelo_inurba_marseille","lat":43.33745,"lon":5.374683,"is_reserved":false,"is_disabled":false,"rental_uris":{"android":"levelo://app?vid=9b81675f-44cd-4cbe-9733-2d36a516d8f7","ios":"levelo://app?vid=9b81675f-44cd-4cbe-9733-2d36a516d8f7"},"vehicle_type_id":"0","last_reported":1719252651,"current_range_meters":27600,"station_id":"","pricing_plan_id":"cebpf4jnsgd1na2vs0mg"},{"bike_id":"153d48c0-0acf-4d09-866c-dc84c6e32105","system_id":"levelo_inurba_marseille","lat":43.309371,"lon":5.401449,"is_reserved":false,"is_disabled":false,"rental_uris":{"android":"levelo://app?vid=153d48c0-0acf-4d09-866c-dc84c6e32105","ios":"levelo://app?vid=153d48c0-0acf-4d09-866c-dc84c6e32105"},"vehicle_type_id":"4","last_reported":1719252651,"current_range_meters":4400,"station_id":"ce4bgvp2rcd13ifvqct0","pricing_plan_id":"cebpf4jnsgd1na2vs0mg"},{"bike_id":"e7ebcff8-7425-4bd0-8718-a0c7bbdd0f90","system_id":"levelo_inurba_marseille","lat":43.309371,"lon":5.401449,"is_reserved":false,"is_disabled":false,"rental_uris":{"android":"levelo://app?vid=e7ebcff8-7425-4bd0-8718-a0c7bbdd0f90","ios":"levelo://app?vid=e7ebcff8-7425-4bd0-8718-a0c7bbdd0f90"},"vehicle_type_id":"4","last_reported":1719252651,"current_range_meters":2400,"station_id":"ce4bgvp2rcd13ifvqct0","pricing_plan_id":"cebpf4jnsgd1na2vs0mg"},{"bike_id":"7b94542f-e162-4638-b9db-822ee4ade16e","system_id":"levelo_inurba_marseille","lat":43.309371,"lon":5.401449,"is_reserved":false,"is_disabled":false,"rental_uris":{"android":"levelo://app?vid=7b94542f-e162-4638-b9db-822ee4ade16e","ios":"levelo://app?vid=7b94542f-e162-4638-b9db-822ee4ade16e"},"vehicle_type_id":"4","last_reported":1719252651,"current_range_meters":30400,"station_id":"ce4bgvp2rcd13ifvqct0","pricing_plan_id":"cebpf4jnsgd1na2vs0mg"},{"bike_id":"e203cc0e-6ddb-4342-951e-fbdf2174511c","system_id":"levelo_inurba_marseille","lat":43.309371,"lon":5.401449,"is_reserved":false,"is_disabled":false,"rental_uris":{"android":"levelo://app?vid=e203cc0e-6ddb-4342-951e-fbdf2174511c","ios":"levelo://app?vid=e203cc0e-6ddb-4342-951e-fbdf2174511c"},"vehicle_type_id":"4","last_reported":1719252651,"current_range_meters":14000,"station_id":"ce4bgvp2rcd13ifvqct0","pricing_plan_id":"cebpf4jnsgd1na2vs0mg"},{"bike_id":"f867320b-b3ee-4d44-8ef3-37d72db21942","system_id":"levelo_inurba_marseille","lat":43.33754,"lon":5.37456,"is_reserved":false,"is_disabled":false,"rental_uris":{"android":"levelo://app?vid=f867320b-b3ee-4d44-8ef3-37d72db21942","ios":"levelo://app?vid=f867320b-b3ee-4d44-8ef3-37d72db21942"},"vehicle_type_id":"4","last_reported":1719252651,"current_range_meters":29600,"station_id":"","pricing_plan_id":"cebpf4jnsgd1na2vs0mg"},{"bike_id":"d2da37cf-8232-420f-8f18-cb9c1aa65cce","system_id":"levelo_inurba_marseille","lat":43.30638,"lon":5.40076,"is_reserved":false,"is_disabled":false,"rental_uris":{"android":"levelo://app?vid=d2da37cf-8232-420f-8f18-cb9c1aa65cce","ios":"levelo://app?vid=d2da37cf-8232-420f-8f18-cb9c1aa65cce"},"vehicle_type_id":"4","last_reported":1719252651,"current_range_meters":2000,"station_id":"ce4bh112rcd13ifvqda0","pricing_plan_id":"cebpf4jnsgd1na2vs0mg"},{"bike_id":"84198ce2-07bc-4ace-8931-a4b458fd6ad3","system_id":"levelo_inurba_marseille","lat":43.301117,"lon":5.398795,"is_reserved":false,"is_disabled":false,"rental_uris":{"android":"levelo://app?vid=84198ce2-07bc-4ace-8931-a4b458fd6ad3","ios":"levelo://app?vid=84198ce2-07bc-4ace-8931-a4b458fd6ad3"},"vehicle_type_id":"4","last_reported":1719252651,"current_range_meters":2000,"station_id":"ce4bh0h2rcd13ifvqd40","pricing_plan_id":"cebpf4jnsgd1na2vs0mg"},{"bike_id":"4f975bbf-3913-40d4-9d35-6faf520e35af","system_id":"levelo_inurba_marseille","lat":43.306412,"lon":5.401035,"is_reserved":false,"is_disabled":false,"rental_uris":{"android":"levelo://app?vid=4f975bbf-3913-40d4-9d35-6faf520e35af","ios":"levelo://app?vid=4f975bbf-3913-40d4-9d35-6faf520e35af"},"vehicle_type_id":"4","last_reported":1719252651,"current_range_meters":29200,"station_id":"ce4bh112rcd13ifvqda0","pricing_plan_id":"cebpf4jnsgd1na2vs0mg"},{"bike_id":"2319d425-6f64-4f66-b5f5-68688d14311c","system_id":"levelo_inurba_marseille","lat":43.306412,"lon":5.401035,"is_reserved":false,"is_disabled":false,"rental_uris":{"android":"levelo://app?vid=2319d425-6f64-4f66-b5f5-68688d14311c","ios":"levelo://app?vid=2319d425-6f64-4f66-b5f5-68688d14311c"},"vehicle_type_id":"4","last_reported":1719252651,"current_range_meters":0,"station_id":"ce4bh112rcd13ifvqda0","pricing_plan_id":"cebpf4jnsgd1na2vs0mg"},{"bike_id":"f4ccd62d-9fec-4457-8b57-20ff0820e7a8","system_id":"levelo_inurba_marseille","lat":43.306412,"lon":5.401035,"is_reserved":false,"is_disabled":false,"rental_uris":{"android":"levelo://app?vid=f4ccd62d-9fec-4457-8b57-20ff0820e7a8","ios":"levelo://app?vid=f4ccd62d-9fec-4457-8b57-20ff0820e7a8"},"vehicle_type_id":"4","last_reported":1719252651,"current_range_meters":12400,"station_id":"ce4bh112rcd13ifvqda0","pricing_plan_id":"cebpf4jnsgd1na2vs0mg"},{"bike_id":"086b1a76-882c-4dd6-a9e6-8ee41d03f054","system_id":"levelo_inurba_marseille","lat":43.306412,"lon":5.401035,"is_reserved":false,"is_disabled":false,"rental_uris":{"android":"levelo://app?vid=086b1a76-882c-4dd6-a9e6-8ee41d03f054","ios":"levelo://app?vid=086b1a76-882c-4dd6-a9e6-8ee41d03f054"},"vehicle_type_id":"4","last_reported":1719252651,"current_range_meters":0,"station_id":"ce4bh112rcd13ifvqda0","pricing_plan_id":"cebpf4jnsgd1na2vs0mg"},{"bike_id":"30234c8b-e6db-44e7-b258-ae0dd34fbb02","system_id":"levelo_inurba_marseille","lat":43.301117,"lon":5.398795,"is_reserved":false,"is_disabled":false,"rental_uris":{"android":"levelo://app?vid=30234c8b-e6db-44e7-b258-ae0dd34fbb02","ios":"levelo://app?vid=30234c8b-e6db-44e7-b258-ae0dd34fbb02"},"vehicle_type_id":"4","last_reported":1719252651,"current_range_meters":12800,"station_id":"ce4bh0h2rcd13ifvqd40","pricing_plan_id":"cebpf4jnsgd1na2vs0mg"},{"bike_id":"c4b6076f-826c-4c1f-a30c-efd17924d0ac","system_id":"levelo_inurba_marseille","lat":43.301117,"lon":5.398795,"is_reserved":false,"is_disabled":false,"rental_uris":{"android":"levelo://app?vid=c4b6076f-826c-4c1f-a30c-efd17924d0ac","ios":"levelo://app?vid=c4b6076f-826c-4c1f-a30c-efd17924d0ac"},"vehicle_type_id":"4","last_reported":1719252651,"current_range_meters":6800,"station_id":"ce4bh0h2rcd13ifvqd40","pricing_plan_id":"cebpf4jnsgd1na2vs0mg"},{"bike_id":"5f80a96e-3ee2-4ef1-9aa3-6267f66d1416","system_id":"levelo_inurba_marseille","lat":43.301403,"lon":5.398657,"is_reserved":false,"is_disabled":false,"rental_uris":{"android":"levelo://app?vid=5f80a96e-3ee2-4ef1-9aa3-6267f66d1416","ios":"levelo://app?vid=5f80a96e-3ee2-4ef1-9aa3-6267f66d1416"},"vehicle_type_id":"4","last_reported":1719252651,"current_range_meters":400,"station_id":"ce4bh0h2rcd13ifvqd40","pricing_plan_id":"cebpf4jnsgd1na2vs0mg"},{"bike_id":"cf138fac-faf7-4dd3-8941-7d030e1445fa","system_id":"levelo_inurba_marseille","lat":43.301117,"lon":5.398795,"is_reserved":false,"is_disabled":false,"rental_uris":{"android":"levelo://app?vid=cf138fac-faf7-4dd3-8941-7d030e1445fa","ios":"levelo://app?vid=cf138fac-faf7-4dd3-8941-7d030e1445fa"},"vehicle_type_id":"4","last_reported":1719252651,"current_range_meters":14000,"station_id":"ce4bh0h2rcd13ifvqd40","pricing_plan_id":"cebpf4jnsgd1na2vs0mg"},{"bike_id":"0c98ad98-176e-47da-9922-1117c4d38936","system_id":"levelo_inurba_marseille","lat":43.301117,"lon":5.398795,"is_reserved":false,"is_disabled":false,"rental_uris":{"android":"levelo://app?vid=0c98ad98-176e-47da-9922-1117c4d38936","ios":"levelo://app?vid=0c98ad98-176e-47da-9922-1117c4d38936"},"vehicle_type_id":"4","last_reported":1719252651,"current_range_meters":31600,"station_id":"ce4bh0h2rcd13ifvqd40","pricing_plan_id":"cebpf4jnsgd1na2vs0mg"},{"bike_id":"e2f717b6-93eb-4030-b2cd-1c46e8ed00ac","system_id":"levelo_inurba_marseille","lat":43.301117,"lon":5.398795,"is_reserved":false,"is_disabled":false,"rental_uris":{"android":"levelo://app?vid=e2f717b6-93eb-4030-b2cd-1c46e8ed00ac","ios":"levelo://app?vid=e2f717b6-93eb-4030-b2cd-1c46e8ed00ac"},"vehicle_type_id":"4","last_reported":1719252651,"current_range_meters":3200,"station_id":"ce4bh0h2rcd13ifvqd40","pricing_plan_id":"cebpf4jnsgd1na2vs0mg"},{"bike_id":"5928bb0d-3c2a-4316-bad2-e73007042547","system_id":"levelo_inurba_marseille","lat":43.301117,"lon":5.398795,"is_reserved":false,"is_disabled":false,"rental_uris":{"android":"levelo://app?vid=5928bb0d-3c2a-4316-bad2-e73007042547","ios":"levelo://app?vid=5928bb0d-3c2a-4316-bad2-e73007042547"},"vehicle_type_id":"4","last_reported":1719252651,"current_range_meters":0,"station_id":"ce4bh0h2rcd13ifvqd40","pricing_plan_id":"cebpf4jnsgd1na2vs0mg"},{"bike_id":"83733739-1278-4b0a-9d6b-7d524acd46a6","system_id":"levelo_inurba_marseille","lat":43.301117,"lon":5.398795,"is_reserved":false,"is_disabled":false,"rental_uris":{"android":"levelo://app?vid=83733739-1278-4b0a-9d6b-7d524acd46a6","ios":"levelo://app?vid=83733739-1278-4b0a-9d6b-7d524acd46a6"},"vehicle_type_id":"4","last_reported":1719252651,"current_range_meters":30000,"station_id":"ce4bh0h2rcd13ifvqd40","pricing_plan_id":"cebpf4jnsgd1na2vs0mg"},{"bike_id":"ae282f69-5313-4cc1-9386-8ec8eb7659d1","system_id":"levelo_inurba_marseille","lat":43.286961,"lon":5.373785,"is_reserved":false,"is_disabled":false,"rental_uris":{"android":"levelo://app?vid=ae282f69-5313-4cc1-9386-8ec8eb7659d1","ios":"levelo://app?vid=ae282f69-5313-4cc1-9386-8ec8eb7659d1"},"vehicle_type_id":"4","last_reported":1719252651,"current_range_meters":2400,"station_id":"ce4bh3p2rcd13ifvqdq0","pricing_plan_id":"cebpf4jnsgd1na2vs0mg"},{"bike_id":"eb664ac6-516b-4a2c-b9fc-fe1cfbd084e2","system_id":"levelo_inurba_marseille","lat":43.286593,"lon":5.363346,"is_reserved":false,"is_disabled":false,"rental_uris":{"android":"levelo://app?vid=eb664ac6-516b-4a2c-b9fc-fe1cfbd084e2","ios":"levelo://app?vid=eb664ac6-516b-4a2c-b9fc-fe1cfbd084e2"},"vehicle_type_id":"4","last_reported":1719252651,"current_range_meters":16000,"station_id":"ce4bhah2rcd13ifvqej0","pricing_plan_id":"cebpf4jnsgd1na2vs0mg"},{"bike_id":"23aa8e32-0190-467d-9e16-1011b4fd0fe1","system_id":"levelo_inurba_marseille","lat":43.286591,"lon":5.363346,"is_reserved":false,"is_disabled":false,"rental_uris":{"android":"levelo://app?vid=23aa8e32-0190-467d-9e16-1011b4fd0fe1","ios":"levelo://app?vid=23aa8e32-0190-467d-9e16-1011b4fd0fe1"},"vehicle_type_id":"4","last_reported":1719252651,"current_range_meters":7600,"station_id":"ce4bhah2rcd13ifvqej0","pricing_plan_id":"cebpf4jnsgd1na2vs0mg"},{"bike_id":"ae736640-d850-4ccb-975a-d7beb6f242c4","system_id":"levelo_inurba_marseille","lat":43.286591,"lon":5.363346,"is_reserved":false,"is_disabled":false,"rental_uris":{"android":"levelo://app?vid=ae736640-d850-4ccb-975a-d7beb6f242c4","ios":"levelo://app?vid=ae736640-d850-4ccb-975a-d7beb6f242c4"},"vehicle_type_id":"4","last_reported":1719252651,"current_range_meters":23200,"station_id":"ce4bhah2rcd13ifvqej0","pricing_plan_id":"cebpf4jnsgd1na2vs0mg"},{"bike_id":"1cfee9eb-39c7-4001-81cf-dcac86d039fa","system_id":"levelo_inurba_marseille","lat":43.2952,"lon":5.39402,"is_reserved":false,"is_disabled":false,"rental_uris":{"android":"levelo://app?vid=1cfee9eb-39c7-4001-81cf-dcac86d039fa","ios":"levelo://app?vid=1cfee9eb-39c7-4001-81cf-dcac86d039fa"},"vehicle_type_id":"4","last_reported":1719252651,"current_range_meters":3600,"station_id":"ce4bh292rcd13ifvqdf0","pricing_plan_id":"cebpf4jnsgd1na2vs0mg"},{"bike_id":"7c527280-1e90-4e9e-822b-aeedcd953780","system_id":"levelo_inurba_marseille","lat":43.295126,"lon":5.39403,"is_reserved":false,"is_disabled":false,"rental_uris":{"android":"levelo://app?vid=7c527280-1e90-4e9e-822b-aeedcd953780","ios":"levelo://app?vid=7c527280-1e90-4e9e-822b-aeedcd953780"},"vehicle_type_id":"4","last_reported":1719252651,"current_range_meters":29600,"station_id":"ce4bh292rcd13ifvqdf0","pricing_plan_id":"cebpf4jnsgd1na2vs0mg"},{"bike_id":"250802b1-26ba-45c6-b8f4-568a981ad926","system_id":"levelo_inurba_marseille","lat":43.290345,"lon":5.38646,"is_reserved":false,"is_disabled":false,"rental_uris":{"android":"levelo://app?vid=250802b1-26ba-45c6-b8f4-568a981ad926","ios":"levelo://app?vid=250802b1-26ba-45c6-b8f4-568a981ad926"},"vehicle_type_id":"4","last_reported":1719252651,"current_range_meters":0,"station_id":"ce4bh4p2rcd13ifvqe0g","pricing_plan_id":"cebpf4jnsgd1na2vs0mg"},{"bike_id":"f900817b-ec3c-40b7-95c4-4e538eccab1c","system_id":"levelo_inurba_marseille","lat":43.302759,"lon":5.400793,"is_reserved":false,"is_disabled":false,"rental_uris":{"android":"levelo://app?vid=f900817b-ec3c-40b7-95c4-4e538eccab1c","ios":"levelo://app?vid=f900817b-ec3c-40b7-95c4-4e538eccab1c"},"vehicle_type_id":"4","last_reported":1719252651,"current_range_meters":18000,"station_id":"ce4bgvh2rcd13ifvqcs0","pricing_plan_id":"cebpf4jnsgd1na2vs0mg"},{"bike_id":"d4db08d3-c540-4f05-bca4-7743bde084ca","system_id":"levelo_inurba_marseille","lat":43.290345,"lon":5.38646,"is_reserved":false,"is_disabled":false,"rental_uris":{"android":"levelo://app?vid=d4db08d3-c540-4f05-bca4-7743bde084ca","ios":"levelo://app?vid=d4db08d3-c540-4f05-bca4-7743bde084ca"},"vehicle_type_id":"4","last_reported":1719252651,"current_range_meters":28400,"station_id":"ce4bh4p2rcd13ifvqe0g","pricing_plan_id":"cebpf4jnsgd1na2vs0mg"},{"bike_id":"51d28969-4eec-483f-a8b0-0905ad7f2662","system_id":"levelo_inurba_marseille","lat":43.289307,"lon":5.38406,"is_reserved":false,"is_disabled":false,"rental_uris":{"android":"levelo://app?vid=51d28969-4eec-483f-a8b0-0905ad7f2662","ios":"levelo://app?vid=51d28969-4eec-483f-a8b0-0905ad7f2662"},"vehicle_type_id":"4","last_reported":1719252651,"current_range_meters":23200,"station_id":"ce4bh612rcd13ifvqe6g","pricing_plan_id":"cebpf4jnsgd1na2vs0mg"},{"bike_id":"fa7f57a9-dfd8-4708-9c50-7bf1c8357cf7","system_id":"levelo_inurba_marseille","lat":43.290345,"lon":5.38646,"is_reserved":false,"is_disabled":false,"rental_uris":{"android":"levelo://app?vid=fa7f57a9-dfd8-4708-9c50-7bf1c8357cf7","ios":"levelo://app?vid=fa7f57a9-dfd8-4708-9c50-7bf1c8357cf7"},"vehicle_type_id":"4","last_reported":1719252651,"current_range_meters":31600,"station_id":"ce4bh4p2rcd13ifvqe0g","pricing_plan_id":"cebpf4jnsgd1na2vs0mg"},{"bike_id":"977c64fa-f526-45d2-9b35-63e7bb67be54","system_id":"levelo_inurba_marseille","lat":43.290336,"lon":5.386425,"is_reserved":false,"is_disabled":false,"rental_uris":{"android":"levelo://app?vid=977c64fa-f526-45d2-9b35-63e7bb67be54","ios":"levelo://app?vid=977c64fa-f526-45d2-9b35-63e7bb67be54"},"vehicle_type_id":"4","last_reported":1719252651,"current_range_meters":16400,"station_id":"ce4bh4p2rcd13ifvqe0g","pricing_plan_id":"cebpf4jnsgd1na2vs0mg"},{"bike_id":"3b9607cf-e1fa-4ea7-b487-b463ffd79cca","system_id":"levelo_inurba_marseille","lat":43.295194,"lon":5.39397,"is_reserved":false,"is_disabled":false,"rental_uris":{"android":"levelo://app?vid=3b9607cf-e1fa-4ea7-b487-b463ffd79cca","ios":"levelo://app?vid=3b9607cf-e1fa-4ea7-b487-b463ffd79cca"},"vehicle_type_id":"4","last_reported":1719252651,"current_range_meters":0,"station_id":"ce4bh292rcd13ifvqdf0","pricing_plan_id":"cebpf4jnsgd1na2vs0mg"},{"bike_id":"a296e414-a9c2-459d-96af-c22a9ea54e23","system_id":"levelo_inurba_marseille","lat":43.302759,"lon":5.400793,"is_reserved":false,"is_disabled":false,"rental_uris":{"android":"levelo://app?vid=a296e414-a9c2-459d-96af-c22a9ea54e23","ios":"levelo://app?vid=a296e414-a9c2-459d-96af-c22a9ea54e23"},"vehicle_type_id":"4","last_reported":1719252651,"current_range_meters":28000,"station_id":"ce4bgvh2rcd13ifvqcs0","pricing_plan_id":"cebpf4jnsgd1na2vs0mg"},{"bike_id":"437ec374-1649-484e-9196-11e8445a270b","system_id":"levelo_inurba_marseille","lat":43.289307,"lon":5.38406,"is_reserved":false,"is_disabled":false,"rental_uris":{"android":"levelo://app?vid=437ec374-1649-484e-9196-11e8445a270b","ios":"levelo://app?vid=437ec374-1649-484e-9196-11e8445a270b"},"vehicle_type_id":"4","last_reported":1719252651,"current_range_meters":1200,"station_id":"ce4bh612rcd13ifvqe6g","pricing_plan_id":"cebpf4jnsgd1na2vs0mg"},{"bike_id":"33fe352b-0c24-497a-ae14-1af77ff3d01d","system_id":"levelo_inurba_marseille","lat":43.289307,"lon":5.38406,"is_reserved":false,"is_disabled":false,"rental_uris":{"android":"levelo://app?vid=33fe352b-0c24-497a-ae14-1af77ff3d01d","ios":"levelo://app?vid=33fe352b-0c24-497a-ae14-1af77ff3d01d"},"vehicle_type_id":"4","last_reported":1719252651,"current_range_meters":19200,"station_id":"ce4bh612rcd13ifvqe6g","pricing_plan_id":"cebpf4jnsgd1na2vs0mg"},{"bike_id":"c9366e58-6bda-4815-a01f-e8adc458d2bc","system_id":"levelo_inurba_marseille","lat":43.290336,"lon":5.386425,"is_reserved":false,"is_disabled":false,"rental_uris":{"android":"levelo://app?vid=c9366e58-6bda-4815-a01f-e8adc458d2bc","ios":"levelo://app?vid=c9366e58-6bda-4815-a01f-e8adc458d2bc"},"vehicle_type_id":"4","last_reported":1719252651,"current_range_meters":7200,"station_id":"ce4bh4p2rcd13ifvqe0g","pricing_plan_id":"cebpf4jnsgd1na2vs0mg"},{"bike_id":"3d0de3f3-e3b9-4ac9-a219-54777e0ae1b8","system_id":"levelo_inurba_marseille","lat":43.290336,"lon":5.386425,"is_reserved":false,"is_disabled":false,"rental_uris":{"android":"levelo://app?vid=3d0de3f3-e3b9-4ac9-a219-54777e0ae1b8","ios":"levelo://app?vid=3d0de3f3-e3b9-4ac9-a219-54777e0ae1b8"},"vehicle_type_id":"4","last_reported":1719252651,"current_range_meters":4800,"station_id":"ce4bh4p2rcd13ifvqe0g","pricing_plan_id":"cebpf4jnsgd1na2vs0mg"},{"bike_id":"50d8c61e-4771-4180-9899-840cb58a8f1f","system_id":"levelo_inurba_marseille","lat":43.289307,"lon":5.38406,"is_reserved":false,"is_disabled":false,"rental_uris":{"android":"levelo://app?vid=50d8c61e-4771-4180-9899-840cb58a8f1f","ios":"levelo://app?vid=50d8c61e-4771-4180-9899-840cb58a8f1f"},"vehicle_type_id":"4","last_reported":1719252651,"current_range_meters":30000,"station_id":"ce4bh612rcd13ifvqe6g","pricing_plan_id":"cebpf4jnsgd1na2vs0mg"},{"bike_id":"83617664-2e4c-478e-8b7e-c4dd6906e373","system_id":"levelo_inurba_marseille","lat":43.302759,"lon":5.400793,"is_reserved":false,"is_disabled":false,"rental_uris":{"android":"levelo://app?vid=83617664-2e4c-478e-8b7e-c4dd6906e373","ios":"levelo://app?vid=83617664-2e4c-478e-8b7e-c4dd6906e373"},"vehicle_type_id":"4","last_reported":1719252651,"current_range_meters":0,"station_id":"ce4bgvh2rcd13ifvqcs0","pricing_plan_id":"cebpf4jnsgd1na2vs0mg"},{"bike_id":"be490b38-d7e6-4003-a779-1c6fb08a2652","system_id":"levelo_inurba_marseille","lat":43.290336,"lon":5.386425,"is_reserved":false,"is_disabled":false,"rental_uris":{"android":"levelo://app?vid=be490b38-d7e6-4003-a779-1c6fb08a2652","ios":"levelo://app?vid=be490b38-d7e6-4003-a779-1c6fb08a2652"},"vehicle_type_id":"4","last_reported":1719252651,"current_range_meters":24000,"station_id":"ce4bh4p2rcd13ifvqe0g","pricing_plan_id":"cebpf4jnsgd1na2vs0mg"},{"bike_id":"f69e6700-8aa8-48db-85d5-bf50a746c275","system_id":"levelo_inurba_marseille","lat":43.302759,"lon":5.400793,"is_reserved":false,"is_disabled":false,"rental_uris":{"android":"levelo://app?vid=f69e6700-8aa8-48db-85d5-bf50a746c275","ios":"levelo://app?vid=f69e6700-8aa8-48db-85d5-bf50a746c275"},"vehicle_type_id":"4","last_reported":1719252651,"current_range_meters":24000,"station_id":"ce4bgvh2rcd13ifvqcs0","pricing_plan_id":"cebpf4jnsgd1na2vs0mg"},{"bike_id":"2c1d70dc-49bc-4d07-85b2-93fe0c1748c3","system_id":"levelo_inurba_marseille","lat":43.302759,"lon":5.400793,"is_reserved":false,"is_disabled":false,"rental_uris":{"android":"levelo://app?vid=2c1d70dc-49bc-4d07-85b2-93fe0c1748c3","ios":"levelo://app?vid=2c1d70dc-49bc-4d07-85b2-93fe0c1748c3"},"vehicle_type_id":"4","last_reported":1719252651,"current_range_meters":10000,"station_id":"ce4bgvh2rcd13ifvqcs0","pricing_plan_id":"cebpf4jnsgd1na2vs0mg"},{"bike_id":"3eb2a1f9-1630-47f8-b870-c044fa97d123","system_id":"levelo_inurba_marseille","lat":43.302759,"lon":5.400793,"is_reserved":false,"is_disabled":false,"rental_uris":{"android":"levelo://app?vid=3eb2a1f9-1630-47f8-b870-c044fa97d123","ios":"levelo://app?vid=3eb2a1f9-1630-47f8-b870-c044fa97d123"},"vehicle_type_id":"4","last_reported":1719252651,"current_range_meters":3600,"station_id":"ce4bgvh2rcd13ifvqcs0","pricing_plan_id":"cebpf4jnsgd1na2vs0mg"},{"bike_id":"b74e6994-1c9b-494f-88fc-236fef366488","system_id":"levelo_inurba_marseille","lat":43.302759,"lon":5.400793,"is_reserved":false,"is_disabled":false,"rental_uris":{"android":"levelo://app?vid=b74e6994-1c9b-494f-88fc-236fef366488","ios":"levelo://app?vid=b74e6994-1c9b-494f-88fc-236fef366488"},"vehicle_type_id":"4","last_reported":1719252651,"current_range_meters":0,"station_id":"ce4bgvh2rcd13ifvqcs0","pricing_plan_id":"cebpf4jnsgd1na2vs0mg"},{"bike_id":"ec0f28c3-bb1c-40c8-8a67-1c32cd3ee89a","system_id":"levelo_inurba_marseille","lat":43.302759,"lon":5.400793,"is_reserved":false,"is_disabled":false,"rental_uris":{"android":"levelo://app?vid=ec0f28c3-bb1c-40c8-8a67-1c32cd3ee89a","ios":"levelo://app?vid=ec0f28c3-bb1c-40c8-8a67-1c32cd3ee89a"},"vehicle_type_id":"4","last_reported":1719252651,"current_range_meters":0,"station_id":"ce4bgvh2rcd13ifvqcs0","pricing_plan_id":"cebpf4jnsgd1na2vs0mg"},{"bike_id":"9d9ba76a-6d55-458e-8ebb-50fca2906625","system_id":"levelo_inurba_marseille","lat":43.302759,"lon":5.400793,"is_reserved":false,"is_disabled":false,"rental_uris":{"android":"levelo://app?vid=9d9ba76a-6d55-458e-8ebb-50fca2906625","ios":"levelo://app?vid=9d9ba76a-6d55-458e-8ebb-50fca2906625"},"vehicle_type_id":"4","last_reported":1719252651,"current_range_meters":1600,"station_id":"ce4bgvh2rcd13ifvqcs0","pricing_plan_id":"cebpf4jnsgd1na2vs0mg"},{"bike_id":"a7e0a6dc-f3d0-4e18-80c8-1e1adf9ffbc0","system_id":"levelo_inurba_marseille","lat":43.302759,"lon":5.400793,"is_reserved":false,"is_disabled":false,"rental_uris":{"android":"levelo://app?vid=a7e0a6dc-f3d0-4e18-80c8-1e1adf9ffbc0","ios":"levelo://app?vid=a7e0a6dc-f3d0-4e18-80c8-1e1adf9ffbc0"},"vehicle_type_id":"4","last_reported":1719252651,"current_range_meters":11200,"station_id":"ce4bgvh2rcd13ifvqcs0","pricing_plan_id":"cebpf4jnsgd1na2vs0mg"},{"bike_id":"4e8d2ece-0fc8-4553-b517-bbee6dacb811","system_id":"levelo_inurba_marseille","lat":43.28738,"lon":5.37937,"is_reserved":false,"is_disabled":false,"rental_uris":{"android":"levelo://app?vid=4e8d2ece-0fc8-4553-b517-bbee6dacb811","ios":"levelo://app?vid=4e8d2ece-0fc8-4553-b517-bbee6dacb811"},"vehicle_type_id":"4","last_reported":1719252651,"current_range_meters":18400,"station_id":"","pricing_plan_id":"cebpf4jnsgd1na2vs0mg"},{"bike_id":"f4cfbd58-0616-4e7d-94ea-9d1c5a482f1c","system_id":"levelo_inurba_marseille","lat":43.302759,"lon":5.400793,"is_reserved":false,"is_disabled":false,"rental_uris":{"android":"levelo://app?vid=f4cfbd58-0616-4e7d-94ea-9d1c5a482f1c","ios":"levelo://app?vid=f4cfbd58-0616-4e7d-94ea-9d1c5a482f1c"},"vehicle_type_id":"4","last_reported":1719252651,"current_range_meters":20800,"station_id":"ce4bgvh2rcd13ifvqcs0","pricing_plan_id":"cebpf4jnsgd1na2vs0mg"},