{"last_updated":1746451308,"ttl":60,"version":"2.2","data":{"bikes":[{"bike_id":"bee85191-1ff9-41b8-9286-a5c06ae51147","system_id":"levelo_inurba_marseille","lat":43.292328,"lon":5.360578,"is_reserved":false,"is_disabled":false,"rental_uris":{"android":"levelo://app?vid=bee85191-1ff9-41b8-9286-a5c06ae51147","ios":"levelo://app?vid=bee85191-1ff9-41b8-9286-a5c06ae51147"},"vehicle_type_id":"4","last_reported":1746451309,"current_range_meters":2800,"station_id":"ce4bhbh2rcd13ifvqeqg","pricing_plan_id":"cebpf4jnsgd1na2vs0mg"},{"bike_id":"df395649-ff0e-4d25-9a8c-4ba93dda7e7f","system_id":"levelo_inurba_marseille","lat":43.30162,"lon":5.37409,"is_reserved":false,"is_disabled":false,"rental_uris":{"android":"levelo://app?vid=df395649-ff0e-4d25-9a8c-4ba93dda7e7f","ios":"levelo://app?vid=df395649-ff0e-4d25-9a8c-4ba93dda7e7f"},"vehicle_type_id":"4","last_reported":1746451309,"current_range_meters":2000,"station_id":"ce4bgs92rcd13ifvqcc0","pricing_plan_id":"cebpf4jnsgd1na2vs0mg"},{"bike_id":"8fea3f79-5be0-40fc-bf15-be98244c3672","system_id":"levelo_inurba_marseille","lat":43.295639,"lon":5.375101,"is_reserved":false,"is_disabled":false,"rental_uris":{"android":"levelo://app?vid=8fea3f79-5be0-40fc-bf15-be98244c3672","ios":"levelo://app?vid=8fea3f79-5be0-40fc-bf15-be98244c3672"},"vehicle_type_id":"4","last_reported":1746451309,"current_range_meters":4000,"station_id":"ce4bgh92rcd13ifvqb50","pricing_plan_id":"cebpf4jnsgd1na2vs0mg"},{"bike_id":"92223605-099b-4a91-a37c-bdda8c1248c4","system_id":"levelo_inurba_marseille","lat":43.25916,"lon":5.40899,"is_reserved":false,"is_disabled":false,"rental_uris":{"android":"levelo://app?vid=92223605-099b-4a91-a37c-bdda8c1248c4","ios":"levelo://app?vid=92223605-099b-4a91-a37c-bdda8c1248c4"},"vehicle_type_id":"4","last_reported":1746451309,"current_range_meters":4000,"station_id":"ce4bhm92rcd13ifvqglg","pricing_plan_id":"cebpf4jnsgd1na2vs0mg"},{"bike_id":"18eda1b8-ad05-447b-8c43-1fdf99f7efe7","system_id":"levelo_inurba_marseille","lat":43.29526,"lon":5.38538,"is_reserved":false,"is_disabled":false,"rental_uris":{"android":"levelo://app?vid=18eda1b8-ad05-447b-8c43-1fdf99f7efe7","ios":"levelo://app?vid=18eda1b8-ad05-447b-8c43-1fdf99f7efe7"},"vehicle_type_id":"4","last_reported":1746451309,"current_range_meters":4000,"station_id":"ce4bgih2rcd13ifvqba0","pricing_plan_id":"cebpf4jnsgd1na2vs0mg"},{"bike_id":"eeee8669-ab90-45c0-8608-bc991f696b14","system_id":"levelo_inurba_marseille","lat":43.271815,"lon":5.409953,"is_reserved":false,"is_disabled":false,"rental_uris":{"android":"levelo://app?vid=eeee8669-ab90-45c0-8608-bc991f696b14","ios":"levelo://app?vid=eeee8669-ab90-45c0-8608-bc991f696b14"},"vehicle_type_id":"4","last_reported":1746451309,"current_range_meters":4800,"station_id":"ce4bhl12rcd13ifvqgf0","pricing_plan_id":"cebpf4jnsgd1na2vs0mg"},{"bike_id":"47d4a63d-bab1-43ad-9290-2f089fc0e561","system_id":"levelo_inurba_marseille","lat":43.312271,"lon":5.368583,"is_reserved":false,"is_disabled":false,"rental_uris":{"android":"levelo://app?vid=47d4a63d-bab1-43ad-9290-2f089fc0e561","ios":"levelo://app?vid=47d4a63d-bab1-43ad-9290-2f089fc0e561"},"vehicle_type_id":"4","last_reported":1746451309,"current_range_meters":5600,"station_id":"ce4bgl92rcd13ifvqbq0","pricing_plan_id":"cebpf4jnsgd1na2vs0mg"},{"bike_id":"7a24fe01-ce30-4c36-a737-f2a6787616cf","system_id":"levelo_inurba_marseille","lat":43.32532,"lon":5.41426,"is_reserved":false,"is_disabled":false,"rental_uris":{"android":"levelo://app?vid=7a24fe01-ce30-4c36-a737-f2a6787616cf","ios":"levelo://app?vid=7a24fe01-ce30-4c36-a737-f2a6787616cf"},"vehicle_type_id":"4","last_reported":1746451309,"current_range_meters":5600,"station_id":"ce4bhq12rcd13ifvqhhg","pricing_plan_id":"cebpf4jnsgd1na2vs0mg"},{"bike_id":"a92a4a41-3f7e-4aad-8520-e38fb6827e0c","system_id":"levelo_inurba_marseille","lat":43.25579,"lon":5.38233,"is_reserved":false,"is_disabled":false,"rental_uris":{"android":"levelo://app?vid=a92a4a41-3f7e-4aad-8520-e38fb6827e0c","ios":"levelo://app?vid=a92a4a41-3f7e-4aad-8520-e38fb6827e0c"},"vehicle_type_id":"4","last_reported":1746451309,"current_range_meters":4800,"station_id":"ce4bhih2rcd13ifvqfs0","pricing_plan_id":"cebpf4jnsgd1na2vs0mg"},{"bike_id":"8741fcda-2447-4f6a-b732-d8f4da080bcd","system_id":"levelo_inurba_marseille","lat":43.312237,"lon":5.368637,"is_reserved":false,"is_disabled":false,"rental_uris":{"android":"levelo://app?vid=8741fcda-2447-4f6a-b732-d8f4da080bcd","ios":"levelo://app?vid=8741fcda-2447-4f6a-b732-d8f4da080bcd"},"vehicle_type_id":"4","last_reported":1746451309,"current_range_meters":5600,"station_id":"ce4bgl92rcd13ifvqbq0","pricing_plan_id":"cebpf4jnsgd1na2vs0mg"},{"bike_id":"d7697db1-c82f-4180-a0f3-228c7730d717","system_id":"levelo_inurba_marseille","lat":43.31229,"lon":5.36862,"is_reserved":false,"is_disabled":false,"rental_uris":{"android":"levelo://app?vid=d7697db1-c82f-4180-a0f3-228c7730d717","ios":"levelo://app?vid=d7697db1-c82f-4180-a0f3-228c7730d717"},"vehicle_type_id":"4","last_reported":1746451309,"current_range_meters":5600,"station_id":"ce4bgl92rcd13ifvqbq0","pricing_plan_id":"cebpf4jnsgd1na2vs0mg"},{"bike_id":"fedf72f4-0437-48db-afd3-5f8fc0bb6b93","system_id":"levelo_inurba_marseille","lat":43.27381,"lon":5.39027,"is_reserved":false,"is_disabled":false,"rental_uris":{"android":"levelo://app?vid=fedf72f4-0437-48db-afd3-5f8fc0bb6b93","ios":"levelo://app?vid=fedf72f4-0437-48db-afd3-5f8fc0bb6b93"},"vehicle_type_id":"4","last_reported":1746451309,"current_range_meters":6000,"station_id":"","pricing_plan_id":"cebpf4jnsgd1na2vs0mg"},{"bike_id":"b7b3b088-c5f3-4afd-a6ca-f06d9e4c6ef9","system_id":"levelo_inurba_marseille","lat":43.27069,"lon":5.42281,"is_reserved":false,"is_disabled":false,"rental_uris":{"android":"levelo://app?vid=b7b3b088-c5f3-4afd-a6ca-f06d9e4c6ef9","ios":"levelo://app?vid=b7b3b088-c5f3-4afd-a6ca-f06d9e4c6ef9"},"vehicle_type_id":"4","last_reported":1746451309,"current_range_meters":6000,"station_id":"ce4bhk92rcd13ifvqgb0","pricing_plan_id":"cebpf4jnsgd1na2vs0mg"},{"bike_id":"616a5f81-e840-477d-8c8f-dbf317102eda","system_id":"levelo_inurba_marseille","lat":43.25926,"lon":5.40915,"is_reserved":false,"is_disabled":false,"rental_uris":{"android":"levelo://app?vid=616a5f81-e840-477d-8c8f-dbf317102eda","ios":"levelo://app?vid=616a5f81-e840-477d-8c8f-dbf317102eda"},"vehicle_type_id":"4","last_reported":1746451309,"current_range_meters":6000,"station_id":"ce4bhm92rcd13ifvqglg","pricing_plan_id":"cebpf4jnsgd1na2vs0mg"},{"bike_id":"1605a31b-d21b-40cd-95a7-d4407457f047","system_id":"levelo_inurba_marseille","lat":43.30431,"lon":5.39744,"is_reserved":false,"is_disabled":false,"rental_uris":{"android":"levelo://app?vid=1605a31b-d21b-40cd-95a7-d4407457f047","ios":"levelo://app?vid=1605a31b-d21b-40cd-95a7-d4407457f047"},"vehicle_type_id":"4","last_reported":1746451309,"current_range_meters":6400,"station_id":"ce4bh092rcd13ifvqd20","pricing_plan_id":"cebpf4jnsgd1na2vs0mg"},{"bike_id":"01d42fca-fbc9-4355-9fff-bcf25497bafd","system_id":"levelo_inurba_marseille","lat":43.28162,"lon":5.42646,"is_reserved":false,"is_disabled":false,"rental_uris":{"android":"levelo://app?vid=01d42fca-fbc9-4355-9fff-bcf25497bafd","ios":"levelo://app?vid=01d42fca-fbc9-4355-9fff-bcf25497bafd"},"vehicle_type_id":"4","last_reported":1746451309,"current_range_meters":6400,"station_id":"ce4bhnh2rcd13ifvqgug","pricing_plan_id":"cebpf4jnsgd1na2vs0mg"},{"bike_id":"cdc1668f-85ab-439d-adf5-10582e30c671","system_id":"levelo_inurba_marseille","lat":43.307273,"lon":5.424348,"is_reserved":false,"is_disabled":false,"rental_uris":{"android":"levelo://app?vid=cdc1668f-85ab-439d-adf5-10582e30c671","ios":"levelo://app?vid=cdc1668f-85ab-439d-adf5-10582e30c671"},"vehicle_type_id":"4","last_reported":1746451309,"current_range_meters":6400,"station_id":"st_cvj6ca6bvosntc0bfgr0","pricing_plan_id":"cebpf4jnsgd1na2vs0mg"},{"bike_id":"c920f6c1-6e9a-46ac-92ae-ed92f4d6e267","system_id":"levelo_inurba_marseille","lat":43.30374,"lon":5.42493,"is_reserved":false,"is_disabled":false,"rental_uris":{"android":"levelo://app?vid=c920f6c1-6e9a-46ac-92ae-ed92f4d6e267","ios":"levelo://app?vid=c920f6c1-6e9a-46ac-92ae-ed92f4d6e267"},"vehicle_type_id":"4","last_reported":1746451309,"current_range_meters":6800,"station_id":"ce4bhoh2rcd13ifvqh6g","pricing_plan_id":"cebpf4jnsgd1na2vs0mg"},{"bike_id":"ca1f9d22-3331-432b-86dd-79ce401b6bfe","system_id":"levelo_inurba_marseille","lat":43.27508,"lon":5.4246,"is_reserved":false,"is_disabled":false,"rental_uris":{"android":"levelo://app?vid=ca1f9d22-3331-432b-86dd-79ce401b6bfe","ios":"levelo://app?vid=ca1f9d22-3331-432b-86dd-79ce401b6bfe"},"vehicle_type_id":"4","last_reported":1746451309,"current_range_meters":6800,"station_id":"ce4bhn92rcd13ifvqgrg","pricing_plan_id":"cebpf4jnsgd1na2vs0mg"},{"bike_id":"9fadf252-7de3-45e1-81b8-f40efd41373a","system_id":"levelo_inurba_marseille","lat":43.31224,"lon":5.36878,"is_reserved":false,"is_disabled":false,"rental_uris":{"android":"levelo://app?vid=9fadf252-7de3-45e1-81b8-f40efd41373a","ios":"levelo://app?vid=9fadf252-7de3-45e1-81b8-f40efd41373a"},"vehicle_type_id":"4","last_reported":1746451309,"current_range_meters":6800,"station_id":"ce4bgl92rcd13ifvqbq0","pricing_plan_id":"cebpf4jnsgd1na2vs0mg"},{"bike_id":"9bde6b7e-ea83-4079-b73d-07d0786ae7a7","system_id":"levelo_inurba_marseille","lat":43.284678,"lon":5.384182,"is_reserved":false,"is_disabled":false,"rental_uris":{"android":"levelo://app?vid=9bde6b7e-ea83-4079-b73d-07d0786ae7a7","ios":"levelo://app?vid=9bde6b7e-ea83-4079-b73d-07d0786ae7a7"},"vehicle_type_id":"4","last_reported":1746451309,"current_range_meters":6800,"station_id":"ce4bh512rcd13ifvqe3g","pricing_plan_id":"cebpf4jnsgd1na2vs0mg"},{"bike_id":"4e14aec9-c508-41a0-86c8-51964f2f4577","system_id":"levelo_inurba_marseille","lat":43.31116,"lon":5.37764,"is_reserved":false,"is_disabled":false,"rental_uris":{"android":"levelo://app?vid=4e14aec9-c508-41a0-86c8-51964f2f4577","ios":"levelo://app?vid=4e14aec9-c508-41a0-86c8-51964f2f4577"},"vehicle_type_id":"4","last_reported":1746451309,"current_range_meters":6800,"station_id":"ce4bgt92rcd13ifvqcg0","pricing_plan_id":"cebpf4jnsgd1na2vs0mg"},{"bike_id":"7bbc4c9f-a915-4c52-8bfc-ca3789b7c6ce","system_id":"levelo_inurba_marseille","lat":43.30462,"lon":5.37899,"is_reserved":false,"is_disabled":true,"rental_uris":{"android":"levelo://app?vid=7bbc4c9f-a915-4c52-8bfc-ca3789b7c6ce","ios":"levelo://app?vid=7bbc4c9f-a915-4c52-8bfc-ca3789b7c6ce"},"vehicle_type_id":"4","last_reported":1746451309,"current_range_meters":6800,"station_id":"ce4bgup2rcd13ifvqcn0","pricing_plan_id":"cebpf4jnsgd1na2vs0mg"},{"bike_id":"fbd303e6-704f-4df0-88b7-e8f14fbb2bc4","system_id":"levelo_inurba_marseille","lat":43.2735,"lon":5.39115,"is_reserved":false,"is_disabled":false,"rental_uris":{"android":"levelo://app?vid=fbd303e6-704f-4df0-88b7-e8f14fbb2bc4","ios":"levelo://app?vid=fbd303e6-704f-4df0-88b7-e8f14fbb2bc4"},"vehicle_type_id":"4","last_reported":1746451309,"current_range_meters":6800,"station_id":"","pricing_plan_id":"cebpf4jnsgd1na2vs0mg"},{"bike_id":"66b646b3-6352-44bb-9bfb-21570512e3e5","system_id":"levelo_inurba_marseille","lat":43.28105,"lon":5.40389,"is_reserved":false,"is_disabled":false,"rental_uris":{"android":"levelo://app?vid=66b646b3-6352-44bb-9bfb-21570512e3e5","ios":"levelo://app?vid=66b646b3-6352-44bb-9bfb-21570512e3e5"},"vehicle_type_id":"4","last_reported":1746451309,"current_range_meters":7200,"station_id":"","pricing_plan_id":"cebpf4jnsgd1na2vs0mg"},{"bike_id":"9633523b-42aa-4060-9502-3100756d9313","system_id":"levelo_inurba_marseille","lat":43.30552,"lon":5.36528,"is_reserved":false,"is_disabled":false,"rental_uris":{"android":"levelo://app?vid=9633523b-42aa-4060-9502-3100756d9313","ios":"levelo://app?vid=9633523b-42aa-4060-9502-3100756d9313"},"vehicle_type_id":"4","last_reported":1746451309,"current_range_meters":7200,"station_id":"ce4bgs12rcd13ifvqcag","pricing_plan_id":"cebpf4jnsgd1na2vs0mg"},{"bike_id":"49d2e8c6-5ec7-450d-97f4-d767c912f4ee","system_id":"levelo_inurba_marseille","lat":43.25912,"lon":5.40855,"is_reserved":false,"is_disabled":false,"rental_uris":{"android":"levelo://app?vid=49d2e8c6-5ec7-450d-97f4-d767c912f4ee","ios":"levelo://app?vid=49d2e8c6-5ec7-450d-97f4-d767c912f4ee"},"vehicle_type_id":"4","last_reported":1746451309,"current_range_meters":7200,"station_id":"ce4bhm92rcd13ifvqglg","pricing_plan_id":"cebpf4jnsgd1na2vs0mg"},{"bike_id":"26dd9f4d-ce9e-4365-b279-fc9c56040cc4","system_id":"levelo_inurba_marseille","lat":43.323645,"lon":5.36762,"is_reserved":false,"is_disabled":false,"rental_uris":{"android":"levelo://app?vid=26dd9f4d-ce9e-4365-b279-fc9c56040cc4","ios":"levelo://app?vid=26dd9f4d-ce9e-4365-b279-fc9c56040cc4"},"vehicle_type_id":"4","last_reported":1746451309,"current_range_meters":7200,"station_id":"ce4bhsh2rcd13ifvqi2g","pricing_plan_id":"cebpf4jnsgd1na2vs0mg"},{"bike_id":"221448b5-e75d-462a-a890-0ebf13cfedaf","system_id":"levelo_inurba_marseille","lat":43.31326,"lon":5.39691,"is_reserved":false,"is_disabled":false,"rental_uris":{"android":"levelo://app?vid=221448b5-e75d-462a-a890-0ebf13cfedaf","ios":"levelo://app?vid=221448b5-e75d-462a-a890-0ebf13cfedaf"},"vehicle_type_id":"4","last_reported":1746451309,"current_range_meters":8000,"station_id":"ce4bgvp2rcd13ifvqcu0","pricing_plan_id":"cebpf4jnsgd1na2vs0mg"},{"bike_id":"9dda1e11-8eac-4d06-a89a-fd90289c28a1","system_id":"levelo_inurba_marseille","lat":43.27896,"lon":5.37992,"is_reserved":false,"is_disabled":true,"rental_uris":{"android":"levelo://app?vid=9dda1e11-8eac-4d06-a89a-fd90289c28a1","ios":"levelo://app?vid=9dda1e11-8eac-4d06-a89a-fd90289c28a1"},"vehicle_type_id":"4","last_reported":1746451309,"current_range_meters":8000,"station_id":"ce4bhf92rcd13ifvqf50","pricing_plan_id":"cebpf4jnsgd1na2vs0mg"},{"bike_id":"aa71114b-e901-403c-8b3d-218e783f6d09","system_id":"levelo_inurba_marseille","lat":43.30536,"lon":5.36542,"is_reserved":false,"is_disabled":false,"rental_uris":{"android":"levelo://app?vid=aa71114b-e901-403c-8b3d-218e783f6d09","ios":"levelo://app?vid=aa71114b-e901-403c-8b3d-218e783f6d09"},"vehicle_type_id":"4","last_reported":1746451309,"current_range_meters":8000,"station_id":"ce4bgs12rcd13ifvqcag","pricing_plan_id":"cebpf4jnsgd1na2vs0mg"},{"bike_id":"a611f7d9-1159-4308-a6ea-f570defdef89","system_id":"levelo_inurba_marseille","lat":43.24648,"lon":5.38903,"is_reserved":false,"is_disabled":false,"rental_uris":{"android":"levelo://app?vid=a611f7d9-1159-4308-a6ea-f570defdef89","ios":"levelo://app?vid=a611f7d9-1159-4308-a6ea-f570defdef89"},"vehicle_type_id":"4","last_reported":1746451309,"current_range_meters":8400,"station_id":"ce4bhg12rcd13ifvqf60","pricing_plan_id":"cebpf4jnsgd1na2vs0mg"},{"bike_id":"b7b8cd67-6146-4388-8e10-5d1c01257b46","system_id":"levelo_inurba_marseille","lat":43.2315,"lon":5.43718,"is_reserved":false,"is_disabled":false,"rental_uris":{"android":"levelo://app?vid=b7b8cd67-6146-4388-8e10-5d1c01257b46","ios":"levelo://app?vid=b7b8cd67-6146-4388-8e10-5d1c01257b46"},"vehicle_type_id":"4","last_reported":1746451309,"current_range_meters":8400,"station_id":"ce4bhmp2rcd13ifvqgog","pricing_plan_id":"cebpf4jnsgd1na2vs0mg"},{"bike_id":"a850cf2e-533f-4d38-8025-e2242781de3e","system_id":"levelo_inurba_marseille","lat":43.23947,"lon":5.36634,"is_reserved":false,"is_disabled":true,"rental_uris":{"android":"levelo://app?vid=a850cf2e-533f-4d38-8025-e2242781de3e","ios":"levelo://app?vid=a850cf2e-533f-4d38-8025-e2242781de3e"},"vehicle_type_id":"4","last_reported":1746451309,"current_range_meters":8800,"station_id":"ce4bhi12rcd13ifvqfp0","pricing_plan_id":"cebpf4jnsgd1na2vs0mg"},{"bike_id":"dde77f7b-722d-4765-b105-b453e273eb3a","system_id":"levelo_inurba_marseille","lat":43.24179,"lon":5.39727,"is_reserved":false,"is_disabled":false,"rental_uris":{"android":"levelo://app?vid=dde77f7b-722d-4765-b105-b453e273eb3a","ios":"levelo://app?vid=dde77f7b-722d-4765-b105-b453e273eb3a"},"vehicle_type_id":"4","last_reported":1746451309,"current_range_meters":8800,"station_id":"ce4bhn12rcd13ifvqgpg","pricing_plan_id":"cebpf4jnsgd1na2vs0mg"},{"bike_id":"53bffe96-90ed-4ef0-bddd-80d33659c6df","system_id":"levelo_inurba_marseille","lat":43.26806,"lon":5.4027,"is_reserved":false,"is_disabled":false,"rental_uris":{"android":"levelo://app?vid=53bffe96-90ed-4ef0-bddd-80d33659c6df","ios":"levelo://app?vid=53bffe96-90ed-4ef0-bddd-80d33659c6df"},"vehicle_type_id":"4","last_reported":1746451309,"current_range_meters":8800,"station_id":"ce501612rcd8frsf0b60","pricing_plan_id":"cebpf4jnsgd1na2vs0mg"},{"bike_id":"35f03362-c15a-4cb6-aa2a-92d0139080f9","system_id":"levelo_inurba_marseille","lat":43.3211,"lon":5.36768,"is_reserved":false,"is_disabled":false,"rental_uris":{"android":"levelo://app?vid=35f03362-c15a-4cb6-aa2a-92d0139080f9","ios":"levelo://app?vid=35f03362-c15a-4cb6-aa2a-92d0139080f9"},"vehicle_type_id":"4","last_reported":1746451309,"current_range_meters":8800,"station_id":"ce4bhrh2rcd13ifvqhug","pricing_plan_id":"cebpf4jnsgd1na2vs0mg"},{"bike_id":"b27cbc7f-086e-43a0-89a5-dfc420dbb6d9","system_id":"levelo_inurba_marseille","lat":43.28616,"lon":5.35106,"is_reserved":false,"is_disabled":false,"rental_uris":{"android":"levelo://app?vid=b27cbc7f-086e-43a0-89a5-dfc420dbb6d9","ios":"levelo://app?vid=b27cbc7f-086e-43a0-89a5-dfc420dbb6d9"},"vehicle_type_id":"4","last_reported":1746451309,"current_range_meters":8800,"station_id":"ce4bhch2rcd13ifvqeug","pricing_plan_id":"cebpf4jnsgd1na2vs0mg"},{"bike_id":"2960d680-f98f-41d7-9415-05d857b0e2b7","system_id":"levelo_inurba_marseille","lat":43.31401,"lon":5.36667,"is_reserved":false,"is_disabled":false,"rental_uris":{"android":"levelo://app?vid=2960d680-f98f-41d7-9415-05d857b0e2b7","ios":"levelo://app?vid=2960d680-f98f-41d7-9415-05d857b0e2b7"},"vehicle_type_id":"4","last_reported":1746451309,"current_range_meters":8800,"station_id":"","pricing_plan_id":"cebpf4jnsgd1na2vs0mg"},{"bike_id":"67b0d4aa-1497-4374-bfed-7c135f3c8ba6","system_id":"levelo_inurba_marseille","lat":43.23159,"lon":5.43722,"is_reserved":false,"is_disabled":false,"rental_uris":{"android":"levelo://app?vid=67b0d4aa-1497-4374-bfed-7c135f3c8ba6","ios":"levelo://app?vid=67b0d4aa-1497-4374-bfed-7c135f3c8ba6"},"vehicle_type_id":"4","last_reported":1746451309,"current_range_meters":9200,"station_id":"ce4bhmp2rcd13ifvqgog","pricing_plan_id":"cebpf4jnsgd1na2vs0mg"},{"bike_id":"51552443-7d48-4ace-8f7f-7e879eb09b3e","system_id":"levelo_inurba_marseille","lat":43.24173,"lon":5.39726,"is_reserved":false,"is_disabled":false,"rental_uris":{"android":"levelo://app?vid=51552443-7d48-4ace-8f7f-7e879eb09b3e","ios":"levelo://app?vid=51552443-7d48-4ace-8f7f-7e879eb09b3e"},"vehicle_type_id":"4","last_reported":1746451309,"current_range_meters":9200,"station_id":"ce4bhn12rcd13ifvqgpg","pricing_plan_id":"cebpf4jnsgd1na2vs0mg"},{"bike_id":"5c7249a3-596f-4101-8dbd-1087a1f3b438","system_id":"levelo_inurba_marseille","lat":43.231894,"lon":5.355574,"is_reserved":false,"is_disabled":false,"rental_uris":{"android":"levelo://app?vid=5c7249a3-596f-4101-8dbd-1087a1f3b438","ios":"levelo://app?vid=5c7249a3-596f-4101-8dbd-1087a1f3b438"},"vehicle_type_id":"4","last_reported":1746451309,"current_range_meters":9600,"station_id":"ce4bhu92rcd13ifvqi70","pricing_plan_id":"cebpf4jnsgd1na2vs0mg"},{"bike_id":"7d03f4d6-e301-4ac3-9156-6ef339856445","system_id":"levelo_inurba_marseille","lat":43.241704,"lon":5.363954,"is_reserved":false,"is_disabled":false,"rental_uris":{"android":"levelo://app?vid=7d03f4d6-e301-4ac3-9156-6ef339856445","ios":"levelo://app?vid=7d03f4d6-e301-4ac3-9156-6ef339856445"},"vehicle_type_id":"4","last_reported":1746451309,"current_range_meters":9600,"station_id":"cpo36qri1sfpv3e86is0","pricing_plan_id":"cebpf4jnsgd1na2vs0mg"},{"bike_id":"f6965056-e655-4311-bc7b-140fed5bf9b6","system_id":"levelo_inurba_marseille","lat":43.24176,"lon":5.39728,"is_reserved":false,"is_disabled":false,"rental_uris":{"android":"levelo://app?vid=f6965056-e655-4311-bc7b-140fed5bf9b6","ios":"levelo://app?vid=f6965056-e655-4311-bc7b-140fed5bf9b6"},"vehicle_type_id":"4","last_reported":1746451309,"current_range_meters":9600,"station_id":"ce4bhn12rcd13ifvqgpg","pricing_plan_id":"cebpf4jnsgd1na2vs0mg"},{"bike_id":"b0f6aa0d-c8d3-4b3e-8b8f-0bada10f34b6","system_id":"levelo_inurba_marseille","lat":43.28932,"lon":5.36388,"is_reserved":false,"is_disabled":false,"rental_uris":{"android":"levelo://app?vid=b0f6aa0d-c8d3-4b3e-8b8f-0bada10f34b6","ios":"levelo://app?vid=b0f6aa0d-c8d3-4b3e-8b8f-0bada10f34b6"},"vehicle_type_id":"4","last_reported":1746451309,"current_range_meters":9600,"station_id":"ce4bhc92rcd13ifvqetg","pricing_plan_id":"cebpf4jnsgd1na2vs0mg"},{"bike_id":"4afae138-bfc0-458b-9629-16201300bc67","system_id":"levelo_inurba_marseille","lat":43.30431,"lon":5.38884,"is_reserved":false,"is_disabled":false,"rental_uris":{"android":"levelo://app?vid=4afae138-bfc0-458b-9629-16201300bc67","ios":"levelo://app?vid=4afae138-bfc0-458b-9629-16201300bc67"},"vehicle_type_id":"4","last_reported":1746451309,"current_range_meters":9200,"station_id":"ce4bgk12rcd13ifvqbi0","pricing_plan_id":"cebpf4jnsgd1na2vs0mg"},{"bike_id":"a6d8a517-5469-40f7-8622-c31e55de98f4","system_id":"levelo_inurba_marseille","lat":43.28463,"lon":5.35885,"is_reserved":false,"is_disabled":false,"rental_uris":{"android":"levelo://app?vid=a6d8a517-5469-40f7-8622-c31e55de98f4","ios":"levelo://app?vid=a6d8a517-5469-40f7-8622-c31e55de98f4"},"vehicle_type_id":"4","last_reported":1746451309,"current_range_meters":10000,"station_id":"ce4bhah2rcd13ifvqei0","pricing_plan_id":"cebpf4jnsgd1na2vs0mg"},{"bike_id":"88fbff25-ae56-418d-a7c6-ace338839a78","system_id":"levelo_inurba_marseille","lat":43.27997,"lon":5.41665,"is_reserved":false,"is_disabled":false,"rental_uris":{"android":"levelo://app?vid=88fbff25-ae56-418d-a7c6-ace338839a78","ios":"levelo://app?vid=88fbff25-ae56-418d-a7c6-ace338839a78"},"vehicle_type_id":"4","last_reported":1746451309,"current_range_meters":10000,"station_id":"ce4bho12rcd13ifvqh1g","pricing_plan_id":"cebpf4jnsgd1na2vs0mg"},{"bike_id":"04c2ea43-c898-4799-bce9-3820147f904a","system_id":"levelo_inurba_marseille","lat":43.29936,"lon":5.36512,"is_reserved":false,"is_disabled":false,"rental_uris":{"android":"levelo://app?vid=04c2ea43-c898-4799-bce9-3820147f904a","ios":"levelo://app?vid=04c2ea43-c898-4799-bce9-3820147f904a"},"vehicle_type_id":"4","last_reported":1746451309,"current_range_meters":10000,"station_id":"ce4bgm92rcd13ifvqbr0","pricing_plan_id":"cebpf4jnsgd1na2vs0mg"},{"bike_id":"8cbaf55b-16c4-4d04-b70e-35ce842b2c46","system_id":"levelo_inurba_marseille","lat":43.30142,"lon":5.37416,"is_reserved":false,"is_disabled":false,"rental_uris":{"android":"levelo://app?vid=8cbaf55b-16c4-4d04-b70e-35ce842b2c46","ios":"levelo://app?vid=8cbaf55b-16c4-4d04-b70e-35ce842b2c46"},"vehicle_type_id":"4","last_reported":1746451309,"current_range_meters":9600,"station_id":"ce4bgs92rcd13ifvqcc0","pricing_plan_id":"cebpf4jnsgd1na2vs0mg"},{"bike_id":"60fe03ce-225d-4bd9-b13e-951bd314c73f","system_id":"levelo_inurba_marseille","lat":43.241771,"lon":5.397244,"is_reserved":false,"is_disabled":false,"rental_uris":{"android":"levelo://app?vid=60fe03ce-225d-4bd9-b13e-951bd314c73f","ios":"levelo://app?vid=60fe03ce-225d-4bd9-b13e-951bd314c73f"},"vehicle_type_id":"4","last_reported":1746451309,"current_range_meters":10000,"station_id":"ce4bhn12rcd13ifvqgpg","pricing_plan_id":"cebpf4jnsgd1na2vs0mg"},{"bike_id":"53717559-d106-4926-b020-fe2203f6a14a","system_id":"levelo_inurba_marseille","lat":43.30523,"lon":5.36713,"is_reserved":false,"is_disabled":false,"rental_uris":{"android":"levelo://app?vid=53717559-d106-4926-b020-fe2203f6a14a","ios":"levelo://app?vid=53717559-d106-4926-b020-fe2203f6a14a"},"vehicle_type_id":"4","last_reported":1746451309,"current_range_meters":9600,"station_id":"ce4bgrp2rcd13ifvqc9g","pricing_plan_id":"cebpf4jnsgd1na2vs0mg"},{"bike_id":"d7ced594-6501-48d1-9888-8fe268de6fad","system_id":"levelo_inurba_marseille","lat":43.24172,"lon":5.39731,"is_reserved":false,"is_disabled":false,"rental_uris":{"android":"levelo://app?vid=d7ced594-6501-48d1-9888-8fe268de6fad","ios":"levelo://app?vid=d7ced594-6501-48d1-9888-8fe268de6fad"},"vehicle_type_id":"4","last_reported":1746451309,"current_range_meters":10000,"station_id":"ce4bhn12rcd13ifvqgpg","pricing_plan_id":"cebpf4jnsgd1na2vs0mg"},{"bike_id":"a35f9fe5-6081-4636-ba4b-c0ea8d0f257e","system_id":"levelo_inurba_marseille","lat":43.27319,"lon":5.39081,"is_reserved":false,"is_disabled":false,"rental_uris":{"android":"levelo://app?vid=a35f9fe5-6081-4636-ba4b-c0ea8d0f257e","ios":"levelo://app?vid=a35f9fe5-6081-4636-ba4b-c0ea8d0f257e"},"vehicle_type_id":"4","last_reported":1746451309,"current_range_meters":10800,"station_id":"ce4bhgp2rcd13ifvqfe0","pricing_plan_id":"cebpf4jnsgd1na2vs0mg"},{"bike_id":"8a3f5947-1975-4719-995f-c8dbb6611f17","system_id":"levelo_inurba_marseille","lat":43.231464,"lon":5.437161,"is_reserved":false,"is_disabled":false,"rental_uris":{"android":"levelo://app?vid=8a3f5947-1975-4719-995f-c8dbb6611f17","ios":"levelo://app?vid=8a3f5947-1975-4719-995f-c8dbb6611f17"},"vehicle_type_id":"4","last_reported":1746451309,"current_range_meters":10800,"station_id":"ce4bhmp2rcd13ifvqgog","pricing_plan_id":"cebpf4jnsgd1na2vs0mg"},{"bike_id":"c7d8bcea-0651-4117-a3ff-a304302270ab","system_id":"levelo_inurba_marseille","lat":43.295495,"lon":5.422801,"is_reserved":false,"is_disabled":false,"rental_uris":{"android":"levelo://app?vid=c7d8bcea-0651-4117-a3ff-a304302270ab","ios":"levelo://app?vid=c7d8bcea-0651-4117-a3ff-a304302270ab"},"vehicle_type_id":"4","last_reported":1746451309,"current_range_meters":10800,"station_id":"ce4bhph2rcd13ifvqhdg","pricing_plan_id":"cebpf4jnsgd1na2vs0mg"},{"bike_id":"1a82a0e9-f369-4d01-ae50-ae98884bab48","system_id":"levelo_inurba_marseille","lat":43.33078,"lon":5.38712,"is_reserved":false,"is_disabled":false,"rental_uris":{"android":"levelo://app?vid=1a82a0e9-f369-4d01-ae50-ae98884bab48","ios":"levelo://app?vid=1a82a0e9-f369-4d01-ae50-ae98884bab48"},"vehicle_type_id":"4","last_reported":1746451309,"current_range_meters":10800,"station_id":"","pricing_plan_id":"cebpf4jnsgd1na2vs0mg"},{"bike_id":"a72bda5a-953f-4faf-a346-2babba838b24","system_id":"levelo_inurba_marseille","lat":43.279956,"lon":5.400233,"is_reserved":false,"is_disabled":false,"rental_uris":{"android":"levelo://app?vid=a72bda5a-953f-4faf-a346-2babba838b24","ios":"levelo://app?vid=a72bda5a-953f-4faf-a346-2babba838b24"},"vehicle_type_id":"4","last_reported":1746451309,"current_range_meters":10000,"station_id":"ce4bho92rcd13ifvqh4g","pricing_plan_id":"cebpf4jnsgd1na2vs0mg"},{"bike_id":"be69e63c-a945-4d5f-9159-4653ae9e58cd","system_id":"levelo_inurba_marseille","lat":43.29965,"lon":5.37174,"is_reserved":false,"is_disabled":false,"rental_uris":{"android":"levelo://app?vid=be69e63c-a945-4d5f-9159-4653ae9e58cd","ios":"levelo://app?vid=be69e63c-a945-4d5f-9159-4653ae9e58cd"},"vehicle_type_id":"4","last_reported":1746451309,"current_range_meters":10800,"station_id":"ce4bgr92rcd13ifvqc7g","pricing_plan_id":"cebpf4jnsgd1na2vs0mg"},{"bike_id":"56e9f364-19b7-44e9-8ea9-4555e3bccdfc","system_id":"levelo_inurba_marseille","lat":43.2978,"lon":5.37101,"is_reserved":false,"is_disabled":false,"rental_uris":{"android":"levelo://app?vid=56e9f364-19b7-44e9-8ea9-4555e3bccdfc","ios":"levelo://app?vid=56e9f364-19b7-44e9-8ea9-4555e3bccdfc"},"vehicle_type_id":"4","last_reported":1746451309,"current_range_meters":10800,"station_id":"ce4bgop2rcd13ifvqc1g","pricing_plan_id":"cebpf4jnsgd1na2vs0mg"},{"bike_id":"a497742f-c244-43cc-ae61-a68c22f59bec","system_id":"levelo_inurba_marseille","lat":43.31356,"lon":5.38492,"is_reserved":false,"is_disabled":true,"rental_uris":{"android":"levelo://app?vid=a497742f-c244-43cc-ae61-a68c22f59bec","ios":"levelo://app?vid=a497742f-c244-43cc-ae61-a68c22f59bec"},"vehicle_type_id":"4","last_reported":1746451309,"current_range_meters":11600,"station_id":"ce4bgt92rcd13ifvqcf0","pricing_plan_id":"cebpf4jnsgd1na2vs0mg"},{"bike_id":"84d11283-15c2-4337-bd87-ff0b06c76cbd","system_id":"levelo_inurba_marseille","lat":43.33602,"lon":5.41025,"is_reserved":false,"is_disabled":false,"rental_uris":{"android":"levelo://app?vid=84d11283-15c2-4337-bd87-ff0b06c76cbd","ios":"levelo://app?vid=84d11283-15c2-4337-bd87-ff0b06c76cbd"},"vehicle_type_id":"4","last_reported":1746451309,"current_range_meters":11600,"station_id":"ce4bhqh2rcd13ifvqhmg","pricing_plan_id":"cebpf4jnsgd1na2vs0mg"},{"bike_id":"d1aa6e5d-6beb-440c-afb6-1d488c12e5a1","system_id":"levelo_inurba_marseille","lat":43.321032,"lon":5.367721,"is_reserved":false,"is_disabled":false,"rental_uris":{"android":"levelo://app?vid=d1aa6e5d-6beb-440c-afb6-1d488c12e5a1","ios":"levelo://app?vid=d1aa6e5d-6beb-440c-afb6-1d488c12e5a1"},"vehicle_type_id":"4","last_reported":1746451309,"current_range_meters":11600,"station_id":"ce4bhrh2rcd13ifvqhug","pricing_plan_id":"cebpf4jnsgd1na2vs0mg"},{"bike_id":"44465755-bad9-4c51-8d3d-da69d989994f","system_id":"levelo_inurba_marseille","lat":43.31199,"lon":5.368117,"is_reserved":false,"is_disabled":false,"rental_uris":{"android":"levelo://app?vid=44465755-bad9-4c51-8d3d-da69d989994f","ios":"levelo://app?vid=44465755-bad9-4c51-8d3d-da69d989994f"},"vehicle_type_id":"4","last_reported":1746451309,"current_range_meters":12000,"station_id":"ce4bgr92rcd13ifvqc6g","pricing_plan_id":"cebpf4jnsgd1na2vs0mg"},{"bike_id":"0b56e003-5052-43f4-9072-d1d9837ed18c","system_id":"levelo_inurba_marseille","lat":43.29618,"lon":5.37169,"is_reserved":false,"is_disabled":false,"rental_uris":{"android":"levelo://app?vid=0b56e003-5052-43f4-9072-d1d9837ed18c","ios":"levelo://app?vid=0b56e003-5052-43f4-9072-d1d9837ed18c"},"vehicle_type_id":"4","last_reported":1746451309,"current_range_meters":12400,"station_id":"ce4bgnh2rcd13ifvqc0g","pricing_plan_id":"cebpf4jnsgd1na2vs0mg"},{"bike_id":"ccc598be-0134-4f7f-b90f-a2b5da7a0248","system_id":"levelo_inurba_marseille","lat":43.319949,"lon":5.381619,"is_reserved":false,"is_disabled":true,"rental_uris":{"android":"levelo://app?vid=ccc598be-0134-4f7f-b90f-a2b5da7a0248","ios":"levelo://app?vid=ccc598be-0134-4f7f-b90f-a2b5da7a0248"},"vehicle_type_id":"4","last_reported":1746451309,"current_range_meters":12000,"station_id":"ce4bhr12rcd13ifvqhpg","pricing_plan_id":"cebpf4jnsgd1na2vs0mg"},{"bike_id":"d033acbf-1b6c-48de-8915-71cf75246dd2","system_id":"levelo_inurba_marseille","lat":43.311562,"lon":5.370379,"is_reserved":false,"is_disabled":false,"rental_uris":{"android":"levelo://app?vid=d033acbf-1b6c-48de-8915-71cf75246dd2","ios":"levelo://app?vid=d033acbf-1b6c-48de-8915-71cf75246dd2"},"vehicle_type_id":"4","last_reported":1746451309,"current_range_meters":12400,"station_id":"","pricing_plan_id":"cebpf4jnsgd1na2vs0mg"},{"bike_id":"05cde570-0f12-468f-811f-83517dc27f46","system_id":"levelo_inurba_marseille","lat":43.29168,"lon":5.3716,"is_reserved":false,"is_disabled":false,"rental_uris":{"android":"levelo://app?vid=05cde570-0f12-468f-811f-83517dc27f46","ios":"levelo://app?vid=05cde570-0f12-468f-811f-83517dc27f46"},"vehicle_type_id":"4","last_reported":1746451309,"current_range_meters":12400,"station_id":"ce4bha92rcd13ifvqeh0","pricing_plan_id":"cebpf4jnsgd1na2vs0mg"},{"bike_id":"ca8509a9-12bf-4405-b8e3-376996e9c678","system_id":"levelo_inurba_marseille","lat":43.24545,"lon":5.39529,"is_reserved":false,"is_disabled":false,"rental_uris":{"android":"levelo://app?vid=ca8509a9-12bf-4405-b8e3-376996e9c678","ios":"levelo://app?vid=ca8509a9-12bf-4405-b8e3-376996e9c678"},"vehicle_type_id":"4","last_reported":1746451309,"current_range_meters":12000,"station_id":"ce4bhlp2rcd13ifvqgjg","pricing_plan_id":"cebpf4jnsgd1na2vs0mg"},{"bike_id":"47e613f1-1405-4b10-af44-5acdd33b8e7d","system_id":"levelo_inurba_marseille","lat":43.26782,"lon":5.39414,"is_reserved":false,"is_disabled":false,"rental_uris":{"android":"levelo://app?vid=47e613f1-1405-4b10-af44-5acdd33b8e7d","ios":"levelo://app?vid=47e613f1-1405-4b10-af44-5acdd33b8e7d"},"vehicle_type_id":"4","last_reported":1746451309,"current_range_meters":12000,"station_id":"ce4bhh12rcd13ifvqfg0","pricing_plan_id":"cebpf4jnsgd1na2vs0mg"},{"bike_id":"5b8d1337-a035-4531-8ae9-843647d6f95e","system_id":"levelo_inurba_marseille","lat":43.23187,"lon":5.39974,"is_reserved":false,"is_disabled":false,"rental_uris":{"android":"levelo://app?vid=5b8d1337-a035-4531-8ae9-843647d6f95e","ios":"levelo://app?vid=5b8d1337-a035-4531-8ae9-843647d6f95e"},"vehicle_type_id":"4","last_reported":1746451309,"current_range_meters":12800,"station_id":"ce4bhn12rcd13ifvqgqg","pricing_plan_id":"cebpf4jnsgd1na2vs0mg"},{"bike_id":"8f8d412f-d8bf-4c56-a9e5-54014fcbe00d","system_id":"levelo_inurba_marseille","lat":43.32097,"lon":5.36782,"is_reserved":false,"is_disabled":false,"rental_uris":{"android":"levelo://app?vid=8f8d412f-d8bf-4c56-a9e5-54014fcbe00d","ios":"levelo://app?vid=8f8d412f-d8bf-4c56-a9e5-54014fcbe00d"},"vehicle_type_id":"4","last_reported":1746451309,"current_range_meters":12800,"station_id":"ce4bhrh2rcd13ifvqhug","pricing_plan_id":"cebpf4jnsgd1na2vs0mg"},{"bike_id":"36f31902-508e-4eaa-8c83-d2ba7e8244f4","system_id":"levelo_inurba_marseille","lat":43.21189,"lon":5.35064,"is_reserved":false,"is_disabled":false,"rental_uris":{"android":"levelo://app?vid=36f31902-508e-4eaa-8c83-d2ba7e8244f4","ios":"levelo://app?vid=36f31902-508e-4eaa-8c83-d2ba7e8244f4"},"vehicle_type_id":"4","last_reported":1746451309,"current_range_meters":13600,"station_id":"st_cvj6sg6p6f1abm77japg","pricing_plan_id":"cebpf4jnsgd1na2vs0mg"},{"bike_id":"9d8f73eb-df09-4699-86a7-d631e2319093","system_id":"levelo_inurba_marseille","lat":43.26268,"lon":5.37444,"is_reserved":false,"is_disabled":false,"rental_uris":{"android":"levelo://app?vid=9d8f73eb-df09-4699-86a7-d631e2319093","ios":"levelo://app?vid=9d8f73eb-df09-4699-86a7-d631e2319093"},"vehicle_type_id":"4","last_reported":1746451309,"current_range_meters":13600,"station_id":"","pricing_plan_id":"cebpf4jnsgd1na2vs0mg"},{"bike_id":"62bfa9fa-531f-4d2b-9e57-eb50b2d48c8c","system_id":"levelo_inurba_marseille","lat":43.24341,"lon":5.37997,"is_reserved":false,"is_disabled":false,"rental_uris":{"android":"levelo://app?vid=62bfa9fa-531f-4d2b-9e57-eb50b2d48c8c","ios":"levelo://app?vid=62bfa9fa-531f-4d2b-9e57-eb50b2d48c8c"},"vehicle_type_id":"4","last_reported":1746451309,"current_range_meters":13600,"station_id":"","pricing_plan_id":"cebpf4jnsgd1na2vs0mg"},{"bike_id":"1d1dee7e-6eaf-4dff-a697-1f80f49d40ae","system_id":"levelo_inurba_marseille","lat":43.30731,"lon":5.42434,"is_reserved":false,"is_disabled":false,"rental_uris":{"android":"levelo://app?vid=1d1dee7e-6eaf-4dff-a697-1f80f49d40ae","ios":"levelo://app?vid=1d1dee7e-6eaf-4dff-a697-1f80f49d40ae"},"vehicle_type_id":"4","last_reported":1746451309,"current_range_meters":13600,"station_id":"st_cvj6ca6bvosntc0bfgr0","pricing_plan_id":"cebpf4jnsgd1na2vs0mg"},{"bike_id":"655663e5-5e8e-46d8-91ec-f352114a28bc","system_id":"levelo_inurba_marseille","lat":43.29417,"lon":5.38628,"is_reserved":false,"is_disabled":false,"rental_uris":{"android":"levelo://app?vid=655663e5-5e8e-46d8-91ec-f352114a28bc","ios":"levelo://app?vid=655663e5-5e8e-46d8-91ec-f352114a28bc"},"vehicle_type_id":"4","last_reported":1746451309,"current_range_meters":16400,"station_id":"ce4bh2h2rcd13ifvqdh0","pricing_plan_id":"cebpf4jnsgd1na2vs0mg"},{"bike_id":"fdabd96c-4dc3-410a-8b55-15f23f81400b","system_id":"levelo_inurba_marseille","lat":43.26564,"lon":5.39028,"is_reserved":false,"is_disabled":false,"rental_uris":{"android":"levelo://app?vid=fdabd96c-4dc3-410a-8b55-15f23f81400b","ios":"levelo://app?vid=fdabd96c-4dc3-410a-8b55-15f23f81400b"},"vehicle_type_id":"4","last_reported":1746451309,"current_range_meters":14000,"station_id":"ce4bhe12rcd13ifvqf30","pricing_plan_id":"cebpf4jnsgd1na2vs0mg"},{"bike_id":"afd98b4d-f75a-4e82-beca-4b0996b353b3","system_id":"levelo_inurba_marseille","lat":43.2593,"lon":5.40903,"is_reserved":false,"is_disabled":false,"rental_uris":{"android":"levelo://app?vid=afd98b4d-f75a-4e82-beca-4b0996b353b3","ios":"levelo://app?vid=afd98b4d-f75a-4e82-beca-4b0996b353b3"},"vehicle_type_id":"4","last_reported":1746451309,"current_range_meters":14000,"station_id":"ce4bhm92rcd13ifvqglg","pricing_plan_id":"cebpf4jnsgd1na2vs0mg"},{"bike_id":"fd5bc2c2-9d28-48ff-8793-64af25d324f4","system_id":"levelo_inurba_marseille","lat":43.21751,"lon":5.346,"is_reserved":false,"is_disabled":false,"rental_uris":{"android":"levelo://app?vid=fd5bc2c2-9d28-48ff-8793-64af25d324f4","ios":"levelo://app?vid=fd5bc2c2-9d28-48ff-8793-64af25d324f4"},"vehicle_type_id":"4","last_reported":1746451309,"current_range_meters":14000,"station_id":"st_cvj6r9ubvosntc0bgbag","pricing_plan_id":"cebpf4jnsgd1na2vs0mg"},{"bike_id":"817c4234-bcf9-4362-a78d-d98a1bd2852a","system_id":"levelo_inurba_marseille","lat":43.2953,"lon":5.38538,"is_reserved":false,"is_disabled":false,"rental_uris":{"android":"levelo://app?vid=817c4234-bcf9-4362-a78d-d98a1bd2852a","ios":"levelo://app?vid=817c4234-bcf9-4362-a78d-d98a1bd2852a"},"vehicle_type_id":"4","last_reported":1746451309,"current_range_meters":12800,"station_id":"ce4bgih2rcd13ifvqba0","pricing_plan_id":"cebpf4jnsgd1na2vs0mg"},{"bike_id":"c9e44b98-7dd6-4dc3-9d88-33b3c041bcc2","system_id":"levelo_inurba_marseille","lat":43.32477,"lon":5.36545,"is_reserved":false,"is_disabled":false,"rental_uris":{"android":"levelo://app?vid=c9e44b98-7dd6-4dc3-9d88-33b3c041bcc2","ios":"levelo://app?vid=c9e44b98-7dd6-4dc3-9d88-33b3c041bcc2"},"vehicle_type_id":"4","last_reported":1746451309,"current_range_meters":14000,"station_id":"ce4bhs12rcd13ifvqhvg","pricing_plan_id":"cebpf4jnsgd1na2vs0mg"},{"bike_id":"0d68f75a-d843-4c35-91ab-4307e5fc3f48","system_id":"levelo_inurba_marseille","lat":43.24155,"lon":5.39748,"is_reserved":false,"is_disabled":false,"rental_uris":{"android":"levelo://app?vid=0d68f75a-d843-4c35-91ab-4307e5fc3f48","ios":"levelo://app?vid=0d68f75a-d843-4c35-91ab-4307e5fc3f48"},"vehicle_type_id":"4","last_reported":1746451309,"current_range_meters":14800,"station_id":"ce4bhn12rcd13ifvqgpg","pricing_plan_id":"cebpf4jnsgd1na2vs0mg"},{"bike_id":"0c377d9d-9a3a-47a7-9944-6039314b5e15","system_id":"levelo_inurba_marseille","lat":43.24587,"lon":5.40503,"is_reserved":false,"is_disabled":false,"rental_uris":{"android":"levelo://app?vid=0c377d9d-9a3a-47a7-9944-6039314b5e15","ios":"levelo://app?vid=0c377d9d-9a3a-47a7-9944-6039314b5e15"},"vehicle_type_id":"4","last_reported":1746451309,"current_range_meters":14800,"station_id":"","pricing_plan_id":"cebpf4jnsgd1na2vs0mg"},{"bike_id":"45f01e54-26df-4aba-a135-810955657dee","system_id":"levelo_inurba_marseille","lat":43.2904,"lon":5.37569,"is_reserved":false,"is_disabled":false,"rental_uris":{"android":"levelo://app?vid=45f01e54-26df-4aba-a135-810955657dee","ios":"levelo://app?vid=45f01e54-26df-4aba-a135-810955657dee"},"vehicle_type_id":"4","last_reported":1746451309,"current_range_meters":14800,"station_id":"ce4bh692rcd13ifvqe90","pricing_plan_id":"cebpf4jnsgd1na2vs0mg"},{"bike_id":"91201383-39c7-42c7-91d8-e5b2ca2fb6e1","system_id":"levelo_inurba_marseille","lat":43.30547,"lon":5.36549,"is_reserved":false,"is_disabled":false,"rental_uris":{"android":"levelo://app?vid=91201383-39c7-42c7-91d8-e5b2ca2fb6e1","ios":"levelo://app?vid=91201383-39c7-42c7-91d8-e5b2ca2fb6e1"},"vehicle_type_id":"4","last_reported":1746451309,"current_range_meters":14800,"station_id":"ce4bgs12rcd13ifvqcag","pricing_plan_id":"cebpf4jnsgd1na2vs0mg"},{"bike_id":"a61d672b-4cf5-4ee5-bceb-8d3d8d43216a","system_id":"levelo_inurba_marseille","lat":43.29844,"lon":5.36262,"is_reserved":false,"is_disabled":false,"rental_uris":{"android":"levelo://app?vid=a61d672b-4cf5-4ee5-bceb-8d3d8d43216a","ios":"levelo://app?vid=a61d672b-4cf5-4ee5-bceb-8d3d8d43216a"},"vehicle_type_id":"4","last_reported":1746451309,"current_range_meters":14400,"station_id":"ce4bgpp2rcd13ifvqc3g","pricing_plan_id":"cebpf4jnsgd1na2vs0mg"},{"bike_id":"94e4bd09-832d-43d5-9c6b-2a96ad855091","system_id":"levelo_inurba_marseille","lat":43.26202,"lon":5.37947,"is_reserved":false,"is_disabled":false,"rental_uris":{"android":"levelo://app?vid=94e4bd09-832d-43d5-9c6b-2a96ad855091","ios":"levelo://app?vid=94e4bd09-832d-43d5-9c6b-2a96ad855091"},"vehicle_type_id":"4","last_reported":1746451309,"current_range_meters":15200,"station_id":"ce4bhjp2rcd13ifvqg90","pricing_plan_id":"cebpf4jnsgd1na2vs0mg"},{"bike_id":"a46b5721-597c-404e-8ddb-3ba6469f967d","system_id":"levelo_inurba_marseille","lat":43.23179,"lon":5.35572,"is_reserved":false,"is_disabled":false,"rental_uris":{"android":"levelo://app?vid=a46b5721-597c-404e-8ddb-3ba6469f967d","ios":"levelo://app?vid=a46b5721-597c-404e-8ddb-3ba6469f967d"},"vehicle_type_id":"4","last_reported":1746451309,"current_range_meters":15200,"station_id":"ce4bhu92rcd13ifvqi70","pricing_plan_id":"cebpf4jnsgd1na2vs0mg"},{"bike_id":"b100d384-f5f7-4dbe-a728-60c90e828188","system_id":"levelo_inurba_marseille","lat":43.28704,"lon":5.37376,"is_reserved":false,"is_disabled":false,"rental_uris":{"android":"levelo://app?vid=b100d384-f5f7-4dbe-a728-60c90e828188","ios":"levelo://app?vid=b100d384-f5f7-4dbe-a728-60c90e828188"},"vehicle_type_id":"4","last_reported":1746451309,"current_range_meters":14800,"station_id":"ce4bh3p2rcd13ifvqdq0","pricing_plan_id":"cebpf4jnsgd1na2vs0mg"},{"bike_id":"052a0b32-eef6-46f4-8230-14710965a9d0","system_id":"levelo_inurba_marseille","lat":43.26193,"lon":5.37936,"is_reserved":false,"is_disabled":false,"rental_uris":{"android":"levelo://app?vid=052a0b32-eef6-46f4-8230-14710965a9d0","ios":"levelo://app?vid=052a0b32-eef6-46f4-8230-14710965a9d0"},"vehicle_type_id":"4","last_reported":1746451309,"current_range_meters":16000,"station_id":"ce4bhjp2rcd13ifvqg90","pricing_plan_id":"cebpf4jnsgd1na2vs0mg"},{"bike_id":"6930ec0c-c2ca-4de8-af3c-a195fc958f43","system_id":"levelo_inurba_marseille","lat":43.21189,"lon":5.35071,"is_reserved":false,"is_disabled":false,"rental_uris":{"android":"levelo://app?vid=6930ec0c-c2ca-4de8-af3c-a195fc958f43","ios":"levelo://app?vid=6930ec0c-c2ca-4de8-af3c-a195fc958f43"},"vehicle_type_id":"4","last_reported":1746451309,"current_range_meters":16000,"station_id":"st_cvj6sg6p6f1abm77japg","pricing_plan_id":"cebpf4jnsgd1na2vs0mg"},{"bike_id":"e688d2e1-5e87-4145-ae8a-b9dbd2d70752","system_id":"levelo_inurba_marseille","lat":43.29909,"lon":5.3747,"is_reserved":false,"is_disabled":false,"rental_uris":{"android":"levelo://app?vid=e688d2e1-5e87-4145-ae8a-b9dbd2d70752","ios":"levelo://app?vid=e688d2e1-5e87-4145-ae8a-b9dbd2d70752"},"vehicle_type_id":"4","last_reported":1746451309,"current_range_meters":16000,"station_id":"ce4bgjh2rcd13ifvqbg0","pricing_plan_id":"cebpf4jnsgd1na2vs0mg"},{"bike_id":"cc3c66d9-ab19-469f-8453-ee223abfae9a","system_id":"levelo_inurba_marseille","lat":43.30099,"lon":5.39074,"is_reserved":false,"is_disabled":false,"rental_uris":{"android":"levelo://app?vid=cc3c66d9-ab19-469f-8453-ee223abfae9a","ios":"levelo://app?vid=cc3c66d9-ab19-469f-8453-ee223abfae9a"},"vehicle_type_id":"4","last_reported":1746451309,"current_range_meters":16000,"station_id":"ce4bh192rcd13ifvqdb0","pricing_plan_id":"cebpf4jnsgd1na2vs0mg"},{"bike_id":"89cbf915-3505-4e28-8d5d-cbc2bdcdfaee","system_id":"levelo_inurba_marseille","lat":43.3091,"lon":5.36845,"is_reserved":false,"is_disabled":false,"rental_uris":{"android":"levelo://app?vid=89cbf915-3505-4e28-8d5d-cbc2bdcdfaee","ios":"levelo://app?vid=89cbf915-3505-4e28-8d5d-cbc2bdcdfaee"},"vehicle_type_id":"4","last_reported":1746451309,"current_range_meters":16000,"station_id":"ce4bgn92rcd13ifvqbvg","pricing_plan_id":"cebpf4jnsgd1na2vs0mg"},{"bike_id":"db607aba-0db6-423b-a818-c23224727203","system_id":"levelo_inurba_marseille","lat":43.231472,"lon":5.436916,"is_reserved":false,"is_disabled":false,"rental_uris":{"android":"levelo://app?vid=db607aba-0db6-423b-a818-c23224727203","ios":"levelo://app?vid=db607aba-0db6-423b-a818-c23224727203"},"vehicle_type_id":"4","last_reported":1746451309,"current_range_meters":16000,"station_id":"ce4bhmp2rcd13ifvqgog","pricing_plan_id":"cebpf4jnsgd1na2vs0mg"},{"bike_id":"d2cdff3e-610c-47f6-9a92-3063f8bd03ae","system_id":"levelo_inurba_marseille","lat":43.320368,"lon":5.415712,"is_reserved":false,"is_disabled":true,"rental_uris":{"android":"levelo://app?vid=d2cdff3e-610c-47f6-9a92-3063f8bd03ae","ios":"levelo://app?vid=d2cdff3e-610c-47f6-9a92-3063f8bd03ae"},"vehicle_type_id":"4","last_reported":1746451309,"current_range_meters":16400,"station_id":"ce4bhq92rcd13ifvqhkg","pricing_plan_id":"cebpf4jnsgd1na2vs0mg"},{"bike_id":"85a52d35-b4b8-43e3-a7b8-21ef26fbab4e","system_id":"levelo_inurba_marseille","lat":43.23196,"lon":5.35549,"is_reserved":false,"is_disabled":false,"rental_uris":{"android":"levelo://app?vid=85a52d35-b4b8-43e3-a7b8-21ef26fbab4e","ios":"levelo://app?vid=85a52d35-b4b8-43e3-a7b8-21ef26fbab4e"},"vehicle_type_id":"4","last_reported":1746451309,"current_range_meters":16400,"station_id":"ce4bhu92rcd13ifvqi70","pricing_plan_id":"cebpf4jnsgd1na2vs0mg"},{"bike_id":"c9592205-9409-4f74-aed1-7c4141a58caa","system_id":"levelo_inurba_marseille","lat":43.2715,"lon":5.36334,"is_reserved":false,"is_disabled":false,"rental_uris":{"android":"levelo://app?vid=c9592205-9409-4f74-aed1-7c4141a58caa","ios":"levelo://app?vid=c9592205-9409-4f74-aed1-7c4141a58caa"},"vehicle_type_id":"4","last_reported":1746451309,"current_range_meters":16400,"station_id":"","pricing_plan_id":"cebpf4jnsgd1na2vs0mg"},{"bike_id":"fea4f77b-2e28-4c65-a748-08d8f2aa70ce","system_id":"levelo_inurba_marseille","lat":43.25,"lon":5.38927,"is_reserved":false,"is_disabled":false,"rental_uris":{"android":"levelo://app?vid=fea4f77b-2e28-4c65-a748-08d8f2aa70ce","ios":"levelo://app?vid=fea4f77b-2e28-4c65-a748-08d8f2aa70ce"},"vehicle_type_id":"4","last_reported":1746451309,"current_range_meters":16000,"station_id":"ce4bhgp2rcd13ifvqfd0","pricing_plan_id":"cebpf4jnsgd1na2vs0mg"},{"bike_id":"383d07d6-6391-4741-add0-739b20b00e96","system_id":"levelo_inurba_marseille","lat":43.26206,"lon":5.37441,"is_reserved":false,"is_disabled":false,"rental_uris":{"android":"levelo://app?vid=383d07d6-6391-4741-add0-739b20b00e96","ios":"levelo://app?vid=383d07d6-6391-4741-add0-739b20b00e96"},"vehicle_type_id":"4","last_reported":1746451309,"current_range_meters":16400,"station_id":"ce4bhgp2rcd13ifvqfc0","pricing_plan_id":"cebpf4jnsgd1na2vs0mg"},{"bike_id":"2fa95b26-39f0-40f0-ba6f-0d80973b2f74","system_id":"levelo_inurba_marseille","lat":43.25934,"lon":5.40911,"is_reserved":false,"is_disabled":false,"rental_uris":{"android":"levelo://app?vid=2fa95b26-39f0-40f0-ba6f-0d80973b2f74","ios":"levelo://app?vid=2fa95b26-39f0-40f0-ba6f-0d80973b2f74"},"vehicle_type_id":"4","last_reported":1746451309,"current_range_meters":16800,"station_id":"ce4bhm92rcd13ifvqglg","pricing_plan_id":"cebpf4jnsgd1na2vs0mg"},{"bike_id":"9dc605a4-3599-4f3f-99fa-43f2db634d62","system_id":"levelo_inurba_marseille","lat":43.34143,"lon":5.40896,"is_reserved":false,"is_disabled":false,"rental_uris":{"android":"levelo://app?vid=9dc605a4-3599-4f3f-99fa-43f2db634d62","ios":"levelo://app?vid=9dc605a4-3599-4f3f-99fa-43f2db634d62"},"vehicle_type_id":"4","last_reported":1746451309,"current_range_meters":16800,"station_id":"ce4bhqh2rcd13ifvqhlg","pricing_plan_id":"cebpf4jnsgd1na2vs0mg"},{"bike_id":"ff318078-4859-4840-8af0-e9e519fafc50","system_id":"levelo_inurba_marseille","lat":43.2591,"lon":5.409,"is_reserved":false,"is_disabled":false,"rental_uris":{"android":"levelo://app?vid=ff318078-4859-4840-8af0-e9e519fafc50","ios":"levelo://app?vid=ff318078-4859-4840-8af0-e9e519fafc50"},"vehicle_type_id":"4","last_reported":1746451309,"current_range_meters":16800,"station_id":"ce4bhm92rcd13ifvqglg","pricing_plan_id":"cebpf4jnsgd1na2vs0mg"},{"bike_id":"4d84ccf1-4a45-4f4e-8466-9f515ff5ffff","system_id":"levelo_inurba_marseille","lat":43.26788,"lon":5.39411,"is_reserved":false,"is_disabled":false,"rental_uris":{"android":"levelo://app?vid=4d84ccf1-4a45-4f4e-8466-9f515ff5ffff","ios":"levelo://app?vid=4d84ccf1-4a45-4f4e-8466-9f515ff5ffff"},"vehicle_type_id":"4","last_reported":1746451309,"current_range_meters":16800,"station_id":"ce4bhh12rcd13ifvqfg0","pricing_plan_id":"cebpf4jnsgd1na2vs0mg"},{"bike_id":"7ca09d8d-51db-4057-abe2-e9c1bdbcdfac","system_id":"levelo_inurba_marseille","lat":43.22926,"lon":5.35383,"is_reserved":false,"is_disabled":false,"rental_uris":{"android":"levelo://app?vid=7ca09d8d-51db-4057-abe2-e9c1bdbcdfac","ios":"levelo://app?vid=7ca09d8d-51db-4057-abe2-e9c1bdbcdfac"},"vehicle_type_id":"4","last_reported":1746451309,"current_range_meters":16800,"station_id":"cpo3532slgdg3j2ikp40","pricing_plan_id":"cebpf4jnsgd1na2vs0mg"},{"bike_id":"a663771d-95dc-4674-ad1c-415719945ba3","system_id":"levelo_inurba_marseille","lat":43.32363,"lon":5.3888,"is_reserved":false,"is_disabled":false,"rental_uris":{"android":"levelo://app?vid=a663771d-95dc-4674-ad1c-415719945ba3","ios":"levelo://app?vid=a663771d-95dc-4674-ad1c-415719945ba3"},"vehicle_type_id":"4","last_reported":1746451309,"current_range_meters":16800,"station_id":"ce4bhqp2rcd13ifvqhog","pricing_plan_id":"cebpf4jnsgd1na2vs0mg"},{"bike_id":"495dbecb-8f20-4175-8eb3-7ee19767f8ed","system_id":"levelo_inurba_marseille","lat":43.30797,"lon":5.38149,"is_reserved":false,"is_disabled":false,"rental_uris":{"android":"levelo://app?vid=495dbecb-8f20-4175-8eb3-7ee19767f8ed","ios":"levelo://app?vid=495dbecb-8f20-4175-8eb3-7ee19767f8ed"},"vehicle_type_id":"4","last_reported":1746451309,"current_range_meters":17200,"station_id":"ce4bgt12rcd13ifvqce0","pricing_plan_id":"cebpf4jnsgd1na2vs0mg"},{"bike_id":"aec1c2d9-1387-43dc-8bd6-73652e164a3c","system_id":"levelo_inurba_marseille","lat":43.306012,"lon":5.371568,"is_reserved":false,"is_disabled":false,"rental_uris":{"android":"levelo://app?vid=aec1c2d9-1387-43dc-8bd6-73652e164a3c","ios":"levelo://app?vid=aec1c2d9-1387-43dc-8bd6-73652e164a3c"},"vehicle_type_id":"4","last_reported":1746451309,"current_range_meters":17200,"station_id":"ce4bgs12rcd13ifvqcag","pricing_plan_id":"cebpf4jnsgd1na2vs0mg"},{"bike_id":"99097e50-dd2e-47c3-a879-f48655baf4d9","system_id":"levelo_inurba_marseille","lat":43.24587,"lon":5.40831,"is_reserved":false,"is_disabled":false,"rental_uris":{"android":"levelo://app?vid=99097e50-dd2e-47c3-a879-f48655baf4d9","ios":"levelo://app?vid=99097e50-dd2e-47c3-a879-f48655baf4d9"},"vehicle_type_id":"4","last_reported":1746451309,"current_range_meters":17200,"station_id":"","pricing_plan_id":"cebpf4jnsgd1na2vs0mg"},{"bike_id":"9349c7c9-2416-48ab-b54e-85f6fc522fab","system_id":"levelo_inurba_marseille","lat":43.31998,"lon":5.38159,"is_reserved":false,"is_disabled":true,"rental_uris":{"android":"levelo://app?vid=9349c7c9-2416-48ab-b54e-85f6fc522fab","ios":"levelo://app?vid=9349c7c9-2416-48ab-b54e-85f6fc522fab"},"vehicle_type_id":"4","last_reported":1746451309,"current_range_meters":17200,"station_id":"ce4bhr12rcd13ifvqhpg","pricing_plan_id":"cebpf4jnsgd1na2vs0mg"},{"bike_id":"bce5f1e3-dc0d-4292-a680-7bc58127788b","system_id":"levelo_inurba_marseille","lat":43.3414,"lon":5.40905,"is_reserved":false,"is_disabled":false,"rental_uris":{"android":"levelo://app?vid=bce5f1e3-dc0d-4292-a680-7bc58127788b","ios":"levelo://app?vid=bce5f1e3-dc0d-4292-a680-7bc58127788b"},"vehicle_type_id":"4","last_reported":1746451309,"current_range_meters":17600,"station_id":"ce4bhqh2rcd13ifvqhlg","pricing_plan_id":"cebpf4jnsgd1na2vs0mg"},{"bike_id":"e3bb4c0a-ea28-4d8b-a92a-340ecfdd5f1d","system_id":"levelo_inurba_marseille","lat":43.3108,"lon":5.37544,"is_reserved":false,"is_disabled":false,"rental_uris":{"android":"levelo://app?vid=e3bb4c0a-ea28-4d8b-a92a-340ecfdd5f1d","ios":"levelo://app?vid=e3bb4c0a-ea28-4d8b-a92a-340ecfdd5f1d"},"vehicle_type_id":"4","last_reported":1746451309,"current_range_meters":17600,"station_id":"","pricing_plan_id":"cebpf4jnsgd1na2vs0mg"},{"bike_id":"aaa9138d-e635-478c-ab3a-08001ca08e65","system_id":"levelo_inurba_marseille","lat":43.29796,"lon":5.38106,"is_reserved":false,"is_disabled":false,"rental_uris":{"android":"levelo://app?vid=aaa9138d-e635-478c-ab3a-08001ca08e65","ios":"levelo://app?vid=aaa9138d-e635-478c-ab3a-08001ca08e65"},"vehicle_type_id":"4","last_reported":1746451309,"current_range_meters":17600,"station_id":"ce4bgip2rcd13ifvqbb0","pricing_plan_id":"cebpf4jnsgd1na2vs0mg"},{"bike_id":"64cb00bd-3cb8-406c-9cc8-279821230e81","system_id":"levelo_inurba_marseille","lat":43.26954,"lon":5.38639,"is_reserved":false,"is_disabled":false,"rental_uris":{"android":"levelo://app?vid=64cb00bd-3cb8-406c-9cc8-279821230e81","ios":"levelo://app?vid=64cb00bd-3cb8-406c-9cc8-279821230e81"},"vehicle_type_id":"4","last_reported":1746451309,"current_range_meters":17600,"station_id":"ce4bhh92rcd13ifvqfh0","pricing_plan_id":"cebpf4jnsgd1na2vs0mg"},{"bike_id":"88655495-4ee5-4dd1-837f-e71713b8e190","system_id":"levelo_inurba_marseille","lat":43.29528,"lon":5.39394,"is_reserved":false,"is_disabled":true,"rental_uris":{"android":"levelo://app?vid=88655495-4ee5-4dd1-837f-e71713b8e190","ios":"levelo://app?vid=88655495-4ee5-4dd1-837f-e71713b8e190"},"vehicle_type_id":"4","last_reported":1746451309,"current_range_meters":17600,"station_id":"ce4bh292rcd13ifvqdf0","pricing_plan_id":"cebpf4jnsgd1na2vs0mg"},{"bike_id":"9b3406c6-2fe1-41f2-ab55-46465eb6fe5f","system_id":"levelo_inurba_marseille","lat":43.30419,"lon":5.4128,"is_reserved":false,"is_disabled":false,"rental_uris":{"android":"levelo://app?vid=9b3406c6-2fe1-41f2-ab55-46465eb6fe5f","ios":"levelo://app?vid=9b3406c6-2fe1-41f2-ab55-46465eb6fe5f"},"vehicle_type_id":"4","last_reported":1746451309,"current_range_meters":17200,"station_id":"ce4bhop2rcd13ifvqh8g","pricing_plan_id":"cebpf4jnsgd1na2vs0mg"},{"bike_id":"3f84d55c-f7b3-443f-a8ba-1f83ba8291a2","system_id":"levelo_inurba_marseille","lat":43.21191,"lon":5.35077,"is_reserved":false,"is_disabled":false,"rental_uris":{"android":"levelo://app?vid=3f84d55c-f7b3-443f-a8ba-1f83ba8291a2","ios":"levelo://app?vid=3f84d55c-f7b3-443f-a8ba-1f83ba8291a2"},"vehicle_type_id":"4","last_reported":1746451309,"current_range_meters":17600,"station_id":"st_cvj6sg6p6f1abm77japg","pricing_plan_id":"cebpf4jnsgd1na2vs0mg"},{"bike_id":"8614d70c-5274-4c95-bda3-d1d7ed02fdda","system_id":"levelo_inurba_marseille","lat":43.32358,"lon":5.36762,"is_reserved":false,"is_disabled":false,"rental_uris":{"android":"levelo://app?vid=8614d70c-5274-4c95-bda3-d1d7ed02fdda","ios":"levelo://app?vid=8614d70c-5274-4c95-bda3-d1d7ed02fdda"},"vehicle_type_id":"4","last_reported":1746451309,"current_range_meters":17600,"station_id":"ce4bhsh2rcd13ifvqi2g","pricing_plan_id":"cebpf4jnsgd1na2vs0mg"},{"bike_id":"a24f6752-df3a-40ed-9da7-686c10d62b81","system_id":"levelo_inurba_marseille","lat":43.3171,"lon":5.43699,"is_reserved":false,"is_disabled":false,"rental_uris":{"android":"levelo://app?vid=a24f6752-df3a-40ed-9da7-686c10d62b81","ios":"levelo://app?vid=a24f6752-df3a-40ed-9da7-686c10d62b81"},"vehicle_type_id":"4","last_reported":1746451309,"current_range_meters":18000,"station_id":"ce4bhp92rcd13ifvqhcg","pricing_plan_id":"cebpf4jnsgd1na2vs0mg"},{"bike_id":"52c7845f-3df4-48a3-8205-c5ead357aecb","system_id":"levelo_inurba_marseille","lat":43.30548,"lon":5.36525,"is_reserved":false,"is_disabled":false,"rental_uris":{"android":"levelo://app?vid=52c7845f-3df4-48a3-8205-c5ead357aecb","ios":"levelo://app?vid=52c7845f-3df4-48a3-8205-c5ead357aecb"},"vehicle_type_id":"4","last_reported":1746451309,"current_range_meters":18000,"station_id":"ce4bgs12rcd13ifvqcag","pricing_plan_id":"cebpf4jnsgd1na2vs0mg"},{"bike_id":"74d3c883-97f2-49a7-91c8-11302074336f","system_id":"levelo_inurba_marseille","lat":43.23149,"lon":5.43721,"is_reserved":false,"is_disabled":false,"rental_uris":{"android":"levelo://app?vid=74d3c883-97f2-49a7-91c8-11302074336f","ios":"levelo://app?vid=74d3c883-97f2-49a7-91c8-11302074336f"},"vehicle_type_id":"4","last_reported":1746451309,"current_range_meters":18000,"station_id":"ce4bhmp2rcd13ifvqgog","pricing_plan_id":"cebpf4jnsgd1na2vs0mg"},{"bike_id":"5987d684-ebbc-4e3b-9225-d827a0b9ff39","system_id":"levelo_inurba_marseille","lat":43.23963,"lon":5.36637,"is_reserved":false,"is_disabled":true,"rental_uris":{"android":"levelo://app?vid=5987d684-ebbc-4e3b-9225-d827a0b9ff39","ios":"levelo://app?vid=5987d684-ebbc-4e3b-9225-d827a0b9ff39"},"vehicle_type_id":"4","last_reported":1746451309,"current_range_meters":18000,"station_id":"ce4bhi12rcd13ifvqfp0","pricing_plan_id":"cebpf4jnsgd1na2vs0mg"},{"bike_id":"bfb768d4-db43-4db8-8659-afeb33dd4edd","system_id":"levelo_inurba_marseille","lat":43.30734,"lon":5.42436,"is_reserved":false,"is_disabled":false,"rental_uris":{"android":"levelo://app?vid=bfb768d4-db43-4db8-8659-afeb33dd4edd","ios":"levelo://app?vid=bfb768d4-db43-4db8-8659-afeb33dd4edd"},"vehicle_type_id":"4","last_reported":1746451309,"current_range_meters":18000,"station_id":"st_cvj6ca6bvosntc0bfgr0","pricing_plan_id":"cebpf4jnsgd1na2vs0mg"},{"bike_id":"fa115b12-8a00-4ce5-b679-7f353c5129c9","system_id":"levelo_inurba_marseille","lat":43.24374,"lon":5.37063,"is_reserved":false,"is_disabled":false,"rental_uris":{"android":"levelo://app?vid=fa115b12-8a00-4ce5-b679-7f353c5129c9","ios":"levelo://app?vid=fa115b12-8a00-4ce5-b679-7f353c5129c9"},"vehicle_type_id":"4","last_reported":1746451309,"current_range_meters":18000,"station_id":"ce4bhhh2rcd13ifvqfk0","pricing_plan_id":"cebpf4jnsgd1na2vs0mg"},{"bike_id":"54579c78-9716-491b-8525-820002530dbd","system_id":"levelo_inurba_marseille","lat":43.313563,"lon":5.366968,"is_reserved":false,"is_disabled":false,"rental_uris":{"android":"levelo://app?vid=54579c78-9716-491b-8525-820002530dbd","ios":"levelo://app?vid=54579c78-9716-491b-8525-820002530dbd"},"vehicle_type_id":"4","last_reported":1746451309,"current_range_meters":18000,"station_id":"ce4bgr92rcd13ifvqc6g","pricing_plan_id":"cebpf4jnsgd1na2vs0mg"},{"bike_id":"b18a3f30-71a6-4a85-b146-02d93b7bc7ec","system_id":"levelo_inurba_marseille","lat":43.30509,"lon":5.36522,"is_reserved":false,"is_disabled":false,"rental_uris":{"android":"levelo://app?vid=b18a3f30-71a6-4a85-b146-02d93b7bc7ec","ios":"levelo://app?vid=b18a3f30-71a6-4a85-b146-02d93b7bc7ec"},"vehicle_type_id":"4","last_reported":1746451309,"current_range_meters":18000,"station_id":"","pricing_plan_id":"cebpf4jnsgd1na2vs0mg"},{"bike_id":"2498d202-b65c-4007-a2dc-0753d0cdeeca","system_id":"levelo_inurba_marseille","lat":43.32042,"lon":5.41547,"is_reserved":false,"is_disabled":false,"rental_uris":{"android":"levelo://app?vid=2498d202-b65c-4007-a2dc-0753d0cdeeca","ios":"levelo://app?vid=2498d202-b65c-4007-a2dc-0753d0cdeeca"},"vehicle_type_id":"4","last_reported":1746451309,"current_range_meters":18000,"station_id":"ce4bhq92rcd13ifvqhkg","pricing_plan_id":"cebpf4jnsgd1na2vs0mg"},{"bike_id":"1c003822-9d20-42bd-b60b-78ad54120a8e","system_id":"levelo_inurba_marseille","lat":43.29567,"lon":5.39972,"is_reserved":false,"is_disabled":false,"rental_uris":{"android":"levelo://app?vid=1c003822-9d20-42bd-b60b-78ad54120a8e","ios":"levelo://app?vid=1c003822-9d20-42bd-b60b-78ad54120a8e"},"vehicle_type_id":"4","last_reported":1746451309,"current_range_meters":18000,"station_id":"ce4bh312rcd13ifvqdj0","pricing_plan_id":"cebpf4jnsgd1na2vs0mg"},{"bike_id":"a07db7df-d212-4a63-ba71-2fc2a43e04a0","system_id":"levelo_inurba_marseille","lat":43.317096,"lon":5.436969,"is_reserved":false,"is_disabled":true,"rental_uris":{"android":"levelo://app?vid=a07db7df-d212-4a63-ba71-2fc2a43e04a0","ios":"levelo://app?vid=a07db7df-d212-4a63-ba71-2fc2a43e04a0"},"vehicle_type_id":"4","last_reported":1746451309,"current_range_meters":18800,"station_id":"ce4bhp92rcd13ifvqhcg","pricing_plan_id":"cebpf4jnsgd1na2vs0mg"},{"bike_id":"65ee78dd-c3d4-4474-8787-e42538823a92","system_id":"levelo_inurba_marseille","lat":43.28566,"lon":5.39494,"is_reserved":false,"is_disabled":false,"rental_uris":{"android":"levelo://app?vid=65ee78dd-c3d4-4474-8787-e42538823a92","ios":"levelo://app?vid=65ee78dd-c3d4-4474-8787-e42538823a92"},"vehicle_type_id":"4","last_reported":1746451309,"current_range_meters":18800,"station_id":"ce4bh292rcd13ifvqdg0","pricing_plan_id":"cebpf4jnsgd1na2vs0mg"},{"bike_id":"8a60d38a-fc7f-4ee8-bf08-21023130cdc0","system_id":"levelo_inurba_marseille","lat":43.30883,"lon":5.37182,"is_reserved":false,"is_disabled":false,"rental_uris":{"android":"levelo://app?vid=8a60d38a-fc7f-4ee8-bf08-21023130cdc0","ios":"levelo://app?vid=8a60d38a-fc7f-4ee8-bf08-21023130cdc0"},"vehicle_type_id":"4","last_reported":1746451309,"current_range_meters":18800,"station_id":"ce4bguh2rcd13ifvqckg","pricing_plan_id":"cebpf4jnsgd1na2vs0mg"},{"bike_id":"da92c2dc-1090-4004-b71f-849dd06538ef","system_id":"levelo_inurba_marseille","lat":43.29579,"lon":5.36745,"is_reserved":false,"is_disabled":true,"rental_uris":{"android":"levelo://app?vid=da92c2dc-1090-4004-b71f-849dd06538ef","ios":"levelo://app?vid=da92c2dc-1090-4004-b71f-849dd06538ef"},"vehicle_type_id":"4","last_reported":1746451309,"current_range_meters":19200,"station_id":"ce4bgph2rcd13ifvqc2g","pricing_plan_id":"cebpf4jnsgd1na2vs0mg"},{"bike_id":"edead994-a10d-404e-8fdc-c6f988bdd343","system_id":"levelo_inurba_marseille","lat":43.313531,"lon":5.366971,"is_reserved":false,"is_disabled":false,"rental_uris":{"android":"levelo://app?vid=edead994-a10d-404e-8fdc-c6f988bdd343","ios":"levelo://app?vid=edead994-a10d-404e-8fdc-c6f988bdd343"},"vehicle_type_id":"4","last_reported":1746451309,"current_range_meters":19200,"station_id":"ce4bgr92rcd13ifvqc6g","pricing_plan_id":"cebpf4jnsgd1na2vs0mg"},{"bike_id":"4fbb6c6b-2018-4290-a812-641a2ebf7fff","system_id":"levelo_inurba_marseille","lat":43.33144,"lon":5.38177,"is_reserved":false,"is_disabled":false,"rental_uris":{"android":"levelo://app?vid=4fbb6c6b-2018-4290-a812-641a2ebf7fff","ios":"levelo://app?vid=4fbb6c6b-2018-4290-a812-641a2ebf7fff"},"vehicle_type_id":"4","last_reported":1746451309,"current_range_meters":19200,"station_id":"","pricing_plan_id":"cebpf4jnsgd1na2vs0mg"},{"bike_id":"2fe6fe7c-0d28-4676-9010-5d0635a4a646","system_id":"levelo_inurba_marseille","lat":43.29704,"lon":5.37693,"is_reserved":false,"is_disabled":false,"rental_uris":{"android":"levelo://app?vid=2fe6fe7c-0d28-4676-9010-5d0635a4a646","ios":"levelo://app?vid=2fe6fe7c-0d28-4676-9010-5d0635a4a646"},"vehicle_type_id":"4","last_reported":1746451309,"current_range_meters":19200,"station_id":"ce4bgkh2rcd13ifvqbl0","pricing_plan_id":"cebpf4jnsgd1na2vs0mg"},{"bike_id":"648bcca4-2ffb-4da2-815c-29cf7bc3fad5","system_id":"levelo_inurba_marseille","lat":43.29916,"lon":5.374605,"is_reserved":false,"is_disabled":false,"rental_uris":{"android":"levelo://app?vid=648bcca4-2ffb-4da2-815c-29cf7bc3fad5","ios":"levelo://app?vid=648bcca4-2ffb-4da2-815c-29cf7bc3fad5"},"vehicle_type_id":"4","last_reported":1746451309,"current_range_meters":18800,"station_id":"ce4bgjh2rcd13ifvqbg0","pricing_plan_id":"cebpf4jnsgd1na2vs0mg"},{"bike_id":"6451d95d-ec5f-43aa-8294-54db2a32cd75","system_id":"levelo_inurba_marseille","lat":43.25724,"lon":5.41105,"is_reserved":false,"is_disabled":false,"rental_uris":{"android":"levelo://app?vid=6451d95d-ec5f-43aa-8294-54db2a32cd75","ios":"levelo://app?vid=6451d95d-ec5f-43aa-8294-54db2a32cd75"},"vehicle_type_id":"4","last_reported":1746451309,"current_range_meters":19200,"station_id":"ce4bhkp2rcd13ifvqgd0","pricing_plan_id":"cebpf4jnsgd1na2vs0mg"},{"bike_id":"79df2d56-8431-46eb-b7c1-70def8f2661b","system_id":"levelo_inurba_marseille","lat":43.29235,"lon":5.36059,"is_reserved":false,"is_disabled":false,"rental_uris":{"android":"levelo://app?vid=79df2d56-8431-46eb-b7c1-70def8f2661b","ios":"levelo://app?vid=79df2d56-8431-46eb-b7c1-70def8f2661b"},"vehicle_type_id":"4","last_reported":1746451309,"current_range_meters":20400,"station_id":"","pricing_plan_id":"cebpf4jnsgd1na2vs0mg"},{"bike_id":"a327ed7c-cb3d-44b1-bb3d-7951cd226f01","system_id":"levelo_inurba_marseille","lat":43.293396,"lon":5.371296,"is_reserved":false,"is_disabled":false,"rental_uris":{"android":"levelo://app?vid=a327ed7c-cb3d-44b1-bb3d-7951cd226f01","ios":"levelo://app?vid=a327ed7c-cb3d-44b1-bb3d-7951cd226f01"},"vehicle_type_id":"4","last_reported":1746451309,"current_range_meters":19600,"station_id":"","pricing_plan_id":"cebpf4jnsgd1na2vs0mg"},{"bike_id":"2c1818b5-aab3-4ef8-b1ca-d3af6200ed13","system_id":"levelo_inurba_marseille","lat":43.2119,"lon":5.35072,"is_reserved":false,"is_disabled":false,"rental_uris":{"android":"levelo://app?vid=2c1818b5-aab3-4ef8-b1ca-d3af6200ed13","ios":"levelo://app?vid=2c1818b5-aab3-4ef8-b1ca-d3af6200ed13"},"vehicle_type_id":"4","last_reported":1746451309,"current_range_meters":19600,"station_id":"st_cvj6sg6p6f1abm77japg","pricing_plan_id":"cebpf4jnsgd1na2vs0mg"},{"bike_id":"ede0c770-4c98-48de-ac39-7e5cd5e2a819","system_id":"levelo_inurba_marseille","lat":43.26563,"lon":5.39007,"is_reserved":false,"is_disabled":false,"rental_uris":{"android":"levelo://app?vid=ede0c770-4c98-48de-ac39-7e5cd5e2a819","ios":"levelo://app?vid=ede0c770-4c98-48de-ac39-7e5cd5e2a819"},"vehicle_type_id":"4","last_reported":1746451309,"current_range_meters":19600,"station_id":"ce4bhe12rcd13ifvqf30","pricing_plan_id":"cebpf4jnsgd1na2vs0mg"},{"bike_id":"57c882b2-2b7d-4924-a232-80d39274d75e","system_id":"levelo_inurba_marseille","lat":43.231492,"lon":5.437151,"is_reserved":false,"is_disabled":false,"rental_uris":{"android":"levelo://app?vid=57c882b2-2b7d-4924-a232-80d39274d75e","ios":"levelo://app?vid=57c882b2-2b7d-4924-a232-80d39274d75e"},"vehicle_type_id":"4","last_reported":1746451309,"current_range_meters":20000,"station_id":"ce4bhmp2rcd13ifvqgog","pricing_plan_id":"cebpf4jnsgd1na2vs0mg"},{"bike_id":"7596202e-aaee-44ce-83cf-f4116fb7f816","system_id":"levelo_inurba_marseille","lat":43.29784,"lon":5.39348,"is_reserved":false,"is_disabled":false,"rental_uris":{"android":"levelo://app?vid=7596202e-aaee-44ce-83cf-f4116fb7f816","ios":"levelo://app?vid=7596202e-aaee-44ce-83cf-f4116fb7f816"},"vehicle_type_id":"4","last_reported":1746451309,"current_range_meters":20000,"station_id":"chh1huq6cuj3fo74tm60","pricing_plan_id":"cebpf4jnsgd1na2vs0mg"},{"bike_id":"13d72c90-097d-44e3-a161-c92142027aeb","system_id":"levelo_inurba_marseille","lat":43.32095,"lon":5.36768,"is_reserved":false,"is_disabled":false,"rental_uris":{"android":"levelo://app?vid=13d72c90-097d-44e3-a161-c92142027aeb","ios":"levelo://app?vid=13d72c90-097d-44e3-a161-c92142027aeb"},"vehicle_type_id":"4","last_reported":1746451309,"current_range_meters":20000,"station_id":"ce4bhrh2rcd13ifvqhug","pricing_plan_id":"cebpf4jnsgd1na2vs0mg"},{"bike_id":"5597c73d-4ba4-4232-a05a-d68d84b6991f","system_id":"levelo_inurba_marseille","lat":43.27489,"lon":5.42441,"is_reserved":false,"is_disabled":true,"rental_uris":{"android":"levelo://app?vid=5597c73d-4ba4-4232-a05a-d68d84b6991f","ios":"levelo://app?vid=5597c73d-4ba4-4232-a05a-d68d84b6991f"},"vehicle_type_id":"4","last_reported":1746451309,"current_range_meters":20000,"station_id":"ce4bhn92rcd13ifvqgrg","pricing_plan_id":"cebpf4jnsgd1na2vs0mg"},{"bike_id":"49e6f1a0-3667-46b6-bb46-ba8d71b1df96","system_id":"levelo_inurba_marseille","lat":43.21749,"lon":5.3459,"is_reserved":false,"is_disabled":false,"rental_uris":{"android":"levelo://app?vid=49e6f1a0-3667-46b6-bb46-ba8d71b1df96","ios":"levelo://app?vid=49e6f1a0-3667-46b6-bb46-ba8d71b1df96"},"vehicle_type_id":"4","last_reported":1746451309,"current_range_meters":20400,"station_id":"st_cvj6r9ubvosntc0bgbag","pricing_plan_id":"cebpf4jnsgd1na2vs0mg"},{"bike_id":"ce501e31-824a-4a40-b77c-2f255a8b043a","system_id":"levelo_inurba_marseille","lat":43.2997,"lon":5.38497,"is_reserved":false,"is_disabled":false,"rental_uris":{"android":"levelo://app?vid=ce501e31-824a-4a40-b77c-2f255a8b043a","ios":"levelo://app?vid=ce501e31-824a-4a40-b77c-2f255a8b043a"},"vehicle_type_id":"4","last_reported":1746451309,"current_range_meters":20400,"station_id":"ce4bgj92rcd13ifvqbd0","pricing_plan_id":"cebpf4jnsgd1na2vs0mg"},{"bike_id":"d6326116-e55f-4e20-b73c-ce28235afd33","system_id":"levelo_inurba_marseille","lat":43.30537,"lon":5.36539,"is_reserved":false,"is_disabled":false,"rental_uris":{"android":"levelo://app?vid=d6326116-e55f-4e20-b73c-ce28235afd33","ios":"levelo://app?vid=d6326116-e55f-4e20-b73c-ce28235afd33"},"vehicle_type_id":"4","last_reported":1746451309,"current_range_meters":20400,"station_id":"ce4bgs12rcd13ifvqcag","pricing_plan_id":"cebpf4jnsgd1na2vs0mg"},{"bike_id":"809816e4-d385-4a95-8a65-f69f9efd157d","system_id":"levelo_inurba_marseille","lat":43.28831,"lon":5.35848,"is_reserved":false,"is_disabled":false,"rental_uris":{"android":"levelo://app?vid=809816e4-d385-4a95-8a65-f69f9efd157d","ios":"levelo://app?vid=809816e4-d385-4a95-8a65-f69f9efd157d"},"vehicle_type_id":"4","last_reported":1746451309,"current_range_meters":20400,"station_id":"ce4bhb12rcd13ifvqem0","pricing_plan_id":"cebpf4jnsgd1na2vs0mg"},{"bike_id":"91ccb5f4-40f8-49d9-8d5f-0a4465869c98","system_id":"levelo_inurba_marseille","lat":43.23196,"lon":5.35551,"is_reserved":false,"is_disabled":false,"rental_uris":{"android":"levelo://app?vid=91ccb5f4-40f8-49d9-8d5f-0a4465869c98","ios":"levelo://app?vid=91ccb5f4-40f8-49d9-8d5f-0a4465869c98"},"vehicle_type_id":"4","last_reported":1746451309,"current_range_meters":20400,"station_id":"ce4bhu92rcd13ifvqi70","pricing_plan_id":"cebpf4jnsgd1na2vs0mg"},{"bike_id":"9ec4e9e2-f5ae-40d0-a938-b7688a9b7157","system_id":"levelo_inurba_marseille","lat":43.27609,"lon":5.36108,"is_reserved":false,"is_disabled":false,"rental_uris":{"android":"levelo://app?vid=9ec4e9e2-f5ae-40d0-a938-b7688a9b7157","ios":"levelo://app?vid=9ec4e9e2-f5ae-40d0-a938-b7688a9b7157"},"vehicle_type_id":"4","last_reported":1746451309,"current_range_meters":20400,"station_id":"ce4bgj92rcd13ifvqbe0","pricing_plan_id":"cebpf4jnsgd1na2vs0mg"},{"bike_id":"a2da58c1-2339-443c-9ea1-65f7b1d58d47","system_id":"levelo_inurba_marseille","lat":43.30878,"lon":5.37193,"is_reserved":false,"is_disabled":false,"rental_uris":{"android":"levelo://app?vid=a2da58c1-2339-443c-9ea1-65f7b1d58d47","ios":"levelo://app?vid=a2da58c1-2339-443c-9ea1-65f7b1d58d47"},"vehicle_type_id":"4","last_reported":1746451309,"current_range_meters":20400,"station_id":"ce4bguh2rcd13ifvqckg","pricing_plan_id":"cebpf4jnsgd1na2vs0mg"},{"bike_id":"ace02755-d1b2-478e-8071-ea955a3fd6dd","system_id":"levelo_inurba_marseille","lat":43.295592,"lon":5.422906,"is_reserved":false,"is_disabled":false,"rental_uris":{"android":"levelo://app?vid=ace02755-d1b2-478e-8071-ea955a3fd6dd","ios":"levelo://app?vid=ace02755-d1b2-478e-8071-ea955a3fd6dd"},"vehicle_type_id":"4","last_reported":1746451309,"current_range_meters":20800,"station_id":"ce4bhph2rcd13ifvqhdg","pricing_plan_id":"cebpf4jnsgd1na2vs0mg"},{"bike_id":"0b4e07c8-93da-4fbe-9000-1c0e1bc66f26","system_id":"levelo_inurba_marseille","lat":43.31112,"lon":5.37763,"is_reserved":false,"is_disabled":false,"rental_uris":{"android":"levelo://app?vid=0b4e07c8-93da-4fbe-9000-1c0e1bc66f26","ios":"levelo://app?vid=0b4e07c8-93da-4fbe-9000-1c0e1bc66f26"},"vehicle_type_id":"4","last_reported":1746451309,"current_range_meters":20800,"station_id":"ce4bgt92rcd13ifvqcg0","pricing_plan_id":"cebpf4jnsgd1na2vs0mg"},{"bike_id":"6983b309-f30a-4a98-b53b-2dda7c6ed5c3","system_id":"levelo_inurba_marseille","lat":43.32518,"lon":5.4146,"is_reserved":false,"is_disabled":false,"rental_uris":{"android":"levelo://app?vid=6983b309-f30a-4a98-b53b-2dda7c6ed5c3","ios":"levelo://app?vid=6983b309-f30a-4a98-b53b-2dda7c6ed5c3"},"vehicle_type_id":"4","last_reported":1746451309,"current_range_meters":20800,"station_id":"ce4bhq12rcd13ifvqhhg","pricing_plan_id":"cebpf4jnsgd1na2vs0mg"},{"bike_id":"44496384-61d0-4fad-99d2-b003c939d4ec","system_id":"levelo_inurba_marseille","lat":43.30943,"lon":5.37199,"is_reserved":false,"is_disabled":false,"rental_uris":{"android":"levelo://app?vid=44496384-61d0-4fad-99d2-b003c939d4ec","ios":"levelo://app?vid=44496384-61d0-4fad-99d2-b003c939d4ec"},"vehicle_type_id":"4","last_reported":1746451309,"current_range_meters":20800,"station_id":"ce4bguh2rcd13ifvqckg","pricing_plan_id":"cebpf4jnsgd1na2vs0mg"},{"bike_id":"52d3e2ca-e216-4fd4-a95b-543c00b01230","system_id":"levelo_inurba_marseille","lat":43.30539,"lon":5.36564,"is_reserved":false,"is_disabled":false,"rental_uris":{"android":"levelo://app?vid=52d3e2ca-e216-4fd4-a95b-543c00b01230","ios":"levelo://app?vid=52d3e2ca-e216-4fd4-a95b-543c00b01230"},"vehicle_type_id":"4","last_reported":1746451309,"current_range_meters":20800,"station_id":"ce4bgs12rcd13ifvqcag","pricing_plan_id":"cebpf4jnsgd1na2vs0mg"},{"bike_id":"87470c34-0138-4fc5-962a-73384fac1d10","system_id":"levelo_inurba_marseille","lat":43.305278,"lon":5.367075,"is_reserved":false,"is_disabled":false,"rental_uris":{"android":"levelo://app?vid=87470c34-0138-4fc5-962a-73384fac1d10","ios":"levelo://app?vid=87470c34-0138-4fc5-962a-73384fac1d10"},"vehicle_type_id":"4","last_reported":1746451309,"current_range_meters":20800,"station_id":"ce4bgrp2rcd13ifvqc9g","pricing_plan_id":"cebpf4jnsgd1na2vs0mg"},{"bike_id":"86284376-eb45-4b2e-8470-ff64606c8590","system_id":"levelo_inurba_marseille","lat":43.21746,"lon":5.34603,"is_reserved":false,"is_disabled":false,"rental_uris":{"android":"levelo://app?vid=86284376-eb45-4b2e-8470-ff64606c8590","ios":"levelo://app?vid=86284376-eb45-4b2e-8470-ff64606c8590"},"vehicle_type_id":"4","last_reported":1746451309,"current_range_meters":20800,"station_id":"st_cvj6r9ubvosntc0bgbag","pricing_plan_id":"cebpf4jnsgd1na2vs0mg"},{"bike_id":"dd9b774c-3cf1-4473-ae63-2839a5f969d4","system_id":"levelo_inurba_marseille","lat":43.29566,"lon":5.37521,"is_reserved":false,"is_disabled":false,"rental_uris":{"android":"levelo://app?vid=dd9b774c-3cf1-4473-ae63-2839a5f969d4","ios":"levelo://app?vid=dd9b774c-3cf1-4473-ae63-2839a5f969d4"},"vehicle_type_id":"4","last_reported":1746451309,"current_range_meters":20000,"station_id":"ce4bgh92rcd13ifvqb50","pricing_plan_id":"cebpf4jnsgd1na2vs0mg"},{"bike_id":"79ed5dd0-4907-4b20-9ae6-d33168ff0fa6","system_id":"levelo_inurba_marseille","lat":43.27067,"lon":5.42276,"is_reserved":false,"is_disabled":false,"rental_uris":{"android":"levelo://app?vid=79ed5dd0-4907-4b20-9ae6-d33168ff0fa6","ios":"levelo://app?vid=79ed5dd0-4907-4b20-9ae6-d33168ff0fa6"},"vehicle_type_id":"4","last_reported":1746451309,"current_range_meters":21600,"station_id":"ce4bhk92rcd13ifvqgb0","pricing_plan_id":"cebpf4jnsgd1na2vs0mg"},{"bike_id":"b56dc9f6-160c-4a29-8167-123358570640","system_id":"levelo_inurba_marseille","lat":43.28607,"lon":5.37061,"is_reserved":false,"is_disabled":false,"rental_uris":{"android":"levelo://app?vid=b56dc9f6-160c-4a29-8167-123358570640","ios":"levelo://app?vid=b56dc9f6-160c-4a29-8167-123358570640"},"vehicle_type_id":"4","last_reported":1746451309,"current_range_meters":22400,"station_id":"ce4bht12rcd13ifvqi60","pricing_plan_id":"cebpf4jnsgd1na2vs0mg"},{"bike_id":"11c1a8d8-9de4-4aef-b60f-d1afbfdd743f","system_id":"levelo_inurba_marseille","lat":43.29031,"lon":5.39967,"is_reserved":false,"is_disabled":false,"rental_uris":{"android":"levelo://app?vid=11c1a8d8-9de4-4aef-b60f-d1afbfdd743f","ios":"levelo://app?vid=11c1a8d8-9de4-4aef-b60f-d1afbfdd743f"},"vehicle_type_id":"4","last_reported":1746451309,"current_range_meters":20800,"station_id":"ce4bh392rcd13ifvqdm0","pricing_plan_id":"cebpf4jnsgd1na2vs0mg"},{"bike_id":"43c5485d-06ed-451f-bc1f-812a0afc8c31","system_id":"levelo_inurba_marseille","lat":43.29624,"lon":5.36081,"is_reserved":false,"is_disabled":false,"rental_uris":{"android":"levelo://app?vid=43c5485d-06ed-451f-bc1f-812a0afc8c31","ios":"levelo://app?vid=43c5485d-06ed-451f-bc1f-812a0afc8c31"},"vehicle_type_id":"4","last_reported":1746451309,"current_range_meters":21600,"station_id":"","pricing_plan_id":"cebpf4jnsgd1na2vs0mg"},{"bike_id":"01b00d49-a8e8-4de9-b0c3-2699592f789c","system_id":"levelo_inurba_marseille","lat":43.3014,"lon":5.37418,"is_reserved":false,"is_disabled":false,"rental_uris":{"android":"levelo://app?vid=01b00d49-a8e8-4de9-b0c3-2699592f789c","ios":"levelo://app?vid=01b00d49-a8e8-4de9-b0c3-2699592f789c"},"vehicle_type_id":"4","last_reported":1746451309,"current_range_meters":22000,"station_id":"ce4bgs92rcd13ifvqcc0","pricing_plan_id":"cebpf4jnsgd1na2vs0mg"},{"bike_id":"575823c4-c28f-4b2e-81c7-741c7be56238","system_id":"levelo_inurba_marseille","lat":43.30534,"lon":5.36546,"is_reserved":false,"is_disabled":false,"rental_uris":{"android":"levelo://app?vid=575823c4-c28f-4b2e-81c7-741c7be56238","ios":"levelo://app?vid=575823c4-c28f-4b2e-81c7-741c7be56238"},"vehicle_type_id":"4","last_reported":1746451309,"current_range_meters":22000,"station_id":"ce4bgs12rcd13ifvqcag","pricing_plan_id":"cebpf4jnsgd1na2vs0mg"},{"bike_id":"6e2ab2fb-d1b8-4d15-bbc7-b077fd3bb059","system_id":"levelo_inurba_marseille","lat":43.32362,"lon":5.36759,"is_reserved":false,"is_disabled":false,"rental_uris":{"android":"levelo://app?vid=6e2ab2fb-d1b8-4d15-bbc7-b077fd3bb059","ios":"levelo://app?vid=6e2ab2fb-d1b8-4d15-bbc7-b077fd3bb059"},"vehicle_type_id":"4","last_reported":1746451309,"current_range_meters":22000,"station_id":"ce4bhsh2rcd13ifvqi2g","pricing_plan_id":"cebpf4jnsgd1na2vs0mg"},{"bike_id":"45488fcc-1a87-4f5b-ba71-ba4e9ad7f2bd","system_id":"levelo_inurba_marseille","lat":43.29547,"lon":5.4226,"is_reserved":false,"is_disabled":false,"rental_uris":{"android":"levelo://app?vid=45488fcc-1a87-4f5b-ba71-ba4e9ad7f2bd","ios":"levelo://app?vid=45488fcc-1a87-4f5b-ba71-ba4e9ad7f2bd"},"vehicle_type_id":"4","last_reported":1746451309,"current_range_meters":21600,"station_id":"ce4bhph2rcd13ifvqhdg","pricing_plan_id":"cebpf4jnsgd1na2vs0mg"},{"bike_id":"6076519d-9e56-4116-ac3f-cf1b55b1f768","system_id":"levelo_inurba_marseille","lat":43.24163,"lon":5.39718,"is_reserved":false,"is_disabled":false,"rental_uris":{"android":"levelo://app?vid=6076519d-9e56-4116-ac3f-cf1b55b1f768","ios":"levelo://app?vid=6076519d-9e56-4116-ac3f-cf1b55b1f768"},"vehicle_type_id":"4","last_reported":1746451309,"current_range_meters":22000,"station_id":"ce4bhn12rcd13ifvqgpg","pricing_plan_id":"cebpf4jnsgd1na2vs0mg"},{"bike_id":"e9ac8fb6-b954-4dbb-8252-d52ff72d86bf","system_id":"levelo_inurba_marseille","lat":43.26194,"lon":5.37925,"is_reserved":false,"is_disabled":false,"rental_uris":{"android":"levelo://app?vid=e9ac8fb6-b954-4dbb-8252-d52ff72d86bf","ios":"levelo://app?vid=e9ac8fb6-b954-4dbb-8252-d52ff72d86bf"},"vehicle_type_id":"4","last_reported":1746451309,"current_range_meters":22000,"station_id":"ce4bhjp2rcd13ifvqg90","pricing_plan_id":"cebpf4jnsgd1na2vs0mg"},{"bike_id":"043bb02d-63b3-4df6-9b1b-751198075c55","system_id":"levelo_inurba_marseille","lat":43.3019,"lon":5.3661,"is_reserved":false,"is_disabled":false,"rental_uris":{"android":"levelo://app?vid=043bb02d-63b3-4df6-9b1b-751198075c55","ios":"levelo://app?vid=043bb02d-63b3-4df6-9b1b-751198075c55"},"vehicle_type_id":"4","last_reported":1746451309,"current_range_meters":22800,"station_id":"ce4bgrh2rcd13ifvqc8g","pricing_plan_id":"cebpf4jnsgd1na2vs0mg"},{"bike_id":"8514f9d6-b38c-4cc5-9c2c-62f80bea6c09","system_id":"levelo_inurba_marseille","lat":43.27942,"lon":5.41038,"is_reserved":false,"is_disabled":false,"rental_uris":{"android":"levelo://app?vid=8514f9d6-b38c-4cc5-9c2c-62f80bea6c09","ios":"levelo://app?vid=8514f9d6-b38c-4cc5-9c2c-62f80bea6c09"},"vehicle_type_id":"4","last_reported":1746451309,"current_range_meters":22800,"station_id":"ce4bhnp2rcd13ifvqh0g","pricing_plan_id":"cebpf4jnsgd1na2vs0mg"},{"bike_id":"f4f6f1b7-8fd6-4ed6-bf5e-e0ce83bb46bb","system_id":"levelo_inurba_marseille","lat":43.259183,"lon":5.409013,"is_reserved":false,"is_disabled":false,"rental_uris":{"android":"levelo://app?vid=f4f6f1b7-8fd6-4ed6-bf5e-e0ce83bb46bb","ios":"levelo://app?vid=f4f6f1b7-8fd6-4ed6-bf5e-e0ce83bb46bb"},"vehicle_type_id":"4","last_reported":1746451309,"current_range_meters":22800,"station_id":"ce4bhm92rcd13ifvqglg","pricing_plan_id":"cebpf4jnsgd1na2vs0mg"},{"bike_id":"1d93dc16-0832-499f-9386-5e2a1697fc1a","system_id":"levelo_inurba_marseille","lat":43.29804,"lon":5.37369,"is_reserved":false,"is_disabled":false,"rental_uris":{"android":"levelo://app?vid=1d93dc16-0832-499f-9386-5e2a1697fc1a","ios":"levelo://app?vid=1d93dc16-0832-499f-9386-5e2a1697fc1a"},"vehicle_type_id":"4","last_reported":1746451309,"current_range_meters":23200,"station_id":"","pricing_plan_id":"cebpf4jnsgd1na2vs0mg"},{"bike_id":"85ccadc3-5303-4453-8803-42087970f786","system_id":"levelo_inurba_marseille","lat":43.27576,"lon":5.38411,"is_reserved":false,"is_disabled":false,"rental_uris":{"android":"levelo://app?vid=85ccadc3-5303-4453-8803-42087970f786","ios":"levelo://app?vid=85ccadc3-5303-4453-8803-42087970f786"},"vehicle_type_id":"4","last_reported":1746451309,"current_range_meters":22400,"station_id":"ce4bhh92rcd13ifvqfi0","pricing_plan_id":"cebpf4jnsgd1na2vs0mg"},{"bike_id":"ac700e2e-c129-4f82-a3c3-f628077933a6","system_id":"levelo_inurba_marseille","lat":43.211925,"lon":5.350739,"is_reserved":false,"is_disabled":false,"rental_uris":{"android":"levelo://app?vid=ac700e2e-c129-4f82-a3c3-f628077933a6","ios":"levelo://app?vid=ac700e2e-c129-4f82-a3c3-f628077933a6"},"vehicle_type_id":"4","last_reported":1746451309,"current_range_meters":22800,"station_id":"st_cvj6sg6p6f1abm77japg","pricing_plan_id":"cebpf4jnsgd1na2vs0mg"},{"bike_id":"c09ec8b5-e71e-421c-aee6-d1070ef6df32","system_id":"levelo_inurba_marseille","lat":43.2927,"lon":5.38432,"is_reserved":false,"is_disabled":false,"rental_uris":{"android":"levelo://app?vid=c09ec8b5-e71e-421c-aee6-d1070ef6df32","ios":"levelo://app?vid=c09ec8b5-e71e-421c-aee6-d1070ef6df32"},"vehicle_type_id":"4","last_reported":1746451309,"current_range_meters":22800,"station_id":"ce4bh692rcd13ifvqea0","pricing_plan_id":"cebpf4jnsgd1na2vs0mg"},{"bike_id":"cde5e2c8-44fb-42ca-b2c3-c80fe6a6048f","system_id":"levelo_inurba_marseille","lat":43.3127,"lon":5.40169,"is_reserved":false,"is_disabled":false,"rental_uris":{"android":"levelo://app?vid=cde5e2c8-44fb-42ca-b2c3-c80fe6a6048f","ios":"levelo://app?vid=cde5e2c8-44fb-42ca-b2c3-c80fe6a6048f"},"vehicle_type_id":"4","last_reported":1746451309,"current_range_meters":22400,"station_id":"ce4bh092rcd13ifvqd30","pricing_plan_id":"cebpf4jnsgd1na2vs0mg"},{"bike_id":"3bbe85d0-34e2-4e13-94dc-905927deef64","system_id":"levelo_inurba_marseille","lat":43.21737,"lon":5.34605,"is_reserved":false,"is_disabled":false,"rental_uris":{"android":"levelo://app?vid=3bbe85d0-34e2-4e13-94dc-905927deef64","ios":"levelo://app?vid=3bbe85d0-34e2-4e13-94dc-905927deef64"},"vehicle_type_id":"4","last_reported":1746451309,"current_range_meters":22800,"station_id":"st_cvj6r9ubvosntc0bgbag","pricing_plan_id":"cebpf4jnsgd1na2vs0mg"},{"bike_id":"810f38d2-113f-4323-8851-c3a0ca102320","system_id":"levelo_inurba_marseille","lat":43.2315,"lon":5.43708,"is_reserved":false,"is_disabled":false,"rental_uris":{"android":"levelo://app?vid=810f38d2-113f-4323-8851-c3a0ca102320","ios":"levelo://app?vid=810f38d2-113f-4323-8851-c3a0ca102320"},"vehicle_type_id":"4","last_reported":1746451309,"current_range_meters":22400,"station_id":"ce4bhmp2rcd13ifvqgog","pricing_plan_id":"cebpf4jnsgd1na2vs0mg"},{"bike_id":"a5282e01-c144-4546-bc32-08cfde33aa76","system_id":"levelo_inurba_marseille","lat":43.28446,"lon":5.39185,"is_reserved":false,"is_disabled":true,"rental_uris":{"android":"levelo://app?vid=a5282e01-c144-4546-bc32-08cfde33aa76","ios":"levelo://app?vid=a5282e01-c144-4546-bc32-08cfde33aa76"},"vehicle_type_id":"4","last_reported":1746451309,"current_range_meters":23200,"station_id":"ce4bhoh2rcd13ifvqh5g","pricing_plan_id":"cebpf4jnsgd1na2vs0mg"},{"bike_id":"3c1ee211-d88a-4471-8cec-e7a5e0e53c36","system_id":"levelo_inurba_marseille","lat":43.29004,"lon":5.35612,"is_reserved":false,"is_disabled":false,"rental_uris":{"android":"levelo://app?vid=3c1ee211-d88a-4471-8cec-e7a5e0e53c36","ios":"levelo://app?vid=3c1ee211-d88a-4471-8cec-e7a5e0e53c36"},"vehicle_type_id":"4","last_reported":1746451309,"current_range_meters":23200,"station_id":"ce4bhb92rcd13ifvqen0","pricing_plan_id":"cebpf4jnsgd1na2vs0mg"},{"bike_id":"e9d9a1c2-5247-4c32-9e8f-9cccfd62079b","system_id":"levelo_inurba_marseille","lat":43.295663,"lon":5.367291,"is_reserved":false,"is_disabled":false,"rental_uris":{"android":"levelo://app?vid=e9d9a1c2-5247-4c32-9e8f-9cccfd62079b","ios":"levelo://app?vid=e9d9a1c2-5247-4c32-9e8f-9cccfd62079b"},"vehicle_type_id":"4","last_reported":1746451309,"current_range_meters":23200,"station_id":"ce4bgph2rcd13ifvqc2g","pricing_plan_id":"cebpf4jnsgd1na2vs0mg"},{"bike_id":"5498a71e-2141-4151-9a3c-3e72abb928a1","system_id":"levelo_inurba_marseille","lat":43.30271,"lon":5.37699,"is_reserved":false,"is_disabled":false,"rental_uris":{"android":"levelo://app?vid=5498a71e-2141-4151-9a3c-3e72abb928a1","ios":"levelo://app?vid=5498a71e-2141-4151-9a3c-3e72abb928a1"},"vehicle_type_id":"4","last_reported":1746451309,"current_range_meters":23200,"station_id":"ce4bguh2rcd13ifvqcj0","pricing_plan_id":"cebpf4jnsgd1na2vs0mg"},{"bike_id":"f3c2ae2d-0ae8-4978-9125-4ce618f8c7aa","system_id":"levelo_inurba_marseille","lat":43.24181,"lon":5.39726,"is_reserved":false,"is_disabled":false,"rental_uris":{"android":"levelo://app?vid=f3c2ae2d-0ae8-4978-9125-4ce618f8c7aa","ios":"levelo://app?vid=f3c2ae2d-0ae8-4978-9125-4ce618f8c7aa"},"vehicle_type_id":"4","last_reported":1746451309,"current_range_meters":23200,"station_id":"ce4bhn12rcd13ifvqgpg","pricing_plan_id":"cebpf4jnsgd1na2vs0mg"},{"bike_id":"b4216838-733b-46cd-aae7-8693e0287a61","system_id":"levelo_inurba_marseille","lat":43.22924,"lon":5.35369,"is_reserved":false,"is_disabled":false,"rental_uris":{"android":"levelo://app?vid=b4216838-733b-46cd-aae7-8693e0287a61","ios":"levelo://app?vid=b4216838-733b-46cd-aae7-8693e0287a61"},"vehicle_type_id":"4","last_reported":1746451309,"current_range_meters":23200,"station_id":"cpo3532slgdg3j2ikp40","pricing_plan_id":"cebpf4jnsgd1na2vs0mg"},{"bike_id":"b05aecf1-4639-4323-bdd3-5eae8019fd79","system_id":"levelo_inurba_marseille","lat":43.30807,"lon":5.381392,"is_reserved":false,"is_disabled":false,"rental_uris":{"android":"levelo://app?vid=b05aecf1-4639-4323-bdd3-5eae8019fd79","ios":"levelo://app?vid=b05aecf1-4639-4323-bdd3-5eae8019fd79"},"vehicle_type_id":"4","last_reported":1746451309,"current_range_meters":23200,"station_id":"ce4bgt12rcd13ifvqce0","pricing_plan_id":"cebpf4jnsgd1na2vs0mg"},{"bike_id":"8fa70930-3d89-410a-8a0d-ae58e85113d9","system_id":"levelo_inurba_marseille","lat":43.33777,"lon":5.374897,"is_reserved":false,"is_disabled":false,"rental_uris":{"android":"levelo://app?vid=8fa70930-3d89-410a-8a0d-ae58e85113d9","ios":"levelo://app?vid=8fa70930-3d89-410a-8a0d-ae58e85113d9"},"vehicle_type_id":"4","last_reported":1746451309,"current_range_meters":24000,"station_id":"","pricing_plan_id":"cebpf4jnsgd1na2vs0mg"},{"bike_id":"3e48f292-180d-4f05-bd4e-56ca479711ea","system_id":"levelo_inurba_marseille","lat":43.33727,"lon":5.39175,"is_reserved":false,"is_disabled":false,"rental_uris":{"android":"levelo://app?vid=3e48f292-180d-4f05-bd4e-56ca479711ea","ios":"levelo://app?vid=3e48f292-180d-4f05-bd4e-56ca479711ea"},"vehicle_type_id":"4","last_reported":1746451309,"current_range_meters":23200,"station_id":"ce4bhr92rcd13ifvqhsg","pricing_plan_id":"cebpf4jnsgd1na2vs0mg"},{"bike_id":"7ccc233b-f80b-4b3d-8fdf-3361b298bb38","system_id":"levelo_inurba_marseille","lat":43.2418,"lon":5.39728,"is_reserved":false,"is_disabled":false,"rental_uris":{"android":"levelo://app?vid=7ccc233b-f80b-4b3d-8fdf-3361b298bb38","ios":"levelo://app?vid=7ccc233b-f80b-4b3d-8fdf-3361b298bb38"},"vehicle_type_id":"4","last_reported":1746451309,"current_range_meters":24000,"station_id":"ce4bhn12rcd13ifvqgpg","pricing_plan_id":"cebpf4jnsgd1na2vs0mg"},{"bike_id":"5535cc83-b87a-46ff-89a8-e492373b81c0","system_id":"levelo_inurba_marseille","lat":43.30466,"lon":5.379159,"is_reserved":false,"is_disabled":false,"rental_uris":{"android":"levelo://app?vid=5535cc83-b87a-46ff-89a8-e492373b81c0","ios":"levelo://app?vid=5535cc83-b87a-46ff-89a8-e492373b81c0"},"vehicle_type_id":"4","last_reported":1746451309,"current_range_meters":24000,"station_id":"ce4bgup2rcd13ifvqcn0","pricing_plan_id":"cebpf4jnsgd1na2vs0mg"},{"bike_id":"1d80598a-0996-47bb-996c-589c32ceb57b","system_id":"levelo_inurba_marseille","lat":43.230687,"lon":5.354936,"is_reserved":false,"is_disabled":false,"rental_uris":{"android":"levelo://app?vid=1d80598a-0996-47bb-996c-589c32ceb57b","ios":"levelo://app?vid=1d80598a-0996-47bb-996c-589c32ceb57b"},"vehicle_type_id":"4","last_reported":1746451309,"current_range_meters":24000,"station_id":"cpo3342slgdg3j2ifvpg","pricing_plan_id":"cebpf4jnsgd1na2vs0mg"},{"bike_id":"cb595213-e809-4a53-8251-8a25651399ab","system_id":"levelo_inurba_marseille","lat":43.29182,"lon":5.39321,"is_reserved":false,"is_disabled":false,"rental_uris":{"android":"levelo://app?vid=cb595213-e809-4a53-8251-8a25651399ab","ios":"levelo://app?vid=cb595213-e809-4a53-8251-8a25651399ab"},"vehicle_type_id":"4","last_reported":1746451309,"current_range_meters":23200,"station_id":"ce4bh192rcd13ifvqdd0","pricing_plan_id":"cebpf4jnsgd1na2vs0mg"},{"bike_id":"76b2e26a-d1ed-47f3-a49b-06681f98f27f","system_id":"levelo_inurba_marseille","lat":43.23196,"lon":5.35556,"is_reserved":false,"is_disabled":false,"rental_uris":{"android":"levelo://app?vid=76b2e26a-d1ed-47f3-a49b-06681f98f27f","ios":"levelo://app?vid=76b2e26a-d1ed-47f3-a49b-06681f98f27f"},"vehicle_type_id":"4","last_reported":1746451309,"current_range_meters":24000,"station_id":"ce4bhu92rcd13ifvqi70","pricing_plan_id":"cebpf4jnsgd1na2vs0mg"},{"bike_id":"e3968e2d-813e-4ed9-8ec0-5fdf2be0a70b","system_id":"levelo_inurba_marseille","lat":43.28145,"lon":5.42632,"is_reserved":false,"is_disabled":false,"rental_uris":{"android":"levelo://app?vid=e3968e2d-813e-4ed9-8ec0-5fdf2be0a70b","ios":"levelo://app?vid=e3968e2d-813e-4ed9-8ec0-5fdf2be0a70b"},"vehicle_type_id":"4","last_reported":1746451309,"current_range_meters":24000,"station_id":"ce4bhnh2rcd13ifvqgug","pricing_plan_id":"cebpf4jnsgd1na2vs0mg"},{"bike_id":"2fa0b816-7ec6-4882-9376-089f3a9e406c","system_id":"levelo_inurba_marseille","lat":43.33755,"lon":5.37482,"is_reserved":false,"is_disabled":false,"rental_uris":{"android":"levelo://app?vid=2fa0b816-7ec6-4882-9376-089f3a9e406c","ios":"levelo://app?vid=2fa0b816-7ec6-4882-9376-089f3a9e406c"},"vehicle_type_id":"4","last_reported":1746451309,"current_range_meters":24000,"station_id":"","pricing_plan_id":"cebpf4jnsgd1na2vs0mg"},{"bike_id":"2d857db6-9a43-4ccb-96fd-bc443be7d275","system_id":"levelo_inurba_marseille","lat":43.29005,"lon":5.35607,"is_reserved":false,"is_disabled":false,"rental_uris":{"android":"levelo://app?vid=2d857db6-9a43-4ccb-96fd-bc443be7d275","ios":"levelo://app?vid=2d857db6-9a43-4ccb-96fd-bc443be7d275"},"vehicle_type_id":"4","last_reported":1746451309,"current_range_meters":24000,"station_id":"ce4bhb92rcd13ifvqen0","pricing_plan_id":"cebpf4jnsgd1na2vs0mg"},{"bike_id":"3fd0ba29-65b6-4d26-b8f0-0d5bd44edbca","system_id":"levelo_inurba_marseille","lat":43.30539,"lon":5.36546,"is_reserved":false,"is_disabled":false,"rental_uris":{"android":"levelo://app?vid=3fd0ba29-65b6-4d26-b8f0-0d5bd44edbca","ios":"levelo://app?vid=3fd0ba29-65b6-4d26-b8f0-0d5bd44edbca"},"vehicle_type_id":"4","last_reported":1746451309,"current_range_meters":24400,"station_id":"ce4bgs12rcd13ifvqcag","pricing_plan_id":"cebpf4jnsgd1na2vs0mg"},{"bike_id":"9c3b9e33-6131-436f-a0bd-6ce00b9d515a","system_id":"levelo_inurba_marseille","lat":43.312241,"lon":5.36866,"is_reserved":false,"is_disabled":false,"rental_uris":{"android":"levelo://app?vid=9c3b9e33-6131-436f-a0bd-6ce00b9d515a","ios":"levelo://app?vid=9c3b9e33-6131-436f-a0bd-6ce00b9d515a"},"vehicle_type_id":"4","last_reported":1746451309,"current_range_meters":24400,"station_id":"ce4bgl92rcd13ifvqbq0","pricing_plan_id":"cebpf4jnsgd1na2vs0mg"},{"bike_id":"1e141fa0-6067-46da-b1ad-a364afdafa0a","system_id":"levelo_inurba_marseille","lat":43.30535,"lon":5.36513,"is_reserved":false,"is_disabled":false,"rental_uris":{"android":"levelo://app?vid=1e141fa0-6067-46da-b1ad-a364afdafa0a","ios":"levelo://app?vid=1e141fa0-6067-46da-b1ad-a364afdafa0a"},"vehicle_type_id":"4","last_reported":1746451309,"current_range_meters":24400,"station_id":"ce4bgs12rcd13ifvqcag","pricing_plan_id":"cebpf4jnsgd1na2vs0mg"},{"bike_id":"b4bac287-3615-423a-bca2-a11fb80cb066","system_id":"levelo_inurba_marseille","lat":43.230566,"lon":5.354898,"is_reserved":false,"is_disabled":false,"rental_uris":{"android":"levelo://app?vid=b4bac287-3615-423a-bca2-a11fb80cb066","ios":"levelo://app?vid=b4bac287-3615-423a-bca2-a11fb80cb066"},"vehicle_type_id":"4","last_reported":1746451309,"current_range_meters":24400,"station_id":"cpo3342slgdg3j2ifvpg","pricing_plan_id":"cebpf4jnsgd1na2vs0mg"},{"bike_id":"bc5416fe-1c04-4688-b19c-5db721906be7","system_id":"levelo_inurba_marseille","lat":43.289784,"lon":5.378298,"is_reserved":false,"is_disabled":true,"rental_uris":{"android":"levelo://app?vid=bc5416fe-1c04-4688-b19c-5db721906be7","ios":"levelo://app?vid=bc5416fe-1c04-4688-b19c-5db721906be7"},"vehicle_type_id":"4","last_reported":1746451309,"current_range_meters":24400,"station_id":"ce4bh9p2rcd13ifvqed0","pricing_plan_id":"cebpf4jnsgd1na2vs0mg"},{"bike_id":"ebb3f176-d133-4ccc-8191-8a3c1893e108","system_id":"levelo_inurba_marseille","lat":43.25892,"lon":5.40942,"is_reserved":false,"is_disabled":false,"rental_uris":{"android":"levelo://app?vid=ebb3f176-d133-4ccc-8191-8a3c1893e108","ios":"levelo://app?vid=ebb3f176-d133-4ccc-8191-8a3c1893e108"},"vehicle_type_id":"4","last_reported":1746451309,"current_range_meters":24400,"station_id":"","pricing_plan_id":"cebpf4jnsgd1na2vs0mg"},{"bike_id":"49ab404e-b82d-4a5d-97b2-a8f0e7f18afa","system_id":"levelo_inurba_marseille","lat":43.28104,"lon":5.39651,"is_reserved":false,"is_disabled":false,"rental_uris":{"android":"levelo://app?vid=49ab404e-b82d-4a5d-97b2-a8f0e7f18afa","ios":"levelo://app?vid=49ab404e-b82d-4a5d-97b2-a8f0e7f18afa"},"vehicle_type_id":"4","last_reported":1746451309,"current_range_meters":24400,"station_id":"ce4bho12rcd13ifvqh2g","pricing_plan_id":"cebpf4jnsgd1na2vs0mg"},{"bike_id":"c6fc5719-ea00-4cc0-b723-39bd0150f124","system_id":"levelo_inurba_marseille","lat":43.2603,"lon":5.37545,"is_reserved":false,"is_disabled":false,"rental_uris":{"android":"levelo://app?vid=c6fc5719-ea00-4cc0-b723-39bd0150f124","ios":"levelo://app?vid=c6fc5719-ea00-4cc0-b723-39bd0150f124"},"vehicle_type_id":"4","last_reported":1746451309,"current_range_meters":24400,"station_id":"ce4bhgh2rcd13ifvqfa0","pricing_plan_id":"cebpf4jnsgd1na2vs0mg"},{"bike_id":"8d7129d2-3aa5-46ed-92bf-d54fba35d8b9","system_id":"levelo_inurba_marseille","lat":43.30447,"lon":5.38882,"is_reserved":false,"is_disabled":false,"rental_uris":{"android":"levelo://app?vid=8d7129d2-3aa5-46ed-92bf-d54fba35d8b9","ios":"levelo://app?vid=8d7129d2-3aa5-46ed-92bf-d54fba35d8b9"},"vehicle_type_id":"4","last_reported":1746451309,"current_range_meters":24400,"station_id":"ce4bgk12rcd13ifvqbi0","pricing_plan_id":"cebpf4jnsgd1na2vs0mg"},{"bike_id":"da3f6aa6-0e80-441f-b0ca-d5fd3c5dd5da","system_id":"levelo_inurba_marseille","lat":43.289465,"lon":5.396315,"is_reserved":false,"is_disabled":false,"rental_uris":{"android":"levelo://app?vid=da3f6aa6-0e80-441f-b0ca-d5fd3c5dd5da","ios":"levelo://app?vid=da3f6aa6-0e80-441f-b0ca-d5fd3c5dd5da"},"vehicle_type_id":"4","last_reported":1746451309,"current_range_meters":24000,"station_id":"ce4bh3h2rcd13ifvqdn0","pricing_plan_id":"cebpf4jnsgd1na2vs0mg"},{"bike_id":"b361b38f-e879-4c33-8d9c-86c5d4f8b899","system_id":"levelo_inurba_marseille","lat":43.30543,"lon":5.38431,"is_reserved":false,"is_disabled":true,"rental_uris":{"android":"levelo://app?vid=b361b38f-e879-4c33-8d9c-86c5d4f8b899","ios":"levelo://app?vid=b361b38f-e879-4c33-8d9c-86c5d4f8b899"},"vehicle_type_id":"4","last_reported":1746451309,"current_range_meters":24800,"station_id":"ce4bgg92rcd13ifvqb30","pricing_plan_id":"cebpf4jnsgd1na2vs0mg"},{"bike_id":"fc25e8d0-158a-47b0-82aa-22f54c76d1e9","system_id":"levelo_inurba_marseille","lat":43.28463,"lon":5.35885,"is_reserved":false,"is_disabled":false,"rental_uris":{"android":"levelo://app?vid=fc25e8d0-158a-47b0-82aa-22f54c76d1e9","ios":"levelo://app?vid=fc25e8d0-158a-47b0-82aa-22f54c76d1e9"},"vehicle_type_id":"4","last_reported":1746451309,"current_range_meters":24800,"station_id":"ce4bhah2rcd13ifvqei0","pricing_plan_id":"cebpf4jnsgd1na2vs0mg"},{"bike_id":"04ab3126-0a59-4dae-a8f8-7cf9310d0866","system_id":"levelo_inurba_marseille","lat":43.280823,"lon":5.3966,"is_reserved":false,"is_disabled":false,"rental_uris":{"android":"levelo://app?vid=04ab3126-0a59-4dae-a8f8-7cf9310d0866","ios":"levelo://app?vid=04ab3126-0a59-4dae-a8f8-7cf9310d0866"},"vehicle_type_id":"4","last_reported":1746451309,"current_range_meters":24800,"station_id":"ce4bho12rcd13ifvqh2g","pricing_plan_id":"cebpf4jnsgd1na2vs0mg"},{"bike_id":"d8335d22-67e6-4497-9d95-611f5a019dd6","system_id":"levelo_inurba_marseille","lat":43.30542,"lon":5.36541,"is_reserved":false,"is_disabled":false,"rental_uris":{"android":"levelo://app?vid=d8335d22-67e6-4497-9d95-611f5a019dd6","ios":"levelo://app?vid=d8335d22-67e6-4497-9d95-611f5a019dd6"},"vehicle_type_id":"4","last_reported":1746451309,"current_range_meters":24800,"station_id":"ce4bgs12rcd13ifvqcag","pricing_plan_id":"cebpf4jnsgd1na2vs0mg"},{"bike_id":"673fc260-e518-4e0f-967d-29d7cc5a2177","system_id":"levelo_inurba_marseille","lat":43.312209,"lon":5.367311,"is_reserved":false,"is_disabled":false,"rental_uris":{"android":"levelo://app?vid=673fc260-e518-4e0f-967d-29d7cc5a2177","ios":"levelo://app?vid=673fc260-e518-4e0f-967d-29d7cc5a2177"},"vehicle_type_id":"4","last_reported":1746451309,"current_range_meters":24400,"station_id":"ce4bgl92rcd13ifvqbq0","pricing_plan_id":"cebpf4jnsgd1na2vs0mg"},{"bike_id":"0483a7d7-1819-42b8-a0bf-809e42dc4b96","system_id":"levelo_inurba_marseille","lat":43.25105,"lon":5.4032,"is_reserved":false,"is_disabled":false,"rental_uris":{"android":"levelo://app?vid=0483a7d7-1819-42b8-a0bf-809e42dc4b96","ios":"levelo://app?vid=0483a7d7-1819-42b8-a0bf-809e42dc4b96"},"vehicle_type_id":"4","last_reported":1746451309,"current_range_meters":24800,"station_id":"ce4bhlh2rcd13ifvqgig","pricing_plan_id":"cebpf4jnsgd1na2vs0mg"},{"bike_id":"3864579c-53a8-4637-a2c2-5ec3bb119eb5","system_id":"levelo_inurba_marseille","lat":43.30834,"lon":5.38122,"is_reserved":false,"is_disabled":false,"rental_uris":{"android":"levelo://app?vid=3864579c-53a8-4637-a2c2-5ec3bb119eb5","ios":"levelo://app?vid=3864579c-53a8-4637-a2c2-5ec3bb119eb5"},"vehicle_type_id":"4","last_reported":1746451309,"current_range_meters":25200,"station_id":"ce4bgt12rcd13ifvqce0","pricing_plan_id":"cebpf4jnsgd1na2vs0mg"},{"bike_id":"cc924bff-e0fa-4c8c-a01b-d7a72721262d","system_id":"levelo_inurba_marseille","lat":43.282659,"lon":5.350686,"is_reserved":false,"is_disabled":false,"rental_uris":{"android":"levelo://app?vid=cc924bff-e0fa-4c8c-a01b-d7a72721262d","ios":"levelo://app?vid=cc924bff-e0fa-4c8c-a01b-d7a72721262d"},"vehicle_type_id":"4","last_reported":1746451309,"current_range_meters":25200,"station_id":"ce4bhbp2rcd13ifvqerg","pricing_plan_id":"cebpf4jnsgd1na2vs0mg"},{"bike_id":"698fd046-2b98-4145-954b-2ee34366ab3b","system_id":"levelo_inurba_marseille","lat":43.31493,"lon":5.37308,"is_reserved":false,"is_disabled":false,"rental_uris":{"android":"levelo://app?vid=698fd046-2b98-4145-954b-2ee34366ab3b","ios":"levelo://app?vid=698fd046-2b98-4145-954b-2ee34366ab3b"},"vehicle_type_id":"4","last_reported":1746451309,"current_range_meters":25200,"station_id":"ce4bgt12rcd13ifvqcd0","pricing_plan_id":"cebpf4jnsgd1na2vs0mg"},{"bike_id":"7fa2f910-887c-4ba9-9936-f0a0ff34a58d","system_id":"levelo_inurba_marseille","lat":43.31221,"lon":5.36842,"is_reserved":false,"is_disabled":false,"rental_uris":{"android":"levelo://app?vid=7fa2f910-887c-4ba9-9936-f0a0ff34a58d","ios":"levelo://app?vid=7fa2f910-887c-4ba9-9936-f0a0ff34a58d"},"vehicle_type_id":"4","last_reported":1746451309,"current_range_meters":25200,"station_id":"ce4bgl92rcd13ifvqbq0","pricing_plan_id":"cebpf4jnsgd1na2vs0mg"},{"bike_id":"4ebdfc62-fad5-4b40-9e20-eb605beb6ccc","system_id":"levelo_inurba_marseille","lat":43.24548,"lon":5.3952,"is_reserved":false,"is_disabled":false,"rental_uris":{"android":"levelo://app?vid=4ebdfc62-fad5-4b40-9e20-eb605beb6ccc","ios":"levelo://app?vid=4ebdfc62-fad5-4b40-9e20-eb605beb6ccc"},"vehicle_type_id":"4","last_reported":1746451309,"current_range_meters":25200,"station_id":"ce4bhlp2rcd13ifvqgjg","pricing_plan_id":"cebpf4jnsgd1na2vs0mg"},