{"last_updated":1739783476,"ttl":60,"version":"2.2","data":{"bikes":[{"bike_id":"0c4f4644-af4f-484a-bf12-d927dce6cd6d","system_id":"levelo_inurba_marseille","lat":43.31553,"lon":5.38032,"is_reserved":false,"is_disabled":false,"rental_uris":{"android":"levelo://app?vid=0c4f4644-af4f-484a-bf12-d927dce6cd6d","ios":"levelo://app?vid=0c4f4644-af4f-484a-bf12-d927dce6cd6d"},"vehicle_type_id":"4","last_reported":1739783476,"current_range_meters":38800,"station_id":"ce4bhsp2rcd13ifvqi50","pricing_plan_id":"cebpf4jnsgd1na2vs0mg"},{"bike_id":"040bf6da-b374-40b3-b70a-0f85f37b58a3","system_id":"levelo_inurba_marseille","lat":43.29222,"lon":5.40151,"is_reserved":false,"is_disabled":true,"rental_uris":{"android":"levelo://app?vid=040bf6da-b374-40b3-b70a-0f85f37b58a3","ios":"levelo://app?vid=040bf6da-b374-40b3-b70a-0f85f37b58a3"},"vehicle_type_id":"4","last_reported":1739783476,"current_range_meters":28400,"station_id":"ce4bh312rcd13ifvqdk0","pricing_plan_id":"cebpf4jnsgd1na2vs0mg"},{"bike_id":"4c9b3cbd-180d-4666-96a3-6b8a70377a68","system_id":"levelo_inurba_marseille","lat":43.25913,"lon":5.40876,"is_reserved":false,"is_disabled":false,"rental_uris":{"android":"levelo://app?vid=4c9b3cbd-180d-4666-96a3-6b8a70377a68","ios":"levelo://app?vid=4c9b3cbd-180d-4666-96a3-6b8a70377a68"},"vehicle_type_id":"4","last_reported":1739783476,"current_range_meters":29600,"station_id":"ce4bhm92rcd13ifvqglg","pricing_plan_id":"cebpf4jnsgd1na2vs0mg"},{"bike_id":"f661b7e0-1628-4b53-9b0f-1de5abd25562","system_id":"levelo_inurba_marseille","lat":43.299157,"lon":5.365184,"is_reserved":false,"is_disabled":false,"rental_uris":{"android":"levelo://app?vid=f661b7e0-1628-4b53-9b0f-1de5abd25562","ios":"levelo://app?vid=f661b7e0-1628-4b53-9b0f-1de5abd25562"},"vehicle_type_id":"4","last_reported":1739783476,"current_range_meters":27200,"station_id":"ce4bgm92rcd13ifvqbr0","pricing_plan_id":"cebpf4jnsgd1na2vs0mg"},{"bike_id":"0d71bbd1-7455-42d6-b624-7751a9267726","system_id":"levelo_inurba_marseille","lat":43.29971,"lon":5.38496,"is_reserved":false,"is_disabled":false,"rental_uris":{"android":"levelo://app?vid=0d71bbd1-7455-42d6-b624-7751a9267726","ios":"levelo://app?vid=0d71bbd1-7455-42d6-b624-7751a9267726"},"vehicle_type_id":"4","last_reported":1739783476,"current_range_meters":36800,"station_id":"ce4bgj92rcd13ifvqbd0","pricing_plan_id":"cebpf4jnsgd1na2vs0mg"},{"bike_id":"f8120ae0-0b24-4f39-b196-0810104ccd64","system_id":"levelo_inurba_marseille","lat":43.29844,"lon":5.36284,"is_reserved":false,"is_disabled":false,"rental_uris":{"android":"levelo://app?vid=f8120ae0-0b24-4f39-b196-0810104ccd64","ios":"levelo://app?vid=f8120ae0-0b24-4f39-b196-0810104ccd64"},"vehicle_type_id":"4","last_reported":1739783476,"current_range_meters":36800,"station_id":"ce4bgpp2rcd13ifvqc3g","pricing_plan_id":"cebpf4jnsgd1na2vs0mg"},{"bike_id":"f4d49a99-fbc7-4851-9eed-1c1657f954bd","system_id":"levelo_inurba_marseille","lat":43.2968,"lon":5.37296,"is_reserved":false,"is_disabled":false,"rental_uris":{"android":"levelo://app?vid=f4d49a99-fbc7-4851-9eed-1c1657f954bd","ios":"levelo://app?vid=f4d49a99-fbc7-4851-9eed-1c1657f954bd"},"vehicle_type_id":"4","last_reported":1739783476,"current_range_meters":38400,"station_id":"ce4bgk12rcd13ifvqbj0","pricing_plan_id":"cebpf4jnsgd1na2vs0mg"},{"bike_id":"7b655b1e-ef86-4a6a-8c4a-25bbaa3b752b","system_id":"levelo_inurba_marseille","lat":43.28158,"lon":5.4263,"is_reserved":false,"is_disabled":false,"rental_uris":{"android":"levelo://app?vid=7b655b1e-ef86-4a6a-8c4a-25bbaa3b752b","ios":"levelo://app?vid=7b655b1e-ef86-4a6a-8c4a-25bbaa3b752b"},"vehicle_type_id":"4","last_reported":1739783476,"current_range_meters":7200,"station_id":"ce4bhnh2rcd13ifvqgug","pricing_plan_id":"cebpf4jnsgd1na2vs0mg"},{"bike_id":"37e20a21-32b1-4cda-a102-3ecf8c845e2f","system_id":"levelo_inurba_marseille","lat":43.30547,"lon":5.36733,"is_reserved":false,"is_disabled":false,"rental_uris":{"android":"levelo://app?vid=37e20a21-32b1-4cda-a102-3ecf8c845e2f","ios":"levelo://app?vid=37e20a21-32b1-4cda-a102-3ecf8c845e2f"},"vehicle_type_id":"4","last_reported":1739783476,"current_range_meters":38800,"station_id":"ce4bgrp2rcd13ifvqc9g","pricing_plan_id":"cebpf4jnsgd1na2vs0mg"},{"bike_id":"137aea31-7c3d-45c4-8052-84bc4ab0dd1d","system_id":"levelo_inurba_marseille","lat":43.23148,"lon":5.43726,"is_reserved":false,"is_disabled":false,"rental_uris":{"android":"levelo://app?vid=137aea31-7c3d-45c4-8052-84bc4ab0dd1d","ios":"levelo://app?vid=137aea31-7c3d-45c4-8052-84bc4ab0dd1d"},"vehicle_type_id":"4","last_reported":1739783476,"current_range_meters":15200,"station_id":"ce4bhmp2rcd13ifvqgog","pricing_plan_id":"cebpf4jnsgd1na2vs0mg"},{"bike_id":"c9e0c673-4db4-4e67-b564-f0866a4aa60b","system_id":"levelo_inurba_marseille","lat":43.23193,"lon":5.35553,"is_reserved":false,"is_disabled":false,"rental_uris":{"android":"levelo://app?vid=c9e0c673-4db4-4e67-b564-f0866a4aa60b","ios":"levelo://app?vid=c9e0c673-4db4-4e67-b564-f0866a4aa60b"},"vehicle_type_id":"4","last_reported":1739783476,"current_range_meters":27600,"station_id":"ce4bhu92rcd13ifvqi70","pricing_plan_id":"cebpf4jnsgd1na2vs0mg"},{"bike_id":"cefb2918-f029-4e2a-bb4a-e616096a6436","system_id":"levelo_inurba_marseille","lat":43.3053,"lon":5.36539,"is_reserved":false,"is_disabled":false,"rental_uris":{"android":"levelo://app?vid=cefb2918-f029-4e2a-bb4a-e616096a6436","ios":"levelo://app?vid=cefb2918-f029-4e2a-bb4a-e616096a6436"},"vehicle_type_id":"4","last_reported":1739783476,"current_range_meters":22000,"station_id":"ce4bgs12rcd13ifvqcag","pricing_plan_id":"cebpf4jnsgd1na2vs0mg"},{"bike_id":"004e861b-496e-4924-9a9f-83a6af0b78bf","system_id":"levelo_inurba_marseille","lat":43.32434,"lon":5.36576,"is_reserved":false,"is_disabled":false,"rental_uris":{"android":"levelo://app?vid=004e861b-496e-4924-9a9f-83a6af0b78bf","ios":"levelo://app?vid=004e861b-496e-4924-9a9f-83a6af0b78bf"},"vehicle_type_id":"4","last_reported":1739783476,"current_range_meters":15200,"station_id":"ce4bhs12rcd13ifvqhvg","pricing_plan_id":"cebpf4jnsgd1na2vs0mg"},{"bike_id":"dca443e5-1221-4853-83eb-44e28c746c21","system_id":"levelo_inurba_marseille","lat":43.2917,"lon":5.37144,"is_reserved":false,"is_disabled":false,"rental_uris":{"android":"levelo://app?vid=dca443e5-1221-4853-83eb-44e28c746c21","ios":"levelo://app?vid=dca443e5-1221-4853-83eb-44e28c746c21"},"vehicle_type_id":"4","last_reported":1739783476,"current_range_meters":35600,"station_id":"ce4bha92rcd13ifvqeh0","pricing_plan_id":"cebpf4jnsgd1na2vs0mg"},{"bike_id":"942a1531-dd91-46c3-8655-4a3baa12f206","system_id":"levelo_inurba_marseille","lat":43.305286,"lon":5.36537,"is_reserved":false,"is_disabled":false,"rental_uris":{"android":"levelo://app?vid=942a1531-dd91-46c3-8655-4a3baa12f206","ios":"levelo://app?vid=942a1531-dd91-46c3-8655-4a3baa12f206"},"vehicle_type_id":"4","last_reported":1739783476,"current_range_meters":36000,"station_id":"ce4bgs12rcd13ifvqcag","pricing_plan_id":"cebpf4jnsgd1na2vs0mg"},{"bike_id":"26a17947-bae0-49a0-a0e6-dbcc7c3eae9e","system_id":"levelo_inurba_marseille","lat":43.24825,"lon":5.41856,"is_reserved":false,"is_disabled":false,"rental_uris":{"android":"levelo://app?vid=26a17947-bae0-49a0-a0e6-dbcc7c3eae9e","ios":"levelo://app?vid=26a17947-bae0-49a0-a0e6-dbcc7c3eae9e"},"vehicle_type_id":"4","last_reported":1739783476,"current_range_meters":26000,"station_id":"","pricing_plan_id":"cebpf4jnsgd1na2vs0mg"},{"bike_id":"0594397e-5b4a-4bc1-9dae-734c570709eb","system_id":"levelo_inurba_marseille","lat":43.27802,"lon":5.40696,"is_reserved":false,"is_disabled":false,"rental_uris":{"android":"levelo://app?vid=0594397e-5b4a-4bc1-9dae-734c570709eb","ios":"levelo://app?vid=0594397e-5b4a-4bc1-9dae-734c570709eb"},"vehicle_type_id":"4","last_reported":1739783476,"current_range_meters":38400,"station_id":"ce4bhnh2rcd13ifvqgtg","pricing_plan_id":"cebpf4jnsgd1na2vs0mg"},{"bike_id":"3d119f7e-598c-4ee5-af25-41604854cde7","system_id":"levelo_inurba_marseille","lat":43.297105,"lon":5.366106,"is_reserved":false,"is_disabled":false,"rental_uris":{"android":"levelo://app?vid=3d119f7e-598c-4ee5-af25-41604854cde7","ios":"levelo://app?vid=3d119f7e-598c-4ee5-af25-41604854cde7"},"vehicle_type_id":"4","last_reported":1739783476,"current_range_meters":38800,"station_id":"ce4bgn12rcd13ifvqbt0","pricing_plan_id":"cebpf4jnsgd1na2vs0mg"},{"bike_id":"913d0e98-b130-402b-a0ae-1d58fb07afd6","system_id":"levelo_inurba_marseille","lat":43.2871,"lon":5.39984,"is_reserved":false,"is_disabled":false,"rental_uris":{"android":"levelo://app?vid=913d0e98-b130-402b-a0ae-1d58fb07afd6","ios":"levelo://app?vid=913d0e98-b130-402b-a0ae-1d58fb07afd6"},"vehicle_type_id":"4","last_reported":1739783476,"current_range_meters":36400,"station_id":"ce4bho92rcd13ifvqh3g","pricing_plan_id":"cebpf4jnsgd1na2vs0mg"},{"bike_id":"d4a193d2-215b-480b-9b02-f23112d400ba","system_id":"levelo_inurba_marseille","lat":43.30349,"lon":5.36895,"is_reserved":false,"is_disabled":false,"rental_uris":{"android":"levelo://app?vid=d4a193d2-215b-480b-9b02-f23112d400ba","ios":"levelo://app?vid=d4a193d2-215b-480b-9b02-f23112d400ba"},"vehicle_type_id":"4","last_reported":1739783476,"current_range_meters":24000,"station_id":"ce4bgqh2rcd13ifvqc5g","pricing_plan_id":"cebpf4jnsgd1na2vs0mg"},{"bike_id":"3d54a84a-5f67-4bfe-9398-aaa70a21fa56","system_id":"levelo_inurba_marseille","lat":43.31196,"lon":5.3684,"is_reserved":false,"is_disabled":false,"rental_uris":{"android":"levelo://app?vid=3d54a84a-5f67-4bfe-9398-aaa70a21fa56","ios":"levelo://app?vid=3d54a84a-5f67-4bfe-9398-aaa70a21fa56"},"vehicle_type_id":"4","last_reported":1739783476,"current_range_meters":38800,"station_id":"ce4bgl92rcd13ifvqbq0","pricing_plan_id":"cebpf4jnsgd1na2vs0mg"},{"bike_id":"badf6502-54fc-4858-b3f4-c931bebd493c","system_id":"levelo_inurba_marseille","lat":43.30536,"lon":5.36534,"is_reserved":false,"is_disabled":false,"rental_uris":{"android":"levelo://app?vid=badf6502-54fc-4858-b3f4-c931bebd493c","ios":"levelo://app?vid=badf6502-54fc-4858-b3f4-c931bebd493c"},"vehicle_type_id":"4","last_reported":1739783476,"current_range_meters":37600,"station_id":"ce4bgs12rcd13ifvqcag","pricing_plan_id":"cebpf4jnsgd1na2vs0mg"},{"bike_id":"af4b6d01-8222-491c-a4cb-9d777ff30ae8","system_id":"levelo_inurba_marseille","lat":43.27297,"lon":5.39122,"is_reserved":false,"is_disabled":false,"rental_uris":{"android":"levelo://app?vid=af4b6d01-8222-491c-a4cb-9d777ff30ae8","ios":"levelo://app?vid=af4b6d01-8222-491c-a4cb-9d777ff30ae8"},"vehicle_type_id":"4","last_reported":1739783476,"current_range_meters":38800,"station_id":"ce4bhgp2rcd13ifvqfe0","pricing_plan_id":"cebpf4jnsgd1na2vs0mg"},{"bike_id":"2821d2ff-3fc8-480e-81a3-1928b04e4a1d","system_id":"levelo_inurba_marseille","lat":43.31467,"lon":5.37361,"is_reserved":false,"is_disabled":false,"rental_uris":{"android":"levelo://app?vid=2821d2ff-3fc8-480e-81a3-1928b04e4a1d","ios":"levelo://app?vid=2821d2ff-3fc8-480e-81a3-1928b04e4a1d"},"vehicle_type_id":"4","last_reported":1739783476,"current_range_meters":7200,"station_id":"ce4bgt12rcd13ifvqcd0","pricing_plan_id":"cebpf4jnsgd1na2vs0mg"},{"bike_id":"8047b060-b144-4fed-a8cb-8616d953f2d5","system_id":"levelo_inurba_marseille","lat":43.23145,"lon":5.43716,"is_reserved":false,"is_disabled":false,"rental_uris":{"android":"levelo://app?vid=8047b060-b144-4fed-a8cb-8616d953f2d5","ios":"levelo://app?vid=8047b060-b144-4fed-a8cb-8616d953f2d5"},"vehicle_type_id":"4","last_reported":1739783476,"current_range_meters":24400,"station_id":"ce4bhmp2rcd13ifvqgog","pricing_plan_id":"cebpf4jnsgd1na2vs0mg"},{"bike_id":"d48b880c-5787-4eca-994b-610c9fc548ed","system_id":"levelo_inurba_marseille","lat":43.24162,"lon":5.36396,"is_reserved":false,"is_disabled":false,"rental_uris":{"android":"levelo://app?vid=d48b880c-5787-4eca-994b-610c9fc548ed","ios":"levelo://app?vid=d48b880c-5787-4eca-994b-610c9fc548ed"},"vehicle_type_id":"4","last_reported":1739783476,"current_range_meters":38000,"station_id":"cpo36qri1sfpv3e86is0","pricing_plan_id":"cebpf4jnsgd1na2vs0mg"},{"bike_id":"34c66d3d-b5aa-4bec-ab71-66b17e80e2a1","system_id":"levelo_inurba_marseille","lat":43.32304,"lon":5.38256,"is_reserved":false,"is_disabled":false,"rental_uris":{"android":"levelo://app?vid=34c66d3d-b5aa-4bec-ab71-66b17e80e2a1","ios":"levelo://app?vid=34c66d3d-b5aa-4bec-ab71-66b17e80e2a1"},"vehicle_type_id":"4","last_reported":1739783476,"current_range_meters":39200,"station_id":"ce4bhr12rcd13ifvqhqg","pricing_plan_id":"cebpf4jnsgd1na2vs0mg"},{"bike_id":"a4086f16-18bf-41c0-9517-08c5a8deab50","system_id":"levelo_inurba_marseille","lat":43.29951,"lon":5.37183,"is_reserved":false,"is_disabled":false,"rental_uris":{"android":"levelo://app?vid=a4086f16-18bf-41c0-9517-08c5a8deab50","ios":"levelo://app?vid=a4086f16-18bf-41c0-9517-08c5a8deab50"},"vehicle_type_id":"4","last_reported":1739783476,"current_range_meters":30000,"station_id":"ce4bgr92rcd13ifvqc7g","pricing_plan_id":"cebpf4jnsgd1na2vs0mg"},{"bike_id":"d70671ef-d257-4f15-9ecc-a2bfef9e5adc","system_id":"levelo_inurba_marseille","lat":43.24998,"lon":5.38923,"is_reserved":false,"is_disabled":false,"rental_uris":{"android":"levelo://app?vid=d70671ef-d257-4f15-9ecc-a2bfef9e5adc","ios":"levelo://app?vid=d70671ef-d257-4f15-9ecc-a2bfef9e5adc"},"vehicle_type_id":"4","last_reported":1739783476,"current_range_meters":30400,"station_id":"ce4bhgp2rcd13ifvqfd0","pricing_plan_id":"cebpf4jnsgd1na2vs0mg"},{"bike_id":"940ffad1-8d03-466c-a361-1bdb8859eb0e","system_id":"levelo_inurba_marseille","lat":43.28604,"lon":5.3512,"is_reserved":false,"is_disabled":true,"rental_uris":{"android":"levelo://app?vid=940ffad1-8d03-466c-a361-1bdb8859eb0e","ios":"levelo://app?vid=940ffad1-8d03-466c-a361-1bdb8859eb0e"},"vehicle_type_id":"4","last_reported":1739783476,"current_range_meters":0,"station_id":"ce4bhch2rcd13ifvqeug","pricing_plan_id":"cebpf4jnsgd1na2vs0mg"},{"bike_id":"91e20a00-0a61-4c4d-ac1e-de492ad0d12a","system_id":"levelo_inurba_marseille","lat":43.29555,"lon":5.37498,"is_reserved":false,"is_disabled":true,"rental_uris":{"android":"levelo://app?vid=91e20a00-0a61-4c4d-ac1e-de492ad0d12a","ios":"levelo://app?vid=91e20a00-0a61-4c4d-ac1e-de492ad0d12a"},"vehicle_type_id":"4","last_reported":1739783476,"current_range_meters":18000,"station_id":"ce4bgh92rcd13ifvqb50","pricing_plan_id":"cebpf4jnsgd1na2vs0mg"},{"bike_id":"86a75285-7243-40ee-925b-d20bf72a6a49","system_id":"levelo_inurba_marseille","lat":43.29825,"lon":5.36258,"is_reserved":false,"is_disabled":false,"rental_uris":{"android":"levelo://app?vid=86a75285-7243-40ee-925b-d20bf72a6a49","ios":"levelo://app?vid=86a75285-7243-40ee-925b-d20bf72a6a49"},"vehicle_type_id":"4","last_reported":1739783476,"current_range_meters":38400,"station_id":"ce4bgpp2rcd13ifvqc3g","pricing_plan_id":"cebpf4jnsgd1na2vs0mg"},{"bike_id":"1f0657bb-7196-41de-84fc-c834bbf90b28","system_id":"levelo_inurba_marseille","lat":43.28081,"lon":5.39655,"is_reserved":false,"is_disabled":true,"rental_uris":{"android":"levelo://app?vid=1f0657bb-7196-41de-84fc-c834bbf90b28","ios":"levelo://app?vid=1f0657bb-7196-41de-84fc-c834bbf90b28"},"vehicle_type_id":"4","last_reported":1739783476,"current_range_meters":38800,"station_id":"ce4bho12rcd13ifvqh2g","pricing_plan_id":"cebpf4jnsgd1na2vs0mg"},{"bike_id":"ea8031b8-4a31-4ed2-9c66-329ecb59f26c","system_id":"levelo_inurba_marseille","lat":43.29302,"lon":5.37459,"is_reserved":false,"is_disabled":false,"rental_uris":{"android":"levelo://app?vid=ea8031b8-4a31-4ed2-9c66-329ecb59f26c","ios":"levelo://app?vid=ea8031b8-4a31-4ed2-9c66-329ecb59f26c"},"vehicle_type_id":"4","last_reported":1739783476,"current_range_meters":20400,"station_id":"ce4bgi12rcd13ifvqb70","pricing_plan_id":"cebpf4jnsgd1na2vs0mg"},{"bike_id":"d849da94-49a4-4d88-942e-eb72d7ad7ca1","system_id":"levelo_inurba_marseille","lat":43.282645,"lon":5.350593,"is_reserved":false,"is_disabled":false,"rental_uris":{"android":"levelo://app?vid=d849da94-49a4-4d88-942e-eb72d7ad7ca1","ios":"levelo://app?vid=d849da94-49a4-4d88-942e-eb72d7ad7ca1"},"vehicle_type_id":"4","last_reported":1739783476,"current_range_meters":33200,"station_id":"","pricing_plan_id":"cebpf4jnsgd1na2vs0mg"},{"bike_id":"fe95f88b-8914-4de1-9146-683dcbb7a9f6","system_id":"levelo_inurba_marseille","lat":43.26929,"lon":5.3892,"is_reserved":false,"is_disabled":false,"rental_uris":{"android":"levelo://app?vid=fe95f88b-8914-4de1-9146-683dcbb7a9f6","ios":"levelo://app?vid=fe95f88b-8914-4de1-9146-683dcbb7a9f6"},"vehicle_type_id":"4","last_reported":1739783476,"current_range_meters":27200,"station_id":"ce4bhhh2rcd13ifvqfl0","pricing_plan_id":"cebpf4jnsgd1na2vs0mg"},{"bike_id":"edda1ad3-82ad-41f9-8e9c-88195b92dd49","system_id":"levelo_inurba_marseille","lat":43.31684,"lon":5.38854,"is_reserved":false,"is_disabled":false,"rental_uris":{"android":"levelo://app?vid=edda1ad3-82ad-41f9-8e9c-88195b92dd49","ios":"levelo://app?vid=edda1ad3-82ad-41f9-8e9c-88195b92dd49"},"vehicle_type_id":"4","last_reported":1739783476,"current_range_meters":9600,"station_id":"","pricing_plan_id":"cebpf4jnsgd1na2vs0mg"},{"bike_id":"ac1f4837-f920-4f11-a0f5-b75095ff3c61","system_id":"levelo_inurba_marseille","lat":43.28675,"lon":5.40009,"is_reserved":false,"is_disabled":false,"rental_uris":{"android":"levelo://app?vid=ac1f4837-f920-4f11-a0f5-b75095ff3c61","ios":"levelo://app?vid=ac1f4837-f920-4f11-a0f5-b75095ff3c61"},"vehicle_type_id":"4","last_reported":1739783476,"current_range_meters":25600,"station_id":"ce4bho92rcd13ifvqh3g","pricing_plan_id":"cebpf4jnsgd1na2vs0mg"},{"bike_id":"998867f7-2010-40a3-a006-7b68b554aade","system_id":"levelo_inurba_marseille","lat":43.30949,"lon":5.39042,"is_reserved":false,"is_disabled":false,"rental_uris":{"android":"levelo://app?vid=998867f7-2010-40a3-a006-7b68b554aade","ios":"levelo://app?vid=998867f7-2010-40a3-a006-7b68b554aade"},"vehicle_type_id":"4","last_reported":1739783476,"current_range_meters":18800,"station_id":"ce4bgup2rcd13ifvqco0","pricing_plan_id":"cebpf4jnsgd1na2vs0mg"},{"bike_id":"d1406852-fd4d-4f3f-b868-95fa220b828c","system_id":"levelo_inurba_marseille","lat":43.337,"lon":5.39212,"is_reserved":false,"is_disabled":false,"rental_uris":{"android":"levelo://app?vid=d1406852-fd4d-4f3f-b868-95fa220b828c","ios":"levelo://app?vid=d1406852-fd4d-4f3f-b868-95fa220b828c"},"vehicle_type_id":"4","last_reported":1739783476,"current_range_meters":38800,"station_id":"ce4bhr92rcd13ifvqhsg","pricing_plan_id":"cebpf4jnsgd1na2vs0mg"},{"bike_id":"d22faca5-39f2-4b06-850d-35bc4c9ce167","system_id":"levelo_inurba_marseille","lat":43.28002,"lon":5.40018,"is_reserved":false,"is_disabled":false,"rental_uris":{"android":"levelo://app?vid=d22faca5-39f2-4b06-850d-35bc4c9ce167","ios":"levelo://app?vid=d22faca5-39f2-4b06-850d-35bc4c9ce167"},"vehicle_type_id":"4","last_reported":1739783476,"current_range_meters":33200,"station_id":"ce4bho92rcd13ifvqh4g","pricing_plan_id":"cebpf4jnsgd1na2vs0mg"},{"bike_id":"f92e748a-9f9b-4e54-8084-07e33515f3d5","system_id":"levelo_inurba_marseille","lat":43.27071,"lon":5.39347,"is_reserved":false,"is_disabled":true,"rental_uris":{"android":"levelo://app?vid=f92e748a-9f9b-4e54-8084-07e33515f3d5","ios":"levelo://app?vid=f92e748a-9f9b-4e54-8084-07e33515f3d5"},"vehicle_type_id":"4","last_reported":1739783476,"current_range_meters":0,"station_id":"","pricing_plan_id":"cebpf4jnsgd1na2vs0mg"},{"bike_id":"a5358878-409b-4db3-a1b5-4039bc8762f9","system_id":"levelo_inurba_marseille","lat":43.30183,"lon":5.36624,"is_reserved":false,"is_disabled":false,"rental_uris":{"android":"levelo://app?vid=a5358878-409b-4db3-a1b5-4039bc8762f9","ios":"levelo://app?vid=a5358878-409b-4db3-a1b5-4039bc8762f9"},"vehicle_type_id":"4","last_reported":1739783476,"current_range_meters":32400,"station_id":"ce4bgrh2rcd13ifvqc8g","pricing_plan_id":"cebpf4jnsgd1na2vs0mg"},{"bike_id":"5dda9fcc-db9f-4963-af85-6187055f4940","system_id":"levelo_inurba_marseille","lat":43.282663,"lon":5.350778,"is_reserved":false,"is_disabled":false,"rental_uris":{"android":"levelo://app?vid=5dda9fcc-db9f-4963-af85-6187055f4940","ios":"levelo://app?vid=5dda9fcc-db9f-4963-af85-6187055f4940"},"vehicle_type_id":"4","last_reported":1739783476,"current_range_meters":38800,"station_id":"ce4bhbp2rcd13ifvqerg","pricing_plan_id":"cebpf4jnsgd1na2vs0mg"},{"bike_id":"27cf4bdf-1b70-4c5c-9ce7-07c6d0184702","system_id":"levelo_inurba_marseille","lat":43.26205,"lon":5.37922,"is_reserved":false,"is_disabled":false,"rental_uris":{"android":"levelo://app?vid=27cf4bdf-1b70-4c5c-9ce7-07c6d0184702","ios":"levelo://app?vid=27cf4bdf-1b70-4c5c-9ce7-07c6d0184702"},"vehicle_type_id":"4","last_reported":1739783476,"current_range_meters":38000,"station_id":"ce4bhjp2rcd13ifvqg90","pricing_plan_id":"cebpf4jnsgd1na2vs0mg"},{"bike_id":"438f7e42-84e9-4231-af83-3020c73767bd","system_id":"levelo_inurba_marseille","lat":43.30906,"lon":5.36867,"is_reserved":false,"is_disabled":false,"rental_uris":{"android":"levelo://app?vid=438f7e42-84e9-4231-af83-3020c73767bd","ios":"levelo://app?vid=438f7e42-84e9-4231-af83-3020c73767bd"},"vehicle_type_id":"4","last_reported":1739783476,"current_range_meters":30400,"station_id":"ce4bgn92rcd13ifvqbvg","pricing_plan_id":"cebpf4jnsgd1na2vs0mg"},{"bike_id":"ea01f0d6-5a6b-429c-9d59-9891c2bba261","system_id":"levelo_inurba_marseille","lat":43.25093,"lon":5.39528,"is_reserved":false,"is_disabled":false,"rental_uris":{"android":"levelo://app?vid=ea01f0d6-5a6b-429c-9d59-9891c2bba261","ios":"levelo://app?vid=ea01f0d6-5a6b-429c-9d59-9891c2bba261"},"vehicle_type_id":"4","last_reported":1739783476,"current_range_meters":8800,"station_id":"ce4bhm12rcd13ifvqgkg","pricing_plan_id":"cebpf4jnsgd1na2vs0mg"},{"bike_id":"68ec1149-193c-4623-95a0-d68d63fed7b6","system_id":"levelo_inurba_marseille","lat":43.312503,"lon":5.36853,"is_reserved":false,"is_disabled":false,"rental_uris":{"android":"levelo://app?vid=68ec1149-193c-4623-95a0-d68d63fed7b6","ios":"levelo://app?vid=68ec1149-193c-4623-95a0-d68d63fed7b6"},"vehicle_type_id":"4","last_reported":1739783476,"current_range_meters":32000,"station_id":"ce4bgl92rcd13ifvqbq0","pricing_plan_id":"cebpf4jnsgd1na2vs0mg"},{"bike_id":"9cf8e6d9-67b8-441b-8ab4-08ef8560d2b0","system_id":"levelo_inurba_marseille","lat":43.33514,"lon":5.35585,"is_reserved":false,"is_disabled":true,"rental_uris":{"android":"levelo://app?vid=9cf8e6d9-67b8-441b-8ab4-08ef8560d2b0","ios":"levelo://app?vid=9cf8e6d9-67b8-441b-8ab4-08ef8560d2b0"},"vehicle_type_id":"4","last_reported":1739783476,"current_range_meters":0,"station_id":"","pricing_plan_id":"cebpf4jnsgd1na2vs0mg"},{"bike_id":"b5fa89f3-eccf-42db-839b-52bfd51017e5","system_id":"levelo_inurba_marseille","lat":43.30946,"lon":5.36831,"is_reserved":false,"is_disabled":false,"rental_uris":{"android":"levelo://app?vid=b5fa89f3-eccf-42db-839b-52bfd51017e5","ios":"levelo://app?vid=b5fa89f3-eccf-42db-839b-52bfd51017e5"},"vehicle_type_id":"4","last_reported":1739783476,"current_range_meters":24000,"station_id":"ce4bgn92rcd13ifvqbvg","pricing_plan_id":"cebpf4jnsgd1na2vs0mg"},{"bike_id":"211847e2-34d6-4dc9-978c-d9044398d207","system_id":"levelo_inurba_marseille","lat":43.30149,"lon":5.380933,"is_reserved":false,"is_disabled":false,"rental_uris":{"android":"levelo://app?vid=211847e2-34d6-4dc9-978c-d9044398d207","ios":"levelo://app?vid=211847e2-34d6-4dc9-978c-d9044398d207"},"vehicle_type_id":"4","last_reported":1739783476,"current_range_meters":33200,"station_id":"ce4bgjp2rcd13ifvqbh0","pricing_plan_id":"cebpf4jnsgd1na2vs0mg"},{"bike_id":"be3306be-a748-418d-8f2d-22ba15c8991d","system_id":"levelo_inurba_marseille","lat":43.30905,"lon":5.36845,"is_reserved":false,"is_disabled":false,"rental_uris":{"android":"levelo://app?vid=be3306be-a748-418d-8f2d-22ba15c8991d","ios":"levelo://app?vid=be3306be-a748-418d-8f2d-22ba15c8991d"},"vehicle_type_id":"4","last_reported":1739783476,"current_range_meters":37600,"station_id":"ce4bgn92rcd13ifvqbvg","pricing_plan_id":"cebpf4jnsgd1na2vs0mg"},{"bike_id":"dbd212c7-9372-41c0-b2c1-a6104d7e3419","system_id":"levelo_inurba_marseille","lat":43.27321,"lon":5.39133,"is_reserved":false,"is_disabled":false,"rental_uris":{"android":"levelo://app?vid=dbd212c7-9372-41c0-b2c1-a6104d7e3419","ios":"levelo://app?vid=dbd212c7-9372-41c0-b2c1-a6104d7e3419"},"vehicle_type_id":"4","last_reported":1739783476,"current_range_meters":38800,"station_id":"ce4bhgp2rcd13ifvqfe0","pricing_plan_id":"cebpf4jnsgd1na2vs0mg"},{"bike_id":"fa829a28-0d39-4f0a-9c08-112c6b4cee0e","system_id":"levelo_inurba_marseille","lat":43.26678,"lon":5.3827,"is_reserved":false,"is_disabled":false,"rental_uris":{"android":"levelo://app?vid=fa829a28-0d39-4f0a-9c08-112c6b4cee0e","ios":"levelo://app?vid=fa829a28-0d39-4f0a-9c08-112c6b4cee0e"},"vehicle_type_id":"4","last_reported":1739783476,"current_range_meters":17200,"station_id":"ce4bhg92rcd13ifvqf90","pricing_plan_id":"cebpf4jnsgd1na2vs0mg"},{"bike_id":"247cb5eb-2117-44c6-80ec-139b2b6ba888","system_id":"levelo_inurba_marseille","lat":43.29626,"lon":5.3771,"is_reserved":false,"is_disabled":false,"rental_uris":{"android":"levelo://app?vid=247cb5eb-2117-44c6-80ec-139b2b6ba888","ios":"levelo://app?vid=247cb5eb-2117-44c6-80ec-139b2b6ba888"},"vehicle_type_id":"4","last_reported":1739783476,"current_range_meters":22800,"station_id":"ce4bgi92rcd13ifvqb90","pricing_plan_id":"cebpf4jnsgd1na2vs0mg"},{"bike_id":"471dcda7-392d-4f73-a89e-513bc3c3dba5","system_id":"levelo_inurba_marseille","lat":43.32069,"lon":5.41544,"is_reserved":false,"is_disabled":false,"rental_uris":{"android":"levelo://app?vid=471dcda7-392d-4f73-a89e-513bc3c3dba5","ios":"levelo://app?vid=471dcda7-392d-4f73-a89e-513bc3c3dba5"},"vehicle_type_id":"4","last_reported":1739783476,"current_range_meters":38800,"station_id":"ce4bhq92rcd13ifvqhkg","pricing_plan_id":"cebpf4jnsgd1na2vs0mg"},{"bike_id":"699b4ead-7083-4b29-85c3-471cfd54f9e5","system_id":"levelo_inurba_marseille","lat":43.29787,"lon":5.40414,"is_reserved":false,"is_disabled":true,"rental_uris":{"android":"levelo://app?vid=699b4ead-7083-4b29-85c3-471cfd54f9e5","ios":"levelo://app?vid=699b4ead-7083-4b29-85c3-471cfd54f9e5"},"vehicle_type_id":"4","last_reported":1739783476,"current_range_meters":38800,"station_id":"ce4bh112rcd13ifvqd90","pricing_plan_id":"cebpf4jnsgd1na2vs0mg"},{"bike_id":"95d1ba99-ee4d-447e-b8b0-cdcc6cc7c13c","system_id":"levelo_inurba_marseille","lat":43.30556,"lon":5.36533,"is_reserved":false,"is_disabled":false,"rental_uris":{"android":"levelo://app?vid=95d1ba99-ee4d-447e-b8b0-cdcc6cc7c13c","ios":"levelo://app?vid=95d1ba99-ee4d-447e-b8b0-cdcc6cc7c13c"},"vehicle_type_id":"4","last_reported":1739783476,"current_range_meters":36800,"station_id":"ce4bgs12rcd13ifvqcag","pricing_plan_id":"cebpf4jnsgd1na2vs0mg"},{"bike_id":"51ab7186-5043-4bed-baca-73708608a302","system_id":"levelo_inurba_marseille","lat":43.29584,"lon":5.37026,"is_reserved":false,"is_disabled":true,"rental_uris":{"android":"levelo://app?vid=51ab7186-5043-4bed-baca-73708608a302","ios":"levelo://app?vid=51ab7186-5043-4bed-baca-73708608a302"},"vehicle_type_id":"4","last_reported":1739783476,"current_range_meters":0,"station_id":"","pricing_plan_id":"cebpf4jnsgd1na2vs0mg"},{"bike_id":"9760b051-4e9e-4125-bdb3-bbff49eb6279","system_id":"levelo_inurba_marseille","lat":43.31637,"lon":5.40477,"is_reserved":false,"is_disabled":false,"rental_uris":{"android":"levelo://app?vid=9760b051-4e9e-4125-bdb3-bbff49eb6279","ios":"levelo://app?vid=9760b051-4e9e-4125-bdb3-bbff49eb6279"},"vehicle_type_id":"4","last_reported":1739783476,"current_range_meters":8400,"station_id":"","pricing_plan_id":"cebpf4jnsgd1na2vs0mg"},{"bike_id":"5ce116bc-0040-4e03-80fd-aa3fbddba3d2","system_id":"levelo_inurba_marseille","lat":43.25075,"lon":5.39511,"is_reserved":false,"is_disabled":false,"rental_uris":{"android":"levelo://app?vid=5ce116bc-0040-4e03-80fd-aa3fbddba3d2","ios":"levelo://app?vid=5ce116bc-0040-4e03-80fd-aa3fbddba3d2"},"vehicle_type_id":"4","last_reported":1739783476,"current_range_meters":16000,"station_id":"ce4bhm12rcd13ifvqgkg","pricing_plan_id":"cebpf4jnsgd1na2vs0mg"},{"bike_id":"c5559994-20bc-48c5-9397-a0a5bf13f2e6","system_id":"levelo_inurba_marseille","lat":43.25871,"lon":5.39906,"is_reserved":false,"is_disabled":true,"rental_uris":{"android":"levelo://app?vid=c5559994-20bc-48c5-9397-a0a5bf13f2e6","ios":"levelo://app?vid=c5559994-20bc-48c5-9397-a0a5bf13f2e6"},"vehicle_type_id":"4","last_reported":1739783476,"current_range_meters":6400,"station_id":"ce4bhl92rcd13ifvqghg","pricing_plan_id":"cebpf4jnsgd1na2vs0mg"},{"bike_id":"20aa5b23-fbe5-4790-ad90-ddc22f8f839f","system_id":"levelo_inurba_marseille","lat":43.24164,"lon":5.36399,"is_reserved":false,"is_disabled":false,"rental_uris":{"android":"levelo://app?vid=20aa5b23-fbe5-4790-ad90-ddc22f8f839f","ios":"levelo://app?vid=20aa5b23-fbe5-4790-ad90-ddc22f8f839f"},"vehicle_type_id":"4","last_reported":1739783476,"current_range_meters":25200,"station_id":"cpo36qri1sfpv3e86is0","pricing_plan_id":"cebpf4jnsgd1na2vs0mg"},{"bike_id":"64370e9e-195a-43df-b5a1-c1864ee84acb","system_id":"levelo_inurba_marseille","lat":43.28491,"lon":5.38414,"is_reserved":false,"is_disabled":false,"rental_uris":{"android":"levelo://app?vid=64370e9e-195a-43df-b5a1-c1864ee84acb","ios":"levelo://app?vid=64370e9e-195a-43df-b5a1-c1864ee84acb"},"vehicle_type_id":"4","last_reported":1739783476,"current_range_meters":27200,"station_id":"ce4bh512rcd13ifvqe3g","pricing_plan_id":"cebpf4jnsgd1na2vs0mg"},{"bike_id":"a6295600-2d7a-43cf-9666-1e56dcc4e1e6","system_id":"levelo_inurba_marseille","lat":43.29048,"lon":5.3995,"is_reserved":false,"is_disabled":false,"rental_uris":{"android":"levelo://app?vid=a6295600-2d7a-43cf-9666-1e56dcc4e1e6","ios":"levelo://app?vid=a6295600-2d7a-43cf-9666-1e56dcc4e1e6"},"vehicle_type_id":"4","last_reported":1739783476,"current_range_meters":24400,"station_id":"ce4bh392rcd13ifvqdm0","pricing_plan_id":"cebpf4jnsgd1na2vs0mg"},{"bike_id":"505bf071-ba9c-4a3e-9ed9-67c34ca9bd00","system_id":"levelo_inurba_marseille","lat":43.29967,"lon":5.37195,"is_reserved":false,"is_disabled":false,"rental_uris":{"android":"levelo://app?vid=505bf071-ba9c-4a3e-9ed9-67c34ca9bd00","ios":"levelo://app?vid=505bf071-ba9c-4a3e-9ed9-67c34ca9bd00"},"vehicle_type_id":"4","last_reported":1739783476,"current_range_meters":39200,"station_id":"ce4bgr92rcd13ifvqc7g","pricing_plan_id":"cebpf4jnsgd1na2vs0mg"},{"bike_id":"c40e2cb9-b89c-4dbd-956b-535ef79f1d37","system_id":"levelo_inurba_marseille","lat":43.24809,"lon":5.37443,"is_reserved":false,"is_disabled":false,"rental_uris":{"android":"levelo://app?vid=c40e2cb9-b89c-4dbd-956b-535ef79f1d37","ios":"levelo://app?vid=c40e2cb9-b89c-4dbd-956b-535ef79f1d37"},"vehicle_type_id":"4","last_reported":1739783476,"current_range_meters":14800,"station_id":"ce4bhgh2rcd13ifvqfb0","pricing_plan_id":"cebpf4jnsgd1na2vs0mg"},{"bike_id":"97a7b0e7-2623-493b-8f8a-886a8ca70c44","system_id":"levelo_inurba_marseille","lat":43.29179,"lon":5.3582,"is_reserved":false,"is_disabled":false,"rental_uris":{"android":"levelo://app?vid=97a7b0e7-2623-493b-8f8a-886a8ca70c44","ios":"levelo://app?vid=97a7b0e7-2623-493b-8f8a-886a8ca70c44"},"vehicle_type_id":"4","last_reported":1739783476,"current_range_meters":27600,"station_id":"ce4bhb12rcd13ifvqel0","pricing_plan_id":"cebpf4jnsgd1na2vs0mg"},{"bike_id":"9541c854-11de-42b4-992f-6bf4d1f6b2b4","system_id":"levelo_inurba_marseille","lat":43.26678,"lon":5.38269,"is_reserved":false,"is_disabled":false,"rental_uris":{"android":"levelo://app?vid=9541c854-11de-42b4-992f-6bf4d1f6b2b4","ios":"levelo://app?vid=9541c854-11de-42b4-992f-6bf4d1f6b2b4"},"vehicle_type_id":"4","last_reported":1739783476,"current_range_meters":28000,"station_id":"ce4bhg92rcd13ifvqf90","pricing_plan_id":"cebpf4jnsgd1na2vs0mg"},{"bike_id":"38c5e086-9d85-4919-b180-c1426119946d","system_id":"levelo_inurba_marseille","lat":43.248002,"lon":5.37455,"is_reserved":false,"is_disabled":false,"rental_uris":{"android":"levelo://app?vid=38c5e086-9d85-4919-b180-c1426119946d","ios":"levelo://app?vid=38c5e086-9d85-4919-b180-c1426119946d"},"vehicle_type_id":"4","last_reported":1739783476,"current_range_meters":26000,"station_id":"ce4bhgh2rcd13ifvqfb0","pricing_plan_id":"cebpf4jnsgd1na2vs0mg"},{"bike_id":"4afd05b5-41e1-4012-b907-304d88773920","system_id":"levelo_inurba_marseille","lat":43.239635,"lon":5.366415,"is_reserved":false,"is_disabled":false,"rental_uris":{"android":"levelo://app?vid=4afd05b5-41e1-4012-b907-304d88773920","ios":"levelo://app?vid=4afd05b5-41e1-4012-b907-304d88773920"},"vehicle_type_id":"4","last_reported":1739783476,"current_range_meters":32800,"station_id":"ce4bhi12rcd13ifvqfp0","pricing_plan_id":"cebpf4jnsgd1na2vs0mg"},{"bike_id":"af02ac68-734a-4337-a76f-2d6f15936fdf","system_id":"levelo_inurba_marseille","lat":43.31737,"lon":5.38892,"is_reserved":false,"is_disabled":false,"rental_uris":{"android":"levelo://app?vid=af02ac68-734a-4337-a76f-2d6f15936fdf","ios":"levelo://app?vid=af02ac68-734a-4337-a76f-2d6f15936fdf"},"vehicle_type_id":"4","last_reported":1739783476,"current_range_meters":38000,"station_id":"","pricing_plan_id":"cebpf4jnsgd1na2vs0mg"},{"bike_id":"bce60756-9e4c-4e13-87ee-d8aebefdf04d","system_id":"levelo_inurba_marseille","lat":43.26957,"lon":5.38638,"is_reserved":false,"is_disabled":false,"rental_uris":{"android":"levelo://app?vid=bce60756-9e4c-4e13-87ee-d8aebefdf04d","ios":"levelo://app?vid=bce60756-9e4c-4e13-87ee-d8aebefdf04d"},"vehicle_type_id":"4","last_reported":1739783476,"current_range_meters":39200,"station_id":"ce4bhh92rcd13ifvqfh0","pricing_plan_id":"cebpf4jnsgd1na2vs0mg"},{"bike_id":"1f334960-2a33-46d4-8f61-cbc89b5e905b","system_id":"levelo_inurba_marseille","lat":43.30306,"lon":5.37712,"is_reserved":false,"is_disabled":false,"rental_uris":{"android":"levelo://app?vid=1f334960-2a33-46d4-8f61-cbc89b5e905b","ios":"levelo://app?vid=1f334960-2a33-46d4-8f61-cbc89b5e905b"},"vehicle_type_id":"4","last_reported":1739783476,"current_range_meters":39200,"station_id":"ce4bguh2rcd13ifvqcj0","pricing_plan_id":"cebpf4jnsgd1na2vs0mg"},{"bike_id":"ad5f1c82-c1b5-4a02-9072-42375867f461","system_id":"levelo_inurba_marseille","lat":43.31174,"lon":5.38729,"is_reserved":false,"is_disabled":false,"rental_uris":{"android":"levelo://app?vid=ad5f1c82-c1b5-4a02-9072-42375867f461","ios":"levelo://app?vid=ad5f1c82-c1b5-4a02-9072-42375867f461"},"vehicle_type_id":"4","last_reported":1739783476,"current_range_meters":36800,"station_id":"ce4bgv12rcd13ifvqcp0","pricing_plan_id":"cebpf4jnsgd1na2vs0mg"},{"bike_id":"fb8e804a-78cb-4125-aa55-c544ab3b908f","system_id":"levelo_inurba_marseille","lat":43.30297,"lon":5.36907,"is_reserved":false,"is_disabled":false,"rental_uris":{"android":"levelo://app?vid=fb8e804a-78cb-4125-aa55-c544ab3b908f","ios":"levelo://app?vid=fb8e804a-78cb-4125-aa55-c544ab3b908f"},"vehicle_type_id":"4","last_reported":1739783476,"current_range_meters":37600,"station_id":"ce4bgqh2rcd13ifvqc5g","pricing_plan_id":"cebpf4jnsgd1na2vs0mg"},{"bike_id":"3ce3dae2-ed5f-43cb-bad9-b317ce2471d9","system_id":"levelo_inurba_marseille","lat":43.24827,"lon":5.37467,"is_reserved":false,"is_disabled":false,"rental_uris":{"android":"levelo://app?vid=3ce3dae2-ed5f-43cb-bad9-b317ce2471d9","ios":"levelo://app?vid=3ce3dae2-ed5f-43cb-bad9-b317ce2471d9"},"vehicle_type_id":"4","last_reported":1739783476,"current_range_meters":33600,"station_id":"ce4bhgh2rcd13ifvqfb0","pricing_plan_id":"cebpf4jnsgd1na2vs0mg"},{"bike_id":"397f7144-3e20-4f61-9149-2720265fc375","system_id":"levelo_inurba_marseille","lat":43.24055,"lon":5.37778,"is_reserved":false,"is_disabled":false,"rental_uris":{"android":"levelo://app?vid=397f7144-3e20-4f61-9149-2720265fc375","ios":"levelo://app?vid=397f7144-3e20-4f61-9149-2720265fc375"},"vehicle_type_id":"4","last_reported":1739783476,"current_range_meters":31200,"station_id":"ce4bhnp2rcd13ifvqgvg","pricing_plan_id":"cebpf4jnsgd1na2vs0mg"},{"bike_id":"e11183b2-c1b1-4304-9b12-b80fb4ad0290","system_id":"levelo_inurba_marseille","lat":43.29049,"lon":5.39972,"is_reserved":false,"is_disabled":true,"rental_uris":{"android":"levelo://app?vid=e11183b2-c1b1-4304-9b12-b80fb4ad0290","ios":"levelo://app?vid=e11183b2-c1b1-4304-9b12-b80fb4ad0290"},"vehicle_type_id":"4","last_reported":1739783476,"current_range_meters":38000,"station_id":"ce4bh392rcd13ifvqdm0","pricing_plan_id":"cebpf4jnsgd1na2vs0mg"},{"bike_id":"e7940778-1415-4b92-8f1f-eb7b2e5880dd","system_id":"levelo_inurba_marseille","lat":43.2972,"lon":5.37699,"is_reserved":false,"is_disabled":false,"rental_uris":{"android":"levelo://app?vid=e7940778-1415-4b92-8f1f-eb7b2e5880dd","ios":"levelo://app?vid=e7940778-1415-4b92-8f1f-eb7b2e5880dd"},"vehicle_type_id":"4","last_reported":1739783476,"current_range_meters":28800,"station_id":"ce4bgkh2rcd13ifvqbl0","pricing_plan_id":"cebpf4jnsgd1na2vs0mg"},{"bike_id":"457a030d-6858-4f7a-8278-228571f059fd","system_id":"levelo_inurba_marseille","lat":43.23141,"lon":5.43735,"is_reserved":false,"is_disabled":true,"rental_uris":{"android":"levelo://app?vid=457a030d-6858-4f7a-8278-228571f059fd","ios":"levelo://app?vid=457a030d-6858-4f7a-8278-228571f059fd"},"vehicle_type_id":"4","last_reported":1739783476,"current_range_meters":400,"station_id":"ce4bhmp2rcd13ifvqgog","pricing_plan_id":"cebpf4jnsgd1na2vs0mg"},{"bike_id":"15474534-f6e4-4d27-b2b4-09bcd53c2c4d","system_id":"levelo_inurba_marseille","lat":43.30155,"lon":5.37435,"is_reserved":false,"is_disabled":false,"rental_uris":{"android":"levelo://app?vid=15474534-f6e4-4d27-b2b4-09bcd53c2c4d","ios":"levelo://app?vid=15474534-f6e4-4d27-b2b4-09bcd53c2c4d"},"vehicle_type_id":"4","last_reported":1739783476,"current_range_meters":38800,"station_id":"ce4bgs92rcd13ifvqcc0","pricing_plan_id":"cebpf4jnsgd1na2vs0mg"},{"bike_id":"e35a9395-0bf1-4f5f-a592-11033722b6ab","system_id":"levelo_inurba_marseille","lat":43.33727,"lon":5.39204,"is_reserved":false,"is_disabled":false,"rental_uris":{"android":"levelo://app?vid=e35a9395-0bf1-4f5f-a592-11033722b6ab","ios":"levelo://app?vid=e35a9395-0bf1-4f5f-a592-11033722b6ab"},"vehicle_type_id":"4","last_reported":1739783476,"current_range_meters":38800,"station_id":"ce4bhr92rcd13ifvqhsg","pricing_plan_id":"cebpf4jnsgd1na2vs0mg"},{"bike_id":"87ee90cc-5174-462f-8597-349c2314f08b","system_id":"levelo_inurba_marseille","lat":43.27299,"lon":5.39113,"is_reserved":false,"is_disabled":false,"rental_uris":{"android":"levelo://app?vid=87ee90cc-5174-462f-8597-349c2314f08b","ios":"levelo://app?vid=87ee90cc-5174-462f-8597-349c2314f08b"},"vehicle_type_id":"4","last_reported":1739783476,"current_range_meters":38800,"station_id":"ce4bhgp2rcd13ifvqfe0","pricing_plan_id":"cebpf4jnsgd1na2vs0mg"},{"bike_id":"e747d0b7-ef8d-46e5-befd-b5785f28620b","system_id":"levelo_inurba_marseille","lat":43.31223,"lon":5.36864,"is_reserved":false,"is_disabled":false,"rental_uris":{"android":"levelo://app?vid=e747d0b7-ef8d-46e5-befd-b5785f28620b","ios":"levelo://app?vid=e747d0b7-ef8d-46e5-befd-b5785f28620b"},"vehicle_type_id":"4","last_reported":1739783476,"current_range_meters":30400,"station_id":"ce4bgl92rcd13ifvqbq0","pricing_plan_id":"cebpf4jnsgd1na2vs0mg"},{"bike_id":"d505ae6b-8401-49d2-a7e3-85c98bc77f1c","system_id":"levelo_inurba_marseille","lat":43.32347,"lon":5.40624,"is_reserved":false,"is_disabled":false,"rental_uris":{"android":"levelo://app?vid=d505ae6b-8401-49d2-a7e3-85c98bc77f1c","ios":"levelo://app?vid=d505ae6b-8401-49d2-a7e3-85c98bc77f1c"},"vehicle_type_id":"4","last_reported":1739783476,"current_range_meters":14800,"station_id":"ce4bhq92rcd13ifvqhjg","pricing_plan_id":"cebpf4jnsgd1na2vs0mg"},{"bike_id":"9ef51e36-6b91-4370-b608-25268899d671","system_id":"levelo_inurba_marseille","lat":43.27805,"lon":5.4072,"is_reserved":false,"is_disabled":false,"rental_uris":{"android":"levelo://app?vid=9ef51e36-6b91-4370-b608-25268899d671","ios":"levelo://app?vid=9ef51e36-6b91-4370-b608-25268899d671"},"vehicle_type_id":"4","last_reported":1739783476,"current_range_meters":38800,"station_id":"ce4bhnh2rcd13ifvqgtg","pricing_plan_id":"cebpf4jnsgd1na2vs0mg"},{"bike_id":"6408b994-ae56-4e32-95b9-cb0502299b0f","system_id":"levelo_inurba_marseille","lat":43.29543,"lon":5.42316,"is_reserved":false,"is_disabled":false,"rental_uris":{"android":"levelo://app?vid=6408b994-ae56-4e32-95b9-cb0502299b0f","ios":"levelo://app?vid=6408b994-ae56-4e32-95b9-cb0502299b0f"},"vehicle_type_id":"4","last_reported":1739783476,"current_range_meters":35600,"station_id":"ce4bhph2rcd13ifvqhdg","pricing_plan_id":"cebpf4jnsgd1na2vs0mg"},{"bike_id":"e87d3a2a-e0eb-491b-a724-860180a65cab","system_id":"levelo_inurba_marseille","lat":43.27283,"lon":5.40054,"is_reserved":false,"is_disabled":false,"rental_uris":{"android":"levelo://app?vid=e87d3a2a-e0eb-491b-a724-860180a65cab","ios":"levelo://app?vid=e87d3a2a-e0eb-491b-a724-860180a65cab"},"vehicle_type_id":"4","last_reported":1739783476,"current_range_meters":14000,"station_id":"","pricing_plan_id":"cebpf4jnsgd1na2vs0mg"},{"bike_id":"417b0c20-2f02-46f3-bb58-667c147610ba","system_id":"levelo_inurba_marseille","lat":43.29848,"lon":5.36287,"is_reserved":false,"is_disabled":false,"rental_uris":{"android":"levelo://app?vid=417b0c20-2f02-46f3-bb58-667c147610ba","ios":"levelo://app?vid=417b0c20-2f02-46f3-bb58-667c147610ba"},"vehicle_type_id":"4","last_reported":1739783476,"current_range_meters":39200,"station_id":"ce4bgpp2rcd13ifvqc3g","pricing_plan_id":"cebpf4jnsgd1na2vs0mg"},{"bike_id":"ee43bc7e-9079-4a6e-9474-660b79c448e1","system_id":"levelo_inurba_marseille","lat":43.22928,"lon":5.35395,"is_reserved":false,"is_disabled":false,"rental_uris":{"android":"levelo://app?vid=ee43bc7e-9079-4a6e-9474-660b79c448e1","ios":"levelo://app?vid=ee43bc7e-9079-4a6e-9474-660b79c448e1"},"vehicle_type_id":"4","last_reported":1739783476,"current_range_meters":27600,"station_id":"cpo3532slgdg3j2ikp40","pricing_plan_id":"cebpf4jnsgd1na2vs0mg"},{"bike_id":"f364e7fd-b7af-4331-9c85-154b4666d931","system_id":"levelo_inurba_marseille","lat":43.28428,"lon":5.34999,"is_reserved":false,"is_disabled":true,"rental_uris":{"android":"levelo://app?vid=f364e7fd-b7af-4331-9c85-154b4666d931","ios":"levelo://app?vid=f364e7fd-b7af-4331-9c85-154b4666d931"},"vehicle_type_id":"4","last_reported":1739783476,"current_range_meters":0,"station_id":"ce4bhbh2rcd13ifvqepg","pricing_plan_id":"cebpf4jnsgd1na2vs0mg"},{"bike_id":"5db111c7-1bdc-4058-82eb-37fd52234bf5","system_id":"levelo_inurba_marseille","lat":43.3138,"lon":5.38501,"is_reserved":false,"is_disabled":false,"rental_uris":{"android":"levelo://app?vid=5db111c7-1bdc-4058-82eb-37fd52234bf5","ios":"levelo://app?vid=5db111c7-1bdc-4058-82eb-37fd52234bf5"},"vehicle_type_id":"4","last_reported":1739783476,"current_range_meters":37600,"station_id":"ce4bgt92rcd13ifvqcf0","pricing_plan_id":"cebpf4jnsgd1na2vs0mg"},{"bike_id":"454b7374-9a47-442e-8c32-ca2213950149","system_id":"levelo_inurba_marseille","lat":43.29518,"lon":5.37504,"is_reserved":false,"is_disabled":false,"rental_uris":{"android":"levelo://app?vid=454b7374-9a47-442e-8c32-ca2213950149","ios":"levelo://app?vid=454b7374-9a47-442e-8c32-ca2213950149"},"vehicle_type_id":"4","last_reported":1739783476,"current_range_meters":38000,"station_id":"ce4bgkp2rcd13ifvqbmg","pricing_plan_id":"cebpf4jnsgd1na2vs0mg"},{"bike_id":"7df33989-9cd1-4583-a90f-25c190f648b5","system_id":"levelo_inurba_marseille","lat":43.29339,"lon":5.38668,"is_reserved":false,"is_disabled":false,"rental_uris":{"android":"levelo://app?vid=7df33989-9cd1-4583-a90f-25c190f648b5","ios":"levelo://app?vid=7df33989-9cd1-4583-a90f-25c190f648b5"},"vehicle_type_id":"4","last_reported":1739783476,"current_range_meters":27600,"station_id":"","pricing_plan_id":"cebpf4jnsgd1na2vs0mg"},{"bike_id":"525e8ae5-1a59-4c86-aa47-74b4347d29ca","system_id":"levelo_inurba_marseille","lat":43.24999,"lon":5.38931,"is_reserved":false,"is_disabled":false,"rental_uris":{"android":"levelo://app?vid=525e8ae5-1a59-4c86-aa47-74b4347d29ca","ios":"levelo://app?vid=525e8ae5-1a59-4c86-aa47-74b4347d29ca"},"vehicle_type_id":"4","last_reported":1739783476,"current_range_meters":30800,"station_id":"ce4bhgp2rcd13ifvqfd0","pricing_plan_id":"cebpf4jnsgd1na2vs0mg"},{"bike_id":"05f82d89-fa80-4f7f-95e3-de8829322c89","system_id":"levelo_inurba_marseille","lat":43.25477,"lon":5.37677,"is_reserved":false,"is_disabled":true,"rental_uris":{"android":"levelo://app?vid=05f82d89-fa80-4f7f-95e3-de8829322c89","ios":"levelo://app?vid=05f82d89-fa80-4f7f-95e3-de8829322c89"},"vehicle_type_id":"4","last_reported":1739783476,"current_range_meters":28400,"station_id":"ce4bhh12rcd13ifvqff0","pricing_plan_id":"cebpf4jnsgd1na2vs0mg"},{"bike_id":"0971801d-b899-4c4b-b1c4-7e4e383e8915","system_id":"levelo_inurba_marseille","lat":43.30542,"lon":5.36557,"is_reserved":false,"is_disabled":true,"rental_uris":{"android":"levelo://app?vid=0971801d-b899-4c4b-b1c4-7e4e383e8915","ios":"levelo://app?vid=0971801d-b899-4c4b-b1c4-7e4e383e8915"},"vehicle_type_id":"4","last_reported":1739783476,"current_range_meters":0,"station_id":"ce4bgs12rcd13ifvqcag","pricing_plan_id":"cebpf4jnsgd1na2vs0mg"},{"bike_id":"281b84f3-58f9-4822-a666-06aa2e562366","system_id":"levelo_inurba_marseille","lat":43.24153,"lon":5.36425,"is_reserved":false,"is_disabled":false,"rental_uris":{"android":"levelo://app?vid=281b84f3-58f9-4822-a666-06aa2e562366","ios":"levelo://app?vid=281b84f3-58f9-4822-a666-06aa2e562366"},"vehicle_type_id":"4","last_reported":1739783476,"current_range_meters":23200,"station_id":"cpo36qri1sfpv3e86is0","pricing_plan_id":"cebpf4jnsgd1na2vs0mg"},{"bike_id":"f58c78ee-fb4b-4848-9574-1fd30425a15a","system_id":"levelo_inurba_marseille","lat":43.32484,"lon":5.36551,"is_reserved":false,"is_disabled":false,"rental_uris":{"android":"levelo://app?vid=f58c78ee-fb4b-4848-9574-1fd30425a15a","ios":"levelo://app?vid=f58c78ee-fb4b-4848-9574-1fd30425a15a"},"vehicle_type_id":"4","last_reported":1739783476,"current_range_meters":28000,"station_id":"ce4bhs12rcd13ifvqhvg","pricing_plan_id":"cebpf4jnsgd1na2vs0mg"},{"bike_id":"ad464612-ddad-49fc-a807-b87bef42b41a","system_id":"levelo_inurba_marseille","lat":43.31248,"lon":5.36857,"is_reserved":false,"is_disabled":false,"rental_uris":{"android":"levelo://app?vid=ad464612-ddad-49fc-a807-b87bef42b41a","ios":"levelo://app?vid=ad464612-ddad-49fc-a807-b87bef42b41a"},"vehicle_type_id":"4","last_reported":1739783476,"current_range_meters":39200,"station_id":"ce4bgl92rcd13ifvqbq0","pricing_plan_id":"cebpf4jnsgd1na2vs0mg"},{"bike_id":"5a9e4965-0ff0-43b9-a7b3-623db5c7b058","system_id":"levelo_inurba_marseille","lat":43.30524,"lon":5.36719,"is_reserved":false,"is_disabled":false,"rental_uris":{"android":"levelo://app?vid=5a9e4965-0ff0-43b9-a7b3-623db5c7b058","ios":"levelo://app?vid=5a9e4965-0ff0-43b9-a7b3-623db5c7b058"},"vehicle_type_id":"4","last_reported":1739783476,"current_range_meters":24000,"station_id":"ce4bgrp2rcd13ifvqc9g","pricing_plan_id":"cebpf4jnsgd1na2vs0mg"},{"bike_id":"06d8bc70-1b69-4c2c-b808-e4ae97d1cdfc","system_id":"levelo_inurba_marseille","lat":43.24075,"lon":5.37749,"is_reserved":false,"is_disabled":false,"rental_uris":{"android":"levelo://app?vid=06d8bc70-1b69-4c2c-b808-e4ae97d1cdfc","ios":"levelo://app?vid=06d8bc70-1b69-4c2c-b808-e4ae97d1cdfc"},"vehicle_type_id":"4","last_reported":1739783476,"current_range_meters":28800,"station_id":"ce4bhnp2rcd13ifvqgvg","pricing_plan_id":"cebpf4jnsgd1na2vs0mg"},{"bike_id":"e328acb7-679c-4a2f-a78d-06dc8b30e407","system_id":"levelo_inurba_marseille","lat":43.25938,"lon":5.40904,"is_reserved":false,"is_disabled":false,"rental_uris":{"android":"levelo://app?vid=e328acb7-679c-4a2f-a78d-06dc8b30e407","ios":"levelo://app?vid=e328acb7-679c-4a2f-a78d-06dc8b30e407"},"vehicle_type_id":"4","last_reported":1739783476,"current_range_meters":26800,"station_id":"ce4bhm92rcd13ifvqglg","pricing_plan_id":"cebpf4jnsgd1na2vs0mg"},{"bike_id":"917b1dc0-adb2-4903-84ef-22990e0daa55","system_id":"levelo_inurba_marseille","lat":43.3041,"lon":5.41288,"is_reserved":false,"is_disabled":false,"rental_uris":{"android":"levelo://app?vid=917b1dc0-adb2-4903-84ef-22990e0daa55","ios":"levelo://app?vid=917b1dc0-adb2-4903-84ef-22990e0daa55"},"vehicle_type_id":"4","last_reported":1739783476,"current_range_meters":29600,"station_id":"ce4bhop2rcd13ifvqh8g","pricing_plan_id":"cebpf4jnsgd1na2vs0mg"},{"bike_id":"70e39e3f-dcb0-45af-a9eb-7ed85a8c3f1c","system_id":"levelo_inurba_marseille","lat":43.29617,"lon":5.37709,"is_reserved":false,"is_disabled":false,"rental_uris":{"android":"levelo://app?vid=70e39e3f-dcb0-45af-a9eb-7ed85a8c3f1c","ios":"levelo://app?vid=70e39e3f-dcb0-45af-a9eb-7ed85a8c3f1c"},"vehicle_type_id":"4","last_reported":1739783476,"current_range_meters":35600,"station_id":"ce4bgi92rcd13ifvqb90","pricing_plan_id":"cebpf4jnsgd1na2vs0mg"},{"bike_id":"03eba1d0-92c1-4e6e-a4d0-7c546f2439c0","system_id":"levelo_inurba_marseille","lat":43.337444,"lon":5.374475,"is_reserved":false,"is_disabled":true,"rental_uris":{"android":"levelo://app?vid=03eba1d0-92c1-4e6e-a4d0-7c546f2439c0","ios":"levelo://app?vid=03eba1d0-92c1-4e6e-a4d0-7c546f2439c0"},"vehicle_type_id":"4","last_reported":1739783476,"current_range_meters":0,"station_id":"","pricing_plan_id":"cebpf4jnsgd1na2vs0mg"},{"bike_id":"7670b8ae-6f61-4d26-b077-17100b95f8ab","system_id":"levelo_inurba_marseille","lat":43.284399,"lon":5.391826,"is_reserved":false,"is_disabled":true,"rental_uris":{"android":"levelo://app?vid=7670b8ae-6f61-4d26-b077-17100b95f8ab","ios":"levelo://app?vid=7670b8ae-6f61-4d26-b077-17100b95f8ab"},"vehicle_type_id":"4","last_reported":1739783476,"current_range_meters":25200,"station_id":"ce4bhoh2rcd13ifvqh5g","pricing_plan_id":"cebpf4jnsgd1na2vs0mg"},{"bike_id":"38ee41ae-9cfe-413e-87bb-654ec783f4a8","system_id":"levelo_inurba_marseille","lat":43.30307,"lon":5.36879,"is_reserved":false,"is_disabled":false,"rental_uris":{"android":"levelo://app?vid=38ee41ae-9cfe-413e-87bb-654ec783f4a8","ios":"levelo://app?vid=38ee41ae-9cfe-413e-87bb-654ec783f4a8"},"vehicle_type_id":"4","last_reported":1739783476,"current_range_meters":24800,"station_id":"ce4bgqh2rcd13ifvqc5g","pricing_plan_id":"cebpf4jnsgd1na2vs0mg"},{"bike_id":"8c6e1647-a201-42d6-9e2c-07bf21681fa3","system_id":"levelo_inurba_marseille","lat":43.31908,"lon":5.40733,"is_reserved":false,"is_disabled":true,"rental_uris":{"android":"levelo://app?vid=8c6e1647-a201-42d6-9e2c-07bf21681fa3","ios":"levelo://app?vid=8c6e1647-a201-42d6-9e2c-07bf21681fa3"},"vehicle_type_id":"4","last_reported":1739783476,"current_range_meters":12800,"station_id":"ce4bhq12rcd13ifvqhig","pricing_plan_id":"cebpf4jnsgd1na2vs0mg"},{"bike_id":"1428769c-6a51-4357-b831-06dcccd012d2","system_id":"levelo_inurba_marseille","lat":43.2592,"lon":5.40889,"is_reserved":false,"is_disabled":false,"rental_uris":{"android":"levelo://app?vid=1428769c-6a51-4357-b831-06dcccd012d2","ios":"levelo://app?vid=1428769c-6a51-4357-b831-06dcccd012d2"},"vehicle_type_id":"4","last_reported":1739783476,"current_range_meters":28000,"station_id":"ce4bhm92rcd13ifvqglg","pricing_plan_id":"cebpf4jnsgd1na2vs0mg"},{"bike_id":"d7bb91c7-1e6c-4011-85a2-08678dbfba66","system_id":"levelo_inurba_marseille","lat":43.24397,"lon":5.37077,"is_reserved":false,"is_disabled":false,"rental_uris":{"android":"levelo://app?vid=d7bb91c7-1e6c-4011-85a2-08678dbfba66","ios":"levelo://app?vid=d7bb91c7-1e6c-4011-85a2-08678dbfba66"},"vehicle_type_id":"4","last_reported":1739783476,"current_range_meters":36400,"station_id":"ce4bhhh2rcd13ifvqfk0","pricing_plan_id":"cebpf4jnsgd1na2vs0mg"},{"bike_id":"0708a0eb-1ca4-41db-8b4e-8a337bdbbfb6","system_id":"levelo_inurba_marseille","lat":43.27223,"lon":5.39175,"is_reserved":false,"is_disabled":false,"rental_uris":{"android":"levelo://app?vid=0708a0eb-1ca4-41db-8b4e-8a337bdbbfb6","ios":"levelo://app?vid=0708a0eb-1ca4-41db-8b4e-8a337bdbbfb6"},"vehicle_type_id":"4","last_reported":1739783476,"current_range_meters":30400,"station_id":"ce4bhhp2rcd13ifvqfm0","pricing_plan_id":"cebpf4jnsgd1na2vs0mg"},{"bike_id":"b6edf18d-d416-4d04-97d5-d59b647b0ab1","system_id":"levelo_inurba_marseille","lat":43.29553,"lon":5.37528,"is_reserved":false,"is_disabled":false,"rental_uris":{"android":"levelo://app?vid=b6edf18d-d416-4d04-97d5-d59b647b0ab1","ios":"levelo://app?vid=b6edf18d-d416-4d04-97d5-d59b647b0ab1"},"vehicle_type_id":"4","last_reported":1739783476,"current_range_meters":35600,"station_id":"ce4bgh92rcd13ifvqb50","pricing_plan_id":"cebpf4jnsgd1na2vs0mg"},{"bike_id":"eefb42e1-5d0b-4e4b-b7e3-30827f488ef0","system_id":"levelo_inurba_marseille","lat":43.31198,"lon":5.36911,"is_reserved":false,"is_disabled":false,"rental_uris":{"android":"levelo://app?vid=eefb42e1-5d0b-4e4b-b7e3-30827f488ef0","ios":"levelo://app?vid=eefb42e1-5d0b-4e4b-b7e3-30827f488ef0"},"vehicle_type_id":"4","last_reported":1739783476,"current_range_meters":34800,"station_id":"","pricing_plan_id":"cebpf4jnsgd1na2vs0mg"},{"bike_id":"8c2cb4e7-cc7a-458e-beca-ed80b12306ff","system_id":"levelo_inurba_marseille","lat":43.30123,"lon":5.3987,"is_reserved":false,"is_disabled":true,"rental_uris":{"android":"levelo://app?vid=8c2cb4e7-cc7a-458e-beca-ed80b12306ff","ios":"levelo://app?vid=8c2cb4e7-cc7a-458e-beca-ed80b12306ff"},"vehicle_type_id":"4","last_reported":1739783476,"current_range_meters":0,"station_id":"ce4bh0h2rcd13ifvqd40","pricing_plan_id":"cebpf4jnsgd1na2vs0mg"},{"bike_id":"bd1fbd17-5ecd-4c2a-9290-d1ffd1a70214","system_id":"levelo_inurba_marseille","lat":43.29549,"lon":5.4229,"is_reserved":false,"is_disabled":false,"rental_uris":{"android":"levelo://app?vid=bd1fbd17-5ecd-4c2a-9290-d1ffd1a70214","ios":"levelo://app?vid=bd1fbd17-5ecd-4c2a-9290-d1ffd1a70214"},"vehicle_type_id":"4","last_reported":1739783476,"current_range_meters":25600,"station_id":"ce4bhph2rcd13ifvqhdg","pricing_plan_id":"cebpf4jnsgd1na2vs0mg"},{"bike_id":"4a967575-c32f-481c-8f1b-30d107b8f3c7","system_id":"levelo_inurba_marseille","lat":43.27966,"lon":5.38706,"is_reserved":false,"is_disabled":false,"rental_uris":{"android":"levelo://app?vid=4a967575-c32f-481c-8f1b-30d107b8f3c7","ios":"levelo://app?vid=4a967575-c32f-481c-8f1b-30d107b8f3c7"},"vehicle_type_id":"4","last_reported":1739783476,"current_range_meters":39200,"station_id":"ce4bhg12rcd13ifvqf80","pricing_plan_id":"cebpf4jnsgd1na2vs0mg"},{"bike_id":"daaefbd1-f716-4452-abf8-306218356420","system_id":"levelo_inurba_marseille","lat":43.30132,"lon":5.38799,"is_reserved":false,"is_disabled":false,"rental_uris":{"android":"levelo://app?vid=daaefbd1-f716-4452-abf8-306218356420","ios":"levelo://app?vid=daaefbd1-f716-4452-abf8-306218356420"},"vehicle_type_id":"4","last_reported":1739783476,"current_range_meters":36400,"station_id":"ce4bghh2rcd13ifvqb60","pricing_plan_id":"cebpf4jnsgd1na2vs0mg"},{"bike_id":"d2e01317-2950-420e-b1aa-8f1e4398c1e8","system_id":"levelo_inurba_marseille","lat":43.23187,"lon":5.35567,"is_reserved":false,"is_disabled":false,"rental_uris":{"android":"levelo://app?vid=d2e01317-2950-420e-b1aa-8f1e4398c1e8","ios":"levelo://app?vid=d2e01317-2950-420e-b1aa-8f1e4398c1e8"},"vehicle_type_id":"4","last_reported":1739783476,"current_range_meters":37600,"station_id":"ce4bhu92rcd13ifvqi70","pricing_plan_id":"cebpf4jnsgd1na2vs0mg"},{"bike_id":"99b60497-417a-4e6c-9e27-ce3655ce5e57","system_id":"levelo_inurba_marseille","lat":43.3066,"lon":5.40089,"is_reserved":false,"is_disabled":true,"rental_uris":{"android":"levelo://app?vid=99b60497-417a-4e6c-9e27-ce3655ce5e57","ios":"levelo://app?vid=99b60497-417a-4e6c-9e27-ce3655ce5e57"},"vehicle_type_id":"4","last_reported":1739783476,"current_range_meters":20000,"station_id":"ce4bh112rcd13ifvqda0","pricing_plan_id":"cebpf4jnsgd1na2vs0mg"},{"bike_id":"73cf3ae4-8159-40aa-ba5f-6d782a282a78","system_id":"levelo_inurba_marseille","lat":43.29771,"lon":5.38141,"is_reserved":false,"is_disabled":false,"rental_uris":{"android":"levelo://app?vid=73cf3ae4-8159-40aa-ba5f-6d782a282a78","ios":"levelo://app?vid=73cf3ae4-8159-40aa-ba5f-6d782a282a78"},"vehicle_type_id":"4","last_reported":1739783476,"current_range_meters":24000,"station_id":"ce4bgip2rcd13ifvqbb0","pricing_plan_id":"cebpf4jnsgd1na2vs0mg"},{"bike_id":"fdbe1c87-3470-4d42-a2f8-e6c80454708a","system_id":"levelo_inurba_marseille","lat":43.23971,"lon":5.36617,"is_reserved":false,"is_disabled":false,"rental_uris":{"android":"levelo://app?vid=fdbe1c87-3470-4d42-a2f8-e6c80454708a","ios":"levelo://app?vid=fdbe1c87-3470-4d42-a2f8-e6c80454708a"},"vehicle_type_id":"4","last_reported":1739783476,"current_range_meters":38800,"station_id":"ce4bhi12rcd13ifvqfp0","pricing_plan_id":"cebpf4jnsgd1na2vs0mg"},{"bike_id":"71c7c498-0318-45af-b3a3-d37cd45b4df6","system_id":"levelo_inurba_marseille","lat":43.25076,"lon":5.39493,"is_reserved":false,"is_disabled":false,"rental_uris":{"android":"levelo://app?vid=71c7c498-0318-45af-b3a3-d37cd45b4df6","ios":"levelo://app?vid=71c7c498-0318-45af-b3a3-d37cd45b4df6"},"vehicle_type_id":"4","last_reported":1739783476,"current_range_meters":39200,"station_id":"ce4bhm12rcd13ifvqgkg","pricing_plan_id":"cebpf4jnsgd1na2vs0mg"},{"bike_id":"d63b7867-53a4-4bca-be72-b856d1cbea50","system_id":"levelo_inurba_marseille","lat":43.23967,"lon":5.36617,"is_reserved":false,"is_disabled":false,"rental_uris":{"android":"levelo://app?vid=d63b7867-53a4-4bca-be72-b856d1cbea50","ios":"levelo://app?vid=d63b7867-53a4-4bca-be72-b856d1cbea50"},"vehicle_type_id":"4","last_reported":1739783476,"current_range_meters":16800,"station_id":"ce4bhi12rcd13ifvqfp0","pricing_plan_id":"cebpf4jnsgd1na2vs0mg"},{"bike_id":"537f657e-805d-4d6c-80a4-61eb10dff17a","system_id":"levelo_inurba_marseille","lat":43.23153,"lon":5.43717,"is_reserved":false,"is_disabled":false,"rental_uris":{"android":"levelo://app?vid=537f657e-805d-4d6c-80a4-61eb10dff17a","ios":"levelo://app?vid=537f657e-805d-4d6c-80a4-61eb10dff17a"},"vehicle_type_id":"4","last_reported":1739783476,"current_range_meters":25600,"station_id":"ce4bhmp2rcd13ifvqgog","pricing_plan_id":"cebpf4jnsgd1na2vs0mg"},{"bike_id":"57a5c251-6123-470e-813e-a9340a0256fe","system_id":"levelo_inurba_marseille","lat":43.24163,"lon":5.36417,"is_reserved":false,"is_disabled":false,"rental_uris":{"android":"levelo://app?vid=57a5c251-6123-470e-813e-a9340a0256fe","ios":"levelo://app?vid=57a5c251-6123-470e-813e-a9340a0256fe"},"vehicle_type_id":"4","last_reported":1739783476,"current_range_meters":38000,"station_id":"cpo36qri1sfpv3e86is0","pricing_plan_id":"cebpf4jnsgd1na2vs0mg"},{"bike_id":"1ea141da-264c-47ee-846e-fd24ef27a30f","system_id":"levelo_inurba_marseille","lat":43.29178,"lon":5.37167,"is_reserved":false,"is_disabled":false,"rental_uris":{"android":"levelo://app?vid=1ea141da-264c-47ee-846e-fd24ef27a30f","ios":"levelo://app?vid=1ea141da-264c-47ee-846e-fd24ef27a30f"},"vehicle_type_id":"4","last_reported":1739783476,"current_range_meters":34000,"station_id":"ce4bha92rcd13ifvqeh0","pricing_plan_id":"cebpf4jnsgd1na2vs0mg"},{"bike_id":"c075d7ae-8522-45a4-9c7f-72228d954200","system_id":"levelo_inurba_marseille","lat":43.30148,"lon":5.38087,"is_reserved":false,"is_disabled":false,"rental_uris":{"android":"levelo://app?vid=c075d7ae-8522-45a4-9c7f-72228d954200","ios":"levelo://app?vid=c075d7ae-8522-45a4-9c7f-72228d954200"},"vehicle_type_id":"4","last_reported":1739783476,"current_range_meters":22400,"station_id":"ce4bgjp2rcd13ifvqbh0","pricing_plan_id":"cebpf4jnsgd1na2vs0mg"},{"bike_id":"27823819-3a1f-42dd-8df7-b6ed3ae2b70c","system_id":"levelo_inurba_marseille","lat":43.25013,"lon":5.3893,"is_reserved":false,"is_disabled":false,"rental_uris":{"android":"levelo://app?vid=27823819-3a1f-42dd-8df7-b6ed3ae2b70c","ios":"levelo://app?vid=27823819-3a1f-42dd-8df7-b6ed3ae2b70c"},"vehicle_type_id":"4","last_reported":1739783476,"current_range_meters":39200,"station_id":"ce4bhgp2rcd13ifvqfd0","pricing_plan_id":"cebpf4jnsgd1na2vs0mg"},{"bike_id":"02db7a28-fc2d-4a4a-92a0-cec040e64718","system_id":"levelo_inurba_marseille","lat":43.23967,"lon":5.36633,"is_reserved":false,"is_disabled":true,"rental_uris":{"android":"levelo://app?vid=02db7a28-fc2d-4a4a-92a0-cec040e64718","ios":"levelo://app?vid=02db7a28-fc2d-4a4a-92a0-cec040e64718"},"vehicle_type_id":"4","last_reported":1739783476,"current_range_meters":38800,"station_id":"ce4bhi12rcd13ifvqfp0","pricing_plan_id":"cebpf4jnsgd1na2vs0mg"},{"bike_id":"4241224e-3071-444a-8a10-6b49d18f7350","system_id":"levelo_inurba_marseille","lat":43.29916,"lon":5.37466,"is_reserved":false,"is_disabled":false,"rental_uris":{"android":"levelo://app?vid=4241224e-3071-444a-8a10-6b49d18f7350","ios":"levelo://app?vid=4241224e-3071-444a-8a10-6b49d18f7350"},"vehicle_type_id":"4","last_reported":1739783476,"current_range_meters":36800,"station_id":"ce4bgjh2rcd13ifvqbg0","pricing_plan_id":"cebpf4jnsgd1na2vs0mg"},{"bike_id":"6f820518-8b07-484a-8c43-5d5451e338e7","system_id":"levelo_inurba_marseille","lat":43.231995,"lon":5.355585,"is_reserved":false,"is_disabled":false,"rental_uris":{"android":"levelo://app?vid=6f820518-8b07-484a-8c43-5d5451e338e7","ios":"levelo://app?vid=6f820518-8b07-484a-8c43-5d5451e338e7"},"vehicle_type_id":"4","last_reported":1739783476,"current_range_meters":26000,"station_id":"ce4bhu92rcd13ifvqi70","pricing_plan_id":"cebpf4jnsgd1na2vs0mg"},{"bike_id":"e9df70a0-1b8c-4c51-a61c-68ff2e71de13","system_id":"levelo_inurba_marseille","lat":43.23056,"lon":5.35493,"is_reserved":false,"is_disabled":true,"rental_uris":{"android":"levelo://app?vid=e9df70a0-1b8c-4c51-a61c-68ff2e71de13","ios":"levelo://app?vid=e9df70a0-1b8c-4c51-a61c-68ff2e71de13"},"vehicle_type_id":"4","last_reported":1739783476,"current_range_meters":0,"station_id":"cpo3342slgdg3j2ifvpg","pricing_plan_id":"cebpf4jnsgd1na2vs0mg"},{"bike_id":"a9435078-b37d-4b66-8ba3-351df71c7743","system_id":"levelo_inurba_marseille","lat":43.25914,"lon":5.40874,"is_reserved":false,"is_disabled":false,"rental_uris":{"android":"levelo://app?vid=a9435078-b37d-4b66-8ba3-351df71c7743","ios":"levelo://app?vid=a9435078-b37d-4b66-8ba3-351df71c7743"},"vehicle_type_id":"4","last_reported":1739783476,"current_range_meters":16000,"station_id":"ce4bhm92rcd13ifvqglg","pricing_plan_id":"cebpf4jnsgd1na2vs0mg"},{"bike_id":"a3b76a23-e719-4cac-9132-63d31b15a8de","system_id":"levelo_inurba_marseille","lat":43.24168,"lon":5.36378,"is_reserved":false,"is_disabled":false,"rental_uris":{"android":"levelo://app?vid=a3b76a23-e719-4cac-9132-63d31b15a8de","ios":"levelo://app?vid=a3b76a23-e719-4cac-9132-63d31b15a8de"},"vehicle_type_id":"4","last_reported":1739783476,"current_range_meters":20800,"station_id":"cpo36qri1sfpv3e86is0","pricing_plan_id":"cebpf4jnsgd1na2vs0mg"},{"bike_id":"779deb1f-aa5b-49dd-898c-85e1c50d1236","system_id":"levelo_inurba_marseille","lat":43.2795,"lon":5.38718,"is_reserved":false,"is_disabled":false,"rental_uris":{"android":"levelo://app?vid=779deb1f-aa5b-49dd-898c-85e1c50d1236","ios":"levelo://app?vid=779deb1f-aa5b-49dd-898c-85e1c50d1236"},"vehicle_type_id":"4","last_reported":1739783476,"current_range_meters":12800,"station_id":"ce4bhg12rcd13ifvqf80","pricing_plan_id":"cebpf4jnsgd1na2vs0mg"},{"bike_id":"9bc7b052-58dd-4c47-ad3a-4593c0d171fb","system_id":"levelo_inurba_marseille","lat":43.25904,"lon":5.40851,"is_reserved":false,"is_disabled":false,"rental_uris":{"android":"levelo://app?vid=9bc7b052-58dd-4c47-ad3a-4593c0d171fb","ios":"levelo://app?vid=9bc7b052-58dd-4c47-ad3a-4593c0d171fb"},"vehicle_type_id":"4","last_reported":1739783476,"current_range_meters":35600,"station_id":"ce4bhm92rcd13ifvqglg","pricing_plan_id":"cebpf4jnsgd1na2vs0mg"},{"bike_id":"258be405-9cfd-4c31-ae2b-a565b6c705f0","system_id":"levelo_inurba_marseille","lat":43.25493,"lon":5.37655,"is_reserved":false,"is_disabled":false,"rental_uris":{"android":"levelo://app?vid=258be405-9cfd-4c31-ae2b-a565b6c705f0","ios":"levelo://app?vid=258be405-9cfd-4c31-ae2b-a565b6c705f0"},"vehicle_type_id":"4","last_reported":1739783476,"current_range_meters":20000,"station_id":"ce4bhh12rcd13ifvqff0","pricing_plan_id":"cebpf4jnsgd1na2vs0mg"},{"bike_id":"23f4d644-5da8-4f63-9fcd-b616fc0f6637","system_id":"levelo_inurba_marseille","lat":43.26944,"lon":5.38642,"is_reserved":false,"is_disabled":false,"rental_uris":{"android":"levelo://app?vid=23f4d644-5da8-4f63-9fcd-b616fc0f6637","ios":"levelo://app?vid=23f4d644-5da8-4f63-9fcd-b616fc0f6637"},"vehicle_type_id":"4","last_reported":1739783476,"current_range_meters":24400,"station_id":"ce4bhh92rcd13ifvqfh0","pricing_plan_id":"cebpf4jnsgd1na2vs0mg"},{"bike_id":"79e68a4f-419a-4af7-92c7-1257a14dad6f","system_id":"levelo_inurba_marseille","lat":43.25939,"lon":5.40868,"is_reserved":false,"is_disabled":false,"rental_uris":{"android":"levelo://app?vid=79e68a4f-419a-4af7-92c7-1257a14dad6f","ios":"levelo://app?vid=79e68a4f-419a-4af7-92c7-1257a14dad6f"},"vehicle_type_id":"4","last_reported":1739783476,"current_range_meters":23200,"station_id":"ce4bhm92rcd13ifvqglg","pricing_plan_id":"cebpf4jnsgd1na2vs0mg"},{"bike_id":"ec80d936-f97c-458c-8a78-ab2480c6cc41","system_id":"levelo_inurba_marseille","lat":43.24176,"lon":5.39728,"is_reserved":false,"is_disabled":false,"rental_uris":{"android":"levelo://app?vid=ec80d936-f97c-458c-8a78-ab2480c6cc41","ios":"levelo://app?vid=ec80d936-f97c-458c-8a78-ab2480c6cc41"},"vehicle_type_id":"4","last_reported":1739783476,"current_range_meters":4800,"station_id":"ce4bhn12rcd13ifvqgpg","pricing_plan_id":"cebpf4jnsgd1na2vs0mg"},{"bike_id":"82f93201-9ddb-4e09-abcb-9f6f41679371","system_id":"levelo_inurba_marseille","lat":43.24167,"lon":5.36394,"is_reserved":false,"is_disabled":false,"rental_uris":{"android":"levelo://app?vid=82f93201-9ddb-4e09-abcb-9f6f41679371","ios":"levelo://app?vid=82f93201-9ddb-4e09-abcb-9f6f41679371"},"vehicle_type_id":"4","last_reported":1739783476,"current_range_meters":6400,"station_id":"cpo36qri1sfpv3e86is0","pricing_plan_id":"cebpf4jnsgd1na2vs0mg"},{"bike_id":"ddb23a78-9168-40a6-adc0-5279f44ac004","system_id":"levelo_inurba_marseille","lat":43.26684,"lon":5.38279,"is_reserved":false,"is_disabled":false,"rental_uris":{"android":"levelo://app?vid=ddb23a78-9168-40a6-adc0-5279f44ac004","ios":"levelo://app?vid=ddb23a78-9168-40a6-adc0-5279f44ac004"},"vehicle_type_id":"4","last_reported":1739783476,"current_range_meters":33200,"station_id":"ce4bhg92rcd13ifvqf90","pricing_plan_id":"cebpf4jnsgd1na2vs0mg"},{"bike_id":"f026ff0e-527c-44b0-8f8b-7868939d2dd0","system_id":"levelo_inurba_marseille","lat":43.25495,"lon":5.37653,"is_reserved":false,"is_disabled":false,"rental_uris":{"android":"levelo://app?vid=f026ff0e-527c-44b0-8f8b-7868939d2dd0","ios":"levelo://app?vid=f026ff0e-527c-44b0-8f8b-7868939d2dd0"},"vehicle_type_id":"4","last_reported":1739783476,"current_range_meters":32400,"station_id":"ce4bhh12rcd13ifvqff0","pricing_plan_id":"cebpf4jnsgd1na2vs0mg"},{"bike_id":"b06b3b02-c471-4350-a56d-ff93868a8a55","system_id":"levelo_inurba_marseille","lat":43.2827,"lon":5.35078,"is_reserved":false,"is_disabled":false,"rental_uris":{"android":"levelo://app?vid=b06b3b02-c471-4350-a56d-ff93868a8a55","ios":"levelo://app?vid=b06b3b02-c471-4350-a56d-ff93868a8a55"},"vehicle_type_id":"4","last_reported":1739783476,"current_range_meters":24000,"station_id":"ce4bhbp2rcd13ifvqerg","pricing_plan_id":"cebpf4jnsgd1na2vs0mg"},{"bike_id":"ca4a1c0d-ebef-4c94-8a72-3aef289df059","system_id":"levelo_inurba_marseille","lat":43.2505,"lon":5.38887,"is_reserved":false,"is_disabled":false,"rental_uris":{"android":"levelo://app?vid=ca4a1c0d-ebef-4c94-8a72-3aef289df059","ios":"levelo://app?vid=ca4a1c0d-ebef-4c94-8a72-3aef289df059"},"vehicle_type_id":"4","last_reported":1739783476,"current_range_meters":31200,"station_id":"ce4bhgp2rcd13ifvqfd0","pricing_plan_id":"cebpf4jnsgd1na2vs0mg"},{"bike_id":"cffa96f5-75d4-4d95-b76c-ca2c6365ae9f","system_id":"levelo_inurba_marseille","lat":43.284745,"lon":5.38424,"is_reserved":false,"is_disabled":false,"rental_uris":{"android":"levelo://app?vid=cffa96f5-75d4-4d95-b76c-ca2c6365ae9f","ios":"levelo://app?vid=cffa96f5-75d4-4d95-b76c-ca2c6365ae9f"},"vehicle_type_id":"4","last_reported":1739783476,"current_range_meters":33600,"station_id":"ce4bh512rcd13ifvqe3g","pricing_plan_id":"cebpf4jnsgd1na2vs0mg"},{"bike_id":"3e9432a6-e37c-4121-8898-d0d58ef57823","system_id":"levelo_inurba_marseille","lat":43.26492,"lon":5.39575,"is_reserved":false,"is_disabled":false,"rental_uris":{"android":"levelo://app?vid=3e9432a6-e37c-4121-8898-d0d58ef57823","ios":"levelo://app?vid=3e9432a6-e37c-4121-8898-d0d58ef57823"},"vehicle_type_id":"4","last_reported":1739783476,"current_range_meters":38800,"station_id":"ce4bhi12rcd13ifvqfq0","pricing_plan_id":"cebpf4jnsgd1na2vs0mg"},{"bike_id":"c5a8c849-23ed-4929-84d6-14f02b87492a","system_id":"levelo_inurba_marseille","lat":43.30228,"lon":5.39471,"is_reserved":false,"is_disabled":false,"rental_uris":{"android":"levelo://app?vid=c5a8c849-23ed-4929-84d6-14f02b87492a","ios":"levelo://app?vid=c5a8c849-23ed-4929-84d6-14f02b87492a"},"vehicle_type_id":"4","last_reported":1739783476,"current_range_meters":14400,"station_id":"ce4bh0p2rcd13ifvqd70","pricing_plan_id":"cebpf4jnsgd1na2vs0mg"},{"bike_id":"973c8ef3-f0cf-4cce-96c0-743cbabe953e","system_id":"levelo_inurba_marseille","lat":43.25002,"lon":5.38947,"is_reserved":false,"is_disabled":false,"rental_uris":{"android":"levelo://app?vid=973c8ef3-f0cf-4cce-96c0-743cbabe953e","ios":"levelo://app?vid=973c8ef3-f0cf-4cce-96c0-743cbabe953e"},"vehicle_type_id":"4","last_reported":1739783476,"current_range_meters":9600,"station_id":"ce4bhgp2rcd13ifvqfd0","pricing_plan_id":"cebpf4jnsgd1na2vs0mg"},{"bike_id":"dd45e90b-e39f-46bc-a1b6-39ba97bb32a9","system_id":"levelo_inurba_marseille","lat":43.30801,"lon":5.38144,"is_reserved":false,"is_disabled":false,"rental_uris":{"android":"levelo://app?vid=dd45e90b-e39f-46bc-a1b6-39ba97bb32a9","ios":"levelo://app?vid=dd45e90b-e39f-46bc-a1b6-39ba97bb32a9"},"vehicle_type_id":"4","last_reported":1739783476,"current_range_meters":38400,"station_id":"ce4bgt12rcd13ifvqce0","pricing_plan_id":"cebpf4jnsgd1na2vs0mg"},{"bike_id":"63f21e04-3c8d-4940-8c60-debbf71b1647","system_id":"levelo_inurba_marseille","lat":43.29039,"lon":5.37565,"is_reserved":false,"is_disabled":false,"rental_uris":{"android":"levelo://app?vid=63f21e04-3c8d-4940-8c60-debbf71b1647","ios":"levelo://app?vid=63f21e04-3c8d-4940-8c60-debbf71b1647"},"vehicle_type_id":"4","last_reported":1739783476,"current_range_meters":30400,"station_id":"ce4bh692rcd13ifvqe90","pricing_plan_id":"cebpf4jnsgd1na2vs0mg"},{"bike_id":"cee4484a-586a-4bbb-8fe1-60f3ca703c13","system_id":"levelo_inurba_marseille","lat":43.30274,"lon":5.37703,"is_reserved":false,"is_disabled":false,"rental_uris":{"android":"levelo://app?vid=cee4484a-586a-4bbb-8fe1-60f3ca703c13","ios":"levelo://app?vid=cee4484a-586a-4bbb-8fe1-60f3ca703c13"},"vehicle_type_id":"4","last_reported":1739783476,"current_range_meters":36400,"station_id":"ce4bguh2rcd13ifvqcj0","pricing_plan_id":"cebpf4jnsgd1na2vs0mg"},{"bike_id":"ce525347-d89e-4a4b-b9d2-1469e02dd6ee","system_id":"levelo_inurba_marseille","lat":43.27834,"lon":5.39212,"is_reserved":false,"is_disabled":false,"rental_uris":{"android":"levelo://app?vid=ce525347-d89e-4a4b-b9d2-1469e02dd6ee","ios":"levelo://app?vid=ce525347-d89e-4a4b-b9d2-1469e02dd6ee"},"vehicle_type_id":"4","last_reported":1739783476,"current_range_meters":38000,"station_id":"ce4bhjp2rcd13ifvqga0","pricing_plan_id":"cebpf4jnsgd1na2vs0mg"},{"bike_id":"59bff9f6-f72d-4df2-a4e4-8b0e6b32f0cc","system_id":"levelo_inurba_marseille","lat":43.27875,"lon":5.3801,"is_reserved":false,"is_disabled":false,"rental_uris":{"android":"levelo://app?vid=59bff9f6-f72d-4df2-a4e4-8b0e6b32f0cc","ios":"levelo://app?vid=59bff9f6-f72d-4df2-a4e4-8b0e6b32f0cc"},"vehicle_type_id":"4","last_reported":1739783476,"current_range_meters":36000,"station_id":"ce4bhf92rcd13ifvqf50","pricing_plan_id":"cebpf4jnsgd1na2vs0mg"},{"bike_id":"2807a9bd-241b-4d44-9dc5-726459bdefcf","system_id":"levelo_inurba_marseille","lat":43.27316,"lon":5.3908,"is_reserved":false,"is_disabled":false,"rental_uris":{"android":"levelo://app?vid=2807a9bd-241b-4d44-9dc5-726459bdefcf","ios":"levelo://app?vid=2807a9bd-241b-4d44-9dc5-726459bdefcf"},"vehicle_type_id":"4","last_reported":1739783476,"current_range_meters":29600,"station_id":"ce4bhgp2rcd13ifvqfe0","pricing_plan_id":"cebpf4jnsgd1na2vs0mg"},{"bike_id":"d511c3fa-d5f4-4a0f-91ee-268d02b5310f","system_id":"levelo_inurba_marseille","lat":43.28604,"lon":5.35114,"is_reserved":false,"is_disabled":true,"rental_uris":{"android":"levelo://app?vid=d511c3fa-d5f4-4a0f-91ee-268d02b5310f","ios":"levelo://app?vid=d511c3fa-d5f4-4a0f-91ee-268d02b5310f"},"vehicle_type_id":"4","last_reported":1739783476,"current_range_meters":12000,"station_id":"ce4bhch2rcd13ifvqeug","pricing_plan_id":"cebpf4jnsgd1na2vs0mg"},{"bike_id":"c36c6340-fdb1-4d8a-917a-90df5718342f","system_id":"levelo_inurba_marseille","lat":43.24073,"lon":5.37761,"is_reserved":false,"is_disabled":false,"rental_uris":{"android":"levelo://app?vid=c36c6340-fdb1-4d8a-917a-90df5718342f","ios":"levelo://app?vid=c36c6340-fdb1-4d8a-917a-90df5718342f"},"vehicle_type_id":"4","last_reported":1739783476,"current_range_meters":24400,"station_id":"ce4bhnp2rcd13ifvqgvg","pricing_plan_id":"cebpf4jnsgd1na2vs0mg"},{"bike_id":"296d630c-5c48-4f7b-bed2-05712552fc73","system_id":"levelo_inurba_marseille","lat":43.2669,"lon":5.3827,"is_reserved":false,"is_disabled":false,"rental_uris":{"android":"levelo://app?vid=296d630c-5c48-4f7b-bed2-05712552fc73","ios":"levelo://app?vid=296d630c-5c48-4f7b-bed2-05712552fc73"},"vehicle_type_id":"4","last_reported":1739783476,"current_range_meters":36400,"station_id":"ce4bhg92rcd13ifvqf90","pricing_plan_id":"cebpf4jnsgd1na2vs0mg"},{"bike_id":"8d9d393c-2b8d-4a0f-81c7-f266f756929d","system_id":"levelo_inurba_marseille","lat":43.30433,"lon":5.38888,"is_reserved":false,"is_disabled":false,"rental_uris":{"android":"levelo://app?vid=8d9d393c-2b8d-4a0f-81c7-f266f756929d","ios":"levelo://app?vid=8d9d393c-2b8d-4a0f-81c7-f266f756929d"},"vehicle_type_id":"4","last_reported":1739783476,"current_range_meters":14400,"station_id":"ce4bgk12rcd13ifvqbi0","pricing_plan_id":"cebpf4jnsgd1na2vs0mg"},{"bike_id":"f00620ae-2110-4dbd-a2e7-cd7bf13fe429","system_id":"levelo_inurba_marseille","lat":43.23186,"lon":5.40007,"is_reserved":false,"is_disabled":true,"rental_uris":{"android":"levelo://app?vid=f00620ae-2110-4dbd-a2e7-cd7bf13fe429","ios":"levelo://app?vid=f00620ae-2110-4dbd-a2e7-cd7bf13fe429"},"vehicle_type_id":"4","last_reported":1739783476,"current_range_meters":32800,"station_id":"ce4bhn12rcd13ifvqgqg","pricing_plan_id":"cebpf4jnsgd1na2vs0mg"},{"bike_id":"05df7975-71a5-4cd7-9732-f6e0ff429d46","system_id":"levelo_inurba_marseille","lat":43.29555,"lon":5.42287,"is_reserved":false,"is_disabled":false,"rental_uris":{"android":"levelo://app?vid=05df7975-71a5-4cd7-9732-f6e0ff429d46","ios":"levelo://app?vid=05df7975-71a5-4cd7-9732-f6e0ff429d46"},"vehicle_type_id":"4","last_reported":1739783476,"current_range_meters":24400,"station_id":"ce4bhph2rcd13ifvqhdg","pricing_plan_id":"cebpf4jnsgd1na2vs0mg"},{"bike_id":"15585784-536b-4974-969a-35a340149170","system_id":"levelo_inurba_marseille","lat":43.30578,"lon":5.38018,"is_reserved":false,"is_disabled":false,"rental_uris":{"android":"levelo://app?vid=15585784-536b-4974-969a-35a340149170","ios":"levelo://app?vid=15585784-536b-4974-969a-35a340149170"},"vehicle_type_id":"4","last_reported":1739783476,"current_range_meters":32400,"station_id":"ce4bgk12rcd13ifvqbi0","pricing_plan_id":"cebpf4jnsgd1na2vs0mg"},{"bike_id":"ddf1d674-41d6-443f-b0f1-1da7df267862","system_id":"levelo_inurba_marseille","lat":43.230563,"lon":5.354926,"is_reserved":false,"is_disabled":false,"rental_uris":{"android":"levelo://app?vid=ddf1d674-41d6-443f-b0f1-1da7df267862","ios":"levelo://app?vid=ddf1d674-41d6-443f-b0f1-1da7df267862"},"vehicle_type_id":"4","last_reported":1739783476,"current_range_meters":10800,"station_id":"cpo3342slgdg3j2ifvpg","pricing_plan_id":"cebpf4jnsgd1na2vs0mg"},{"bike_id":"59897d86-c0b3-4acb-bf89-133a9364e1f4","system_id":"levelo_inurba_marseille","lat":43.23062,"lon":5.35477,"is_reserved":false,"is_disabled":true,"rental_uris":{"android":"levelo://app?vid=59897d86-c0b3-4acb-bf89-133a9364e1f4","ios":"levelo://app?vid=59897d86-c0b3-4acb-bf89-133a9364e1f4"},"vehicle_type_id":"4","last_reported":1739783476,"current_range_meters":34000,"station_id":"cpo3342slgdg3j2ifvpg","pricing_plan_id":"cebpf4jnsgd1na2vs0mg"},{"bike_id":"e324a313-35fe-4676-ac00-cc2b4e95db85","system_id":"levelo_inurba_marseille","lat":43.2315,"lon":5.43718,"is_reserved":false,"is_disabled":false,"rental_uris":{"android":"levelo://app?vid=e324a313-35fe-4676-ac00-cc2b4e95db85","ios":"levelo://app?vid=e324a313-35fe-4676-ac00-cc2b4e95db85"},"vehicle_type_id":"4","last_reported":1739783476,"current_range_meters":27200,"station_id":"ce4bhmp2rcd13ifvqgog","pricing_plan_id":"cebpf4jnsgd1na2vs0mg"},{"bike_id":"cc9daadb-ebf8-42fa-be55-657601a581fa","system_id":"levelo_inurba_marseille","lat":43.30897,"lon":5.37195,"is_reserved":false,"is_disabled":false,"rental_uris":{"android":"levelo://app?vid=cc9daadb-ebf8-42fa-be55-657601a581fa","ios":"levelo://app?vid=cc9daadb-ebf8-42fa-be55-657601a581fa"},"vehicle_type_id":"4","last_reported":1739783476,"current_range_meters":37600,"station_id":"ce4bguh2rcd13ifvqckg","pricing_plan_id":"cebpf4jnsgd1na2vs0mg"},{"bike_id":"e6806870-1029-41fc-b091-11e346b78753","system_id":"levelo_inurba_marseille","lat":43.30321,"lon":5.36862,"is_reserved":false,"is_disabled":false,"rental_uris":{"android":"levelo://app?vid=e6806870-1029-41fc-b091-11e346b78753","ios":"levelo://app?vid=e6806870-1029-41fc-b091-11e346b78753"},"vehicle_type_id":"4","last_reported":1739783476,"current_range_meters":36400,"station_id":"ce4bgqh2rcd13ifvqc5g","pricing_plan_id":"cebpf4jnsgd1na2vs0mg"},{"bike_id":"3a1544f6-34d6-4fe6-add4-e74b0c9fa382","system_id":"levelo_inurba_marseille","lat":43.30223,"lon":5.39467,"is_reserved":false,"is_disabled":false,"rental_uris":{"android":"levelo://app?vid=3a1544f6-34d6-4fe6-add4-e74b0c9fa382","ios":"levelo://app?vid=3a1544f6-34d6-4fe6-add4-e74b0c9fa382"},"vehicle_type_id":"4","last_reported":1739783476,"current_range_meters":38000,"station_id":"ce4bh0p2rcd13ifvqd70","pricing_plan_id":"cebpf4jnsgd1na2vs0mg"},{"bike_id":"5fc8cb93-5aac-44eb-bd48-e64d187b761e","system_id":"levelo_inurba_marseille","lat":43.28854,"lon":5.39333,"is_reserved":false,"is_disabled":true,"rental_uris":{"android":"levelo://app?vid=5fc8cb93-5aac-44eb-bd48-e64d187b761e","ios":"levelo://app?vid=5fc8cb93-5aac-44eb-bd48-e64d187b761e"},"vehicle_type_id":"4","last_reported":1739783476,"current_range_meters":14800,"station_id":"ce4bh2p2rcd13ifvqdi0","pricing_plan_id":"cebpf4jnsgd1na2vs0mg"},{"bike_id":"4bc50c17-9aeb-4487-a054-afb81c6c63dc","system_id":"levelo_inurba_marseille","lat":43.27599,"lon":5.3612,"is_reserved":false,"is_disabled":true,"rental_uris":{"android":"levelo://app?vid=4bc50c17-9aeb-4487-a054-afb81c6c63dc","ios":"levelo://app?vid=4bc50c17-9aeb-4487-a054-afb81c6c63dc"},"vehicle_type_id":"4","last_reported":1739783476,"current_range_meters":25200,"station_id":"ce4bgj92rcd13ifvqbe0","pricing_plan_id":"cebpf4jnsgd1na2vs0mg"},{"bike_id":"7f016960-9541-467a-a3bb-ad4666367ddf","system_id":"levelo_inurba_marseille","lat":43.29023,"lon":5.37557,"is_reserved":false,"is_disabled":false,"rental_uris":{"android":"levelo://app?vid=7f016960-9541-467a-a3bb-ad4666367ddf","ios":"levelo://app?vid=7f016960-9541-467a-a3bb-ad4666367ddf"},"vehicle_type_id":"4","last_reported":1739783476,"current_range_meters":29600,"station_id":"ce4bh692rcd13ifvqe90","pricing_plan_id":"cebpf4jnsgd1na2vs0mg"},{"bike_id":"2c8b8a41-5401-4b3a-be72-574e3bbf0407","system_id":"levelo_inurba_marseille","lat":43.29939,"lon":5.36546,"is_reserved":false,"is_disabled":false,"rental_uris":{"android":"levelo://app?vid=2c8b8a41-5401-4b3a-be72-574e3bbf0407","ios":"levelo://app?vid=2c8b8a41-5401-4b3a-be72-574e3bbf0407"},"vehicle_type_id":"4","last_reported":1739783476,"current_range_meters":28800,"station_id":"ce4bgm92rcd13ifvqbr0","pricing_plan_id":"cebpf4jnsgd1na2vs0mg"},{"bike_id":"58778bf6-4387-47ee-8a30-a2b159673f5d","system_id":"levelo_inurba_marseille","lat":43.28478,"lon":5.38539,"is_reserved":false,"is_disabled":false,"rental_uris":{"android":"levelo://app?vid=58778bf6-4387-47ee-8a30-a2b159673f5d","ios":"levelo://app?vid=58778bf6-4387-47ee-8a30-a2b159673f5d"},"vehicle_type_id":"4","last_reported":1739783476,"current_range_meters":38000,"station_id":"ce4bh8p2rcd13ifvqeb0","pricing_plan_id":"cebpf4jnsgd1na2vs0mg"},{"bike_id":"20dc10c3-0d87-46d9-abf0-251ba8dc0a20","system_id":"levelo_inurba_marseille","lat":43.30277,"lon":5.3771,"is_reserved":false,"is_disabled":false,"rental_uris":{"android":"levelo://app?vid=20dc10c3-0d87-46d9-abf0-251ba8dc0a20","ios":"levelo://app?vid=20dc10c3-0d87-46d9-abf0-251ba8dc0a20"},"vehicle_type_id":"4","last_reported":1739783476,"current_range_meters":38800,"station_id":"ce4bguh2rcd13ifvqcj0","pricing_plan_id":"cebpf4jnsgd1na2vs0mg"},{"bike_id":"f097ff0b-72ea-4d89-8f0e-2edef239ff08","system_id":"levelo_inurba_marseille","lat":43.2559,"lon":5.38244,"is_reserved":false,"is_disabled":false,"rental_uris":{"android":"levelo://app?vid=f097ff0b-72ea-4d89-8f0e-2edef239ff08","ios":"levelo://app?vid=f097ff0b-72ea-4d89-8f0e-2edef239ff08"},"vehicle_type_id":"4","last_reported":1739783476,"current_range_meters":38800,"station_id":"ce4bhih2rcd13ifvqfs0","pricing_plan_id":"cebpf4jnsgd1na2vs0mg"},{"bike_id":"b5fce2b8-e491-4476-afa5-82da14d314a4","system_id":"levelo_inurba_marseille","lat":43.29036,"lon":5.39964,"is_reserved":false,"is_disabled":false,"rental_uris":{"android":"levelo://app?vid=b5fce2b8-e491-4476-afa5-82da14d314a4","ios":"levelo://app?vid=b5fce2b8-e491-4476-afa5-82da14d314a4"},"vehicle_type_id":"4","last_reported":1739783476,"current_range_meters":28000,"station_id":"ce4bh392rcd13ifvqdm0","pricing_plan_id":"cebpf4jnsgd1na2vs0mg"},{"bike_id":"2d98863e-f2cb-4f45-9131-5c4bf4172c40","system_id":"levelo_inurba_marseille","lat":43.29438,"lon":5.39773,"is_reserved":false,"is_disabled":false,"rental_uris":{"android":"levelo://app?vid=2d98863e-f2cb-4f45-9131-5c4bf4172c40","ios":"levelo://app?vid=2d98863e-f2cb-4f45-9131-5c4bf4172c40"},"vehicle_type_id":"4","last_reported":1739783476,"current_range_meters":32800,"station_id":"ce4bh3h2rcd13ifvqdo0","pricing_plan_id":"cebpf4jnsgd1na2vs0mg"},{"bike_id":"1d1f1c22-7a9f-4dd1-8068-c82483dd3d63","system_id":"levelo_inurba_marseille","lat":43.23969,"lon":5.36627,"is_reserved":false,"is_disabled":false,"rental_uris":{"android":"levelo://app?vid=1d1f1c22-7a9f-4dd1-8068-c82483dd3d63","ios":"levelo://app?vid=1d1f1c22-7a9f-4dd1-8068-c82483dd3d63"},"vehicle_type_id":"4","last_reported":1739783476,"current_range_meters":28400,"station_id":"ce4bhi12rcd13ifvqfp0","pricing_plan_id":"cebpf4jnsgd1na2vs0mg"},{"bike_id":"91e27922-e676-45ea-94da-baf83d9c520d","system_id":"levelo_inurba_marseille","lat":43.28055,"lon":5.36942,"is_reserved":false,"is_disabled":true,"rental_uris":{"android":"levelo://app?vid=91e27922-e676-45ea-94da-baf83d9c520d","ios":"levelo://app?vid=91e27922-e676-45ea-94da-baf83d9c520d"},"vehicle_type_id":"4","last_reported":1739783476,"current_range_meters":30000,"station_id":"ce4bha12rcd13ifvqef0","pricing_plan_id":"cebpf4jnsgd1na2vs0mg"},{"bike_id":"43b994d8-54a7-4215-8f33-79cd8d0dd7d1","system_id":"levelo_inurba_marseille","lat":43.30146,"lon":5.381,"is_reserved":false,"is_disabled":false,"rental_uris":{"android":"levelo://app?vid=43b994d8-54a7-4215-8f33-79cd8d0dd7d1","ios":"levelo://app?vid=43b994d8-54a7-4215-8f33-79cd8d0dd7d1"},"vehicle_type_id":"4","last_reported":1739783476,"current_range_meters":17200,"station_id":"ce4bgjp2rcd13ifvqbh0","pricing_plan_id":"cebpf4jnsgd1na2vs0mg"},{"bike_id":"b8d59589-c626-4928-a7da-716f4f630662","system_id":"levelo_inurba_marseille","lat":43.29979,"lon":5.37143,"is_reserved":false,"is_disabled":false,"rental_uris":{"android":"levelo://app?vid=b8d59589-c626-4928-a7da-716f4f630662","ios":"levelo://app?vid=b8d59589-c626-4928-a7da-716f4f630662"},"vehicle_type_id":"4","last_reported":1739783476,"current_range_meters":39200,"station_id":"ce4bgr92rcd13ifvqc7g","pricing_plan_id":"cebpf4jnsgd1na2vs0mg"},{"bike_id":"e4f088f9-e3e8-4f82-824b-eaedfe8505d4","system_id":"levelo_inurba_marseille","lat":43.26874,"lon":5.4039,"is_reserved":false,"is_disabled":true,"rental_uris":{"android":"levelo://app?vid=e4f088f9-e3e8-4f82-824b-eaedfe8505d4","ios":"levelo://app?vid=e4f088f9-e3e8-4f82-824b-eaedfe8505d4"},"vehicle_type_id":"4","last_reported":1739783476,"current_range_meters":26800,"station_id":"","pricing_plan_id":"cebpf4jnsgd1na2vs0mg"},{"bike_id":"9bcc3779-160f-4f11-a908-15bc41b1ac43","system_id":"levelo_inurba_marseille","lat":43.279898,"lon":5.400039,"is_reserved":false,"is_disabled":true,"rental_uris":{"android":"levelo://app?vid=9bcc3779-160f-4f11-a908-15bc41b1ac43","ios":"levelo://app?vid=9bcc3779-160f-4f11-a908-15bc41b1ac43"},"vehicle_type_id":"4","last_reported":1739783476,"current_range_meters":0,"station_id":"ce4bho92rcd13ifvqh4g","pricing_plan_id":"cebpf4jnsgd1na2vs0mg"},{"bike_id":"e58e3e7e-4b99-43ae-be6f-acd9337c3c5f","system_id":"levelo_inurba_marseille","lat":43.23963,"lon":5.3663,"is_reserved":false,"is_disabled":false,"rental_uris":{"android":"levelo://app?vid=e58e3e7e-4b99-43ae-be6f-acd9337c3c5f","ios":"levelo://app?vid=e58e3e7e-4b99-43ae-be6f-acd9337c3c5f"},"vehicle_type_id":"4","last_reported":1739783476,"current_range_meters":24400,"station_id":"ce4bhi12rcd13ifvqfp0","pricing_plan_id":"cebpf4jnsgd1na2vs0mg"},{"bike_id":"7fa2f52d-aa55-4da7-8f6c-d8bd07556923","system_id":"levelo_inurba_marseille","lat":43.26217,"lon":5.37908,"is_reserved":false,"is_disabled":false,"rental_uris":{"android":"levelo://app?vid=7fa2f52d-aa55-4da7-8f6c-d8bd07556923","ios":"levelo://app?vid=7fa2f52d-aa55-4da7-8f6c-d8bd07556923"},"vehicle_type_id":"4","last_reported":1739783476,"current_range_meters":36800,"station_id":"ce4bhjp2rcd13ifvqg90","pricing_plan_id":"cebpf4jnsgd1na2vs0mg"},{"bike_id":"32c16816-bf22-45bf-bae6-15a3b36aa2ac","system_id":"levelo_inurba_marseille","lat":43.27105,"lon":5.40298,"is_reserved":false,"is_disabled":false,"rental_uris":{"android":"levelo://app?vid=32c16816-bf22-45bf-bae6-15a3b36aa2ac","ios":"levelo://app?vid=32c16816-bf22-45bf-bae6-15a3b36aa2ac"},"vehicle_type_id":"4","last_reported":1739783476,"current_range_meters":38800,"station_id":"","pricing_plan_id":"cebpf4jnsgd1na2vs0mg"},{"bike_id":"0a8131f0-8aa1-442f-a102-dd6461b5c6ed","system_id":"levelo_inurba_marseille","lat":43.24172,"lon":5.3973,"is_reserved":false,"is_disabled":false,"rental_uris":{"android":"levelo://app?vid=0a8131f0-8aa1-442f-a102-dd6461b5c6ed","ios":"levelo://app?vid=0a8131f0-8aa1-442f-a102-dd6461b5c6ed"},"vehicle_type_id":"4","last_reported":1739783476,"current_range_meters":37600,"station_id":"ce4bhn12rcd13ifvqgpg","pricing_plan_id":"cebpf4jnsgd1na2vs0mg"},{"bike_id":"727cdbd7-c9a0-4e88-913c-02358a9dd8f7","system_id":"levelo_inurba_marseille","lat":43.25906,"lon":5.40877,"is_reserved":false,"is_disabled":false,"rental_uris":{"android":"levelo://app?vid=727cdbd7-c9a0-4e88-913c-02358a9dd8f7","ios":"levelo://app?vid=727cdbd7-c9a0-4e88-913c-02358a9dd8f7"},"vehicle_type_id":"4","last_reported":1739783476,"current_range_meters":34800,"station_id":"ce4bhm92rcd13ifvqglg","pricing_plan_id":"cebpf4jnsgd1na2vs0mg"},{"bike_id":"453b5d03-74b1-4b80-b3f1-f8af80ba4690","system_id":"levelo_inurba_marseille","lat":43.2416,"lon":5.36404,"is_reserved":false,"is_disabled":false,"rental_uris":{"android":"levelo://app?vid=453b5d03-74b1-4b80-b3f1-f8af80ba4690","ios":"levelo://app?vid=453b5d03-74b1-4b80-b3f1-f8af80ba4690"},"vehicle_type_id":"4","last_reported":1739783476,"current_range_meters":9200,"station_id":"cpo36qri1sfpv3e86is0","pricing_plan_id":"cebpf4jnsgd1na2vs0mg"},{"bike_id":"1cb72c0c-7332-441e-8c98-f40958237f5d","system_id":"levelo_inurba_marseille","lat":43.29712,"lon":5.37714,"is_reserved":false,"is_disabled":false,"rental_uris":{"android":"levelo://app?vid=1cb72c0c-7332-441e-8c98-f40958237f5d","ios":"levelo://app?vid=1cb72c0c-7332-441e-8c98-f40958237f5d"},"vehicle_type_id":"4","last_reported":1739783476,"current_range_meters":4000,"station_id":"ce4bgkh2rcd13ifvqbl0","pricing_plan_id":"cebpf4jnsgd1na2vs0mg"},{"bike_id":"2dea0667-1db6-4775-857f-894e60e0a4c7","system_id":"levelo_inurba_marseille","lat":43.30417,"lon":5.39756,"is_reserved":false,"is_disabled":true,"rental_uris":{"android":"levelo://app?vid=2dea0667-1db6-4775-857f-894e60e0a4c7","ios":"levelo://app?vid=2dea0667-1db6-4775-857f-894e60e0a4c7"},"vehicle_type_id":"4","last_reported":1739783476,"current_range_meters":24800,"station_id":"ce4bh092rcd13ifvqd20","pricing_plan_id":"cebpf4jnsgd1na2vs0mg"},{"bike_id":"6ecf9c7c-ca14-4c2e-8998-d9f0947fc21c","system_id":"levelo_inurba_marseille","lat":43.23148,"lon":5.43718,"is_reserved":false,"is_disabled":false,"rental_uris":{"android":"levelo://app?vid=6ecf9c7c-ca14-4c2e-8998-d9f0947fc21c","ios":"levelo://app?vid=6ecf9c7c-ca14-4c2e-8998-d9f0947fc21c"},"vehicle_type_id":"4","last_reported":1739783476,"current_range_meters":34800,"station_id":"ce4bhmp2rcd13ifvqgog","pricing_plan_id":"cebpf4jnsgd1na2vs0mg"},{"bike_id":"f0ca4bf2-562f-4cb6-94a4-de2a9ab7e128","system_id":"levelo_inurba_marseille","lat":43.28685,"lon":5.40026,"is_reserved":false,"is_disabled":false,"rental_uris":{"android":"levelo://app?vid=f0ca4bf2-562f-4cb6-94a4-de2a9ab7e128","ios":"levelo://app?vid=f0ca4bf2-562f-4cb6-94a4-de2a9ab7e128"},"vehicle_type_id":"4","last_reported":1739783476,"current_range_meters":38800,"station_id":"ce4bho92rcd13ifvqh3g","pricing_plan_id":"cebpf4jnsgd1na2vs0mg"},{"bike_id":"e995d6e6-5497-4e59-8d74-b195a78ed054","system_id":"levelo_inurba_marseille","lat":43.29008,"lon":5.3812,"is_reserved":false,"is_disabled":false,"rental_uris":{"android":"levelo://app?vid=e995d6e6-5497-4e59-8d74-b195a78ed054","ios":"levelo://app?vid=e995d6e6-5497-4e59-8d74-b195a78ed054"},"vehicle_type_id":"4","last_reported":1739783476,"current_range_meters":3200,"station_id":"ce4bh4p2rcd13ifvqe1g","pricing_plan_id":"cebpf4jnsgd1na2vs0mg"},{"bike_id":"ad4af932-f51b-41b8-983b-7e431dcc24a9","system_id":"levelo_inurba_marseille","lat":43.337444,"lon":5.374475,"is_reserved":false,"is_disabled":true,"rental_uris":{"android":"levelo://app?vid=ad4af932-f51b-41b8-983b-7e431dcc24a9","ios":"levelo://app?vid=ad4af932-f51b-41b8-983b-7e431dcc24a9"},"vehicle_type_id":"4","last_reported":1739783476,"current_range_meters":0,"station_id":"","pricing_plan_id":"cebpf4jnsgd1na2vs0mg"},{"bike_id":"b9941600-19bd-4523-9639-f06f43483ba6","system_id":"levelo_inurba_marseille","lat":43.23969,"lon":5.36623,"is_reserved":false,"is_disabled":false,"rental_uris":{"android":"levelo://app?vid=b9941600-19bd-4523-9639-f06f43483ba6","ios":"levelo://app?vid=b9941600-19bd-4523-9639-f06f43483ba6"},"vehicle_type_id":"4","last_reported":1739783476,"current_range_meters":38800,"station_id":"ce4bhi12rcd13ifvqfp0","pricing_plan_id":"cebpf4jnsgd1na2vs0mg"},{"bike_id":"dfb8b4bf-66b7-4f69-91ef-2703e7099d0d","system_id":"levelo_inurba_marseille","lat":43.26785,"lon":5.39419,"is_reserved":false,"is_disabled":true,"rental_uris":{"android":"levelo://app?vid=dfb8b4bf-66b7-4f69-91ef-2703e7099d0d","ios":"levelo://app?vid=dfb8b4bf-66b7-4f69-91ef-2703e7099d0d"},"vehicle_type_id":"4","last_reported":1739783476,"current_range_meters":0,"station_id":"ce4bhh12rcd13ifvqfg0","pricing_plan_id":"cebpf4jnsgd1na2vs0mg"},{"bike_id":"168fe2b7-b127-4d10-ac64-54bd473fef6d","system_id":"levelo_inurba_marseille","lat":43.305383,"lon":5.367143,"is_reserved":false,"is_disabled":false,"rental_uris":{"android":"levelo://app?vid=168fe2b7-b127-4d10-ac64-54bd473fef6d","ios":"levelo://app?vid=168fe2b7-b127-4d10-ac64-54bd473fef6d"},"vehicle_type_id":"4","last_reported":1739783476,"current_range_meters":7200,"station_id":"ce4bgrp2rcd13ifvqc9g","pricing_plan_id":"cebpf4jnsgd1na2vs0mg"},{"bike_id":"5ac5a152-4424-4cd3-b06a-e6cb1228368f","system_id":"levelo_inurba_marseille","lat":43.28621,"lon":5.40039,"is_reserved":false,"is_disabled":false,"rental_uris":{"android":"levelo://app?vid=5ac5a152-4424-4cd3-b06a-e6cb1228368f","ios":"levelo://app?vid=5ac5a152-4424-4cd3-b06a-e6cb1228368f"},"vehicle_type_id":"4","last_reported":1739783476,"current_range_meters":35200,"station_id":"ce4bho92rcd13ifvqh3g","pricing_plan_id":"cebpf4jnsgd1na2vs0mg"},{"bike_id":"4a0f1d7a-0041-4576-b602-d1549a4770fe","system_id":"levelo_inurba_marseille","lat":43.29022,"lon":5.38141,"is_reserved":false,"is_disabled":true,"rental_uris":{"android":"levelo://app?vid=4a0f1d7a-0041-4576-b602-d1549a4770fe","ios":"levelo://app?vid=4a0f1d7a-0041-4576-b602-d1549a4770fe"},"vehicle_type_id":"4","last_reported":1739783476,"current_range_meters":21600,"station_id":"ce4bh4p2rcd13ifvqe1g","pricing_plan_id":"cebpf4jnsgd1na2vs0mg"},{"bike_id":"81ec488e-3038-4bdb-9b14-0cc70825f743","system_id":"levelo_inurba_marseille","lat":43.2339,"lon":5.40465,"is_reserved":false,"is_disabled":false,"rental_uris":{"android":"levelo://app?vid=81ec488e-3038-4bdb-9b14-0cc70825f743","ios":"levelo://app?vid=81ec488e-3038-4bdb-9b14-0cc70825f743"},"vehicle_type_id":"4","last_reported":1739783476,"current_range_meters":25600,"station_id":"","pricing_plan_id":"cebpf4jnsgd1na2vs0mg"},{"bike_id":"aeb403d4-9cef-44b2-b32c-cb912f49efa3","system_id":"levelo_inurba_marseille","lat":43.231997,"lon":5.355456,"is_reserved":false,"is_disabled":false,"rental_uris":{"android":"levelo://app?vid=aeb403d4-9cef-44b2-b32c-cb912f49efa3","ios":"levelo://app?vid=aeb403d4-9cef-44b2-b32c-cb912f49efa3"},"vehicle_type_id":"4","last_reported":1739783476,"current_range_meters":26800,"station_id":"ce4bhu92rcd13ifvqi70","pricing_plan_id":"cebpf4jnsgd1na2vs0mg"},{"bike_id":"9c0fb60c-5b5a-49bb-a60f-06ca778c02e7","system_id":"levelo_inurba_marseille","lat":43.29578,"lon":5.37502,"is_reserved":false,"is_disabled":false,"rental_uris":{"android":"levelo://app?vid=9c0fb60c-5b5a-49bb-a60f-06ca778c02e7","ios":"levelo://app?vid=9c0fb60c-5b5a-49bb-a60f-06ca778c02e7"},"vehicle_type_id":"4","last_reported":1739783476,"current_range_meters":36400,"station_id":"ce4bgh92rcd13ifvqb50","pricing_plan_id":"cebpf4jnsgd1na2vs0mg"},{"bike_id":"6e9279e1-a299-42cb-b26a-80dd0bd04fc9","system_id":"levelo_inurba_marseille","lat":43.31192,"lon":5.36784,"is_reserved":false,"is_disabled":false,"rental_uris":{"android":"levelo://app?vid=6e9279e1-a299-42cb-b26a-80dd0bd04fc9","ios":"levelo://app?vid=6e9279e1-a299-42cb-b26a-80dd0bd04fc9"},"vehicle_type_id":"4","last_reported":1739783476,"current_range_meters":11600,"station_id":"","pricing_plan_id":"cebpf4jnsgd1na2vs0mg"},{"bike_id":"07112172-5230-4fda-8e15-6e0038406856","system_id":"levelo_inurba_marseille","lat":43.31485,"lon":5.37364,"is_reserved":false,"is_disabled":false,"rental_uris":{"android":"levelo://app?vid=07112172-5230-4fda-8e15-6e0038406856","ios":"levelo://app?vid=07112172-5230-4fda-8e15-6e0038406856"},"vehicle_type_id":"4","last_reported":1739783476,"current_range_meters":33600,"station_id":"ce4bgt12rcd13ifvqcd0","pricing_plan_id":"cebpf4jnsgd1na2vs0mg"},{"bike_id":"1be240e4-6e44-43d5-86e2-131ef844f3f9","system_id":"levelo_inurba_marseille","lat":43.30138,"lon":5.3742,"is_reserved":false,"is_disabled":false,"rental_uris":{"android":"levelo://app?vid=1be240e4-6e44-43d5-86e2-131ef844f3f9","ios":"levelo://app?vid=1be240e4-6e44-43d5-86e2-131ef844f3f9"},"vehicle_type_id":"4","last_reported":1739783476,"current_range_meters":33600,"station_id":"ce4bgs92rcd13ifvqcc0","pricing_plan_id":"cebpf4jnsgd1na2vs0mg"},{"bike_id":"5d5c467a-b4b5-45e5-99ca-e9a7b7662256","system_id":"levelo_inurba_marseille","lat":43.24683,"lon":5.38148,"is_reserved":false,"is_disabled":false,"rental_uris":{"android":"levelo://app?vid=5d5c467a-b4b5-45e5-99ca-e9a7b7662256","ios":"levelo://app?vid=5d5c467a-b4b5-45e5-99ca-e9a7b7662256"},"vehicle_type_id":"4","last_reported":1739783476,"current_range_meters":38800,"station_id":"ce4bhih2rcd13ifvqfr0","pricing_plan_id":"cebpf4jnsgd1na2vs0mg"},{"bike_id":"e31570ff-e974-4ee6-807c-3ec7a1f5df75","system_id":"levelo_inurba_marseille","lat":43.28418,"lon":5.34976,"is_reserved":false,"is_disabled":false,"rental_uris":{"android":"levelo://app?vid=e31570ff-e974-4ee6-807c-3ec7a1f5df75","ios":"levelo://app?vid=e31570ff-e974-4ee6-807c-3ec7a1f5df75"},"vehicle_type_id":"4","last_reported":1739783476,"current_range_meters":26800,"station_id":"ce4bhbh2rcd13ifvqepg","pricing_plan_id":"cebpf4jnsgd1na2vs0mg"},{"bike_id":"bd922191-fc18-4a84-9939-c4b21712cfb8","system_id":"levelo_inurba_marseille","lat":43.29515,"lon":5.38546,"is_reserved":false,"is_disabled":true,"rental_uris":{"android":"levelo://app?vid=bd922191-fc18-4a84-9939-c4b21712cfb8","ios":"levelo://app?vid=bd922191-fc18-4a84-9939-c4b21712cfb8"},"vehicle_type_id":"4","last_reported":1739783476,"current_range_meters":0,"station_id":"ce4bgih2rcd13ifvqba0","pricing_plan_id":"cebpf4jnsgd1na2vs0mg"},{"bike_id":"8560daa7-ebcb-4863-b06e-3360332cd519","system_id":"levelo_inurba_marseille","lat":43.2902,"lon":5.38125,"is_reserved":false,"is_disabled":false,"rental_uris":{"android":"levelo://app?vid=8560daa7-ebcb-4863-b06e-3360332cd519","ios":"levelo://app?vid=8560daa7-ebcb-4863-b06e-3360332cd519"},"vehicle_type_id":"4","last_reported":1739783476,"current_range_meters":36800,"station_id":"ce4bh4p2rcd13ifvqe1g","pricing_plan_id":"cebpf4jnsgd1na2vs0mg"},{"bike_id":"2e1ea3ec-5284-4631-8449-fb3cd1434ac5","system_id":"levelo_inurba_marseille","lat":43.23156,"lon":5.43716,"is_reserved":false,"is_disabled":false,"rental_uris":{"android":"levelo://app?vid=2e1ea3ec-5284-4631-8449-fb3cd1434ac5","ios":"levelo://app?vid=2e1ea3ec-5284-4631-8449-fb3cd1434ac5"},"vehicle_type_id":"4","last_reported":1739783476,"current_range_meters":38000,"station_id":"ce4bhmp2rcd13ifvqgog","pricing_plan_id":"cebpf4jnsgd1na2vs0mg"},{"bike_id":"95acebc1-624d-4df6-bbdb-5c9c74d4694f","system_id":"levelo_inurba_marseille","lat":43.26553,"lon":5.37303,"is_reserved":false,"is_disabled":false,"rental_uris":{"android":"levelo://app?vid=95acebc1-624d-4df6-bbdb-5c9c74d4694f","ios":"levelo://app?vid=95acebc1-624d-4df6-bbdb-5c9c74d4694f"},"vehicle_type_id":"4","last_reported":1739783476,"current_range_meters":30400,"station_id":"ce4bhg12rcd13ifvqf70","pricing_plan_id":"cebpf4jnsgd1na2vs0mg"},{"bike_id":"71436ef8-3bfa-46f2-ab0c-81c51cfd6c6c","system_id":"levelo_inurba_marseille","lat":43.26796,"lon":5.39409,"is_reserved":false,"is_disabled":false,"rental_uris":{"android":"levelo://app?vid=71436ef8-3bfa-46f2-ab0c-81c51cfd6c6c","ios":"levelo://app?vid=71436ef8-3bfa-46f2-ab0c-81c51cfd6c6c"},"vehicle_type_id":"4","last_reported":1739783476,"current_range_meters":26800,"station_id":"ce4bhh12rcd13ifvqfg0","pricing_plan_id":"cebpf4jnsgd1na2vs0mg"},{"bike_id":"d19696ac-00e8-42df-a7b6-61028176685c","system_id":"levelo_inurba_marseille","lat":43.30915,"lon":5.36859,"is_reserved":false,"is_disabled":false,"rental_uris":{"android":"levelo://app?vid=d19696ac-00e8-42df-a7b6-61028176685c","ios":"levelo://app?vid=d19696ac-00e8-42df-a7b6-61028176685c"},"vehicle_type_id":"4","last_reported":1739783476,"current_range_meters":38800,"station_id":"ce4bgn92rcd13ifvqbvg","pricing_plan_id":"cebpf4jnsgd1na2vs0mg"},{"bike_id":"16e87eaf-701e-4260-b0ef-3f1c66e4c7d7","system_id":"levelo_inurba_marseille","lat":43.32458,"lon":5.36579,"is_reserved":false,"is_disabled":false,"rental_uris":{"android":"levelo://app?vid=16e87eaf-701e-4260-b0ef-3f1c66e4c7d7","ios":"levelo://app?vid=16e87eaf-701e-4260-b0ef-3f1c66e4c7d7"},"vehicle_type_id":"4","last_reported":1739783476,"current_range_meters":34800,"station_id":"ce4bhs12rcd13ifvqhvg","pricing_plan_id":"cebpf4jnsgd1na2vs0mg"},{"bike_id":"4a453833-980e-4ca6-a679-5eadea004771","system_id":"levelo_inurba_marseille","lat":43.29671,"lon":5.42755,"is_reserved":false,"is_disabled":false,"rental_uris":{"android":"levelo://app?vid=4a453833-980e-4ca6-a679-5eadea004771","ios":"levelo://app?vid=4a453833-980e-4ca6-a679-5eadea004771"},"vehicle_type_id":"4","last_reported":1739783476,"current_range_meters":19600,"station_id":"","pricing_plan_id":"cebpf4jnsgd1na2vs0mg"},{"bike_id":"749ea09b-5faa-41e7-85d8-95f72de22bc5","system_id":"levelo_inurba_marseille","lat":43.31243,"lon":5.36842,"is_reserved":false,"is_disabled":false,"rental_uris":{"android":"levelo://app?vid=749ea09b-5faa-41e7-85d8-95f72de22bc5","ios":"levelo://app?vid=749ea09b-5faa-41e7-85d8-95f72de22bc5"},"vehicle_type_id":"4","last_reported":1739783476,"current_range_meters":30400,"station_id":"ce4bgl92rcd13ifvqbq0","pricing_plan_id":"cebpf4jnsgd1na2vs0mg"},{"bike_id":"8e38f95b-dee8-4e1e-bed6-bd2850705ead","system_id":"levelo_inurba_marseille","lat":43.28943,"lon":5.39623,"is_reserved":false,"is_disabled":false,"rental_uris":{"android":"levelo://app?vid=8e38f95b-dee8-4e1e-bed6-bd2850705ead","ios":"levelo://app?vid=8e38f95b-dee8-4e1e-bed6-bd2850705ead"},