{"last_updated":1707329317,"ttl":30,"version":"2.2","data":{"bikes":[{"bike_id":"b758eba2-6110-4cb4-ba9e-b0df102a3255","system_id":"levelo_inurba_marseille","lat":43.31341,"lon":5.367098,"is_reserved":false,"is_disabled":false,"rental_uris":{"android":"levelo://app?vid=b758eba2-6110-4cb4-ba9e-b0df102a3255","ios":"levelo://app?vid=b758eba2-6110-4cb4-ba9e-b0df102a3255"},"vehicle_type_id":"4","last_reported":1707329317,"current_range_meters":30800,"station_id":"ce4bgr92rcd13ifvqc6g","pricing_plan_id":"free"},{"bike_id":"50cf655d-5eb3-41b6-8119-fd5d2cf4dfca","system_id":"levelo_inurba_marseille","lat":43.31341,"lon":5.367098,"is_reserved":false,"is_disabled":false,"rental_uris":{"android":"levelo://app?vid=50cf655d-5eb3-41b6-8119-fd5d2cf4dfca","ios":"levelo://app?vid=50cf655d-5eb3-41b6-8119-fd5d2cf4dfca"},"vehicle_type_id":"4","last_reported":1707329317,"current_range_meters":31200,"station_id":"ce4bgr92rcd13ifvqc6g","pricing_plan_id":"free"},{"bike_id":"6e6d17e7-f466-4d4d-8c86-c11e4050532e","system_id":"levelo_inurba_marseille","lat":43.313391,"lon":5.36706,"is_reserved":false,"is_disabled":false,"rental_uris":{"android":"levelo://app?vid=6e6d17e7-f466-4d4d-8c86-c11e4050532e","ios":"levelo://app?vid=6e6d17e7-f466-4d4d-8c86-c11e4050532e"},"vehicle_type_id":"4","last_reported":1707329317,"current_range_meters":0,"station_id":"ce4bgr92rcd13ifvqc6g","pricing_plan_id":"free"},{"bike_id":"ec7bdb1b-af39-4a00-bc06-bf4f650c412d","system_id":"levelo_inurba_marseille","lat":43.309076,"lon":5.368465,"is_reserved":false,"is_disabled":false,"rental_uris":{"android":"levelo://app?vid=ec7bdb1b-af39-4a00-bc06-bf4f650c412d","ios":"levelo://app?vid=ec7bdb1b-af39-4a00-bc06-bf4f650c412d"},"vehicle_type_id":"4","last_reported":1707329317,"current_range_meters":27200,"station_id":"ce4bgn92rcd13ifvqbvg","pricing_plan_id":"free"},{"bike_id":"71e2463a-73fe-4c63-8a18-a2fca6d2abdb","system_id":"levelo_inurba_marseille","lat":43.309076,"lon":5.368465,"is_reserved":false,"is_disabled":false,"rental_uris":{"android":"levelo://app?vid=71e2463a-73fe-4c63-8a18-a2fca6d2abdb","ios":"levelo://app?vid=71e2463a-73fe-4c63-8a18-a2fca6d2abdb"},"vehicle_type_id":"4","last_reported":1707329317,"current_range_meters":3600,"station_id":"ce4bgn92rcd13ifvqbvg","pricing_plan_id":"free"},{"bike_id":"f02d02c5-6296-4a2c-9db3-c4fcd952cee9","system_id":"levelo_inurba_marseille","lat":43.309076,"lon":5.368465,"is_reserved":false,"is_disabled":false,"rental_uris":{"android":"levelo://app?vid=f02d02c5-6296-4a2c-9db3-c4fcd952cee9","ios":"levelo://app?vid=f02d02c5-6296-4a2c-9db3-c4fcd952cee9"},"vehicle_type_id":"4","last_reported":1707329317,"current_range_meters":22800,"station_id":"ce4bgn92rcd13ifvqbvg","pricing_plan_id":"free"},{"bike_id":"40ff52d3-3a62-4d69-b138-f5a7275ac28e","system_id":"levelo_inurba_marseille","lat":43.314811,"lon":5.373103,"is_reserved":false,"is_disabled":false,"rental_uris":{"android":"levelo://app?vid=40ff52d3-3a62-4d69-b138-f5a7275ac28e","ios":"levelo://app?vid=40ff52d3-3a62-4d69-b138-f5a7275ac28e"},"vehicle_type_id":"4","last_reported":1707329317,"current_range_meters":0,"station_id":"ce4bgt12rcd13ifvqcd0","pricing_plan_id":"free"},{"bike_id":"5ffcd0e8-eca0-4769-bb58-419a5811abaa","system_id":"levelo_inurba_marseille","lat":43.314811,"lon":5.373103,"is_reserved":false,"is_disabled":false,"rental_uris":{"android":"levelo://app?vid=5ffcd0e8-eca0-4769-bb58-419a5811abaa","ios":"levelo://app?vid=5ffcd0e8-eca0-4769-bb58-419a5811abaa"},"vehicle_type_id":"4","last_reported":1707329317,"current_range_meters":6800,"station_id":"ce4bgt12rcd13ifvqcd0","pricing_plan_id":"free"},{"bike_id":"a2f691b9-787e-4e86-a679-e823b0e67ce8","system_id":"levelo_inurba_marseille","lat":43.31496,"lon":5.3731,"is_reserved":false,"is_disabled":false,"rental_uris":{"android":"levelo://app?vid=a2f691b9-787e-4e86-a679-e823b0e67ce8","ios":"levelo://app?vid=a2f691b9-787e-4e86-a679-e823b0e67ce8"},"vehicle_type_id":"4","last_reported":1707329317,"current_range_meters":15600,"station_id":"ce4bgt12rcd13ifvqcd0","pricing_plan_id":"free"},{"bike_id":"c6495c86-bec9-40d3-8ea7-bbb266776a62","system_id":"levelo_inurba_marseille","lat":43.314811,"lon":5.373104,"is_reserved":false,"is_disabled":false,"rental_uris":{"android":"levelo://app?vid=c6495c86-bec9-40d3-8ea7-bbb266776a62","ios":"levelo://app?vid=c6495c86-bec9-40d3-8ea7-bbb266776a62"},"vehicle_type_id":"4","last_reported":1707329317,"current_range_meters":19600,"station_id":"ce4bgt12rcd13ifvqcd0","pricing_plan_id":"free"},{"bike_id":"9c84f79b-06b9-4f78-a4a5-fb0d8b724ba3","system_id":"levelo_inurba_marseille","lat":43.309039,"lon":5.371797,"is_reserved":false,"is_disabled":false,"rental_uris":{"android":"levelo://app?vid=9c84f79b-06b9-4f78-a4a5-fb0d8b724ba3","ios":"levelo://app?vid=9c84f79b-06b9-4f78-a4a5-fb0d8b724ba3"},"vehicle_type_id":"4","last_reported":1707329317,"current_range_meters":28400,"station_id":"ce4bguh2rcd13ifvqckg","pricing_plan_id":"free"},{"bike_id":"ec61e47c-01b2-4000-a560-253ce069b74c","system_id":"levelo_inurba_marseille","lat":43.305706,"lon":5.365654,"is_reserved":false,"is_disabled":false,"rental_uris":{"android":"levelo://app?vid=ec61e47c-01b2-4000-a560-253ce069b74c","ios":"levelo://app?vid=ec61e47c-01b2-4000-a560-253ce069b74c"},"vehicle_type_id":"4","last_reported":1707329317,"current_range_meters":0,"station_id":"ce4bgs12rcd13ifvqcag","pricing_plan_id":"free"},{"bike_id":"ea96f304-bd13-4af9-b23f-0645f2f8a317","system_id":"levelo_inurba_marseille","lat":43.305989,"lon":5.37225,"is_reserved":false,"is_disabled":false,"rental_uris":{"android":"levelo://app?vid=ea96f304-bd13-4af9-b23f-0645f2f8a317","ios":"levelo://app?vid=ea96f304-bd13-4af9-b23f-0645f2f8a317"},"vehicle_type_id":"4","last_reported":1707329317,"current_range_meters":27600,"station_id":"ce4bgqh2rcd13ifvqc4g","pricing_plan_id":"free"},{"bike_id":"0ce3b5b5-22c7-4271-9a4c-c3df1ea36936","system_id":"levelo_inurba_marseille","lat":43.305989,"lon":5.37225,"is_reserved":false,"is_disabled":false,"rental_uris":{"android":"levelo://app?vid=0ce3b5b5-22c7-4271-9a4c-c3df1ea36936","ios":"levelo://app?vid=0ce3b5b5-22c7-4271-9a4c-c3df1ea36936"},"vehicle_type_id":"4","last_reported":1707329317,"current_range_meters":29600,"station_id":"ce4bgqh2rcd13ifvqc4g","pricing_plan_id":"free"},{"bike_id":"cc9f254a-bd7a-4b0c-90ea-3407257771b2","system_id":"levelo_inurba_marseille","lat":43.305989,"lon":5.37225,"is_reserved":false,"is_disabled":false,"rental_uris":{"android":"levelo://app?vid=cc9f254a-bd7a-4b0c-90ea-3407257771b2","ios":"levelo://app?vid=cc9f254a-bd7a-4b0c-90ea-3407257771b2"},"vehicle_type_id":"4","last_reported":1707329317,"current_range_meters":21600,"station_id":"ce4bgqh2rcd13ifvqc4g","pricing_plan_id":"free"},{"bike_id":"a9ff46f1-653b-4737-abb3-02631b035bbc","system_id":"levelo_inurba_marseille","lat":43.31902,"lon":5.37364,"is_reserved":false,"is_disabled":false,"rental_uris":{"android":"levelo://app?vid=a9ff46f1-653b-4737-abb3-02631b035bbc","ios":"levelo://app?vid=a9ff46f1-653b-4737-abb3-02631b035bbc"},"vehicle_type_id":"4","last_reported":1707329317,"current_range_meters":0,"station_id":"","pricing_plan_id":"free"},{"bike_id":"256b7bcd-b8fa-4e45-a8df-9a1c11a1d5de","system_id":"levelo_inurba_marseille","lat":43.311125,"lon":5.377624,"is_reserved":false,"is_disabled":false,"rental_uris":{"android":"levelo://app?vid=256b7bcd-b8fa-4e45-a8df-9a1c11a1d5de","ios":"levelo://app?vid=256b7bcd-b8fa-4e45-a8df-9a1c11a1d5de"},"vehicle_type_id":"4","last_reported":1707329317,"current_range_meters":8400,"station_id":"ce4bgt92rcd13ifvqcg0","pricing_plan_id":"free"},{"bike_id":"28facc23-24bd-48c2-a2c0-07d49593d1c1","system_id":"levelo_inurba_marseille","lat":43.31113,"lon":5.37774,"is_reserved":false,"is_disabled":false,"rental_uris":{"android":"levelo://app?vid=28facc23-24bd-48c2-a2c0-07d49593d1c1","ios":"levelo://app?vid=28facc23-24bd-48c2-a2c0-07d49593d1c1"},"vehicle_type_id":"4","last_reported":1707329317,"current_range_meters":0,"station_id":"ce4bgt92rcd13ifvqcg0","pricing_plan_id":"free"},{"bike_id":"244ac516-0a64-4437-950f-4fd6793450d2","system_id":"levelo_inurba_marseille","lat":43.311125,"lon":5.377624,"is_reserved":false,"is_disabled":false,"rental_uris":{"android":"levelo://app?vid=244ac516-0a64-4437-950f-4fd6793450d2","ios":"levelo://app?vid=244ac516-0a64-4437-950f-4fd6793450d2"},"vehicle_type_id":"4","last_reported":1707329317,"current_range_meters":26800,"station_id":"ce4bgt92rcd13ifvqcg0","pricing_plan_id":"free"},{"bike_id":"0caebcf5-e901-4f30-8c0e-38fd0ba4c18f","system_id":"levelo_inurba_marseille","lat":43.311131,"lon":5.377651,"is_reserved":false,"is_disabled":false,"rental_uris":{"android":"levelo://app?vid=0caebcf5-e901-4f30-8c0e-38fd0ba4c18f","ios":"levelo://app?vid=0caebcf5-e901-4f30-8c0e-38fd0ba4c18f"},"vehicle_type_id":"4","last_reported":1707329317,"current_range_meters":0,"station_id":"ce4bgt92rcd13ifvqcg0","pricing_plan_id":"free"},{"bike_id":"647857c9-134c-4f4e-abbd-ef55832b93da","system_id":"levelo_inurba_marseille","lat":43.317075,"lon":5.377367,"is_reserved":false,"is_disabled":false,"rental_uris":{"android":"levelo://app?vid=647857c9-134c-4f4e-abbd-ef55832b93da","ios":"levelo://app?vid=647857c9-134c-4f4e-abbd-ef55832b93da"},"vehicle_type_id":"4","last_reported":1707329317,"current_range_meters":30000,"station_id":"ce4bgth2rcd13ifvqch0","pricing_plan_id":"free"},{"bike_id":"f0b73710-61ad-49ff-954a-f1ca710e2d23","system_id":"levelo_inurba_marseille","lat":43.30783,"lon":5.37647,"is_reserved":false,"is_disabled":false,"rental_uris":{"android":"levelo://app?vid=f0b73710-61ad-49ff-954a-f1ca710e2d23","ios":"levelo://app?vid=f0b73710-61ad-49ff-954a-f1ca710e2d23"},"vehicle_type_id":"4","last_reported":1707329317,"current_range_meters":0,"station_id":"ce4bgv92rcd13ifvqcq0","pricing_plan_id":"free"},{"bike_id":"8ed1f705-5b3c-47c5-84ff-b17b4bb12ed3","system_id":"levelo_inurba_marseille","lat":43.31099,"lon":5.37837,"is_reserved":false,"is_disabled":false,"rental_uris":{"android":"levelo://app?vid=8ed1f705-5b3c-47c5-84ff-b17b4bb12ed3","ios":"levelo://app?vid=8ed1f705-5b3c-47c5-84ff-b17b4bb12ed3"},"vehicle_type_id":"4","last_reported":1707329317,"current_range_meters":23200,"station_id":"","pricing_plan_id":"free"},{"bike_id":"868abe45-9710-45f6-bc4f-ba8b889bfecd","system_id":"levelo_inurba_marseille","lat":43.317075,"lon":5.377367,"is_reserved":false,"is_disabled":false,"rental_uris":{"android":"levelo://app?vid=868abe45-9710-45f6-bc4f-ba8b889bfecd","ios":"levelo://app?vid=868abe45-9710-45f6-bc4f-ba8b889bfecd"},"vehicle_type_id":"4","last_reported":1707329317,"current_range_meters":31200,"station_id":"ce4bgth2rcd13ifvqch0","pricing_plan_id":"free"},{"bike_id":"77c56c26-358c-40bf-89d6-fd80c1465d49","system_id":"levelo_inurba_marseille","lat":43.317075,"lon":5.377367,"is_reserved":false,"is_disabled":false,"rental_uris":{"android":"levelo://app?vid=77c56c26-358c-40bf-89d6-fd80c1465d49","ios":"levelo://app?vid=77c56c26-358c-40bf-89d6-fd80c1465d49"},"vehicle_type_id":"4","last_reported":1707329317,"current_range_meters":22800,"station_id":"ce4bgth2rcd13ifvqch0","pricing_plan_id":"free"},{"bike_id":"77bd4f31-8633-48d5-b1a8-51bec2810ccc","system_id":"levelo_inurba_marseille","lat":43.317075,"lon":5.377367,"is_reserved":false,"is_disabled":false,"rental_uris":{"android":"levelo://app?vid=77bd4f31-8633-48d5-b1a8-51bec2810ccc","ios":"levelo://app?vid=77bd4f31-8633-48d5-b1a8-51bec2810ccc"},"vehicle_type_id":"4","last_reported":1707329317,"current_range_meters":18800,"station_id":"ce4bgth2rcd13ifvqch0","pricing_plan_id":"free"},{"bike_id":"323cc24f-0a93-4e30-987d-1b63aeb146b6","system_id":"levelo_inurba_marseille","lat":43.317075,"lon":5.377367,"is_reserved":false,"is_disabled":false,"rental_uris":{"android":"levelo://app?vid=323cc24f-0a93-4e30-987d-1b63aeb146b6","ios":"levelo://app?vid=323cc24f-0a93-4e30-987d-1b63aeb146b6"},"vehicle_type_id":"4","last_reported":1707329317,"current_range_meters":27200,"station_id":"ce4bgth2rcd13ifvqch0","pricing_plan_id":"free"},{"bike_id":"9f0d556a-b5ec-47bc-9f9a-13db4d81c5d6","system_id":"levelo_inurba_marseille","lat":43.317075,"lon":5.377367,"is_reserved":false,"is_disabled":false,"rental_uris":{"android":"levelo://app?vid=9f0d556a-b5ec-47bc-9f9a-13db4d81c5d6","ios":"levelo://app?vid=9f0d556a-b5ec-47bc-9f9a-13db4d81c5d6"},"vehicle_type_id":"4","last_reported":1707329317,"current_range_meters":6400,"station_id":"ce4bgth2rcd13ifvqch0","pricing_plan_id":"free"},{"bike_id":"9d9937ab-7ef1-493d-b22f-27e972dced55","system_id":"levelo_inurba_marseille","lat":43.304274,"lon":5.388873,"is_reserved":false,"is_disabled":false,"rental_uris":{"android":"levelo://app?vid=9d9937ab-7ef1-493d-b22f-27e972dced55","ios":"levelo://app?vid=9d9937ab-7ef1-493d-b22f-27e972dced55"},"vehicle_type_id":"4","last_reported":1707329317,"current_range_meters":6000,"station_id":"ce4bgk12rcd13ifvqbi0","pricing_plan_id":"free"},{"bike_id":"dca02982-a8ca-4f8f-99aa-c4c50c3dc6cf","system_id":"levelo_inurba_marseille","lat":43.32235,"lon":5.3678,"is_reserved":false,"is_disabled":false,"rental_uris":{"android":"levelo://app?vid=dca02982-a8ca-4f8f-99aa-c4c50c3dc6cf","ios":"levelo://app?vid=dca02982-a8ca-4f8f-99aa-c4c50c3dc6cf"},"vehicle_type_id":"4","last_reported":1707329317,"current_range_meters":29600,"station_id":"","pricing_plan_id":"free"},{"bike_id":"17a82f80-4867-43c1-95f7-77649d07b813","system_id":"levelo_inurba_marseille","lat":43.31529,"lon":5.38037,"is_reserved":false,"is_disabled":false,"rental_uris":{"android":"levelo://app?vid=17a82f80-4867-43c1-95f7-77649d07b813","ios":"levelo://app?vid=17a82f80-4867-43c1-95f7-77649d07b813"},"vehicle_type_id":"4","last_reported":1707329317,"current_range_meters":26800,"station_id":"","pricing_plan_id":"free"},{"bike_id":"c3b775c4-e14e-4ab3-93e9-db305b00e1dd","system_id":"levelo_inurba_marseille","lat":43.315293,"lon":5.380349,"is_reserved":false,"is_disabled":false,"rental_uris":{"android":"levelo://app?vid=c3b775c4-e14e-4ab3-93e9-db305b00e1dd","ios":"levelo://app?vid=c3b775c4-e14e-4ab3-93e9-db305b00e1dd"},"vehicle_type_id":"4","last_reported":1707329317,"current_range_meters":20800,"station_id":"ce4bhsp2rcd13ifvqi50","pricing_plan_id":"free"},{"bike_id":"e00daf42-3914-43ac-bbd4-f6a6812c2a16","system_id":"levelo_inurba_marseille","lat":43.301939,"lon":5.366286,"is_reserved":false,"is_disabled":false,"rental_uris":{"android":"levelo://app?vid=e00daf42-3914-43ac-bbd4-f6a6812c2a16","ios":"levelo://app?vid=e00daf42-3914-43ac-bbd4-f6a6812c2a16"},"vehicle_type_id":"4","last_reported":1707329317,"current_range_meters":23200,"station_id":"ce4bgrh2rcd13ifvqc8g","pricing_plan_id":"free"},{"bike_id":"fd5d3001-e166-4bd1-9d7d-cfb99b071247","system_id":"levelo_inurba_marseille","lat":43.301939,"lon":5.366286,"is_reserved":false,"is_disabled":false,"rental_uris":{"android":"levelo://app?vid=fd5d3001-e166-4bd1-9d7d-cfb99b071247","ios":"levelo://app?vid=fd5d3001-e166-4bd1-9d7d-cfb99b071247"},"vehicle_type_id":"4","last_reported":1707329317,"current_range_meters":14000,"station_id":"ce4bgrh2rcd13ifvqc8g","pricing_plan_id":"free"},{"bike_id":"2525dc7b-626e-42b9-8e58-474be2ee4cc7","system_id":"levelo_inurba_marseille","lat":43.301939,"lon":5.366286,"is_reserved":false,"is_disabled":false,"rental_uris":{"android":"levelo://app?vid=2525dc7b-626e-42b9-8e58-474be2ee4cc7","ios":"levelo://app?vid=2525dc7b-626e-42b9-8e58-474be2ee4cc7"},"vehicle_type_id":"4","last_reported":1707329317,"current_range_meters":12800,"station_id":"ce4bgrh2rcd13ifvqc8g","pricing_plan_id":"free"},{"bike_id":"538f47cc-03c4-4cdb-96d6-3c4e9386338b","system_id":"levelo_inurba_marseille","lat":43.301939,"lon":5.366286,"is_reserved":false,"is_disabled":false,"rental_uris":{"android":"levelo://app?vid=538f47cc-03c4-4cdb-96d6-3c4e9386338b","ios":"levelo://app?vid=538f47cc-03c4-4cdb-96d6-3c4e9386338b"},"vehicle_type_id":"4","last_reported":1707329317,"current_range_meters":14800,"station_id":"ce4bgrh2rcd13ifvqc8g","pricing_plan_id":"free"},{"bike_id":"6388d5ab-f4a7-4a75-a816-2d8a4b5cd76c","system_id":"levelo_inurba_marseille","lat":43.308012,"lon":5.381511,"is_reserved":false,"is_disabled":false,"rental_uris":{"android":"levelo://app?vid=6388d5ab-f4a7-4a75-a816-2d8a4b5cd76c","ios":"levelo://app?vid=6388d5ab-f4a7-4a75-a816-2d8a4b5cd76c"},"vehicle_type_id":"4","last_reported":1707329317,"current_range_meters":30400,"station_id":"ce4bgt12rcd13ifvqce0","pricing_plan_id":"free"},{"bike_id":"b955a4d6-fb02-453c-a96a-8f4abafcb31f","system_id":"levelo_inurba_marseille","lat":43.308012,"lon":5.381511,"is_reserved":false,"is_disabled":false,"rental_uris":{"android":"levelo://app?vid=b955a4d6-fb02-453c-a96a-8f4abafcb31f","ios":"levelo://app?vid=b955a4d6-fb02-453c-a96a-8f4abafcb31f"},"vehicle_type_id":"4","last_reported":1707329317,"current_range_meters":13600,"station_id":"ce4bgt12rcd13ifvqce0","pricing_plan_id":"free"},{"bike_id":"b6d5a2fb-b6f9-41f7-b40d-d7ebccbeac74","system_id":"levelo_inurba_marseille","lat":43.308012,"lon":5.381511,"is_reserved":false,"is_disabled":false,"rental_uris":{"android":"levelo://app?vid=b6d5a2fb-b6f9-41f7-b40d-d7ebccbeac74","ios":"levelo://app?vid=b6d5a2fb-b6f9-41f7-b40d-d7ebccbeac74"},"vehicle_type_id":"4","last_reported":1707329317,"current_range_meters":12000,"station_id":"ce4bgt12rcd13ifvqce0","pricing_plan_id":"free"},{"bike_id":"749f056f-595a-4ae2-9a9a-e3ab7165006c","system_id":"levelo_inurba_marseille","lat":43.308012,"lon":5.381511,"is_reserved":false,"is_disabled":false,"rental_uris":{"android":"levelo://app?vid=749f056f-595a-4ae2-9a9a-e3ab7165006c","ios":"levelo://app?vid=749f056f-595a-4ae2-9a9a-e3ab7165006c"},"vehicle_type_id":"4","last_reported":1707329317,"current_range_meters":13600,"station_id":"ce4bgt12rcd13ifvqce0","pricing_plan_id":"free"},{"bike_id":"f6eddb3f-7238-432b-929f-9278be0ef951","system_id":"levelo_inurba_marseille","lat":43.308012,"lon":5.381511,"is_reserved":false,"is_disabled":false,"rental_uris":{"android":"levelo://app?vid=f6eddb3f-7238-432b-929f-9278be0ef951","ios":"levelo://app?vid=f6eddb3f-7238-432b-929f-9278be0ef951"},"vehicle_type_id":"4","last_reported":1707329317,"current_range_meters":13600,"station_id":"ce4bgt12rcd13ifvqce0","pricing_plan_id":"free"},{"bike_id":"376260b1-8cfb-4be2-9495-fd13a4bdf26e","system_id":"levelo_inurba_marseille","lat":43.308012,"lon":5.381511,"is_reserved":false,"is_disabled":false,"rental_uris":{"android":"levelo://app?vid=376260b1-8cfb-4be2-9495-fd13a4bdf26e","ios":"levelo://app?vid=376260b1-8cfb-4be2-9495-fd13a4bdf26e"},"vehicle_type_id":"4","last_reported":1707329317,"current_range_meters":4800,"station_id":"ce4bgt12rcd13ifvqce0","pricing_plan_id":"free"},{"bike_id":"4fa081f0-aed2-4d07-8bf8-d2180542e185","system_id":"levelo_inurba_marseille","lat":43.308012,"lon":5.381511,"is_reserved":false,"is_disabled":false,"rental_uris":{"android":"levelo://app?vid=4fa081f0-aed2-4d07-8bf8-d2180542e185","ios":"levelo://app?vid=4fa081f0-aed2-4d07-8bf8-d2180542e185"},"vehicle_type_id":"4","last_reported":1707329317,"current_range_meters":18800,"station_id":"ce4bgt12rcd13ifvqce0","pricing_plan_id":"free"},{"bike_id":"8cc9eb98-97cb-41a9-9276-144a79a61e69","system_id":"levelo_inurba_marseille","lat":43.308012,"lon":5.381511,"is_reserved":false,"is_disabled":false,"rental_uris":{"android":"levelo://app?vid=8cc9eb98-97cb-41a9-9276-144a79a61e69","ios":"levelo://app?vid=8cc9eb98-97cb-41a9-9276-144a79a61e69"},"vehicle_type_id":"4","last_reported":1707329317,"current_range_meters":14000,"station_id":"ce4bgt12rcd13ifvqce0","pricing_plan_id":"free"},{"bike_id":"d534a4f4-0dc9-4555-ac81-dcd469f4146c","system_id":"levelo_inurba_marseille","lat":43.308012,"lon":5.381511,"is_reserved":false,"is_disabled":false,"rental_uris":{"android":"levelo://app?vid=d534a4f4-0dc9-4555-ac81-dcd469f4146c","ios":"levelo://app?vid=d534a4f4-0dc9-4555-ac81-dcd469f4146c"},"vehicle_type_id":"4","last_reported":1707329317,"current_range_meters":14000,"station_id":"ce4bgt12rcd13ifvqce0","pricing_plan_id":"free"},{"bike_id":"d3bbaa1c-bd42-4480-83af-1675f959224a","system_id":"levelo_inurba_marseille","lat":43.32266,"lon":5.37608,"is_reserved":false,"is_disabled":false,"rental_uris":{"android":"levelo://app?vid=d3bbaa1c-bd42-4480-83af-1675f959224a","ios":"levelo://app?vid=d3bbaa1c-bd42-4480-83af-1675f959224a"},"vehicle_type_id":"4","last_reported":1707329317,"current_range_meters":16000,"station_id":"","pricing_plan_id":"free"},{"bike_id":"74ccbf25-545e-4fef-a350-bdfa8b98085f","system_id":"levelo_inurba_marseille","lat":43.304606,"lon":5.379026,"is_reserved":false,"is_disabled":false,"rental_uris":{"android":"levelo://app?vid=74ccbf25-545e-4fef-a350-bdfa8b98085f","ios":"levelo://app?vid=74ccbf25-545e-4fef-a350-bdfa8b98085f"},"vehicle_type_id":"4","last_reported":1707329317,"current_range_meters":28400,"station_id":"ce4bgup2rcd13ifvqcn0","pricing_plan_id":"free"},{"bike_id":"97f71f75-d414-4d74-9636-20377fab8590","system_id":"levelo_inurba_marseille","lat":43.324771,"lon":5.36557,"is_reserved":false,"is_disabled":false,"rental_uris":{"android":"levelo://app?vid=97f71f75-d414-4d74-9636-20377fab8590","ios":"levelo://app?vid=97f71f75-d414-4d74-9636-20377fab8590"},"vehicle_type_id":"4","last_reported":1707329317,"current_range_meters":26800,"station_id":"ce4bhs12rcd13ifvqhvg","pricing_plan_id":"free"},{"bike_id":"91c66a19-a3c7-49c3-af5d-2beaa8d69313","system_id":"levelo_inurba_marseille","lat":43.324771,"lon":5.36557,"is_reserved":false,"is_disabled":false,"rental_uris":{"android":"levelo://app?vid=91c66a19-a3c7-49c3-af5d-2beaa8d69313","ios":"levelo://app?vid=91c66a19-a3c7-49c3-af5d-2beaa8d69313"},"vehicle_type_id":"4","last_reported":1707329317,"current_range_meters":14400,"station_id":"ce4bhs12rcd13ifvqhvg","pricing_plan_id":"free"},{"bike_id":"5e3f4117-bf71-4295-8fac-b33a9c44e6b6","system_id":"levelo_inurba_marseille","lat":43.324771,"lon":5.36557,"is_reserved":false,"is_disabled":false,"rental_uris":{"android":"levelo://app?vid=5e3f4117-bf71-4295-8fac-b33a9c44e6b6","ios":"levelo://app?vid=5e3f4117-bf71-4295-8fac-b33a9c44e6b6"},"vehicle_type_id":"4","last_reported":1707329317,"current_range_meters":19200,"station_id":"ce4bhs12rcd13ifvqhvg","pricing_plan_id":"free"},{"bike_id":"b70b334b-de07-4581-a3b7-a89ee2188549","system_id":"levelo_inurba_marseille","lat":43.30143,"lon":5.37413,"is_reserved":false,"is_disabled":false,"rental_uris":{"android":"levelo://app?vid=b70b334b-de07-4581-a3b7-a89ee2188549","ios":"levelo://app?vid=b70b334b-de07-4581-a3b7-a89ee2188549"},"vehicle_type_id":"4","last_reported":1707329317,"current_range_meters":5600,"station_id":"ce4bgs92rcd13ifvqcc0","pricing_plan_id":"free"},{"bike_id":"740003d4-55d5-4974-b418-57fb3f4d1ce4","system_id":"levelo_inurba_marseille","lat":43.31992,"lon":5.38158,"is_reserved":false,"is_disabled":false,"rental_uris":{"android":"levelo://app?vid=740003d4-55d5-4974-b418-57fb3f4d1ce4","ios":"levelo://app?vid=740003d4-55d5-4974-b418-57fb3f4d1ce4"},"vehicle_type_id":"4","last_reported":1707329317,"current_range_meters":17200,"station_id":"ce4bhr12rcd13ifvqhpg","pricing_plan_id":"free"},{"bike_id":"8e3f55d4-15fc-41de-a6d2-d21a89826707","system_id":"levelo_inurba_marseille","lat":43.313571,"lon":5.384829,"is_reserved":false,"is_disabled":false,"rental_uris":{"android":"levelo://app?vid=8e3f55d4-15fc-41de-a6d2-d21a89826707","ios":"levelo://app?vid=8e3f55d4-15fc-41de-a6d2-d21a89826707"},"vehicle_type_id":"4","last_reported":1707329317,"current_range_meters":24800,"station_id":"ce4bgt92rcd13ifvqcf0","pricing_plan_id":"free"},{"bike_id":"d1627e1f-ceeb-4e27-9148-e8535ad39fb5","system_id":"levelo_inurba_marseille","lat":43.313613,"lon":5.384943,"is_reserved":false,"is_disabled":false,"rental_uris":{"android":"levelo://app?vid=d1627e1f-ceeb-4e27-9148-e8535ad39fb5","ios":"levelo://app?vid=d1627e1f-ceeb-4e27-9148-e8535ad39fb5"},"vehicle_type_id":"4","last_reported":1707329317,"current_range_meters":19600,"station_id":"ce4bgt92rcd13ifvqcf0","pricing_plan_id":"free"},{"bike_id":"8c2757a7-c809-46e6-a103-306c4aa13a86","system_id":"levelo_inurba_marseille","lat":43.29981,"lon":5.3718,"is_reserved":false,"is_disabled":false,"rental_uris":{"android":"levelo://app?vid=8c2757a7-c809-46e6-a103-306c4aa13a86","ios":"levelo://app?vid=8c2757a7-c809-46e6-a103-306c4aa13a86"},"vehicle_type_id":"4","last_reported":1707329317,"current_range_meters":7200,"station_id":"","pricing_plan_id":"free"},{"bike_id":"d73908e2-2bfd-489b-804e-d4e95fac72d2","system_id":"levelo_inurba_marseille","lat":43.326525,"lon":5.36078,"is_reserved":false,"is_disabled":false,"rental_uris":{"android":"levelo://app?vid=d73908e2-2bfd-489b-804e-d4e95fac72d2","ios":"levelo://app?vid=d73908e2-2bfd-489b-804e-d4e95fac72d2"},"vehicle_type_id":"4","last_reported":1707329317,"current_range_meters":10000,"station_id":"","pricing_plan_id":"free"},{"bike_id":"607c94fa-1b28-4a10-9dbb-1931e51f618b","system_id":"levelo_inurba_marseille","lat":43.305364,"lon":5.384119,"is_reserved":false,"is_disabled":false,"rental_uris":{"android":"levelo://app?vid=607c94fa-1b28-4a10-9dbb-1931e51f618b","ios":"levelo://app?vid=607c94fa-1b28-4a10-9dbb-1931e51f618b"},"vehicle_type_id":"4","last_reported":1707329317,"current_range_meters":20400,"station_id":"ce4bgg92rcd13ifvqb30","pricing_plan_id":"free"},{"bike_id":"e0e93a56-0282-4f0e-b57c-934300d765a9","system_id":"levelo_inurba_marseille","lat":43.298433,"lon":5.362774,"is_reserved":false,"is_disabled":false,"rental_uris":{"android":"levelo://app?vid=e0e93a56-0282-4f0e-b57c-934300d765a9","ios":"levelo://app?vid=e0e93a56-0282-4f0e-b57c-934300d765a9"},"vehicle_type_id":"4","last_reported":1707329317,"current_range_meters":9600,"station_id":"ce4bgpp2rcd13ifvqc3g","pricing_plan_id":"free"},{"bike_id":"dd14ae15-060e-42bf-9c3f-6cfcdd39a62e","system_id":"levelo_inurba_marseille","lat":43.305364,"lon":5.384119,"is_reserved":false,"is_disabled":false,"rental_uris":{"android":"levelo://app?vid=dd14ae15-060e-42bf-9c3f-6cfcdd39a62e","ios":"levelo://app?vid=dd14ae15-060e-42bf-9c3f-6cfcdd39a62e"},"vehicle_type_id":"4","last_reported":1707329317,"current_range_meters":26000,"station_id":"ce4bgg92rcd13ifvqb30","pricing_plan_id":"free"},{"bike_id":"a8d2d21b-3427-4f6e-87ef-988bc6839881","system_id":"levelo_inurba_marseille","lat":43.298433,"lon":5.362774,"is_reserved":false,"is_disabled":false,"rental_uris":{"android":"levelo://app?vid=a8d2d21b-3427-4f6e-87ef-988bc6839881","ios":"levelo://app?vid=a8d2d21b-3427-4f6e-87ef-988bc6839881"},"vehicle_type_id":"4","last_reported":1707329317,"current_range_meters":31200,"station_id":"ce4bgpp2rcd13ifvqc3g","pricing_plan_id":"free"},{"bike_id":"867a7e36-d153-4291-a21e-34b84c500fb4","system_id":"levelo_inurba_marseille","lat":43.298433,"lon":5.362774,"is_reserved":false,"is_disabled":false,"rental_uris":{"android":"levelo://app?vid=867a7e36-d153-4291-a21e-34b84c500fb4","ios":"levelo://app?vid=867a7e36-d153-4291-a21e-34b84c500fb4"},"vehicle_type_id":"4","last_reported":1707329317,"current_range_meters":31200,"station_id":"ce4bgpp2rcd13ifvqc3g","pricing_plan_id":"free"},{"bike_id":"d18e31e4-4ffb-4505-8526-6ad32d2b8284","system_id":"levelo_inurba_marseille","lat":43.322872,"lon":5.382756,"is_reserved":false,"is_disabled":false,"rental_uris":{"android":"levelo://app?vid=d18e31e4-4ffb-4505-8526-6ad32d2b8284","ios":"levelo://app?vid=d18e31e4-4ffb-4505-8526-6ad32d2b8284"},"vehicle_type_id":"4","last_reported":1707329317,"current_range_meters":28000,"station_id":"ce4bhr12rcd13ifvqhqg","pricing_plan_id":"free"},{"bike_id":"7e1b2a77-71b5-4003-b54e-450ad3f3f9d1","system_id":"levelo_inurba_marseille","lat":43.322872,"lon":5.382756,"is_reserved":false,"is_disabled":false,"rental_uris":{"android":"levelo://app?vid=7e1b2a77-71b5-4003-b54e-450ad3f3f9d1","ios":"levelo://app?vid=7e1b2a77-71b5-4003-b54e-450ad3f3f9d1"},"vehicle_type_id":"4","last_reported":1707329317,"current_range_meters":31200,"station_id":"ce4bhr12rcd13ifvqhqg","pricing_plan_id":"free"},{"bike_id":"2c3e498c-51f7-4742-8fc0-50b1b6152893","system_id":"levelo_inurba_marseille","lat":43.322872,"lon":5.382756,"is_reserved":false,"is_disabled":false,"rental_uris":{"android":"levelo://app?vid=2c3e498c-51f7-4742-8fc0-50b1b6152893","ios":"levelo://app?vid=2c3e498c-51f7-4742-8fc0-50b1b6152893"},"vehicle_type_id":"4","last_reported":1707329317,"current_range_meters":25600,"station_id":"ce4bhr12rcd13ifvqhqg","pricing_plan_id":"free"},{"bike_id":"787904b0-57a6-461d-8966-f82b7a650f40","system_id":"levelo_inurba_marseille","lat":43.313571,"lon":5.384829,"is_reserved":false,"is_disabled":false,"rental_uris":{"android":"levelo://app?vid=787904b0-57a6-461d-8966-f82b7a650f40","ios":"levelo://app?vid=787904b0-57a6-461d-8966-f82b7a650f40"},"vehicle_type_id":"4","last_reported":1707329317,"current_range_meters":15600,"station_id":"ce4bgt92rcd13ifvqcf0","pricing_plan_id":"free"},{"bike_id":"72871506-5c8d-4246-b6ff-5c1fd4ecd534","system_id":"levelo_inurba_marseille","lat":43.322872,"lon":5.382756,"is_reserved":false,"is_disabled":false,"rental_uris":{"android":"levelo://app?vid=72871506-5c8d-4246-b6ff-5c1fd4ecd534","ios":"levelo://app?vid=72871506-5c8d-4246-b6ff-5c1fd4ecd534"},"vehicle_type_id":"4","last_reported":1707329317,"current_range_meters":12400,"station_id":"ce4bhr12rcd13ifvqhqg","pricing_plan_id":"free"},{"bike_id":"eefe6e9a-bb51-44f7-a644-f94de5a43093","system_id":"levelo_inurba_marseille","lat":43.322872,"lon":5.382756,"is_reserved":false,"is_disabled":false,"rental_uris":{"android":"levelo://app?vid=eefe6e9a-bb51-44f7-a644-f94de5a43093","ios":"levelo://app?vid=eefe6e9a-bb51-44f7-a644-f94de5a43093"},"vehicle_type_id":"4","last_reported":1707329317,"current_range_meters":20400,"station_id":"ce4bhr12rcd13ifvqhqg","pricing_plan_id":"free"},{"bike_id":"e9931e11-7f7d-405e-b611-f5c0a6974b86","system_id":"levelo_inurba_marseille","lat":43.32821,"lon":5.366869,"is_reserved":false,"is_disabled":false,"rental_uris":{"android":"levelo://app?vid=e9931e11-7f7d-405e-b611-f5c0a6974b86","ios":"levelo://app?vid=e9931e11-7f7d-405e-b611-f5c0a6974b86"},"vehicle_type_id":"4","last_reported":1707329317,"current_range_meters":8000,"station_id":"ce4bhs92rcd13ifvqi0g","pricing_plan_id":"free"},{"bike_id":"65df82d7-13cf-47f7-a772-c822c5154c08","system_id":"levelo_inurba_marseille","lat":43.32825,"lon":5.36697,"is_reserved":false,"is_disabled":false,"rental_uris":{"android":"levelo://app?vid=65df82d7-13cf-47f7-a772-c822c5154c08","ios":"levelo://app?vid=65df82d7-13cf-47f7-a772-c822c5154c08"},"vehicle_type_id":"4","last_reported":1707329317,"current_range_meters":6800,"station_id":"ce4bhs92rcd13ifvqi0g","pricing_plan_id":"free"},{"bike_id":"1900e2ea-9239-49b1-933e-57903fa99707","system_id":"levelo_inurba_marseille","lat":43.32826,"lon":5.36695,"is_reserved":false,"is_disabled":false,"rental_uris":{"android":"levelo://app?vid=1900e2ea-9239-49b1-933e-57903fa99707","ios":"levelo://app?vid=1900e2ea-9239-49b1-933e-57903fa99707"},"vehicle_type_id":"4","last_reported":1707329317,"current_range_meters":0,"station_id":"ce4bhs92rcd13ifvqi0g","pricing_plan_id":"free"},{"bike_id":"a32a8a31-c14a-4104-b5e3-65efbe9a2f37","system_id":"levelo_inurba_marseille","lat":43.297163,"lon":5.365866,"is_reserved":false,"is_disabled":false,"rental_uris":{"android":"levelo://app?vid=a32a8a31-c14a-4104-b5e3-65efbe9a2f37","ios":"levelo://app?vid=a32a8a31-c14a-4104-b5e3-65efbe9a2f37"},"vehicle_type_id":"4","last_reported":1707329317,"current_range_meters":14000,"station_id":"ce4bgn12rcd13ifvqbt0","pricing_plan_id":"free"},{"bike_id":"fe778e3d-01c2-4885-a600-56239ff1ba86","system_id":"levelo_inurba_marseille","lat":43.328371,"lon":5.366909,"is_reserved":false,"is_disabled":false,"rental_uris":{"android":"levelo://app?vid=fe778e3d-01c2-4885-a600-56239ff1ba86","ios":"levelo://app?vid=fe778e3d-01c2-4885-a600-56239ff1ba86"},"vehicle_type_id":"4","last_reported":1707329317,"current_range_meters":22400,"station_id":"ce4bhs92rcd13ifvqi0g","pricing_plan_id":"free"},{"bike_id":"99f42fd3-25d7-477c-8c79-23043dd601db","system_id":"levelo_inurba_marseille","lat":43.297163,"lon":5.365866,"is_reserved":false,"is_disabled":false,"rental_uris":{"android":"levelo://app?vid=99f42fd3-25d7-477c-8c79-23043dd601db","ios":"levelo://app?vid=99f42fd3-25d7-477c-8c79-23043dd601db"},"vehicle_type_id":"4","last_reported":1707329317,"current_range_meters":10400,"station_id":"ce4bgn12rcd13ifvqbt0","pricing_plan_id":"free"},{"bike_id":"2c9e2bae-75ab-4fcb-a45a-bb416a6935c9","system_id":"levelo_inurba_marseille","lat":43.297163,"lon":5.365866,"is_reserved":false,"is_disabled":false,"rental_uris":{"android":"levelo://app?vid=2c9e2bae-75ab-4fcb-a45a-bb416a6935c9","ios":"levelo://app?vid=2c9e2bae-75ab-4fcb-a45a-bb416a6935c9"},"vehicle_type_id":"4","last_reported":1707329317,"current_range_meters":21600,"station_id":"ce4bgn12rcd13ifvqbt0","pricing_plan_id":"free"},{"bike_id":"0a207bf4-8a86-4ad9-8452-7a89b240a867","system_id":"levelo_inurba_marseille","lat":43.297163,"lon":5.365866,"is_reserved":false,"is_disabled":false,"rental_uris":{"android":"levelo://app?vid=0a207bf4-8a86-4ad9-8452-7a89b240a867","ios":"levelo://app?vid=0a207bf4-8a86-4ad9-8452-7a89b240a867"},"vehicle_type_id":"4","last_reported":1707329317,"current_range_meters":24400,"station_id":"ce4bgn12rcd13ifvqbt0","pricing_plan_id":"free"},{"bike_id":"47a33bc8-7e52-4c8c-b843-d318746dd21e","system_id":"levelo_inurba_marseille","lat":43.297163,"lon":5.365866,"is_reserved":false,"is_disabled":false,"rental_uris":{"android":"levelo://app?vid=47a33bc8-7e52-4c8c-b843-d318746dd21e","ios":"levelo://app?vid=47a33bc8-7e52-4c8c-b843-d318746dd21e"},"vehicle_type_id":"4","last_reported":1707329317,"current_range_meters":0,"station_id":"ce4bgn12rcd13ifvqbt0","pricing_plan_id":"free"},{"bike_id":"927f0a30-2109-48e1-b358-9b5d4758d791","system_id":"levelo_inurba_marseille","lat":43.29713,"lon":5.36617,"is_reserved":false,"is_disabled":false,"rental_uris":{"android":"levelo://app?vid=927f0a30-2109-48e1-b358-9b5d4758d791","ios":"levelo://app?vid=927f0a30-2109-48e1-b358-9b5d4758d791"},"vehicle_type_id":"4","last_reported":1707329317,"current_range_meters":31200,"station_id":"ce4bgn12rcd13ifvqbt0","pricing_plan_id":"free"},{"bike_id":"04359a30-e6ae-4bf7-9221-b3e8c0b0c299","system_id":"levelo_inurba_marseille","lat":43.297163,"lon":5.365866,"is_reserved":false,"is_disabled":false,"rental_uris":{"android":"levelo://app?vid=04359a30-e6ae-4bf7-9221-b3e8c0b0c299","ios":"levelo://app?vid=04359a30-e6ae-4bf7-9221-b3e8c0b0c299"},"vehicle_type_id":"4","last_reported":1707329317,"current_range_meters":29600,"station_id":"ce4bgn12rcd13ifvqbt0","pricing_plan_id":"free"},{"bike_id":"6cab000d-8e7b-4b69-bb41-615e1cee47b7","system_id":"levelo_inurba_marseille","lat":43.29707,"lon":5.36614,"is_reserved":false,"is_disabled":false,"rental_uris":{"android":"levelo://app?vid=6cab000d-8e7b-4b69-bb41-615e1cee47b7","ios":"levelo://app?vid=6cab000d-8e7b-4b69-bb41-615e1cee47b7"},"vehicle_type_id":"4","last_reported":1707329317,"current_range_meters":23200,"station_id":"ce4bgn12rcd13ifvqbt0","pricing_plan_id":"free"},{"bike_id":"e4e5b0ce-a2f5-495b-b220-5b83695fdcd6","system_id":"levelo_inurba_marseille","lat":43.29704,"lon":5.36616,"is_reserved":false,"is_disabled":false,"rental_uris":{"android":"levelo://app?vid=e4e5b0ce-a2f5-495b-b220-5b83695fdcd6","ios":"levelo://app?vid=e4e5b0ce-a2f5-495b-b220-5b83695fdcd6"},"vehicle_type_id":"4","last_reported":1707329317,"current_range_meters":4000,"station_id":"ce4bgn12rcd13ifvqbt0","pricing_plan_id":"free"},{"bike_id":"7faa822b-17f1-4df3-be4c-f4146a88b454","system_id":"levelo_inurba_marseille","lat":43.296131,"lon":5.370791,"is_reserved":false,"is_disabled":false,"rental_uris":{"android":"levelo://app?vid=7faa822b-17f1-4df3-be4c-f4146a88b454","ios":"levelo://app?vid=7faa822b-17f1-4df3-be4c-f4146a88b454"},"vehicle_type_id":"4","last_reported":1707329317,"current_range_meters":2000,"station_id":"ce4bgnh2rcd13ifvqc0g","pricing_plan_id":"free"},{"bike_id":"8f7161d1-88a0-43ca-90b1-da5d6f1cded4","system_id":"levelo_inurba_marseille","lat":43.29573,"lon":5.367355,"is_reserved":false,"is_disabled":false,"rental_uris":{"android":"levelo://app?vid=8f7161d1-88a0-43ca-90b1-da5d6f1cded4","ios":"levelo://app?vid=8f7161d1-88a0-43ca-90b1-da5d6f1cded4"},"vehicle_type_id":"4","last_reported":1707329317,"current_range_meters":26800,"station_id":"ce4bgph2rcd13ifvqc2g","pricing_plan_id":"free"},{"bike_id":"c2c672a8-a1ab-4032-9493-8b00c26184fc","system_id":"levelo_inurba_marseille","lat":43.29573,"lon":5.367355,"is_reserved":false,"is_disabled":false,"rental_uris":{"android":"levelo://app?vid=c2c672a8-a1ab-4032-9493-8b00c26184fc","ios":"levelo://app?vid=c2c672a8-a1ab-4032-9493-8b00c26184fc"},"vehicle_type_id":"4","last_reported":1707329317,"current_range_meters":25600,"station_id":"ce4bgph2rcd13ifvqc2g","pricing_plan_id":"free"},{"bike_id":"52ebe4d6-2848-43b9-b7c0-95fd82c9165b","system_id":"levelo_inurba_marseille","lat":43.29573,"lon":5.367355,"is_reserved":false,"is_disabled":false,"rental_uris":{"android":"levelo://app?vid=52ebe4d6-2848-43b9-b7c0-95fd82c9165b","ios":"levelo://app?vid=52ebe4d6-2848-43b9-b7c0-95fd82c9165b"},"vehicle_type_id":"4","last_reported":1707329317,"current_range_meters":30000,"station_id":"ce4bgph2rcd13ifvqc2g","pricing_plan_id":"free"},{"bike_id":"dd13a608-7457-4d4e-b1b4-6c7e8f661026","system_id":"levelo_inurba_marseille","lat":43.299028,"lon":5.381509,"is_reserved":false,"is_disabled":false,"rental_uris":{"android":"levelo://app?vid=dd13a608-7457-4d4e-b1b4-6c7e8f661026","ios":"levelo://app?vid=dd13a608-7457-4d4e-b1b4-6c7e8f661026"},"vehicle_type_id":"4","last_reported":1707329317,"current_range_meters":20000,"station_id":"ce4bgj12rcd13ifvqbc0","pricing_plan_id":"free"},{"bike_id":"a6483b03-f05e-45da-8573-d617753dd1fb","system_id":"levelo_inurba_marseille","lat":43.299028,"lon":5.381509,"is_reserved":false,"is_disabled":false,"rental_uris":{"android":"levelo://app?vid=a6483b03-f05e-45da-8573-d617753dd1fb","ios":"levelo://app?vid=a6483b03-f05e-45da-8573-d617753dd1fb"},"vehicle_type_id":"4","last_reported":1707329317,"current_range_meters":20800,"station_id":"ce4bgj12rcd13ifvqbc0","pricing_plan_id":"free"},{"bike_id":"95297123-f62b-46bb-8eee-b9e2802a7c1c","system_id":"levelo_inurba_marseille","lat":43.309589,"lon":5.390258,"is_reserved":false,"is_disabled":false,"rental_uris":{"android":"levelo://app?vid=95297123-f62b-46bb-8eee-b9e2802a7c1c","ios":"levelo://app?vid=95297123-f62b-46bb-8eee-b9e2802a7c1c"},"vehicle_type_id":"4","last_reported":1707329317,"current_range_meters":24800,"station_id":"ce4bgup2rcd13ifvqco0","pricing_plan_id":"free"},{"bike_id":"ff79499d-6ec4-4f93-a781-f3d5b4d74c10","system_id":"levelo_inurba_marseille","lat":43.309589,"lon":5.390258,"is_reserved":false,"is_disabled":false,"rental_uris":{"android":"levelo://app?vid=ff79499d-6ec4-4f93-a781-f3d5b4d74c10","ios":"levelo://app?vid=ff79499d-6ec4-4f93-a781-f3d5b4d74c10"},"vehicle_type_id":"4","last_reported":1707329317,"current_range_meters":7200,"station_id":"ce4bgup2rcd13ifvqco0","pricing_plan_id":"free"},{"bike_id":"8be3180b-7f1b-4005-a231-b23333e54906","system_id":"levelo_inurba_marseille","lat":43.309589,"lon":5.390258,"is_reserved":false,"is_disabled":false,"rental_uris":{"android":"levelo://app?vid=8be3180b-7f1b-4005-a231-b23333e54906","ios":"levelo://app?vid=8be3180b-7f1b-4005-a231-b23333e54906"},"vehicle_type_id":"4","last_reported":1707329317,"current_range_meters":30000,"station_id":"ce4bgup2rcd13ifvqco0","pricing_plan_id":"free"},{"bike_id":"b393e380-9b9a-4239-8934-e30e3f7bac4e","system_id":"levelo_inurba_marseille","lat":43.317418,"lon":5.390032,"is_reserved":false,"is_disabled":false,"rental_uris":{"android":"levelo://app?vid=b393e380-9b9a-4239-8934-e30e3f7bac4e","ios":"levelo://app?vid=b393e380-9b9a-4239-8934-e30e3f7bac4e"},"vehicle_type_id":"4","last_reported":1707329317,"current_range_meters":10800,"station_id":"ce4bhqp2rcd13ifvqhng","pricing_plan_id":"free"},{"bike_id":"a65680f1-b3cf-4a61-b0ee-2a9e0277a0af","system_id":"levelo_inurba_marseille","lat":43.317588,"lon":5.390118,"is_reserved":false,"is_disabled":false,"rental_uris":{"android":"levelo://app?vid=a65680f1-b3cf-4a61-b0ee-2a9e0277a0af","ios":"levelo://app?vid=a65680f1-b3cf-4a61-b0ee-2a9e0277a0af"},"vehicle_type_id":"4","last_reported":1707329317,"current_range_meters":12400,"station_id":"ce4bhqp2rcd13ifvqhng","pricing_plan_id":"free"},{"bike_id":"3ccd3931-8811-4b7f-a846-c32a0a6915a2","system_id":"levelo_inurba_marseille","lat":43.317557,"lon":5.390173,"is_reserved":false,"is_disabled":false,"rental_uris":{"android":"levelo://app?vid=3ccd3931-8811-4b7f-a846-c32a0a6915a2","ios":"levelo://app?vid=3ccd3931-8811-4b7f-a846-c32a0a6915a2"},"vehicle_type_id":"4","last_reported":1707329317,"current_range_meters":28800,"station_id":"ce4bhqp2rcd13ifvqhng","pricing_plan_id":"free"},{"bike_id":"b6c1c1be-a5aa-4d5d-89a2-fd3b94ed18a1","system_id":"levelo_inurba_marseille","lat":43.317557,"lon":5.390173,"is_reserved":false,"is_disabled":false,"rental_uris":{"android":"levelo://app?vid=b6c1c1be-a5aa-4d5d-89a2-fd3b94ed18a1","ios":"levelo://app?vid=b6c1c1be-a5aa-4d5d-89a2-fd3b94ed18a1"},"vehicle_type_id":"4","last_reported":1707329317,"current_range_meters":17200,"station_id":"ce4bhqp2rcd13ifvqhng","pricing_plan_id":"free"},{"bike_id":"8236458b-34ca-49b5-ab60-c4f12ac61945","system_id":"levelo_inurba_marseille","lat":43.31759,"lon":5.39018,"is_reserved":false,"is_disabled":false,"rental_uris":{"android":"levelo://app?vid=8236458b-34ca-49b5-ab60-c4f12ac61945","ios":"levelo://app?vid=8236458b-34ca-49b5-ab60-c4f12ac61945"},"vehicle_type_id":"4","last_reported":1707329317,"current_range_meters":11600,"station_id":"ce4bhqp2rcd13ifvqhng","pricing_plan_id":"free"},{"bike_id":"5803286d-bc09-4cb9-b050-80f335e1e221","system_id":"levelo_inurba_marseille","lat":43.317557,"lon":5.390173,"is_reserved":false,"is_disabled":false,"rental_uris":{"android":"levelo://app?vid=5803286d-bc09-4cb9-b050-80f335e1e221","ios":"levelo://app?vid=5803286d-bc09-4cb9-b050-80f335e1e221"},"vehicle_type_id":"4","last_reported":1707329317,"current_range_meters":21200,"station_id":"ce4bhqp2rcd13ifvqhng","pricing_plan_id":"free"},{"bike_id":"f9e71f25-83c3-4ad2-95f8-b63267492ced","system_id":"levelo_inurba_marseille","lat":43.317557,"lon":5.390173,"is_reserved":false,"is_disabled":false,"rental_uris":{"android":"levelo://app?vid=f9e71f25-83c3-4ad2-95f8-b63267492ced","ios":"levelo://app?vid=f9e71f25-83c3-4ad2-95f8-b63267492ced"},"vehicle_type_id":"4","last_reported":1707329317,"current_range_meters":26400,"station_id":"ce4bhqp2rcd13ifvqhng","pricing_plan_id":"free"},{"bike_id":"36530bef-b0a9-4557-bc82-752d439888bc","system_id":"levelo_inurba_marseille","lat":43.31753,"lon":5.39026,"is_reserved":false,"is_disabled":false,"rental_uris":{"android":"levelo://app?vid=36530bef-b0a9-4557-bc82-752d439888bc","ios":"levelo://app?vid=36530bef-b0a9-4557-bc82-752d439888bc"},"vehicle_type_id":"4","last_reported":1707329317,"current_range_meters":14800,"station_id":"ce4bhqp2rcd13ifvqhng","pricing_plan_id":"free"},{"bike_id":"28bba395-38ae-46b0-8bda-5604032e994c","system_id":"levelo_inurba_marseille","lat":43.31757,"lon":5.39027,"is_reserved":false,"is_disabled":false,"rental_uris":{"android":"levelo://app?vid=28bba395-38ae-46b0-8bda-5604032e994c","ios":"levelo://app?vid=28bba395-38ae-46b0-8bda-5604032e994c"},"vehicle_type_id":"4","last_reported":1707329317,"current_range_meters":14800,"station_id":"ce4bhqp2rcd13ifvqhng","pricing_plan_id":"free"},{"bike_id":"9525c042-45cb-44c5-b0b0-ed1520f7c7da","system_id":"levelo_inurba_marseille","lat":43.298093,"lon":5.380859,"is_reserved":false,"is_disabled":false,"rental_uris":{"android":"levelo://app?vid=9525c042-45cb-44c5-b0b0-ed1520f7c7da","ios":"levelo://app?vid=9525c042-45cb-44c5-b0b0-ed1520f7c7da"},"vehicle_type_id":"4","last_reported":1707329317,"current_range_meters":24400,"station_id":"ce4bhah2rcd13ifvqei0","pricing_plan_id":"free"},{"bike_id":"fc276ed7-a65b-4dfd-85ca-e57d999ca381","system_id":"levelo_inurba_marseille","lat":43.298137,"lon":5.380971,"is_reserved":false,"is_disabled":false,"rental_uris":{"android":"levelo://app?vid=fc276ed7-a65b-4dfd-85ca-e57d999ca381","ios":"levelo://app?vid=fc276ed7-a65b-4dfd-85ca-e57d999ca381"},"vehicle_type_id":"4","last_reported":1707329317,"current_range_meters":29600,"station_id":"ce4bgip2rcd13ifvqbb0","pricing_plan_id":"free"},{"bike_id":"f3028c86-347e-446e-add5-6c842c94121b","system_id":"levelo_inurba_marseille","lat":43.304274,"lon":5.388873,"is_reserved":false,"is_disabled":false,"rental_uris":{"android":"levelo://app?vid=f3028c86-347e-446e-add5-6c842c94121b","ios":"levelo://app?vid=f3028c86-347e-446e-add5-6c842c94121b"},"vehicle_type_id":"4","last_reported":1707329317,"current_range_meters":26800,"station_id":"ce4bgk12rcd13ifvqbi0","pricing_plan_id":"free"},{"bike_id":"44b95b92-2f05-4a35-a5df-cb84d7c6365a","system_id":"levelo_inurba_marseille","lat":43.304278,"lon":5.388868,"is_reserved":false,"is_disabled":false,"rental_uris":{"android":"levelo://app?vid=44b95b92-2f05-4a35-a5df-cb84d7c6365a","ios":"levelo://app?vid=44b95b92-2f05-4a35-a5df-cb84d7c6365a"},"vehicle_type_id":"4","last_reported":1707329317,"current_range_meters":23600,"station_id":"ce4bgk12rcd13ifvqbi0","pricing_plan_id":"free"},{"bike_id":"8fa7fa71-4a27-400b-9ccc-0e326b7b9d73","system_id":"levelo_inurba_marseille","lat":43.304274,"lon":5.388873,"is_reserved":false,"is_disabled":false,"rental_uris":{"android":"levelo://app?vid=8fa7fa71-4a27-400b-9ccc-0e326b7b9d73","ios":"levelo://app?vid=8fa7fa71-4a27-400b-9ccc-0e326b7b9d73"},"vehicle_type_id":"4","last_reported":1707329317,"current_range_meters":6400,"station_id":"ce4bgk12rcd13ifvqbi0","pricing_plan_id":"free"},{"bike_id":"cad52d5f-812c-4025-b384-7bb7d3846736","system_id":"levelo_inurba_marseille","lat":43.298037,"lon":5.381066,"is_reserved":false,"is_disabled":false,"rental_uris":{"android":"levelo://app?vid=cad52d5f-812c-4025-b384-7bb7d3846736","ios":"levelo://app?vid=cad52d5f-812c-4025-b384-7bb7d3846736"},"vehicle_type_id":"4","last_reported":1707329317,"current_range_meters":23600,"station_id":"ce4bgip2rcd13ifvqbb0","pricing_plan_id":"free"},{"bike_id":"4aa168e1-10ac-437d-abd2-9ce683e6532e","system_id":"levelo_inurba_marseille","lat":43.304274,"lon":5.388873,"is_reserved":false,"is_disabled":false,"rental_uris":{"android":"levelo://app?vid=4aa168e1-10ac-437d-abd2-9ce683e6532e","ios":"levelo://app?vid=4aa168e1-10ac-437d-abd2-9ce683e6532e"},"vehicle_type_id":"4","last_reported":1707329317,"current_range_meters":5200,"station_id":"ce4bgk12rcd13ifvqbi0","pricing_plan_id":"free"},{"bike_id":"72dd6906-8c97-434f-ae35-9374e7093b4b","system_id":"levelo_inurba_marseille","lat":43.304278,"lon":5.388868,"is_reserved":false,"is_disabled":false,"rental_uris":{"android":"levelo://app?vid=72dd6906-8c97-434f-ae35-9374e7093b4b","ios":"levelo://app?vid=72dd6906-8c97-434f-ae35-9374e7093b4b"},"vehicle_type_id":"4","last_reported":1707329317,"current_range_meters":26400,"station_id":"ce4bgk12rcd13ifvqbi0","pricing_plan_id":"free"},{"bike_id":"9fe502dc-d08d-45a9-b203-136d7680867e","system_id":"levelo_inurba_marseille","lat":43.304278,"lon":5.388868,"is_reserved":false,"is_disabled":false,"rental_uris":{"android":"levelo://app?vid=9fe502dc-d08d-45a9-b203-136d7680867e","ios":"levelo://app?vid=9fe502dc-d08d-45a9-b203-136d7680867e"},"vehicle_type_id":"4","last_reported":1707329317,"current_range_meters":7600,"station_id":"ce4bgk12rcd13ifvqbi0","pricing_plan_id":"free"},{"bike_id":"9eb90190-32f1-4e9d-95cd-c95c767e807b","system_id":"levelo_inurba_marseille","lat":43.304278,"lon":5.388868,"is_reserved":false,"is_disabled":false,"rental_uris":{"android":"levelo://app?vid=9eb90190-32f1-4e9d-95cd-c95c767e807b","ios":"levelo://app?vid=9eb90190-32f1-4e9d-95cd-c95c767e807b"},"vehicle_type_id":"4","last_reported":1707329317,"current_range_meters":20800,"station_id":"ce4bgk12rcd13ifvqbi0","pricing_plan_id":"free"},{"bike_id":"7c68597a-fd82-41ee-a7aa-02bc6d5e8f22","system_id":"levelo_inurba_marseille","lat":43.296277,"lon":5.377108,"is_reserved":false,"is_disabled":false,"rental_uris":{"android":"levelo://app?vid=7c68597a-fd82-41ee-a7aa-02bc6d5e8f22","ios":"levelo://app?vid=7c68597a-fd82-41ee-a7aa-02bc6d5e8f22"},"vehicle_type_id":"4","last_reported":1707329317,"current_range_meters":16800,"station_id":"ce4bgi92rcd13ifvqb90","pricing_plan_id":"free"},{"bike_id":"6b7d9f9e-96d1-4b72-bb04-b293acaa5f6b","system_id":"levelo_inurba_marseille","lat":43.29976,"lon":5.3849,"is_reserved":false,"is_disabled":false,"rental_uris":{"android":"levelo://app?vid=6b7d9f9e-96d1-4b72-bb04-b293acaa5f6b","ios":"levelo://app?vid=6b7d9f9e-96d1-4b72-bb04-b293acaa5f6b"},"vehicle_type_id":"4","last_reported":1707329317,"current_range_meters":20400,"station_id":"ce4bgj92rcd13ifvqbd0","pricing_plan_id":"free"},{"bike_id":"112311ad-d553-4d8f-8815-dd733a8d1d8b","system_id":"levelo_inurba_marseille","lat":43.299717,"lon":5.384845,"is_reserved":false,"is_disabled":false,"rental_uris":{"android":"levelo://app?vid=112311ad-d553-4d8f-8815-dd733a8d1d8b","ios":"levelo://app?vid=112311ad-d553-4d8f-8815-dd733a8d1d8b"},"vehicle_type_id":"4","last_reported":1707329317,"current_range_meters":11600,"station_id":"ce4bgj92rcd13ifvqbd0","pricing_plan_id":"free"},{"bike_id":"9d6a1371-acf4-42cb-a42f-1881e9fdcfbe","system_id":"levelo_inurba_marseille","lat":43.299717,"lon":5.384845,"is_reserved":false,"is_disabled":false,"rental_uris":{"android":"levelo://app?vid=9d6a1371-acf4-42cb-a42f-1881e9fdcfbe","ios":"levelo://app?vid=9d6a1371-acf4-42cb-a42f-1881e9fdcfbe"},"vehicle_type_id":"4","last_reported":1707329317,"current_range_meters":800,"station_id":"ce4bgj92rcd13ifvqbd0","pricing_plan_id":"free"},{"bike_id":"c8bd989a-c6a0-4dd8-8796-3dc556ba6460","system_id":"levelo_inurba_marseille","lat":43.29522,"lon":5.37504,"is_reserved":false,"is_disabled":false,"rental_uris":{"android":"levelo://app?vid=c8bd989a-c6a0-4dd8-8796-3dc556ba6460","ios":"levelo://app?vid=c8bd989a-c6a0-4dd8-8796-3dc556ba6460"},"vehicle_type_id":"4","last_reported":1707329317,"current_range_meters":28000,"station_id":"ce4bgkp2rcd13ifvqbmg","pricing_plan_id":"free"},{"bike_id":"f9cee5f4-33b4-4a96-b583-a1859ee488fa","system_id":"levelo_inurba_marseille","lat":43.299724,"lon":5.384848,"is_reserved":false,"is_disabled":false,"rental_uris":{"android":"levelo://app?vid=f9cee5f4-33b4-4a96-b583-a1859ee488fa","ios":"levelo://app?vid=f9cee5f4-33b4-4a96-b583-a1859ee488fa"},"vehicle_type_id":"4","last_reported":1707329317,"current_range_meters":14800,"station_id":"ce4bgj92rcd13ifvqbd0","pricing_plan_id":"free"},{"bike_id":"49b2bd93-cbe3-4466-a0ae-afe2a8d91b7e","system_id":"levelo_inurba_marseille","lat":43.299724,"lon":5.384848,"is_reserved":false,"is_disabled":false,"rental_uris":{"android":"levelo://app?vid=49b2bd93-cbe3-4466-a0ae-afe2a8d91b7e","ios":"levelo://app?vid=49b2bd93-cbe3-4466-a0ae-afe2a8d91b7e"},"vehicle_type_id":"4","last_reported":1707329317,"current_range_meters":800,"station_id":"ce4bgj92rcd13ifvqbd0","pricing_plan_id":"free"},{"bike_id":"392b6c33-becc-4d55-8df4-00be35c23a2e","system_id":"levelo_inurba_marseille","lat":43.29969,"lon":5.38506,"is_reserved":false,"is_disabled":false,"rental_uris":{"android":"levelo://app?vid=392b6c33-becc-4d55-8df4-00be35c23a2e","ios":"levelo://app?vid=392b6c33-becc-4d55-8df4-00be35c23a2e"},"vehicle_type_id":"4","last_reported":1707329317,"current_range_meters":0,"station_id":"ce4bgj92rcd13ifvqbd0","pricing_plan_id":"free"},{"bike_id":"71bae666-5a85-4348-af29-921df9b56e8e","system_id":"levelo_inurba_marseille","lat":43.299724,"lon":5.384848,"is_reserved":false,"is_disabled":false,"rental_uris":{"android":"levelo://app?vid=71bae666-5a85-4348-af29-921df9b56e8e","ios":"levelo://app?vid=71bae666-5a85-4348-af29-921df9b56e8e"},"vehicle_type_id":"4","last_reported":1707329317,"current_range_meters":0,"station_id":"ce4bgj92rcd13ifvqbd0","pricing_plan_id":"free"},{"bike_id":"6fc9cf37-ecec-4c91-8570-1b2b0a9ff623","system_id":"levelo_inurba_marseille","lat":43.32362,"lon":5.38873,"is_reserved":false,"is_disabled":false,"rental_uris":{"android":"levelo://app?vid=6fc9cf37-ecec-4c91-8570-1b2b0a9ff623","ios":"levelo://app?vid=6fc9cf37-ecec-4c91-8570-1b2b0a9ff623"},"vehicle_type_id":"4","last_reported":1707329317,"current_range_meters":0,"station_id":"ce4bhqp2rcd13ifvqhog","pricing_plan_id":"free"},{"bike_id":"ed5d3f68-f6ae-4628-a68b-31e6c4c8b97c","system_id":"levelo_inurba_marseille","lat":43.32362,"lon":5.38881,"is_reserved":false,"is_disabled":false,"rental_uris":{"android":"levelo://app?vid=ed5d3f68-f6ae-4628-a68b-31e6c4c8b97c","ios":"levelo://app?vid=ed5d3f68-f6ae-4628-a68b-31e6c4c8b97c"},"vehicle_type_id":"4","last_reported":1707329317,"current_range_meters":27600,"station_id":"ce4bhqp2rcd13ifvqhog","pricing_plan_id":"free"},{"bike_id":"27e7d923-81e0-4c18-9a4b-aeb5de43f55c","system_id":"levelo_inurba_marseille","lat":43.32364,"lon":5.38881,"is_reserved":false,"is_disabled":false,"rental_uris":{"android":"levelo://app?vid=27e7d923-81e0-4c18-9a4b-aeb5de43f55c","ios":"levelo://app?vid=27e7d923-81e0-4c18-9a4b-aeb5de43f55c"},"vehicle_type_id":"4","last_reported":1707329317,"current_range_meters":14000,"station_id":"ce4bhqp2rcd13ifvqhog","pricing_plan_id":"free"},{"bike_id":"69e0ab03-3f4e-4375-b305-57e86da379c2","system_id":"levelo_inurba_marseille","lat":43.32364,"lon":5.38883,"is_reserved":false,"is_disabled":false,"rental_uris":{"android":"levelo://app?vid=69e0ab03-3f4e-4375-b305-57e86da379c2","ios":"levelo://app?vid=69e0ab03-3f4e-4375-b305-57e86da379c2"},"vehicle_type_id":"4","last_reported":1707329317,"current_range_meters":24800,"station_id":"ce4bhqp2rcd13ifvqhog","pricing_plan_id":"free"},{"bike_id":"e46e8ff3-6efb-422c-88bb-36c5e9ce66e4","system_id":"levelo_inurba_marseille","lat":43.32369,"lon":5.3888,"is_reserved":false,"is_disabled":false,"rental_uris":{"android":"levelo://app?vid=e46e8ff3-6efb-422c-88bb-36c5e9ce66e4","ios":"levelo://app?vid=e46e8ff3-6efb-422c-88bb-36c5e9ce66e4"},"vehicle_type_id":"4","last_reported":1707329317,"current_range_meters":18000,"station_id":"ce4bhqp2rcd13ifvqhog","pricing_plan_id":"free"},{"bike_id":"a0aa05c1-c367-4ebc-8cf6-da8757c8f007","system_id":"levelo_inurba_marseille","lat":43.323627,"lon":5.388867,"is_reserved":false,"is_disabled":false,"rental_uris":{"android":"levelo://app?vid=a0aa05c1-c367-4ebc-8cf6-da8757c8f007","ios":"levelo://app?vid=a0aa05c1-c367-4ebc-8cf6-da8757c8f007"},"vehicle_type_id":"4","last_reported":1707329317,"current_range_meters":1200,"station_id":"ce4bhqp2rcd13ifvqhog","pricing_plan_id":"free"},{"bike_id":"0ae7e88f-6584-4b1b-a813-2734666a7309","system_id":"levelo_inurba_marseille","lat":43.32366,"lon":5.38884,"is_reserved":false,"is_disabled":false,"rental_uris":{"android":"levelo://app?vid=0ae7e88f-6584-4b1b-a813-2734666a7309","ios":"levelo://app?vid=0ae7e88f-6584-4b1b-a813-2734666a7309"},"vehicle_type_id":"4","last_reported":1707329317,"current_range_meters":18000,"station_id":"ce4bhqp2rcd13ifvqhog","pricing_plan_id":"free"},{"bike_id":"cc6530d2-5676-4593-9ee5-59ecbcd8f6a5","system_id":"levelo_inurba_marseille","lat":43.323683,"lon":5.388821,"is_reserved":false,"is_disabled":false,"rental_uris":{"android":"levelo://app?vid=cc6530d2-5676-4593-9ee5-59ecbcd8f6a5","ios":"levelo://app?vid=cc6530d2-5676-4593-9ee5-59ecbcd8f6a5"},"vehicle_type_id":"4","last_reported":1707329317,"current_range_meters":19200,"station_id":"ce4bhqp2rcd13ifvqhog","pricing_plan_id":"free"},{"bike_id":"606777c4-4d1f-4822-a9c7-ca190e9d7ac9","system_id":"levelo_inurba_marseille","lat":43.32365,"lon":5.38886,"is_reserved":false,"is_disabled":false,"rental_uris":{"android":"levelo://app?vid=606777c4-4d1f-4822-a9c7-ca190e9d7ac9","ios":"levelo://app?vid=606777c4-4d1f-4822-a9c7-ca190e9d7ac9"},"vehicle_type_id":"4","last_reported":1707329317,"current_range_meters":29200,"station_id":"ce4bhqp2rcd13ifvqhog","pricing_plan_id":"free"},{"bike_id":"1518e53d-eb94-4406-bc34-6493c7c75fd6","system_id":"levelo_inurba_marseille","lat":43.32364,"lon":5.38888,"is_reserved":false,"is_disabled":false,"rental_uris":{"android":"levelo://app?vid=1518e53d-eb94-4406-bc34-6493c7c75fd6","ios":"levelo://app?vid=1518e53d-eb94-4406-bc34-6493c7c75fd6"},"vehicle_type_id":"4","last_reported":1707329317,"current_range_meters":24000,"station_id":"ce4bhqp2rcd13ifvqhog","pricing_plan_id":"free"},{"bike_id":"2699b29a-e584-4936-892c-96f311fc0314","system_id":"levelo_inurba_marseille","lat":43.323641,"lon":5.388881,"is_reserved":false,"is_disabled":false,"rental_uris":{"android":"levelo://app?vid=2699b29a-e584-4936-892c-96f311fc0314","ios":"levelo://app?vid=2699b29a-e584-4936-892c-96f311fc0314"},"vehicle_type_id":"4","last_reported":1707329317,"current_range_meters":29600,"station_id":"ce4bhqp2rcd13ifvqhog","pricing_plan_id":"free"},{"bike_id":"bc85f4cd-0ffe-4ec0-9c96-dc31a76087c8","system_id":"levelo_inurba_marseille","lat":43.3237,"lon":5.38886,"is_reserved":false,"is_disabled":false,"rental_uris":{"android":"levelo://app?vid=bc85f4cd-0ffe-4ec0-9c96-dc31a76087c8","ios":"levelo://app?vid=bc85f4cd-0ffe-4ec0-9c96-dc31a76087c8"},"vehicle_type_id":"4","last_reported":1707329317,"current_range_meters":24000,"station_id":"ce4bhqp2rcd13ifvqhog","pricing_plan_id":"free"},{"bike_id":"a08a26fe-546a-4630-aced-98e496243792","system_id":"levelo_inurba_marseille","lat":43.32367,"lon":5.38891,"is_reserved":false,"is_disabled":false,"rental_uris":{"android":"levelo://app?vid=a08a26fe-546a-4630-aced-98e496243792","ios":"levelo://app?vid=a08a26fe-546a-4630-aced-98e496243792"},"vehicle_type_id":"4","last_reported":1707329317,"current_range_meters":22800,"station_id":"ce4bhqp2rcd13ifvqhog","pricing_plan_id":"free"},{"bike_id":"677d41b0-014a-4316-8317-70222515831c","system_id":"levelo_inurba_marseille","lat":43.296014,"lon":5.380876,"is_reserved":false,"is_disabled":false,"rental_uris":{"android":"levelo://app?vid=677d41b0-014a-4316-8317-70222515831c","ios":"levelo://app?vid=677d41b0-014a-4316-8317-70222515831c"},"vehicle_type_id":"4","last_reported":1707329317,"current_range_meters":13600,"station_id":"ce4bgl12rcd13ifvqbo0","pricing_plan_id":"free"},{"bike_id":"1ac577fa-83f2-474c-a869-81e0a3307184","system_id":"levelo_inurba_marseille","lat":43.29599,"lon":5.38103,"is_reserved":false,"is_disabled":false,"rental_uris":{"android":"levelo://app?vid=1ac577fa-83f2-474c-a869-81e0a3307184","ios":"levelo://app?vid=1ac577fa-83f2-474c-a869-81e0a3307184"},"vehicle_type_id":"4","last_reported":1707329317,"current_range_meters":28000,"station_id":"ce4bgl12rcd13ifvqbo0","pricing_plan_id":"free"},{"bike_id":"4cc150d4-ccc5-4ba7-a0b1-a3d796495577","system_id":"levelo_inurba_marseille","lat":43.292749,"lon":5.368402,"is_reserved":false,"is_disabled":false,"rental_uris":{"android":"levelo://app?vid=4cc150d4-ccc5-4ba7-a0b1-a3d796495577","ios":"levelo://app?vid=4cc150d4-ccc5-4ba7-a0b1-a3d796495577"},"vehicle_type_id":"4","last_reported":1707329317,"current_range_meters":9600,"station_id":"ce4bhbp2rcd13ifvqesg","pricing_plan_id":"free"},{"bike_id":"1b828230-0278-4f82-a9a4-f4130404d862","system_id":"levelo_inurba_marseille","lat":43.293259,"lon":5.371586,"is_reserved":false,"is_disabled":false,"rental_uris":{"android":"levelo://app?vid=1b828230-0278-4f82-a9a4-f4130404d862","ios":"levelo://app?vid=1b828230-0278-4f82-a9a4-f4130404d862"},"vehicle_type_id":"4","last_reported":1707329317,"current_range_meters":20000,"station_id":"ce4bgh92rcd13ifvqb40","pricing_plan_id":"free"},{"bike_id":"cee3a26f-48d4-4d3d-aa04-005b7b55b158","system_id":"levelo_inurba_marseille","lat":43.292749,"lon":5.368402,"is_reserved":false,"is_disabled":false,"rental_uris":{"android":"levelo://app?vid=cee3a26f-48d4-4d3d-aa04-005b7b55b158","ios":"levelo://app?vid=cee3a26f-48d4-4d3d-aa04-005b7b55b158"},"vehicle_type_id":"4","last_reported":1707329317,"current_range_meters":22000,"station_id":"ce4bhbp2rcd13ifvqesg","pricing_plan_id":"free"},{"bike_id":"dbf0cff3-d7bd-4faa-8edf-88a7dfe046a4","system_id":"levelo_inurba_marseille","lat":43.293009,"lon":5.374584,"is_reserved":false,"is_disabled":false,"rental_uris":{"android":"levelo://app?vid=dbf0cff3-d7bd-4faa-8edf-88a7dfe046a4","ios":"levelo://app?vid=dbf0cff3-d7bd-4faa-8edf-88a7dfe046a4"},"vehicle_type_id":"4","last_reported":1707329317,"current_range_meters":24000,"station_id":"ce4bgi12rcd13ifvqb70","pricing_plan_id":"free"},{"bike_id":"22ad4f5e-32f8-463f-b94e-7d95763b1a36","system_id":"levelo_inurba_marseille","lat":43.292749,"lon":5.368402,"is_reserved":false,"is_disabled":false,"rental_uris":{"android":"levelo://app?vid=22ad4f5e-32f8-463f-b94e-7d95763b1a36","ios":"levelo://app?vid=22ad4f5e-32f8-463f-b94e-7d95763b1a36"},"vehicle_type_id":"4","last_reported":1707329317,"current_range_meters":19600,"station_id":"ce4bhbp2rcd13ifvqesg","pricing_plan_id":"free"},{"bike_id":"c44e2b76-af8c-4379-886c-7cb07acd7e42","system_id":"levelo_inurba_marseille","lat":43.292749,"lon":5.368402,"is_reserved":false,"is_disabled":false,"rental_uris":{"android":"levelo://app?vid=c44e2b76-af8c-4379-886c-7cb07acd7e42","ios":"levelo://app?vid=c44e2b76-af8c-4379-886c-7cb07acd7e42"},"vehicle_type_id":"4","last_reported":1707329317,"current_range_meters":27200,"station_id":"ce4bhbp2rcd13ifvqesg","pricing_plan_id":"free"},{"bike_id":"da4c3408-7f65-4173-84ca-4f5681c8fcaf","system_id":"levelo_inurba_marseille","lat":43.300287,"lon":5.388969,"is_reserved":false,"is_disabled":false,"rental_uris":{"android":"levelo://app?vid=da4c3408-7f65-4173-84ca-4f5681c8fcaf","ios":"levelo://app?vid=da4c3408-7f65-4173-84ca-4f5681c8fcaf"},"vehicle_type_id":"4","last_reported":1707329317,"current_range_meters":16800,"station_id":"","pricing_plan_id":"free"},{"bike_id":"58ce6322-a791-48f0-8bcc-95a1314180fc","system_id":"levelo_inurba_marseille","lat":43.29543,"lon":5.38168,"is_reserved":false,"is_disabled":false,"rental_uris":{"android":"levelo://app?vid=58ce6322-a791-48f0-8bcc-95a1314180fc","ios":"levelo://app?vid=58ce6322-a791-48f0-8bcc-95a1314180fc"},"vehicle_type_id":"4","last_reported":1707329317,"current_range_meters":2800,"station_id":"","pricing_plan_id":"free"},{"bike_id":"ef601993-b1ef-4346-abc9-ff12b730206c","system_id":"levelo_inurba_marseille","lat":43.306002,"lon":5.393487,"is_reserved":false,"is_disabled":false,"rental_uris":{"android":"levelo://app?vid=ef601993-b1ef-4346-abc9-ff12b730206c","ios":"levelo://app?vid=ef601993-b1ef-4346-abc9-ff12b730206c"},"vehicle_type_id":"4","last_reported":1707329317,"current_range_meters":800,"station_id":"ce4bh0p2rcd13ifvqd80","pricing_plan_id":"free"},{"bike_id":"1bc245f6-99f8-4b4a-bf93-921c9cab4a98","system_id":"levelo_inurba_marseille","lat":43.305994,"lon":5.393687,"is_reserved":false,"is_disabled":false,"rental_uris":{"android":"levelo://app?vid=1bc245f6-99f8-4b4a-bf93-921c9cab4a98","ios":"levelo://app?vid=1bc245f6-99f8-4b4a-bf93-921c9cab4a98"},"vehicle_type_id":"4","last_reported":1707329317,"current_range_meters":12800,"station_id":"ce4bh0p2rcd13ifvqd80","pricing_plan_id":"free"},{"bike_id":"f9c439f6-74a8-46b0-8528-4c641873d925","system_id":"levelo_inurba_marseille","lat":43.305994,"lon":5.393687,"is_reserved":false,"is_disabled":false,"rental_uris":{"android":"levelo://app?vid=f9c439f6-74a8-46b0-8528-4c641873d925","ios":"levelo://app?vid=f9c439f6-74a8-46b0-8528-4c641873d925"},"vehicle_type_id":"4","last_reported":1707329317,"current_range_meters":14000,"station_id":"ce4bh0p2rcd13ifvqd80","pricing_plan_id":"free"},{"bike_id":"a0ed8fee-2cd7-4d0c-a19f-6d3938a43e45","system_id":"levelo_inurba_marseille","lat":43.293009,"lon":5.374584,"is_reserved":false,"is_disabled":false,"rental_uris":{"android":"levelo://app?vid=a0ed8fee-2cd7-4d0c-a19f-6d3938a43e45","ios":"levelo://app?vid=a0ed8fee-2cd7-4d0c-a19f-6d3938a43e45"},"vehicle_type_id":"4","last_reported":1707329317,"current_range_meters":5600,"station_id":"ce4bgi12rcd13ifvqb70","pricing_plan_id":"free"},{"bike_id":"f9ab52eb-9eb9-4bc4-8b4e-b3ea1d12a23b","system_id":"levelo_inurba_marseille","lat":43.293009,"lon":5.374584,"is_reserved":false,"is_disabled":false,"rental_uris":{"android":"levelo://app?vid=f9ab52eb-9eb9-4bc4-8b4e-b3ea1d12a23b","ios":"levelo://app?vid=f9ab52eb-9eb9-4bc4-8b4e-b3ea1d12a23b"},"vehicle_type_id":"4","last_reported":1707329317,"current_range_meters":2000,"station_id":"ce4bgi12rcd13ifvqb70","pricing_plan_id":"free"},{"bike_id":"e78db64e-4614-425d-b6bd-44b8a9ad86bf","system_id":"levelo_inurba_marseille","lat":43.305994,"lon":5.393687,"is_reserved":false,"is_disabled":false,"rental_uris":{"android":"levelo://app?vid=e78db64e-4614-425d-b6bd-44b8a9ad86bf","ios":"levelo://app?vid=e78db64e-4614-425d-b6bd-44b8a9ad86bf"},"vehicle_type_id":"4","last_reported":1707329317,"current_range_meters":25200,"station_id":"ce4bh0p2rcd13ifvqd80","pricing_plan_id":"free"},{"bike_id":"9fc69c96-bc0f-4f03-850c-528bd5ae0a7b","system_id":"levelo_inurba_marseille","lat":43.303002,"lon":5.392142,"is_reserved":false,"is_disabled":false,"rental_uris":{"android":"levelo://app?vid=9fc69c96-bc0f-4f03-850c-528bd5ae0a7b","ios":"levelo://app?vid=9fc69c96-bc0f-4f03-850c-528bd5ae0a7b"},"vehicle_type_id":"4","last_reported":1707329317,"current_range_meters":12000,"station_id":"ce4bgkh2rcd13ifvqbk0","pricing_plan_id":"free"},{"bike_id":"863bd9a8-d31f-4f22-93f6-8cdc0ff729c0","system_id":"levelo_inurba_marseille","lat":43.303002,"lon":5.392142,"is_reserved":false,"is_disabled":false,"rental_uris":{"android":"levelo://app?vid=863bd9a8-d31f-4f22-93f6-8cdc0ff729c0","ios":"levelo://app?vid=863bd9a8-d31f-4f22-93f6-8cdc0ff729c0"},"vehicle_type_id":"4","last_reported":1707329317,"current_range_meters":10400,"station_id":"ce4bgkh2rcd13ifvqbk0","pricing_plan_id":"free"},{"bike_id":"d14d3433-20cb-48af-bc26-245577ddecdd","system_id":"levelo_inurba_marseille","lat":43.293009,"lon":5.374584,"is_reserved":false,"is_disabled":false,"rental_uris":{"android":"levelo://app?vid=d14d3433-20cb-48af-bc26-245577ddecdd","ios":"levelo://app?vid=d14d3433-20cb-48af-bc26-245577ddecdd"},"vehicle_type_id":"4","last_reported":1707329317,"current_range_meters":6000,"station_id":"ce4bgi12rcd13ifvqb70","pricing_plan_id":"free"},{"bike_id":"068eee38-7d1d-4631-b477-44e3d13a40f1","system_id":"levelo_inurba_marseille","lat":43.286591,"lon":5.363346,"is_reserved":false,"is_disabled":false,"rental_uris":{"android":"levelo://app?vid=068eee38-7d1d-4631-b477-44e3d13a40f1","ios":"levelo://app?vid=068eee38-7d1d-4631-b477-44e3d13a40f1"},"vehicle_type_id":"4","last_reported":1707329317,"current_range_meters":15600,"station_id":"ce4bhah2rcd13ifvqej0","pricing_plan_id":"free"},{"bike_id":"6ff6cfce-1239-4dbe-860d-3c974dd11c01","system_id":"levelo_inurba_marseille","lat":43.303002,"lon":5.392142,"is_reserved":false,"is_disabled":false,"rental_uris":{"android":"levelo://app?vid=6ff6cfce-1239-4dbe-860d-3c974dd11c01","ios":"levelo://app?vid=6ff6cfce-1239-4dbe-860d-3c974dd11c01"},"vehicle_type_id":"4","last_reported":1707329317,"current_range_meters":21600,"station_id":"ce4bgkh2rcd13ifvqbk0","pricing_plan_id":"free"},{"bike_id":"2681a935-4c5f-4d95-8e6e-5576ee914582","system_id":"levelo_inurba_marseille","lat":43.2936,"lon":5.37835,"is_reserved":false,"is_disabled":false,"rental_uris":{"android":"levelo://app?vid=2681a935-4c5f-4d95-8e6e-5576ee914582","ios":"levelo://app?vid=2681a935-4c5f-4d95-8e6e-5576ee914582"},"vehicle_type_id":"4","last_reported":1707329317,"current_range_meters":24000,"station_id":"ce4bgjh2rcd13ifvqbf0","pricing_plan_id":"free"},{"bike_id":"582a6719-69a3-4713-a14e-ba2b8e9f8845","system_id":"levelo_inurba_marseille","lat":43.2932,"lon":5.37698,"is_reserved":false,"is_disabled":false,"rental_uris":{"android":"levelo://app?vid=582a6719-69a3-4713-a14e-ba2b8e9f8845","ios":"levelo://app?vid=582a6719-69a3-4713-a14e-ba2b8e9f8845"},"vehicle_type_id":"4","last_reported":1707329317,"current_range_meters":0,"station_id":"","pricing_plan_id":"free"},{"bike_id":"f702ea93-e487-42d4-a134-debfa2cfd9cf","system_id":"levelo_inurba_marseille","lat":43.300852,"lon":5.390859,"is_reserved":false,"is_disabled":false,"rental_uris":{"android":"levelo://app?vid=f702ea93-e487-42d4-a134-debfa2cfd9cf","ios":"levelo://app?vid=f702ea93-e487-42d4-a134-debfa2cfd9cf"},"vehicle_type_id":"4","last_reported":1707329317,"current_range_meters":17600,"station_id":"ce4bh192rcd13ifvqdb0","pricing_plan_id":"free"},{"bike_id":"e92eb114-adcd-41bb-9dd2-aec32e9d2055","system_id":"levelo_inurba_marseille","lat":43.30085,"lon":5.390856,"is_reserved":false,"is_disabled":false,"rental_uris":{"android":"levelo://app?vid=e92eb114-adcd-41bb-9dd2-aec32e9d2055","ios":"levelo://app?vid=e92eb114-adcd-41bb-9dd2-aec32e9d2055"},"vehicle_type_id":"4","last_reported":1707329317,"current_range_meters":9600,"station_id":"ce4bh192rcd13ifvqdb0","pricing_plan_id":"free"},{"bike_id":"12835e54-73ec-41fd-b772-20fac025e404","system_id":"levelo_inurba_marseille","lat":43.292311,"lon":5.360731,"is_reserved":false,"is_disabled":false,"rental_uris":{"android":"levelo://app?vid=12835e54-73ec-41fd-b772-20fac025e404","ios":"levelo://app?vid=12835e54-73ec-41fd-b772-20fac025e404"},"vehicle_type_id":"4","last_reported":1707329317,"current_range_meters":13600,"station_id":"ce4bhbh2rcd13ifvqeqg","pricing_plan_id":"free"},{"bike_id":"7af9cff3-fa80-4d42-9745-7a1b59b35e7f","system_id":"levelo_inurba_marseille","lat":43.291671,"lon":5.371575,"is_reserved":false,"is_disabled":false,"rental_uris":{"android":"levelo://app?vid=7af9cff3-fa80-4d42-9745-7a1b59b35e7f","ios":"levelo://app?vid=7af9cff3-fa80-4d42-9745-7a1b59b35e7f"},"vehicle_type_id":"4","last_reported":1707329317,"current_range_meters":0,"station_id":"ce4bha92rcd13ifvqeh0","pricing_plan_id":"free"},{"bike_id":"2f6d5904-e6c7-4ba2-9490-9b235f9d40a0","system_id":"levelo_inurba_marseille","lat":43.293009,"lon":5.374584,"is_reserved":false,"is_disabled":false,"rental_uris":{"android":"levelo://app?vid=2f6d5904-e6c7-4ba2-9490-9b235f9d40a0","ios":"levelo://app?vid=2f6d5904-e6c7-4ba2-9490-9b235f9d40a0"},"vehicle_type_id":"4","last_reported":1707329317,"current_range_meters":16400,"station_id":"ce4bgi12rcd13ifvqb70","pricing_plan_id":"free"},{"bike_id":"31b36272-36f0-48a0-9561-37db8fa1b989","system_id":"levelo_inurba_marseille","lat":43.298764,"lon":5.388973,"is_reserved":false,"is_disabled":false,"rental_uris":{"android":"levelo://app?vid=31b36272-36f0-48a0-9561-37db8fa1b989","ios":"levelo://app?vid=31b36272-36f0-48a0-9561-37db8fa1b989"},"vehicle_type_id":"4","last_reported":1707329317,"current_range_meters":6400,"station_id":"ce4bh392rcd13ifvqdl0","pricing_plan_id":"free"},{"bike_id":"803765cc-bf02-4cab-b7bc-a61e998d532d","system_id":"levelo_inurba_marseille","lat":43.299707,"lon":5.384859,"is_reserved":false,"is_disabled":false,"rental_uris":{"android":"levelo://app?vid=803765cc-bf02-4cab-b7bc-a61e998d532d","ios":"levelo://app?vid=803765cc-bf02-4cab-b7bc-a61e998d532d"},"vehicle_type_id":"4","last_reported":1707329317,"current_range_meters":13200,"station_id":"ce4bgj92rcd13ifvqbd0","pricing_plan_id":"free"},{"bike_id":"9d18b75b-910a-4862-89fe-82b3dde26bd1","system_id":"levelo_inurba_marseille","lat":43.291671,"lon":5.371575,"is_reserved":false,"is_disabled":false,"rental_uris":{"android":"levelo://app?vid=9d18b75b-910a-4862-89fe-82b3dde26bd1","ios":"levelo://app?vid=9d18b75b-910a-4862-89fe-82b3dde26bd1"},"vehicle_type_id":"4","last_reported":1707329317,"current_range_meters":1600,"station_id":"ce4bha92rcd13ifvqeh0","pricing_plan_id":"free"},{"bike_id":"b4f76d6c-3b52-487f-8d8a-5b4916424bb0","system_id":"levelo_inurba_marseille","lat":43.298764,"lon":5.388973,"is_reserved":false,"is_disabled":false,"rental_uris":{"android":"levelo://app?vid=b4f76d6c-3b52-487f-8d8a-5b4916424bb0","ios":"levelo://app?vid=b4f76d6c-3b52-487f-8d8a-5b4916424bb0"},"vehicle_type_id":"4","last_reported":1707329317,"current_range_meters":12000,"station_id":"ce4bh392rcd13ifvqdl0","pricing_plan_id":"free"},{"bike_id":"ec80abe1-c859-41f8-9219-332c4916f397","system_id":"levelo_inurba_marseille","lat":43.291671,"lon":5.371575,"is_reserved":false,"is_disabled":false,"rental_uris":{"android":"levelo://app?vid=ec80abe1-c859-41f8-9219-332c4916f397","ios":"levelo://app?vid=ec80abe1-c859-41f8-9219-332c4916f397"},"vehicle_type_id":"4","last_reported":1707329317,"current_range_meters":14000,"station_id":"ce4bha92rcd13ifvqeh0","pricing_plan_id":"free"},{"bike_id":"0749fd39-f53f-418a-a5e9-afd0fe970664","system_id":"levelo_inurba_marseille","lat":43.291675,"lon":5.371583,"is_reserved":false,"is_disabled":false,"rental_uris":{"android":"levelo://app?vid=0749fd39-f53f-418a-a5e9-afd0fe970664","ios":"levelo://app?vid=0749fd39-f53f-418a-a5e9-afd0fe970664"},"vehicle_type_id":"4","last_reported":1707329317,"current_range_meters":30800,"station_id":"ce4bha92rcd13ifvqeh0","pricing_plan_id":"free"},{"bike_id":"1e70f6d9-101e-428e-814b-367280ddcf42","system_id":"levelo_inurba_marseille","lat":43.298764,"lon":5.388973,"is_reserved":false,"is_disabled":false,"rental_uris":{"android":"levelo://app?vid=1e70f6d9-101e-428e-814b-367280ddcf42","ios":"levelo://app?vid=1e70f6d9-101e-428e-814b-367280ddcf42"},"vehicle_type_id":"4","last_reported":1707329317,"current_range_meters":31200,"station_id":"ce4bh392rcd13ifvqdl0","pricing_plan_id":"free"},{"bike_id":"2f051812-991f-4373-b3a0-e83f0a9007a8","system_id":"levelo_inurba_marseille","lat":43.291671,"lon":5.371575,"is_reserved":false,"is_disabled":false,"rental_uris":{"android":"levelo://app?vid=2f051812-991f-4373-b3a0-e83f0a9007a8","ios":"levelo://app?vid=2f051812-991f-4373-b3a0-e83f0a9007a8"},"vehicle_type_id":"4","last_reported":1707329317,"current_range_meters":23200,"station_id":"ce4bha92rcd13ifvqeh0","pricing_plan_id":"free"},{"bike_id":"58b5493f-9192-41f3-9ab9-b0144419b07e","system_id":"levelo_inurba_marseille","lat":43.313291,"lon":5.396838,"is_reserved":false,"is_disabled":false,"rental_uris":{"android":"levelo://app?vid=58b5493f-9192-41f3-9ab9-b0144419b07e","ios":"levelo://app?vid=58b5493f-9192-41f3-9ab9-b0144419b07e"},"vehicle_type_id":"4","last_reported":1707329317,"current_range_meters":14800,"station_id":"ce4bgvp2rcd13ifvqcu0","pricing_plan_id":"free"},{"bike_id":"c522e384-33f4-4712-a52c-9ba65fe63c49","system_id":"levelo_inurba_marseille","lat":43.309038,"lon":5.396546,"is_reserved":false,"is_disabled":false,"rental_uris":{"android":"levelo://app?vid=c522e384-33f4-4712-a52c-9ba65fe63c49","ios":"levelo://app?vid=c522e384-33f4-4712-a52c-9ba65fe63c49"},"vehicle_type_id":"4","last_reported":1707329317,"current_range_meters":11200,"station_id":"ce4bh012rcd13ifvqcv0","pricing_plan_id":"free"},{"bike_id":"33ccadc5-2127-4bb8-ac21-2756588914d1","system_id":"levelo_inurba_marseille","lat":43.309047,"lon":5.396551,"is_reserved":false,"is_disabled":false,"rental_uris":{"android":"levelo://app?vid=33ccadc5-2127-4bb8-ac21-2756588914d1","ios":"levelo://app?vid=33ccadc5-2127-4bb8-ac21-2756588914d1"},"vehicle_type_id":"4","last_reported":1707329317,"current_range_meters":2000,"station_id":"ce4bh012rcd13ifvqcv0","pricing_plan_id":"free"},{"bike_id":"604ff3af-7c8b-47ae-9eae-51d46285feb0","system_id":"levelo_inurba_marseille","lat":43.313291,"lon":5.396838,"is_reserved":false,"is_disabled":false,"rental_uris":{"android":"levelo://app?vid=604ff3af-7c8b-47ae-9eae-51d46285feb0","ios":"levelo://app?vid=604ff3af-7c8b-47ae-9eae-51d46285feb0"},"vehicle_type_id":"4","last_reported":1707329317,"current_range_meters":9200,"station_id":"ce4bgvp2rcd13ifvqcu0","pricing_plan_id":"free"},{"bike_id":"26f67b13-4e44-46c6-8586-90d041af89b4","system_id":"levelo_inurba_marseille","lat":43.29529,"lon":5.385581,"is_reserved":false,"is_disabled":false,"rental_uris":{"android":"levelo://app?vid=26f67b13-4e44-46c6-8586-90d041af89b4","ios":"levelo://app?vid=26f67b13-4e44-46c6-8586-90d041af89b4"},"vehicle_type_id":"4","last_reported":1707329317,"current_range_meters":6800,"station_id":"ce4bgih2rcd13ifvqba0","pricing_plan_id":"free"},{"bike_id":"f28e3eda-4a7b-43a0-971d-48fa2402fcef","system_id":"levelo_inurba_marseille","lat":43.29529,"lon":5.385581,"is_reserved":false,"is_disabled":false,"rental_uris":{"android":"levelo://app?vid=f28e3eda-4a7b-43a0-971d-48fa2402fcef","ios":"levelo://app?vid=f28e3eda-4a7b-43a0-971d-48fa2402fcef"},"vehicle_type_id":"4","last_reported":1707329317,"current_range_meters":18800,"station_id":"ce4bgih2rcd13ifvqba0","pricing_plan_id":"free"},{"bike_id":"42af090d-e5f4-4463-bfcb-6647bbe86a66","system_id":"levelo_inurba_marseille","lat":43.29531,"lon":5.38541,"is_reserved":false,"is_disabled":false,"rental_uris":{"android":"levelo://app?vid=42af090d-e5f4-4463-bfcb-6647bbe86a66","ios":"levelo://app?vid=42af090d-e5f4-4463-bfcb-6647bbe86a66"},"vehicle_type_id":"4","last_reported":1707329317,"current_range_meters":16000,"station_id":"ce4bgih2rcd13ifvqba0","pricing_plan_id":"free"},{"bike_id":"38477252-7090-495d-afd5-6be80973c86c","system_id":"levelo_inurba_marseille","lat":43.29529,"lon":5.385581,"is_reserved":false,"is_disabled":false,"rental_uris":{"android":"levelo://app?vid=38477252-7090-495d-afd5-6be80973c86c","ios":"levelo://app?vid=38477252-7090-495d-afd5-6be80973c86c"},"vehicle_type_id":"4","last_reported":1707329317,"current_range_meters":20800,"station_id":"ce4bgih2rcd13ifvqba0","pricing_plan_id":"free"},{"bike_id":"168d660a-890b-4bd6-9ae7-19daf30c2b91","system_id":"levelo_inurba_marseille","lat":43.29529,"lon":5.385581,"is_reserved":false,"is_disabled":false,"rental_uris":{"android":"levelo://app?vid=168d660a-890b-4bd6-9ae7-19daf30c2b91","ios":"levelo://app?vid=168d660a-890b-4bd6-9ae7-19daf30c2b91"},"vehicle_type_id":"4","last_reported":1707329317,"current_range_meters":16800,"station_id":"ce4bgih2rcd13ifvqba0","pricing_plan_id":"free"},{"bike_id":"e0e7c233-5bfb-4d27-9630-6457d34a8cd7","system_id":"levelo_inurba_marseille","lat":43.295277,"lon":5.385437,"is_reserved":false,"is_disabled":false,"rental_uris":{"android":"levelo://app?vid=e0e7c233-5bfb-4d27-9630-6457d34a8cd7","ios":"levelo://app?vid=e0e7c233-5bfb-4d27-9630-6457d34a8cd7"},"vehicle_type_id":"4","last_reported":1707329317,"current_range_meters":17600,"station_id":"ce4bgih2rcd13ifvqba0","pricing_plan_id":"free"},{"bike_id":"4c89874a-e42a-4ea0-8b7f-aecf29216d06","system_id":"levelo_inurba_marseille","lat":43.29529,"lon":5.385581,"is_reserved":false,"is_disabled":false,"rental_uris":{"android":"levelo://app?vid=4c89874a-e42a-4ea0-8b7f-aecf29216d06","ios":"levelo://app?vid=4c89874a-e42a-4ea0-8b7f-aecf29216d06"},"vehicle_type_id":"4","last_reported":1707329317,"current_range_meters":16800,"station_id":"ce4bgih2rcd13ifvqba0","pricing_plan_id":"free"},{"bike_id":"daa3c467-c8ec-4b3c-8e08-8c18a05b38e8","system_id":"levelo_inurba_marseille","lat":43.290779,"lon":5.371482,"is_reserved":false,"is_disabled":false,"rental_uris":{"android":"levelo://app?vid=daa3c467-c8ec-4b3c-8e08-8c18a05b38e8","ios":"levelo://app?vid=daa3c467-c8ec-4b3c-8e08-8c18a05b38e8"},"vehicle_type_id":"4","last_reported":1707329317,"current_range_meters":14400,"station_id":"ce4bh5p2rcd13ifvqe4g","pricing_plan_id":"free"},{"bike_id":"85128a8b-6465-449f-ae36-aa73ce01c014","system_id":"levelo_inurba_marseille","lat":43.29072,"lon":5.37178,"is_reserved":false,"is_disabled":false,"rental_uris":{"android":"levelo://app?vid=85128a8b-6465-449f-ae36-aa73ce01c014","ios":"levelo://app?vid=85128a8b-6465-449f-ae36-aa73ce01c014"},"vehicle_type_id":"4","last_reported":1707329317,"current_range_meters":6800,"station_id":"ce4bh5p2rcd13ifvqe4g","pricing_plan_id":"free"},{"bike_id":"8ec5bdd7-00f7-4116-b8e1-a22ad9b50462","system_id":"levelo_inurba_marseille","lat":43.298869,"lon":5.390947,"is_reserved":false,"is_disabled":false,"rental_uris":{"android":"levelo://app?vid=8ec5bdd7-00f7-4116-b8e1-a22ad9b50462","ios":"levelo://app?vid=8ec5bdd7-00f7-4116-b8e1-a22ad9b50462"},"vehicle_type_id":"4","last_reported":1707329317,"current_range_meters":4000,"station_id":"","pricing_plan_id":"free"},{"bike_id":"dbe48590-c220-4dfd-86d6-8e0a077ba63e","system_id":"levelo_inurba_marseille","lat":43.290779,"lon":5.371482,"is_reserved":false,"is_disabled":false,"rental_uris":{"android":"levelo://app?vid=dbe48590-c220-4dfd-86d6-8e0a077ba63e","ios":"levelo://app?vid=dbe48590-c220-4dfd-86d6-8e0a077ba63e"},"vehicle_type_id":"4","last_reported":1707329317,"current_range_meters":400,"station_id":"ce4bh5p2rcd13ifvqe4g","pricing_plan_id":"free"},{"bike_id":"4d250424-bb53-41ea-b776-972c4ef2cc64","system_id":"levelo_inurba_marseille","lat":43.2942,"lon":5.38616,"is_reserved":false,"is_disabled":false,"rental_uris":{"android":"levelo://app?vid=4d250424-bb53-41ea-b776-972c4ef2cc64","ios":"levelo://app?vid=4d250424-bb53-41ea-b776-972c4ef2cc64"},"vehicle_type_id":"4","last_reported":1707329317,"current_range_meters":2800,"station_id":"ce4bh2h2rcd13ifvqdh0","pricing_plan_id":"free"},{"bike_id":"7c60b36f-23e1-4328-a94a-9cb7f552a9a7","system_id":"levelo_inurba_marseille","lat":43.294178,"lon":5.38616,"is_reserved":false,"is_disabled":false,"rental_uris":{"android":"levelo://app?vid=7c60b36f-23e1-4328-a94a-9cb7f552a9a7","ios":"levelo://app?vid=7c60b36f-23e1-4328-a94a-9cb7f552a9a7"},"vehicle_type_id":"4","last_reported":1707329317,"current_range_meters":14800,"station_id":"ce4bh2h2rcd13ifvqdh0","pricing_plan_id":"free"},{"bike_id":"ac7815d2-c261-400c-b6e6-19580140167b","system_id":"levelo_inurba_marseille","lat":43.29421,"lon":5.38625,"is_reserved":false,"is_disabled":false,"rental_uris":{"android":"levelo://app?vid=ac7815d2-c261-400c-b6e6-19580140167b","ios":"levelo://app?vid=ac7815d2-c261-400c-b6e6-19580140167b"},"vehicle_type_id":"4","last_reported":1707329317,"current_range_meters":3200,"station_id":"ce4bh2h2rcd13ifvqdh0","pricing_plan_id":"free"},{"bike_id":"85c155af-7c01-4ebd-892d-e39d3bb33b04","system_id":"levelo_inurba_marseille","lat":43.29419,"lon":5.38623,"is_reserved":false,"is_disabled":false,"rental_uris":{"android":"levelo://app?vid=85c155af-7c01-4ebd-892d-e39d3bb33b04","ios":"levelo://app?vid=85c155af-7c01-4ebd-892d-e39d3bb33b04"},"vehicle_type_id":"4","last_reported":1707329317,"current_range_meters":5600,"station_id":"ce4bh2h2rcd13ifvqdh0","pricing_plan_id":"free"},{"bike_id":"f0e03611-7246-4f6e-abd0-89cb91fb5b7c","system_id":"levelo_inurba_marseille","lat":43.29421,"lon":5.38627,"is_reserved":false,"is_disabled":false,"rental_uris":{"android":"levelo://app?vid=f0e03611-7246-4f6e-abd0-89cb91fb5b7c","ios":"levelo://app?vid=f0e03611-7246-4f6e-abd0-89cb91fb5b7c"},"vehicle_type_id":"4","last_reported":1707329317,"current_range_meters":18000,"station_id":"ce4bh2h2rcd13ifvqdh0","pricing_plan_id":"free"},{"bike_id":"80f81776-752c-4d9b-ae92-8bd4351819b8","system_id":"levelo_inurba_marseille","lat":43.294153,"lon":5.386305,"is_reserved":false,"is_disabled":false,"rental_uris":{"android":"levelo://app?vid=80f81776-752c-4d9b-ae92-8bd4351819b8","ios":"levelo://app?vid=80f81776-752c-4d9b-ae92-8bd4351819b8"},"vehicle_type_id":"4","last_reported":1707329317,"current_range_meters":6000,"station_id":"ce4bh2h2rcd13ifvqdh0","pricing_plan_id":"free"},{"bike_id":"24055144-72b0-4238-b13d-6ef058a74371","system_id":"levelo_inurba_marseille","lat":43.29419,"lon":5.38628,"is_reserved":false,"is_disabled":false,"rental_uris":{"android":"levelo://app?vid=24055144-72b0-4238-b13d-6ef058a74371","ios":"levelo://app?vid=24055144-72b0-4238-b13d-6ef058a74371"},"vehicle_type_id":"4","last_reported":1707329317,"current_range_meters":0,"station_id":"ce4bh2h2rcd13ifvqdh0","pricing_plan_id":"free"},{"bike_id":"9d9bde4a-aa7d-4ecd-a75c-b2424ff5d0d2","system_id":"levelo_inurba_marseille","lat":43.29419,"lon":5.3863,"is_reserved":false,"is_disabled":false,"rental_uris":{"android":"levelo://app?vid=9d9bde4a-aa7d-4ecd-a75c-b2424ff5d0d2","ios":"levelo://app?vid=9d9bde4a-aa7d-4ecd-a75c-b2424ff5d0d2"},"vehicle_type_id":"4","last_reported":1707329317,"current_range_meters":800,"station_id":"ce4bh2h2rcd13ifvqdh0","pricing_plan_id":"free"},{"bike_id":"f654023e-d6a7-463f-9c43-a6d061b5c107","system_id":"levelo_inurba_marseille","lat":43.289184,"lon":5.366408,"is_reserved":false,"is_disabled":false,"rental_uris":{"android":"levelo://app?vid=f654023e-d6a7-463f-9c43-a6d061b5c107","ios":"levelo://app?vid=f654023e-d6a7-463f-9c43-a6d061b5c107"},"vehicle_type_id":"4","last_reported":1707329317,"current_range_meters":2400,"station_id":"ce4bhap2rcd13ifvqek0","pricing_plan_id":"free"},{"bike_id":"326f4fa5-5595-475a-a572-8df175a408b7","system_id":"levelo_inurba_marseille","lat":43.29416,"lon":5.38627,"is_reserved":false,"is_disabled":false,"rental_uris":{"android":"levelo://app?vid=326f4fa5-5595-475a-a572-8df175a408b7","ios":"levelo://app?vid=326f4fa5-5595-475a-a572-8df175a408b7"},"vehicle_type_id":"4","last_reported":1707329317,"current_range_meters":10800,"station_id":"ce4bh2h2rcd13ifvqdh0","pricing_plan_id":"free"},{"bike_id":"6c092874-28bd-4f09-8cfe-b56c35c4c698","system_id":"levelo_inurba_marseille","lat":43.29418,"lon":5.38631,"is_reserved":false,"is_disabled":false,"rental_uris":{"android":"levelo://app?vid=6c092874-28bd-4f09-8cfe-b56c35c4c698","ios":"levelo://app?vid=6c092874-28bd-4f09-8cfe-b56c35c4c698"},"vehicle_type_id":"4","last_reported":1707329317,"current_range_meters":16800,"station_id":"ce4bh2h2rcd13ifvqdh0","pricing_plan_id":"free"},{"bike_id":"906a3697-537c-41c2-8e73-ef4fd82a2048","system_id":"levelo_inurba_marseille","lat":43.289468,"lon":5.363719,"is_reserved":false,"is_disabled":false,"rental_uris":{"android":"levelo://app?vid=906a3697-537c-41c2-8e73-ef4fd82a2048","ios":"levelo://app?vid=906a3697-537c-41c2-8e73-ef4fd82a2048"},"vehicle_type_id":"4","last_reported":1707329317,"current_range_meters":15200,"station_id":"ce4bhc92rcd13ifvqetg","pricing_plan_id":"free"},{"bike_id":"21fbaf72-48c5-496a-8bf2-96464bd03cfe","system_id":"levelo_inurba_marseille","lat":43.29416,"lon":5.38628,"is_reserved":false,"is_disabled":false,"rental_uris":{"android":"levelo://app?vid=21fbaf72-48c5-496a-8bf2-96464bd03cfe","ios":"levelo://app?vid=21fbaf72-48c5-496a-8bf2-96464bd03cfe"},"vehicle_type_id":"4","last_reported":1707329317,"current_range_meters":0,"station_id":"ce4bh2h2rcd13ifvqdh0","pricing_plan_id":"free"},{"bike_id":"b06b5ef6-0e03-4e91-84f9-9289f9520d8d","system_id":"levelo_inurba_marseille","lat":43.29416,"lon":5.38629,"is_reserved":false,"is_disabled":false,"rental_uris":{"android":"levelo://app?vid=b06b5ef6-0e03-4e91-84f9-9289f9520d8d","ios":"levelo://app?vid=b06b5ef6-0e03-4e91-84f9-9289f9520d8d"},"vehicle_type_id":"4","last_reported":1707329317,"current_range_meters":0,"station_id":"ce4bh2h2rcd13ifvqdh0","pricing_plan_id":"free"},{"bike_id":"18a5777e-246b-4ab9-ba52-c1c3b60d64ce","system_id":"levelo_inurba_marseille","lat":43.289184,"lon":5.366408,"is_reserved":false,"is_disabled":false,"rental_uris":{"android":"levelo://app?vid=18a5777e-246b-4ab9-ba52-c1c3b60d64ce","ios":"levelo://app?vid=18a5777e-246b-4ab9-ba52-c1c3b60d64ce"},"vehicle_type_id":"4","last_reported":1707329317,"current_range_meters":0,"station_id":"ce4bhap2rcd13ifvqek0","pricing_plan_id":"free"},{"bike_id":"755609da-f428-4940-a234-e704dda6fd94","system_id":"levelo_inurba_marseille","lat":43.29417,"lon":5.38633,"is_reserved":false,"is_disabled":false,"rental_uris":{"android":"levelo://app?vid=755609da-f428-4940-a234-e704dda6fd94","ios":"levelo://app?vid=755609da-f428-4940-a234-e704dda6fd94"},"vehicle_type_id":"4","last_reported":1707329317,"current_range_meters":24400,"station_id":"ce4bh2h2rcd13ifvqdh0","pricing_plan_id":"free"},{"bike_id":"44b33f4e-5d92-48c4-a18c-c460705c875d","system_id":"levelo_inurba_marseille","lat":43.289184,"lon":5.366408,"is_reserved":false,"is_disabled":false,"rental_uris":{"android":"levelo://app?vid=44b33f4e-5d92-48c4-a18c-c460705c875d","ios":"levelo://app?vid=44b33f4e-5d92-48c4-a18c-c460705c875d"},"vehicle_type_id":"4","last_reported":1707329317,"current_range_meters":22800,"station_id":"ce4bhap2rcd13ifvqek0","pricing_plan_id":"free"},{"bike_id":"f89cc6c5-c959-4764-a68b-7e42e56aff4d","system_id":"levelo_inurba_marseille","lat":43.289468,"lon":5.363719,"is_reserved":false,"is_disabled":false,"rental_uris":{"android":"levelo://app?vid=f89cc6c5-c959-4764-a68b-7e42e56aff4d","ios":"levelo://app?vid=f89cc6c5-c959-4764-a68b-7e42e56aff4d"},"vehicle_type_id":"4","last_reported":1707329317,"current_range_meters":20000,"station_id":"ce4bhc92rcd13ifvqetg","pricing_plan_id":"free"},{"bike_id":"070c46e8-e169-48c8-a4cc-40b857dcd748","system_id":"levelo_inurba_marseille","lat":43.29417,"lon":5.38636,"is_reserved":false,"is_disabled":false,"rental_uris":{"android":"levelo://app?vid=070c46e8-e169-48c8-a4cc-40b857dcd748","ios":"levelo://app?vid=070c46e8-e169-48c8-a4cc-40b857dcd748"},"vehicle_type_id":"4","last_reported":1707329317,"current_range_meters":21200,"station_id":"ce4bh2h2rcd13ifvqdh0","pricing_plan_id":"free"},{"bike_id":"0f4feece-124a-4dca-8acf-da2a69cd8f25","system_id":"levelo_inurba_marseille","lat":43.29418,"lon":5.38638,"is_reserved":false,"is_disabled":false,"rental_uris":{"android":"levelo://app?vid=0f4feece-124a-4dca-8acf-da2a69cd8f25","ios":"levelo://app?vid=0f4feece-124a-4dca-8acf-da2a69cd8f25"},"vehicle_type_id":"4","last_reported":1707329317,"current_range_meters":10000,"station_id":"","pricing_plan_id":"free"},{"bike_id":"fb7dd78c-cd64-4ccd-b008-4afa5c4e94a6","system_id":"levelo_inurba_marseille","lat":43.289184,"lon":5.366408,"is_reserved":false,"is_disabled":false,"rental_uris":{"android":"levelo://app?vid=fb7dd78c-cd64-4ccd-b008-4afa5c4e94a6","ios":"levelo://app?vid=fb7dd78c-cd64-4ccd-b008-4afa5c4e94a6"},"vehicle_type_id":"4","last_reported":1707329317,"current_range_meters":16800,"station_id":"ce4bhap2rcd13ifvqek0","pricing_plan_id":"free"},{"bike_id":"5e4cfd22-6feb-44f3-a064-1855109917fd","system_id":"levelo_inurba_marseille","lat":43.289184,"lon":5.366408,"is_reserved":false,"is_disabled":false,"rental_uris":{"android":"levelo://app?vid=5e4cfd22-6feb-44f3-a064-1855109917fd","ios":"levelo://app?vid=5e4cfd22-6feb-44f3-a064-1855109917fd"},"vehicle_type_id":"4","last_reported":1707329317,"current_range_meters":800,"station_id":"ce4bhap2rcd13ifvqek0","pricing_plan_id":"free"},{"bike_id":"10d7e317-e09f-4ed8-aca7-9c0cb8e5b8c8","system_id":"levelo_inurba_marseille","lat":43.289184,"lon":5.366408,"is_reserved":false,"is_disabled":false,"rental_uris":{"android":"levelo://app?vid=10d7e317-e09f-4ed8-aca7-9c0cb8e5b8c8","ios":"levelo://app?vid=10d7e317-e09f-4ed8-aca7-9c0cb8e5b8c8"},"vehicle_type_id":"4","last_reported":1707329317,"current_range_meters":14400,"station_id":"ce4bhap2rcd13ifvqek0","pricing_plan_id":"free"},{"bike_id":"4934ebe2-a1d7-4969-a956-b5f7c56bc89d","system_id":"levelo_inurba_marseille","lat":43.289184,"lon":5.366408,"is_reserved":false,"is_disabled":false,"rental_uris":{"android":"levelo://app?vid=4934ebe2-a1d7-4969-a956-b5f7c56bc89d","ios":"levelo://app?vid=4934ebe2-a1d7-4969-a956-b5f7c56bc89d"},"vehicle_type_id":"4","last_reported":1707329317,"current_range_meters":12400,"station_id":"ce4bhap2rcd13ifvqek0","pricing_plan_id":"free"},{"bike_id":"79345cc2-e389-4564-b78b-bb24c101bdf7","system_id":"levelo_inurba_marseille","lat":43.289184,"lon":5.366408,"is_reserved":false,"is_disabled":false,"rental_uris":{"android":"levelo://app?vid=79345cc2-e389-4564-b78b-bb24c101bdf7","ios":"levelo://app?vid=79345cc2-e389-4564-b78b-bb24c101bdf7"},"vehicle_type_id":"4","last_reported":1707329317,"current_range_meters":28000,"station_id":"ce4bhap2rcd13ifvqek0","pricing_plan_id":"free"},{"bike_id":"167346a3-9367-42fe-acdc-01862a12b894","system_id":"levelo_inurba_marseille","lat":43.289395,"lon":5.364015,"is_reserved":false,"is_disabled":false,"rental_uris":{"android":"levelo://app?vid=167346a3-9367-42fe-acdc-01862a12b894","ios":"levelo://app?vid=167346a3-9367-42fe-acdc-01862a12b894"},"vehicle_type_id":"4","last_reported":1707329317,"current_range_meters":24400,"station_id":"","pricing_plan_id":"free"},{"bike_id":"bcdc01b3-2a07-4708-9441-e3401f921035","system_id":"levelo_inurba_marseille","lat":43.292644,"lon":5.384257,"is_reserved":false,"is_disabled":false,"rental_uris":{"android":"levelo://app?vid=bcdc01b3-2a07-4708-9441-e3401f921035","ios":"levelo://app?vid=bcdc01b3-2a07-4708-9441-e3401f921035"},"vehicle_type_id":"4","last_reported":1707329317,"current_range_meters":0,"station_id":"ce4bh692rcd13ifvqea0","pricing_plan_id":"free"},{"bike_id":"a0f753fe-f25f-4bba-83b4-99c2b99099ad","system_id":"levelo_inurba_marseille","lat":43.292642,"lon":5.384254,"is_reserved":false,"is_disabled":false,"rental_uris":{"android":"levelo://app?vid=a0f753fe-f25f-4bba-83b4-99c2b99099ad","ios":"levelo://app?vid=a0f753fe-f25f-4bba-83b4-99c2b99099ad"},"vehicle_type_id":"4","last_reported":1707329317,"current_range_meters":19600,"station_id":"ce4bh692rcd13ifvqea0","pricing_plan_id":"free"},{"bike_id":"432ad8c5-0f8f-470a-a3be-f549162d939a","system_id":"levelo_inurba_marseille","lat":43.292644,"lon":5.384257,"is_reserved":false,"is_disabled":false,"rental_uris":{"android":"levelo://app?vid=432ad8c5-0f8f-470a-a3be-f549162d939a","ios":"levelo://app?vid=432ad8c5-0f8f-470a-a3be-f549162d939a"},"vehicle_type_id":"4","last_reported":1707329317,"current_range_meters":13600,"station_id":"ce4bh692rcd13ifvqea0","pricing_plan_id":"free"},{"bike_id":"3addc9cd-06ae-4dd8-8b01-5ae1a53e779e","system_id":"levelo_inurba_marseille","lat":43.292642,"lon":5.384254,"is_reserved":false,"is_disabled":false,"rental_uris":{"android":"levelo://app?vid=3addc9cd-06ae-4dd8-8b01-5ae1a53e779e","ios":"levelo://app?vid=3addc9cd-06ae-4dd8-8b01-5ae1a53e779e"},"vehicle_type_id":"4","last_reported":1707329317,"current_range_meters":18800,"station_id":"ce4bh692rcd13ifvqea0","pricing_plan_id":"free"},{"bike_id":"a775663f-ab34-4c67-9aec-7504c8d08c9c","system_id":"levelo_inurba_marseille","lat":43.292644,"lon":5.384257,"is_reserved":false,"is_disabled":false,"rental_uris":{"android":"levelo://app?vid=a775663f-ab34-4c67-9aec-7504c8d08c9c","ios":"levelo://app?vid=a775663f-ab34-4c67-9aec-7504c8d08c9c"},"vehicle_type_id":"4","last_reported":1707329317,"current_range_meters":24000,"station_id":"ce4bh692rcd13ifvqea0","pricing_plan_id":"free"},{"bike_id":"db8da7f0-dc75-481e-9b04-cd204a1f4187","system_id":"levelo_inurba_marseille","lat":43.292642,"lon":5.384254,"is_reserved":false,"is_disabled":false,"rental_uris":{"android":"levelo://app?vid=db8da7f0-dc75-481e-9b04-cd204a1f4187","ios":"levelo://app?vid=db8da7f0-dc75-481e-9b04-cd204a1f4187"},"vehicle_type_id":"4","last_reported":1707329317,"current_range_meters":14000,"station_id":"ce4bh692rcd13ifvqea0","pricing_plan_id":"free"},{"bike_id":"82e213e4-1a01-436b-9b1a-c9fd275c0349","system_id":"levelo_inurba_marseille","lat":43.292644,"lon":5.384257,"is_reserved":false,"is_disabled":false,"rental_uris":{"android":"levelo://app?vid=82e213e4-1a01-436b-9b1a-c9fd275c0349","ios":"levelo://app?vid=82e213e4-1a01-436b-9b1a-c9fd275c0349"},"vehicle_type_id":"4","last_reported":1707329317,"current_range_meters":12000,"station_id":"ce4bh692rcd13ifvqea0","pricing_plan_id":"free"},{"bike_id":"0cccf172-582d-4a96-825d-d71d08f63715","system_id":"levelo_inurba_marseille","lat":43.292642,"lon":5.384254,"is_reserved":false,"is_disabled":false,"rental_uris":{"android":"levelo://app?vid=0cccf172-582d-4a96-825d-d71d08f63715","ios":"levelo://app?vid=0cccf172-582d-4a96-825d-d71d08f63715"},"vehicle_type_id":"4","last_reported":1707329317,"current_range_meters":28000,"station_id":"ce4bh692rcd13ifvqea0","pricing_plan_id":"free"},{"bike_id":"cee18f94-b37b-4ecd-b71c-21490662814c","system_id":"levelo_inurba_marseille","lat":43.292642,"lon":5.384254,"is_reserved":false,"is_disabled":false,"rental_uris":{"android":"levelo://app?vid=cee18f94-b37b-4ecd-b71c-21490662814c","ios":"levelo://app?vid=cee18f94-b37b-4ecd-b71c-21490662814c"},"vehicle_type_id":"4","last_reported":1707329317,"current_range_meters":20000,"station_id":"ce4bh692rcd13ifvqea0","pricing_plan_id":"free"},{"bike_id":"06926800-b7ac-4a51-b7aa-9670bcf6da3e","system_id":"levelo_inurba_marseille","lat":43.304296,"lon":5.397513,"is_reserved":false,"is_disabled":false,"rental_uris":{"android":"levelo://app?vid=06926800-b7ac-4a51-b7aa-9670bcf6da3e","ios":"levelo://app?vid=06926800-b7ac-4a51-b7aa-9670bcf6da3e"},"vehicle_type_id":"4","last_reported":1707329317,"current_range_meters":19600,"station_id":"ce4bh092rcd13ifvqd20","pricing_plan_id":"free"},{"bike_id":"6416773e-031d-4d77-aea2-20062556282e","system_id":"levelo_inurba_marseille","lat":43.292642,"lon":5.384254,"is_reserved":false,"is_disabled":false,"rental_uris":{"android":"levelo://app?vid=6416773e-031d-4d77-aea2-20062556282e","ios":"levelo://app?vid=6416773e-031d-4d77-aea2-20062556282e"},"vehicle_type_id":"4","last_reported":1707329317,"current_range_meters":6000,"station_id":"ce4bh692rcd13ifvqea0","pricing_plan_id":"free"},{"bike_id":"51fbfd8a-fad2-4ab8-825d-b2cb4b8517e4","system_id":"levelo_inurba_marseille","lat":43.2901,"lon":5.35618,"is_reserved":false,"is_disabled":false,"rental_uris":{"android":"levelo://app?vid=51fbfd8a-fad2-4ab8-825d-b2cb4b8517e4","ios":"levelo://app?vid=51fbfd8a-fad2-4ab8-825d-b2cb4b8517e4"},"vehicle_type_id":"4","last_reported":1707329317,"current_range_meters":8000,"station_id":"ce4bhb92rcd13ifvqen0","pricing_plan_id":"free"},{"bike_id":"9c0a963d-dec3-4455-b9ae-7cf0208d3877","system_id":"levelo_inurba_marseille","lat":43.29096,"lon":5.38117,"is_reserved":false,"is_disabled":false,"rental_uris":{"android":"levelo://app?vid=9c0a963d-dec3-4455-b9ae-7cf0208d3877","ios":"levelo://app?vid=9c0a963d-dec3-4455-b9ae-7cf0208d3877"},"vehicle_type_id":"4","last_reported":1707329317,"current_range_meters":6800,"station_id":"","pricing_plan_id":"free"},{"bike_id":"3f8886a2-b8b3-4e9f-9d27-04e882e73cc7","system_id":"levelo_inurba_marseille","lat":43.290995,"lon":5.381361,"is_reserved":false,"is_disabled":false,"rental_uris":{"android":"levelo://app?vid=3f8886a2-b8b3-4e9f-9d27-04e882e73cc7","ios":"levelo://app?vid=3f8886a2-b8b3-4e9f-9d27-04e882e73cc7"},"vehicle_type_id":"4","last_reported":1707329317,"current_range_meters":0,"station_id":"ce4bh512rcd13ifvqe2g","pricing_plan_id":"free"},{"bike_id":"2d57fb24-3cbb-4dee-9f44-cdac705734ec","system_id":"levelo_inurba_marseille","lat":43.29793,"lon":5.39354,"is_reserved":false,"is_disabled":false,"rental_uris":{"android":"levelo://app?vid=2d57fb24-3cbb-4dee-9f44-cdac705734ec","ios":"levelo://app?vid=2d57fb24-3cbb-4dee-9f44-cdac705734ec"},"vehicle_type_id":"4","last_reported":1707329317,"current_range_meters":0,"station_id":"chh1huq6cuj3fo74tm60","pricing_plan_id":"free"},{"bike_id":"830dd829-8191-404a-9616-34a79213acaa","system_id":"levelo_inurba_marseille","lat":43.297815,"lon":5.393548,"is_reserved":false,"is_disabled":false,"rental_uris":{"android":"levelo://app?vid=830dd829-8191-404a-9616-34a79213acaa","ios":"levelo://app?vid=830dd829-8191-404a-9616-34a79213acaa"},"vehicle_type_id":"4","last_reported":1707329317,"current_range_meters":3600,"station_id":"chh1huq6cuj3fo74tm60","pricing_plan_id":"free"},{"bike_id":"ba7895df-fdf0-43d4-b40a-e7e64d29137d","system_id":"levelo_inurba_marseille","lat":43.330442,"lon":5.389148,"is_reserved":false,"is_disabled":false,"rental_uris":{"android":"levelo://app?vid=ba7895df-fdf0-43d4-b40a-e7e64d29137d","ios":"levelo://app?vid=ba7895df-fdf0-43d4-b40a-e7e64d29137d"},"vehicle_type_id":"4","last_reported":1707329317,"current_range_meters":18400,"station_id":"ce4bhr92rcd13ifvqhrg","pricing_plan_id":"free"},{"bike_id":"62ca35d7-f049-4885-9fd9-beb6af1eb797","system_id":"levelo_inurba_marseille","lat":43.33022,"lon":5.39038,"is_reserved":false,"is_disabled":false,"rental_uris":{"android":"levelo://app?vid=62ca35d7-f049-4885-9fd9-beb6af1eb797","ios":"levelo://app?vid=62ca35d7-f049-4885-9fd9-beb6af1eb797"},"vehicle_type_id":"4","last_reported":1707329317,"current_range_meters":8400,"station_id":"ce4bhr92rcd13ifvqhrg","pricing_plan_id":"free"},{"bike_id":"d6c7f053-4d6e-47a3-8b08-6d165ecceebf","system_id":"levelo_inurba_marseille","lat":43.33023,"lon":5.39038,"is_reserved":false,"is_disabled":false,"rental_uris":{"android":"levelo://app?vid=d6c7f053-4d6e-47a3-8b08-6d165ecceebf","ios":"levelo://app?vid=d6c7f053-4d6e-47a3-8b08-6d165ecceebf"},"vehicle_type_id":"4","last_reported":1707329317,"current_range_meters":2000,"station_id":"ce4bhr92rcd13ifvqhrg","pricing_plan_id":"free"},{"bike_id":"e3cdd8db-1a8c-42b0-8a1d-74e27724a81e","system_id":"levelo_inurba_marseille","lat":43.33021,"lon":5.39041,"is_reserved":false,"is_disabled":false,"rental_uris":{"android":"levelo://app?vid=e3cdd8db-1a8c-42b0-8a1d-74e27724a81e","ios":"levelo://app?vid=e3cdd8db-1a8c-42b0-8a1d-74e27724a81e"},