{"last_updated":1703142437,"ttl":30,"version":"2.2","data":{"bikes":[{"bike_id":"35a3c81c-1da6-42dc-93f8-b0788cc71dd5","system_id":"levelo_inurba_marseille","lat":43.313391,"lon":5.36706,"is_reserved":false,"is_disabled":false,"rental_uris":{"android":"levelo://app?vid=35a3c81c-1da6-42dc-93f8-b0788cc71dd5","ios":"levelo://app?vid=35a3c81c-1da6-42dc-93f8-b0788cc71dd5"},"vehicle_type_id":"4","last_reported":1703142437,"current_range_meters":31600,"station_id":"ce4bgr92rcd13ifvqc6g","pricing_plan_id":"free"},{"bike_id":"04f960ff-1922-4714-9fe3-d73ca6248c27","system_id":"levelo_inurba_marseille","lat":43.312239,"lon":5.368562,"is_reserved":false,"is_disabled":false,"rental_uris":{"android":"levelo://app?vid=04f960ff-1922-4714-9fe3-d73ca6248c27","ios":"levelo://app?vid=04f960ff-1922-4714-9fe3-d73ca6248c27"},"vehicle_type_id":"4","last_reported":1703142437,"current_range_meters":15600,"station_id":"ce4bgl92rcd13ifvqbq0","pricing_plan_id":"free"},{"bike_id":"f1f2bda0-1df6-424b-9240-a7be9db7fa57","system_id":"levelo_inurba_marseille","lat":43.314811,"lon":5.373103,"is_reserved":false,"is_disabled":false,"rental_uris":{"android":"levelo://app?vid=f1f2bda0-1df6-424b-9240-a7be9db7fa57","ios":"levelo://app?vid=f1f2bda0-1df6-424b-9240-a7be9db7fa57"},"vehicle_type_id":"4","last_reported":1703142437,"current_range_meters":14400,"station_id":"ce4bgt12rcd13ifvqcd0","pricing_plan_id":"free"},{"bike_id":"bc0c3e78-47ad-49ab-848d-1230aa4e55d7","system_id":"levelo_inurba_marseille","lat":43.314811,"lon":5.373104,"is_reserved":false,"is_disabled":false,"rental_uris":{"android":"levelo://app?vid=bc0c3e78-47ad-49ab-848d-1230aa4e55d7","ios":"levelo://app?vid=bc0c3e78-47ad-49ab-848d-1230aa4e55d7"},"vehicle_type_id":"4","last_reported":1703142437,"current_range_meters":22000,"station_id":"ce4bgt12rcd13ifvqcd0","pricing_plan_id":"free"},{"bike_id":"69ddb691-6ae0-467d-ade4-c775a0651ef7","system_id":"levelo_inurba_marseille","lat":43.314811,"lon":5.373103,"is_reserved":false,"is_disabled":false,"rental_uris":{"android":"levelo://app?vid=69ddb691-6ae0-467d-ade4-c775a0651ef7","ios":"levelo://app?vid=69ddb691-6ae0-467d-ade4-c775a0651ef7"},"vehicle_type_id":"4","last_reported":1703142437,"current_range_meters":31200,"station_id":"ce4bgt12rcd13ifvqcd0","pricing_plan_id":"free"},{"bike_id":"3cf12d02-5c13-435d-8950-6f18202f760d","system_id":"levelo_inurba_marseille","lat":43.309039,"lon":5.371797,"is_reserved":false,"is_disabled":false,"rental_uris":{"android":"levelo://app?vid=3cf12d02-5c13-435d-8950-6f18202f760d","ios":"levelo://app?vid=3cf12d02-5c13-435d-8950-6f18202f760d"},"vehicle_type_id":"4","last_reported":1703142437,"current_range_meters":31600,"station_id":"ce4bguh2rcd13ifvqckg","pricing_plan_id":"free"},{"bike_id":"935b3241-2df6-4187-8ce9-fa9a431453f4","system_id":"levelo_inurba_marseille","lat":43.309039,"lon":5.371797,"is_reserved":false,"is_disabled":false,"rental_uris":{"android":"levelo://app?vid=935b3241-2df6-4187-8ce9-fa9a431453f4","ios":"levelo://app?vid=935b3241-2df6-4187-8ce9-fa9a431453f4"},"vehicle_type_id":"4","last_reported":1703142437,"current_range_meters":11200,"station_id":"ce4bguh2rcd13ifvqckg","pricing_plan_id":"free"},{"bike_id":"37f2e9f0-a9d3-48d0-a773-9008fea9d193","system_id":"levelo_inurba_marseille","lat":43.309039,"lon":5.371797,"is_reserved":false,"is_disabled":false,"rental_uris":{"android":"levelo://app?vid=37f2e9f0-a9d3-48d0-a773-9008fea9d193","ios":"levelo://app?vid=37f2e9f0-a9d3-48d0-a773-9008fea9d193"},"vehicle_type_id":"4","last_reported":1703142437,"current_range_meters":6400,"station_id":"ce4bguh2rcd13ifvqckg","pricing_plan_id":"free"},{"bike_id":"c30439e2-ba2b-4272-a77c-54b57d043782","system_id":"levelo_inurba_marseille","lat":43.309039,"lon":5.371797,"is_reserved":false,"is_disabled":false,"rental_uris":{"android":"levelo://app?vid=c30439e2-ba2b-4272-a77c-54b57d043782","ios":"levelo://app?vid=c30439e2-ba2b-4272-a77c-54b57d043782"},"vehicle_type_id":"4","last_reported":1703142437,"current_range_meters":17200,"station_id":"ce4bguh2rcd13ifvqckg","pricing_plan_id":"free"},{"bike_id":"c9d0122a-6b42-40f5-97c4-0904d724d9ec","system_id":"levelo_inurba_marseille","lat":43.305706,"lon":5.365654,"is_reserved":false,"is_disabled":false,"rental_uris":{"android":"levelo://app?vid=c9d0122a-6b42-40f5-97c4-0904d724d9ec","ios":"levelo://app?vid=c9d0122a-6b42-40f5-97c4-0904d724d9ec"},"vehicle_type_id":"4","last_reported":1703142437,"current_range_meters":27600,"station_id":"ce4bgs12rcd13ifvqcag","pricing_plan_id":"free"},{"bike_id":"3b889af7-a29d-437b-9dae-21d150b3c58a","system_id":"levelo_inurba_marseille","lat":43.305714,"lon":5.365633,"is_reserved":false,"is_disabled":false,"rental_uris":{"android":"levelo://app?vid=3b889af7-a29d-437b-9dae-21d150b3c58a","ios":"levelo://app?vid=3b889af7-a29d-437b-9dae-21d150b3c58a"},"vehicle_type_id":"4","last_reported":1703142437,"current_range_meters":25600,"station_id":"ce4bgs12rcd13ifvqcag","pricing_plan_id":"free"},{"bike_id":"9d46b7a0-b3f2-4495-a8a2-61cf6a2662f1","system_id":"levelo_inurba_marseille","lat":43.305706,"lon":5.365654,"is_reserved":false,"is_disabled":false,"rental_uris":{"android":"levelo://app?vid=9d46b7a0-b3f2-4495-a8a2-61cf6a2662f1","ios":"levelo://app?vid=9d46b7a0-b3f2-4495-a8a2-61cf6a2662f1"},"vehicle_type_id":"4","last_reported":1703142437,"current_range_meters":30000,"station_id":"ce4bgs12rcd13ifvqcag","pricing_plan_id":"free"},{"bike_id":"dbed54b7-24b8-410f-96e1-acc1e1eb8e42","system_id":"levelo_inurba_marseille","lat":43.305706,"lon":5.365654,"is_reserved":false,"is_disabled":false,"rental_uris":{"android":"levelo://app?vid=dbed54b7-24b8-410f-96e1-acc1e1eb8e42","ios":"levelo://app?vid=dbed54b7-24b8-410f-96e1-acc1e1eb8e42"},"vehicle_type_id":"4","last_reported":1703142437,"current_range_meters":31600,"station_id":"ce4bgs12rcd13ifvqcag","pricing_plan_id":"free"},{"bike_id":"18171d1a-eaa0-403c-8f6e-6cd57e374d11","system_id":"levelo_inurba_marseille","lat":43.305706,"lon":5.365654,"is_reserved":false,"is_disabled":false,"rental_uris":{"android":"levelo://app?vid=18171d1a-eaa0-403c-8f6e-6cd57e374d11","ios":"levelo://app?vid=18171d1a-eaa0-403c-8f6e-6cd57e374d11"},"vehicle_type_id":"4","last_reported":1703142437,"current_range_meters":26000,"station_id":"ce4bgs12rcd13ifvqcag","pricing_plan_id":"free"},{"bike_id":"d10cdc04-ec64-44e4-8296-d50b38c2f0fb","system_id":"levelo_inurba_marseille","lat":43.30601,"lon":5.37222,"is_reserved":false,"is_disabled":false,"rental_uris":{"android":"levelo://app?vid=d10cdc04-ec64-44e4-8296-d50b38c2f0fb","ios":"levelo://app?vid=d10cdc04-ec64-44e4-8296-d50b38c2f0fb"},"vehicle_type_id":"4","last_reported":1703142437,"current_range_meters":29600,"station_id":"ce4bgqh2rcd13ifvqc4g","pricing_plan_id":"free"},{"bike_id":"390652b0-9429-4a84-8dc0-486275ae3e7b","system_id":"levelo_inurba_marseille","lat":43.311131,"lon":5.377651,"is_reserved":false,"is_disabled":false,"rental_uris":{"android":"levelo://app?vid=390652b0-9429-4a84-8dc0-486275ae3e7b","ios":"levelo://app?vid=390652b0-9429-4a84-8dc0-486275ae3e7b"},"vehicle_type_id":"4","last_reported":1703142437,"current_range_meters":14400,"station_id":"ce4bgt92rcd13ifvqcg0","pricing_plan_id":"free"},{"bike_id":"8ed4fd0f-a931-404d-98e1-7e21143d91a8","system_id":"levelo_inurba_marseille","lat":43.303046,"lon":5.368981,"is_reserved":false,"is_disabled":false,"rental_uris":{"android":"levelo://app?vid=8ed4fd0f-a931-404d-98e1-7e21143d91a8","ios":"levelo://app?vid=8ed4fd0f-a931-404d-98e1-7e21143d91a8"},"vehicle_type_id":"4","last_reported":1703142437,"current_range_meters":30000,"station_id":"ce4bgqh2rcd13ifvqc5g","pricing_plan_id":"free"},{"bike_id":"7f761b36-7e6a-4598-839a-caa0630989a9","system_id":"levelo_inurba_marseille","lat":43.303046,"lon":5.368981,"is_reserved":false,"is_disabled":false,"rental_uris":{"android":"levelo://app?vid=7f761b36-7e6a-4598-839a-caa0630989a9","ios":"levelo://app?vid=7f761b36-7e6a-4598-839a-caa0630989a9"},"vehicle_type_id":"4","last_reported":1703142437,"current_range_meters":30400,"station_id":"ce4bgqh2rcd13ifvqc5g","pricing_plan_id":"free"},{"bike_id":"169d18bc-d4b4-47ef-b636-71077f70fe1b","system_id":"levelo_inurba_marseille","lat":43.3047,"lon":5.37896,"is_reserved":false,"is_disabled":false,"rental_uris":{"android":"levelo://app?vid=169d18bc-d4b4-47ef-b636-71077f70fe1b","ios":"levelo://app?vid=169d18bc-d4b4-47ef-b636-71077f70fe1b"},"vehicle_type_id":"4","last_reported":1703142437,"current_range_meters":28000,"station_id":"ce4bgup2rcd13ifvqcn0","pricing_plan_id":"free"},{"bike_id":"1347e130-cb82-4e6b-bac7-584a35357366","system_id":"levelo_inurba_marseille","lat":43.304606,"lon":5.379026,"is_reserved":false,"is_disabled":false,"rental_uris":{"android":"levelo://app?vid=1347e130-cb82-4e6b-bac7-584a35357366","ios":"levelo://app?vid=1347e130-cb82-4e6b-bac7-584a35357366"},"vehicle_type_id":"4","last_reported":1703142437,"current_range_meters":25200,"station_id":"ce4bgup2rcd13ifvqcn0","pricing_plan_id":"free"},{"bike_id":"0a0a4c48-770a-4cc8-bd87-1d10ae2b3aa1","system_id":"levelo_inurba_marseille","lat":43.304606,"lon":5.379026,"is_reserved":false,"is_disabled":false,"rental_uris":{"android":"levelo://app?vid=0a0a4c48-770a-4cc8-bd87-1d10ae2b3aa1","ios":"levelo://app?vid=0a0a4c48-770a-4cc8-bd87-1d10ae2b3aa1"},"vehicle_type_id":"4","last_reported":1703142437,"current_range_meters":29200,"station_id":"ce4bgup2rcd13ifvqcn0","pricing_plan_id":"free"},{"bike_id":"fdc60d4a-9203-4531-93f9-320b72643d14","system_id":"levelo_inurba_marseille","lat":43.30468,"lon":5.37901,"is_reserved":false,"is_disabled":false,"rental_uris":{"android":"levelo://app?vid=fdc60d4a-9203-4531-93f9-320b72643d14","ios":"levelo://app?vid=fdc60d4a-9203-4531-93f9-320b72643d14"},"vehicle_type_id":"4","last_reported":1703142437,"current_range_meters":27600,"station_id":"ce4bgup2rcd13ifvqcn0","pricing_plan_id":"free"},{"bike_id":"fddb250e-0347-44b1-91e1-32b0011041f7","system_id":"levelo_inurba_marseille","lat":43.30475,"lon":5.37912,"is_reserved":false,"is_disabled":false,"rental_uris":{"android":"levelo://app?vid=fddb250e-0347-44b1-91e1-32b0011041f7","ios":"levelo://app?vid=fddb250e-0347-44b1-91e1-32b0011041f7"},"vehicle_type_id":"4","last_reported":1703142437,"current_range_meters":28400,"station_id":"ce4bgup2rcd13ifvqcn0","pricing_plan_id":"free"},{"bike_id":"66cf0e19-a4d1-4b74-9d4e-0ddc4ee84db1","system_id":"levelo_inurba_marseille","lat":43.304606,"lon":5.379026,"is_reserved":false,"is_disabled":false,"rental_uris":{"android":"levelo://app?vid=66cf0e19-a4d1-4b74-9d4e-0ddc4ee84db1","ios":"levelo://app?vid=66cf0e19-a4d1-4b74-9d4e-0ddc4ee84db1"},"vehicle_type_id":"4","last_reported":1703142437,"current_range_meters":30400,"station_id":"ce4bgup2rcd13ifvqcn0","pricing_plan_id":"free"},{"bike_id":"d256707b-f46c-4c52-a8df-179916283389","system_id":"levelo_inurba_marseille","lat":43.304606,"lon":5.379026,"is_reserved":false,"is_disabled":false,"rental_uris":{"android":"levelo://app?vid=d256707b-f46c-4c52-a8df-179916283389","ios":"levelo://app?vid=d256707b-f46c-4c52-a8df-179916283389"},"vehicle_type_id":"4","last_reported":1703142437,"current_range_meters":31600,"station_id":"ce4bgup2rcd13ifvqcn0","pricing_plan_id":"free"},{"bike_id":"3a53df03-b36f-4350-843b-d09d3b234208","system_id":"levelo_inurba_marseille","lat":43.304606,"lon":5.379026,"is_reserved":false,"is_disabled":false,"rental_uris":{"android":"levelo://app?vid=3a53df03-b36f-4350-843b-d09d3b234208","ios":"levelo://app?vid=3a53df03-b36f-4350-843b-d09d3b234208"},"vehicle_type_id":"4","last_reported":1703142437,"current_range_meters":26800,"station_id":"ce4bgup2rcd13ifvqcn0","pricing_plan_id":"free"},{"bike_id":"2914ff05-7ec1-41e3-a4f9-3ca9ede9943d","system_id":"levelo_inurba_marseille","lat":43.304598,"lon":5.379002,"is_reserved":false,"is_disabled":false,"rental_uris":{"android":"levelo://app?vid=2914ff05-7ec1-41e3-a4f9-3ca9ede9943d","ios":"levelo://app?vid=2914ff05-7ec1-41e3-a4f9-3ca9ede9943d"},"vehicle_type_id":"4","last_reported":1703142437,"current_range_meters":20800,"station_id":"ce4bgup2rcd13ifvqcn0","pricing_plan_id":"free"},{"bike_id":"e298eae5-5864-4595-a04a-31a867004d4a","system_id":"levelo_inurba_marseille","lat":43.30461,"lon":5.37902,"is_reserved":false,"is_disabled":false,"rental_uris":{"android":"levelo://app?vid=e298eae5-5864-4595-a04a-31a867004d4a","ios":"levelo://app?vid=e298eae5-5864-4595-a04a-31a867004d4a"},"vehicle_type_id":"4","last_reported":1703142437,"current_range_meters":22800,"station_id":"ce4bgup2rcd13ifvqcn0","pricing_plan_id":"free"},{"bike_id":"b52fc5e1-f66d-4222-a385-3c3bb0ce5bc5","system_id":"levelo_inurba_marseille","lat":43.304606,"lon":5.379026,"is_reserved":false,"is_disabled":false,"rental_uris":{"android":"levelo://app?vid=b52fc5e1-f66d-4222-a385-3c3bb0ce5bc5","ios":"levelo://app?vid=b52fc5e1-f66d-4222-a385-3c3bb0ce5bc5"},"vehicle_type_id":"4","last_reported":1703142437,"current_range_meters":30400,"station_id":"ce4bgup2rcd13ifvqcn0","pricing_plan_id":"free"},{"bike_id":"3e22648f-d3eb-4d8b-b0ab-d008457ba21c","system_id":"levelo_inurba_marseille","lat":43.304606,"lon":5.379026,"is_reserved":false,"is_disabled":false,"rental_uris":{"android":"levelo://app?vid=3e22648f-d3eb-4d8b-b0ab-d008457ba21c","ios":"levelo://app?vid=3e22648f-d3eb-4d8b-b0ab-d008457ba21c"},"vehicle_type_id":"4","last_reported":1703142437,"current_range_meters":26000,"station_id":"ce4bgup2rcd13ifvqcn0","pricing_plan_id":"free"},{"bike_id":"85053aad-3b46-48d3-9ed1-74f81dc23d1a","system_id":"levelo_inurba_marseille","lat":43.302784,"lon":5.377158,"is_reserved":false,"is_disabled":false,"rental_uris":{"android":"levelo://app?vid=85053aad-3b46-48d3-9ed1-74f81dc23d1a","ios":"levelo://app?vid=85053aad-3b46-48d3-9ed1-74f81dc23d1a"},"vehicle_type_id":"4","last_reported":1703142437,"current_range_meters":29200,"station_id":"ce4bguh2rcd13ifvqcj0","pricing_plan_id":"free"},{"bike_id":"953d5feb-48a7-427e-a3e1-b62f811507e8","system_id":"levelo_inurba_marseille","lat":43.31995,"lon":5.38151,"is_reserved":false,"is_disabled":false,"rental_uris":{"android":"levelo://app?vid=953d5feb-48a7-427e-a3e1-b62f811507e8","ios":"levelo://app?vid=953d5feb-48a7-427e-a3e1-b62f811507e8"},"vehicle_type_id":"4","last_reported":1703142437,"current_range_meters":2000,"station_id":"ce4bhr12rcd13ifvqhpg","pricing_plan_id":"free"},{"bike_id":"e3d7c20b-f0de-45b0-85c3-69532244ee3f","system_id":"levelo_inurba_marseille","lat":43.320005,"lon":5.381601,"is_reserved":false,"is_disabled":false,"rental_uris":{"android":"levelo://app?vid=e3d7c20b-f0de-45b0-85c3-69532244ee3f","ios":"levelo://app?vid=e3d7c20b-f0de-45b0-85c3-69532244ee3f"},"vehicle_type_id":"4","last_reported":1703142437,"current_range_meters":11200,"station_id":"ce4bhr12rcd13ifvqhpg","pricing_plan_id":"free"},{"bike_id":"1fd1fc7e-368a-4ad9-bd14-378c8743084b","system_id":"levelo_inurba_marseille","lat":43.313571,"lon":5.384829,"is_reserved":false,"is_disabled":false,"rental_uris":{"android":"levelo://app?vid=1fd1fc7e-368a-4ad9-bd14-378c8743084b","ios":"levelo://app?vid=1fd1fc7e-368a-4ad9-bd14-378c8743084b"},"vehicle_type_id":"4","last_reported":1703142437,"current_range_meters":25600,"station_id":"ce4bgt92rcd13ifvqcf0","pricing_plan_id":"free"},{"bike_id":"938ed73c-eefd-41a3-b2e9-cb10e3da8e0b","system_id":"levelo_inurba_marseille","lat":43.31358,"lon":5.38487,"is_reserved":false,"is_disabled":false,"rental_uris":{"android":"levelo://app?vid=938ed73c-eefd-41a3-b2e9-cb10e3da8e0b","ios":"levelo://app?vid=938ed73c-eefd-41a3-b2e9-cb10e3da8e0b"},"vehicle_type_id":"4","last_reported":1703142437,"current_range_meters":0,"station_id":"ce4bgt92rcd13ifvqcf0","pricing_plan_id":"free"},{"bike_id":"778f347c-6be3-400e-8bf7-bcf76ed9c11d","system_id":"levelo_inurba_marseille","lat":43.313571,"lon":5.384829,"is_reserved":false,"is_disabled":false,"rental_uris":{"android":"levelo://app?vid=778f347c-6be3-400e-8bf7-bcf76ed9c11d","ios":"levelo://app?vid=778f347c-6be3-400e-8bf7-bcf76ed9c11d"},"vehicle_type_id":"4","last_reported":1703142437,"current_range_meters":22800,"station_id":"ce4bgt92rcd13ifvqcf0","pricing_plan_id":"free"},{"bike_id":"c43cd5be-7546-4152-9148-7c550b6d642c","system_id":"levelo_inurba_marseille","lat":43.299222,"lon":5.365554,"is_reserved":false,"is_disabled":false,"rental_uris":{"android":"levelo://app?vid=c43cd5be-7546-4152-9148-7c550b6d642c","ios":"levelo://app?vid=c43cd5be-7546-4152-9148-7c550b6d642c"},"vehicle_type_id":"4","last_reported":1703142437,"current_range_meters":8400,"station_id":"ce4bgm92rcd13ifvqbr0","pricing_plan_id":"free"},{"bike_id":"26d64604-afdb-486f-8371-73b3550aee72","system_id":"levelo_inurba_marseille","lat":43.30537,"lon":5.38433,"is_reserved":false,"is_disabled":false,"rental_uris":{"android":"levelo://app?vid=26d64604-afdb-486f-8371-73b3550aee72","ios":"levelo://app?vid=26d64604-afdb-486f-8371-73b3550aee72"},"vehicle_type_id":"4","last_reported":1703142437,"current_range_meters":1200,"station_id":"ce4bgg92rcd13ifvqb30","pricing_plan_id":"free"},{"bike_id":"b56d1cb8-a95c-43d7-ad00-583a842ab6ea","system_id":"levelo_inurba_marseille","lat":43.31174,"lon":5.38722,"is_reserved":false,"is_disabled":false,"rental_uris":{"android":"levelo://app?vid=b56d1cb8-a95c-43d7-ad00-583a842ab6ea","ios":"levelo://app?vid=b56d1cb8-a95c-43d7-ad00-583a842ab6ea"},"vehicle_type_id":"4","last_reported":1703142437,"current_range_meters":1200,"station_id":"ce4bgv12rcd13ifvqcp0","pricing_plan_id":"free"},{"bike_id":"e455d39a-3c13-48e9-91b0-472f633a51f1","system_id":"levelo_inurba_marseille","lat":43.297794,"lon":5.370888,"is_reserved":false,"is_disabled":false,"rental_uris":{"android":"levelo://app?vid=e455d39a-3c13-48e9-91b0-472f633a51f1","ios":"levelo://app?vid=e455d39a-3c13-48e9-91b0-472f633a51f1"},"vehicle_type_id":"4","last_reported":1703142437,"current_range_meters":20000,"station_id":"ce4bgop2rcd13ifvqc1g","pricing_plan_id":"free"},{"bike_id":"67366348-f5a3-4df2-9dfc-d717124911c0","system_id":"levelo_inurba_marseille","lat":43.297774,"lon":5.370875,"is_reserved":false,"is_disabled":false,"rental_uris":{"android":"levelo://app?vid=67366348-f5a3-4df2-9dfc-d717124911c0","ios":"levelo://app?vid=67366348-f5a3-4df2-9dfc-d717124911c0"},"vehicle_type_id":"4","last_reported":1703142437,"current_range_meters":7600,"station_id":"ce4bgop2rcd13ifvqc1g","pricing_plan_id":"free"},{"bike_id":"7b61e578-eb09-4c42-8536-5cf1eb9d1ca6","system_id":"levelo_inurba_marseille","lat":43.32827,"lon":5.36669,"is_reserved":false,"is_disabled":false,"rental_uris":{"android":"levelo://app?vid=7b61e578-eb09-4c42-8536-5cf1eb9d1ca6","ios":"levelo://app?vid=7b61e578-eb09-4c42-8536-5cf1eb9d1ca6"},"vehicle_type_id":"4","last_reported":1703142437,"current_range_meters":30400,"station_id":"ce4bhs92rcd13ifvqi0g","pricing_plan_id":"free"},{"bike_id":"c22e4b9f-ba20-4a7c-a7c8-fd0a73d903e0","system_id":"levelo_inurba_marseille","lat":43.32829,"lon":5.366753,"is_reserved":false,"is_disabled":false,"rental_uris":{"android":"levelo://app?vid=c22e4b9f-ba20-4a7c-a7c8-fd0a73d903e0","ios":"levelo://app?vid=c22e4b9f-ba20-4a7c-a7c8-fd0a73d903e0"},"vehicle_type_id":"4","last_reported":1703142437,"current_range_meters":20000,"station_id":"ce4bhs92rcd13ifvqi0g","pricing_plan_id":"free"},{"bike_id":"eb8ebe7d-6983-4780-997c-9447c3c0c6e2","system_id":"levelo_inurba_marseille","lat":43.328302,"lon":5.366806,"is_reserved":false,"is_disabled":false,"rental_uris":{"android":"levelo://app?vid=eb8ebe7d-6983-4780-997c-9447c3c0c6e2","ios":"levelo://app?vid=eb8ebe7d-6983-4780-997c-9447c3c0c6e2"},"vehicle_type_id":"4","last_reported":1703142437,"current_range_meters":25600,"station_id":"ce4bhs92rcd13ifvqi0g","pricing_plan_id":"free"},{"bike_id":"c12df297-168e-4ca3-95d9-a300ff1ffbd9","system_id":"levelo_inurba_marseille","lat":43.328371,"lon":5.366909,"is_reserved":false,"is_disabled":false,"rental_uris":{"android":"levelo://app?vid=c12df297-168e-4ca3-95d9-a300ff1ffbd9","ios":"levelo://app?vid=c12df297-168e-4ca3-95d9-a300ff1ffbd9"},"vehicle_type_id":"4","last_reported":1703142437,"current_range_meters":26400,"station_id":"ce4bhs92rcd13ifvqi0g","pricing_plan_id":"free"},{"bike_id":"2a8a59a2-86cc-48a9-8714-ae0edcb4d489","system_id":"levelo_inurba_marseille","lat":43.32833,"lon":5.36674,"is_reserved":false,"is_disabled":false,"rental_uris":{"android":"levelo://app?vid=2a8a59a2-86cc-48a9-8714-ae0edcb4d489","ios":"levelo://app?vid=2a8a59a2-86cc-48a9-8714-ae0edcb4d489"},"vehicle_type_id":"4","last_reported":1703142437,"current_range_meters":31200,"station_id":"ce4bhs92rcd13ifvqi0g","pricing_plan_id":"free"},{"bike_id":"62d69973-e2e6-4040-bb41-797c830bcaf7","system_id":"levelo_inurba_marseille","lat":43.2968,"lon":5.37291,"is_reserved":false,"is_disabled":false,"rental_uris":{"android":"levelo://app?vid=62d69973-e2e6-4040-bb41-797c830bcaf7","ios":"levelo://app?vid=62d69973-e2e6-4040-bb41-797c830bcaf7"},"vehicle_type_id":"4","last_reported":1703142437,"current_range_meters":29600,"station_id":"ce4bgk12rcd13ifvqbj0","pricing_plan_id":"free"},{"bike_id":"eedd347a-b3ac-482f-9497-9a057c792c16","system_id":"levelo_inurba_marseille","lat":43.2968,"lon":5.37291,"is_reserved":false,"is_disabled":false,"rental_uris":{"android":"levelo://app?vid=eedd347a-b3ac-482f-9497-9a057c792c16","ios":"levelo://app?vid=eedd347a-b3ac-482f-9497-9a057c792c16"},"vehicle_type_id":"4","last_reported":1703142437,"current_range_meters":23600,"station_id":"ce4bgk12rcd13ifvqbj0","pricing_plan_id":"free"},{"bike_id":"d802ff88-9099-407f-b7cb-dfcc3cd1a4bb","system_id":"levelo_inurba_marseille","lat":43.299028,"lon":5.381509,"is_reserved":false,"is_disabled":false,"rental_uris":{"android":"levelo://app?vid=d802ff88-9099-407f-b7cb-dfcc3cd1a4bb","ios":"levelo://app?vid=d802ff88-9099-407f-b7cb-dfcc3cd1a4bb"},"vehicle_type_id":"4","last_reported":1703142437,"current_range_meters":31600,"station_id":"ce4bgj12rcd13ifvqbc0","pricing_plan_id":"free"},{"bike_id":"6c88e4bb-3c58-4808-a86d-5366f3cd48d1","system_id":"levelo_inurba_marseille","lat":43.299028,"lon":5.381509,"is_reserved":false,"is_disabled":false,"rental_uris":{"android":"levelo://app?vid=6c88e4bb-3c58-4808-a86d-5366f3cd48d1","ios":"levelo://app?vid=6c88e4bb-3c58-4808-a86d-5366f3cd48d1"},"vehicle_type_id":"4","last_reported":1703142437,"current_range_meters":29600,"station_id":"ce4bgj12rcd13ifvqbc0","pricing_plan_id":"free"},{"bike_id":"cb7ed076-dd47-4eb3-8e54-84931d5fd772","system_id":"levelo_inurba_marseille","lat":43.30949,"lon":5.39053,"is_reserved":false,"is_disabled":false,"rental_uris":{"android":"levelo://app?vid=cb7ed076-dd47-4eb3-8e54-84931d5fd772","ios":"levelo://app?vid=cb7ed076-dd47-4eb3-8e54-84931d5fd772"},"vehicle_type_id":"4","last_reported":1703142437,"current_range_meters":31200,"station_id":"ce4bgup2rcd13ifvqco0","pricing_plan_id":"free"},{"bike_id":"0b302c3a-0edd-4d80-b6a2-0e41892114c5","system_id":"levelo_inurba_marseille","lat":43.317557,"lon":5.390173,"is_reserved":false,"is_disabled":false,"rental_uris":{"android":"levelo://app?vid=0b302c3a-0edd-4d80-b6a2-0e41892114c5","ios":"levelo://app?vid=0b302c3a-0edd-4d80-b6a2-0e41892114c5"},"vehicle_type_id":"4","last_reported":1703142437,"current_range_meters":6400,"station_id":"ce4bhqp2rcd13ifvqhng","pricing_plan_id":"free"},{"bike_id":"3653f8e3-db41-4614-8478-032376af5a05","system_id":"levelo_inurba_marseille","lat":43.298037,"lon":5.381066,"is_reserved":false,"is_disabled":false,"rental_uris":{"android":"levelo://app?vid=3653f8e3-db41-4614-8478-032376af5a05","ios":"levelo://app?vid=3653f8e3-db41-4614-8478-032376af5a05"},"vehicle_type_id":"4","last_reported":1703142437,"current_range_meters":18800,"station_id":"ce4bgip2rcd13ifvqbb0","pricing_plan_id":"free"},{"bike_id":"c8964aec-687e-4689-b5ba-3895ad7bfcc7","system_id":"levelo_inurba_marseille","lat":43.298037,"lon":5.381066,"is_reserved":false,"is_disabled":false,"rental_uris":{"android":"levelo://app?vid=c8964aec-687e-4689-b5ba-3895ad7bfcc7","ios":"levelo://app?vid=c8964aec-687e-4689-b5ba-3895ad7bfcc7"},"vehicle_type_id":"4","last_reported":1703142437,"current_range_meters":28800,"station_id":"ce4bgip2rcd13ifvqbb0","pricing_plan_id":"free"},{"bike_id":"d22039bb-76e6-42d5-a307-fb0dbb4791a1","system_id":"levelo_inurba_marseille","lat":43.298037,"lon":5.381066,"is_reserved":false,"is_disabled":false,"rental_uris":{"android":"levelo://app?vid=d22039bb-76e6-42d5-a307-fb0dbb4791a1","ios":"levelo://app?vid=d22039bb-76e6-42d5-a307-fb0dbb4791a1"},"vehicle_type_id":"4","last_reported":1703142437,"current_range_meters":30800,"station_id":"ce4bgip2rcd13ifvqbb0","pricing_plan_id":"free"},{"bike_id":"f8a326b6-7938-4355-8b2e-d85e65a292fa","system_id":"levelo_inurba_marseille","lat":43.298037,"lon":5.381066,"is_reserved":false,"is_disabled":false,"rental_uris":{"android":"levelo://app?vid=f8a326b6-7938-4355-8b2e-d85e65a292fa","ios":"levelo://app?vid=f8a326b6-7938-4355-8b2e-d85e65a292fa"},"vehicle_type_id":"4","last_reported":1703142437,"current_range_meters":19600,"station_id":"ce4bgip2rcd13ifvqbb0","pricing_plan_id":"free"},{"bike_id":"8ce0a33f-a270-4834-a417-88c123392c6f","system_id":"levelo_inurba_marseille","lat":43.304274,"lon":5.388873,"is_reserved":false,"is_disabled":false,"rental_uris":{"android":"levelo://app?vid=8ce0a33f-a270-4834-a417-88c123392c6f","ios":"levelo://app?vid=8ce0a33f-a270-4834-a417-88c123392c6f"},"vehicle_type_id":"4","last_reported":1703142437,"current_range_meters":11200,"station_id":"ce4bgk12rcd13ifvqbi0","pricing_plan_id":"free"},{"bike_id":"4d9f8b03-c2d9-4a1b-a6e7-3a6e7f66cf1f","system_id":"levelo_inurba_marseille","lat":43.295748,"lon":5.37522,"is_reserved":false,"is_disabled":false,"rental_uris":{"android":"levelo://app?vid=4d9f8b03-c2d9-4a1b-a6e7-3a6e7f66cf1f","ios":"levelo://app?vid=4d9f8b03-c2d9-4a1b-a6e7-3a6e7f66cf1f"},"vehicle_type_id":"4","last_reported":1703142437,"current_range_meters":31600,"station_id":"ce4bgh92rcd13ifvqb50","pricing_plan_id":"free"},{"bike_id":"a2a7840e-44a2-4444-a512-c1891487fceb","system_id":"levelo_inurba_marseille","lat":43.296277,"lon":5.377108,"is_reserved":false,"is_disabled":false,"rental_uris":{"android":"levelo://app?vid=a2a7840e-44a2-4444-a512-c1891487fceb","ios":"levelo://app?vid=a2a7840e-44a2-4444-a512-c1891487fceb"},"vehicle_type_id":"4","last_reported":1703142437,"current_range_meters":14800,"station_id":"ce4bgi92rcd13ifvqb90","pricing_plan_id":"free"},{"bike_id":"7b251cbe-1b63-49bd-9bfb-f20deaff5a34","system_id":"levelo_inurba_marseille","lat":43.296277,"lon":5.377108,"is_reserved":false,"is_disabled":false,"rental_uris":{"android":"levelo://app?vid=7b251cbe-1b63-49bd-9bfb-f20deaff5a34","ios":"levelo://app?vid=7b251cbe-1b63-49bd-9bfb-f20deaff5a34"},"vehicle_type_id":"4","last_reported":1703142437,"current_range_meters":30800,"station_id":"ce4bgi92rcd13ifvqb90","pricing_plan_id":"free"},{"bike_id":"e1f97a94-40c2-431f-a6dd-601077f0a866","system_id":"levelo_inurba_marseille","lat":43.29567,"lon":5.37598,"is_reserved":false,"is_disabled":false,"rental_uris":{"android":"levelo://app?vid=e1f97a94-40c2-431f-a6dd-601077f0a866","ios":"levelo://app?vid=e1f97a94-40c2-431f-a6dd-601077f0a866"},"vehicle_type_id":"4","last_reported":1703142437,"current_range_meters":23200,"station_id":"","pricing_plan_id":"free"},{"bike_id":"e2e6cdf3-0220-4a4b-8b57-aaeb4f4e6240","system_id":"levelo_inurba_marseille","lat":43.295279,"lon":5.375048,"is_reserved":false,"is_disabled":false,"rental_uris":{"android":"levelo://app?vid=e2e6cdf3-0220-4a4b-8b57-aaeb4f4e6240","ios":"levelo://app?vid=e2e6cdf3-0220-4a4b-8b57-aaeb4f4e6240"},"vehicle_type_id":"4","last_reported":1703142437,"current_range_meters":27200,"station_id":"ce4bgkp2rcd13ifvqbmg","pricing_plan_id":"free"},{"bike_id":"39a5a7f1-613e-4ce9-85dc-bf406e7675c4","system_id":"levelo_inurba_marseille","lat":43.32367,"lon":5.388836,"is_reserved":false,"is_disabled":false,"rental_uris":{"android":"levelo://app?vid=39a5a7f1-613e-4ce9-85dc-bf406e7675c4","ios":"levelo://app?vid=39a5a7f1-613e-4ce9-85dc-bf406e7675c4"},"vehicle_type_id":"4","last_reported":1703142437,"current_range_meters":800,"station_id":"ce4bhqp2rcd13ifvqhog","pricing_plan_id":"free"},{"bike_id":"1744a83c-c520-4246-8c84-a2c8dac1fa6e","system_id":"levelo_inurba_marseille","lat":43.29602,"lon":5.381084,"is_reserved":false,"is_disabled":false,"rental_uris":{"android":"levelo://app?vid=1744a83c-c520-4246-8c84-a2c8dac1fa6e","ios":"levelo://app?vid=1744a83c-c520-4246-8c84-a2c8dac1fa6e"},"vehicle_type_id":"4","last_reported":1703142437,"current_range_meters":5200,"station_id":"ce4bgl12rcd13ifvqbo0","pricing_plan_id":"free"},{"bike_id":"ec9feb9e-b237-4b79-91f3-b924ddb4aba4","system_id":"levelo_inurba_marseille","lat":43.29602,"lon":5.381084,"is_reserved":false,"is_disabled":false,"rental_uris":{"android":"levelo://app?vid=ec9feb9e-b237-4b79-91f3-b924ddb4aba4","ios":"levelo://app?vid=ec9feb9e-b237-4b79-91f3-b924ddb4aba4"},"vehicle_type_id":"4","last_reported":1703142437,"current_range_meters":28800,"station_id":"ce4bgl12rcd13ifvqbo0","pricing_plan_id":"free"},{"bike_id":"f841f561-0b6a-47f6-a2d0-487817739221","system_id":"levelo_inurba_marseille","lat":43.292749,"lon":5.368402,"is_reserved":false,"is_disabled":false,"rental_uris":{"android":"levelo://app?vid=f841f561-0b6a-47f6-a2d0-487817739221","ios":"levelo://app?vid=f841f561-0b6a-47f6-a2d0-487817739221"},"vehicle_type_id":"4","last_reported":1703142437,"current_range_meters":8800,"station_id":"ce4bhbp2rcd13ifvqesg","pricing_plan_id":"free"},{"bike_id":"2e0ceb58-f4e4-4285-a3bb-b927c51676ca","system_id":"levelo_inurba_marseille","lat":43.30591,"lon":5.39354,"is_reserved":false,"is_disabled":false,"rental_uris":{"android":"levelo://app?vid=2e0ceb58-f4e4-4285-a3bb-b927c51676ca","ios":"levelo://app?vid=2e0ceb58-f4e4-4285-a3bb-b927c51676ca"},"vehicle_type_id":"4","last_reported":1703142437,"current_range_meters":19200,"station_id":"ce4bh0p2rcd13ifvqd80","pricing_plan_id":"free"},{"bike_id":"6981a5f7-ddfe-4882-a9e7-86edb10ac510","system_id":"levelo_inurba_marseille","lat":43.305994,"lon":5.393687,"is_reserved":false,"is_disabled":false,"rental_uris":{"android":"levelo://app?vid=6981a5f7-ddfe-4882-a9e7-86edb10ac510","ios":"levelo://app?vid=6981a5f7-ddfe-4882-a9e7-86edb10ac510"},"vehicle_type_id":"4","last_reported":1703142437,"current_range_meters":29600,"station_id":"ce4bh0p2rcd13ifvqd80","pricing_plan_id":"free"},{"bike_id":"48eb1f61-9432-4a82-ae99-ab0add60954f","system_id":"levelo_inurba_marseille","lat":43.305994,"lon":5.393687,"is_reserved":false,"is_disabled":false,"rental_uris":{"android":"levelo://app?vid=48eb1f61-9432-4a82-ae99-ab0add60954f","ios":"levelo://app?vid=48eb1f61-9432-4a82-ae99-ab0add60954f"},"vehicle_type_id":"4","last_reported":1703142437,"current_range_meters":31600,"station_id":"ce4bh0p2rcd13ifvqd80","pricing_plan_id":"free"},{"bike_id":"1dc24c28-e106-4cb1-b8ff-825b0683cd81","system_id":"levelo_inurba_marseille","lat":43.305994,"lon":5.393687,"is_reserved":false,"is_disabled":false,"rental_uris":{"android":"levelo://app?vid=1dc24c28-e106-4cb1-b8ff-825b0683cd81","ios":"levelo://app?vid=1dc24c28-e106-4cb1-b8ff-825b0683cd81"},"vehicle_type_id":"4","last_reported":1703142437,"current_range_meters":16000,"station_id":"ce4bh0p2rcd13ifvqd80","pricing_plan_id":"free"},{"bike_id":"efda640f-e48c-4d9a-90ef-f66d01dd23cc","system_id":"levelo_inurba_marseille","lat":43.303002,"lon":5.392142,"is_reserved":false,"is_disabled":false,"rental_uris":{"android":"levelo://app?vid=efda640f-e48c-4d9a-90ef-f66d01dd23cc","ios":"levelo://app?vid=efda640f-e48c-4d9a-90ef-f66d01dd23cc"},"vehicle_type_id":"4","last_reported":1703142437,"current_range_meters":20800,"station_id":"ce4bgkh2rcd13ifvqbk0","pricing_plan_id":"free"},{"bike_id":"d25ca667-2d51-434a-8881-267568302c90","system_id":"levelo_inurba_marseille","lat":43.303002,"lon":5.392142,"is_reserved":false,"is_disabled":false,"rental_uris":{"android":"levelo://app?vid=d25ca667-2d51-434a-8881-267568302c90","ios":"levelo://app?vid=d25ca667-2d51-434a-8881-267568302c90"},"vehicle_type_id":"4","last_reported":1703142437,"current_range_meters":16800,"station_id":"ce4bgkh2rcd13ifvqbk0","pricing_plan_id":"free"},{"bike_id":"4f32af39-b223-47e1-9a9a-1bd338a93c26","system_id":"levelo_inurba_marseille","lat":43.302992,"lon":5.392136,"is_reserved":false,"is_disabled":false,"rental_uris":{"android":"levelo://app?vid=4f32af39-b223-47e1-9a9a-1bd338a93c26","ios":"levelo://app?vid=4f32af39-b223-47e1-9a9a-1bd338a93c26"},"vehicle_type_id":"4","last_reported":1703142437,"current_range_meters":29600,"station_id":"ce4bgkh2rcd13ifvqbk0","pricing_plan_id":"free"},{"bike_id":"674b503c-ecf8-435a-95f7-3f1cf4a22f48","system_id":"levelo_inurba_marseille","lat":43.26949,"lon":5.40262,"is_reserved":false,"is_disabled":false,"rental_uris":{"android":"levelo://app?vid=674b503c-ecf8-435a-95f7-3f1cf4a22f48","ios":"levelo://app?vid=674b503c-ecf8-435a-95f7-3f1cf4a22f48"},"vehicle_type_id":"4","last_reported":1703142437,"current_range_meters":21200,"station_id":"cjm6bp8fraef2m0cb0m0","pricing_plan_id":"free"},{"bike_id":"9f9b9256-c5ae-4a22-b96f-fada4b6c1c6d","system_id":"levelo_inurba_marseille","lat":43.29226,"lon":5.3606,"is_reserved":false,"is_disabled":false,"rental_uris":{"android":"levelo://app?vid=9f9b9256-c5ae-4a22-b96f-fada4b6c1c6d","ios":"levelo://app?vid=9f9b9256-c5ae-4a22-b96f-fada4b6c1c6d"},"vehicle_type_id":"4","last_reported":1703142437,"current_range_meters":26000,"station_id":"ce4bhbh2rcd13ifvqeqg","pricing_plan_id":"free"},{"bike_id":"7ae8876a-7548-44bd-8046-76d7b2b193a0","system_id":"levelo_inurba_marseille","lat":43.29218,"lon":5.36069,"is_reserved":false,"is_disabled":false,"rental_uris":{"android":"levelo://app?vid=7ae8876a-7548-44bd-8046-76d7b2b193a0","ios":"levelo://app?vid=7ae8876a-7548-44bd-8046-76d7b2b193a0"},"vehicle_type_id":"4","last_reported":1703142437,"current_range_meters":31200,"station_id":"ce4bhbh2rcd13ifvqeqg","pricing_plan_id":"free"},{"bike_id":"ff53bd59-2eb5-4da2-a00a-d3edca51e7aa","system_id":"levelo_inurba_marseille","lat":43.291675,"lon":5.371583,"is_reserved":false,"is_disabled":false,"rental_uris":{"android":"levelo://app?vid=ff53bd59-2eb5-4da2-a00a-d3edca51e7aa","ios":"levelo://app?vid=ff53bd59-2eb5-4da2-a00a-d3edca51e7aa"},"vehicle_type_id":"4","last_reported":1703142437,"current_range_meters":29200,"station_id":"ce4bha92rcd13ifvqeh0","pricing_plan_id":"free"},{"bike_id":"92c73877-017f-4ca4-bd38-275d6bc5ff3f","system_id":"levelo_inurba_marseille","lat":43.291994,"lon":5.357886,"is_reserved":false,"is_disabled":false,"rental_uris":{"android":"levelo://app?vid=92c73877-017f-4ca4-bd38-275d6bc5ff3f","ios":"levelo://app?vid=92c73877-017f-4ca4-bd38-275d6bc5ff3f"},"vehicle_type_id":"4","last_reported":1703142437,"current_range_meters":10000,"station_id":"ce4bhb12rcd13ifvqel0","pricing_plan_id":"free"},{"bike_id":"dabee216-f5da-4ca6-8839-3134bf6a42ce","system_id":"levelo_inurba_marseille","lat":43.30883,"lon":5.39638,"is_reserved":false,"is_disabled":false,"rental_uris":{"android":"levelo://app?vid=dabee216-f5da-4ca6-8839-3134bf6a42ce","ios":"levelo://app?vid=dabee216-f5da-4ca6-8839-3134bf6a42ce"},"vehicle_type_id":"4","last_reported":1703142437,"current_range_meters":22000,"station_id":"ce4bh012rcd13ifvqcv0","pricing_plan_id":"free"},{"bike_id":"93ef3bba-e74b-4954-965d-bb27c87b80df","system_id":"levelo_inurba_marseille","lat":43.308811,"lon":5.396389,"is_reserved":false,"is_disabled":false,"rental_uris":{"android":"levelo://app?vid=93ef3bba-e74b-4954-965d-bb27c87b80df","ios":"levelo://app?vid=93ef3bba-e74b-4954-965d-bb27c87b80df"},"vehicle_type_id":"4","last_reported":1703142437,"current_range_meters":28400,"station_id":"ce4bh012rcd13ifvqcv0","pricing_plan_id":"free"},{"bike_id":"d14f2dbb-08ba-4540-8476-e184e249f2cd","system_id":"levelo_inurba_marseille","lat":43.308829,"lon":5.396408,"is_reserved":false,"is_disabled":false,"rental_uris":{"android":"levelo://app?vid=d14f2dbb-08ba-4540-8476-e184e249f2cd","ios":"levelo://app?vid=d14f2dbb-08ba-4540-8476-e184e249f2cd"},"vehicle_type_id":"4","last_reported":1703142437,"current_range_meters":11200,"station_id":"ce4bh012rcd13ifvqcv0","pricing_plan_id":"free"},{"bike_id":"ad293b0a-1786-4d2f-a84f-5d3c96e0c51b","system_id":"levelo_inurba_marseille","lat":43.309038,"lon":5.396546,"is_reserved":false,"is_disabled":false,"rental_uris":{"android":"levelo://app?vid=ad293b0a-1786-4d2f-a84f-5d3c96e0c51b","ios":"levelo://app?vid=ad293b0a-1786-4d2f-a84f-5d3c96e0c51b"},"vehicle_type_id":"4","last_reported":1703142437,"current_range_meters":8800,"station_id":"ce4bh012rcd13ifvqcv0","pricing_plan_id":"free"},{"bike_id":"b12c4c92-f773-4247-aa29-9b7c9af28b87","system_id":"levelo_inurba_marseille","lat":43.30888,"lon":5.39659,"is_reserved":false,"is_disabled":false,"rental_uris":{"android":"levelo://app?vid=b12c4c92-f773-4247-aa29-9b7c9af28b87","ios":"levelo://app?vid=b12c4c92-f773-4247-aa29-9b7c9af28b87"},"vehicle_type_id":"4","last_reported":1703142437,"current_range_meters":5600,"station_id":"ce4bh012rcd13ifvqcv0","pricing_plan_id":"free"},{"bike_id":"1900c91a-1cf3-47b2-8173-58b68f5cdf4c","system_id":"levelo_inurba_marseille","lat":43.29529,"lon":5.385581,"is_reserved":false,"is_disabled":false,"rental_uris":{"android":"levelo://app?vid=1900c91a-1cf3-47b2-8173-58b68f5cdf4c","ios":"levelo://app?vid=1900c91a-1cf3-47b2-8173-58b68f5cdf4c"},"vehicle_type_id":"4","last_reported":1703142437,"current_range_meters":26400,"station_id":"ce4bgih2rcd13ifvqba0","pricing_plan_id":"free"},{"bike_id":"49520274-648c-4063-9c34-1b8d0c9dab4e","system_id":"levelo_inurba_marseille","lat":43.29469,"lon":5.38427,"is_reserved":false,"is_disabled":false,"rental_uris":{"android":"levelo://app?vid=49520274-648c-4063-9c34-1b8d0c9dab4e","ios":"levelo://app?vid=49520274-648c-4063-9c34-1b8d0c9dab4e"},"vehicle_type_id":"4","last_reported":1703142437,"current_range_meters":22800,"station_id":"","pricing_plan_id":"free"},{"bike_id":"02e0c64c-2264-400a-be03-4cd604a715a3","system_id":"levelo_inurba_marseille","lat":43.302071,"lon":5.394534,"is_reserved":false,"is_disabled":false,"rental_uris":{"android":"levelo://app?vid=02e0c64c-2264-400a-be03-4cd604a715a3","ios":"levelo://app?vid=02e0c64c-2264-400a-be03-4cd604a715a3"},"vehicle_type_id":"4","last_reported":1703142437,"current_range_meters":25200,"station_id":"ce4bh0p2rcd13ifvqd70","pricing_plan_id":"free"},{"bike_id":"7554a8b0-9317-42bc-9ce1-7e94796e99ce","system_id":"levelo_inurba_marseille","lat":43.302008,"lon":5.394694,"is_reserved":false,"is_disabled":false,"rental_uris":{"android":"levelo://app?vid=7554a8b0-9317-42bc-9ce1-7e94796e99ce","ios":"levelo://app?vid=7554a8b0-9317-42bc-9ce1-7e94796e99ce"},"vehicle_type_id":"4","last_reported":1703142437,"current_range_meters":31600,"station_id":"ce4bh0p2rcd13ifvqd70","pricing_plan_id":"free"},{"bike_id":"d97ce6f9-3e68-4005-9797-f4ab3b6b8048","system_id":"levelo_inurba_marseille","lat":43.302008,"lon":5.394694,"is_reserved":false,"is_disabled":false,"rental_uris":{"android":"levelo://app?vid=d97ce6f9-3e68-4005-9797-f4ab3b6b8048","ios":"levelo://app?vid=d97ce6f9-3e68-4005-9797-f4ab3b6b8048"},"vehicle_type_id":"4","last_reported":1703142437,"current_range_meters":6000,"station_id":"ce4bh0p2rcd13ifvqd70","pricing_plan_id":"free"},{"bike_id":"dc723a17-e049-4885-a4f7-0210efbcd13f","system_id":"levelo_inurba_marseille","lat":43.290631,"lon":5.359244,"is_reserved":false,"is_disabled":false,"rental_uris":{"android":"levelo://app?vid=dc723a17-e049-4885-a4f7-0210efbcd13f","ios":"levelo://app?vid=dc723a17-e049-4885-a4f7-0210efbcd13f"},"vehicle_type_id":"4","last_reported":1703142437,"current_range_meters":30800,"station_id":"ce4bha92rcd13ifvqeg0","pricing_plan_id":"free"},{"bike_id":"c98a9947-f07a-4eb8-a4d8-7a3a5c769111","system_id":"levelo_inurba_marseille","lat":43.294162,"lon":5.386292,"is_reserved":false,"is_disabled":false,"rental_uris":{"android":"levelo://app?vid=c98a9947-f07a-4eb8-a4d8-7a3a5c769111","ios":"levelo://app?vid=c98a9947-f07a-4eb8-a4d8-7a3a5c769111"},"vehicle_type_id":"4","last_reported":1703142437,"current_range_meters":12800,"station_id":"ce4bh2h2rcd13ifvqdh0","pricing_plan_id":"free"},{"bike_id":"f77a44fd-a612-44fd-b476-0c427731222f","system_id":"levelo_inurba_marseille","lat":43.289184,"lon":5.366408,"is_reserved":false,"is_disabled":false,"rental_uris":{"android":"levelo://app?vid=f77a44fd-a612-44fd-b476-0c427731222f","ios":"levelo://app?vid=f77a44fd-a612-44fd-b476-0c427731222f"},"vehicle_type_id":"4","last_reported":1703142437,"current_range_meters":22800,"station_id":"ce4bhap2rcd13ifvqek0","pricing_plan_id":"free"},{"bike_id":"114e348d-1115-400d-8634-52ac50c50485","system_id":"levelo_inurba_marseille","lat":43.289184,"lon":5.366408,"is_reserved":false,"is_disabled":false,"rental_uris":{"android":"levelo://app?vid=114e348d-1115-400d-8634-52ac50c50485","ios":"levelo://app?vid=114e348d-1115-400d-8634-52ac50c50485"},"vehicle_type_id":"4","last_reported":1703142437,"current_range_meters":20000,"station_id":"ce4bhap2rcd13ifvqek0","pricing_plan_id":"free"},{"bike_id":"c4d9ed5e-b519-4d1e-810c-4565a85dd5e9","system_id":"levelo_inurba_marseille","lat":43.289184,"lon":5.366408,"is_reserved":false,"is_disabled":false,"rental_uris":{"android":"levelo://app?vid=c4d9ed5e-b519-4d1e-810c-4565a85dd5e9","ios":"levelo://app?vid=c4d9ed5e-b519-4d1e-810c-4565a85dd5e9"},"vehicle_type_id":"4","last_reported":1703142437,"current_range_meters":12400,"station_id":"ce4bhap2rcd13ifvqek0","pricing_plan_id":"free"},{"bike_id":"a41b89b6-577f-44ca-8a4a-3394cdd79ea7","system_id":"levelo_inurba_marseille","lat":43.289468,"lon":5.363719,"is_reserved":false,"is_disabled":false,"rental_uris":{"android":"levelo://app?vid=a41b89b6-577f-44ca-8a4a-3394cdd79ea7","ios":"levelo://app?vid=a41b89b6-577f-44ca-8a4a-3394cdd79ea7"},"vehicle_type_id":"4","last_reported":1703142437,"current_range_meters":28800,"station_id":"ce4bhc92rcd13ifvqetg","pricing_plan_id":"free"},{"bike_id":"4484f216-7da0-4d69-9205-0dd6beb58bb5","system_id":"levelo_inurba_marseille","lat":43.290103,"lon":5.356114,"is_reserved":false,"is_disabled":false,"rental_uris":{"android":"levelo://app?vid=4484f216-7da0-4d69-9205-0dd6beb58bb5","ios":"levelo://app?vid=4484f216-7da0-4d69-9205-0dd6beb58bb5"},"vehicle_type_id":"4","last_reported":1703142437,"current_range_meters":22800,"station_id":"ce4bhb92rcd13ifvqen0","pricing_plan_id":"free"},{"bike_id":"d0d77ee4-e4b1-4c3c-a9f9-483603f9b531","system_id":"levelo_inurba_marseille","lat":43.330442,"lon":5.389148,"is_reserved":false,"is_disabled":false,"rental_uris":{"android":"levelo://app?vid=d0d77ee4-e4b1-4c3c-a9f9-483603f9b531","ios":"levelo://app?vid=d0d77ee4-e4b1-4c3c-a9f9-483603f9b531"},"vehicle_type_id":"4","last_reported":1703142437,"current_range_meters":9200,"station_id":"ce4bhr92rcd13ifvqhrg","pricing_plan_id":"free"},{"bike_id":"5b274380-174f-46b3-bfad-fafdf1223372","system_id":"levelo_inurba_marseille","lat":43.330442,"lon":5.389148,"is_reserved":false,"is_disabled":false,"rental_uris":{"android":"levelo://app?vid=5b274380-174f-46b3-bfad-fafdf1223372","ios":"levelo://app?vid=5b274380-174f-46b3-bfad-fafdf1223372"},"vehicle_type_id":"4","last_reported":1703142437,"current_range_meters":23600,"station_id":"ce4bhr92rcd13ifvqhrg","pricing_plan_id":"free"},{"bike_id":"58c4807e-f575-4d63-a790-cda27d807dc3","system_id":"levelo_inurba_marseille","lat":43.33043,"lon":5.38921,"is_reserved":false,"is_disabled":false,"rental_uris":{"android":"levelo://app?vid=58c4807e-f575-4d63-a790-cda27d807dc3","ios":"levelo://app?vid=58c4807e-f575-4d63-a790-cda27d807dc3"},"vehicle_type_id":"4","last_reported":1703142437,"current_range_meters":24800,"station_id":"ce4bhr92rcd13ifvqhrg","pricing_plan_id":"free"},{"bike_id":"03792874-86d9-468e-be10-3c6851108053","system_id":"levelo_inurba_marseille","lat":43.33044,"lon":5.38921,"is_reserved":false,"is_disabled":false,"rental_uris":{"android":"levelo://app?vid=03792874-86d9-468e-be10-3c6851108053","ios":"levelo://app?vid=03792874-86d9-468e-be10-3c6851108053"},"vehicle_type_id":"4","last_reported":1703142437,"current_range_meters":15200,"station_id":"ce4bhr92rcd13ifvqhrg","pricing_plan_id":"free"},{"bike_id":"51c9cb55-b1ab-4caa-b6c3-cf2afe06ea07","system_id":"levelo_inurba_marseille","lat":43.290104,"lon":5.356111,"is_reserved":false,"is_disabled":false,"rental_uris":{"android":"levelo://app?vid=51c9cb55-b1ab-4caa-b6c3-cf2afe06ea07","ios":"levelo://app?vid=51c9cb55-b1ab-4caa-b6c3-cf2afe06ea07"},"vehicle_type_id":"4","last_reported":1703142437,"current_range_meters":31200,"station_id":"ce4bhb92rcd13ifvqen0","pricing_plan_id":"free"},{"bike_id":"7e16783d-5f60-4b0b-9d9e-41efdccb444b","system_id":"levelo_inurba_marseille","lat":43.290995,"lon":5.381361,"is_reserved":false,"is_disabled":false,"rental_uris":{"android":"levelo://app?vid=7e16783d-5f60-4b0b-9d9e-41efdccb444b","ios":"levelo://app?vid=7e16783d-5f60-4b0b-9d9e-41efdccb444b"},"vehicle_type_id":"4","last_reported":1703142437,"current_range_meters":31600,"station_id":"ce4bh512rcd13ifvqe2g","pricing_plan_id":"free"},{"bike_id":"62a775ee-df14-4e41-a402-a760f8d31fd4","system_id":"levelo_inurba_marseille","lat":43.290995,"lon":5.381361,"is_reserved":false,"is_disabled":false,"rental_uris":{"android":"levelo://app?vid=62a775ee-df14-4e41-a402-a760f8d31fd4","ios":"levelo://app?vid=62a775ee-df14-4e41-a402-a760f8d31fd4"},"vehicle_type_id":"4","last_reported":1703142437,"current_range_meters":21600,"station_id":"ce4bh512rcd13ifvqe2g","pricing_plan_id":"free"},{"bike_id":"87fa3e59-2458-4154-a46a-21b927927fc0","system_id":"levelo_inurba_marseille","lat":43.290995,"lon":5.381361,"is_reserved":false,"is_disabled":false,"rental_uris":{"android":"levelo://app?vid=87fa3e59-2458-4154-a46a-21b927927fc0","ios":"levelo://app?vid=87fa3e59-2458-4154-a46a-21b927927fc0"},"vehicle_type_id":"4","last_reported":1703142437,"current_range_meters":25200,"station_id":"ce4bh512rcd13ifvqe2g","pricing_plan_id":"free"},{"bike_id":"4cbae4e6-ea3e-4dcb-a074-47455261d3fc","system_id":"levelo_inurba_marseille","lat":43.290995,"lon":5.381361,"is_reserved":false,"is_disabled":false,"rental_uris":{"android":"levelo://app?vid=4cbae4e6-ea3e-4dcb-a074-47455261d3fc","ios":"levelo://app?vid=4cbae4e6-ea3e-4dcb-a074-47455261d3fc"},"vehicle_type_id":"4","last_reported":1703142437,"current_range_meters":25600,"station_id":"ce4bh512rcd13ifvqe2g","pricing_plan_id":"free"},{"bike_id":"ba3cdcca-9179-41f7-80e0-fd1269d696f5","system_id":"levelo_inurba_marseille","lat":43.28989,"lon":5.37834,"is_reserved":false,"is_disabled":false,"rental_uris":{"android":"levelo://app?vid=ba3cdcca-9179-41f7-80e0-fd1269d696f5","ios":"levelo://app?vid=ba3cdcca-9179-41f7-80e0-fd1269d696f5"},"vehicle_type_id":"4","last_reported":1703142437,"current_range_meters":27600,"station_id":"ce4bh9p2rcd13ifvqed0","pricing_plan_id":"free"},{"bike_id":"cf948f58-be07-4f79-8022-19341a2961fb","system_id":"levelo_inurba_marseille","lat":43.2898,"lon":5.37835,"is_reserved":false,"is_disabled":false,"rental_uris":{"android":"levelo://app?vid=cf948f58-be07-4f79-8022-19341a2961fb","ios":"levelo://app?vid=cf948f58-be07-4f79-8022-19341a2961fb"},"vehicle_type_id":"4","last_reported":1703142437,"current_range_meters":23200,"station_id":"ce4bh9p2rcd13ifvqed0","pricing_plan_id":"free"},{"bike_id":"75f08662-e9be-4d46-84d4-a867196bc5f3","system_id":"levelo_inurba_marseille","lat":43.295169,"lon":5.390426,"is_reserved":false,"is_disabled":false,"rental_uris":{"android":"levelo://app?vid=75f08662-e9be-4d46-84d4-a867196bc5f3","ios":"levelo://app?vid=75f08662-e9be-4d46-84d4-a867196bc5f3"},"vehicle_type_id":"4","last_reported":1703142437,"current_range_meters":31600,"station_id":"ce4bh3p2rcd13ifvqdp0","pricing_plan_id":"free"},{"bike_id":"e737b24e-4ac7-4bad-8a54-41aeed5b62ef","system_id":"levelo_inurba_marseille","lat":43.295169,"lon":5.390426,"is_reserved":false,"is_disabled":false,"rental_uris":{"android":"levelo://app?vid=e737b24e-4ac7-4bad-8a54-41aeed5b62ef","ios":"levelo://app?vid=e737b24e-4ac7-4bad-8a54-41aeed5b62ef"},"vehicle_type_id":"4","last_reported":1703142437,"current_range_meters":28000,"station_id":"ce4bh3p2rcd13ifvqdp0","pricing_plan_id":"free"},{"bike_id":"67efa333-d39d-4d4c-a70b-7f357edce25d","system_id":"levelo_inurba_marseille","lat":43.288488,"lon":5.358523,"is_reserved":false,"is_disabled":false,"rental_uris":{"android":"levelo://app?vid=67efa333-d39d-4d4c-a70b-7f357edce25d","ios":"levelo://app?vid=67efa333-d39d-4d4c-a70b-7f357edce25d"},"vehicle_type_id":"4","last_reported":1703142437,"current_range_meters":24400,"station_id":"ce4bhb12rcd13ifvqem0","pricing_plan_id":"free"},{"bike_id":"db49c2a6-35de-4f23-8f40-758089f23f91","system_id":"levelo_inurba_marseille","lat":43.301117,"lon":5.398795,"is_reserved":false,"is_disabled":false,"rental_uris":{"android":"levelo://app?vid=db49c2a6-35de-4f23-8f40-758089f23f91","ios":"levelo://app?vid=db49c2a6-35de-4f23-8f40-758089f23f91"},"vehicle_type_id":"4","last_reported":1703142437,"current_range_meters":20800,"station_id":"ce4bh0h2rcd13ifvqd40","pricing_plan_id":"free"},{"bike_id":"49cd9255-05a6-472c-b1a4-a0d4ff1e81c9","system_id":"levelo_inurba_marseille","lat":43.28727,"lon":5.36078,"is_reserved":false,"is_disabled":false,"rental_uris":{"android":"levelo://app?vid=49cd9255-05a6-472c-b1a4-a0d4ff1e81c9","ios":"levelo://app?vid=49cd9255-05a6-472c-b1a4-a0d4ff1e81c9"},"vehicle_type_id":"4","last_reported":1703142437,"current_range_meters":14000,"station_id":"cki0cbj6b192h4jlfktg","pricing_plan_id":"free"},{"bike_id":"b44d00f5-284f-45ea-8d94-d8f22c00560e","system_id":"levelo_inurba_marseille","lat":43.28727,"lon":5.36078,"is_reserved":false,"is_disabled":false,"rental_uris":{"android":"levelo://app?vid=b44d00f5-284f-45ea-8d94-d8f22c00560e","ios":"levelo://app?vid=b44d00f5-284f-45ea-8d94-d8f22c00560e"},"vehicle_type_id":"4","last_reported":1703142437,"current_range_meters":31600,"station_id":"cki0cbj6b192h4jlfktg","pricing_plan_id":"free"},{"bike_id":"478682f9-5374-45db-a636-a72b07022bbc","system_id":"levelo_inurba_marseille","lat":43.28727,"lon":5.36078,"is_reserved":false,"is_disabled":false,"rental_uris":{"android":"levelo://app?vid=478682f9-5374-45db-a636-a72b07022bbc","ios":"levelo://app?vid=478682f9-5374-45db-a636-a72b07022bbc"},"vehicle_type_id":"4","last_reported":1703142437,"current_range_meters":28400,"station_id":"cki0cbj6b192h4jlfktg","pricing_plan_id":"free"},{"bike_id":"11987e27-4392-4f2a-95a3-59b193c65e3e","system_id":"levelo_inurba_marseille","lat":43.28697,"lon":5.37386,"is_reserved":false,"is_disabled":false,"rental_uris":{"android":"levelo://app?vid=11987e27-4392-4f2a-95a3-59b193c65e3e","ios":"levelo://app?vid=11987e27-4392-4f2a-95a3-59b193c65e3e"},"vehicle_type_id":"4","last_reported":1703142437,"current_range_meters":30000,"station_id":"ce4bh3p2rcd13ifvqdq0","pricing_plan_id":"free"},{"bike_id":"5bb6670f-5769-410c-9f97-7cd9c10cb073","system_id":"levelo_inurba_marseille","lat":43.29512,"lon":5.39392,"is_reserved":false,"is_disabled":false,"rental_uris":{"android":"levelo://app?vid=5bb6670f-5769-410c-9f97-7cd9c10cb073","ios":"levelo://app?vid=5bb6670f-5769-410c-9f97-7cd9c10cb073"},"vehicle_type_id":"4","last_reported":1703142437,"current_range_meters":0,"station_id":"ce4bh292rcd13ifvqdf0","pricing_plan_id":"free"},{"bike_id":"88bcb167-cd8b-41c8-a4b5-ea87d23747e2","system_id":"levelo_inurba_marseille","lat":43.290345,"lon":5.38646,"is_reserved":false,"is_disabled":false,"rental_uris":{"android":"levelo://app?vid=88bcb167-cd8b-41c8-a4b5-ea87d23747e2","ios":"levelo://app?vid=88bcb167-cd8b-41c8-a4b5-ea87d23747e2"},"vehicle_type_id":"4","last_reported":1703142437,"current_range_meters":24000,"station_id":"ce4bh4p2rcd13ifvqe0g","pricing_plan_id":"free"},{"bike_id":"8f64d522-7a38-45fb-b6e6-5b4d6337952b","system_id":"levelo_inurba_marseille","lat":43.286961,"lon":5.373785,"is_reserved":false,"is_disabled":false,"rental_uris":{"android":"levelo://app?vid=8f64d522-7a38-45fb-b6e6-5b4d6337952b","ios":"levelo://app?vid=8f64d522-7a38-45fb-b6e6-5b4d6337952b"},"vehicle_type_id":"4","last_reported":1703142437,"current_range_meters":0,"station_id":"ce4bh3p2rcd13ifvqdq0","pricing_plan_id":"free"},{"bike_id":"4f6a1435-6254-4573-b1a9-6622211cbacc","system_id":"levelo_inurba_marseille","lat":43.286039,"lon":5.370679,"is_reserved":false,"is_disabled":false,"rental_uris":{"android":"levelo://app?vid=4f6a1435-6254-4573-b1a9-6622211cbacc","ios":"levelo://app?vid=4f6a1435-6254-4573-b1a9-6622211cbacc"},"vehicle_type_id":"4","last_reported":1703142437,"current_range_meters":30400,"station_id":"ce4bht12rcd13ifvqi60","pricing_plan_id":"free"},{"bike_id":"f2683f1e-f0d4-4a5a-adc9-b6e8d4d27583","system_id":"levelo_inurba_marseille","lat":43.287184,"lon":5.37937,"is_reserved":false,"is_disabled":false,"rental_uris":{"android":"levelo://app?vid=f2683f1e-f0d4-4a5a-adc9-b6e8d4d27583","ios":"levelo://app?vid=f2683f1e-f0d4-4a5a-adc9-b6e8d4d27583"},"vehicle_type_id":"4","last_reported":1703142437,"current_range_meters":0,"station_id":"ce4bh9p2rcd13ifvqec0","pricing_plan_id":"free"},{"bike_id":"0d4a30f6-8817-457d-8f2f-c1d5db6eee97","system_id":"levelo_inurba_marseille","lat":43.287184,"lon":5.37937,"is_reserved":false,"is_disabled":false,"rental_uris":{"android":"levelo://app?vid=0d4a30f6-8817-457d-8f2f-c1d5db6eee97","ios":"levelo://app?vid=0d4a30f6-8817-457d-8f2f-c1d5db6eee97"},"vehicle_type_id":"4","last_reported":1703142437,"current_range_meters":25200,"station_id":"ce4bh9p2rcd13ifvqec0","pricing_plan_id":"free"},{"bike_id":"aae6ec5f-08ae-433d-8e4e-7b9bb7ea54d6","system_id":"levelo_inurba_marseille","lat":43.287184,"lon":5.37937,"is_reserved":false,"is_disabled":false,"rental_uris":{"android":"levelo://app?vid=aae6ec5f-08ae-433d-8e4e-7b9bb7ea54d6","ios":"levelo://app?vid=aae6ec5f-08ae-433d-8e4e-7b9bb7ea54d6"},"vehicle_type_id":"4","last_reported":1703142437,"current_range_meters":27600,"station_id":"ce4bh9p2rcd13ifvqec0","pricing_plan_id":"free"},{"bike_id":"b3230fc1-a91a-4db3-95a6-dfd9e5ca46da","system_id":"levelo_inurba_marseille","lat":43.287185,"lon":5.379373,"is_reserved":false,"is_disabled":false,"rental_uris":{"android":"levelo://app?vid=b3230fc1-a91a-4db3-95a6-dfd9e5ca46da","ios":"levelo://app?vid=b3230fc1-a91a-4db3-95a6-dfd9e5ca46da"},"vehicle_type_id":"4","last_reported":1703142437,"current_range_meters":28400,"station_id":"ce4bh9p2rcd13ifvqec0","pricing_plan_id":"free"},{"bike_id":"dd633ee8-aba8-4ee5-b295-68a7bce3698b","system_id":"levelo_inurba_marseille","lat":43.316828,"lon":5.404723,"is_reserved":false,"is_disabled":false,"rental_uris":{"android":"levelo://app?vid=dd633ee8-aba8-4ee5-b295-68a7bce3698b","ios":"levelo://app?vid=dd633ee8-aba8-4ee5-b295-68a7bce3698b"},"vehicle_type_id":"4","last_reported":1703142437,"current_range_meters":30400,"station_id":"ce4bh012rcd13ifvqd00","pricing_plan_id":"free"},{"bike_id":"dde20ba3-a3b2-46c7-b125-101cdef825b6","system_id":"levelo_inurba_marseille","lat":43.291994,"lon":5.392907,"is_reserved":false,"is_disabled":false,"rental_uris":{"android":"levelo://app?vid=dde20ba3-a3b2-46c7-b125-101cdef825b6","ios":"levelo://app?vid=dde20ba3-a3b2-46c7-b125-101cdef825b6"},"vehicle_type_id":"4","last_reported":1703142437,"current_range_meters":28800,"station_id":"ce4bh192rcd13ifvqdd0","pricing_plan_id":"free"},{"bike_id":"923fcf85-a778-41ab-bcdb-189220ada388","system_id":"levelo_inurba_marseille","lat":43.291994,"lon":5.392907,"is_reserved":false,"is_disabled":false,"rental_uris":{"android":"levelo://app?vid=923fcf85-a778-41ab-bcdb-189220ada388","ios":"levelo://app?vid=923fcf85-a778-41ab-bcdb-189220ada388"},"vehicle_type_id":"4","last_reported":1703142437,"current_range_meters":16800,"station_id":"ce4bh192rcd13ifvqdd0","pricing_plan_id":"free"},{"bike_id":"c7a981e8-fa49-4d11-b0eb-adebed57e464","system_id":"levelo_inurba_marseille","lat":43.291994,"lon":5.392907,"is_reserved":false,"is_disabled":false,"rental_uris":{"android":"levelo://app?vid=c7a981e8-fa49-4d11-b0eb-adebed57e464","ios":"levelo://app?vid=c7a981e8-fa49-4d11-b0eb-adebed57e464"},"vehicle_type_id":"4","last_reported":1703142437,"current_range_meters":24000,"station_id":"ce4bh192rcd13ifvqdd0","pricing_plan_id":"free"},{"bike_id":"deb03d56-a258-4061-ade4-4c6def17ebc6","system_id":"levelo_inurba_marseille","lat":43.284621,"lon":5.358868,"is_reserved":false,"is_disabled":false,"rental_uris":{"android":"levelo://app?vid=deb03d56-a258-4061-ade4-4c6def17ebc6","ios":"levelo://app?vid=deb03d56-a258-4061-ade4-4c6def17ebc6"},"vehicle_type_id":"4","last_reported":1703142437,"current_range_meters":21200,"station_id":"ce4bhah2rcd13ifvqei0","pricing_plan_id":"free"},{"bike_id":"023a9cc1-fb44-48aa-b8a5-091714b8daf4","system_id":"levelo_inurba_marseille","lat":43.2846,"lon":5.358938,"is_reserved":false,"is_disabled":false,"rental_uris":{"android":"levelo://app?vid=023a9cc1-fb44-48aa-b8a5-091714b8daf4","ios":"levelo://app?vid=023a9cc1-fb44-48aa-b8a5-091714b8daf4"},"vehicle_type_id":"4","last_reported":1703142437,"current_range_meters":27200,"station_id":"ce4bhah2rcd13ifvqei0","pricing_plan_id":"free"},{"bike_id":"89216e79-3cbd-4003-990b-c120bbe8ba20","system_id":"levelo_inurba_marseille","lat":43.2846,"lon":5.35887,"is_reserved":false,"is_disabled":false,"rental_uris":{"android":"levelo://app?vid=89216e79-3cbd-4003-990b-c120bbe8ba20","ios":"levelo://app?vid=89216e79-3cbd-4003-990b-c120bbe8ba20"},"vehicle_type_id":"4","last_reported":1703142437,"current_range_meters":20800,"station_id":"ce4bhah2rcd13ifvqei0","pricing_plan_id":"free"},{"bike_id":"a9d595c3-6bdf-4999-88b4-7eeac5ab5e34","system_id":"levelo_inurba_marseille","lat":43.284586,"lon":5.358906,"is_reserved":false,"is_disabled":false,"rental_uris":{"android":"levelo://app?vid=a9d595c3-6bdf-4999-88b4-7eeac5ab5e34","ios":"levelo://app?vid=a9d595c3-6bdf-4999-88b4-7eeac5ab5e34"},"vehicle_type_id":"4","last_reported":1703142437,"current_range_meters":20400,"station_id":"ce4bhah2rcd13ifvqei0","pricing_plan_id":"free"},{"bike_id":"da675144-b359-48f7-8a9a-3ab2ae1f483f","system_id":"levelo_inurba_marseille","lat":43.285856,"lon":5.350771,"is_reserved":false,"is_disabled":false,"rental_uris":{"android":"levelo://app?vid=da675144-b359-48f7-8a9a-3ab2ae1f483f","ios":"levelo://app?vid=da675144-b359-48f7-8a9a-3ab2ae1f483f"},"vehicle_type_id":"4","last_reported":1703142437,"current_range_meters":28400,"station_id":"ce4bhch2rcd13ifvqeug","pricing_plan_id":"free"},{"bike_id":"3607bbd7-8c28-40d5-ab33-27f97d60d555","system_id":"levelo_inurba_marseille","lat":43.285856,"lon":5.350771,"is_reserved":false,"is_disabled":false,"rental_uris":{"android":"levelo://app?vid=3607bbd7-8c28-40d5-ab33-27f97d60d555","ios":"levelo://app?vid=3607bbd7-8c28-40d5-ab33-27f97d60d555"},"vehicle_type_id":"4","last_reported":1703142437,"current_range_meters":30800,"station_id":"ce4bhch2rcd13ifvqeug","pricing_plan_id":"free"},{"bike_id":"4005d67c-e580-47a4-893b-53bd0a817d88","system_id":"levelo_inurba_marseille","lat":43.285856,"lon":5.350771,"is_reserved":false,"is_disabled":false,"rental_uris":{"android":"levelo://app?vid=4005d67c-e580-47a4-893b-53bd0a817d88","ios":"levelo://app?vid=4005d67c-e580-47a4-893b-53bd0a817d88"},"vehicle_type_id":"4","last_reported":1703142437,"current_range_meters":10800,"station_id":"ce4bhch2rcd13ifvqeug","pricing_plan_id":"free"},{"bike_id":"90e17026-c37f-4ef4-babb-07650fc610cc","system_id":"levelo_inurba_marseille","lat":43.294314,"lon":5.397498,"is_reserved":false,"is_disabled":false,"rental_uris":{"android":"levelo://app?vid=90e17026-c37f-4ef4-babb-07650fc610cc","ios":"levelo://app?vid=90e17026-c37f-4ef4-babb-07650fc610cc"},"vehicle_type_id":"4","last_reported":1703142437,"current_range_meters":18800,"station_id":"ce4bh3h2rcd13ifvqdo0","pricing_plan_id":"free"},{"bike_id":"3c11c3ff-bd23-4022-b460-12d8f98902bc","system_id":"levelo_inurba_marseille","lat":43.283998,"lon":5.375062,"is_reserved":false,"is_disabled":false,"rental_uris":{"android":"levelo://app?vid=3c11c3ff-bd23-4022-b460-12d8f98902bc","ios":"levelo://app?vid=3c11c3ff-bd23-4022-b460-12d8f98902bc"},"vehicle_type_id":"4","last_reported":1703142437,"current_range_meters":22800,"station_id":"ce4bh412rcd13ifvqds0","pricing_plan_id":"free"},{"bike_id":"42bb30fd-d755-43bc-b885-627d3029e55b","system_id":"levelo_inurba_marseille","lat":43.283998,"lon":5.375062,"is_reserved":false,"is_disabled":false,"rental_uris":{"android":"levelo://app?vid=42bb30fd-d755-43bc-b885-627d3029e55b","ios":"levelo://app?vid=42bb30fd-d755-43bc-b885-627d3029e55b"},"vehicle_type_id":"4","last_reported":1703142437,"current_range_meters":23200,"station_id":"ce4bh412rcd13ifvqds0","pricing_plan_id":"free"},{"bike_id":"158b680f-76f1-4e3e-9785-cfb4e49a7f96","system_id":"levelo_inurba_marseille","lat":43.286961,"lon":5.373785,"is_reserved":false,"is_disabled":false,"rental_uris":{"android":"levelo://app?vid=158b680f-76f1-4e3e-9785-cfb4e49a7f96","ios":"levelo://app?vid=158b680f-76f1-4e3e-9785-cfb4e49a7f96"},"vehicle_type_id":"4","last_reported":1703142437,"current_range_meters":30400,"station_id":"ce4bh3p2rcd13ifvqdq0","pricing_plan_id":"free"},{"bike_id":"8538e6dd-dbef-4a5a-a119-9a857fd021ad","system_id":"levelo_inurba_marseille","lat":43.33218,"lon":5.397067,"is_reserved":false,"is_disabled":false,"rental_uris":{"android":"levelo://app?vid=8538e6dd-dbef-4a5a-a119-9a857fd021ad","ios":"levelo://app?vid=8538e6dd-dbef-4a5a-a119-9a857fd021ad"},"vehicle_type_id":"4","last_reported":1703142437,"current_range_meters":0,"station_id":"","pricing_plan_id":"free"},{"bike_id":"afffeb61-7be1-48bd-835f-02f64b87104d","system_id":"levelo_inurba_marseille","lat":43.319179,"lon":5.407725,"is_reserved":false,"is_disabled":false,"rental_uris":{"android":"levelo://app?vid=afffeb61-7be1-48bd-835f-02f64b87104d","ios":"levelo://app?vid=afffeb61-7be1-48bd-835f-02f64b87104d"},"vehicle_type_id":"4","last_reported":1703142437,"current_range_meters":800,"station_id":"ce4bhq12rcd13ifvqhig","pricing_plan_id":"free"},{"bike_id":"0e6bbc92-cec6-497f-ad89-d75d7e889db3","system_id":"levelo_inurba_marseille","lat":43.33717,"lon":5.391857,"is_reserved":false,"is_disabled":false,"rental_uris":{"android":"levelo://app?vid=0e6bbc92-cec6-497f-ad89-d75d7e889db3","ios":"levelo://app?vid=0e6bbc92-cec6-497f-ad89-d75d7e889db3"},"vehicle_type_id":"4","last_reported":1703142437,"current_range_meters":31200,"station_id":"ce4bhr92rcd13ifvqhsg","pricing_plan_id":"free"},{"bike_id":"0f42eedd-bd33-445f-91fc-4e7504a96eb4","system_id":"levelo_inurba_marseille","lat":43.32342,"lon":5.40628,"is_reserved":false,"is_disabled":false,"rental_uris":{"android":"levelo://app?vid=0f42eedd-bd33-445f-91fc-4e7504a96eb4","ios":"levelo://app?vid=0f42eedd-bd33-445f-91fc-4e7504a96eb4"},"vehicle_type_id":"4","last_reported":1703142437,"current_range_meters":18400,"station_id":"ce4bhq92rcd13ifvqhjg","pricing_plan_id":"free"},{"bike_id":"14c7bd51-e497-4cd8-ab1c-0691abc59124","system_id":"levelo_inurba_marseille","lat":43.284793,"lon":5.384113,"is_reserved":false,"is_disabled":false,"rental_uris":{"android":"levelo://app?vid=14c7bd51-e497-4cd8-ab1c-0691abc59124","ios":"levelo://app?vid=14c7bd51-e497-4cd8-ab1c-0691abc59124"},"vehicle_type_id":"4","last_reported":1703142437,"current_range_meters":18000,"station_id":"ce4bh512rcd13ifvqe3g","pricing_plan_id":"free"},{"bike_id":"31c12f1f-4cd4-447b-b9f7-a1fddfc74479","system_id":"levelo_inurba_marseille","lat":43.284793,"lon":5.384113,"is_reserved":false,"is_disabled":false,"rental_uris":{"android":"levelo://app?vid=31c12f1f-4cd4-447b-b9f7-a1fddfc74479","ios":"levelo://app?vid=31c12f1f-4cd4-447b-b9f7-a1fddfc74479"},"vehicle_type_id":"4","last_reported":1703142437,"current_range_meters":28400,"station_id":"ce4bh512rcd13ifvqe3g","pricing_plan_id":"free"},{"bike_id":"1fab817a-1cc7-476f-b40d-d84085ae3317","system_id":"levelo_inurba_marseille","lat":43.288501,"lon":5.393087,"is_reserved":false,"is_disabled":false,"rental_uris":{"android":"levelo://app?vid=1fab817a-1cc7-476f-b40d-d84085ae3317","ios":"levelo://app?vid=1fab817a-1cc7-476f-b40d-d84085ae3317"},"vehicle_type_id":"4","last_reported":1703142437,"current_range_meters":24800,"station_id":"ce4bh2p2rcd13ifvqdi0","pricing_plan_id":"free"},{"bike_id":"a12e4f41-4b52-4cfd-97bc-4c4bb5e751ed","system_id":"levelo_inurba_marseille","lat":43.288501,"lon":5.393087,"is_reserved":false,"is_disabled":false,"rental_uris":{"android":"levelo://app?vid=a12e4f41-4b52-4cfd-97bc-4c4bb5e751ed","ios":"levelo://app?vid=a12e4f41-4b52-4cfd-97bc-4c4bb5e751ed"},"vehicle_type_id":"4","last_reported":1703142437,"current_range_meters":26800,"station_id":"ce4bh2p2rcd13ifvqdi0","pricing_plan_id":"free"},{"bike_id":"86b32dac-9149-456f-9817-37f67be90fb2","system_id":"levelo_inurba_marseille","lat":43.283494,"lon":5.380945,"is_reserved":false,"is_disabled":false,"rental_uris":{"android":"levelo://app?vid=86b32dac-9149-456f-9817-37f67be90fb2","ios":"levelo://app?vid=86b32dac-9149-456f-9817-37f67be90fb2"},"vehicle_type_id":"4","last_reported":1703142437,"current_range_meters":28400,"station_id":"ce4bh412rcd13ifvqdr0","pricing_plan_id":"free"},{"bike_id":"1e0dcd0d-1cc6-4614-9189-372e8ee1cc97","system_id":"levelo_inurba_marseille","lat":43.283494,"lon":5.380945,"is_reserved":false,"is_disabled":false,"rental_uris":{"android":"levelo://app?vid=1e0dcd0d-1cc6-4614-9189-372e8ee1cc97","ios":"levelo://app?vid=1e0dcd0d-1cc6-4614-9189-372e8ee1cc97"},"vehicle_type_id":"4","last_reported":1703142437,"current_range_meters":14400,"station_id":"ce4bh412rcd13ifvqdr0","pricing_plan_id":"free"},{"bike_id":"25acf729-0c15-45f0-8053-2c35b0919b50","system_id":"levelo_inurba_marseille","lat":43.284219,"lon":5.3497,"is_reserved":false,"is_disabled":false,"rental_uris":{"android":"levelo://app?vid=25acf729-0c15-45f0-8053-2c35b0919b50","ios":"levelo://app?vid=25acf729-0c15-45f0-8053-2c35b0919b50"},"vehicle_type_id":"4","last_reported":1703142437,"current_range_meters":28800,"station_id":"ce4bhbh2rcd13ifvqepg","pricing_plan_id":"free"},{"bike_id":"99c0c118-61e8-4cea-80ff-9be3c4ac7cf7","system_id":"levelo_inurba_marseille","lat":43.284219,"lon":5.3497,"is_reserved":false,"is_disabled":false,"rental_uris":{"android":"levelo://app?vid=99c0c118-61e8-4cea-80ff-9be3c4ac7cf7","ios":"levelo://app?vid=99c0c118-61e8-4cea-80ff-9be3c4ac7cf7"},"vehicle_type_id":"4","last_reported":1703142437,"current_range_meters":26400,"station_id":"ce4bhbh2rcd13ifvqepg","pricing_plan_id":"free"},{"bike_id":"5ffab216-92f9-478c-a9f0-e415d36eb89c","system_id":"levelo_inurba_marseille","lat":43.284217,"lon":5.349697,"is_reserved":false,"is_disabled":false,"rental_uris":{"android":"levelo://app?vid=5ffab216-92f9-478c-a9f0-e415d36eb89c","ios":"levelo://app?vid=5ffab216-92f9-478c-a9f0-e415d36eb89c"},"vehicle_type_id":"4","last_reported":1703142437,"current_range_meters":28800,"station_id":"ce4bhbh2rcd13ifvqepg","pricing_plan_id":"free"},{"bike_id":"5e3666e1-86ec-4715-881e-97fbe8493bb9","system_id":"levelo_inurba_marseille","lat":43.284217,"lon":5.349697,"is_reserved":false,"is_disabled":false,"rental_uris":{"android":"levelo://app?vid=5e3666e1-86ec-4715-881e-97fbe8493bb9","ios":"levelo://app?vid=5e3666e1-86ec-4715-881e-97fbe8493bb9"},"vehicle_type_id":"4","last_reported":1703142437,"current_range_meters":31600,"station_id":"ce4bhbh2rcd13ifvqepg","pricing_plan_id":"free"},{"bike_id":"b20f92a2-3c96-49ba-89c0-763dc511f158","system_id":"levelo_inurba_marseille","lat":43.284219,"lon":5.3497,"is_reserved":false,"is_disabled":false,"rental_uris":{"android":"levelo://app?vid=b20f92a2-3c96-49ba-89c0-763dc511f158","ios":"levelo://app?vid=b20f92a2-3c96-49ba-89c0-763dc511f158"},"vehicle_type_id":"4","last_reported":1703142437,"current_range_meters":26000,"station_id":"ce4bhbh2rcd13ifvqepg","pricing_plan_id":"free"},{"bike_id":"7b18b4b6-7c32-4772-b1bd-953b00e318fb","system_id":"levelo_inurba_marseille","lat":43.283498,"lon":5.380948,"is_reserved":false,"is_disabled":false,"rental_uris":{"android":"levelo://app?vid=7b18b4b6-7c32-4772-b1bd-953b00e318fb","ios":"levelo://app?vid=7b18b4b6-7c32-4772-b1bd-953b00e318fb"},"vehicle_type_id":"4","last_reported":1703142437,"current_range_meters":29200,"station_id":"ce4bh412rcd13ifvqdr0","pricing_plan_id":"free"},{"bike_id":"e68ad7a3-9f73-42da-8e90-59adcc6ccfbd","system_id":"levelo_inurba_marseille","lat":43.284219,"lon":5.3497,"is_reserved":false,"is_disabled":false,"rental_uris":{"android":"levelo://app?vid=e68ad7a3-9f73-42da-8e90-59adcc6ccfbd","ios":"levelo://app?vid=e68ad7a3-9f73-42da-8e90-59adcc6ccfbd"},"vehicle_type_id":"4","last_reported":1703142437,"current_range_meters":30400,"station_id":"ce4bhbh2rcd13ifvqepg","pricing_plan_id":"free"},{"bike_id":"30b41aed-b375-4cfa-b849-c47f4e650fc0","system_id":"levelo_inurba_marseille","lat":43.282048,"lon":5.358722,"is_reserved":false,"is_disabled":false,"rental_uris":{"android":"levelo://app?vid=30b41aed-b375-4cfa-b849-c47f4e650fc0","ios":"levelo://app?vid=30b41aed-b375-4cfa-b849-c47f4e650fc0"},"vehicle_type_id":"4","last_reported":1703142437,"current_range_meters":3600,"station_id":"","pricing_plan_id":"free"},{"bike_id":"8e3a3470-26eb-4b53-9b8c-fabf17b15ec6","system_id":"levelo_inurba_marseille","lat":43.284103,"lon":5.385444,"is_reserved":false,"is_disabled":false,"rental_uris":{"android":"levelo://app?vid=8e3a3470-26eb-4b53-9b8c-fabf17b15ec6","ios":"levelo://app?vid=8e3a3470-26eb-4b53-9b8c-fabf17b15ec6"},"vehicle_type_id":"4","last_reported":1703142437,"current_range_meters":24800,"station_id":"","pricing_plan_id":"free"},{"bike_id":"458fb703-3abe-4278-9d1f-b088c25bad8b","system_id":"levelo_inurba_marseille","lat":43.282744,"lon":5.350533,"is_reserved":false,"is_disabled":false,"rental_uris":{"android":"levelo://app?vid=458fb703-3abe-4278-9d1f-b088c25bad8b","ios":"levelo://app?vid=458fb703-3abe-4278-9d1f-b088c25bad8b"},"vehicle_type_id":"4","last_reported":1703142437,"current_range_meters":31200,"station_id":"ce4bhbp2rcd13ifvqerg","pricing_plan_id":"free"},{"bike_id":"34796012-b5cd-4b48-bac8-15b1c9a70b33","system_id":"levelo_inurba_marseille","lat":43.282754,"lon":5.350519,"is_reserved":false,"is_disabled":false,"rental_uris":{"android":"levelo://app?vid=34796012-b5cd-4b48-bac8-15b1c9a70b33","ios":"levelo://app?vid=34796012-b5cd-4b48-bac8-15b1c9a70b33"},"vehicle_type_id":"4","last_reported":1703142437,"current_range_meters":31600,"station_id":"ce4bhbp2rcd13ifvqerg","pricing_plan_id":"free"},{"bike_id":"02a37e17-75e3-4f53-8ff7-581c6e76ab6c","system_id":"levelo_inurba_marseille","lat":43.282754,"lon":5.350519,"is_reserved":false,"is_disabled":false,"rental_uris":{"android":"levelo://app?vid=02a37e17-75e3-4f53-8ff7-581c6e76ab6c","ios":"levelo://app?vid=02a37e17-75e3-4f53-8ff7-581c6e76ab6c"},"vehicle_type_id":"4","last_reported":1703142437,"current_range_meters":22400,"station_id":"ce4bhbp2rcd13ifvqerg","pricing_plan_id":"free"},{"bike_id":"1b0b0103-b027-4fea-8c72-9151d5babca5","system_id":"levelo_inurba_marseille","lat":43.282744,"lon":5.350533,"is_reserved":false,"is_disabled":false,"rental_uris":{"android":"levelo://app?vid=1b0b0103-b027-4fea-8c72-9151d5babca5","ios":"levelo://app?vid=1b0b0103-b027-4fea-8c72-9151d5babca5"},"vehicle_type_id":"4","last_reported":1703142437,"current_range_meters":16000,"station_id":"ce4bhbp2rcd13ifvqerg","pricing_plan_id":"free"},{"bike_id":"99a195cc-3976-4777-962f-9b9c6b4f9e4d","system_id":"levelo_inurba_marseille","lat":43.282754,"lon":5.350519,"is_reserved":false,"is_disabled":false,"rental_uris":{"android":"levelo://app?vid=99a195cc-3976-4777-962f-9b9c6b4f9e4d","ios":"levelo://app?vid=99a195cc-3976-4777-962f-9b9c6b4f9e4d"},"vehicle_type_id":"4","last_reported":1703142437,"current_range_meters":31600,"station_id":"ce4bhbp2rcd13ifvqerg","pricing_plan_id":"free"},{"bike_id":"df2f0a47-76c1-4ab4-85a8-705d1260755c","system_id":"levelo_inurba_marseille","lat":43.283502,"lon":5.386471,"is_reserved":false,"is_disabled":false,"rental_uris":{"android":"levelo://app?vid=df2f0a47-76c1-4ab4-85a8-705d1260755c","ios":"levelo://app?vid=df2f0a47-76c1-4ab4-85a8-705d1260755c"},"vehicle_type_id":"4","last_reported":1703142437,"current_range_meters":19200,"station_id":"ce4bh492rcd13ifvqdvg","pricing_plan_id":"free"},{"bike_id":"256812c3-c76e-4fef-9fc9-2827a4cf5778","system_id":"levelo_inurba_marseille","lat":43.290473,"lon":5.399636,"is_reserved":false,"is_disabled":false,"rental_uris":{"android":"levelo://app?vid=256812c3-c76e-4fef-9fc9-2827a4cf5778","ios":"levelo://app?vid=256812c3-c76e-4fef-9fc9-2827a4cf5778"},"vehicle_type_id":"4","last_reported":1703142437,"current_range_meters":31200,"station_id":"ce4bh392rcd13ifvqdm0","pricing_plan_id":"free"},{"bike_id":"1c6a1888-a4ab-490b-91d8-0a2068bd7495","system_id":"levelo_inurba_marseille","lat":43.29041,"lon":5.399634,"is_reserved":false,"is_disabled":false,"rental_uris":{"android":"levelo://app?vid=1c6a1888-a4ab-490b-91d8-0a2068bd7495","ios":"levelo://app?vid=1c6a1888-a4ab-490b-91d8-0a2068bd7495"},"vehicle_type_id":"4","last_reported":1703142437,"current_range_meters":7200,"station_id":"ce4bh392rcd13ifvqdm0","pricing_plan_id":"free"},{"bike_id":"54f5f3b6-40b5-4ce7-a864-5f550023cebd","system_id":"levelo_inurba_marseille","lat":43.281044,"lon":5.378308,"is_reserved":false,"is_disabled":false,"rental_uris":{"android":"levelo://app?vid=54f5f3b6-40b5-4ce7-a864-5f550023cebd","ios":"levelo://app?vid=54f5f3b6-40b5-4ce7-a864-5f550023cebd"},"vehicle_type_id":"4","last_reported":1703142437,"current_range_meters":13600,"station_id":"ce4bha12rcd13ifvqee0","pricing_plan_id":"free"},{"bike_id":"52487075-3872-4fcb-beb3-f2a721a87c4e","system_id":"levelo_inurba_marseille","lat":43.282315,"lon":5.385995,"is_reserved":false,"is_disabled":false,"rental_uris":{"android":"levelo://app?vid=52487075-3872-4fcb-beb3-f2a721a87c4e","ios":"levelo://app?vid=52487075-3872-4fcb-beb3-f2a721a87c4e"},"vehicle_type_id":"4","last_reported":1703142437,"current_range_meters":30000,"station_id":"","pricing_plan_id":"free"},{"bike_id":"813b2ecc-d888-462e-8b1c-e830313e6de5","system_id":"levelo_inurba_marseille","lat":43.285742,"lon":5.395004,"is_reserved":false,"is_disabled":false,"rental_uris":{"android":"levelo://app?vid=813b2ecc-d888-462e-8b1c-e830313e6de5","ios":"levelo://app?vid=813b2ecc-d888-462e-8b1c-e830313e6de5"},"vehicle_type_id":"4","last_reported":1703142437,"current_range_meters":25200,"station_id":"ce4bh292rcd13ifvqdg0","pricing_plan_id":"free"},{"bike_id":"a65bc548-b9cd-4a09-99de-6a7cf1b6ce3e","system_id":"levelo_inurba_marseille","lat":43.304188,"lon":5.412904,"is_reserved":false,"is_disabled":false,"rental_uris":{"android":"levelo://app?vid=a65bc548-b9cd-4a09-99de-6a7cf1b6ce3e","ios":"levelo://app?vid=a65bc548-b9cd-4a09-99de-6a7cf1b6ce3e"},"vehicle_type_id":"4","last_reported":1703142437,"current_range_meters":19600,"station_id":"ce4bhop2rcd13ifvqh8g","pricing_plan_id":"free"},{"bike_id":"b273a386-d7a2-4d92-bf22-79fa7823766f","system_id":"levelo_inurba_marseille","lat":43.304188,"lon":5.412904,"is_reserved":false,"is_disabled":false,"rental_uris":{"android":"levelo://app?vid=b273a386-d7a2-4d92-bf22-79fa7823766f","ios":"levelo://app?vid=b273a386-d7a2-4d92-bf22-79fa7823766f"},"vehicle_type_id":"4","last_reported":1703142437,"current_range_meters":12800,"station_id":"ce4bhop2rcd13ifvqh8g","pricing_plan_id":"free"},{"bike_id":"c9ccc1b6-eff8-41ad-b5b1-88555cb07424","system_id":"levelo_inurba_marseille","lat":43.304188,"lon":5.412904,"is_reserved":false,"is_disabled":false,"rental_uris":{"android":"levelo://app?vid=c9ccc1b6-eff8-41ad-b5b1-88555cb07424","ios":"levelo://app?vid=c9ccc1b6-eff8-41ad-b5b1-88555cb07424"},"vehicle_type_id":"4","last_reported":1703142437,"current_range_meters":9600,"station_id":"ce4bhop2rcd13ifvqh8g","pricing_plan_id":"free"},{"bike_id":"1d1555b5-648a-49b4-90c5-eeac61d8c337","system_id":"levelo_inurba_marseille","lat":43.304188,"lon":5.412904,"is_reserved":false,"is_disabled":false,"rental_uris":{"android":"levelo://app?vid=1d1555b5-648a-49b4-90c5-eeac61d8c337","ios":"levelo://app?vid=1d1555b5-648a-49b4-90c5-eeac61d8c337"},"vehicle_type_id":"4","last_reported":1703142437,"current_range_meters":6400,"station_id":"ce4bhop2rcd13ifvqh8g","pricing_plan_id":"free"},{"bike_id":"2a5cd02d-c677-406b-ad35-528e2719fc98","system_id":"levelo_inurba_marseille","lat":43.304188,"lon":5.412904,"is_reserved":false,"is_disabled":false,"rental_uris":{"android":"levelo://app?vid=2a5cd02d-c677-406b-ad35-528e2719fc98","ios":"levelo://app?vid=2a5cd02d-c677-406b-ad35-528e2719fc98"},"vehicle_type_id":"4","last_reported":1703142437,"current_range_meters":4400,"station_id":"ce4bhop2rcd13ifvqh8g","pricing_plan_id":"free"},{"bike_id":"b85df6e5-946f-4ca9-b02b-bc3a9e578ef6","system_id":"levelo_inurba_marseille","lat":43.304188,"lon":5.412904,"is_reserved":false,"is_disabled":false,"rental_uris":{"android":"levelo://app?vid=b85df6e5-946f-4ca9-b02b-bc3a9e578ef6","ios":"levelo://app?vid=b85df6e5-946f-4ca9-b02b-bc3a9e578ef6"},"vehicle_type_id":"4","last_reported":1703142437,"current_range_meters":31600,"station_id":"ce4bhop2rcd13ifvqh8g","pricing_plan_id":"free"},{"bike_id":"43e5f732-0f3e-4e65-b171-c12232045b42","system_id":"levelo_inurba_marseille","lat":43.27807,"lon":5.37459,"is_reserved":false,"is_disabled":false,"rental_uris":{"android":"levelo://app?vid=43e5f732-0f3e-4e65-b171-c12232045b42","ios":"levelo://app?vid=43e5f732-0f3e-4e65-b171-c12232045b42"},"vehicle_type_id":"4","last_reported":1703142437,"current_range_meters":4800,"station_id":"","pricing_plan_id":"free"},{"bike_id":"cb0668d4-d46c-4efe-a7e0-185ebe495ab4","system_id":"levelo_inurba_marseille","lat":43.280547,"lon":5.38923,"is_reserved":false,"is_disabled":false,"rental_uris":{"android":"levelo://app?vid=cb0668d4-d46c-4efe-a7e0-185ebe495ab4","ios":"levelo://app?vid=cb0668d4-d46c-4efe-a7e0-185ebe495ab4"},"vehicle_type_id":"4","last_reported":1703142437,"current_range_meters":4000,"station_id":"","pricing_plan_id":"free"},{"bike_id":"22661ff5-1144-4fd4-9b6d-b8581c2a8a19","system_id":"levelo_inurba_marseille","lat":43.320045,"lon":5.415046,"is_reserved":false,"is_disabled":false,"rental_uris":{"android":"levelo://app?vid=22661ff5-1144-4fd4-9b6d-b8581c2a8a19","ios":"levelo://app?vid=22661ff5-1144-4fd4-9b6d-b8581c2a8a19"},"vehicle_type_id":"4","last_reported":1703142437,"current_range_meters":800,"station_id":"ce4bhq92rcd13ifvqhkg","pricing_plan_id":"free"},{"bike_id":"e83e3de5-7773-4caf-a0bf-afdd13696851","system_id":"levelo_inurba_marseille","lat":43.279554,"lon":5.387079,"is_reserved":false,"is_disabled":false,"rental_uris":{"android":"levelo://app?vid=e83e3de5-7773-4caf-a0bf-afdd13696851","ios":"levelo://app?vid=e83e3de5-7773-4caf-a0bf-afdd13696851"},"vehicle_type_id":"4","last_reported":1703142437,"current_range_meters":29200,"station_id":"ce4bhg12rcd13ifvqf80","pricing_plan_id":"free"},{"bike_id":"bbfa7862-ad7b-4daf-90d7-d0e1affb562a","system_id":"levelo_inurba_marseille","lat":43.292536,"lon":5.408948,"is_reserved":false,"is_disabled":false,"rental_uris":{"android":"levelo://app?vid=bbfa7862-ad7b-4daf-90d7-d0e1affb562a","ios":"levelo://app?vid=bbfa7862-ad7b-4daf-90d7-d0e1affb562a"},"vehicle_type_id":"4","last_reported":1703142437,"current_range_meters":20000,"station_id":"ce4bh192rcd13ifvqdc0","pricing_plan_id":"free"},{"bike_id":"dd3f7296-dcf2-486c-8d30-ce1834e50ab4","system_id":"levelo_inurba_marseille","lat":43.325243,"lon":5.414326,"is_reserved":false,"is_disabled":false,"rental_uris":{"android":"levelo://app?vid=dd3f7296-dcf2-486c-8d30-ce1834e50ab4","ios":"levelo://app?vid=dd3f7296-dcf2-486c-8d30-ce1834e50ab4"},"vehicle_type_id":"4","last_reported":1703142437,"current_range_meters":30000,"station_id":"ce4bhq12rcd13ifvqhhg","pricing_plan_id":"free"},{"bike_id":"3b790341-8195-4677-92bf-bf82f3656bab","system_id":"levelo_inurba_marseille","lat":43.325243,"lon":5.414326,"is_reserved":false,"is_disabled":false,"rental_uris":{"android":"levelo://app?vid=3b790341-8195-4677-92bf-bf82f3656bab","ios":"levelo://app?vid=3b790341-8195-4677-92bf-bf82f3656bab"},"vehicle_type_id":"4","last_reported":1703142437,"current_range_meters":20000,"station_id":"ce4bhq12rcd13ifvqhhg","pricing_plan_id":"free"},{"bike_id":"a8944a01-8e1f-4c5f-83d4-17720c59dec5","system_id":"levelo_inurba_marseille","lat":43.275617,"lon":5.384234,"is_reserved":false,"is_disabled":false,"rental_uris":{"android":"levelo://app?vid=a8944a01-8e1f-4c5f-83d4-17720c59dec5","ios":"levelo://app?vid=a8944a01-8e1f-4c5f-83d4-17720c59dec5"},"vehicle_type_id":"4","last_reported":1703142437,"current_range_meters":20800,"station_id":"ce4bhh92rcd13ifvqfi0","pricing_plan_id":"free"},{"bike_id":"4a0911b4-ebce-4462-b949-8a4ad3514d45","system_id":"levelo_inurba_marseille","lat":43.336134,"lon":5.410341,"is_reserved":false,"is_disabled":false,"rental_uris":{"android":"levelo://app?vid=4a0911b4-ebce-4462-b949-8a4ad3514d45","ios":"levelo://app?vid=4a0911b4-ebce-4462-b949-8a4ad3514d45"},"vehicle_type_id":"4","last_reported":1703142437,"current_range_meters":31600,"station_id":"ce4bhqh2rcd13ifvqhmg","pricing_plan_id":"free"},{"bike_id":"ee7a0418-04f7-4e7c-b558-70012784b566","system_id":"levelo_inurba_marseille","lat":43.336134,"lon":5.410341,"is_reserved":false,"is_disabled":false,"rental_uris":{"android":"levelo://app?vid=ee7a0418-04f7-4e7c-b558-70012784b566","ios":"levelo://app?vid=ee7a0418-04f7-4e7c-b558-70012784b566"},"vehicle_type_id":"4","last_reported":1703142437,"current_range_meters":11200,"station_id":"ce4bhqh2rcd13ifvqhmg","pricing_plan_id":"free"},{"bike_id":"1d5f52f5-64ec-4c95-844c-8cddc4bd072a","system_id":"levelo_inurba_marseille","lat":43.275625,"lon":5.384392,"is_reserved":false,"is_disabled":false,"rental_uris":{"android":"levelo://app?vid=1d5f52f5-64ec-4c95-844c-8cddc4bd072a","ios":"levelo://app?vid=1d5f52f5-64ec-4c95-844c-8cddc4bd072a"},"vehicle_type_id":"4","last_reported":1703142437,"current_range_meters":6800,"station_id":"ce4bhh92rcd13ifvqfi0","pricing_plan_id":"free"},{"bike_id":"0194236d-8ecb-4787-890b-28987b6a5dc9","system_id":"levelo_inurba_marseille","lat":43.336148,"lon":5.410349,"is_reserved":false,"is_disabled":false,"rental_uris":{"android":"levelo://app?vid=0194236d-8ecb-4787-890b-28987b6a5dc9","ios":"levelo://app?vid=0194236d-8ecb-4787-890b-28987b6a5dc9"},"vehicle_type_id":"4","last_reported":1703142437,"current_range_meters":17600,"station_id":"ce4bhqh2rcd13ifvqhmg","pricing_plan_id":"free"},{"bike_id":"2898adda-98a4-442b-a3fa-975ffab0f10d","system_id":"levelo_inurba_marseille","lat":43.276769,"lon":5.388787,"is_reserved":false,"is_disabled":false,"rental_uris":{"android":"levelo://app?vid=2898adda-98a4-442b-a3fa-975ffab0f10d","ios":"levelo://app?vid=2898adda-98a4-442b-a3fa-975ffab0f10d"},"vehicle_type_id":"4","last_reported":1703142437,"current_range_meters":30000,"station_id":"ce4bhi12rcd13ifvqfo0","pricing_plan_id":"free"},{"bike_id":"e906a616-6971-47ca-b4e5-61abec98dbcf","system_id":"levelo_inurba_marseille","lat":43.276771,"lon":5.388799,"is_reserved":false,"is_disabled":false,"rental_uris":{"android":"levelo://app?vid=e906a616-6971-47ca-b4e5-61abec98dbcf","ios":"levelo://app?vid=e906a616-6971-47ca-b4e5-61abec98dbcf"},"vehicle_type_id":"4","last_reported":1703142437,"current_range_meters":31200,"station_id":"ce4bhi12rcd13ifvqfo0","pricing_plan_id":"free"},{"bike_id":"21f4a169-6e35-4a8e-94ba-dad1b033815c","system_id":"levelo_inurba_marseille","lat":43.31081,"lon":5.42434,"is_reserved":false,"is_disabled":false,"rental_uris":{"android":"levelo://app?vid=21f4a169-6e35-4a8e-94ba-dad1b033815c","ios":"levelo://app?vid=21f4a169-6e35-4a8e-94ba-dad1b033815c"},"vehicle_type_id":"4","last_reported":1703142437,"current_range_meters":2400,"station_id":"ce4bhp92rcd13ifvqhag","pricing_plan_id":"free"},{"bike_id":"0b3e9232-60d7-4f4c-b452-5bcd60d1f13b","system_id":"levelo_inurba_marseille","lat":43.340804,"lon":5.410219,"is_reserved":false,"is_disabled":false,"rental_uris":{"android":"levelo://app?vid=0b3e9232-60d7-4f4c-b452-5bcd60d1f13b","ios":"levelo://app?vid=0b3e9232-60d7-4f4c-b452-5bcd60d1f13b"},"vehicle_type_id":"4","last_reported":1703142437,"current_range_meters":16400,"station_id":"ce4bhqh2rcd13ifvqhlg","pricing_plan_id":"free"},{"bike_id":"974dc7db-ff3c-4554-8964-132f9db52d9b","system_id":"levelo_inurba_marseille","lat":43.276092,"lon":5.395289,"is_reserved":false,"is_disabled":false,"rental_uris":{"android":"levelo://app?vid=974dc7db-ff3c-4554-8964-132f9db52d9b","ios":"levelo://app?vid=974dc7db-ff3c-4554-8964-132f9db52d9b"},"vehicle_type_id":"4","last_reported":1703142437,"current_range_meters":0,"station_id":"","pricing_plan_id":"free"},{"bike_id":"83737df5-c160-4a79-8010-333b911649c1","system_id":"levelo_inurba_marseille","lat":43.273125,"lon":5.390731,"is_reserved":false,"is_disabled":false,"rental_uris":{"android":"levelo://app?vid=83737df5-c160-4a79-8010-333b911649c1","ios":"levelo://app?vid=83737df5-c160-4a79-8010-333b911649c1"},"vehicle_type_id":"4","last_reported":1703142437,"current_range_meters":31600,"station_id":"ce4bhgp2rcd13ifvqfe0","pricing_plan_id":"free"},{"bike_id":"dfa5a3c1-c532-4900-bdc5-94e0c5589421","system_id":"levelo_inurba_marseille","lat":43.273125,"lon":5.390731,"is_reserved":false,"is_disabled":false,"rental_uris":{"android":"levelo://app?vid=dfa5a3c1-c532-4900-bdc5-94e0c5589421","ios":"levelo://app?vid=dfa5a3c1-c532-4900-bdc5-94e0c5589421"},"vehicle_type_id":"4","last_reported":1703142437,"current_range_meters":3600,"station_id":"ce4bhgp2rcd13ifvqfe0","pricing_plan_id":"free"},{"bike_id":"b820e38f-be0d-4e7b-9fb1-dfc16632fe0d","system_id":"levelo_inurba_marseille","lat":43.295511,"lon":5.422926,"is_reserved":false,"is_disabled":false,"rental_uris":{"android":"levelo://app?vid=b820e38f-be0d-4e7b-9fb1-dfc16632fe0d","ios":"levelo://app?vid=b820e38f-be0d-4e7b-9fb1-dfc16632fe0d"},"vehicle_type_id":"4","last_reported":1703142437,"current_range_meters":26800,"station_id":"ce4bhph2rcd13ifvqhdg","pricing_plan_id":"free"},{"bike_id":"b55db1a0-b820-479b-9929-7610c21584c5","system_id":"levelo_inurba_marseille","lat":43.295511,"lon":5.422926,"is_reserved":false,"is_disabled":false,"rental_uris":{"android":"levelo://app?vid=b55db1a0-b820-479b-9929-7610c21584c5","ios":"levelo://app?vid=b55db1a0-b820-479b-9929-7610c21584c5"},"vehicle_type_id":"4","last_reported":1703142437,"current_range_meters":25200,"station_id":"ce4bhph2rcd13ifvqhdg","pricing_plan_id":"free"},{"bike_id":"96484c65-8dd7-4167-a438-a7d837c6b7a7","system_id":"levelo_inurba_marseille","lat":43.295523,"lon":5.422926,"is_reserved":false,"is_disabled":false,"rental_uris":{"android":"levelo://app?vid=96484c65-8dd7-4167-a438-a7d837c6b7a7","ios":"levelo://app?vid=96484c65-8dd7-4167-a438-a7d837c6b7a7"},"vehicle_type_id":"4","last_reported":1703142437,"current_range_meters":28800,"station_id":"ce4bhph2rcd13ifvqhdg","pricing_plan_id":"free"},{"bike_id":"5b29fe46-f98b-40e4-8c4c-2a510e7be214","system_id":"levelo_inurba_marseille","lat":43.295511,"lon":5.422926,"is_reserved":false,"is_disabled":false,"rental_uris":{"android":"levelo://app?vid=5b29fe46-f98b-40e4-8c4c-2a510e7be214","ios":"levelo://app?vid=5b29fe46-f98b-40e4-8c4c-2a510e7be214"},"vehicle_type_id":"4","last_reported":1703142437,"current_range_meters":16400,"station_id":"ce4bhph2rcd13ifvqhdg","pricing_plan_id":"free"},{"bike_id":"e1bf0a92-1001-45ad-b936-6f06e086a92c","system_id":"levelo_inurba_marseille","lat":43.295511,"lon":5.422926,"is_reserved":false,"is_disabled":false,"rental_uris":{"android":"levelo://app?vid=e1bf0a92-1001-45ad-b936-6f06e086a92c","ios":"levelo://app?vid=e1bf0a92-1001-45ad-b936-6f06e086a92c"},"vehicle_type_id":"4","last_reported":1703142437,"current_range_meters":4000,"station_id":"ce4bhph2rcd13ifvqhdg","pricing_plan_id":"free"},{"bike_id":"5e90b8eb-6326-48a7-9ba0-942acbc60e2a","system_id":"levelo_inurba_marseille","lat":43.272116,"lon":5.391747,"is_reserved":false,"is_disabled":false,"rental_uris":{"android":"levelo://app?vid=5e90b8eb-6326-48a7-9ba0-942acbc60e2a","ios":"levelo://app?vid=5e90b8eb-6326-48a7-9ba0-942acbc60e2a"},"vehicle_type_id":"4","last_reported":1703142437,"current_range_meters":400,"station_id":"ce4bhhp2rcd13ifvqfm0","pricing_plan_id":"free"},{"bike_id":"7c676a95-1db7-4ff9-8d6e-22bd2a2ea320","system_id":"levelo_inurba_marseille","lat":43.278128,"lon":5.407195,"is_reserved":false,"is_disabled":false,"rental_uris":{"android":"levelo://app?vid=7c676a95-1db7-4ff9-8d6e-22bd2a2ea320","ios":"levelo://app?vid=7c676a95-1db7-4ff9-8d6e-22bd2a2ea320"},"vehicle_type_id":"4","last_reported":1703142437,"current_range_meters":28800,"station_id":"ce4bhnh2rcd13ifvqgtg","pricing_plan_id":"free"},{"bike_id":"21a34569-8594-42a0-8533-00e3a5db301d","system_id":"levelo_inurba_marseille","lat":43.278128,"lon":5.407195,"is_reserved":false,"is_disabled":false,"rental_uris":{"android":"levelo://app?vid=21a34569-8594-42a0-8533-00e3a5db301d","ios":"levelo://app?vid=21a34569-8594-42a0-8533-00e3a5db301d"},"vehicle_type_id":"4","last_reported":1703142437,"current_range_meters":28000,"station_id":"ce4bhnh2rcd13ifvqgtg","pricing_plan_id":"free"},{"bike_id":"17dbd513-8a9d-4531-a09c-244ede468ae5","system_id":"levelo_inurba_marseille","lat":43.278128,"lon":5.407195,"is_reserved":false,"is_disabled":false,"rental_uris":{"android":"levelo://app?vid=17dbd513-8a9d-4531-a09c-244ede468ae5","ios":"levelo://app?vid=17dbd513-8a9d-4531-a09c-244ede468ae5"},"vehicle_type_id":"4","last_reported":1703142437,"current_range_meters":16400,"station_id":"ce4bhnh2rcd13ifvqgtg","pricing_plan_id":"free"},{"bike_id":"74943036-25cd-4db1-9d64-a6233819c22c","system_id":"levelo_inurba_marseille","lat":43.278128,"lon":5.407195,"is_reserved":false,"is_disabled":false,"rental_uris":{"android":"levelo://app?vid=74943036-25cd-4db1-9d64-a6233819c22c","ios":"levelo://app?vid=74943036-25cd-4db1-9d64-a6233819c22c"},"vehicle_type_id":"4","last_reported":1703142437,"current_range_meters":31600,"station_id":"ce4bhnh2rcd13ifvqgtg","pricing_plan_id":"free"},{"bike_id":"1cf29c8c-3aa7-45da-9151-6233028e2361","system_id":"levelo_inurba_marseille","lat":43.278128,"lon":5.407195,"is_reserved":false,"is_disabled":false,"rental_uris":{"android":"levelo://app?vid=1cf29c8c-3aa7-45da-9151-6233028e2361","ios":"levelo://app?vid=1cf29c8c-3aa7-45da-9151-6233028e2361"},"vehicle_type_id":"4","last_reported":1703142437,"current_range_meters":31600,"station_id":"ce4bhnh2rcd13ifvqgtg","pricing_plan_id":"free"},{"bike_id":"e4d2840f-04b2-4267-8fc5-70044200dd4e","system_id":"levelo_inurba_marseille","lat":43.278128,"lon":5.407195,"is_reserved":false,"is_disabled":false,"rental_uris":{"android":"levelo://app?vid=e4d2840f-04b2-4267-8fc5-70044200dd4e","ios":"levelo://app?vid=e4d2840f-04b2-4267-8fc5-70044200dd4e"},"vehicle_type_id":"4","last_reported":1703142437,"current_range_meters":30000,"station_id":"ce4bhnh2rcd13ifvqgtg","pricing_plan_id":"free"},{"bike_id":"7e9c2d59-c8cd-4749-853a-de401ef5c64b","system_id":"levelo_inurba_marseille","lat":43.269467,"lon":5.386439,"is_reserved":false,"is_disabled":false,"rental_uris":{"android":"levelo://app?vid=7e9c2d59-c8cd-4749-853a-de401ef5c64b","ios":"levelo://app?vid=7e9c2d59-c8cd-4749-853a-de401ef5c64b"},"vehicle_type_id":"4","last_reported":1703142437,"current_range_meters":22000,"station_id":"ce4bhh92rcd13ifvqfh0","pricing_plan_id":"free"},{"bike_id":"934e6eae-f346-4018-bb25-353c75a5712b","system_id":"levelo_inurba_marseille","lat":43.26953,"lon":5.38637,"is_reserved":false,"is_disabled":false,"rental_uris":{"android":"levelo://app?vid=934e6eae-f346-4018-bb25-353c75a5712b","ios":"levelo://app?vid=934e6eae-f346-4018-bb25-353c75a5712b"},"vehicle_type_id":"4","last_reported":1703142437,"current_range_meters":26000,"station_id":"ce4bhh92rcd13ifvqfh0","pricing_plan_id":"free"},{"bike_id":"12ea6c75-d68b-4fd6-a282-b92aeedf25e7","system_id":"levelo_inurba_marseille","lat":43.269467,"lon":5.386439,"is_reserved":false,"is_disabled":false,"rental_uris":{"android":"levelo://app?vid=12ea6c75-d68b-4fd6-a282-b92aeedf25e7","ios":"levelo://app?vid=12ea6c75-d68b-4fd6-a282-b92aeedf25e7"},"vehicle_type_id":"4","last_reported":1703142437,"current_range_meters":22800,"station_id":"ce4bhh92rcd13ifvqfh0","pricing_plan_id":"free"},{"bike_id":"54f2e7eb-ce57-4b70-ad6c-b3421601538b","system_id":"levelo_inurba_marseille","lat":43.269467,"lon":5.386439,"is_reserved":false,"is_disabled":false,"rental_uris":{"android":"levelo://app?vid=54f2e7eb-ce57-4b70-ad6c-b3421601538b","ios":"levelo://app?vid=54f2e7eb-ce57-4b70-ad6c-b3421601538b"},"vehicle_type_id":"4","last_reported":1703142437,"current_range_meters":26800,"station_id":"ce4bhh92rcd13ifvqfh0","pricing_plan_id":"free"},{"bike_id":"5b36257d-ef41-46f7-b3c8-9b89497d0d40","system_id":"levelo_inurba_marseille","lat":43.269467,"lon":5.386439,"is_reserved":false,"is_disabled":false,"rental_uris":{"android":"levelo://app?vid=5b36257d-ef41-46f7-b3c8-9b89497d0d40","ios":"levelo://app?vid=5b36257d-ef41-46f7-b3c8-9b89497d0d40"},"vehicle_type_id":"4","last_reported":1703142437,"current_range_meters":31600,"station_id":"ce4bhh92rcd13ifvqfh0","pricing_plan_id":"free"},{"bike_id":"e24c5aac-6438-42f0-b81c-1d7277041231","system_id":"levelo_inurba_marseille","lat":43.279446,"lon":5.410421,"is_reserved":false,"is_disabled":false,"rental_uris":{"android":"levelo://app?vid=e24c5aac-6438-42f0-b81c-1d7277041231","ios":"levelo://app?vid=e24c5aac-6438-42f0-b81c-1d7277041231"},"vehicle_type_id":"4","last_reported":1703142437,"current_range_meters":30000,"station_id":"ce4bhnp2rcd13ifvqh0g","pricing_plan_id":"free"},{"bike_id":"15e97754-3170-45f7-876f-aac75b656ea9","system_id":"levelo_inurba_marseille","lat":43.279465,"lon":5.410561,"is_reserved":false,"is_disabled":false,"rental_uris":{"android":"levelo://app?vid=15e97754-3170-45f7-876f-aac75b656ea9","ios":"levelo://app?vid=15e97754-3170-45f7-876f-aac75b656ea9"},"vehicle_type_id":"4","last_reported":1703142437,"current_range_meters":2800,"station_id":"ce4bhnp2rcd13ifvqh0g","pricing_plan_id":"free"},{"bike_id":"5a2b2ed4-5e1e-41cc-b9a2-0dc2a88f4bbc","system_id":"levelo_inurba_marseille","lat":43.269319,"lon":5.389397,"is_reserved":false,"is_disabled":false,"rental_uris":{"android":"levelo://app?vid=5a2b2ed4-5e1e-41cc-b9a2-0dc2a88f4bbc","ios":"levelo://app?vid=5a2b2ed4-5e1e-41cc-b9a2-0dc2a88f4bbc"},"vehicle_type_id":"4","last_reported":1703142437,"current_range_meters":23200,"station_id":"ce4bhhh2rcd13ifvqfl0","pricing_plan_id":"free"},{"bike_id":"6ae8773f-81f8-4a7f-9658-397efcbaff7f","system_id":"levelo_inurba_marseille","lat":43.26681,"lon":5.382694,"is_reserved":false,"is_disabled":false,"rental_uris":{"android":"levelo://app?vid=6ae8773f-81f8-4a7f-9658-397efcbaff7f","ios":"levelo://app?vid=6ae8773f-81f8-4a7f-9658-397efcbaff7f"},"vehicle_type_id":"4","last_reported":1703142437,"current_range_meters":31600,"station_id":"ce4bhg92rcd13ifvqf90","pricing_plan_id":"free"},{"bike_id":"177828f6-b3f8-467c-a5bc-6758ba6b1013","system_id":"levelo_inurba_marseille","lat":43.26684,"lon":5.38272,"is_reserved":false,"is_disabled":false,"rental_uris":{"android":"levelo://app?vid=177828f6-b3f8-467c-a5bc-6758ba6b1013","ios":"levelo://app?vid=177828f6-b3f8-467c-a5bc-6758ba6b1013"},"vehicle_type_id":"4","last_reported":1703142437,"current_range_meters":28400,"station_id":"ce4bhg92rcd13ifvqf90","pricing_plan_id":"free"},{"bike_id":"8e1585b9-7f04-4bd0-9a19-87d13533922c","system_id":"levelo_inurba_marseille","lat":43.26681,"lon":5.382694,"is_reserved":false,"is_disabled":false,"rental_uris":{"android":"levelo://app?vid=8e1585b9-7f04-4bd0-9a19-87d13533922c","ios":"levelo://app?vid=8e1585b9-7f04-4bd0-9a19-87d13533922c"},"vehicle_type_id":"4","last_reported":1703142437,"current_range_meters":29200,"station_id":"ce4bhg92rcd13ifvqf90","pricing_plan_id":"free"},{"bike_id":"28409cfa-9604-442b-9a4d-7f70005b036e","system_id":"levelo_inurba_marseille","lat":43.26681,"lon":5.382694,"is_reserved":false,"is_disabled":false,"rental_uris":{"android":"levelo://app?vid=28409cfa-9604-442b-9a4d-7f70005b036e","ios":"levelo://app?vid=28409cfa-9604-442b-9a4d-7f70005b036e"},"vehicle_type_id":"4","last_reported":1703142437,"current_range_meters":26400,"station_id":"ce4bhg92rcd13ifvqf90","pricing_plan_id":"free"},{"bike_id":"90200eee-154d-401e-bd79-3be1f6e255b0","system_id":"levelo_inurba_marseille","lat":43.265714,"lon":5.372891,"is_reserved":false,"is_disabled":false,"rental_uris":{"android":"levelo://app?vid=90200eee-154d-401e-bd79-3be1f6e255b0","ios":"levelo://app?vid=90200eee-154d-401e-bd79-3be1f6e255b0"},"vehicle_type_id":"4","last_reported":1703142437,"current_range_meters":30800,"station_id":"ce4bhg12rcd13ifvqf70","pricing_plan_id":"free"},{"bike_id":"e5eee720-81cd-4487-a969-6c8bb657cefd","system_id":"levelo_inurba_marseille","lat":43.2799,"lon":5.41657,"is_reserved":false,"is_disabled":false,"rental_uris":{"android":"levelo://app?vid=e5eee720-81cd-4487-a969-6c8bb657cefd","ios":"levelo://app?vid=e5eee720-81cd-4487-a969-6c8bb657cefd"},"vehicle_type_id":"4","last_reported":1703142437,"current_range_meters":0,"station_id":"ce4bho12rcd13ifvqh1g","pricing_plan_id":"free"},{"bike_id":"ce10c65f-4009-4d76-8710-9936530ab8c4","system_id":"levelo_inurba_marseille","lat":43.26786,"lon":5.39419,"is_reserved":false,"is_disabled":false,"rental_uris":{"android":"levelo://app?vid=ce10c65f-4009-4d76-8710-9936530ab8c4","ios":"levelo://app?vid=ce10c65f-4009-4d76-8710-9936530ab8c4"},"vehicle_type_id":"4","last_reported":1703142437,"current_range_meters":17200,"station_id":"ce4bhh12rcd13ifvqfg0","pricing_plan_id":"free"},{"bike_id":"c93a3a9b-3eb0-49e5-b2ca-da5e86005ab7","system_id":"levelo_inurba_marseille","lat":43.267966,"lon":5.393976,"is_reserved":false,"is_disabled":false,"rental_uris":{"android":"levelo://app?vid=c93a3a9b-3eb0-49e5-b2ca-da5e86005ab7","ios":"levelo://app?vid=c93a3a9b-3eb0-49e5-b2ca-da5e86005ab7"},"vehicle_type_id":"4","last_reported":1703142437,"current_range_meters":26400,"station_id":"ce4bhh12rcd13ifvqfg0","pricing_plan_id":"free"},{"bike_id":"843d467b-8c74-4109-9b07-37cefc968d2d","system_id":"levelo_inurba_marseille","lat":43.267966,"lon":5.393976,"is_reserved":false,"is_disabled":false,"rental_uris":{"android":"levelo://app?vid=843d467b-8c74-4109-9b07-37cefc968d2d","ios":"levelo://app?vid=843d467b-8c74-4109-9b07-37cefc968d2d"},"vehicle_type_id":"4","last_reported":1703142437,"current_range_meters":10800,"station_id":"ce4bhh12rcd13ifvqfg0","pricing_plan_id":"free"},{"bike_id":"5582a872-6cd2-4e8d-878a-fe07241308d2","system_id":"levelo_inurba_marseille","lat":43.267966,"lon":5.393976,"is_reserved":false,"is_disabled":false,"rental_uris":{"android":"levelo://app?vid=5582a872-6cd2-4e8d-878a-fe07241308d2","ios":"levelo://app?vid=5582a872-6cd2-4e8d-878a-fe07241308d2"},"vehicle_type_id":"4","last_reported":1703142437,"current_range_meters":18400,"station_id":"ce4bhh12rcd13ifvqfg0","pricing_plan_id":"free"},{"bike_id":"38542c7e-598f-4452-8ba6-fea96f0be524","system_id":"levelo_inurba_marseille","lat":43.265569,"lon":5.390047,"is_reserved":false,"is_disabled":false,"rental_uris":{"android":"levelo://app?vid=38542c7e-598f-4452-8ba6-fea96f0be524","ios":"levelo://app?vid=38542c7e-598f-4452-8ba6-fea96f0be524"},"vehicle_type_id":"4","last_reported":1703142437,"current_range_meters":23600,"station_id":"ce4bhe12rcd13ifvqf30","pricing_plan_id":"free"},{"bike_id":"8921925b-cb3c-4e12-84db-1643505473a0","system_id":"levelo_inurba_marseille","lat":43.265569,"lon":5.390047,"is_reserved":false,"is_disabled":false,"rental_uris":{"android":"levelo://app?vid=8921925b-cb3c-4e12-84db-1643505473a0","ios":"levelo://app?vid=8921925b-cb3c-4e12-84db-1643505473a0"},"vehicle_type_id":"4","last_reported":1703142437,"current_range_meters":26800,"station_id":"ce4bhe12rcd13ifvqf30","pricing_plan_id":"free"},{"bike_id":"bbb93d3e-6468-44c2-be9e-f07ff768479c","system_id":"levelo_inurba_marseille","lat":43.265569,"lon":5.390047,"is_reserved":false,"is_disabled":false,"rental_uris":{"android":"levelo://app?vid=bbb93d3e-6468-44c2-be9e-f07ff768479c","ios":"levelo://app?vid=bbb93d3e-6468-44c2-be9e-f07ff768479c"},"vehicle_type_id":"4","last_reported":1703142437,"current_range_meters":29600,"station_id":"ce4bhe12rcd13ifvqf30","pricing_plan_id":"free"},{"bike_id":"5b233b0e-fc04-4a0b-9ba5-5d3ae08d2f03","system_id":"levelo_inurba_marseille","lat":43.265569,"lon":5.390047,"is_reserved":false,"is_disabled":false,"rental_uris":{"android":"levelo://app?vid=5b233b0e-fc04-4a0b-9ba5-5d3ae08d2f03","ios":"levelo://app?vid=5b233b0e-fc04-4a0b-9ba5-5d3ae08d2f03"},"vehicle_type_id":"4","last_reported":1703142437,"current_range_meters":29600,"station_id":"ce4bhe12rcd13ifvqf30","pricing_plan_id":"free"},