{"last_updated":1757934472,"ttl":60,"version":"2.2","data":{"bikes":[{"bike_id":"ee4b2469-d89f-46f1-89fb-b229743d289d","system_id":"levelo_inurba_marseille","lat":43.28445,"lon":5.392,"is_reserved":false,"is_disabled":false,"rental_uris":{"android":"levelo://app?vid=ee4b2469-d89f-46f1-89fb-b229743d289d","ios":"levelo://app?vid=ee4b2469-d89f-46f1-89fb-b229743d289d"},"vehicle_type_id":"4","last_reported":1757934472,"current_range_meters":2000,"station_id":"ce4bhoh2rcd13ifvqh5g","pricing_plan_id":"cebpf4jnsgd1na2vs0mg"},{"bike_id":"2b95d1b6-596a-4276-9845-89711ed212b3","system_id":"levelo_inurba_marseille","lat":43.25953,"lon":5.40917,"is_reserved":false,"is_disabled":false,"rental_uris":{"android":"levelo://app?vid=2b95d1b6-596a-4276-9845-89711ed212b3","ios":"levelo://app?vid=2b95d1b6-596a-4276-9845-89711ed212b3"},"vehicle_type_id":"4","last_reported":1757934472,"current_range_meters":2800,"station_id":"ce4bhm92rcd13ifvqglg","pricing_plan_id":"cebpf4jnsgd1na2vs0mg"},{"bike_id":"ce37aee0-3f8f-45f8-8d6a-47d71be3dfa6","system_id":"levelo_inurba_marseille","lat":43.292454,"lon":5.360641,"is_reserved":false,"is_disabled":false,"rental_uris":{"android":"levelo://app?vid=ce37aee0-3f8f-45f8-8d6a-47d71be3dfa6","ios":"levelo://app?vid=ce37aee0-3f8f-45f8-8d6a-47d71be3dfa6"},"vehicle_type_id":"4","last_reported":1757934472,"current_range_meters":3200,"station_id":"ce4bhbh2rcd13ifvqeqg","pricing_plan_id":"cebpf4jnsgd1na2vs0mg"},{"bike_id":"a24c4696-920b-4645-847f-87e0b46915a6","system_id":"levelo_inurba_marseille","lat":43.32416,"lon":5.42514,"is_reserved":false,"is_disabled":false,"rental_uris":{"android":"levelo://app?vid=a24c4696-920b-4645-847f-87e0b46915a6","ios":"levelo://app?vid=a24c4696-920b-4645-847f-87e0b46915a6"},"vehicle_type_id":"4","last_reported":1757934472,"current_range_meters":3200,"station_id":"","pricing_plan_id":"cebpf4jnsgd1na2vs0mg"},{"bike_id":"eceffdde-b591-4553-946a-c7c3965dceff","system_id":"levelo_inurba_marseille","lat":43.29004,"lon":5.35607,"is_reserved":false,"is_disabled":false,"rental_uris":{"android":"levelo://app?vid=eceffdde-b591-4553-946a-c7c3965dceff","ios":"levelo://app?vid=eceffdde-b591-4553-946a-c7c3965dceff"},"vehicle_type_id":"4","last_reported":1757934472,"current_range_meters":3200,"station_id":"ce4bhb92rcd13ifvqen0","pricing_plan_id":"cebpf4jnsgd1na2vs0mg"},{"bike_id":"4139ccef-c91b-4cf8-9bc3-346a6d084323","system_id":"levelo_inurba_marseille","lat":43.30482,"lon":5.37887,"is_reserved":false,"is_disabled":true,"rental_uris":{"android":"levelo://app?vid=4139ccef-c91b-4cf8-9bc3-346a6d084323","ios":"levelo://app?vid=4139ccef-c91b-4cf8-9bc3-346a6d084323"},"vehicle_type_id":"4","last_reported":1757934472,"current_range_meters":3600,"station_id":"ce4bgup2rcd13ifvqcn0","pricing_plan_id":"cebpf4jnsgd1na2vs0mg"},{"bike_id":"8911e897-b21b-4034-8925-9a355fa0a12c","system_id":"levelo_inurba_marseille","lat":43.27203,"lon":5.39186,"is_reserved":false,"is_disabled":false,"rental_uris":{"android":"levelo://app?vid=8911e897-b21b-4034-8925-9a355fa0a12c","ios":"levelo://app?vid=8911e897-b21b-4034-8925-9a355fa0a12c"},"vehicle_type_id":"4","last_reported":1757934472,"current_range_meters":3600,"station_id":"ce4bhhp2rcd13ifvqfm0","pricing_plan_id":"cebpf4jnsgd1na2vs0mg"},{"bike_id":"84be000e-b186-4e60-8aaa-b7a0f42a7175","system_id":"levelo_inurba_marseille","lat":43.337639,"lon":5.374332,"is_reserved":false,"is_disabled":false,"rental_uris":{"android":"levelo://app?vid=84be000e-b186-4e60-8aaa-b7a0f42a7175","ios":"levelo://app?vid=84be000e-b186-4e60-8aaa-b7a0f42a7175"},"vehicle_type_id":"4","last_reported":1757934472,"current_range_meters":3600,"station_id":"","pricing_plan_id":"cebpf4jnsgd1na2vs0mg"},{"bike_id":"8a1c985d-8abf-4ba0-95d4-d11dd91d05c0","system_id":"levelo_inurba_marseille","lat":43.29578,"lon":5.375254,"is_reserved":false,"is_disabled":false,"rental_uris":{"android":"levelo://app?vid=8a1c985d-8abf-4ba0-95d4-d11dd91d05c0","ios":"levelo://app?vid=8a1c985d-8abf-4ba0-95d4-d11dd91d05c0"},"vehicle_type_id":"4","last_reported":1757934472,"current_range_meters":3600,"station_id":"","pricing_plan_id":"cebpf4jnsgd1na2vs0mg"},{"bike_id":"90b6c2c8-4803-4cbe-ac55-7b11770052b2","system_id":"levelo_inurba_marseille","lat":43.30294,"lon":5.376952,"is_reserved":false,"is_disabled":true,"rental_uris":{"android":"levelo://app?vid=90b6c2c8-4803-4cbe-ac55-7b11770052b2","ios":"levelo://app?vid=90b6c2c8-4803-4cbe-ac55-7b11770052b2"},"vehicle_type_id":"4","last_reported":1757934472,"current_range_meters":4000,"station_id":"ce4bguh2rcd13ifvqcj0","pricing_plan_id":"cebpf4jnsgd1na2vs0mg"},{"bike_id":"e03bd15c-c472-4f08-bc2f-c1b8a57b70fb","system_id":"levelo_inurba_marseille","lat":43.31085,"lon":5.40105,"is_reserved":false,"is_disabled":true,"rental_uris":{"android":"levelo://app?vid=e03bd15c-c472-4f08-bc2f-c1b8a57b70fb","ios":"levelo://app?vid=e03bd15c-c472-4f08-bc2f-c1b8a57b70fb"},"vehicle_type_id":"4","last_reported":1757934472,"current_range_meters":4000,"station_id":"","pricing_plan_id":"cebpf4jnsgd1na2vs0mg"},{"bike_id":"46abccb2-8643-462f-83c6-11d19b9f7030","system_id":"levelo_inurba_marseille","lat":43.280441,"lon":5.388769,"is_reserved":false,"is_disabled":false,"rental_uris":{"android":"levelo://app?vid=46abccb2-8643-462f-83c6-11d19b9f7030","ios":"levelo://app?vid=46abccb2-8643-462f-83c6-11d19b9f7030"},"vehicle_type_id":"4","last_reported":1757934472,"current_range_meters":4000,"station_id":"","pricing_plan_id":"cebpf4jnsgd1na2vs0mg"},{"bike_id":"2b133b0a-562f-4d78-80ef-a5763fd06224","system_id":"levelo_inurba_marseille","lat":43.280296,"lon":5.369487,"is_reserved":false,"is_disabled":false,"rental_uris":{"android":"levelo://app?vid=2b133b0a-562f-4d78-80ef-a5763fd06224","ios":"levelo://app?vid=2b133b0a-562f-4d78-80ef-a5763fd06224"},"vehicle_type_id":"4","last_reported":1757934472,"current_range_meters":4400,"station_id":"ce4bha12rcd13ifvqef0","pricing_plan_id":"cebpf4jnsgd1na2vs0mg"},{"bike_id":"dd565525-ce93-4305-93b7-77b316b65d9d","system_id":"levelo_inurba_marseille","lat":43.29553,"lon":5.37503,"is_reserved":false,"is_disabled":false,"rental_uris":{"android":"levelo://app?vid=dd565525-ce93-4305-93b7-77b316b65d9d","ios":"levelo://app?vid=dd565525-ce93-4305-93b7-77b316b65d9d"},"vehicle_type_id":"4","last_reported":1757934472,"current_range_meters":4400,"station_id":"ce4bgkp2rcd13ifvqbmg","pricing_plan_id":"cebpf4jnsgd1na2vs0mg"},{"bike_id":"3e201b28-7d35-4b51-b95a-4d31f130ff49","system_id":"levelo_inurba_marseille","lat":43.249228,"lon":5.374969,"is_reserved":false,"is_disabled":false,"rental_uris":{"android":"levelo://app?vid=3e201b28-7d35-4b51-b95a-4d31f130ff49","ios":"levelo://app?vid=3e201b28-7d35-4b51-b95a-4d31f130ff49"},"vehicle_type_id":"4","last_reported":1757934472,"current_range_meters":4400,"station_id":"ce4bhgh2rcd13ifvqfb0","pricing_plan_id":"cebpf4jnsgd1na2vs0mg"},{"bike_id":"4891d751-b66c-4a3d-89d5-78926b795844","system_id":"levelo_inurba_marseille","lat":43.337444,"lon":5.374475,"is_reserved":false,"is_disabled":false,"rental_uris":{"android":"levelo://app?vid=4891d751-b66c-4a3d-89d5-78926b795844","ios":"levelo://app?vid=4891d751-b66c-4a3d-89d5-78926b795844"},"vehicle_type_id":"4","last_reported":1757934472,"current_range_meters":4400,"station_id":"","pricing_plan_id":"cebpf4jnsgd1na2vs0mg"},{"bike_id":"9a45254c-c77a-469d-8fa3-a3fa05a580ba","system_id":"levelo_inurba_marseille","lat":43.271714,"lon":5.386787,"is_reserved":false,"is_disabled":false,"rental_uris":{"android":"levelo://app?vid=9a45254c-c77a-469d-8fa3-a3fa05a580ba","ios":"levelo://app?vid=9a45254c-c77a-469d-8fa3-a3fa05a580ba"},"vehicle_type_id":"4","last_reported":1757934472,"current_range_meters":4400,"station_id":"","pricing_plan_id":"cebpf4jnsgd1na2vs0mg"},{"bike_id":"7c3c994a-dc1e-44a3-bdcc-191ea39a17ae","system_id":"levelo_inurba_marseille","lat":43.21194,"lon":5.35072,"is_reserved":false,"is_disabled":false,"rental_uris":{"android":"levelo://app?vid=7c3c994a-dc1e-44a3-bdcc-191ea39a17ae","ios":"levelo://app?vid=7c3c994a-dc1e-44a3-bdcc-191ea39a17ae"},"vehicle_type_id":"4","last_reported":1757934472,"current_range_meters":4400,"station_id":"st_cvj6sg6p6f1abm77japg","pricing_plan_id":"cebpf4jnsgd1na2vs0mg"},{"bike_id":"e4a37be0-0790-48be-aa54-731cf039ecce","system_id":"levelo_inurba_marseille","lat":43.26786,"lon":5.39414,"is_reserved":false,"is_disabled":false,"rental_uris":{"android":"levelo://app?vid=e4a37be0-0790-48be-aa54-731cf039ecce","ios":"levelo://app?vid=e4a37be0-0790-48be-aa54-731cf039ecce"},"vehicle_type_id":"4","last_reported":1757934472,"current_range_meters":4800,"station_id":"ce4bhh12rcd13ifvqfg0","pricing_plan_id":"cebpf4jnsgd1na2vs0mg"},{"bike_id":"800634da-a7a9-4892-aa92-796a769c2a8e","system_id":"levelo_inurba_marseille","lat":43.29799,"lon":5.403825,"is_reserved":false,"is_disabled":false,"rental_uris":{"android":"levelo://app?vid=800634da-a7a9-4892-aa92-796a769c2a8e","ios":"levelo://app?vid=800634da-a7a9-4892-aa92-796a769c2a8e"},"vehicle_type_id":"4","last_reported":1757934472,"current_range_meters":4400,"station_id":"ce4bh112rcd13ifvqd90","pricing_plan_id":"cebpf4jnsgd1na2vs0mg"},{"bike_id":"1e49c81c-98ae-45d4-904c-ce2bbe67d57d","system_id":"levelo_inurba_marseille","lat":43.30606,"lon":5.37229,"is_reserved":false,"is_disabled":false,"rental_uris":{"android":"levelo://app?vid=1e49c81c-98ae-45d4-904c-ce2bbe67d57d","ios":"levelo://app?vid=1e49c81c-98ae-45d4-904c-ce2bbe67d57d"},"vehicle_type_id":"4","last_reported":1757934472,"current_range_meters":4800,"station_id":"ce4bgqh2rcd13ifvqc4g","pricing_plan_id":"cebpf4jnsgd1na2vs0mg"},{"bike_id":"8ae7d050-af53-4c40-a7c8-c92bfbea30a6","system_id":"levelo_inurba_marseille","lat":43.27809,"lon":5.40699,"is_reserved":false,"is_disabled":false,"rental_uris":{"android":"levelo://app?vid=8ae7d050-af53-4c40-a7c8-c92bfbea30a6","ios":"levelo://app?vid=8ae7d050-af53-4c40-a7c8-c92bfbea30a6"},"vehicle_type_id":"4","last_reported":1757934472,"current_range_meters":4800,"station_id":"ce4bhnh2rcd13ifvqgtg","pricing_plan_id":"cebpf4jnsgd1na2vs0mg"},{"bike_id":"484bffae-1a3b-4bc3-9591-800118c9dc4a","system_id":"levelo_inurba_marseille","lat":43.30133,"lon":5.39867,"is_reserved":false,"is_disabled":false,"rental_uris":{"android":"levelo://app?vid=484bffae-1a3b-4bc3-9591-800118c9dc4a","ios":"levelo://app?vid=484bffae-1a3b-4bc3-9591-800118c9dc4a"},"vehicle_type_id":"4","last_reported":1757934472,"current_range_meters":4800,"station_id":"","pricing_plan_id":"cebpf4jnsgd1na2vs0mg"},{"bike_id":"02dbb44c-70e3-4a7a-b86e-6159cc35ba47","system_id":"levelo_inurba_marseille","lat":43.29587,"lon":5.38689,"is_reserved":false,"is_disabled":false,"rental_uris":{"android":"levelo://app?vid=02dbb44c-70e3-4a7a-b86e-6159cc35ba47","ios":"levelo://app?vid=02dbb44c-70e3-4a7a-b86e-6159cc35ba47"},"vehicle_type_id":"4","last_reported":1757934472,"current_range_meters":4800,"station_id":"ce4bgih2rcd13ifvqba0","pricing_plan_id":"cebpf4jnsgd1na2vs0mg"},{"bike_id":"55d59e02-f5a5-4e1a-9360-556e842fa2a4","system_id":"levelo_inurba_marseille","lat":43.33764,"lon":5.37496,"is_reserved":false,"is_disabled":false,"rental_uris":{"android":"levelo://app?vid=55d59e02-f5a5-4e1a-9360-556e842fa2a4","ios":"levelo://app?vid=55d59e02-f5a5-4e1a-9360-556e842fa2a4"},"vehicle_type_id":"4","last_reported":1757934472,"current_range_meters":5600,"station_id":"","pricing_plan_id":"cebpf4jnsgd1na2vs0mg"},{"bike_id":"2662a006-cb2e-4646-ba05-ff5840ef0c45","system_id":"levelo_inurba_marseille","lat":43.30896,"lon":5.37202,"is_reserved":false,"is_disabled":false,"rental_uris":{"android":"levelo://app?vid=2662a006-cb2e-4646-ba05-ff5840ef0c45","ios":"levelo://app?vid=2662a006-cb2e-4646-ba05-ff5840ef0c45"},"vehicle_type_id":"4","last_reported":1757934472,"current_range_meters":5600,"station_id":"ce4bguh2rcd13ifvqckg","pricing_plan_id":"cebpf4jnsgd1na2vs0mg"},{"bike_id":"14c70ab5-a32b-4b22-8e49-61e63be2cf01","system_id":"levelo_inurba_marseille","lat":43.32367,"lon":5.38883,"is_reserved":false,"is_disabled":false,"rental_uris":{"android":"levelo://app?vid=14c70ab5-a32b-4b22-8e49-61e63be2cf01","ios":"levelo://app?vid=14c70ab5-a32b-4b22-8e49-61e63be2cf01"},"vehicle_type_id":"4","last_reported":1757934472,"current_range_meters":5600,"station_id":"ce4bhqp2rcd13ifvqhog","pricing_plan_id":"cebpf4jnsgd1na2vs0mg"},{"bike_id":"d5c98035-fc72-4062-a3ec-13203f68e8ed","system_id":"levelo_inurba_marseille","lat":43.28892,"lon":5.42524,"is_reserved":false,"is_disabled":false,"rental_uris":{"android":"levelo://app?vid=d5c98035-fc72-4062-a3ec-13203f68e8ed","ios":"levelo://app?vid=d5c98035-fc72-4062-a3ec-13203f68e8ed"},"vehicle_type_id":"4","last_reported":1757934472,"current_range_meters":5600,"station_id":"","pricing_plan_id":"cebpf4jnsgd1na2vs0mg"},{"bike_id":"182289c1-d8ed-492c-a287-70c8f4e5e1b2","system_id":"levelo_inurba_marseille","lat":43.32402,"lon":5.38931,"is_reserved":false,"is_disabled":false,"rental_uris":{"android":"levelo://app?vid=182289c1-d8ed-492c-a287-70c8f4e5e1b2","ios":"levelo://app?vid=182289c1-d8ed-492c-a287-70c8f4e5e1b2"},"vehicle_type_id":"4","last_reported":1757934472,"current_range_meters":6000,"station_id":"","pricing_plan_id":"cebpf4jnsgd1na2vs0mg"},{"bike_id":"18bf5fec-3f6b-4fb4-801c-4a475e175079","system_id":"levelo_inurba_marseille","lat":43.27072,"lon":5.42284,"is_reserved":false,"is_disabled":false,"rental_uris":{"android":"levelo://app?vid=18bf5fec-3f6b-4fb4-801c-4a475e175079","ios":"levelo://app?vid=18bf5fec-3f6b-4fb4-801c-4a475e175079"},"vehicle_type_id":"4","last_reported":1757934472,"current_range_meters":6000,"station_id":"ce4bhk92rcd13ifvqgb0","pricing_plan_id":"cebpf4jnsgd1na2vs0mg"},{"bike_id":"61f34d49-0f07-4597-80fa-04152d032dd3","system_id":"levelo_inurba_marseille","lat":43.2511,"lon":5.40319,"is_reserved":false,"is_disabled":false,"rental_uris":{"android":"levelo://app?vid=61f34d49-0f07-4597-80fa-04152d032dd3","ios":"levelo://app?vid=61f34d49-0f07-4597-80fa-04152d032dd3"},"vehicle_type_id":"4","last_reported":1757934472,"current_range_meters":5600,"station_id":"ce4bhlh2rcd13ifvqgig","pricing_plan_id":"cebpf4jnsgd1na2vs0mg"},{"bike_id":"81acbd1b-23a0-4320-a38b-7318182638e6","system_id":"levelo_inurba_marseille","lat":43.30543,"lon":5.36562,"is_reserved":false,"is_disabled":false,"rental_uris":{"android":"levelo://app?vid=81acbd1b-23a0-4320-a38b-7318182638e6","ios":"levelo://app?vid=81acbd1b-23a0-4320-a38b-7318182638e6"},"vehicle_type_id":"4","last_reported":1757934472,"current_range_meters":6400,"station_id":"ce4bgs12rcd13ifvqcag","pricing_plan_id":"cebpf4jnsgd1na2vs0mg"},{"bike_id":"3d68bb02-e6d5-482a-8ba4-a51b80797fb0","system_id":"levelo_inurba_marseille","lat":43.27619,"lon":5.36104,"is_reserved":false,"is_disabled":false,"rental_uris":{"android":"levelo://app?vid=3d68bb02-e6d5-482a-8ba4-a51b80797fb0","ios":"levelo://app?vid=3d68bb02-e6d5-482a-8ba4-a51b80797fb0"},"vehicle_type_id":"4","last_reported":1757934472,"current_range_meters":6000,"station_id":"ce4bgj92rcd13ifvqbe0","pricing_plan_id":"cebpf4jnsgd1na2vs0mg"},{"bike_id":"64fd3338-9664-4eab-9d69-526a809f8c3c","system_id":"levelo_inurba_marseille","lat":43.33796,"lon":5.36697,"is_reserved":false,"is_disabled":false,"rental_uris":{"android":"levelo://app?vid=64fd3338-9664-4eab-9d69-526a809f8c3c","ios":"levelo://app?vid=64fd3338-9664-4eab-9d69-526a809f8c3c"},"vehicle_type_id":"4","last_reported":1757934472,"current_range_meters":6400,"station_id":"","pricing_plan_id":"cebpf4jnsgd1na2vs0mg"},{"bike_id":"595fcf91-2e66-4c2b-8a3c-21ddb133f196","system_id":"levelo_inurba_marseille","lat":43.21759,"lon":5.34605,"is_reserved":false,"is_disabled":true,"rental_uris":{"android":"levelo://app?vid=595fcf91-2e66-4c2b-8a3c-21ddb133f196","ios":"levelo://app?vid=595fcf91-2e66-4c2b-8a3c-21ddb133f196"},"vehicle_type_id":"4","last_reported":1757934472,"current_range_meters":6400,"station_id":"st_cvj6r9ubvosntc0bgbag","pricing_plan_id":"cebpf4jnsgd1na2vs0mg"},{"bike_id":"8cf69aaf-7bc0-41c7-961a-5576786a6d0b","system_id":"levelo_inurba_marseille","lat":43.30953,"lon":5.39041,"is_reserved":false,"is_disabled":false,"rental_uris":{"android":"levelo://app?vid=8cf69aaf-7bc0-41c7-961a-5576786a6d0b","ios":"levelo://app?vid=8cf69aaf-7bc0-41c7-961a-5576786a6d0b"},"vehicle_type_id":"4","last_reported":1757934472,"current_range_meters":6400,"station_id":"ce4bgup2rcd13ifvqco0","pricing_plan_id":"cebpf4jnsgd1na2vs0mg"},{"bike_id":"406f6607-363d-4cf0-95ae-26829ed0307c","system_id":"levelo_inurba_marseille","lat":43.26236,"lon":5.4042,"is_reserved":false,"is_disabled":true,"rental_uris":{"android":"levelo://app?vid=406f6607-363d-4cf0-95ae-26829ed0307c","ios":"levelo://app?vid=406f6607-363d-4cf0-95ae-26829ed0307c"},"vehicle_type_id":"4","last_reported":1757934472,"current_range_meters":6400,"station_id":"ce4bhmh2rcd13ifvqgmg","pricing_plan_id":"cebpf4jnsgd1na2vs0mg"},{"bike_id":"7440f220-3786-4baa-847b-6162aa26d75a","system_id":"levelo_inurba_marseille","lat":43.28614,"lon":5.3511,"is_reserved":false,"is_disabled":false,"rental_uris":{"android":"levelo://app?vid=7440f220-3786-4baa-847b-6162aa26d75a","ios":"levelo://app?vid=7440f220-3786-4baa-847b-6162aa26d75a"},"vehicle_type_id":"4","last_reported":1757934472,"current_range_meters":6800,"station_id":"ce4bhch2rcd13ifvqeug","pricing_plan_id":"cebpf4jnsgd1na2vs0mg"},{"bike_id":"61ec8744-0dd5-4ef5-ac5e-8f97ba32affc","system_id":"levelo_inurba_marseille","lat":43.31329,"lon":5.39686,"is_reserved":false,"is_disabled":false,"rental_uris":{"android":"levelo://app?vid=61ec8744-0dd5-4ef5-ac5e-8f97ba32affc","ios":"levelo://app?vid=61ec8744-0dd5-4ef5-ac5e-8f97ba32affc"},"vehicle_type_id":"4","last_reported":1757934472,"current_range_meters":6800,"station_id":"ce4bgvp2rcd13ifvqcu0","pricing_plan_id":"cebpf4jnsgd1na2vs0mg"},{"bike_id":"0952eed4-f736-4287-864b-e2754b0008c7","system_id":"levelo_inurba_marseille","lat":43.28847,"lon":5.35846,"is_reserved":false,"is_disabled":false,"rental_uris":{"android":"levelo://app?vid=0952eed4-f736-4287-864b-e2754b0008c7","ios":"levelo://app?vid=0952eed4-f736-4287-864b-e2754b0008c7"},"vehicle_type_id":"4","last_reported":1757934472,"current_range_meters":6800,"station_id":"ce4bhb12rcd13ifvqem0","pricing_plan_id":"cebpf4jnsgd1na2vs0mg"},{"bike_id":"c5cba6d7-e282-4417-a818-5fc0802dcb08","system_id":"levelo_inurba_marseille","lat":43.33761,"lon":5.3745,"is_reserved":false,"is_disabled":false,"rental_uris":{"android":"levelo://app?vid=c5cba6d7-e282-4417-a818-5fc0802dcb08","ios":"levelo://app?vid=c5cba6d7-e282-4417-a818-5fc0802dcb08"},"vehicle_type_id":"4","last_reported":1757934472,"current_range_meters":6800,"station_id":"","pricing_plan_id":"cebpf4jnsgd1na2vs0mg"},{"bike_id":"1ee8d7d7-f061-4d1b-8064-650dac07545e","system_id":"levelo_inurba_marseille","lat":43.23197,"lon":5.35549,"is_reserved":false,"is_disabled":false,"rental_uris":{"android":"levelo://app?vid=1ee8d7d7-f061-4d1b-8064-650dac07545e","ios":"levelo://app?vid=1ee8d7d7-f061-4d1b-8064-650dac07545e"},"vehicle_type_id":"4","last_reported":1757934472,"current_range_meters":6800,"station_id":"ce4bhu92rcd13ifvqi70","pricing_plan_id":"cebpf4jnsgd1na2vs0mg"},{"bike_id":"046ba709-b940-4fa3-9690-1d81db536e4b","system_id":"levelo_inurba_marseille","lat":43.2257,"lon":5.41637,"is_reserved":false,"is_disabled":false,"rental_uris":{"android":"levelo://app?vid=046ba709-b940-4fa3-9690-1d81db536e4b","ios":"levelo://app?vid=046ba709-b940-4fa3-9690-1d81db536e4b"},"vehicle_type_id":"4","last_reported":1757934472,"current_range_meters":7200,"station_id":"st_d2o4gvlbi1j2169b742g","pricing_plan_id":"cebpf4jnsgd1na2vs0mg"},{"bike_id":"d9c11a94-d122-4240-b95b-24fdee8810ac","system_id":"levelo_inurba_marseille","lat":43.282749,"lon":5.399048,"is_reserved":false,"is_disabled":false,"rental_uris":{"android":"levelo://app?vid=d9c11a94-d122-4240-b95b-24fdee8810ac","ios":"levelo://app?vid=d9c11a94-d122-4240-b95b-24fdee8810ac"},"vehicle_type_id":"4","last_reported":1757934472,"current_range_meters":7200,"station_id":"","pricing_plan_id":"cebpf4jnsgd1na2vs0mg"},{"bike_id":"8d428476-019f-44c0-8478-70de72b747fd","system_id":"levelo_inurba_marseille","lat":43.25576,"lon":5.38229,"is_reserved":false,"is_disabled":false,"rental_uris":{"android":"levelo://app?vid=8d428476-019f-44c0-8478-70de72b747fd","ios":"levelo://app?vid=8d428476-019f-44c0-8478-70de72b747fd"},"vehicle_type_id":"4","last_reported":1757934472,"current_range_meters":7200,"station_id":"ce4bhih2rcd13ifvqfs0","pricing_plan_id":"cebpf4jnsgd1na2vs0mg"},{"bike_id":"717bdd81-738e-48ac-95e1-5cbc88faa4c3","system_id":"levelo_inurba_marseille","lat":43.21745,"lon":5.34599,"is_reserved":false,"is_disabled":false,"rental_uris":{"android":"levelo://app?vid=717bdd81-738e-48ac-95e1-5cbc88faa4c3","ios":"levelo://app?vid=717bdd81-738e-48ac-95e1-5cbc88faa4c3"},"vehicle_type_id":"4","last_reported":1757934472,"current_range_meters":7200,"station_id":"st_cvj6r9ubvosntc0bgbag","pricing_plan_id":"cebpf4jnsgd1na2vs0mg"},{"bike_id":"974e0192-4f9e-4803-b6bc-e5f6e12940e1","system_id":"levelo_inurba_marseille","lat":43.31068,"lon":5.40093,"is_reserved":false,"is_disabled":false,"rental_uris":{"android":"levelo://app?vid=974e0192-4f9e-4803-b6bc-e5f6e12940e1","ios":"levelo://app?vid=974e0192-4f9e-4803-b6bc-e5f6e12940e1"},"vehicle_type_id":"4","last_reported":1757934472,"current_range_meters":8000,"station_id":"","pricing_plan_id":"cebpf4jnsgd1na2vs0mg"},{"bike_id":"6aaa4c82-8575-4dc5-881e-8646742b23d8","system_id":"levelo_inurba_marseille","lat":43.217445,"lon":5.346066,"is_reserved":false,"is_disabled":false,"rental_uris":{"android":"levelo://app?vid=6aaa4c82-8575-4dc5-881e-8646742b23d8","ios":"levelo://app?vid=6aaa4c82-8575-4dc5-881e-8646742b23d8"},"vehicle_type_id":"4","last_reported":1757934472,"current_range_meters":8000,"station_id":"st_cvj6r9ubvosntc0bgbag","pricing_plan_id":"cebpf4jnsgd1na2vs0mg"},{"bike_id":"5c1e55d9-decd-426f-89d8-b98a558f3809","system_id":"levelo_inurba_marseille","lat":43.317166,"lon":5.404735,"is_reserved":false,"is_disabled":true,"rental_uris":{"android":"levelo://app?vid=5c1e55d9-decd-426f-89d8-b98a558f3809","ios":"levelo://app?vid=5c1e55d9-decd-426f-89d8-b98a558f3809"},"vehicle_type_id":"4","last_reported":1757934472,"current_range_meters":8000,"station_id":"ce4bh012rcd13ifvqd00","pricing_plan_id":"cebpf4jnsgd1na2vs0mg"},{"bike_id":"e91ca653-26d0-4c9e-bbde-f152700e5c44","system_id":"levelo_inurba_marseille","lat":43.27617,"lon":5.3611,"is_reserved":false,"is_disabled":false,"rental_uris":{"android":"levelo://app?vid=e91ca653-26d0-4c9e-bbde-f152700e5c44","ios":"levelo://app?vid=e91ca653-26d0-4c9e-bbde-f152700e5c44"},"vehicle_type_id":"4","last_reported":1757934472,"current_range_meters":8000,"station_id":"ce4bgj92rcd13ifvqbe0","pricing_plan_id":"cebpf4jnsgd1na2vs0mg"},{"bike_id":"92328f20-9c61-4621-aefd-c280af7d31a0","system_id":"levelo_inurba_marseille","lat":43.288676,"lon":5.425242,"is_reserved":false,"is_disabled":false,"rental_uris":{"android":"levelo://app?vid=92328f20-9c61-4621-aefd-c280af7d31a0","ios":"levelo://app?vid=92328f20-9c61-4621-aefd-c280af7d31a0"},"vehicle_type_id":"4","last_reported":1757934472,"current_range_meters":8000,"station_id":"","pricing_plan_id":"cebpf4jnsgd1na2vs0mg"},{"bike_id":"30e85da9-4a4e-420a-bc64-cfe1eeea89eb","system_id":"levelo_inurba_marseille","lat":43.28345,"lon":5.37646,"is_reserved":false,"is_disabled":false,"rental_uris":{"android":"levelo://app?vid=30e85da9-4a4e-420a-bc64-cfe1eeea89eb","ios":"levelo://app?vid=30e85da9-4a4e-420a-bc64-cfe1eeea89eb"},"vehicle_type_id":"4","last_reported":1757934472,"current_range_meters":8000,"station_id":"","pricing_plan_id":"cebpf4jnsgd1na2vs0mg"},{"bike_id":"4f9bd625-ea72-423e-9234-f59f397dfa3c","system_id":"levelo_inurba_marseille","lat":43.211913,"lon":5.350708,"is_reserved":false,"is_disabled":false,"rental_uris":{"android":"levelo://app?vid=4f9bd625-ea72-423e-9234-f59f397dfa3c","ios":"levelo://app?vid=4f9bd625-ea72-423e-9234-f59f397dfa3c"},"vehicle_type_id":"4","last_reported":1757934472,"current_range_meters":8400,"station_id":"st_cvj6sg6p6f1abm77japg","pricing_plan_id":"cebpf4jnsgd1na2vs0mg"},{"bike_id":"90b99ccf-2b3c-4d75-9e45-7dd3a550aac1","system_id":"levelo_inurba_marseille","lat":43.23569,"lon":5.39891,"is_reserved":false,"is_disabled":true,"rental_uris":{"android":"levelo://app?vid=90b99ccf-2b3c-4d75-9e45-7dd3a550aac1","ios":"levelo://app?vid=90b99ccf-2b3c-4d75-9e45-7dd3a550aac1"},"vehicle_type_id":"4","last_reported":1757934472,"current_range_meters":8400,"station_id":"","pricing_plan_id":"cebpf4jnsgd1na2vs0mg"},{"bike_id":"ac0cddb1-dc7c-40a0-804e-f3a05930321a","system_id":"levelo_inurba_marseille","lat":43.27916,"lon":5.39581,"is_reserved":false,"is_disabled":false,"rental_uris":{"android":"levelo://app?vid=ac0cddb1-dc7c-40a0-804e-f3a05930321a","ios":"levelo://app?vid=ac0cddb1-dc7c-40a0-804e-f3a05930321a"},"vehicle_type_id":"4","last_reported":1757934472,"current_range_meters":8400,"station_id":"ce4bhf92rcd13ifvqf40","pricing_plan_id":"cebpf4jnsgd1na2vs0mg"},{"bike_id":"b0fa71ac-803a-463a-8fcf-3b53e7ad96e6","system_id":"levelo_inurba_marseille","lat":43.29009,"lon":5.35613,"is_reserved":false,"is_disabled":false,"rental_uris":{"android":"levelo://app?vid=b0fa71ac-803a-463a-8fcf-3b53e7ad96e6","ios":"levelo://app?vid=b0fa71ac-803a-463a-8fcf-3b53e7ad96e6"},"vehicle_type_id":"4","last_reported":1757934472,"current_range_meters":8400,"station_id":"ce4bhb92rcd13ifvqen0","pricing_plan_id":"cebpf4jnsgd1na2vs0mg"},{"bike_id":"2f0bd1be-c1c5-4046-a044-e209631c37d7","system_id":"levelo_inurba_marseille","lat":43.34141,"lon":5.40906,"is_reserved":false,"is_disabled":false,"rental_uris":{"android":"levelo://app?vid=2f0bd1be-c1c5-4046-a044-e209631c37d7","ios":"levelo://app?vid=2f0bd1be-c1c5-4046-a044-e209631c37d7"},"vehicle_type_id":"4","last_reported":1757934472,"current_range_meters":8800,"station_id":"ce4bhqh2rcd13ifvqhlg","pricing_plan_id":"cebpf4jnsgd1na2vs0mg"},{"bike_id":"7124e99c-b1d0-4477-97aa-845231f3b958","system_id":"levelo_inurba_marseille","lat":43.292251,"lon":5.360542,"is_reserved":false,"is_disabled":false,"rental_uris":{"android":"levelo://app?vid=7124e99c-b1d0-4477-97aa-845231f3b958","ios":"levelo://app?vid=7124e99c-b1d0-4477-97aa-845231f3b958"},"vehicle_type_id":"4","last_reported":1757934472,"current_range_meters":7200,"station_id":"ce4bhbh2rcd13ifvqeqg","pricing_plan_id":"cebpf4jnsgd1na2vs0mg"},{"bike_id":"77cf7a65-af02-40e5-a7f0-b5fdd557d475","system_id":"levelo_inurba_marseille","lat":43.31226,"lon":5.36864,"is_reserved":false,"is_disabled":false,"rental_uris":{"android":"levelo://app?vid=77cf7a65-af02-40e5-a7f0-b5fdd557d475","ios":"levelo://app?vid=77cf7a65-af02-40e5-a7f0-b5fdd557d475"},"vehicle_type_id":"4","last_reported":1757934472,"current_range_meters":8800,"station_id":"ce4bgl92rcd13ifvqbq0","pricing_plan_id":"cebpf4jnsgd1na2vs0mg"},{"bike_id":"1bae9424-2a0d-4c2d-a0e5-65d9bf088c8c","system_id":"levelo_inurba_marseille","lat":43.21756,"lon":5.34587,"is_reserved":false,"is_disabled":false,"rental_uris":{"android":"levelo://app?vid=1bae9424-2a0d-4c2d-a0e5-65d9bf088c8c","ios":"levelo://app?vid=1bae9424-2a0d-4c2d-a0e5-65d9bf088c8c"},"vehicle_type_id":"4","last_reported":1757934472,"current_range_meters":8800,"station_id":"st_cvj6r9ubvosntc0bgbag","pricing_plan_id":"cebpf4jnsgd1na2vs0mg"},{"bike_id":"70129a9d-85c2-44c1-badd-c485d94ca258","system_id":"levelo_inurba_marseille","lat":43.25582,"lon":5.38231,"is_reserved":false,"is_disabled":false,"rental_uris":{"android":"levelo://app?vid=70129a9d-85c2-44c1-badd-c485d94ca258","ios":"levelo://app?vid=70129a9d-85c2-44c1-badd-c485d94ca258"},"vehicle_type_id":"4","last_reported":1757934472,"current_range_meters":9200,"station_id":"ce4bhih2rcd13ifvqfs0","pricing_plan_id":"cebpf4jnsgd1na2vs0mg"},{"bike_id":"ee42c31a-b74b-4b2d-917a-cd50dc10c6ce","system_id":"levelo_inurba_marseille","lat":43.310611,"lon":5.400964,"is_reserved":false,"is_disabled":false,"rental_uris":{"android":"levelo://app?vid=ee42c31a-b74b-4b2d-917a-cd50dc10c6ce","ios":"levelo://app?vid=ee42c31a-b74b-4b2d-917a-cd50dc10c6ce"},"vehicle_type_id":"4","last_reported":1757934472,"current_range_meters":9200,"station_id":"","pricing_plan_id":"cebpf4jnsgd1na2vs0mg"},{"bike_id":"6e9b453e-766d-4177-83d5-30ec3626cb0b","system_id":"levelo_inurba_marseille","lat":43.305489,"lon":5.36558,"is_reserved":false,"is_disabled":false,"rental_uris":{"android":"levelo://app?vid=6e9b453e-766d-4177-83d5-30ec3626cb0b","ios":"levelo://app?vid=6e9b453e-766d-4177-83d5-30ec3626cb0b"},"vehicle_type_id":"4","last_reported":1757934472,"current_range_meters":9200,"station_id":"ce4bgs12rcd13ifvqcag","pricing_plan_id":"cebpf4jnsgd1na2vs0mg"},{"bike_id":"fbd0328c-4ce4-4080-b126-d2d47d815fa6","system_id":"levelo_inurba_marseille","lat":43.21756,"lon":5.34599,"is_reserved":false,"is_disabled":false,"rental_uris":{"android":"levelo://app?vid=fbd0328c-4ce4-4080-b126-d2d47d815fa6","ios":"levelo://app?vid=fbd0328c-4ce4-4080-b126-d2d47d815fa6"},"vehicle_type_id":"4","last_reported":1757934472,"current_range_meters":9200,"station_id":"st_cvj6r9ubvosntc0bgbag","pricing_plan_id":"cebpf4jnsgd1na2vs0mg"},{"bike_id":"c197724f-ac51-4f87-8a4c-6894dceac8f7","system_id":"levelo_inurba_marseille","lat":43.22934,"lon":5.35372,"is_reserved":false,"is_disabled":false,"rental_uris":{"android":"levelo://app?vid=c197724f-ac51-4f87-8a4c-6894dceac8f7","ios":"levelo://app?vid=c197724f-ac51-4f87-8a4c-6894dceac8f7"},"vehicle_type_id":"4","last_reported":1757934472,"current_range_meters":9200,"station_id":"cpo3532slgdg3j2ikp40","pricing_plan_id":"cebpf4jnsgd1na2vs0mg"},{"bike_id":"dd32f779-e928-424d-999f-b730cf475fa7","system_id":"levelo_inurba_marseille","lat":43.21751,"lon":5.34603,"is_reserved":false,"is_disabled":false,"rental_uris":{"android":"levelo://app?vid=dd32f779-e928-424d-999f-b730cf475fa7","ios":"levelo://app?vid=dd32f779-e928-424d-999f-b730cf475fa7"},"vehicle_type_id":"4","last_reported":1757934472,"current_range_meters":9600,"station_id":"st_cvj6r9ubvosntc0bgbag","pricing_plan_id":"cebpf4jnsgd1na2vs0mg"},{"bike_id":"438618fa-e22e-4e89-a422-f876ba41ac8e","system_id":"levelo_inurba_marseille","lat":43.28356,"lon":5.38647,"is_reserved":false,"is_disabled":false,"rental_uris":{"android":"levelo://app?vid=438618fa-e22e-4e89-a422-f876ba41ac8e","ios":"levelo://app?vid=438618fa-e22e-4e89-a422-f876ba41ac8e"},"vehicle_type_id":"4","last_reported":1757934472,"current_range_meters":9600,"station_id":"ce4bh492rcd13ifvqdvg","pricing_plan_id":"cebpf4jnsgd1na2vs0mg"},{"bike_id":"4807d4c7-931e-494c-b46c-a2c1e5ffb712","system_id":"levelo_inurba_marseille","lat":43.2751,"lon":5.42455,"is_reserved":false,"is_disabled":false,"rental_uris":{"android":"levelo://app?vid=4807d4c7-931e-494c-b46c-a2c1e5ffb712","ios":"levelo://app?vid=4807d4c7-931e-494c-b46c-a2c1e5ffb712"},"vehicle_type_id":"4","last_reported":1757934472,"current_range_meters":9600,"station_id":"ce4bhn92rcd13ifvqgrg","pricing_plan_id":"cebpf4jnsgd1na2vs0mg"},{"bike_id":"85db8ab9-6b24-4c23-8762-109e948df9cd","system_id":"levelo_inurba_marseille","lat":43.30581,"lon":5.40467,"is_reserved":false,"is_disabled":false,"rental_uris":{"android":"levelo://app?vid=85db8ab9-6b24-4c23-8762-109e948df9cd","ios":"levelo://app?vid=85db8ab9-6b24-4c23-8762-109e948df9cd"},"vehicle_type_id":"4","last_reported":1757934472,"current_range_meters":9600,"station_id":"","pricing_plan_id":"cebpf4jnsgd1na2vs0mg"},{"bike_id":"468610a3-0e0a-4e5f-a2f8-0dfb80fbda1d","system_id":"levelo_inurba_marseille","lat":43.23213,"lon":5.35557,"is_reserved":false,"is_disabled":false,"rental_uris":{"android":"levelo://app?vid=468610a3-0e0a-4e5f-a2f8-0dfb80fbda1d","ios":"levelo://app?vid=468610a3-0e0a-4e5f-a2f8-0dfb80fbda1d"},"vehicle_type_id":"4","last_reported":1757934472,"current_range_meters":9600,"station_id":"ce4bhu92rcd13ifvqi70","pricing_plan_id":"cebpf4jnsgd1na2vs0mg"},{"bike_id":"0d7bdce4-f655-4154-becf-9c1a5fdd7013","system_id":"levelo_inurba_marseille","lat":43.286735,"lon":5.386801,"is_reserved":false,"is_disabled":false,"rental_uris":{"android":"levelo://app?vid=0d7bdce4-f655-4154-becf-9c1a5fdd7013","ios":"levelo://app?vid=0d7bdce4-f655-4154-becf-9c1a5fdd7013"},"vehicle_type_id":"4","last_reported":1757934472,"current_range_meters":9600,"station_id":"","pricing_plan_id":"cebpf4jnsgd1na2vs0mg"},{"bike_id":"7b6c70ae-87a9-4204-a401-3d5303dd859c","system_id":"levelo_inurba_marseille","lat":43.31714,"lon":5.43711,"is_reserved":false,"is_disabled":false,"rental_uris":{"android":"levelo://app?vid=7b6c70ae-87a9-4204-a401-3d5303dd859c","ios":"levelo://app?vid=7b6c70ae-87a9-4204-a401-3d5303dd859c"},"vehicle_type_id":"4","last_reported":1757934472,"current_range_meters":9200,"station_id":"ce4bhp92rcd13ifvqhcg","pricing_plan_id":"cebpf4jnsgd1na2vs0mg"},{"bike_id":"0f01824c-e510-43bb-b1e2-939b2d9996a9","system_id":"levelo_inurba_marseille","lat":43.21745,"lon":5.34609,"is_reserved":false,"is_disabled":false,"rental_uris":{"android":"levelo://app?vid=0f01824c-e510-43bb-b1e2-939b2d9996a9","ios":"levelo://app?vid=0f01824c-e510-43bb-b1e2-939b2d9996a9"},"vehicle_type_id":"4","last_reported":1757934472,"current_range_meters":9600,"station_id":"st_cvj6r9ubvosntc0bgbag","pricing_plan_id":"cebpf4jnsgd1na2vs0mg"},{"bike_id":"d9c4202c-de13-4428-8c40-40d90faf1618","system_id":"levelo_inurba_marseille","lat":43.31356,"lon":5.3707,"is_reserved":false,"is_disabled":true,"rental_uris":{"android":"levelo://app?vid=d9c4202c-de13-4428-8c40-40d90faf1618","ios":"levelo://app?vid=d9c4202c-de13-4428-8c40-40d90faf1618"},"vehicle_type_id":"4","last_reported":1757934472,"current_range_meters":10000,"station_id":"","pricing_plan_id":"cebpf4jnsgd1na2vs0mg"},{"bike_id":"42db4b23-513a-4a64-98bd-065438b1aac6","system_id":"levelo_inurba_marseille","lat":43.29012,"lon":5.35609,"is_reserved":false,"is_disabled":false,"rental_uris":{"android":"levelo://app?vid=42db4b23-513a-4a64-98bd-065438b1aac6","ios":"levelo://app?vid=42db4b23-513a-4a64-98bd-065438b1aac6"},"vehicle_type_id":"4","last_reported":1757934472,"current_range_meters":10000,"station_id":"ce4bhb92rcd13ifvqen0","pricing_plan_id":"cebpf4jnsgd1na2vs0mg"},{"bike_id":"6ee4f892-c0fd-49e9-a409-19d6d82f3938","system_id":"levelo_inurba_marseille","lat":43.29773,"lon":5.37111,"is_reserved":false,"is_disabled":false,"rental_uris":{"android":"levelo://app?vid=6ee4f892-c0fd-49e9-a409-19d6d82f3938","ios":"levelo://app?vid=6ee4f892-c0fd-49e9-a409-19d6d82f3938"},"vehicle_type_id":"4","last_reported":1757934472,"current_range_meters":10000,"station_id":"ce4bgop2rcd13ifvqc1g","pricing_plan_id":"cebpf4jnsgd1na2vs0mg"},{"bike_id":"4b89ad18-a85a-4cf5-a107-a46d8823374f","system_id":"levelo_inurba_marseille","lat":43.22559,"lon":5.41628,"is_reserved":false,"is_disabled":false,"rental_uris":{"android":"levelo://app?vid=4b89ad18-a85a-4cf5-a107-a46d8823374f","ios":"levelo://app?vid=4b89ad18-a85a-4cf5-a107-a46d8823374f"},"vehicle_type_id":"4","last_reported":1757934472,"current_range_meters":10000,"station_id":"st_d2o4gvlbi1j2169b742g","pricing_plan_id":"cebpf4jnsgd1na2vs0mg"},{"bike_id":"d7d67424-ebc6-47d6-857d-c886039f8a24","system_id":"levelo_inurba_marseille","lat":43.29037,"lon":5.37565,"is_reserved":false,"is_disabled":false,"rental_uris":{"android":"levelo://app?vid=d7d67424-ebc6-47d6-857d-c886039f8a24","ios":"levelo://app?vid=d7d67424-ebc6-47d6-857d-c886039f8a24"},"vehicle_type_id":"4","last_reported":1757934472,"current_range_meters":10000,"station_id":"ce4bh692rcd13ifvqe90","pricing_plan_id":"cebpf4jnsgd1na2vs0mg"},{"bike_id":"f75319f4-d3a6-440f-9c89-5af7f4acd041","system_id":"levelo_inurba_marseille","lat":43.22552,"lon":5.41635,"is_reserved":false,"is_disabled":false,"rental_uris":{"android":"levelo://app?vid=f75319f4-d3a6-440f-9c89-5af7f4acd041","ios":"levelo://app?vid=f75319f4-d3a6-440f-9c89-5af7f4acd041"},"vehicle_type_id":"4","last_reported":1757934472,"current_range_meters":10800,"station_id":"st_d2o4gvlbi1j2169b742g","pricing_plan_id":"cebpf4jnsgd1na2vs0mg"},{"bike_id":"e8930cfa-2c36-4dbf-ab3e-6afdedf38824","system_id":"levelo_inurba_marseille","lat":43.22597,"lon":5.41644,"is_reserved":false,"is_disabled":false,"rental_uris":{"android":"levelo://app?vid=e8930cfa-2c36-4dbf-ab3e-6afdedf38824","ios":"levelo://app?vid=e8930cfa-2c36-4dbf-ab3e-6afdedf38824"},"vehicle_type_id":"4","last_reported":1757934472,"current_range_meters":10800,"station_id":"st_d2o4gvlbi1j2169b742g","pricing_plan_id":"cebpf4jnsgd1na2vs0mg"},{"bike_id":"4d6e6605-7f16-44fa-a19a-c138ee7cb360","system_id":"levelo_inurba_marseille","lat":43.33799,"lon":5.37446,"is_reserved":false,"is_disabled":false,"rental_uris":{"android":"levelo://app?vid=4d6e6605-7f16-44fa-a19a-c138ee7cb360","ios":"levelo://app?vid=4d6e6605-7f16-44fa-a19a-c138ee7cb360"},"vehicle_type_id":"4","last_reported":1757934472,"current_range_meters":10800,"station_id":"","pricing_plan_id":"cebpf4jnsgd1na2vs0mg"},{"bike_id":"bf06ccf3-b27b-40d6-a92e-f06682c80827","system_id":"levelo_inurba_marseille","lat":43.26554,"lon":5.37287,"is_reserved":false,"is_disabled":false,"rental_uris":{"android":"levelo://app?vid=bf06ccf3-b27b-40d6-a92e-f06682c80827","ios":"levelo://app?vid=bf06ccf3-b27b-40d6-a92e-f06682c80827"},"vehicle_type_id":"4","last_reported":1757934472,"current_range_meters":10800,"station_id":"ce4bhg12rcd13ifvqf70","pricing_plan_id":"cebpf4jnsgd1na2vs0mg"},{"bike_id":"09769e2c-c34b-480e-947c-846ae913fd30","system_id":"levelo_inurba_marseille","lat":43.29436,"lon":5.39752,"is_reserved":false,"is_disabled":false,"rental_uris":{"android":"levelo://app?vid=09769e2c-c34b-480e-947c-846ae913fd30","ios":"levelo://app?vid=09769e2c-c34b-480e-947c-846ae913fd30"},"vehicle_type_id":"4","last_reported":1757934472,"current_range_meters":11200,"station_id":"ce4bh3h2rcd13ifvqdo0","pricing_plan_id":"cebpf4jnsgd1na2vs0mg"},{"bike_id":"ddbad199-047a-4b96-a6b9-29196f71caa6","system_id":"levelo_inurba_marseille","lat":43.30304,"lon":5.36875,"is_reserved":false,"is_disabled":false,"rental_uris":{"android":"levelo://app?vid=ddbad199-047a-4b96-a6b9-29196f71caa6","ios":"levelo://app?vid=ddbad199-047a-4b96-a6b9-29196f71caa6"},"vehicle_type_id":"4","last_reported":1757934472,"current_range_meters":11200,"station_id":"ce4bgqh2rcd13ifvqc5g","pricing_plan_id":"cebpf4jnsgd1na2vs0mg"},{"bike_id":"a87c2a54-2fc3-4f18-80dc-f1d02dc0a137","system_id":"levelo_inurba_marseille","lat":43.290054,"lon":5.356183,"is_reserved":false,"is_disabled":false,"rental_uris":{"android":"levelo://app?vid=a87c2a54-2fc3-4f18-80dc-f1d02dc0a137","ios":"levelo://app?vid=a87c2a54-2fc3-4f18-80dc-f1d02dc0a137"},"vehicle_type_id":"4","last_reported":1757934472,"current_range_meters":11200,"station_id":"ce4bhb92rcd13ifvqen0","pricing_plan_id":"cebpf4jnsgd1na2vs0mg"},{"bike_id":"6a8c8dfd-4491-4c9f-9ad3-e84150d677e3","system_id":"levelo_inurba_marseille","lat":43.28925,"lon":5.38405,"is_reserved":false,"is_disabled":false,"rental_uris":{"android":"levelo://app?vid=6a8c8dfd-4491-4c9f-9ad3-e84150d677e3","ios":"levelo://app?vid=6a8c8dfd-4491-4c9f-9ad3-e84150d677e3"},"vehicle_type_id":"4","last_reported":1757934472,"current_range_meters":11200,"station_id":"","pricing_plan_id":"cebpf4jnsgd1na2vs0mg"},{"bike_id":"5a81b3ee-0024-4a9e-9408-afa696bc6341","system_id":"levelo_inurba_marseille","lat":43.23195,"lon":5.35548,"is_reserved":false,"is_disabled":false,"rental_uris":{"android":"levelo://app?vid=5a81b3ee-0024-4a9e-9408-afa696bc6341","ios":"levelo://app?vid=5a81b3ee-0024-4a9e-9408-afa696bc6341"},"vehicle_type_id":"4","last_reported":1757934472,"current_range_meters":11200,"station_id":"ce4bhu92rcd13ifvqi70","pricing_plan_id":"cebpf4jnsgd1na2vs0mg"},{"bike_id":"e25f0f5d-ff10-4609-8aea-03679bd2dfe8","system_id":"levelo_inurba_marseille","lat":43.27815,"lon":5.40711,"is_reserved":false,"is_disabled":false,"rental_uris":{"android":"levelo://app?vid=e25f0f5d-ff10-4609-8aea-03679bd2dfe8","ios":"levelo://app?vid=e25f0f5d-ff10-4609-8aea-03679bd2dfe8"},"vehicle_type_id":"4","last_reported":1757934472,"current_range_meters":11200,"station_id":"ce4bhnh2rcd13ifvqgtg","pricing_plan_id":"cebpf4jnsgd1na2vs0mg"},{"bike_id":"4926c775-e893-4c85-97de-c04ecf3c7713","system_id":"levelo_inurba_marseille","lat":43.27068,"lon":5.42279,"is_reserved":false,"is_disabled":false,"rental_uris":{"android":"levelo://app?vid=4926c775-e893-4c85-97de-c04ecf3c7713","ios":"levelo://app?vid=4926c775-e893-4c85-97de-c04ecf3c7713"},"vehicle_type_id":"4","last_reported":1757934472,"current_range_meters":11600,"station_id":"ce4bhk92rcd13ifvqgb0","pricing_plan_id":"cebpf4jnsgd1na2vs0mg"},{"bike_id":"e05eea5e-3ede-4b75-8a49-e9854c3d159d","system_id":"levelo_inurba_marseille","lat":43.28622,"lon":5.35111,"is_reserved":false,"is_disabled":false,"rental_uris":{"android":"levelo://app?vid=e05eea5e-3ede-4b75-8a49-e9854c3d159d","ios":"levelo://app?vid=e05eea5e-3ede-4b75-8a49-e9854c3d159d"},"vehicle_type_id":"4","last_reported":1757934472,"current_range_meters":11600,"station_id":"ce4bhch2rcd13ifvqeug","pricing_plan_id":"cebpf4jnsgd1na2vs0mg"},{"bike_id":"d2690089-c839-4b7f-8929-731e10f6ee29","system_id":"levelo_inurba_marseille","lat":43.29972,"lon":5.38492,"is_reserved":false,"is_disabled":false,"rental_uris":{"android":"levelo://app?vid=d2690089-c839-4b7f-8929-731e10f6ee29","ios":"levelo://app?vid=d2690089-c839-4b7f-8929-731e10f6ee29"},"vehicle_type_id":"4","last_reported":1757934472,"current_range_meters":11200,"station_id":"ce4bgj92rcd13ifvqbd0","pricing_plan_id":"cebpf4jnsgd1na2vs0mg"},{"bike_id":"746f8f66-7f46-4e2a-8f64-942936320bf9","system_id":"levelo_inurba_marseille","lat":43.23965,"lon":5.3662,"is_reserved":false,"is_disabled":true,"rental_uris":{"android":"levelo://app?vid=746f8f66-7f46-4e2a-8f64-942936320bf9","ios":"levelo://app?vid=746f8f66-7f46-4e2a-8f64-942936320bf9"},"vehicle_type_id":"4","last_reported":1757934472,"current_range_meters":11600,"station_id":"ce4bhi12rcd13ifvqfp0","pricing_plan_id":"cebpf4jnsgd1na2vs0mg"},{"bike_id":"b2fba456-5a3b-40c6-8765-ad84661db187","system_id":"levelo_inurba_marseille","lat":43.257205,"lon":5.411136,"is_reserved":false,"is_disabled":false,"rental_uris":{"android":"levelo://app?vid=b2fba456-5a3b-40c6-8765-ad84661db187","ios":"levelo://app?vid=b2fba456-5a3b-40c6-8765-ad84661db187"},"vehicle_type_id":"4","last_reported":1757934472,"current_range_meters":12000,"station_id":"ce4bhkp2rcd13ifvqgd0","pricing_plan_id":"cebpf4jnsgd1na2vs0mg"},{"bike_id":"97706d3f-f9d6-47c3-953b-bd71c07a3fc3","system_id":"levelo_inurba_marseille","lat":43.25911,"lon":5.40899,"is_reserved":false,"is_disabled":false,"rental_uris":{"android":"levelo://app?vid=97706d3f-f9d6-47c3-953b-bd71c07a3fc3","ios":"levelo://app?vid=97706d3f-f9d6-47c3-953b-bd71c07a3fc3"},"vehicle_type_id":"4","last_reported":1757934472,"current_range_meters":12000,"station_id":"ce4bhm92rcd13ifvqglg","pricing_plan_id":"cebpf4jnsgd1na2vs0mg"},{"bike_id":"deda2f72-48c0-4ae0-8c38-e4fefcd90b6a","system_id":"levelo_inurba_marseille","lat":43.30805,"lon":5.43523,"is_reserved":false,"is_disabled":false,"rental_uris":{"android":"levelo://app?vid=deda2f72-48c0-4ae0-8c38-e4fefcd90b6a","ios":"levelo://app?vid=deda2f72-48c0-4ae0-8c38-e4fefcd90b6a"},"vehicle_type_id":"4","last_reported":1757934472,"current_range_meters":12000,"station_id":"ce4bhph2rcd13ifvqheg","pricing_plan_id":"cebpf4jnsgd1na2vs0mg"},{"bike_id":"57127154-7e15-4346-89ed-ab9d76ef9c2c","system_id":"levelo_inurba_marseille","lat":43.28838,"lon":5.36326,"is_reserved":false,"is_disabled":false,"rental_uris":{"android":"levelo://app?vid=57127154-7e15-4346-89ed-ab9d76ef9c2c","ios":"levelo://app?vid=57127154-7e15-4346-89ed-ab9d76ef9c2c"},"vehicle_type_id":"4","last_reported":1757934472,"current_range_meters":12000,"station_id":"","pricing_plan_id":"cebpf4jnsgd1na2vs0mg"},{"bike_id":"146d9d13-cf6d-4c32-9f07-05f123908819","system_id":"levelo_inurba_marseille","lat":43.29037,"lon":5.39997,"is_reserved":false,"is_disabled":false,"rental_uris":{"android":"levelo://app?vid=146d9d13-cf6d-4c32-9f07-05f123908819","ios":"levelo://app?vid=146d9d13-cf6d-4c32-9f07-05f123908819"},"vehicle_type_id":"4","last_reported":1757934472,"current_range_meters":12400,"station_id":"ce4bh392rcd13ifvqdm0","pricing_plan_id":"cebpf4jnsgd1na2vs0mg"},{"bike_id":"5671e4a2-5441-46e8-9912-6b8d23dc476f","system_id":"levelo_inurba_marseille","lat":43.276721,"lon":5.388768,"is_reserved":false,"is_disabled":false,"rental_uris":{"android":"levelo://app?vid=5671e4a2-5441-46e8-9912-6b8d23dc476f","ios":"levelo://app?vid=5671e4a2-5441-46e8-9912-6b8d23dc476f"},"vehicle_type_id":"4","last_reported":1757934472,"current_range_meters":12400,"station_id":"ce4bhi12rcd13ifvqfo0","pricing_plan_id":"cebpf4jnsgd1na2vs0mg"},{"bike_id":"e7a329bd-ed66-4ac7-aaba-63f2810ddd86","system_id":"levelo_inurba_marseille","lat":43.31859,"lon":5.37206,"is_reserved":false,"is_disabled":true,"rental_uris":{"android":"levelo://app?vid=e7a329bd-ed66-4ac7-aaba-63f2810ddd86","ios":"levelo://app?vid=e7a329bd-ed66-4ac7-aaba-63f2810ddd86"},"vehicle_type_id":"4","last_reported":1757934472,"current_range_meters":12400,"station_id":"","pricing_plan_id":"cebpf4jnsgd1na2vs0mg"},{"bike_id":"30d92779-838e-460b-bf7a-6371f6646707","system_id":"levelo_inurba_marseille","lat":43.21192,"lon":5.35072,"is_reserved":false,"is_disabled":true,"rental_uris":{"android":"levelo://app?vid=30d92779-838e-460b-bf7a-6371f6646707","ios":"levelo://app?vid=30d92779-838e-460b-bf7a-6371f6646707"},"vehicle_type_id":"4","last_reported":1757934472,"current_range_meters":12400,"station_id":"","pricing_plan_id":"cebpf4jnsgd1na2vs0mg"},{"bike_id":"f99d105c-3315-4653-880f-3eb18624199b","system_id":"levelo_inurba_marseille","lat":43.28612,"lon":5.35109,"is_reserved":false,"is_disabled":false,"rental_uris":{"android":"levelo://app?vid=f99d105c-3315-4653-880f-3eb18624199b","ios":"levelo://app?vid=f99d105c-3315-4653-880f-3eb18624199b"},"vehicle_type_id":"4","last_reported":1757934472,"current_range_meters":12400,"station_id":"ce4bhch2rcd13ifvqeug","pricing_plan_id":"cebpf4jnsgd1na2vs0mg"},{"bike_id":"03a632f1-6cf9-48d9-8d0d-cdc6b623de20","system_id":"levelo_inurba_marseille","lat":43.25945,"lon":5.40913,"is_reserved":false,"is_disabled":false,"rental_uris":{"android":"levelo://app?vid=03a632f1-6cf9-48d9-8d0d-cdc6b623de20","ios":"levelo://app?vid=03a632f1-6cf9-48d9-8d0d-cdc6b623de20"},"vehicle_type_id":"4","last_reported":1757934472,"current_range_meters":12400,"station_id":"ce4bhm92rcd13ifvqglg","pricing_plan_id":"cebpf4jnsgd1na2vs0mg"},{"bike_id":"944ea2a6-5bea-4d9a-970b-669091a09825","system_id":"levelo_inurba_marseille","lat":43.3054,"lon":5.36531,"is_reserved":false,"is_disabled":false,"rental_uris":{"android":"levelo://app?vid=944ea2a6-5bea-4d9a-970b-669091a09825","ios":"levelo://app?vid=944ea2a6-5bea-4d9a-970b-669091a09825"},"vehicle_type_id":"4","last_reported":1757934472,"current_range_meters":12400,"station_id":"ce4bgs12rcd13ifvqcag","pricing_plan_id":"cebpf4jnsgd1na2vs0mg"},{"bike_id":"2096b347-4bf7-4445-b590-d2603eabd31e","system_id":"levelo_inurba_marseille","lat":43.30462,"lon":5.37914,"is_reserved":false,"is_disabled":false,"rental_uris":{"android":"levelo://app?vid=2096b347-4bf7-4445-b590-d2603eabd31e","ios":"levelo://app?vid=2096b347-4bf7-4445-b590-d2603eabd31e"},"vehicle_type_id":"4","last_reported":1757934472,"current_range_meters":12400,"station_id":"ce4bgup2rcd13ifvqcn0","pricing_plan_id":"cebpf4jnsgd1na2vs0mg"},{"bike_id":"60df5be0-868d-496d-a7cc-2e097de1a47a","system_id":"levelo_inurba_marseille","lat":43.22554,"lon":5.41636,"is_reserved":false,"is_disabled":false,"rental_uris":{"android":"levelo://app?vid=60df5be0-868d-496d-a7cc-2e097de1a47a","ios":"levelo://app?vid=60df5be0-868d-496d-a7cc-2e097de1a47a"},"vehicle_type_id":"4","last_reported":1757934472,"current_range_meters":12800,"station_id":"st_d2o4gvlbi1j2169b742g","pricing_plan_id":"cebpf4jnsgd1na2vs0mg"},{"bike_id":"fd78db3d-4867-408c-adac-32888fda54c1","system_id":"levelo_inurba_marseille","lat":43.31488,"lon":5.37309,"is_reserved":false,"is_disabled":false,"rental_uris":{"android":"levelo://app?vid=fd78db3d-4867-408c-adac-32888fda54c1","ios":"levelo://app?vid=fd78db3d-4867-408c-adac-32888fda54c1"},"vehicle_type_id":"4","last_reported":1757934472,"current_range_meters":12800,"station_id":"ce4bgt12rcd13ifvqcd0","pricing_plan_id":"cebpf4jnsgd1na2vs0mg"},{"bike_id":"c240aebc-1909-455e-b183-fe4b3b670333","system_id":"levelo_inurba_marseille","lat":43.30158,"lon":5.3808,"is_reserved":false,"is_disabled":false,"rental_uris":{"android":"levelo://app?vid=c240aebc-1909-455e-b183-fe4b3b670333","ios":"levelo://app?vid=c240aebc-1909-455e-b183-fe4b3b670333"},"vehicle_type_id":"4","last_reported":1757934472,"current_range_meters":12800,"station_id":"ce4bgjp2rcd13ifvqbh0","pricing_plan_id":"cebpf4jnsgd1na2vs0mg"},{"bike_id":"9d10ae26-7fa5-4917-8966-974a085b5200","system_id":"levelo_inurba_marseille","lat":43.28271,"lon":5.3508,"is_reserved":false,"is_disabled":false,"rental_uris":{"android":"levelo://app?vid=9d10ae26-7fa5-4917-8966-974a085b5200","ios":"levelo://app?vid=9d10ae26-7fa5-4917-8966-974a085b5200"},"vehicle_type_id":"4","last_reported":1757934472,"current_range_meters":12800,"station_id":"ce4bhbp2rcd13ifvqerg","pricing_plan_id":"cebpf4jnsgd1na2vs0mg"},{"bike_id":"0aab8f84-22ec-4406-afcc-62d49bc45533","system_id":"levelo_inurba_marseille","lat":43.27608,"lon":5.36108,"is_reserved":false,"is_disabled":false,"rental_uris":{"android":"levelo://app?vid=0aab8f84-22ec-4406-afcc-62d49bc45533","ios":"levelo://app?vid=0aab8f84-22ec-4406-afcc-62d49bc45533"},"vehicle_type_id":"4","last_reported":1757934472,"current_range_meters":13600,"station_id":"ce4bgj92rcd13ifvqbe0","pricing_plan_id":"cebpf4jnsgd1na2vs0mg"},{"bike_id":"184c75ba-a2ae-4bc5-b888-4c430b804879","system_id":"levelo_inurba_marseille","lat":43.28408,"lon":5.34995,"is_reserved":false,"is_disabled":false,"rental_uris":{"android":"levelo://app?vid=184c75ba-a2ae-4bc5-b888-4c430b804879","ios":"levelo://app?vid=184c75ba-a2ae-4bc5-b888-4c430b804879"},"vehicle_type_id":"4","last_reported":1757934472,"current_range_meters":13600,"station_id":"ce4bhbh2rcd13ifvqepg","pricing_plan_id":"cebpf4jnsgd1na2vs0mg"},{"bike_id":"0c6fe877-1024-4901-84e8-0fbaefe45584","system_id":"levelo_inurba_marseille","lat":43.33427,"lon":5.40073,"is_reserved":false,"is_disabled":false,"rental_uris":{"android":"levelo://app?vid=0c6fe877-1024-4901-84e8-0fbaefe45584","ios":"levelo://app?vid=0c6fe877-1024-4901-84e8-0fbaefe45584"},"vehicle_type_id":"4","last_reported":1757934472,"current_range_meters":13600,"station_id":"","pricing_plan_id":"cebpf4jnsgd1na2vs0mg"},{"bike_id":"fd86e540-0106-4eec-a31d-ae0b84ea71c4","system_id":"levelo_inurba_marseille","lat":43.30906,"lon":5.37184,"is_reserved":false,"is_disabled":false,"rental_uris":{"android":"levelo://app?vid=fd86e540-0106-4eec-a31d-ae0b84ea71c4","ios":"levelo://app?vid=fd86e540-0106-4eec-a31d-ae0b84ea71c4"},"vehicle_type_id":"4","last_reported":1757934472,"current_range_meters":12800,"station_id":"ce4bguh2rcd13ifvqckg","pricing_plan_id":"cebpf4jnsgd1na2vs0mg"},{"bike_id":"322c1f5a-85db-4ef6-bcd4-1b5c417c8ee0","system_id":"levelo_inurba_marseille","lat":43.3377,"lon":5.37488,"is_reserved":false,"is_disabled":false,"rental_uris":{"android":"levelo://app?vid=322c1f5a-85db-4ef6-bcd4-1b5c417c8ee0","ios":"levelo://app?vid=322c1f5a-85db-4ef6-bcd4-1b5c417c8ee0"},"vehicle_type_id":"4","last_reported":1757934472,"current_range_meters":13600,"station_id":"","pricing_plan_id":"cebpf4jnsgd1na2vs0mg"},{"bike_id":"3c6e2e25-9bc2-444e-a645-33351fa8a730","system_id":"levelo_inurba_marseille","lat":43.23152,"lon":5.43719,"is_reserved":false,"is_disabled":false,"rental_uris":{"android":"levelo://app?vid=3c6e2e25-9bc2-444e-a645-33351fa8a730","ios":"levelo://app?vid=3c6e2e25-9bc2-444e-a645-33351fa8a730"},"vehicle_type_id":"4","last_reported":1757934472,"current_range_meters":14000,"station_id":"ce4bhmp2rcd13ifvqgog","pricing_plan_id":"cebpf4jnsgd1na2vs0mg"},{"bike_id":"1fcd7247-d062-4193-a271-354bf97cbf86","system_id":"levelo_inurba_marseille","lat":43.319992,"lon":5.38156,"is_reserved":false,"is_disabled":false,"rental_uris":{"android":"levelo://app?vid=1fcd7247-d062-4193-a271-354bf97cbf86","ios":"levelo://app?vid=1fcd7247-d062-4193-a271-354bf97cbf86"},"vehicle_type_id":"4","last_reported":1757934472,"current_range_meters":14000,"station_id":"ce4bhr12rcd13ifvqhpg","pricing_plan_id":"cebpf4jnsgd1na2vs0mg"},{"bike_id":"a0af35ec-39e3-4a19-916f-7c9c3c487e0d","system_id":"levelo_inurba_marseille","lat":43.30541,"lon":5.36549,"is_reserved":false,"is_disabled":false,"rental_uris":{"android":"levelo://app?vid=a0af35ec-39e3-4a19-916f-7c9c3c487e0d","ios":"levelo://app?vid=a0af35ec-39e3-4a19-916f-7c9c3c487e0d"},"vehicle_type_id":"4","last_reported":1757934472,"current_range_meters":14000,"station_id":"ce4bgs12rcd13ifvqcag","pricing_plan_id":"cebpf4jnsgd1na2vs0mg"},{"bike_id":"643d862c-ffb1-4572-929b-e8fb12204330","system_id":"levelo_inurba_marseille","lat":43.2319,"lon":5.35555,"is_reserved":false,"is_disabled":false,"rental_uris":{"android":"levelo://app?vid=643d862c-ffb1-4572-929b-e8fb12204330","ios":"levelo://app?vid=643d862c-ffb1-4572-929b-e8fb12204330"},"vehicle_type_id":"4","last_reported":1757934472,"current_range_meters":14000,"station_id":"ce4bhu92rcd13ifvqi70","pricing_plan_id":"cebpf4jnsgd1na2vs0mg"},{"bike_id":"028b832c-44ad-4ac8-8c46-23c807399e7e","system_id":"levelo_inurba_marseille","lat":43.29069,"lon":5.37159,"is_reserved":false,"is_disabled":false,"rental_uris":{"android":"levelo://app?vid=028b832c-44ad-4ac8-8c46-23c807399e7e","ios":"levelo://app?vid=028b832c-44ad-4ac8-8c46-23c807399e7e"},"vehicle_type_id":"4","last_reported":1757934472,"current_range_meters":13600,"station_id":"ce4bh5p2rcd13ifvqe4g","pricing_plan_id":"cebpf4jnsgd1na2vs0mg"},{"bike_id":"aacd5010-3c14-4a94-990e-b13a054af4f7","system_id":"levelo_inurba_marseille","lat":43.29037,"lon":5.37565,"is_reserved":false,"is_disabled":false,"rental_uris":{"android":"levelo://app?vid=aacd5010-3c14-4a94-990e-b13a054af4f7","ios":"levelo://app?vid=aacd5010-3c14-4a94-990e-b13a054af4f7"},"vehicle_type_id":"4","last_reported":1757934472,"current_range_meters":14000,"station_id":"ce4bh692rcd13ifvqe90","pricing_plan_id":"cebpf4jnsgd1na2vs0mg"},{"bike_id":"ed495da0-7396-40a1-ba05-02e23709f872","system_id":"levelo_inurba_marseille","lat":43.28267,"lon":5.35085,"is_reserved":false,"is_disabled":false,"rental_uris":{"android":"levelo://app?vid=ed495da0-7396-40a1-ba05-02e23709f872","ios":"levelo://app?vid=ed495da0-7396-40a1-ba05-02e23709f872"},"vehicle_type_id":"4","last_reported":1757934472,"current_range_meters":14400,"station_id":"ce4bhbp2rcd13ifvqerg","pricing_plan_id":"cebpf4jnsgd1na2vs0mg"},{"bike_id":"9b9a6aca-d8ba-4892-a70c-a46cb142c2a2","system_id":"levelo_inurba_marseille","lat":43.31394,"lon":5.36724,"is_reserved":false,"is_disabled":false,"rental_uris":{"android":"levelo://app?vid=9b9a6aca-d8ba-4892-a70c-a46cb142c2a2","ios":"levelo://app?vid=9b9a6aca-d8ba-4892-a70c-a46cb142c2a2"},"vehicle_type_id":"4","last_reported":1757934472,"current_range_meters":14400,"station_id":"","pricing_plan_id":"cebpf4jnsgd1na2vs0mg"},{"bike_id":"088693c6-0a9a-45c3-b85d-0b3971b1e68f","system_id":"levelo_inurba_marseille","lat":43.305558,"lon":5.365326,"is_reserved":false,"is_disabled":false,"rental_uris":{"android":"levelo://app?vid=088693c6-0a9a-45c3-b85d-0b3971b1e68f","ios":"levelo://app?vid=088693c6-0a9a-45c3-b85d-0b3971b1e68f"},"vehicle_type_id":"4","last_reported":1757934472,"current_range_meters":14400,"station_id":"ce4bgs12rcd13ifvqcag","pricing_plan_id":"cebpf4jnsgd1na2vs0mg"},{"bike_id":"41de12a2-5382-4da2-9751-1300a8df4dc1","system_id":"levelo_inurba_marseille","lat":43.22556,"lon":5.41627,"is_reserved":false,"is_disabled":false,"rental_uris":{"android":"levelo://app?vid=41de12a2-5382-4da2-9751-1300a8df4dc1","ios":"levelo://app?vid=41de12a2-5382-4da2-9751-1300a8df4dc1"},"vehicle_type_id":"4","last_reported":1757934472,"current_range_meters":14400,"station_id":"st_d2o4gvlbi1j2169b742g","pricing_plan_id":"cebpf4jnsgd1na2vs0mg"},{"bike_id":"b8b16c7e-57d7-47fe-95be-257e3973eb3c","system_id":"levelo_inurba_marseille","lat":43.3054,"lon":5.38422,"is_reserved":false,"is_disabled":false,"rental_uris":{"android":"levelo://app?vid=b8b16c7e-57d7-47fe-95be-257e3973eb3c","ios":"levelo://app?vid=b8b16c7e-57d7-47fe-95be-257e3973eb3c"},"vehicle_type_id":"4","last_reported":1757934472,"current_range_meters":14000,"station_id":"ce4bgg92rcd13ifvqb30","pricing_plan_id":"cebpf4jnsgd1na2vs0mg"},{"bike_id":"d27a3574-c668-415b-ad3b-c0a1e10e6cf4","system_id":"levelo_inurba_marseille","lat":43.337444,"lon":5.374475,"is_reserved":false,"is_disabled":false,"rental_uris":{"android":"levelo://app?vid=d27a3574-c668-415b-ad3b-c0a1e10e6cf4","ios":"levelo://app?vid=d27a3574-c668-415b-ad3b-c0a1e10e6cf4"},"vehicle_type_id":"4","last_reported":1757934472,"current_range_meters":14400,"station_id":"","pricing_plan_id":"cebpf4jnsgd1na2vs0mg"},{"bike_id":"1ebb1ad1-55dd-457f-8c00-d14b6509395a","system_id":"levelo_inurba_marseille","lat":43.21777,"lon":5.3461,"is_reserved":false,"is_disabled":false,"rental_uris":{"android":"levelo://app?vid=1ebb1ad1-55dd-457f-8c00-d14b6509395a","ios":"levelo://app?vid=1ebb1ad1-55dd-457f-8c00-d14b6509395a"},"vehicle_type_id":"4","last_reported":1757934472,"current_range_meters":14800,"station_id":"st_cvj6r9ubvosntc0bgbag","pricing_plan_id":"cebpf4jnsgd1na2vs0mg"},{"bike_id":"a155e67d-bec0-4326-ae57-c035ef5e1c81","system_id":"levelo_inurba_marseille","lat":43.29907,"lon":5.43647,"is_reserved":false,"is_disabled":false,"rental_uris":{"android":"levelo://app?vid=a155e67d-bec0-4326-ae57-c035ef5e1c81","ios":"levelo://app?vid=a155e67d-bec0-4326-ae57-c035ef5e1c81"},"vehicle_type_id":"4","last_reported":1757934472,"current_range_meters":14800,"station_id":"ce4bhpp2rcd13ifvqhfg","pricing_plan_id":"cebpf4jnsgd1na2vs0mg"},{"bike_id":"22f0714c-2039-4a83-bf30-446f1d5d64e9","system_id":"levelo_inurba_marseille","lat":43.29025,"lon":5.39973,"is_reserved":false,"is_disabled":false,"rental_uris":{"android":"levelo://app?vid=22f0714c-2039-4a83-bf30-446f1d5d64e9","ios":"levelo://app?vid=22f0714c-2039-4a83-bf30-446f1d5d64e9"},"vehicle_type_id":"4","last_reported":1757934472,"current_range_meters":14800,"station_id":"ce4bh392rcd13ifvqdm0","pricing_plan_id":"cebpf4jnsgd1na2vs0mg"},{"bike_id":"354803e4-5879-4aeb-b4ea-e35421599887","system_id":"levelo_inurba_marseille","lat":43.27499,"lon":5.42456,"is_reserved":false,"is_disabled":false,"rental_uris":{"android":"levelo://app?vid=354803e4-5879-4aeb-b4ea-e35421599887","ios":"levelo://app?vid=354803e4-5879-4aeb-b4ea-e35421599887"},"vehicle_type_id":"4","last_reported":1757934472,"current_range_meters":14800,"station_id":"ce4bhn92rcd13ifvqgrg","pricing_plan_id":"cebpf4jnsgd1na2vs0mg"},{"bike_id":"4f76668c-441d-41d1-bf4f-9284a55393e8","system_id":"levelo_inurba_marseille","lat":43.26781,"lon":5.39416,"is_reserved":false,"is_disabled":false,"rental_uris":{"android":"levelo://app?vid=4f76668c-441d-41d1-bf4f-9284a55393e8","ios":"levelo://app?vid=4f76668c-441d-41d1-bf4f-9284a55393e8"},"vehicle_type_id":"4","last_reported":1757934472,"current_range_meters":14400,"station_id":"ce4bhh12rcd13ifvqfg0","pricing_plan_id":"cebpf4jnsgd1na2vs0mg"},{"bike_id":"d352386b-fa38-41d4-a418-05ab678845a6","system_id":"levelo_inurba_marseille","lat":43.28206,"lon":5.39039,"is_reserved":false,"is_disabled":false,"rental_uris":{"android":"levelo://app?vid=d352386b-fa38-41d4-a418-05ab678845a6","ios":"levelo://app?vid=d352386b-fa38-41d4-a418-05ab678845a6"},"vehicle_type_id":"4","last_reported":1757934472,"current_range_meters":14800,"station_id":"ce4bhn92rcd13ifvqgsg","pricing_plan_id":"cebpf4jnsgd1na2vs0mg"},{"bike_id":"f7c56a48-db06-4ee3-9b90-45854a625eac","system_id":"levelo_inurba_marseille","lat":43.259319,"lon":5.409026,"is_reserved":false,"is_disabled":false,"rental_uris":{"android":"levelo://app?vid=f7c56a48-db06-4ee3-9b90-45854a625eac","ios":"levelo://app?vid=f7c56a48-db06-4ee3-9b90-45854a625eac"},"vehicle_type_id":"4","last_reported":1757934472,"current_range_meters":15200,"station_id":"ce4bhm92rcd13ifvqglg","pricing_plan_id":"cebpf4jnsgd1na2vs0mg"},{"bike_id":"b92fdf3e-fa79-4555-b8c2-11ea0f2213f0","system_id":"levelo_inurba_marseille","lat":43.28619,"lon":5.35101,"is_reserved":false,"is_disabled":false,"rental_uris":{"android":"levelo://app?vid=b92fdf3e-fa79-4555-b8c2-11ea0f2213f0","ios":"levelo://app?vid=b92fdf3e-fa79-4555-b8c2-11ea0f2213f0"},"vehicle_type_id":"4","last_reported":1757934472,"current_range_meters":15200,"station_id":"ce4bhch2rcd13ifvqeug","pricing_plan_id":"cebpf4jnsgd1na2vs0mg"},{"bike_id":"03b6fcb5-15ff-4279-8b32-27feebb6d9ef","system_id":"levelo_inurba_marseille","lat":43.27319,"lon":5.39101,"is_reserved":false,"is_disabled":false,"rental_uris":{"android":"levelo://app?vid=03b6fcb5-15ff-4279-8b32-27feebb6d9ef","ios":"levelo://app?vid=03b6fcb5-15ff-4279-8b32-27feebb6d9ef"},"vehicle_type_id":"4","last_reported":1757934472,"current_range_meters":16000,"station_id":"ce4bhgp2rcd13ifvqfe0","pricing_plan_id":"cebpf4jnsgd1na2vs0mg"},{"bike_id":"d73ebff0-d957-41dc-a638-29b88edc4926","system_id":"levelo_inurba_marseille","lat":43.22581,"lon":5.41605,"is_reserved":false,"is_disabled":false,"rental_uris":{"android":"levelo://app?vid=d73ebff0-d957-41dc-a638-29b88edc4926","ios":"levelo://app?vid=d73ebff0-d957-41dc-a638-29b88edc4926"},"vehicle_type_id":"4","last_reported":1757934472,"current_range_meters":16000,"station_id":"st_d2o4gvlbi1j2169b742g","pricing_plan_id":"cebpf4jnsgd1na2vs0mg"},{"bike_id":"7c6d9800-27e8-47df-92b4-cde9f7ee2987","system_id":"levelo_inurba_marseille","lat":43.250839,"lon":5.39529,"is_reserved":false,"is_disabled":false,"rental_uris":{"android":"levelo://app?vid=7c6d9800-27e8-47df-92b4-cde9f7ee2987","ios":"levelo://app?vid=7c6d9800-27e8-47df-92b4-cde9f7ee2987"},"vehicle_type_id":"4","last_reported":1757934472,"current_range_meters":16000,"station_id":"ce4bhm12rcd13ifvqgkg","pricing_plan_id":"cebpf4jnsgd1na2vs0mg"},{"bike_id":"ea4693de-86b3-41b2-926a-c1ac20480be1","system_id":"levelo_inurba_marseille","lat":43.31381,"lon":5.36757,"is_reserved":false,"is_disabled":false,"rental_uris":{"android":"levelo://app?vid=ea4693de-86b3-41b2-926a-c1ac20480be1","ios":"levelo://app?vid=ea4693de-86b3-41b2-926a-c1ac20480be1"},"vehicle_type_id":"4","last_reported":1757934472,"current_range_meters":16000,"station_id":"","pricing_plan_id":"cebpf4jnsgd1na2vs0mg"},{"bike_id":"67fa68de-275a-40ea-a25c-28fd7e443715","system_id":"levelo_inurba_marseille","lat":43.29969,"lon":5.37172,"is_reserved":false,"is_disabled":false,"rental_uris":{"android":"levelo://app?vid=67fa68de-275a-40ea-a25c-28fd7e443715","ios":"levelo://app?vid=67fa68de-275a-40ea-a25c-28fd7e443715"},"vehicle_type_id":"4","last_reported":1757934472,"current_range_meters":15200,"station_id":"ce4bgr92rcd13ifvqc7g","pricing_plan_id":"cebpf4jnsgd1na2vs0mg"},{"bike_id":"5747e94d-4a4c-4824-9aa7-be6eecda9e10","system_id":"levelo_inurba_marseille","lat":43.24663,"lon":5.38166,"is_reserved":false,"is_disabled":false,"rental_uris":{"android":"levelo://app?vid=5747e94d-4a4c-4824-9aa7-be6eecda9e10","ios":"levelo://app?vid=5747e94d-4a4c-4824-9aa7-be6eecda9e10"},"vehicle_type_id":"4","last_reported":1757934472,"current_range_meters":16000,"station_id":"ce4bhih2rcd13ifvqfr0","pricing_plan_id":"cebpf4jnsgd1na2vs0mg"},{"bike_id":"8ef8bf7d-8a91-4724-8c2e-ddeef723e28a","system_id":"levelo_inurba_marseille","lat":43.2703,"lon":5.37925,"is_reserved":false,"is_disabled":false,"rental_uris":{"android":"levelo://app?vid=8ef8bf7d-8a91-4724-8c2e-ddeef723e28a","ios":"levelo://app?vid=8ef8bf7d-8a91-4724-8c2e-ddeef723e28a"},"vehicle_type_id":"4","last_reported":1757934472,"current_range_meters":16400,"station_id":"","pricing_plan_id":"cebpf4jnsgd1na2vs0mg"},{"bike_id":"3dbaea07-3afd-403d-8367-7bfa92596a01","system_id":"levelo_inurba_marseille","lat":43.21743,"lon":5.34607,"is_reserved":false,"is_disabled":false,"rental_uris":{"android":"levelo://app?vid=3dbaea07-3afd-403d-8367-7bfa92596a01","ios":"levelo://app?vid=3dbaea07-3afd-403d-8367-7bfa92596a01"},"vehicle_type_id":"4","last_reported":1757934472,"current_range_meters":16400,"station_id":"st_cvj6r9ubvosntc0bgbag","pricing_plan_id":"cebpf4jnsgd1na2vs0mg"},{"bike_id":"a333d9ec-a9a7-4617-ac2f-4224c0d88af6","system_id":"levelo_inurba_marseille","lat":43.27494,"lon":5.42456,"is_reserved":false,"is_disabled":false,"rental_uris":{"android":"levelo://app?vid=a333d9ec-a9a7-4617-ac2f-4224c0d88af6","ios":"levelo://app?vid=a333d9ec-a9a7-4617-ac2f-4224c0d88af6"},"vehicle_type_id":"4","last_reported":1757934472,"current_range_meters":16400,"station_id":"ce4bhn92rcd13ifvqgrg","pricing_plan_id":"cebpf4jnsgd1na2vs0mg"},{"bike_id":"bcbe7a5e-7784-4d13-96dc-77fd6597b4e4","system_id":"levelo_inurba_marseille","lat":43.21193,"lon":5.35069,"is_reserved":false,"is_disabled":true,"rental_uris":{"android":"levelo://app?vid=bcbe7a5e-7784-4d13-96dc-77fd6597b4e4","ios":"levelo://app?vid=bcbe7a5e-7784-4d13-96dc-77fd6597b4e4"},"vehicle_type_id":"4","last_reported":1757934472,"current_range_meters":16400,"station_id":"","pricing_plan_id":"cebpf4jnsgd1na2vs0mg"},{"bike_id":"c8cf71ab-2cba-487d-b0aa-fba68c18bfaa","system_id":"levelo_inurba_marseille","lat":43.27498,"lon":5.42448,"is_reserved":false,"is_disabled":false,"rental_uris":{"android":"levelo://app?vid=c8cf71ab-2cba-487d-b0aa-fba68c18bfaa","ios":"levelo://app?vid=c8cf71ab-2cba-487d-b0aa-fba68c18bfaa"},"vehicle_type_id":"4","last_reported":1757934472,"current_range_meters":16800,"station_id":"ce4bhn92rcd13ifvqgrg","pricing_plan_id":"cebpf4jnsgd1na2vs0mg"},{"bike_id":"061da85e-c883-4dd5-9115-0e54f3608182","system_id":"levelo_inurba_marseille","lat":43.25091,"lon":5.39518,"is_reserved":false,"is_disabled":false,"rental_uris":{"android":"levelo://app?vid=061da85e-c883-4dd5-9115-0e54f3608182","ios":"levelo://app?vid=061da85e-c883-4dd5-9115-0e54f3608182"},"vehicle_type_id":"4","last_reported":1757934472,"current_range_meters":16800,"station_id":"ce4bhm12rcd13ifvqgkg","pricing_plan_id":"cebpf4jnsgd1na2vs0mg"},{"bike_id":"90f05e37-1d45-48d8-87b7-32ed5b8e4ee5","system_id":"levelo_inurba_marseille","lat":43.284919,"lon":5.385637,"is_reserved":false,"is_disabled":false,"rental_uris":{"android":"levelo://app?vid=90f05e37-1d45-48d8-87b7-32ed5b8e4ee5","ios":"levelo://app?vid=90f05e37-1d45-48d8-87b7-32ed5b8e4ee5"},"vehicle_type_id":"4","last_reported":1757934472,"current_range_meters":16800,"station_id":"ce4bh8p2rcd13ifvqeb0","pricing_plan_id":"cebpf4jnsgd1na2vs0mg"},{"bike_id":"b35fb7aa-f39e-4c4f-86ae-6c45e23d776c","system_id":"levelo_inurba_marseille","lat":43.31356,"lon":5.38494,"is_reserved":false,"is_disabled":false,"rental_uris":{"android":"levelo://app?vid=b35fb7aa-f39e-4c4f-86ae-6c45e23d776c","ios":"levelo://app?vid=b35fb7aa-f39e-4c4f-86ae-6c45e23d776c"},"vehicle_type_id":"4","last_reported":1757934472,"current_range_meters":16800,"station_id":"ce4bgt92rcd13ifvqcf0","pricing_plan_id":"cebpf4jnsgd1na2vs0mg"},{"bike_id":"2d75211b-0e2e-47e6-a4b0-6380f6520eaf","system_id":"levelo_inurba_marseille","lat":43.30597,"lon":5.37214,"is_reserved":false,"is_disabled":false,"rental_uris":{"android":"levelo://app?vid=2d75211b-0e2e-47e6-a4b0-6380f6520eaf","ios":"levelo://app?vid=2d75211b-0e2e-47e6-a4b0-6380f6520eaf"},"vehicle_type_id":"4","last_reported":1757934472,"current_range_meters":16400,"station_id":"ce4bgqh2rcd13ifvqc4g","pricing_plan_id":"cebpf4jnsgd1na2vs0mg"},{"bike_id":"50197c53-81a8-4b38-9fe9-3b432b73edd3","system_id":"levelo_inurba_marseille","lat":43.304955,"lon":5.380133,"is_reserved":false,"is_disabled":false,"rental_uris":{"android":"levelo://app?vid=50197c53-81a8-4b38-9fe9-3b432b73edd3","ios":"levelo://app?vid=50197c53-81a8-4b38-9fe9-3b432b73edd3"},"vehicle_type_id":"4","last_reported":1757934472,"current_range_meters":16800,"station_id":"ce4bgup2rcd13ifvqcn0","pricing_plan_id":"cebpf4jnsgd1na2vs0mg"},{"bike_id":"4d0da910-152b-448e-9786-b400d7fabfca","system_id":"levelo_inurba_marseille","lat":43.29201,"lon":5.36056,"is_reserved":false,"is_disabled":false,"rental_uris":{"android":"levelo://app?vid=4d0da910-152b-448e-9786-b400d7fabfca","ios":"levelo://app?vid=4d0da910-152b-448e-9786-b400d7fabfca"},"vehicle_type_id":"4","last_reported":1757934472,"current_range_meters":16800,"station_id":"ce4bhbh2rcd13ifvqeqg","pricing_plan_id":"cebpf4jnsgd1na2vs0mg"},{"bike_id":"d765e876-dc94-417e-ad8c-0ac49bf5261a","system_id":"levelo_inurba_marseille","lat":43.31388,"lon":5.37179,"is_reserved":false,"is_disabled":false,"rental_uris":{"android":"levelo://app?vid=d765e876-dc94-417e-ad8c-0ac49bf5261a","ios":"levelo://app?vid=d765e876-dc94-417e-ad8c-0ac49bf5261a"},"vehicle_type_id":"4","last_reported":1757934472,"current_range_meters":17200,"station_id":"","pricing_plan_id":"cebpf4jnsgd1na2vs0mg"},{"bike_id":"5d5b51f8-15be-4825-804c-c2485c6a00ac","system_id":"levelo_inurba_marseille","lat":43.25936,"lon":5.40889,"is_reserved":false,"is_disabled":false,"rental_uris":{"android":"levelo://app?vid=5d5b51f8-15be-4825-804c-c2485c6a00ac","ios":"levelo://app?vid=5d5b51f8-15be-4825-804c-c2485c6a00ac"},"vehicle_type_id":"4","last_reported":1757934472,"current_range_meters":17200,"station_id":"ce4bhm92rcd13ifvqglg","pricing_plan_id":"cebpf4jnsgd1na2vs0mg"},{"bike_id":"b575a595-f932-4230-9ca7-6937f4a43d90","system_id":"levelo_inurba_marseille","lat":43.21742,"lon":5.34602,"is_reserved":false,"is_disabled":false,"rental_uris":{"android":"levelo://app?vid=b575a595-f932-4230-9ca7-6937f4a43d90","ios":"levelo://app?vid=b575a595-f932-4230-9ca7-6937f4a43d90"},"vehicle_type_id":"4","last_reported":1757934472,"current_range_meters":17200,"station_id":"st_cvj6r9ubvosntc0bgbag","pricing_plan_id":"cebpf4jnsgd1na2vs0mg"},{"bike_id":"c555b9c8-46cb-46b4-8ea8-5bd39dbada33","system_id":"levelo_inurba_marseille","lat":43.29359,"lon":5.37855,"is_reserved":false,"is_disabled":false,"rental_uris":{"android":"levelo://app?vid=c555b9c8-46cb-46b4-8ea8-5bd39dbada33","ios":"levelo://app?vid=c555b9c8-46cb-46b4-8ea8-5bd39dbada33"},"vehicle_type_id":"4","last_reported":1757934472,"current_range_meters":17200,"station_id":"ce4bgjh2rcd13ifvqbf0","pricing_plan_id":"cebpf4jnsgd1na2vs0mg"},{"bike_id":"a92a149c-a332-4cfb-b945-529099ffe455","system_id":"levelo_inurba_marseille","lat":43.28628,"lon":5.35101,"is_reserved":false,"is_disabled":false,"rental_uris":{"android":"levelo://app?vid=a92a149c-a332-4cfb-b945-529099ffe455","ios":"levelo://app?vid=a92a149c-a332-4cfb-b945-529099ffe455"},"vehicle_type_id":"4","last_reported":1757934472,"current_range_meters":17200,"station_id":"ce4bhch2rcd13ifvqeug","pricing_plan_id":"cebpf4jnsgd1na2vs0mg"},{"bike_id":"8e3fcb0d-f886-45bd-8ded-0b004d337730","system_id":"levelo_inurba_marseille","lat":43.29808,"lon":5.38095,"is_reserved":false,"is_disabled":false,"rental_uris":{"android":"levelo://app?vid=8e3fcb0d-f886-45bd-8ded-0b004d337730","ios":"levelo://app?vid=8e3fcb0d-f886-45bd-8ded-0b004d337730"},"vehicle_type_id":"4","last_reported":1757934472,"current_range_meters":17200,"station_id":"ce4bgip2rcd13ifvqbb0","pricing_plan_id":"cebpf4jnsgd1na2vs0mg"},{"bike_id":"aeeda5ab-3c3e-4db4-92c4-ac0bbf5ef742","system_id":"levelo_inurba_marseille","lat":43.27073,"lon":5.42282,"is_reserved":false,"is_disabled":false,"rental_uris":{"android":"levelo://app?vid=aeeda5ab-3c3e-4db4-92c4-ac0bbf5ef742","ios":"levelo://app?vid=aeeda5ab-3c3e-4db4-92c4-ac0bbf5ef742"},"vehicle_type_id":"4","last_reported":1757934472,"current_range_meters":17200,"station_id":"ce4bhk92rcd13ifvqgb0","pricing_plan_id":"cebpf4jnsgd1na2vs0mg"},{"bike_id":"07f253ed-0c27-4c7f-b8c5-58f787390f65","system_id":"levelo_inurba_marseille","lat":43.29869,"lon":5.39733,"is_reserved":false,"is_disabled":false,"rental_uris":{"android":"levelo://app?vid=07f253ed-0c27-4c7f-b8c5-58f787390f65","ios":"levelo://app?vid=07f253ed-0c27-4c7f-b8c5-58f787390f65"},"vehicle_type_id":"4","last_reported":1757934472,"current_range_meters":17600,"station_id":"ce4bh0h2rcd13ifvqd50","pricing_plan_id":"cebpf4jnsgd1na2vs0mg"},{"bike_id":"82793d05-1e17-465e-96cc-0a955080a843","system_id":"levelo_inurba_marseille","lat":43.28624,"lon":5.35106,"is_reserved":false,"is_disabled":false,"rental_uris":{"android":"levelo://app?vid=82793d05-1e17-465e-96cc-0a955080a843","ios":"levelo://app?vid=82793d05-1e17-465e-96cc-0a955080a843"},"vehicle_type_id":"4","last_reported":1757934472,"current_range_meters":17600,"station_id":"ce4bhch2rcd13ifvqeug","pricing_plan_id":"cebpf4jnsgd1na2vs0mg"},{"bike_id":"d4c7f855-9374-4a76-8f77-b4ec4c31c8fc","system_id":"levelo_inurba_marseille","lat":43.26058,"lon":5.37532,"is_reserved":false,"is_disabled":false,"rental_uris":{"android":"levelo://app?vid=d4c7f855-9374-4a76-8f77-b4ec4c31c8fc","ios":"levelo://app?vid=d4c7f855-9374-4a76-8f77-b4ec4c31c8fc"},"vehicle_type_id":"4","last_reported":1757934472,"current_range_meters":17600,"station_id":"ce4bhgh2rcd13ifvqfa0","pricing_plan_id":"cebpf4jnsgd1na2vs0mg"},{"bike_id":"a0c59795-9c85-4c14-b9a6-cff043f393f5","system_id":"levelo_inurba_marseille","lat":43.28158,"lon":5.42639,"is_reserved":false,"is_disabled":false,"rental_uris":{"android":"levelo://app?vid=a0c59795-9c85-4c14-b9a6-cff043f393f5","ios":"levelo://app?vid=a0c59795-9c85-4c14-b9a6-cff043f393f5"},"vehicle_type_id":"4","last_reported":1757934472,"current_range_meters":17200,"station_id":"ce4bhnh2rcd13ifvqgug","pricing_plan_id":"cebpf4jnsgd1na2vs0mg"},{"bike_id":"d5a5ba4a-04b6-4f15-8eaa-e5ab4cf1e71f","system_id":"levelo_inurba_marseille","lat":43.29374,"lon":5.3786,"is_reserved":false,"is_disabled":false,"rental_uris":{"android":"levelo://app?vid=d5a5ba4a-04b6-4f15-8eaa-e5ab4cf1e71f","ios":"levelo://app?vid=d5a5ba4a-04b6-4f15-8eaa-e5ab4cf1e71f"},"vehicle_type_id":"4","last_reported":1757934472,"current_range_meters":17200,"station_id":"ce4bgjh2rcd13ifvqbf0","pricing_plan_id":"cebpf4jnsgd1na2vs0mg"},{"bike_id":"9240cde8-b960-4ef6-a600-8b3785aacb47","system_id":"levelo_inurba_marseille","lat":43.273174,"lon":5.390754,"is_reserved":false,"is_disabled":false,"rental_uris":{"android":"levelo://app?vid=9240cde8-b960-4ef6-a600-8b3785aacb47","ios":"levelo://app?vid=9240cde8-b960-4ef6-a600-8b3785aacb47"},"vehicle_type_id":"4","last_reported":1757934472,"current_range_meters":17600,"station_id":"ce4bhgp2rcd13ifvqfe0","pricing_plan_id":"cebpf4jnsgd1na2vs0mg"},{"bike_id":"a02e580d-3093-4e34-a053-4227fdd65225","system_id":"levelo_inurba_marseille","lat":43.25886,"lon":5.39922,"is_reserved":false,"is_disabled":false,"rental_uris":{"android":"levelo://app?vid=a02e580d-3093-4e34-a053-4227fdd65225","ios":"levelo://app?vid=a02e580d-3093-4e34-a053-4227fdd65225"},"vehicle_type_id":"4","last_reported":1757934472,"current_range_meters":17600,"station_id":"ce4bhl92rcd13ifvqghg","pricing_plan_id":"cebpf4jnsgd1na2vs0mg"},{"bike_id":"2d2a1272-043d-440a-a7be-00c186dad9c5","system_id":"levelo_inurba_marseille","lat":43.231407,"lon":5.437741,"is_reserved":false,"is_disabled":false,"rental_uris":{"android":"levelo://app?vid=2d2a1272-043d-440a-a7be-00c186dad9c5","ios":"levelo://app?vid=2d2a1272-043d-440a-a7be-00c186dad9c5"},"vehicle_type_id":"4","last_reported":1757934472,"current_range_meters":17200,"station_id":"ce4bhmp2rcd13ifvqgog","pricing_plan_id":"cebpf4jnsgd1na2vs0mg"},{"bike_id":"f10a4125-ea58-4e63-b38e-ac18ed551e3a","system_id":"levelo_inurba_marseille","lat":43.31044,"lon":5.40036,"is_reserved":false,"is_disabled":true,"rental_uris":{"android":"levelo://app?vid=f10a4125-ea58-4e63-b38e-ac18ed551e3a","ios":"levelo://app?vid=f10a4125-ea58-4e63-b38e-ac18ed551e3a"},"vehicle_type_id":"4","last_reported":1757934472,"current_range_meters":18000,"station_id":"","pricing_plan_id":"cebpf4jnsgd1na2vs0mg"},{"bike_id":"eb7cc917-6832-4011-8ed0-0ea12e66e244","system_id":"levelo_inurba_marseille","lat":43.3248,"lon":5.36572,"is_reserved":false,"is_disabled":false,"rental_uris":{"android":"levelo://app?vid=eb7cc917-6832-4011-8ed0-0ea12e66e244","ios":"levelo://app?vid=eb7cc917-6832-4011-8ed0-0ea12e66e244"},"vehicle_type_id":"4","last_reported":1757934472,"current_range_meters":18000,"station_id":"ce4bhs12rcd13ifvqhvg","pricing_plan_id":"cebpf4jnsgd1na2vs0mg"},{"bike_id":"d076778c-1c4b-4d1d-a7f9-3fd721dc9e6d","system_id":"levelo_inurba_marseille","lat":43.274901,"lon":5.42461,"is_reserved":false,"is_disabled":false,"rental_uris":{"android":"levelo://app?vid=d076778c-1c4b-4d1d-a7f9-3fd721dc9e6d","ios":"levelo://app?vid=d076778c-1c4b-4d1d-a7f9-3fd721dc9e6d"},"vehicle_type_id":"4","last_reported":1757934472,"current_range_meters":18000,"station_id":"ce4bhn92rcd13ifvqgrg","pricing_plan_id":"cebpf4jnsgd1na2vs0mg"},{"bike_id":"7bc4c260-fdfc-4672-aa91-eef4b2de5567","system_id":"levelo_inurba_marseille","lat":43.31225,"lon":5.36863,"is_reserved":false,"is_disabled":false,"rental_uris":{"android":"levelo://app?vid=7bc4c260-fdfc-4672-aa91-eef4b2de5567","ios":"levelo://app?vid=7bc4c260-fdfc-4672-aa91-eef4b2de5567"},"vehicle_type_id":"4","last_reported":1757934472,"current_range_meters":18000,"station_id":"ce4bgl92rcd13ifvqbq0","pricing_plan_id":"cebpf4jnsgd1na2vs0mg"},{"bike_id":"f21e2474-769f-4014-b515-2154732b5fee","system_id":"levelo_inurba_marseille","lat":43.28739,"lon":5.40012,"is_reserved":false,"is_disabled":false,"rental_uris":{"android":"levelo://app?vid=f21e2474-769f-4014-b515-2154732b5fee","ios":"levelo://app?vid=f21e2474-769f-4014-b515-2154732b5fee"},"vehicle_type_id":"4","last_reported":1757934472,"current_range_meters":18000,"station_id":"ce4bho92rcd13ifvqh3g","pricing_plan_id":"cebpf4jnsgd1na2vs0mg"},{"bike_id":"96ee9b57-cff5-4252-a08f-6a37cf344cd3","system_id":"levelo_inurba_marseille","lat":43.27103,"lon":5.42257,"is_reserved":false,"is_disabled":false,"rental_uris":{"android":"levelo://app?vid=96ee9b57-cff5-4252-a08f-6a37cf344cd3","ios":"levelo://app?vid=96ee9b57-cff5-4252-a08f-6a37cf344cd3"},"vehicle_type_id":"4","last_reported":1757934472,"current_range_meters":18000,"station_id":"ce4bhk92rcd13ifvqgb0","pricing_plan_id":"cebpf4jnsgd1na2vs0mg"},{"bike_id":"78c4d63e-ddd9-4dbd-9a54-6d3e729398f2","system_id":"levelo_inurba_marseille","lat":43.31369,"lon":5.36685,"is_reserved":false,"is_disabled":false,"rental_uris":{"android":"levelo://app?vid=78c4d63e-ddd9-4dbd-9a54-6d3e729398f2","ios":"levelo://app?vid=78c4d63e-ddd9-4dbd-9a54-6d3e729398f2"},"vehicle_type_id":"4","last_reported":1757934472,"current_range_meters":18000,"station_id":"ce4bgr92rcd13ifvqc6g","pricing_plan_id":"cebpf4jnsgd1na2vs0mg"},{"bike_id":"e73470b2-f46f-4f87-989f-53f8372e4317","system_id":"levelo_inurba_marseille","lat":43.33902,"lon":5.39155,"is_reserved":false,"is_disabled":false,"rental_uris":{"android":"levelo://app?vid=e73470b2-f46f-4f87-989f-53f8372e4317","ios":"levelo://app?vid=e73470b2-f46f-4f87-989f-53f8372e4317"},"vehicle_type_id":"4","last_reported":1757934472,"current_range_meters":18000,"station_id":"","pricing_plan_id":"cebpf4jnsgd1na2vs0mg"},{"bike_id":"5afa2e39-bd21-48e5-9d65-4bd2362b947e","system_id":"levelo_inurba_marseille","lat":43.272126,"lon":5.391794,"is_reserved":false,"is_disabled":false,"rental_uris":{"android":"levelo://app?vid=5afa2e39-bd21-48e5-9d65-4bd2362b947e","ios":"levelo://app?vid=5afa2e39-bd21-48e5-9d65-4bd2362b947e"},"vehicle_type_id":"4","last_reported":1757934472,"current_range_meters":17600,"station_id":"ce4bhhp2rcd13ifvqfm0","pricing_plan_id":"cebpf4jnsgd1na2vs0mg"},{"bike_id":"921ff5bf-eb9d-4b59-9c86-c405e972b901","system_id":"levelo_inurba_marseille","lat":43.25941,"lon":5.40897,"is_reserved":false,"is_disabled":false,"rental_uris":{"android":"levelo://app?vid=921ff5bf-eb9d-4b59-9c86-c405e972b901","ios":"levelo://app?vid=921ff5bf-eb9d-4b59-9c86-c405e972b901"},"vehicle_type_id":"4","last_reported":1757934472,"current_range_meters":18000,"station_id":"ce4bhm92rcd13ifvqglg","pricing_plan_id":"cebpf4jnsgd1na2vs0mg"},{"bike_id":"c4051c11-1f83-4e1f-a87e-359e06917b23","system_id":"levelo_inurba_marseille","lat":43.24649,"lon":5.38896,"is_reserved":false,"is_disabled":false,"rental_uris":{"android":"levelo://app?vid=c4051c11-1f83-4e1f-a87e-359e06917b23","ios":"levelo://app?vid=c4051c11-1f83-4e1f-a87e-359e06917b23"},"vehicle_type_id":"4","last_reported":1757934472,"current_range_meters":18000,"station_id":"ce4bhg12rcd13ifvqf60","pricing_plan_id":"cebpf4jnsgd1na2vs0mg"},{"bike_id":"cd4703dc-0b76-43af-80a1-01f3dfd60f90","system_id":"levelo_inurba_marseille","lat":43.32035,"lon":5.41561,"is_reserved":false,"is_disabled":false,"rental_uris":{"android":"levelo://app?vid=cd4703dc-0b76-43af-80a1-01f3dfd60f90","ios":"levelo://app?vid=cd4703dc-0b76-43af-80a1-01f3dfd60f90"},"vehicle_type_id":"4","last_reported":1757934472,"current_range_meters":18000,"station_id":"ce4bhq92rcd13ifvqhkg","pricing_plan_id":"cebpf4jnsgd1na2vs0mg"},{"bike_id":"d06d078b-9778-4fb3-a0a3-697b3db6db6c","system_id":"levelo_inurba_marseille","lat":43.22925,"lon":5.35376,"is_reserved":false,"is_disabled":false,"rental_uris":{"android":"levelo://app?vid=d06d078b-9778-4fb3-a0a3-697b3db6db6c","ios":"levelo://app?vid=d06d078b-9778-4fb3-a0a3-697b3db6db6c"},"vehicle_type_id":"4","last_reported":1757934472,"current_range_meters":18800,"station_id":"cpo3532slgdg3j2ikp40","pricing_plan_id":"cebpf4jnsgd1na2vs0mg"},{"bike_id":"1168a5ed-5ef1-47fe-9e0b-8a3e1ad7cf3a","system_id":"levelo_inurba_marseille","lat":43.25501,"lon":5.37647,"is_reserved":false,"is_disabled":false,"rental_uris":{"android":"levelo://app?vid=1168a5ed-5ef1-47fe-9e0b-8a3e1ad7cf3a","ios":"levelo://app?vid=1168a5ed-5ef1-47fe-9e0b-8a3e1ad7cf3a"},"vehicle_type_id":"4","last_reported":1757934472,"current_range_meters":18000,"station_id":"ce4bhh12rcd13ifvqff0","pricing_plan_id":"cebpf4jnsgd1na2vs0mg"},{"bike_id":"4fd1c216-e4cd-40d4-bac5-bd7a225b3c2e","system_id":"levelo_inurba_marseille","lat":43.29095,"lon":5.38307,"is_reserved":false,"is_disabled":false,"rental_uris":{"android":"levelo://app?vid=4fd1c216-e4cd-40d4-bac5-bd7a225b3c2e","ios":"levelo://app?vid=4fd1c216-e4cd-40d4-bac5-bd7a225b3c2e"},"vehicle_type_id":"4","last_reported":1757934472,"current_range_meters":18800,"station_id":"","pricing_plan_id":"cebpf4jnsgd1na2vs0mg"},{"bike_id":"e1c7dd52-dd14-4964-a5e2-f7ae2b922dd2","system_id":"levelo_inurba_marseille","lat":43.31881,"lon":5.40737,"is_reserved":false,"is_disabled":false,"rental_uris":{"android":"levelo://app?vid=e1c7dd52-dd14-4964-a5e2-f7ae2b922dd2","ios":"levelo://app?vid=e1c7dd52-dd14-4964-a5e2-f7ae2b922dd2"},"vehicle_type_id":"4","last_reported":1757934472,"current_range_meters":18800,"station_id":"ce4bhq12rcd13ifvqhig","pricing_plan_id":"cebpf4jnsgd1na2vs0mg"},{"bike_id":"f9f353cd-1447-46df-9c6a-05fe390397b8","system_id":"levelo_inurba_marseille","lat":43.283473,"lon":5.380998,"is_reserved":false,"is_disabled":false,"rental_uris":{"android":"levelo://app?vid=f9f353cd-1447-46df-9c6a-05fe390397b8","ios":"levelo://app?vid=f9f353cd-1447-46df-9c6a-05fe390397b8"},"vehicle_type_id":"4","last_reported":1757934472,"current_range_meters":18800,"station_id":"ce4bh412rcd13ifvqdr0","pricing_plan_id":"cebpf4jnsgd1na2vs0mg"},{"bike_id":"aa57e526-5f5c-4592-be59-9f1fb7af4549","system_id":"levelo_inurba_marseille","lat":43.32109,"lon":5.36759,"is_reserved":false,"is_disabled":false,"rental_uris":{"android":"levelo://app?vid=aa57e526-5f5c-4592-be59-9f1fb7af4549","ios":"levelo://app?vid=aa57e526-5f5c-4592-be59-9f1fb7af4549"},"vehicle_type_id":"4","last_reported":1757934472,"current_range_meters":18800,"station_id":"ce4bhrh2rcd13ifvqhug","pricing_plan_id":"cebpf4jnsgd1na2vs0mg"},{"bike_id":"a2207526-f478-4f65-85e4-9a97cdcd57f3","system_id":"levelo_inurba_marseille","lat":43.27498,"lon":5.42479,"is_reserved":false,"is_disabled":false,"rental_uris":{"android":"levelo://app?vid=a2207526-f478-4f65-85e4-9a97cdcd57f3","ios":"levelo://app?vid=a2207526-f478-4f65-85e4-9a97cdcd57f3"},"vehicle_type_id":"4","last_reported":1757934472,"current_range_meters":18800,"station_id":"ce4bhn92rcd13ifvqgrg","pricing_plan_id":"cebpf4jnsgd1na2vs0mg"},{"bike_id":"a99076be-7bb8-4e0f-a330-e47b32cc797a","system_id":"levelo_inurba_marseille","lat":43.29245,"lon":5.36067,"is_reserved":false,"is_disabled":true,"rental_uris":{"android":"levelo://app?vid=a99076be-7bb8-4e0f-a330-e47b32cc797a","ios":"levelo://app?vid=a99076be-7bb8-4e0f-a330-e47b32cc797a"},"vehicle_type_id":"4","last_reported":1757934472,"current_range_meters":18800,"station_id":"ce4bhbh2rcd13ifvqeqg","pricing_plan_id":"cebpf4jnsgd1na2vs0mg"},{"bike_id":"7dc89c00-bbe9-44a4-85f5-5c4da73aea2d","system_id":"levelo_inurba_marseille","lat":43.21748,"lon":5.34593,"is_reserved":false,"is_disabled":false,"rental_uris":{"android":"levelo://app?vid=7dc89c00-bbe9-44a4-85f5-5c4da73aea2d","ios":"levelo://app?vid=7dc89c00-bbe9-44a4-85f5-5c4da73aea2d"},"vehicle_type_id":"4","last_reported":1757934472,"current_range_meters":18800,"station_id":"st_cvj6r9ubvosntc0bgbag","pricing_plan_id":"cebpf4jnsgd1na2vs0mg"},{"bike_id":"9f03ecca-31f7-4479-af01-adbb1998d3e9","system_id":"levelo_inurba_marseille","lat":43.231432,"lon":5.43721,"is_reserved":false,"is_disabled":false,"rental_uris":{"android":"levelo://app?vid=9f03ecca-31f7-4479-af01-adbb1998d3e9","ios":"levelo://app?vid=9f03ecca-31f7-4479-af01-adbb1998d3e9"},"vehicle_type_id":"4","last_reported":1757934472,"current_range_meters":18800,"station_id":"ce4bhmp2rcd13ifvqgog","pricing_plan_id":"cebpf4jnsgd1na2vs0mg"},{"bike_id":"b1182963-b9c4-4fff-b950-e76aa9d44dff","system_id":"levelo_inurba_marseille","lat":43.2598,"lon":5.4095,"is_reserved":false,"is_disabled":false,"rental_uris":{"android":"levelo://app?vid=b1182963-b9c4-4fff-b950-e76aa9d44dff","ios":"levelo://app?vid=b1182963-b9c4-4fff-b950-e76aa9d44dff"},"vehicle_type_id":"4","last_reported":1757934472,"current_range_meters":18800,"station_id":"","pricing_plan_id":"cebpf4jnsgd1na2vs0mg"},{"bike_id":"7401f904-c7a5-4420-9a38-b32c76084c39","system_id":"levelo_inurba_marseille","lat":43.28279,"lon":5.35078,"is_reserved":false,"is_disabled":true,"rental_uris":{"android":"levelo://app?vid=7401f904-c7a5-4420-9a38-b32c76084c39","ios":"levelo://app?vid=7401f904-c7a5-4420-9a38-b32c76084c39"},"vehicle_type_id":"4","last_reported":1757934472,"current_range_meters":18800,"station_id":"ce4bhbp2rcd13ifvqerg","pricing_plan_id":"cebpf4jnsgd1na2vs0mg"},{"bike_id":"28527c0b-107f-45f0-a033-b74526605a69","system_id":"levelo_inurba_marseille","lat":43.27215,"lon":5.39189,"is_reserved":false,"is_disabled":false,"rental_uris":{"android":"levelo://app?vid=28527c0b-107f-45f0-a033-b74526605a69","ios":"levelo://app?vid=28527c0b-107f-45f0-a033-b74526605a69"},"vehicle_type_id":"4","last_reported":1757934472,"current_range_meters":18800,"station_id":"ce4bhhp2rcd13ifvqfm0","pricing_plan_id":"cebpf4jnsgd1na2vs0mg"},{"bike_id":"3b26aa0d-3679-4b4c-9b55-1096f6d08a9d","system_id":"levelo_inurba_marseille","lat":43.31295,"lon":5.39384,"is_reserved":false,"is_disabled":false,"rental_uris":{"android":"levelo://app?vid=3b26aa0d-3679-4b4c-9b55-1096f6d08a9d","ios":"levelo://app?vid=3b26aa0d-3679-4b4c-9b55-1096f6d08a9d"},"vehicle_type_id":"4","last_reported":1757934472,"current_range_meters":18800,"station_id":"","pricing_plan_id":"cebpf4jnsgd1na2vs0mg"},{"bike_id":"0c451dfc-35a5-482d-9ac6-fa3d922a2820","system_id":"levelo_inurba_marseille","lat":43.26951,"lon":5.38626,"is_reserved":false,"is_disabled":false,"rental_uris":{"android":"levelo://app?vid=0c451dfc-35a5-482d-9ac6-fa3d922a2820","ios":"levelo://app?vid=0c451dfc-35a5-482d-9ac6-fa3d922a2820"},"vehicle_type_id":"4","last_reported":1757934472,"current_range_meters":18800,"station_id":"ce4bhh92rcd13ifvqfh0","pricing_plan_id":"cebpf4jnsgd1na2vs0mg"},{"bike_id":"1df7a4d7-42ff-49d7-b6dd-b3199bda1a50","system_id":"levelo_inurba_marseille","lat":43.29092,"lon":5.38158,"is_reserved":false,"is_disabled":false,"rental_uris":{"android":"levelo://app?vid=1df7a4d7-42ff-49d7-b6dd-b3199bda1a50","ios":"levelo://app?vid=1df7a4d7-42ff-49d7-b6dd-b3199bda1a50"},"vehicle_type_id":"4","last_reported":1757934472,"current_range_meters":18800,"station_id":"ce4bh512rcd13ifvqe2g","pricing_plan_id":"cebpf4jnsgd1na2vs0mg"},{"bike_id":"e69cbc0e-4585-4b8b-a506-ff55a454fd7b","system_id":"levelo_inurba_marseille","lat":43.28513,"lon":5.3856,"is_reserved":false,"is_disabled":false,"rental_uris":{"android":"levelo://app?vid=e69cbc0e-4585-4b8b-a506-ff55a454fd7b","ios":"levelo://app?vid=e69cbc0e-4585-4b8b-a506-ff55a454fd7b"},"vehicle_type_id":"4","last_reported":1757934472,"current_range_meters":18800,"station_id":"ce4bh8p2rcd13ifvqeb0","pricing_plan_id":"cebpf4jnsgd1na2vs0mg"},{"bike_id":"769f5263-3012-4ef1-ac63-60c854dda2db","system_id":"levelo_inurba_marseille","lat":43.27495,"lon":5.42483,"is_reserved":false,"is_disabled":false,"rental_uris":{"android":"levelo://app?vid=769f5263-3012-4ef1-ac63-60c854dda2db","ios":"levelo://app?vid=769f5263-3012-4ef1-ac63-60c854dda2db"},"vehicle_type_id":"4","last_reported":1757934472,"current_range_meters":18800,"station_id":"ce4bhn92rcd13ifvqgrg","pricing_plan_id":"cebpf4jnsgd1na2vs0mg"},{"bike_id":"6cb92d47-5b0b-405b-8d61-5a29f6b90c31","system_id":"levelo_inurba_marseille","lat":43.2962,"lon":5.37165,"is_reserved":false,"is_disabled":false,"rental_uris":{"android":"levelo://app?vid=6cb92d47-5b0b-405b-8d61-5a29f6b90c31","ios":"levelo://app?vid=6cb92d47-5b0b-405b-8d61-5a29f6b90c31"},"vehicle_type_id":"4","last_reported":1757934472,"current_range_meters":18000,"station_id":"ce4bgnh2rcd13ifvqc0g","pricing_plan_id":"cebpf4jnsgd1na2vs0mg"},{"bike_id":"159b7ef2-3357-4cae-b7fa-94fa36774814","system_id":"levelo_inurba_marseille","lat":43.295162,"lon":5.389597,"is_reserved":false,"is_disabled":false,"rental_uris":{"android":"levelo://app?vid=159b7ef2-3357-4cae-b7fa-94fa36774814","ios":"levelo://app?vid=159b7ef2-3357-4cae-b7fa-94fa36774814"},"vehicle_type_id":"4","last_reported":1757934472,"current_range_meters":18000,"station_id":"ce4bgj12rcd13ifvqbc0","pricing_plan_id":"cebpf4jnsgd1na2vs0mg"},{"bike_id":"0ec22504-4f53-4a7d-8664-2802d447c65f","system_id":"levelo_inurba_marseille","lat":43.21757,"lon":5.34605,"is_reserved":false,"is_disabled":false,"rental_uris":{"android":"levelo://app?vid=0ec22504-4f53-4a7d-8664-2802d447c65f","ios":"levelo://app?vid=0ec22504-4f53-4a7d-8664-2802d447c65f"},"vehicle_type_id":"4","last_reported":1757934472,"current_range_meters":18800,"station_id":"st_cvj6r9ubvosntc0bgbag","pricing_plan_id":"cebpf4jnsgd1na2vs0mg"},{"bike_id":"55bb4097-5945-43c3-9523-e1a26d231a0c","system_id":"levelo_inurba_marseille","lat":43.26193,"lon":5.37446,"is_reserved":false,"is_disabled":false,"rental_uris":{"android":"levelo://app?vid=55bb4097-5945-43c3-9523-e1a26d231a0c","ios":"levelo://app?vid=55bb4097-5945-43c3-9523-e1a26d231a0c"},"vehicle_type_id":"4","last_reported":1757934472,"current_range_meters":19200,"station_id":"ce4bhgp2rcd13ifvqfc0","pricing_plan_id":"cebpf4jnsgd1na2vs0mg"},{"bike_id":"34e28511-daa3-4532-b356-9c589f08e632","system_id":"levelo_inurba_marseille","lat":43.26978,"lon":5.38586,"is_reserved":false,"is_disabled":false,"rental_uris":{"android":"levelo://app?vid=34e28511-daa3-4532-b356-9c589f08e632","ios":"levelo://app?vid=34e28511-daa3-4532-b356-9c589f08e632"},"vehicle_type_id":"4","last_reported":1757934472,"current_range_meters":19200,"station_id":"","pricing_plan_id":"cebpf4jnsgd1na2vs0mg"},{"bike_id":"a039b4d7-b0bb-4927-9b79-7693532af88c","system_id":"levelo_inurba_marseille","lat":43.3237,"lon":5.36725,"is_reserved":false,"is_disabled":false,"rental_uris":{"android":"levelo://app?vid=a039b4d7-b0bb-4927-9b79-7693532af88c","ios":"levelo://app?vid=a039b4d7-b0bb-4927-9b79-7693532af88c"},"vehicle_type_id":"4","last_reported":1757934472,"current_range_meters":19200,"station_id":"ce4bhsh2rcd13ifvqi2g","pricing_plan_id":"cebpf4jnsgd1na2vs0mg"},{"bike_id":"19265efc-d8a2-4320-b2aa-9c1da392fc94","system_id":"levelo_inurba_marseille","lat":43.26202,"lon":5.3793,"is_reserved":false,"is_disabled":false,"rental_uris":{"android":"levelo://app?vid=19265efc-d8a2-4320-b2aa-9c1da392fc94","ios":"levelo://app?vid=19265efc-d8a2-4320-b2aa-9c1da392fc94"},"vehicle_type_id":"4","last_reported":1757934472,"current_range_meters":19200,"station_id":"ce4bhjp2rcd13ifvqg90","pricing_plan_id":"cebpf4jnsgd1na2vs0mg"},{"bike_id":"83147e21-1248-46bb-9a1b-40fe7620ffc3","system_id":"levelo_inurba_marseille","lat":43.31146,"lon":5.3772,"is_reserved":false,"is_disabled":false,"rental_uris":{"android":"levelo://app?vid=83147e21-1248-46bb-9a1b-40fe7620ffc3","ios":"levelo://app?vid=83147e21-1248-46bb-9a1b-40fe7620ffc3"},"vehicle_type_id":"4","last_reported":1757934472,"current_range_meters":19200,"station_id":"","pricing_plan_id":"cebpf4jnsgd1na2vs0mg"},{"bike_id":"a53f2203-90ed-4855-9039-eade10a874ca","system_id":"levelo_inurba_marseille","lat":43.2621,"lon":5.3744,"is_reserved":false,"is_disabled":false,"rental_uris":{"android":"levelo://app?vid=a53f2203-90ed-4855-9039-eade10a874ca","ios":"levelo://app?vid=a53f2203-90ed-4855-9039-eade10a874ca"},"vehicle_type_id":"4","last_reported":1757934472,"current_range_meters":19200,"station_id":"ce4bhgp2rcd13ifvqfc0","pricing_plan_id":"cebpf4jnsgd1na2vs0mg"},{"bike_id":"511f6c29-3390-4042-b48e-75a4d61a54e0","system_id":"levelo_inurba_marseille","lat":43.320295,"lon":5.367538,"is_reserved":false,"is_disabled":false,"rental_uris":{"android":"levelo://app?vid=511f6c29-3390-4042-b48e-75a4d61a54e0","ios":"levelo://app?vid=511f6c29-3390-4042-b48e-75a4d61a54e0"},"vehicle_type_id":"4","last_reported":1757934472,"current_range_meters":19200,"station_id":"","pricing_plan_id":"cebpf4jnsgd1na2vs0mg"},{"bike_id":"f282d2dc-ce5c-4412-bc0f-17f26a2f05c2","system_id":"levelo_inurba_marseille","lat":43.29784,"lon":5.37115,"is_reserved":false,"is_disabled":false,"rental_uris":{"android":"levelo://app?vid=f282d2dc-ce5c-4412-bc0f-17f26a2f05c2","ios":"levelo://app?vid=f282d2dc-ce5c-4412-bc0f-17f26a2f05c2"},"vehicle_type_id":"4","last_reported":1757934472,"current_range_meters":19200,"station_id":"ce4bgop2rcd13ifvqc1g","pricing_plan_id":"cebpf4jnsgd1na2vs0mg"},{"bike_id":"98082af4-c334-4810-94aa-8ca92b41a103","system_id":"levelo_inurba_marseille","lat":43.30538,"lon":5.36536,"is_reserved":false,"is_disabled":false,"rental_uris":{"android":"levelo://app?vid=98082af4-c334-4810-94aa-8ca92b41a103","ios":"levelo://app?vid=98082af4-c334-4810-94aa-8ca92b41a103"},"vehicle_type_id":"4","last_reported":1757934472,"current_range_meters":19600,"station_id":"ce4bgs12rcd13ifvqcag","pricing_plan_id":"cebpf4jnsgd1na2vs0mg"},{"bike_id":"e6b4cb53-1a15-40a2-a39e-a61ed23159a5","system_id":"levelo_inurba_marseille","lat":43.231487,"lon":5.43722,"is_reserved":false,"is_disabled":false,"rental_uris":{"android":"levelo://app?vid=e6b4cb53-1a15-40a2-a39e-a61ed23159a5","ios":"levelo://app?vid=e6b4cb53-1a15-40a2-a39e-a61ed23159a5"},"vehicle_type_id":"4","last_reported":1757934472,"current_range_meters":19200,"station_id":"ce4bhmp2rcd13ifvqgog","pricing_plan_id":"cebpf4jnsgd1na2vs0mg"},{"bike_id":"11555ead-152a-4e2f-ac3e-7aaa852c50e5","system_id":"levelo_inurba_marseille","lat":43.21743,"lon":5.34604,"is_reserved":false,"is_disabled":false,"rental_uris":{"android":"levelo://app?vid=11555ead-152a-4e2f-ac3e-7aaa852c50e5","ios":"levelo://app?vid=11555ead-152a-4e2f-ac3e-7aaa852c50e5"},"vehicle_type_id":"4","last_reported":1757934472,"current_range_meters":19600,"station_id":"st_cvj6r9ubvosntc0bgbag","pricing_plan_id":"cebpf4jnsgd1na2vs0mg"},{"bike_id":"b5252769-2792-494b-bcf2-06e83cdf7934","system_id":"levelo_inurba_marseille","lat":43.28414,"lon":5.349828,"is_reserved":false,"is_disabled":false,"rental_uris":{"android":"levelo://app?vid=b5252769-2792-494b-bcf2-06e83cdf7934","ios":"levelo://app?vid=b5252769-2792-494b-bcf2-06e83cdf7934"},"vehicle_type_id":"4","last_reported":1757934472,"current_range_meters":19600,"station_id":"ce4bhbh2rcd13ifvqepg","pricing_plan_id":"cebpf4jnsgd1na2vs0mg"},{"bike_id":"0f010614-45ab-43cc-b6fd-2cc99221a428","system_id":"levelo_inurba_marseille","lat":43.28417,"lon":5.3498,"is_reserved":false,"is_disabled":false,"rental_uris":{"android":"levelo://app?vid=0f010614-45ab-43cc-b6fd-2cc99221a428","ios":"levelo://app?vid=0f010614-45ab-43cc-b6fd-2cc99221a428"},"vehicle_type_id":"4","last_reported":1757934472,"current_range_meters":19600,"station_id":"ce4bhbh2rcd13ifvqepg","pricing_plan_id":"cebpf4jnsgd1na2vs0mg"},{"bike_id":"cd340317-ef09-4499-be65-64d62db108f7","system_id":"levelo_inurba_marseille","lat":43.30308,"lon":5.36899,"is_reserved":false,"is_disabled":false,"rental_uris":{"android":"levelo://app?vid=cd340317-ef09-4499-be65-64d62db108f7","ios":"levelo://app?vid=cd340317-ef09-4499-be65-64d62db108f7"},"vehicle_type_id":"4","last_reported":1757934472,"current_range_meters":20000,"station_id":"ce4bgqh2rcd13ifvqc5g","pricing_plan_id":"cebpf4jnsgd1na2vs0mg"},{"bike_id":"f3b5ef6f-ba3c-4c6d-a8e9-4b1ffaf2d106","system_id":"levelo_inurba_marseille","lat":43.31571,"lon":5.38373,"is_reserved":false,"is_disabled":false,"rental_uris":{"android":"levelo://app?vid=f3b5ef6f-ba3c-4c6d-a8e9-4b1ffaf2d106","ios":"levelo://app?vid=f3b5ef6f-ba3c-4c6d-a8e9-4b1ffaf2d106"},"vehicle_type_id":"4","last_reported":1757934472,"current_range_meters":20000,"station_id":"","pricing_plan_id":"cebpf4jnsgd1na2vs0mg"},{"bike_id":"ece07351-e21d-4c48-bd8e-d6076d0d6379","system_id":"levelo_inurba_marseille","lat":43.2849,"lon":5.37483,"is_reserved":false,"is_disabled":false,"rental_uris":{"android":"levelo://app?vid=ece07351-e21d-4c48-bd8e-d6076d0d6379","ios":"levelo://app?vid=ece07351-e21d-4c48-bd8e-d6076d0d6379"},"vehicle_type_id":"4","last_reported":1757934472,"current_range_meters":20000,"station_id":"","pricing_plan_id":"cebpf4jnsgd1na2vs0mg"},{"bike_id":"bf9becd5-82e2-471f-9aaf-7ba9d475407d","system_id":"levelo_inurba_marseille","lat":43.24069,"lon":5.37769,"is_reserved":false,"is_disabled":false,"rental_uris":{"android":"levelo://app?vid=bf9becd5-82e2-471f-9aaf-7ba9d475407d","ios":"levelo://app?vid=bf9becd5-82e2-471f-9aaf-7ba9d475407d"},"vehicle_type_id":"4","last_reported":1757934472,"current_range_meters":20000,"station_id":"ce4bhnp2rcd13ifvqgvg","pricing_plan_id":"cebpf4jnsgd1na2vs0mg"},{"bike_id":"af855c88-100f-429f-ba0c-3dad51b30928","system_id":"levelo_inurba_marseille","lat":43.21211,"lon":5.35052,"is_reserved":false,"is_disabled":false,"rental_uris":{"android":"levelo://app?vid=af855c88-100f-429f-ba0c-3dad51b30928","ios":"levelo://app?vid=af855c88-100f-429f-ba0c-3dad51b30928"},"vehicle_type_id":"4","last_reported":1757934472,"current_range_meters":20000,"station_id":"st_cvj6sg6p6f1abm77japg","pricing_plan_id":"cebpf4jnsgd1na2vs0mg"},{"bike_id":"c6b13cb9-316a-4c64-b589-09adc2b9a531","system_id":"levelo_inurba_marseille","lat":43.239802,"lon":5.366408,"is_reserved":false,"is_disabled":false,"rental_uris":{"android":"levelo://app?vid=c6b13cb9-316a-4c64-b589-09adc2b9a531","ios":"levelo://app?vid=c6b13cb9-316a-4c64-b589-09adc2b9a531"},"vehicle_type_id":"4","last_reported":1757934472,"current_range_meters":20000,"station_id":"ce4bhi12rcd13ifvqfp0","pricing_plan_id":"cebpf4jnsgd1na2vs0mg"},{"bike_id":"72211ac2-c238-42ff-ba90-a0796de95ffd","system_id":"levelo_inurba_marseille","lat":43.275656,"lon":5.385666,"is_reserved":false,"is_disabled":false,"rental_uris":{"android":"levelo://app?vid=72211ac2-c238-42ff-ba90-a0796de95ffd","ios":"levelo://app?vid=72211ac2-c238-42ff-ba90-a0796de95ffd"},"vehicle_type_id":"4","last_reported":1757934472,"current_range_meters":20000,"station_id":"","pricing_plan_id":"cebpf4jnsgd1na2vs0mg"},{"bike_id":"e8352a67-b26b-411b-b225-ce00bb037aac","system_id":"levelo_inurba_marseille","lat":43.30541,"lon":5.3655,"is_reserved":false,"is_disabled":false,"rental_uris":{"android":"levelo://app?vid=e8352a67-b26b-411b-b225-ce00bb037aac","ios":"levelo://app?vid=e8352a67-b26b-411b-b225-ce00bb037aac"},"vehicle_type_id":"4","last_reported":1757934472,"current_range_meters":20000,"station_id":"","pricing_plan_id":"cebpf4jnsgd1na2vs0mg"},{"bike_id":"db741788-c0f9-4847-a9a8-bae7800023a2","system_id":"levelo_inurba_marseille","lat":43.33025,"lon":5.39035,"is_reserved":false,"is_disabled":false,"rental_uris":{"android":"levelo://app?vid=db741788-c0f9-4847-a9a8-bae7800023a2","ios":"levelo://app?vid=db741788-c0f9-4847-a9a8-bae7800023a2"},"vehicle_type_id":"4","last_reported":1757934472,"current_range_meters":20000,"station_id":"ce4bhr92rcd13ifvqhrg","pricing_plan_id":"cebpf4jnsgd1na2vs0mg"},{"bike_id":"830b9b55-b582-49a9-8acf-457ace5fb670","system_id":"levelo_inurba_marseille","lat":43.22552,"lon":5.41636,"is_reserved":false,"is_disabled":false,"rental_uris":{"android":"levelo://app?vid=830b9b55-b582-49a9-8acf-457ace5fb670","ios":"levelo://app?vid=830b9b55-b582-49a9-8acf-457ace5fb670"},