{"last_updated":1734124100,"ttl":60,"version":"2.2","data":{"bikes":[{"bike_id":"45c22bfb-3859-46ca-bbdd-b43970628095","system_id":"levelo_inurba_marseille","lat":43.23209,"lon":5.39993,"is_reserved":false,"is_disabled":false,"rental_uris":{"android":"levelo://app?vid=45c22bfb-3859-46ca-bbdd-b43970628095","ios":"levelo://app?vid=45c22bfb-3859-46ca-bbdd-b43970628095"},"vehicle_type_id":"4","last_reported":1734124101,"current_range_meters":26000,"station_id":"ce4bhn12rcd13ifvqgqg","pricing_plan_id":"cebpf4jnsgd1na2vs0mg"},{"bike_id":"3e5d99b9-1aaf-48b9-b5fb-fb7a0b5b1ba5","system_id":"levelo_inurba_marseille","lat":43.29039,"lon":5.39217,"is_reserved":false,"is_disabled":true,"rental_uris":{"android":"levelo://app?vid=3e5d99b9-1aaf-48b9-b5fb-fb7a0b5b1ba5","ios":"levelo://app?vid=3e5d99b9-1aaf-48b9-b5fb-fb7a0b5b1ba5"},"vehicle_type_id":"4","last_reported":1734124101,"current_range_meters":0,"station_id":"","pricing_plan_id":"cebpf4jnsgd1na2vs0mg"},{"bike_id":"249070ef-7f3c-475f-a50c-f5adaa69a95a","system_id":"levelo_inurba_marseille","lat":43.29258,"lon":5.38446,"is_reserved":false,"is_disabled":false,"rental_uris":{"android":"levelo://app?vid=249070ef-7f3c-475f-a50c-f5adaa69a95a","ios":"levelo://app?vid=249070ef-7f3c-475f-a50c-f5adaa69a95a"},"vehicle_type_id":"4","last_reported":1734124101,"current_range_meters":10000,"station_id":"ce4bh692rcd13ifvqea0","pricing_plan_id":"cebpf4jnsgd1na2vs0mg"},{"bike_id":"47d68d81-b283-4372-b8a9-ad660b170dea","system_id":"levelo_inurba_marseille","lat":43.27943,"lon":5.41051,"is_reserved":false,"is_disabled":false,"rental_uris":{"android":"levelo://app?vid=47d68d81-b283-4372-b8a9-ad660b170dea","ios":"levelo://app?vid=47d68d81-b283-4372-b8a9-ad660b170dea"},"vehicle_type_id":"4","last_reported":1734124101,"current_range_meters":16000,"station_id":"ce4bhnp2rcd13ifvqh0g","pricing_plan_id":"cebpf4jnsgd1na2vs0mg"},{"bike_id":"55c52e02-0cdf-453d-a05b-f0f604647bf3","system_id":"levelo_inurba_marseille","lat":43.27952,"lon":5.41117,"is_reserved":false,"is_disabled":false,"rental_uris":{"android":"levelo://app?vid=55c52e02-0cdf-453d-a05b-f0f604647bf3","ios":"levelo://app?vid=55c52e02-0cdf-453d-a05b-f0f604647bf3"},"vehicle_type_id":"4","last_reported":1734124101,"current_range_meters":17600,"station_id":"ce4bhnp2rcd13ifvqh0g","pricing_plan_id":"cebpf4jnsgd1na2vs0mg"},{"bike_id":"575e7888-c21d-4a6d-9fe4-480369efea9f","system_id":"levelo_inurba_marseille","lat":43.31255,"lon":5.40187,"is_reserved":false,"is_disabled":false,"rental_uris":{"android":"levelo://app?vid=575e7888-c21d-4a6d-9fe4-480369efea9f","ios":"levelo://app?vid=575e7888-c21d-4a6d-9fe4-480369efea9f"},"vehicle_type_id":"4","last_reported":1734124101,"current_range_meters":35200,"station_id":"ce4bh092rcd13ifvqd30","pricing_plan_id":"cebpf4jnsgd1na2vs0mg"},{"bike_id":"19f9e8b0-a2e6-420a-a1af-f99d8fc40ad5","system_id":"levelo_inurba_marseille","lat":43.27571,"lon":5.38401,"is_reserved":false,"is_disabled":false,"rental_uris":{"android":"levelo://app?vid=19f9e8b0-a2e6-420a-a1af-f99d8fc40ad5","ios":"levelo://app?vid=19f9e8b0-a2e6-420a-a1af-f99d8fc40ad5"},"vehicle_type_id":"4","last_reported":1734124101,"current_range_meters":15200,"station_id":"ce4bhh92rcd13ifvqfi0","pricing_plan_id":"cebpf4jnsgd1na2vs0mg"},{"bike_id":"136c5310-04b8-4831-81e4-542be0a9c7e7","system_id":"levelo_inurba_marseille","lat":43.29262,"lon":5.38443,"is_reserved":false,"is_disabled":false,"rental_uris":{"android":"levelo://app?vid=136c5310-04b8-4831-81e4-542be0a9c7e7","ios":"levelo://app?vid=136c5310-04b8-4831-81e4-542be0a9c7e7"},"vehicle_type_id":"4","last_reported":1734124101,"current_range_meters":38800,"station_id":"ce4bh692rcd13ifvqea0","pricing_plan_id":"cebpf4jnsgd1na2vs0mg"},{"bike_id":"7422d6d4-034d-4a24-b0af-a44d18ccf844","system_id":"levelo_inurba_marseille","lat":43.24547,"lon":5.39522,"is_reserved":false,"is_disabled":false,"rental_uris":{"android":"levelo://app?vid=7422d6d4-034d-4a24-b0af-a44d18ccf844","ios":"levelo://app?vid=7422d6d4-034d-4a24-b0af-a44d18ccf844"},"vehicle_type_id":"4","last_reported":1734124101,"current_range_meters":36400,"station_id":"ce4bhlp2rcd13ifvqgjg","pricing_plan_id":"cebpf4jnsgd1na2vs0mg"},{"bike_id":"1210c1f2-8ca3-42fe-a7b5-07bf08771e6d","system_id":"levelo_inurba_marseille","lat":43.2862,"lon":5.35109,"is_reserved":false,"is_disabled":false,"rental_uris":{"android":"levelo://app?vid=1210c1f2-8ca3-42fe-a7b5-07bf08771e6d","ios":"levelo://app?vid=1210c1f2-8ca3-42fe-a7b5-07bf08771e6d"},"vehicle_type_id":"4","last_reported":1734124101,"current_range_meters":14800,"station_id":"ce4bhch2rcd13ifvqeug","pricing_plan_id":"cebpf4jnsgd1na2vs0mg"},{"bike_id":"1ca8b9ab-4a86-402b-a175-2064b6ef5e19","system_id":"levelo_inurba_marseille","lat":43.2396,"lon":5.36627,"is_reserved":false,"is_disabled":true,"rental_uris":{"android":"levelo://app?vid=1ca8b9ab-4a86-402b-a175-2064b6ef5e19","ios":"levelo://app?vid=1ca8b9ab-4a86-402b-a175-2064b6ef5e19"},"vehicle_type_id":"4","last_reported":1734124101,"current_range_meters":30000,"station_id":"ce4bhi12rcd13ifvqfp0","pricing_plan_id":"cebpf4jnsgd1na2vs0mg"},{"bike_id":"f53a51f1-6db0-4716-9c45-7ac4c7fcd208","system_id":"levelo_inurba_marseille","lat":43.32284,"lon":5.38277,"is_reserved":false,"is_disabled":false,"rental_uris":{"android":"levelo://app?vid=f53a51f1-6db0-4716-9c45-7ac4c7fcd208","ios":"levelo://app?vid=f53a51f1-6db0-4716-9c45-7ac4c7fcd208"},"vehicle_type_id":"4","last_reported":1734124101,"current_range_meters":33200,"station_id":"ce4bhr12rcd13ifvqhqg","pricing_plan_id":"cebpf4jnsgd1na2vs0mg"},{"bike_id":"980f96eb-32c9-4906-98f6-c44dbf4c84a1","system_id":"levelo_inurba_marseille","lat":43.27455,"lon":5.40073,"is_reserved":false,"is_disabled":true,"rental_uris":{"android":"levelo://app?vid=980f96eb-32c9-4906-98f6-c44dbf4c84a1","ios":"levelo://app?vid=980f96eb-32c9-4906-98f6-c44dbf4c84a1"},"vehicle_type_id":"4","last_reported":1734124101,"current_range_meters":0,"station_id":"","pricing_plan_id":"cebpf4jnsgd1na2vs0mg"},{"bike_id":"e8ed717d-9f26-45a9-bc82-774d381028bc","system_id":"levelo_inurba_marseille","lat":43.29558,"lon":5.42296,"is_reserved":false,"is_disabled":false,"rental_uris":{"android":"levelo://app?vid=e8ed717d-9f26-45a9-bc82-774d381028bc","ios":"levelo://app?vid=e8ed717d-9f26-45a9-bc82-774d381028bc"},"vehicle_type_id":"4","last_reported":1734124101,"current_range_meters":24000,"station_id":"ce4bhph2rcd13ifvqhdg","pricing_plan_id":"cebpf4jnsgd1na2vs0mg"},{"bike_id":"d62c4b6d-6385-483e-a950-59b1f6d595a4","system_id":"levelo_inurba_marseille","lat":43.27998,"lon":5.40015,"is_reserved":false,"is_disabled":false,"rental_uris":{"android":"levelo://app?vid=d62c4b6d-6385-483e-a950-59b1f6d595a4","ios":"levelo://app?vid=d62c4b6d-6385-483e-a950-59b1f6d595a4"},"vehicle_type_id":"4","last_reported":1734124101,"current_range_meters":24000,"station_id":"ce4bho92rcd13ifvqh4g","pricing_plan_id":"cebpf4jnsgd1na2vs0mg"},{"bike_id":"c0cb27a1-c96a-4028-89ff-6aa28577d390","system_id":"levelo_inurba_marseille","lat":43.29026,"lon":5.38644,"is_reserved":false,"is_disabled":false,"rental_uris":{"android":"levelo://app?vid=c0cb27a1-c96a-4028-89ff-6aa28577d390","ios":"levelo://app?vid=c0cb27a1-c96a-4028-89ff-6aa28577d390"},"vehicle_type_id":"4","last_reported":1734124101,"current_range_meters":38800,"station_id":"ce4bh4p2rcd13ifvqe0g","pricing_plan_id":"cebpf4jnsgd1na2vs0mg"},{"bike_id":"d64735b9-3201-48f9-b7d1-d8bd9269830f","system_id":"levelo_inurba_marseille","lat":43.31349,"lon":5.39699,"is_reserved":false,"is_disabled":false,"rental_uris":{"android":"levelo://app?vid=d64735b9-3201-48f9-b7d1-d8bd9269830f","ios":"levelo://app?vid=d64735b9-3201-48f9-b7d1-d8bd9269830f"},"vehicle_type_id":"4","last_reported":1734124101,"current_range_meters":34800,"station_id":"ce4bgvp2rcd13ifvqcu0","pricing_plan_id":"cebpf4jnsgd1na2vs0mg"},{"bike_id":"145ad407-7195-4785-a3ae-4255062efe34","system_id":"levelo_inurba_marseille","lat":43.26048,"lon":5.38432,"is_reserved":false,"is_disabled":false,"rental_uris":{"android":"levelo://app?vid=145ad407-7195-4785-a3ae-4255062efe34","ios":"levelo://app?vid=145ad407-7195-4785-a3ae-4255062efe34"},"vehicle_type_id":"4","last_reported":1734124101,"current_range_meters":37600,"station_id":"","pricing_plan_id":"cebpf4jnsgd1na2vs0mg"},{"bike_id":"6c8f0fb1-dda3-46f8-8b7e-d47203e07a27","system_id":"levelo_inurba_marseille","lat":43.25415,"lon":5.38357,"is_reserved":false,"is_disabled":false,"rental_uris":{"android":"levelo://app?vid=6c8f0fb1-dda3-46f8-8b7e-d47203e07a27","ios":"levelo://app?vid=6c8f0fb1-dda3-46f8-8b7e-d47203e07a27"},"vehicle_type_id":"4","last_reported":1734124101,"current_range_meters":4400,"station_id":"","pricing_plan_id":"cebpf4jnsgd1na2vs0mg"},{"bike_id":"40f533e7-a1f7-411c-848c-6af4f94557cf","system_id":"levelo_inurba_marseille","lat":43.29254,"lon":5.38438,"is_reserved":false,"is_disabled":false,"rental_uris":{"android":"levelo://app?vid=40f533e7-a1f7-411c-848c-6af4f94557cf","ios":"levelo://app?vid=40f533e7-a1f7-411c-848c-6af4f94557cf"},"vehicle_type_id":"4","last_reported":1734124101,"current_range_meters":27200,"station_id":"ce4bh692rcd13ifvqea0","pricing_plan_id":"cebpf4jnsgd1na2vs0mg"},{"bike_id":"80e5c1e3-8d27-43e3-9451-b00f65b301df","system_id":"levelo_inurba_marseille","lat":43.23201,"lon":5.35558,"is_reserved":false,"is_disabled":false,"rental_uris":{"android":"levelo://app?vid=80e5c1e3-8d27-43e3-9451-b00f65b301df","ios":"levelo://app?vid=80e5c1e3-8d27-43e3-9451-b00f65b301df"},"vehicle_type_id":"4","last_reported":1734124101,"current_range_meters":9200,"station_id":"ce4bhu92rcd13ifvqi70","pricing_plan_id":"cebpf4jnsgd1na2vs0mg"},{"bike_id":"496b9119-850a-49b3-bf98-295bb079ca7c","system_id":"levelo_inurba_marseille","lat":43.28196,"lon":5.44577,"is_reserved":false,"is_disabled":false,"rental_uris":{"android":"levelo://app?vid=496b9119-850a-49b3-bf98-295bb079ca7c","ios":"levelo://app?vid=496b9119-850a-49b3-bf98-295bb079ca7c"},"vehicle_type_id":"4","last_reported":1734124101,"current_range_meters":15200,"station_id":"","pricing_plan_id":"cebpf4jnsgd1na2vs0mg"},{"bike_id":"0d67fd70-e4b1-42fe-abbd-da05c25ce133","system_id":"levelo_inurba_marseille","lat":43.27993,"lon":5.41665,"is_reserved":false,"is_disabled":false,"rental_uris":{"android":"levelo://app?vid=0d67fd70-e4b1-42fe-abbd-da05c25ce133","ios":"levelo://app?vid=0d67fd70-e4b1-42fe-abbd-da05c25ce133"},"vehicle_type_id":"4","last_reported":1734124101,"current_range_meters":38800,"station_id":"ce4bho12rcd13ifvqh1g","pricing_plan_id":"cebpf4jnsgd1na2vs0mg"},{"bike_id":"1a341f13-1fed-4461-850d-e3c63634c2cf","system_id":"levelo_inurba_marseille","lat":43.2827,"lon":5.35087,"is_reserved":false,"is_disabled":false,"rental_uris":{"android":"levelo://app?vid=1a341f13-1fed-4461-850d-e3c63634c2cf","ios":"levelo://app?vid=1a341f13-1fed-4461-850d-e3c63634c2cf"},"vehicle_type_id":"4","last_reported":1734124101,"current_range_meters":39200,"station_id":"ce4bhbp2rcd13ifvqerg","pricing_plan_id":"cebpf4jnsgd1na2vs0mg"},{"bike_id":"fb32aea2-d437-4e9e-95b8-ad6ed33d022d","system_id":"levelo_inurba_marseille","lat":43.28713,"lon":5.37954,"is_reserved":false,"is_disabled":true,"rental_uris":{"android":"levelo://app?vid=fb32aea2-d437-4e9e-95b8-ad6ed33d022d","ios":"levelo://app?vid=fb32aea2-d437-4e9e-95b8-ad6ed33d022d"},"vehicle_type_id":"4","last_reported":1734124101,"current_range_meters":27600,"station_id":"ce4bh9p2rcd13ifvqec0","pricing_plan_id":"cebpf4jnsgd1na2vs0mg"},{"bike_id":"d5c89c1f-3bad-4af2-9449-e04c277a4696","system_id":"levelo_inurba_marseille","lat":43.2997,"lon":5.41332,"is_reserved":false,"is_disabled":true,"rental_uris":{"android":"levelo://app?vid=d5c89c1f-3bad-4af2-9449-e04c277a4696","ios":"levelo://app?vid=d5c89c1f-3bad-4af2-9449-e04c277a4696"},"vehicle_type_id":"4","last_reported":1734124101,"current_range_meters":38000,"station_id":"ce4bhp12rcd13ifvqh9g","pricing_plan_id":"cebpf4jnsgd1na2vs0mg"},{"bike_id":"5dcb142e-3766-4e2c-b1fe-c9ebbc5d3c50","system_id":"levelo_inurba_marseille","lat":43.3199,"lon":5.38145,"is_reserved":false,"is_disabled":false,"rental_uris":{"android":"levelo://app?vid=5dcb142e-3766-4e2c-b1fe-c9ebbc5d3c50","ios":"levelo://app?vid=5dcb142e-3766-4e2c-b1fe-c9ebbc5d3c50"},"vehicle_type_id":"4","last_reported":1734124101,"current_range_meters":7200,"station_id":"ce4bhr12rcd13ifvqhpg","pricing_plan_id":"cebpf4jnsgd1na2vs0mg"},{"bike_id":"1d6e6213-2854-4d48-b558-6c57726e478a","system_id":"levelo_inurba_marseille","lat":43.27575,"lon":5.38442,"is_reserved":false,"is_disabled":false,"rental_uris":{"android":"levelo://app?vid=1d6e6213-2854-4d48-b558-6c57726e478a","ios":"levelo://app?vid=1d6e6213-2854-4d48-b558-6c57726e478a"},"vehicle_type_id":"4","last_reported":1734124101,"current_range_meters":12800,"station_id":"ce4bhh92rcd13ifvqfi0","pricing_plan_id":"cebpf4jnsgd1na2vs0mg"},{"bike_id":"3a312272-900a-4c4b-bb5b-4ed6000e4b63","system_id":"levelo_inurba_marseille","lat":43.30154,"lon":5.3808,"is_reserved":false,"is_disabled":true,"rental_uris":{"android":"levelo://app?vid=3a312272-900a-4c4b-bb5b-4ed6000e4b63","ios":"levelo://app?vid=3a312272-900a-4c4b-bb5b-4ed6000e4b63"},"vehicle_type_id":"4","last_reported":1734124101,"current_range_meters":36400,"station_id":"ce4bgjp2rcd13ifvqbh0","pricing_plan_id":"cebpf4jnsgd1na2vs0mg"},{"bike_id":"d1e92dab-af6b-40d1-ab8b-c4427d0e787c","system_id":"levelo_inurba_marseille","lat":43.29025,"lon":5.38634,"is_reserved":false,"is_disabled":false,"rental_uris":{"android":"levelo://app?vid=d1e92dab-af6b-40d1-ab8b-c4427d0e787c","ios":"levelo://app?vid=d1e92dab-af6b-40d1-ab8b-c4427d0e787c"},"vehicle_type_id":"4","last_reported":1734124101,"current_range_meters":38800,"station_id":"ce4bh4p2rcd13ifvqe0g","pricing_plan_id":"cebpf4jnsgd1na2vs0mg"},{"bike_id":"99c777fb-f3e9-457a-b392-4682c4d57bcc","system_id":"levelo_inurba_marseille","lat":43.33008,"lon":5.39039,"is_reserved":false,"is_disabled":false,"rental_uris":{"android":"levelo://app?vid=99c777fb-f3e9-457a-b392-4682c4d57bcc","ios":"levelo://app?vid=99c777fb-f3e9-457a-b392-4682c4d57bcc"},"vehicle_type_id":"4","last_reported":1734124101,"current_range_meters":30000,"station_id":"ce4bhr92rcd13ifvqhrg","pricing_plan_id":"cebpf4jnsgd1na2vs0mg"},{"bike_id":"ffa4a811-8569-47fc-946a-b2fd2fd7512b","system_id":"levelo_inurba_marseille","lat":43.29593,"lon":5.3811,"is_reserved":false,"is_disabled":false,"rental_uris":{"android":"levelo://app?vid=ffa4a811-8569-47fc-946a-b2fd2fd7512b","ios":"levelo://app?vid=ffa4a811-8569-47fc-946a-b2fd2fd7512b"},"vehicle_type_id":"4","last_reported":1734124101,"current_range_meters":29600,"station_id":"ce4bgl12rcd13ifvqbo0","pricing_plan_id":"cebpf4jnsgd1na2vs0mg"},{"bike_id":"1246e6b9-1bba-43b9-9075-2687b084a677","system_id":"levelo_inurba_marseille","lat":43.25879,"lon":5.39927,"is_reserved":false,"is_disabled":false,"rental_uris":{"android":"levelo://app?vid=1246e6b9-1bba-43b9-9075-2687b084a677","ios":"levelo://app?vid=1246e6b9-1bba-43b9-9075-2687b084a677"},"vehicle_type_id":"4","last_reported":1734124101,"current_range_meters":37600,"station_id":"ce4bhl92rcd13ifvqghg","pricing_plan_id":"cebpf4jnsgd1na2vs0mg"},{"bike_id":"ca962d64-b97b-4b45-97aa-d8544859a59a","system_id":"levelo_inurba_marseille","lat":43.29252,"lon":5.38442,"is_reserved":false,"is_disabled":false,"rental_uris":{"android":"levelo://app?vid=ca962d64-b97b-4b45-97aa-d8544859a59a","ios":"levelo://app?vid=ca962d64-b97b-4b45-97aa-d8544859a59a"},"vehicle_type_id":"4","last_reported":1734124101,"current_range_meters":32400,"station_id":"ce4bh692rcd13ifvqea0","pricing_plan_id":"cebpf4jnsgd1na2vs0mg"},{"bike_id":"d405c4c7-8899-4b48-bbd5-5ddba59e973d","system_id":"levelo_inurba_marseille","lat":43.29526,"lon":5.3751,"is_reserved":false,"is_disabled":false,"rental_uris":{"android":"levelo://app?vid=d405c4c7-8899-4b48-bbd5-5ddba59e973d","ios":"levelo://app?vid=d405c4c7-8899-4b48-bbd5-5ddba59e973d"},"vehicle_type_id":"4","last_reported":1734124101,"current_range_meters":16400,"station_id":"ce4bgkp2rcd13ifvqbmg","pricing_plan_id":"cebpf4jnsgd1na2vs0mg"},{"bike_id":"9658b4e0-946e-4511-8e18-b51586108f8c","system_id":"levelo_inurba_marseille","lat":43.33785,"lon":5.37446,"is_reserved":false,"is_disabled":false,"rental_uris":{"android":"levelo://app?vid=9658b4e0-946e-4511-8e18-b51586108f8c","ios":"levelo://app?vid=9658b4e0-946e-4511-8e18-b51586108f8c"},"vehicle_type_id":"4","last_reported":1734124101,"current_range_meters":36000,"station_id":"","pricing_plan_id":"cebpf4jnsgd1na2vs0mg"},{"bike_id":"bf64c835-defd-40d5-8fca-d88230a16f74","system_id":"levelo_inurba_marseille","lat":43.31486,"lon":5.37304,"is_reserved":false,"is_disabled":false,"rental_uris":{"android":"levelo://app?vid=bf64c835-defd-40d5-8fca-d88230a16f74","ios":"levelo://app?vid=bf64c835-defd-40d5-8fca-d88230a16f74"},"vehicle_type_id":"4","last_reported":1734124101,"current_range_meters":18800,"station_id":"ce4bgt12rcd13ifvqcd0","pricing_plan_id":"cebpf4jnsgd1na2vs0mg"},{"bike_id":"2f747797-e559-43cf-b56c-5d5684c52fbf","system_id":"levelo_inurba_marseille","lat":43.315,"lon":5.37309,"is_reserved":false,"is_disabled":true,"rental_uris":{"android":"levelo://app?vid=2f747797-e559-43cf-b56c-5d5684c52fbf","ios":"levelo://app?vid=2f747797-e559-43cf-b56c-5d5684c52fbf"},"vehicle_type_id":"4","last_reported":1734124101,"current_range_meters":400,"station_id":"ce4bgt12rcd13ifvqcd0","pricing_plan_id":"cebpf4jnsgd1na2vs0mg"},{"bike_id":"9bfcebe4-fee2-409c-a8ab-5608ab6f061f","system_id":"levelo_inurba_marseille","lat":43.28153,"lon":5.42748,"is_reserved":false,"is_disabled":true,"rental_uris":{"android":"levelo://app?vid=9bfcebe4-fee2-409c-a8ab-5608ab6f061f","ios":"levelo://app?vid=9bfcebe4-fee2-409c-a8ab-5608ab6f061f"},"vehicle_type_id":"4","last_reported":1734124101,"current_range_meters":37600,"station_id":"","pricing_plan_id":"cebpf4jnsgd1na2vs0mg"},{"bike_id":"ab39b36e-947e-4bb2-93c5-9b4f0203649a","system_id":"levelo_inurba_marseille","lat":43.306316,"lon":5.372989,"is_reserved":false,"is_disabled":false,"rental_uris":{"android":"levelo://app?vid=ab39b36e-947e-4bb2-93c5-9b4f0203649a","ios":"levelo://app?vid=ab39b36e-947e-4bb2-93c5-9b4f0203649a"},"vehicle_type_id":"4","last_reported":1734124101,"current_range_meters":27600,"station_id":"ce4bgqh2rcd13ifvqc4g","pricing_plan_id":"cebpf4jnsgd1na2vs0mg"},{"bike_id":"0e8a89dc-4e73-48a3-8682-6696627877b1","system_id":"levelo_inurba_marseille","lat":43.31763,"lon":5.39013,"is_reserved":false,"is_disabled":false,"rental_uris":{"android":"levelo://app?vid=0e8a89dc-4e73-48a3-8682-6696627877b1","ios":"levelo://app?vid=0e8a89dc-4e73-48a3-8682-6696627877b1"},"vehicle_type_id":"4","last_reported":1734124101,"current_range_meters":38800,"station_id":"ce4bhqp2rcd13ifvqhng","pricing_plan_id":"cebpf4jnsgd1na2vs0mg"},{"bike_id":"edaea664-24e0-4d6c-aa7a-497f5c5f88f6","system_id":"levelo_inurba_marseille","lat":43.27009,"lon":5.39152,"is_reserved":false,"is_disabled":true,"rental_uris":{"android":"levelo://app?vid=edaea664-24e0-4d6c-aa7a-497f5c5f88f6","ios":"levelo://app?vid=edaea664-24e0-4d6c-aa7a-497f5c5f88f6"},"vehicle_type_id":"4","last_reported":1734124101,"current_range_meters":0,"station_id":"","pricing_plan_id":"cebpf4jnsgd1na2vs0mg"},{"bike_id":"72ad76d7-5a2d-4089-9d42-96862758d84f","system_id":"levelo_inurba_marseille","lat":43.29527,"lon":5.39021,"is_reserved":false,"is_disabled":true,"rental_uris":{"android":"levelo://app?vid=72ad76d7-5a2d-4089-9d42-96862758d84f","ios":"levelo://app?vid=72ad76d7-5a2d-4089-9d42-96862758d84f"},"vehicle_type_id":"4","last_reported":1734124101,"current_range_meters":34000,"station_id":"ce4bh3p2rcd13ifvqdp0","pricing_plan_id":"cebpf4jnsgd1na2vs0mg"},{"bike_id":"fedf204c-5275-4ce3-a9ac-595030bd683b","system_id":"levelo_inurba_marseille","lat":43.30647,"lon":5.40103,"is_reserved":false,"is_disabled":false,"rental_uris":{"android":"levelo://app?vid=fedf204c-5275-4ce3-a9ac-595030bd683b","ios":"levelo://app?vid=fedf204c-5275-4ce3-a9ac-595030bd683b"},"vehicle_type_id":"4","last_reported":1734124101,"current_range_meters":18800,"station_id":"ce4bh112rcd13ifvqda0","pricing_plan_id":"cebpf4jnsgd1na2vs0mg"},{"bike_id":"634a9a85-83c2-4199-8c3b-23470c5b470c","system_id":"levelo_inurba_marseille","lat":43.28069,"lon":5.3965,"is_reserved":false,"is_disabled":false,"rental_uris":{"android":"levelo://app?vid=634a9a85-83c2-4199-8c3b-23470c5b470c","ios":"levelo://app?vid=634a9a85-83c2-4199-8c3b-23470c5b470c"},"vehicle_type_id":"4","last_reported":1734124101,"current_range_meters":38000,"station_id":"ce4bho12rcd13ifvqh2g","pricing_plan_id":"cebpf4jnsgd1na2vs0mg"},{"bike_id":"031809f5-fdc4-4687-967d-86d6a0becf47","system_id":"levelo_inurba_marseille","lat":43.2586,"lon":5.39901,"is_reserved":false,"is_disabled":false,"rental_uris":{"android":"levelo://app?vid=031809f5-fdc4-4687-967d-86d6a0becf47","ios":"levelo://app?vid=031809f5-fdc4-4687-967d-86d6a0becf47"},"vehicle_type_id":"4","last_reported":1734124101,"current_range_meters":39200,"station_id":"ce4bhl92rcd13ifvqghg","pricing_plan_id":"cebpf4jnsgd1na2vs0mg"},{"bike_id":"66331cc1-d263-487f-86ec-bf9d2260ae21","system_id":"levelo_inurba_marseille","lat":43.25862,"lon":5.39909,"is_reserved":false,"is_disabled":false,"rental_uris":{"android":"levelo://app?vid=66331cc1-d263-487f-86ec-bf9d2260ae21","ios":"levelo://app?vid=66331cc1-d263-487f-86ec-bf9d2260ae21"},"vehicle_type_id":"4","last_reported":1734124101,"current_range_meters":37600,"station_id":"ce4bhl92rcd13ifvqghg","pricing_plan_id":"cebpf4jnsgd1na2vs0mg"},{"bike_id":"67f888b4-3448-420f-9d7e-78601374cfaf","system_id":"levelo_inurba_marseille","lat":43.2827,"lon":5.35071,"is_reserved":false,"is_disabled":false,"rental_uris":{"android":"levelo://app?vid=67f888b4-3448-420f-9d7e-78601374cfaf","ios":"levelo://app?vid=67f888b4-3448-420f-9d7e-78601374cfaf"},"vehicle_type_id":"4","last_reported":1734124101,"current_range_meters":30800,"station_id":"ce4bhbp2rcd13ifvqerg","pricing_plan_id":"cebpf4jnsgd1na2vs0mg"},{"bike_id":"9b8de88d-3aac-4c23-948d-9b3427dee27a","system_id":"levelo_inurba_marseille","lat":43.326675,"lon":5.408411,"is_reserved":false,"is_disabled":false,"rental_uris":{"android":"levelo://app?vid=9b8de88d-3aac-4c23-948d-9b3427dee27a","ios":"levelo://app?vid=9b8de88d-3aac-4c23-948d-9b3427dee27a"},"vehicle_type_id":"4","last_reported":1734124101,"current_range_meters":30400,"station_id":"ce4bhpp2rcd13ifvqhgg","pricing_plan_id":"cebpf4jnsgd1na2vs0mg"},{"bike_id":"75d005f1-a104-4287-b501-1002db049ee7","system_id":"levelo_inurba_marseille","lat":43.337331,"lon":5.391887,"is_reserved":false,"is_disabled":false,"rental_uris":{"android":"levelo://app?vid=75d005f1-a104-4287-b501-1002db049ee7","ios":"levelo://app?vid=75d005f1-a104-4287-b501-1002db049ee7"},"vehicle_type_id":"4","last_reported":1734124101,"current_range_meters":38800,"station_id":"ce4bhr92rcd13ifvqhsg","pricing_plan_id":"cebpf4jnsgd1na2vs0mg"},{"bike_id":"9c1ce7b6-f5d4-48dd-b699-4ec030edf6d0","system_id":"levelo_inurba_marseille","lat":43.33024,"lon":5.39041,"is_reserved":false,"is_disabled":false,"rental_uris":{"android":"levelo://app?vid=9c1ce7b6-f5d4-48dd-b699-4ec030edf6d0","ios":"levelo://app?vid=9c1ce7b6-f5d4-48dd-b699-4ec030edf6d0"},"vehicle_type_id":"4","last_reported":1734124101,"current_range_meters":15200,"station_id":"ce4bhr92rcd13ifvqhrg","pricing_plan_id":"cebpf4jnsgd1na2vs0mg"},{"bike_id":"6f6ea4f4-7879-430a-8f63-2bbb5f3c1293","system_id":"levelo_inurba_marseille","lat":43.30139,"lon":5.37418,"is_reserved":false,"is_disabled":false,"rental_uris":{"android":"levelo://app?vid=6f6ea4f4-7879-430a-8f63-2bbb5f3c1293","ios":"levelo://app?vid=6f6ea4f4-7879-430a-8f63-2bbb5f3c1293"},"vehicle_type_id":"4","last_reported":1734124101,"current_range_meters":37600,"station_id":"ce4bgs92rcd13ifvqcc0","pricing_plan_id":"cebpf4jnsgd1na2vs0mg"},{"bike_id":"30b7f7b0-cffb-44e8-9e23-86428fe1183d","system_id":"levelo_inurba_marseille","lat":43.23062,"lon":5.35502,"is_reserved":false,"is_disabled":false,"rental_uris":{"android":"levelo://app?vid=30b7f7b0-cffb-44e8-9e23-86428fe1183d","ios":"levelo://app?vid=30b7f7b0-cffb-44e8-9e23-86428fe1183d"},"vehicle_type_id":"4","last_reported":1734124101,"current_range_meters":36400,"station_id":"cpo3342slgdg3j2ifvpg","pricing_plan_id":"cebpf4jnsgd1na2vs0mg"},{"bike_id":"eaddc4d6-163a-482e-abbb-b79c1524cfdc","system_id":"levelo_inurba_marseille","lat":43.28108,"lon":5.37843,"is_reserved":false,"is_disabled":false,"rental_uris":{"android":"levelo://app?vid=eaddc4d6-163a-482e-abbb-b79c1524cfdc","ios":"levelo://app?vid=eaddc4d6-163a-482e-abbb-b79c1524cfdc"},"vehicle_type_id":"4","last_reported":1734124101,"current_range_meters":5600,"station_id":"ce4bha12rcd13ifvqee0","pricing_plan_id":"cebpf4jnsgd1na2vs0mg"},{"bike_id":"c962957d-ec10-4997-96e1-a869343f922e","system_id":"levelo_inurba_marseille","lat":43.32674,"lon":5.36081,"is_reserved":false,"is_disabled":false,"rental_uris":{"android":"levelo://app?vid=c962957d-ec10-4997-96e1-a869343f922e","ios":"levelo://app?vid=c962957d-ec10-4997-96e1-a869343f922e"},"vehicle_type_id":"4","last_reported":1734124101,"current_range_meters":4400,"station_id":"","pricing_plan_id":"cebpf4jnsgd1na2vs0mg"},{"bike_id":"5d8c4147-efc3-46d0-b949-f9ef59336e99","system_id":"levelo_inurba_marseille","lat":43.27935,"lon":5.41031,"is_reserved":false,"is_disabled":false,"rental_uris":{"android":"levelo://app?vid=5d8c4147-efc3-46d0-b949-f9ef59336e99","ios":"levelo://app?vid=5d8c4147-efc3-46d0-b949-f9ef59336e99"},"vehicle_type_id":"4","last_reported":1734124101,"current_range_meters":25600,"station_id":"ce4bhnp2rcd13ifvqh0g","pricing_plan_id":"cebpf4jnsgd1na2vs0mg"},{"bike_id":"bb14f36d-3645-4531-9655-e845e98af035","system_id":"levelo_inurba_marseille","lat":43.32287,"lon":5.38273,"is_reserved":false,"is_disabled":false,"rental_uris":{"android":"levelo://app?vid=bb14f36d-3645-4531-9655-e845e98af035","ios":"levelo://app?vid=bb14f36d-3645-4531-9655-e845e98af035"},"vehicle_type_id":"4","last_reported":1734124101,"current_range_meters":6800,"station_id":"ce4bhr12rcd13ifvqhqg","pricing_plan_id":"cebpf4jnsgd1na2vs0mg"},{"bike_id":"5bdc18b4-7da0-4615-93ee-823e8a539e07","system_id":"levelo_inurba_marseille","lat":43.29101,"lon":5.38139,"is_reserved":false,"is_disabled":false,"rental_uris":{"android":"levelo://app?vid=5bdc18b4-7da0-4615-93ee-823e8a539e07","ios":"levelo://app?vid=5bdc18b4-7da0-4615-93ee-823e8a539e07"},"vehicle_type_id":"4","last_reported":1734124101,"current_range_meters":38800,"station_id":"ce4bh512rcd13ifvqe2g","pricing_plan_id":"cebpf4jnsgd1na2vs0mg"},{"bike_id":"0a1b8083-867c-40ce-a9b7-1e071e1d11e5","system_id":"levelo_inurba_marseille","lat":43.29272,"lon":5.38443,"is_reserved":false,"is_disabled":false,"rental_uris":{"android":"levelo://app?vid=0a1b8083-867c-40ce-a9b7-1e071e1d11e5","ios":"levelo://app?vid=0a1b8083-867c-40ce-a9b7-1e071e1d11e5"},"vehicle_type_id":"4","last_reported":1734124101,"current_range_meters":38400,"station_id":"ce4bh692rcd13ifvqea0","pricing_plan_id":"cebpf4jnsgd1na2vs0mg"},{"bike_id":"abd9410f-8ebe-4470-8566-18d0d82e9c24","system_id":"levelo_inurba_marseille","lat":43.30093,"lon":5.39077,"is_reserved":false,"is_disabled":false,"rental_uris":{"android":"levelo://app?vid=abd9410f-8ebe-4470-8566-18d0d82e9c24","ios":"levelo://app?vid=abd9410f-8ebe-4470-8566-18d0d82e9c24"},"vehicle_type_id":"4","last_reported":1734124101,"current_range_meters":31200,"station_id":"ce4bh192rcd13ifvqdb0","pricing_plan_id":"cebpf4jnsgd1na2vs0mg"},{"bike_id":"87a629a3-d105-40c3-86ef-ac690fff2805","system_id":"levelo_inurba_marseille","lat":43.29279,"lon":5.36846,"is_reserved":false,"is_disabled":false,"rental_uris":{"android":"levelo://app?vid=87a629a3-d105-40c3-86ef-ac690fff2805","ios":"levelo://app?vid=87a629a3-d105-40c3-86ef-ac690fff2805"},"vehicle_type_id":"4","last_reported":1734124101,"current_range_meters":38800,"station_id":"ce4bhbp2rcd13ifvqesg","pricing_plan_id":"cebpf4jnsgd1na2vs0mg"},{"bike_id":"bc77552c-f2bc-4368-bc19-7004372d4910","system_id":"levelo_inurba_marseille","lat":43.31331,"lon":5.39696,"is_reserved":false,"is_disabled":false,"rental_uris":{"android":"levelo://app?vid=bc77552c-f2bc-4368-bc19-7004372d4910","ios":"levelo://app?vid=bc77552c-f2bc-4368-bc19-7004372d4910"},"vehicle_type_id":"4","last_reported":1734124101,"current_range_meters":38800,"station_id":"ce4bgvp2rcd13ifvqcu0","pricing_plan_id":"cebpf4jnsgd1na2vs0mg"},{"bike_id":"773210ee-d19a-4226-90f8-e420da4ce6bd","system_id":"levelo_inurba_marseille","lat":43.30251,"lon":5.40039,"is_reserved":false,"is_disabled":true,"rental_uris":{"android":"levelo://app?vid=773210ee-d19a-4226-90f8-e420da4ce6bd","ios":"levelo://app?vid=773210ee-d19a-4226-90f8-e420da4ce6bd"},"vehicle_type_id":"4","last_reported":1734124101,"current_range_meters":6000,"station_id":"ce4bgvh2rcd13ifvqcs0","pricing_plan_id":"cebpf4jnsgd1na2vs0mg"},{"bike_id":"da345435-a4ab-4142-96e2-d4c3515056c7","system_id":"levelo_inurba_marseille","lat":43.3013,"lon":5.38798,"is_reserved":false,"is_disabled":true,"rental_uris":{"android":"levelo://app?vid=da345435-a4ab-4142-96e2-d4c3515056c7","ios":"levelo://app?vid=da345435-a4ab-4142-96e2-d4c3515056c7"},"vehicle_type_id":"4","last_reported":1734124101,"current_range_meters":0,"station_id":"ce4bghh2rcd13ifvqb60","pricing_plan_id":"cebpf4jnsgd1na2vs0mg"},{"bike_id":"5f48c129-c3c6-4696-bca8-9871cd7c9021","system_id":"levelo_inurba_marseille","lat":43.30276,"lon":5.37727,"is_reserved":false,"is_disabled":false,"rental_uris":{"android":"levelo://app?vid=5f48c129-c3c6-4696-bca8-9871cd7c9021","ios":"levelo://app?vid=5f48c129-c3c6-4696-bca8-9871cd7c9021"},"vehicle_type_id":"4","last_reported":1734124101,"current_range_meters":32800,"station_id":"ce4bguh2rcd13ifvqcj0","pricing_plan_id":"cebpf4jnsgd1na2vs0mg"},{"bike_id":"1dcb2b19-c38f-4c18-9470-8004942c15c1","system_id":"levelo_inurba_marseille","lat":43.27813,"lon":5.40722,"is_reserved":false,"is_disabled":false,"rental_uris":{"android":"levelo://app?vid=1dcb2b19-c38f-4c18-9470-8004942c15c1","ios":"levelo://app?vid=1dcb2b19-c38f-4c18-9470-8004942c15c1"},"vehicle_type_id":"4","last_reported":1734124101,"current_range_meters":38800,"station_id":"ce4bhnh2rcd13ifvqgtg","pricing_plan_id":"cebpf4jnsgd1na2vs0mg"},{"bike_id":"5dc193db-d061-4092-90a6-9c124be735be","system_id":"levelo_inurba_marseille","lat":43.29415,"lon":5.38606,"is_reserved":false,"is_disabled":false,"rental_uris":{"android":"levelo://app?vid=5dc193db-d061-4092-90a6-9c124be735be","ios":"levelo://app?vid=5dc193db-d061-4092-90a6-9c124be735be"},"vehicle_type_id":"4","last_reported":1734124101,"current_range_meters":38800,"station_id":"ce4bh2h2rcd13ifvqdh0","pricing_plan_id":"cebpf4jnsgd1na2vs0mg"},{"bike_id":"9ad311dd-c450-4f09-933a-ef53d4559dc3","system_id":"levelo_inurba_marseille","lat":43.269869,"lon":5.398633,"is_reserved":false,"is_disabled":false,"rental_uris":{"android":"levelo://app?vid=9ad311dd-c450-4f09-933a-ef53d4559dc3","ios":"levelo://app?vid=9ad311dd-c450-4f09-933a-ef53d4559dc3"},"vehicle_type_id":"4","last_reported":1734124101,"current_range_meters":29600,"station_id":"","pricing_plan_id":"cebpf4jnsgd1na2vs0mg"},{"bike_id":"1d47f8be-8cbc-4428-8fba-716e77d4477b","system_id":"levelo_inurba_marseille","lat":43.29526,"lon":5.39398,"is_reserved":false,"is_disabled":false,"rental_uris":{"android":"levelo://app?vid=1d47f8be-8cbc-4428-8fba-716e77d4477b","ios":"levelo://app?vid=1d47f8be-8cbc-4428-8fba-716e77d4477b"},"vehicle_type_id":"4","last_reported":1734124101,"current_range_meters":37600,"station_id":"ce4bh292rcd13ifvqdf0","pricing_plan_id":"cebpf4jnsgd1na2vs0mg"},{"bike_id":"cd22f6c9-a701-4f3e-b1ed-fcf871f28daa","system_id":"levelo_inurba_marseille","lat":43.28041,"lon":5.36953,"is_reserved":false,"is_disabled":false,"rental_uris":{"android":"levelo://app?vid=cd22f6c9-a701-4f3e-b1ed-fcf871f28daa","ios":"levelo://app?vid=cd22f6c9-a701-4f3e-b1ed-fcf871f28daa"},"vehicle_type_id":"4","last_reported":1734124101,"current_range_meters":14400,"station_id":"ce4bha12rcd13ifvqef0","pricing_plan_id":"cebpf4jnsgd1na2vs0mg"},{"bike_id":"dce79262-6094-4d3b-b3ca-313cc390b2bc","system_id":"levelo_inurba_marseille","lat":43.27945,"lon":5.41046,"is_reserved":false,"is_disabled":false,"rental_uris":{"android":"levelo://app?vid=dce79262-6094-4d3b-b3ca-313cc390b2bc","ios":"levelo://app?vid=dce79262-6094-4d3b-b3ca-313cc390b2bc"},"vehicle_type_id":"4","last_reported":1734124101,"current_range_meters":28000,"station_id":"ce4bhnp2rcd13ifvqh0g","pricing_plan_id":"cebpf4jnsgd1na2vs0mg"},{"bike_id":"3ddee05b-3ae4-47d8-b48a-d720b0f68cde","system_id":"levelo_inurba_marseille","lat":43.24989,"lon":5.3893,"is_reserved":false,"is_disabled":false,"rental_uris":{"android":"levelo://app?vid=3ddee05b-3ae4-47d8-b48a-d720b0f68cde","ios":"levelo://app?vid=3ddee05b-3ae4-47d8-b48a-d720b0f68cde"},"vehicle_type_id":"4","last_reported":1734124101,"current_range_meters":16000,"station_id":"ce4bhgp2rcd13ifvqfd0","pricing_plan_id":"cebpf4jnsgd1na2vs0mg"},{"bike_id":"af67ac53-ba21-4ff0-8334-95679e9ff2cc","system_id":"levelo_inurba_marseille","lat":43.278805,"lon":5.388003,"is_reserved":false,"is_disabled":true,"rental_uris":{"android":"levelo://app?vid=af67ac53-ba21-4ff0-8334-95679e9ff2cc","ios":"levelo://app?vid=af67ac53-ba21-4ff0-8334-95679e9ff2cc"},"vehicle_type_id":"4","last_reported":1734124101,"current_range_meters":4800,"station_id":"","pricing_plan_id":"cebpf4jnsgd1na2vs0mg"},{"bike_id":"2a392c48-5f99-4704-96d2-f5c965baf6b6","system_id":"levelo_inurba_marseille","lat":43.26202,"lon":5.37925,"is_reserved":false,"is_disabled":false,"rental_uris":{"android":"levelo://app?vid=2a392c48-5f99-4704-96d2-f5c965baf6b6","ios":"levelo://app?vid=2a392c48-5f99-4704-96d2-f5c965baf6b6"},"vehicle_type_id":"4","last_reported":1734124101,"current_range_meters":16800,"station_id":"ce4bhjp2rcd13ifvqg90","pricing_plan_id":"cebpf4jnsgd1na2vs0mg"},{"bike_id":"0232408d-292c-41d3-b181-663261afd040","system_id":"levelo_inurba_marseille","lat":43.27489,"lon":5.40921,"is_reserved":false,"is_disabled":false,"rental_uris":{"android":"levelo://app?vid=0232408d-292c-41d3-b181-663261afd040","ios":"levelo://app?vid=0232408d-292c-41d3-b181-663261afd040"},"vehicle_type_id":"4","last_reported":1734124101,"current_range_meters":36800,"station_id":"","pricing_plan_id":"cebpf4jnsgd1na2vs0mg"},{"bike_id":"d8d7ffef-ae54-446a-a28c-8265164b47ce","system_id":"levelo_inurba_marseille","lat":43.29167,"lon":5.43913,"is_reserved":false,"is_disabled":true,"rental_uris":{"android":"levelo://app?vid=d8d7ffef-ae54-446a-a28c-8265164b47ce","ios":"levelo://app?vid=d8d7ffef-ae54-446a-a28c-8265164b47ce"},"vehicle_type_id":"4","last_reported":1734124101,"current_range_meters":28400,"station_id":"","pricing_plan_id":"cebpf4jnsgd1na2vs0mg"},{"bike_id":"36205c2f-92ed-4141-af6f-a12ea0ad7c83","system_id":"levelo_inurba_marseille","lat":43.295992,"lon":5.38104,"is_reserved":false,"is_disabled":false,"rental_uris":{"android":"levelo://app?vid=36205c2f-92ed-4141-af6f-a12ea0ad7c83","ios":"levelo://app?vid=36205c2f-92ed-4141-af6f-a12ea0ad7c83"},"vehicle_type_id":"4","last_reported":1734124101,"current_range_meters":28000,"station_id":"ce4bgl12rcd13ifvqbo0","pricing_plan_id":"cebpf4jnsgd1na2vs0mg"},{"bike_id":"c5768e7e-b244-4dfc-973f-384fac771fcc","system_id":"levelo_inurba_marseille","lat":43.27993,"lon":5.41653,"is_reserved":false,"is_disabled":false,"rental_uris":{"android":"levelo://app?vid=c5768e7e-b244-4dfc-973f-384fac771fcc","ios":"levelo://app?vid=c5768e7e-b244-4dfc-973f-384fac771fcc"},"vehicle_type_id":"4","last_reported":1734124101,"current_range_meters":38800,"station_id":"ce4bho12rcd13ifvqh1g","pricing_plan_id":"cebpf4jnsgd1na2vs0mg"},{"bike_id":"d65fcea9-51ba-41f0-86fd-e798dfdd6f09","system_id":"levelo_inurba_marseille","lat":43.286689,"lon":5.383458,"is_reserved":false,"is_disabled":true,"rental_uris":{"android":"levelo://app?vid=d65fcea9-51ba-41f0-86fd-e798dfdd6f09","ios":"levelo://app?vid=d65fcea9-51ba-41f0-86fd-e798dfdd6f09"},"vehicle_type_id":"4","last_reported":1734124101,"current_range_meters":0,"station_id":"","pricing_plan_id":"cebpf4jnsgd1na2vs0mg"},{"bike_id":"113228c8-2fb8-453f-8593-d5db0df4bafa","system_id":"levelo_inurba_marseille","lat":43.28617,"lon":5.35108,"is_reserved":false,"is_disabled":false,"rental_uris":{"android":"levelo://app?vid=113228c8-2fb8-453f-8593-d5db0df4bafa","ios":"levelo://app?vid=113228c8-2fb8-453f-8593-d5db0df4bafa"},"vehicle_type_id":"4","last_reported":1734124101,"current_range_meters":28800,"station_id":"ce4bhch2rcd13ifvqeug","pricing_plan_id":"cebpf4jnsgd1na2vs0mg"},{"bike_id":"3cffa040-7e8b-4d9e-a1bd-b8a78d782447","system_id":"levelo_inurba_marseille","lat":43.314905,"lon":5.373088,"is_reserved":false,"is_disabled":true,"rental_uris":{"android":"levelo://app?vid=3cffa040-7e8b-4d9e-a1bd-b8a78d782447","ios":"levelo://app?vid=3cffa040-7e8b-4d9e-a1bd-b8a78d782447"},"vehicle_type_id":"4","last_reported":1734124101,"current_range_meters":2000,"station_id":"","pricing_plan_id":"cebpf4jnsgd1na2vs0mg"},{"bike_id":"c443bec8-f723-436f-bf44-c816e28fd0cd","system_id":"levelo_inurba_marseille","lat":43.29248,"lon":5.38437,"is_reserved":false,"is_disabled":false,"rental_uris":{"android":"levelo://app?vid=c443bec8-f723-436f-bf44-c816e28fd0cd","ios":"levelo://app?vid=c443bec8-f723-436f-bf44-c816e28fd0cd"},"vehicle_type_id":"4","last_reported":1734124101,"current_range_meters":21600,"station_id":"ce4bh692rcd13ifvqea0","pricing_plan_id":"cebpf4jnsgd1na2vs0mg"},{"bike_id":"ad5cbd3d-7c9b-45b6-9e26-bf9ba9cfbc39","system_id":"levelo_inurba_marseille","lat":43.27999,"lon":5.40016,"is_reserved":false,"is_disabled":false,"rental_uris":{"android":"levelo://app?vid=ad5cbd3d-7c9b-45b6-9e26-bf9ba9cfbc39","ios":"levelo://app?vid=ad5cbd3d-7c9b-45b6-9e26-bf9ba9cfbc39"},"vehicle_type_id":"4","last_reported":1734124101,"current_range_meters":38800,"station_id":"ce4bho92rcd13ifvqh4g","pricing_plan_id":"cebpf4jnsgd1na2vs0mg"},{"bike_id":"6274c657-7300-4bfa-aaef-ad2568423532","system_id":"levelo_inurba_marseille","lat":43.26802,"lon":5.40253,"is_reserved":false,"is_disabled":false,"rental_uris":{"android":"levelo://app?vid=6274c657-7300-4bfa-aaef-ad2568423532","ios":"levelo://app?vid=6274c657-7300-4bfa-aaef-ad2568423532"},"vehicle_type_id":"4","last_reported":1734124101,"current_range_meters":39200,"station_id":"ce501612rcd8frsf0b60","pricing_plan_id":"cebpf4jnsgd1na2vs0mg"},{"bike_id":"64203de9-e72b-4d66-9a84-7a315c7ed37f","system_id":"levelo_inurba_marseille","lat":43.29446,"lon":5.37395,"is_reserved":false,"is_disabled":true,"rental_uris":{"android":"levelo://app?vid=64203de9-e72b-4d66-9a84-7a315c7ed37f","ios":"levelo://app?vid=64203de9-e72b-4d66-9a84-7a315c7ed37f"},"vehicle_type_id":"4","last_reported":1734124101,"current_range_meters":0,"station_id":"","pricing_plan_id":"cebpf4jnsgd1na2vs0mg"},{"bike_id":"53f89392-8f08-4eca-923a-7dd5df603ca7","system_id":"levelo_inurba_marseille","lat":43.30172,"lon":5.36609,"is_reserved":false,"is_disabled":false,"rental_uris":{"android":"levelo://app?vid=53f89392-8f08-4eca-923a-7dd5df603ca7","ios":"levelo://app?vid=53f89392-8f08-4eca-923a-7dd5df603ca7"},"vehicle_type_id":"4","last_reported":1734124101,"current_range_meters":33200,"station_id":"ce4bgrh2rcd13ifvqc8g","pricing_plan_id":"cebpf4jnsgd1na2vs0mg"},{"bike_id":"f74d5a31-7551-4a47-8fae-ea8127eaa665","system_id":"levelo_inurba_marseille","lat":43.28926,"lon":5.36625,"is_reserved":false,"is_disabled":true,"rental_uris":{"android":"levelo://app?vid=f74d5a31-7551-4a47-8fae-ea8127eaa665","ios":"levelo://app?vid=f74d5a31-7551-4a47-8fae-ea8127eaa665"},"vehicle_type_id":"4","last_reported":1734124101,"current_range_meters":1200,"station_id":"ce4bhap2rcd13ifvqek0","pricing_plan_id":"cebpf4jnsgd1na2vs0mg"},{"bike_id":"5868d62f-ceef-4d77-a8f9-938364211808","system_id":"levelo_inurba_marseille","lat":43.31057,"lon":5.38358,"is_reserved":false,"is_disabled":false,"rental_uris":{"android":"levelo://app?vid=5868d62f-ceef-4d77-a8f9-938364211808","ios":"levelo://app?vid=5868d62f-ceef-4d77-a8f9-938364211808"},"vehicle_type_id":"4","last_reported":1734124101,"current_range_meters":28800,"station_id":"ce4bgv92rcd13ifvqcr0","pricing_plan_id":"cebpf4jnsgd1na2vs0mg"},{"bike_id":"90265536-82be-4cbe-a85c-76a46ed64a58","system_id":"levelo_inurba_marseille","lat":43.31766,"lon":5.39018,"is_reserved":false,"is_disabled":false,"rental_uris":{"android":"levelo://app?vid=90265536-82be-4cbe-a85c-76a46ed64a58","ios":"levelo://app?vid=90265536-82be-4cbe-a85c-76a46ed64a58"},"vehicle_type_id":"4","last_reported":1734124101,"current_range_meters":16800,"station_id":"ce4bhqp2rcd13ifvqhng","pricing_plan_id":"cebpf4jnsgd1na2vs0mg"},{"bike_id":"ff23fb06-2ebe-40f8-aa7c-29d21c9f5d12","system_id":"levelo_inurba_marseille","lat":43.29531,"lon":5.38542,"is_reserved":false,"is_disabled":false,"rental_uris":{"android":"levelo://app?vid=ff23fb06-2ebe-40f8-aa7c-29d21c9f5d12","ios":"levelo://app?vid=ff23fb06-2ebe-40f8-aa7c-29d21c9f5d12"},"vehicle_type_id":"4","last_reported":1734124101,"current_range_meters":24000,"station_id":"ce4bgih2rcd13ifvqba0","pricing_plan_id":"cebpf4jnsgd1na2vs0mg"},{"bike_id":"5c23befe-e7d4-4dee-ac43-14eb04f945cb","system_id":"levelo_inurba_marseille","lat":43.30869,"lon":5.37786,"is_reserved":false,"is_disabled":false,"rental_uris":{"android":"levelo://app?vid=5c23befe-e7d4-4dee-ac43-14eb04f945cb","ios":"levelo://app?vid=5c23befe-e7d4-4dee-ac43-14eb04f945cb"},"vehicle_type_id":"4","last_reported":1734124101,"current_range_meters":35600,"station_id":"","pricing_plan_id":"cebpf4jnsgd1na2vs0mg"},{"bike_id":"9e537004-7250-4650-9370-76464cbe54e8","system_id":"levelo_inurba_marseille","lat":43.24181,"lon":5.39735,"is_reserved":false,"is_disabled":false,"rental_uris":{"android":"levelo://app?vid=9e537004-7250-4650-9370-76464cbe54e8","ios":"levelo://app?vid=9e537004-7250-4650-9370-76464cbe54e8"},"vehicle_type_id":"4","last_reported":1734124101,"current_range_meters":38800,"station_id":"ce4bhn12rcd13ifvqgpg","pricing_plan_id":"cebpf4jnsgd1na2vs0mg"},{"bike_id":"8c00aa06-cef0-4eec-9cd6-5c0ba00621af","system_id":"levelo_inurba_marseille","lat":43.29416,"lon":5.38628,"is_reserved":false,"is_disabled":false,"rental_uris":{"android":"levelo://app?vid=8c00aa06-cef0-4eec-9cd6-5c0ba00621af","ios":"levelo://app?vid=8c00aa06-cef0-4eec-9cd6-5c0ba00621af"},"vehicle_type_id":"4","last_reported":1734124101,"current_range_meters":30000,"station_id":"ce4bh2h2rcd13ifvqdh0","pricing_plan_id":"cebpf4jnsgd1na2vs0mg"},{"bike_id":"7c8b2e47-9d14-4c0e-80b5-a27214fec09a","system_id":"levelo_inurba_marseille","lat":43.29258,"lon":5.38444,"is_reserved":false,"is_disabled":false,"rental_uris":{"android":"levelo://app?vid=7c8b2e47-9d14-4c0e-80b5-a27214fec09a","ios":"levelo://app?vid=7c8b2e47-9d14-4c0e-80b5-a27214fec09a"},"vehicle_type_id":"4","last_reported":1734124101,"current_range_meters":26800,"station_id":"ce4bh692rcd13ifvqea0","pricing_plan_id":"cebpf4jnsgd1na2vs0mg"},{"bike_id":"6b96472e-d692-4593-af5c-58d42133b123","system_id":"levelo_inurba_marseille","lat":43.29529,"lon":5.38536,"is_reserved":false,"is_disabled":false,"rental_uris":{"android":"levelo://app?vid=6b96472e-d692-4593-af5c-58d42133b123","ios":"levelo://app?vid=6b96472e-d692-4593-af5c-58d42133b123"},"vehicle_type_id":"4","last_reported":1734124101,"current_range_meters":20800,"station_id":"ce4bgih2rcd13ifvqba0","pricing_plan_id":"cebpf4jnsgd1na2vs0mg"},{"bike_id":"2bead35c-7957-47fc-ad42-279d34b99a03","system_id":"levelo_inurba_marseille","lat":43.29267,"lon":5.38445,"is_reserved":false,"is_disabled":false,"rental_uris":{"android":"levelo://app?vid=2bead35c-7957-47fc-ad42-279d34b99a03","ios":"levelo://app?vid=2bead35c-7957-47fc-ad42-279d34b99a03"},"vehicle_type_id":"4","last_reported":1734124101,"current_range_meters":33600,"station_id":"ce4bh692rcd13ifvqea0","pricing_plan_id":"cebpf4jnsgd1na2vs0mg"},{"bike_id":"b948092c-9ab4-45a3-af33-669f10a0ca1c","system_id":"levelo_inurba_marseille","lat":43.24814,"lon":5.37466,"is_reserved":false,"is_disabled":false,"rental_uris":{"android":"levelo://app?vid=b948092c-9ab4-45a3-af33-669f10a0ca1c","ios":"levelo://app?vid=b948092c-9ab4-45a3-af33-669f10a0ca1c"},"vehicle_type_id":"4","last_reported":1734124101,"current_range_meters":35600,"station_id":"ce4bhgh2rcd13ifvqfb0","pricing_plan_id":"cebpf4jnsgd1na2vs0mg"},{"bike_id":"bb6094dd-51eb-4016-a439-f2743865afe4","system_id":"levelo_inurba_marseille","lat":43.30909,"lon":5.37857,"is_reserved":false,"is_disabled":true,"rental_uris":{"android":"levelo://app?vid=bb6094dd-51eb-4016-a439-f2743865afe4","ios":"levelo://app?vid=bb6094dd-51eb-4016-a439-f2743865afe4"},"vehicle_type_id":"4","last_reported":1734124101,"current_range_meters":25600,"station_id":"","pricing_plan_id":"cebpf4jnsgd1na2vs0mg"},{"bike_id":"c2459f38-4f6b-4cc5-a2a0-650e7ec08f9a","system_id":"levelo_inurba_marseille","lat":43.29247,"lon":5.3844,"is_reserved":false,"is_disabled":false,"rental_uris":{"android":"levelo://app?vid=c2459f38-4f6b-4cc5-a2a0-650e7ec08f9a","ios":"levelo://app?vid=c2459f38-4f6b-4cc5-a2a0-650e7ec08f9a"},"vehicle_type_id":"4","last_reported":1734124101,"current_range_meters":24400,"station_id":"ce4bh692rcd13ifvqea0","pricing_plan_id":"cebpf4jnsgd1na2vs0mg"},{"bike_id":"01d866ab-2b8c-4beb-a606-b1a141ac263b","system_id":"levelo_inurba_marseille","lat":43.29254,"lon":5.38441,"is_reserved":false,"is_disabled":false,"rental_uris":{"android":"levelo://app?vid=01d866ab-2b8c-4beb-a606-b1a141ac263b","ios":"levelo://app?vid=01d866ab-2b8c-4beb-a606-b1a141ac263b"},"vehicle_type_id":"4","last_reported":1734124101,"current_range_meters":17600,"station_id":"ce4bh692rcd13ifvqea0","pricing_plan_id":"cebpf4jnsgd1na2vs0mg"},{"bike_id":"e0a31c9a-be2e-435b-b95c-7118ac48c310","system_id":"levelo_inurba_marseille","lat":43.3229,"lon":5.38268,"is_reserved":false,"is_disabled":false,"rental_uris":{"android":"levelo://app?vid=e0a31c9a-be2e-435b-b95c-7118ac48c310","ios":"levelo://app?vid=e0a31c9a-be2e-435b-b95c-7118ac48c310"},"vehicle_type_id":"4","last_reported":1734124101,"current_range_meters":8000,"station_id":"ce4bhr12rcd13ifvqhqg","pricing_plan_id":"cebpf4jnsgd1na2vs0mg"},{"bike_id":"dfbedfcf-56c2-421f-bcd0-6b443a35d78c","system_id":"levelo_inurba_marseille","lat":43.25108,"lon":5.4033,"is_reserved":false,"is_disabled":false,"rental_uris":{"android":"levelo://app?vid=dfbedfcf-56c2-421f-bcd0-6b443a35d78c","ios":"levelo://app?vid=dfbedfcf-56c2-421f-bcd0-6b443a35d78c"},"vehicle_type_id":"4","last_reported":1734124101,"current_range_meters":32800,"station_id":"ce4bhlh2rcd13ifvqgig","pricing_plan_id":"cebpf4jnsgd1na2vs0mg"},{"bike_id":"3b03fdef-cc9b-4f77-a4cc-00b469447a49","system_id":"levelo_inurba_marseille","lat":43.3092,"lon":5.36855,"is_reserved":false,"is_disabled":false,"rental_uris":{"android":"levelo://app?vid=3b03fdef-cc9b-4f77-a4cc-00b469447a49","ios":"levelo://app?vid=3b03fdef-cc9b-4f77-a4cc-00b469447a49"},"vehicle_type_id":"4","last_reported":1734124101,"current_range_meters":22000,"station_id":"ce4bgn92rcd13ifvqbvg","pricing_plan_id":"cebpf4jnsgd1na2vs0mg"},{"bike_id":"818ef841-d8c0-4c92-9c0c-4a12654cda95","system_id":"levelo_inurba_marseille","lat":43.3054,"lon":5.3718,"is_reserved":false,"is_disabled":false,"rental_uris":{"android":"levelo://app?vid=818ef841-d8c0-4c92-9c0c-4a12654cda95","ios":"levelo://app?vid=818ef841-d8c0-4c92-9c0c-4a12654cda95"},"vehicle_type_id":"4","last_reported":1734124101,"current_range_meters":28000,"station_id":"","pricing_plan_id":"cebpf4jnsgd1na2vs0mg"},{"bike_id":"de78bc13-10a3-4ec7-bfa0-2b3d5fb981eb","system_id":"levelo_inurba_marseille","lat":43.32073,"lon":5.37653,"is_reserved":false,"is_disabled":false,"rental_uris":{"android":"levelo://app?vid=de78bc13-10a3-4ec7-bfa0-2b3d5fb981eb","ios":"levelo://app?vid=de78bc13-10a3-4ec7-bfa0-2b3d5fb981eb"},"vehicle_type_id":"4","last_reported":1734124101,"current_range_meters":37600,"station_id":"","pricing_plan_id":"cebpf4jnsgd1na2vs0mg"},{"bike_id":"b0dcd113-fe62-47ab-91b8-d55f2165d6a0","system_id":"levelo_inurba_marseille","lat":43.24804,"lon":5.3746,"is_reserved":false,"is_disabled":false,"rental_uris":{"android":"levelo://app?vid=b0dcd113-fe62-47ab-91b8-d55f2165d6a0","ios":"levelo://app?vid=b0dcd113-fe62-47ab-91b8-d55f2165d6a0"},"vehicle_type_id":"4","last_reported":1734124101,"current_range_meters":38800,"station_id":"ce4bhgh2rcd13ifvqfb0","pricing_plan_id":"cebpf4jnsgd1na2vs0mg"},{"bike_id":"163556d5-62ff-4c37-81a6-1059079d2a55","system_id":"levelo_inurba_marseille","lat":43.28459,"lon":5.35901,"is_reserved":false,"is_disabled":false,"rental_uris":{"android":"levelo://app?vid=163556d5-62ff-4c37-81a6-1059079d2a55","ios":"levelo://app?vid=163556d5-62ff-4c37-81a6-1059079d2a55"},"vehicle_type_id":"4","last_reported":1734124101,"current_range_meters":34800,"station_id":"ce4bhah2rcd13ifvqei0","pricing_plan_id":"cebpf4jnsgd1na2vs0mg"},{"bike_id":"c71599dd-7d45-4109-92d0-d4aa59eb273b","system_id":"levelo_inurba_marseille","lat":43.29906,"lon":5.37486,"is_reserved":false,"is_disabled":false,"rental_uris":{"android":"levelo://app?vid=c71599dd-7d45-4109-92d0-d4aa59eb273b","ios":"levelo://app?vid=c71599dd-7d45-4109-92d0-d4aa59eb273b"},"vehicle_type_id":"4","last_reported":1734124101,"current_range_meters":19200,"station_id":"ce4bgjh2rcd13ifvqbg0","pricing_plan_id":"cebpf4jnsgd1na2vs0mg"},{"bike_id":"915b1324-cf09-4d52-a36f-58bb08e14eca","system_id":"levelo_inurba_marseille","lat":43.31073,"lon":5.38353,"is_reserved":false,"is_disabled":false,"rental_uris":{"android":"levelo://app?vid=915b1324-cf09-4d52-a36f-58bb08e14eca","ios":"levelo://app?vid=915b1324-cf09-4d52-a36f-58bb08e14eca"},"vehicle_type_id":"4","last_reported":1734124101,"current_range_meters":38800,"station_id":"ce4bgv92rcd13ifvqcr0","pricing_plan_id":"cebpf4jnsgd1na2vs0mg"},{"bike_id":"1e267932-f6c6-4991-9c6b-8abf107c1a22","system_id":"levelo_inurba_marseille","lat":43.32291,"lon":5.38284,"is_reserved":false,"is_disabled":false,"rental_uris":{"android":"levelo://app?vid=1e267932-f6c6-4991-9c6b-8abf107c1a22","ios":"levelo://app?vid=1e267932-f6c6-4991-9c6b-8abf107c1a22"},"vehicle_type_id":"4","last_reported":1734124101,"current_range_meters":38800,"station_id":"ce4bhr12rcd13ifvqhqg","pricing_plan_id":"cebpf4jnsgd1na2vs0mg"},{"bike_id":"77c0011b-931d-479a-b38f-d483e0b2df3c","system_id":"levelo_inurba_marseille","lat":43.29225,"lon":5.3609,"is_reserved":false,"is_disabled":false,"rental_uris":{"android":"levelo://app?vid=77c0011b-931d-479a-b38f-d483e0b2df3c","ios":"levelo://app?vid=77c0011b-931d-479a-b38f-d483e0b2df3c"},"vehicle_type_id":"4","last_reported":1734124101,"current_range_meters":38800,"station_id":"ce4bhbh2rcd13ifvqeqg","pricing_plan_id":"cebpf4jnsgd1na2vs0mg"},{"bike_id":"b581ae17-510b-4f67-90c1-bf69fba53807","system_id":"levelo_inurba_marseille","lat":43.27073,"lon":5.42282,"is_reserved":false,"is_disabled":false,"rental_uris":{"android":"levelo://app?vid=b581ae17-510b-4f67-90c1-bf69fba53807","ios":"levelo://app?vid=b581ae17-510b-4f67-90c1-bf69fba53807"},"vehicle_type_id":"4","last_reported":1734124101,"current_range_meters":38400,"station_id":"ce4bhk92rcd13ifvqgb0","pricing_plan_id":"cebpf4jnsgd1na2vs0mg"},{"bike_id":"1484a08c-55ac-40d8-89a0-22f91086316b","system_id":"levelo_inurba_marseille","lat":43.29065,"lon":5.39987,"is_reserved":false,"is_disabled":true,"rental_uris":{"android":"levelo://app?vid=1484a08c-55ac-40d8-89a0-22f91086316b","ios":"levelo://app?vid=1484a08c-55ac-40d8-89a0-22f91086316b"},"vehicle_type_id":"4","last_reported":1734124101,"current_range_meters":36800,"station_id":"ce4bh392rcd13ifvqdm0","pricing_plan_id":"cebpf4jnsgd1na2vs0mg"},{"bike_id":"1f8df251-c5a6-4258-b15b-89cf161eb63a","system_id":"levelo_inurba_marseille","lat":43.26033,"lon":5.37543,"is_reserved":false,"is_disabled":false,"rental_uris":{"android":"levelo://app?vid=1f8df251-c5a6-4258-b15b-89cf161eb63a","ios":"levelo://app?vid=1f8df251-c5a6-4258-b15b-89cf161eb63a"},"vehicle_type_id":"4","last_reported":1734124101,"current_range_meters":24400,"station_id":"","pricing_plan_id":"cebpf4jnsgd1na2vs0mg"},{"bike_id":"6bc7401a-ad66-4e4d-bfd6-a954bc5b40c0","system_id":"levelo_inurba_marseille","lat":43.337527,"lon":5.37441,"is_reserved":false,"is_disabled":false,"rental_uris":{"android":"levelo://app?vid=6bc7401a-ad66-4e4d-bfd6-a954bc5b40c0","ios":"levelo://app?vid=6bc7401a-ad66-4e4d-bfd6-a954bc5b40c0"},"vehicle_type_id":"4","last_reported":1734124101,"current_range_meters":28400,"station_id":"","pricing_plan_id":"cebpf4jnsgd1na2vs0mg"},{"bike_id":"ace4b922-46fc-4280-876c-f499c5ab2105","system_id":"levelo_inurba_marseille","lat":43.28962,"lon":5.36406,"is_reserved":false,"is_disabled":false,"rental_uris":{"android":"levelo://app?vid=ace4b922-46fc-4280-876c-f499c5ab2105","ios":"levelo://app?vid=ace4b922-46fc-4280-876c-f499c5ab2105"},"vehicle_type_id":"4","last_reported":1734124101,"current_range_meters":39200,"station_id":"ce4bhc92rcd13ifvqetg","pricing_plan_id":"cebpf4jnsgd1na2vs0mg"},{"bike_id":"28fc90b9-3e7b-4c11-b6c2-40d95902dadd","system_id":"levelo_inurba_marseille","lat":43.22955,"lon":5.35369,"is_reserved":false,"is_disabled":false,"rental_uris":{"android":"levelo://app?vid=28fc90b9-3e7b-4c11-b6c2-40d95902dadd","ios":"levelo://app?vid=28fc90b9-3e7b-4c11-b6c2-40d95902dadd"},"vehicle_type_id":"4","last_reported":1734124101,"current_range_meters":38800,"station_id":"cpo3532slgdg3j2ikp40","pricing_plan_id":"cebpf4jnsgd1na2vs0mg"},{"bike_id":"931f796f-881d-4e0e-b413-f3288adf25b1","system_id":"levelo_inurba_marseille","lat":43.30433,"lon":5.38895,"is_reserved":false,"is_disabled":false,"rental_uris":{"android":"levelo://app?vid=931f796f-881d-4e0e-b413-f3288adf25b1","ios":"levelo://app?vid=931f796f-881d-4e0e-b413-f3288adf25b1"},"vehicle_type_id":"4","last_reported":1734124101,"current_range_meters":22000,"station_id":"ce4bgk12rcd13ifvqbi0","pricing_plan_id":"cebpf4jnsgd1na2vs0mg"},{"bike_id":"98f53582-3913-4c4e-b5fb-adcbea86d1ea","system_id":"levelo_inurba_marseille","lat":43.30644,"lon":5.40096,"is_reserved":false,"is_disabled":true,"rental_uris":{"android":"levelo://app?vid=98f53582-3913-4c4e-b5fb-adcbea86d1ea","ios":"levelo://app?vid=98f53582-3913-4c4e-b5fb-adcbea86d1ea"},"vehicle_type_id":"4","last_reported":1734124101,"current_range_meters":0,"station_id":"ce4bh112rcd13ifvqda0","pricing_plan_id":"cebpf4jnsgd1na2vs0mg"},{"bike_id":"64b39af7-128b-4946-bbfc-c211e27c250d","system_id":"levelo_inurba_marseille","lat":43.29033,"lon":5.38652,"is_reserved":false,"is_disabled":false,"rental_uris":{"android":"levelo://app?vid=64b39af7-128b-4946-bbfc-c211e27c250d","ios":"levelo://app?vid=64b39af7-128b-4946-bbfc-c211e27c250d"},"vehicle_type_id":"4","last_reported":1734124101,"current_range_meters":38800,"station_id":"ce4bh4p2rcd13ifvqe0g","pricing_plan_id":"cebpf4jnsgd1na2vs0mg"},{"bike_id":"eb1496f4-67ed-47fd-8660-60023378367f","system_id":"levelo_inurba_marseille","lat":43.294212,"lon":5.374322,"is_reserved":false,"is_disabled":true,"rental_uris":{"android":"levelo://app?vid=eb1496f4-67ed-47fd-8660-60023378367f","ios":"levelo://app?vid=eb1496f4-67ed-47fd-8660-60023378367f"},"vehicle_type_id":"4","last_reported":1734124101,"current_range_meters":0,"station_id":"","pricing_plan_id":"cebpf4jnsgd1na2vs0mg"},{"bike_id":"edd07c02-9936-4457-bd98-063c892656f8","system_id":"levelo_inurba_marseille","lat":43.31044,"lon":5.37462,"is_reserved":false,"is_disabled":false,"rental_uris":{"android":"levelo://app?vid=edd07c02-9936-4457-bd98-063c892656f8","ios":"levelo://app?vid=edd07c02-9936-4457-bd98-063c892656f8"},"vehicle_type_id":"4","last_reported":1734124101,"current_range_meters":8000,"station_id":"","pricing_plan_id":"cebpf4jnsgd1na2vs0mg"},{"bike_id":"94ca721b-6f42-4a27-ab01-f33af979e5fb","system_id":"levelo_inurba_marseille","lat":43.29268,"lon":5.38433,"is_reserved":false,"is_disabled":false,"rental_uris":{"android":"levelo://app?vid=94ca721b-6f42-4a27-ab01-f33af979e5fb","ios":"levelo://app?vid=94ca721b-6f42-4a27-ab01-f33af979e5fb"},"vehicle_type_id":"4","last_reported":1734124101,"current_range_meters":23200,"station_id":"ce4bh692rcd13ifvqea0","pricing_plan_id":"cebpf4jnsgd1na2vs0mg"},{"bike_id":"6aaf0c9f-48ac-48e6-a711-5312f0d9931b","system_id":"levelo_inurba_marseille","lat":43.2706,"lon":5.40269,"is_reserved":false,"is_disabled":true,"rental_uris":{"android":"levelo://app?vid=6aaf0c9f-48ac-48e6-a711-5312f0d9931b","ios":"levelo://app?vid=6aaf0c9f-48ac-48e6-a711-5312f0d9931b"},"vehicle_type_id":"4","last_reported":1734124101,"current_range_meters":1200,"station_id":"ce4bhk92rcd13ifvqgc0","pricing_plan_id":"cebpf4jnsgd1na2vs0mg"},{"bike_id":"a2e3bf37-f1e5-4b35-adeb-0da3e0fe69d3","system_id":"levelo_inurba_marseille","lat":43.286285,"lon":5.386103,"is_reserved":false,"is_disabled":true,"rental_uris":{"android":"levelo://app?vid=a2e3bf37-f1e5-4b35-adeb-0da3e0fe69d3","ios":"levelo://app?vid=a2e3bf37-f1e5-4b35-adeb-0da3e0fe69d3"},"vehicle_type_id":"4","last_reported":1734124101,"current_range_meters":0,"station_id":"","pricing_plan_id":"cebpf4jnsgd1na2vs0mg"},{"bike_id":"b8c36f6f-10c1-497b-a2b1-59ee76709264","system_id":"levelo_inurba_marseille","lat":43.27995,"lon":5.40014,"is_reserved":false,"is_disabled":false,"rental_uris":{"android":"levelo://app?vid=b8c36f6f-10c1-497b-a2b1-59ee76709264","ios":"levelo://app?vid=b8c36f6f-10c1-497b-a2b1-59ee76709264"},"vehicle_type_id":"4","last_reported":1734124101,"current_range_meters":17200,"station_id":"ce4bho92rcd13ifvqh4g","pricing_plan_id":"cebpf4jnsgd1na2vs0mg"},{"bike_id":"0088fd26-0866-4c25-8698-710952a03bff","system_id":"levelo_inurba_marseille","lat":43.28715,"lon":5.37943,"is_reserved":false,"is_disabled":false,"rental_uris":{"android":"levelo://app?vid=0088fd26-0866-4c25-8698-710952a03bff","ios":"levelo://app?vid=0088fd26-0866-4c25-8698-710952a03bff"},"vehicle_type_id":"4","last_reported":1734124101,"current_range_meters":28800,"station_id":"ce4bh9p2rcd13ifvqec0","pricing_plan_id":"cebpf4jnsgd1na2vs0mg"},{"bike_id":"173df24d-b21a-4c61-b590-7cc698caeb0c","system_id":"levelo_inurba_marseille","lat":43.27996,"lon":5.4001,"is_reserved":false,"is_disabled":false,"rental_uris":{"android":"levelo://app?vid=173df24d-b21a-4c61-b590-7cc698caeb0c","ios":"levelo://app?vid=173df24d-b21a-4c61-b590-7cc698caeb0c"},"vehicle_type_id":"4","last_reported":1734124101,"current_range_meters":39200,"station_id":"ce4bho92rcd13ifvqh4g","pricing_plan_id":"cebpf4jnsgd1na2vs0mg"},{"bike_id":"ec927667-9164-479a-b446-395f55c955bb","system_id":"levelo_inurba_marseille","lat":43.22924,"lon":5.35383,"is_reserved":false,"is_disabled":false,"rental_uris":{"android":"levelo://app?vid=ec927667-9164-479a-b446-395f55c955bb","ios":"levelo://app?vid=ec927667-9164-479a-b446-395f55c955bb"},"vehicle_type_id":"4","last_reported":1734124101,"current_range_meters":38800,"station_id":"cpo3532slgdg3j2ikp40","pricing_plan_id":"cebpf4jnsgd1na2vs0mg"},{"bike_id":"758fe3cf-17b6-48fb-b352-54d05c3377db","system_id":"levelo_inurba_marseille","lat":43.29031,"lon":5.38643,"is_reserved":false,"is_disabled":false,"rental_uris":{"android":"levelo://app?vid=758fe3cf-17b6-48fb-b352-54d05c3377db","ios":"levelo://app?vid=758fe3cf-17b6-48fb-b352-54d05c3377db"},"vehicle_type_id":"4","last_reported":1734124101,"current_range_meters":38800,"station_id":"ce4bh4p2rcd13ifvqe0g","pricing_plan_id":"cebpf4jnsgd1na2vs0mg"},{"bike_id":"e3550688-3f72-4f37-94c8-cbd2cc902b90","system_id":"levelo_inurba_marseille","lat":43.26499,"lon":5.3954,"is_reserved":false,"is_disabled":false,"rental_uris":{"android":"levelo://app?vid=e3550688-3f72-4f37-94c8-cbd2cc902b90","ios":"levelo://app?vid=e3550688-3f72-4f37-94c8-cbd2cc902b90"},"vehicle_type_id":"4","last_reported":1734124101,"current_range_meters":4400,"station_id":"ce4bhi12rcd13ifvqfq0","pricing_plan_id":"cebpf4jnsgd1na2vs0mg"},{"bike_id":"a45dc7af-5477-449c-9bc7-92e466b4ace4","system_id":"levelo_inurba_marseille","lat":43.29538,"lon":5.38551,"is_reserved":false,"is_disabled":false,"rental_uris":{"android":"levelo://app?vid=a45dc7af-5477-449c-9bc7-92e466b4ace4","ios":"levelo://app?vid=a45dc7af-5477-449c-9bc7-92e466b4ace4"},"vehicle_type_id":"4","last_reported":1734124101,"current_range_meters":32800,"station_id":"ce4bgih2rcd13ifvqba0","pricing_plan_id":"cebpf4jnsgd1na2vs0mg"},{"bike_id":"bbb05d93-49f6-43b2-acee-4027bcfb1d8c","system_id":"levelo_inurba_marseille","lat":43.27627,"lon":5.36114,"is_reserved":false,"is_disabled":false,"rental_uris":{"android":"levelo://app?vid=bbb05d93-49f6-43b2-acee-4027bcfb1d8c","ios":"levelo://app?vid=bbb05d93-49f6-43b2-acee-4027bcfb1d8c"},"vehicle_type_id":"4","last_reported":1734124101,"current_range_meters":18800,"station_id":"ce4bgj92rcd13ifvqbe0","pricing_plan_id":"cebpf4jnsgd1na2vs0mg"},{"bike_id":"e74372ac-2a6c-47ae-afc7-e1b4e1c3d13f","system_id":"levelo_inurba_marseille","lat":43.23086,"lon":5.35505,"is_reserved":false,"is_disabled":false,"rental_uris":{"android":"levelo://app?vid=e74372ac-2a6c-47ae-afc7-e1b4e1c3d13f","ios":"levelo://app?vid=e74372ac-2a6c-47ae-afc7-e1b4e1c3d13f"},"vehicle_type_id":"4","last_reported":1734124101,"current_range_meters":38400,"station_id":"cpo3342slgdg3j2ifvpg","pricing_plan_id":"cebpf4jnsgd1na2vs0mg"},{"bike_id":"0cd52ce2-1e40-42a1-a90d-9eae1ad2318d","system_id":"levelo_inurba_marseille","lat":43.27424,"lon":5.39422,"is_reserved":false,"is_disabled":false,"rental_uris":{"android":"levelo://app?vid=0cd52ce2-1e40-42a1-a90d-9eae1ad2318d","ios":"levelo://app?vid=0cd52ce2-1e40-42a1-a90d-9eae1ad2318d"},"vehicle_type_id":"4","last_reported":1734124101,"current_range_meters":38400,"station_id":"ce4bhdp2rcd13ifvqf20","pricing_plan_id":"cebpf4jnsgd1na2vs0mg"},{"bike_id":"e193ef0e-e328-415a-a8ad-7b8f709bf396","system_id":"levelo_inurba_marseille","lat":43.28491,"lon":5.37904,"is_reserved":false,"is_disabled":true,"rental_uris":{"android":"levelo://app?vid=e193ef0e-e328-415a-a8ad-7b8f709bf396","ios":"levelo://app?vid=e193ef0e-e328-415a-a8ad-7b8f709bf396"},"vehicle_type_id":"4","last_reported":1734124101,"current_range_meters":23200,"station_id":"","pricing_plan_id":"cebpf4jnsgd1na2vs0mg"},{"bike_id":"9a6269d5-83ea-4140-ab37-1fa12f16bd71","system_id":"levelo_inurba_marseille","lat":43.31762,"lon":5.3903,"is_reserved":false,"is_disabled":false,"rental_uris":{"android":"levelo://app?vid=9a6269d5-83ea-4140-ab37-1fa12f16bd71","ios":"levelo://app?vid=9a6269d5-83ea-4140-ab37-1fa12f16bd71"},"vehicle_type_id":"4","last_reported":1734124101,"current_range_meters":35200,"station_id":"ce4bhqp2rcd13ifvqhng","pricing_plan_id":"cebpf4jnsgd1na2vs0mg"},{"bike_id":"016e1712-3ed0-4538-ac7a-0670ad343bff","system_id":"levelo_inurba_marseille","lat":43.31075,"lon":5.38347,"is_reserved":false,"is_disabled":false,"rental_uris":{"android":"levelo://app?vid=016e1712-3ed0-4538-ac7a-0670ad343bff","ios":"levelo://app?vid=016e1712-3ed0-4538-ac7a-0670ad343bff"},"vehicle_type_id":"4","last_reported":1734124101,"current_range_meters":38800,"station_id":"ce4bgv92rcd13ifvqcr0","pricing_plan_id":"cebpf4jnsgd1na2vs0mg"},{"bike_id":"8a8ba89d-6b67-4139-9d9c-57bcba293580","system_id":"levelo_inurba_marseille","lat":43.2989,"lon":5.39735,"is_reserved":false,"is_disabled":false,"rental_uris":{"android":"levelo://app?vid=8a8ba89d-6b67-4139-9d9c-57bcba293580","ios":"levelo://app?vid=8a8ba89d-6b67-4139-9d9c-57bcba293580"},"vehicle_type_id":"4","last_reported":1734124101,"current_range_meters":38800,"station_id":"ce4bh0h2rcd13ifvqd50","pricing_plan_id":"cebpf4jnsgd1na2vs0mg"},{"bike_id":"7f5f2b51-6dba-4bb6-90d5-a5cf04cc5c90","system_id":"levelo_inurba_marseille","lat":43.24652,"lon":5.38886,"is_reserved":false,"is_disabled":false,"rental_uris":{"android":"levelo://app?vid=7f5f2b51-6dba-4bb6-90d5-a5cf04cc5c90","ios":"levelo://app?vid=7f5f2b51-6dba-4bb6-90d5-a5cf04cc5c90"},"vehicle_type_id":"4","last_reported":1734124101,"current_range_meters":39200,"station_id":"ce4bhg12rcd13ifvqf60","pricing_plan_id":"cebpf4jnsgd1na2vs0mg"},{"bike_id":"5a1c9f6c-266c-4fec-baab-84474184d04a","system_id":"levelo_inurba_marseille","lat":43.31689,"lon":5.40473,"is_reserved":false,"is_disabled":false,"rental_uris":{"android":"levelo://app?vid=5a1c9f6c-266c-4fec-baab-84474184d04a","ios":"levelo://app?vid=5a1c9f6c-266c-4fec-baab-84474184d04a"},"vehicle_type_id":"4","last_reported":1734124101,"current_range_meters":30400,"station_id":"ce4bh012rcd13ifvqd00","pricing_plan_id":"cebpf4jnsgd1na2vs0mg"},{"bike_id":"21cef4a7-8f9d-4860-a921-b424c8a8a10b","system_id":"levelo_inurba_marseille","lat":43.28077,"lon":5.39663,"is_reserved":false,"is_disabled":false,"rental_uris":{"android":"levelo://app?vid=21cef4a7-8f9d-4860-a921-b424c8a8a10b","ios":"levelo://app?vid=21cef4a7-8f9d-4860-a921-b424c8a8a10b"},"vehicle_type_id":"4","last_reported":1734124101,"current_range_meters":16000,"station_id":"ce4bho12rcd13ifvqh2g","pricing_plan_id":"cebpf4jnsgd1na2vs0mg"},{"bike_id":"a20b2301-3d44-40e4-be48-5024eda1ce05","system_id":"levelo_inurba_marseille","lat":43.29427,"lon":5.38627,"is_reserved":false,"is_disabled":false,"rental_uris":{"android":"levelo://app?vid=a20b2301-3d44-40e4-be48-5024eda1ce05","ios":"levelo://app?vid=a20b2301-3d44-40e4-be48-5024eda1ce05"},"vehicle_type_id":"4","last_reported":1734124101,"current_range_meters":38800,"station_id":"ce4bh2h2rcd13ifvqdh0","pricing_plan_id":"cebpf4jnsgd1na2vs0mg"},{"bike_id":"bcfdb3ff-6e99-4b36-b604-1cfdad036351","system_id":"levelo_inurba_marseille","lat":43.30076,"lon":5.38844,"is_reserved":false,"is_disabled":false,"rental_uris":{"android":"levelo://app?vid=bcfdb3ff-6e99-4b36-b604-1cfdad036351","ios":"levelo://app?vid=bcfdb3ff-6e99-4b36-b604-1cfdad036351"},"vehicle_type_id":"4","last_reported":1734124101,"current_range_meters":31200,"station_id":"ce4bgup2rcd13ifvqcn0","pricing_plan_id":"cebpf4jnsgd1na2vs0mg"},{"bike_id":"9230e19d-5b5e-48ad-9fa2-1e145d8cd876","system_id":"levelo_inurba_marseille","lat":43.31481,"lon":5.37293,"is_reserved":false,"is_disabled":false,"rental_uris":{"android":"levelo://app?vid=9230e19d-5b5e-48ad-9fa2-1e145d8cd876","ios":"levelo://app?vid=9230e19d-5b5e-48ad-9fa2-1e145d8cd876"},"vehicle_type_id":"4","last_reported":1734124101,"current_range_meters":38800,"station_id":"ce4bgt12rcd13ifvqcd0","pricing_plan_id":"cebpf4jnsgd1na2vs0mg"},{"bike_id":"05a249ad-f648-4f1b-9b97-1216cf1ff5b1","system_id":"levelo_inurba_marseille","lat":43.30474,"lon":5.40175,"is_reserved":false,"is_disabled":false,"rental_uris":{"android":"levelo://app?vid=05a249ad-f648-4f1b-9b97-1216cf1ff5b1","ios":"levelo://app?vid=05a249ad-f648-4f1b-9b97-1216cf1ff5b1"},"vehicle_type_id":"4","last_reported":1734124101,"current_range_meters":20000,"station_id":"","pricing_plan_id":"cebpf4jnsgd1na2vs0mg"},{"bike_id":"abe250a1-3d26-47a1-bae8-73bf3354b17a","system_id":"levelo_inurba_marseille","lat":43.27172,"lon":5.40994,"is_reserved":false,"is_disabled":false,"rental_uris":{"android":"levelo://app?vid=abe250a1-3d26-47a1-bae8-73bf3354b17a","ios":"levelo://app?vid=abe250a1-3d26-47a1-bae8-73bf3354b17a"},"vehicle_type_id":"4","last_reported":1734124101,"current_range_meters":14400,"station_id":"ce4bhl12rcd13ifvqgf0","pricing_plan_id":"cebpf4jnsgd1na2vs0mg"},{"bike_id":"5584f6c4-cd15-45bb-976a-51430232b179","system_id":"levelo_inurba_marseille","lat":43.31703,"lon":5.40478,"is_reserved":false,"is_disabled":false,"rental_uris":{"android":"levelo://app?vid=5584f6c4-cd15-45bb-976a-51430232b179","ios":"levelo://app?vid=5584f6c4-cd15-45bb-976a-51430232b179"},"vehicle_type_id":"4","last_reported":1734124101,"current_range_meters":38800,"station_id":"ce4bh012rcd13ifvqd00","pricing_plan_id":"cebpf4jnsgd1na2vs0mg"},{"bike_id":"b0fd6149-dd0a-4c25-8550-6e1bda0f0041","system_id":"levelo_inurba_marseille","lat":43.29623,"lon":5.37166,"is_reserved":false,"is_disabled":false,"rental_uris":{"android":"levelo://app?vid=b0fd6149-dd0a-4c25-8550-6e1bda0f0041","ios":"levelo://app?vid=b0fd6149-dd0a-4c25-8550-6e1bda0f0041"},"vehicle_type_id":"4","last_reported":1734124101,"current_range_meters":11200,"station_id":"ce4bgnh2rcd13ifvqc0g","pricing_plan_id":"cebpf4jnsgd1na2vs0mg"},{"bike_id":"fc968cf6-07d5-44d4-b0f3-9d9a2519f292","system_id":"levelo_inurba_marseille","lat":43.28698,"lon":5.37392,"is_reserved":false,"is_disabled":false,"rental_uris":{"android":"levelo://app?vid=fc968cf6-07d5-44d4-b0f3-9d9a2519f292","ios":"levelo://app?vid=fc968cf6-07d5-44d4-b0f3-9d9a2519f292"},"vehicle_type_id":"4","last_reported":1734124101,"current_range_meters":38800,"station_id":"ce4bh3p2rcd13ifvqdq0","pricing_plan_id":"cebpf4jnsgd1na2vs0mg"},{"bike_id":"96f648e8-4951-433c-aad7-cd6e6b8c6009","system_id":"levelo_inurba_marseille","lat":43.30127,"lon":5.38785,"is_reserved":false,"is_disabled":false,"rental_uris":{"android":"levelo://app?vid=96f648e8-4951-433c-aad7-cd6e6b8c6009","ios":"levelo://app?vid=96f648e8-4951-433c-aad7-cd6e6b8c6009"},"vehicle_type_id":"4","last_reported":1734124101,"current_range_meters":2800,"station_id":"ce4bghh2rcd13ifvqb60","pricing_plan_id":"cebpf4jnsgd1na2vs0mg"},{"bike_id":"002069da-d74c-4e41-ae54-1da711c0eed6","system_id":"levelo_inurba_marseille","lat":43.28597,"lon":5.41292,"is_reserved":false,"is_disabled":true,"rental_uris":{"android":"levelo://app?vid=002069da-d74c-4e41-ae54-1da711c0eed6","ios":"levelo://app?vid=002069da-d74c-4e41-ae54-1da711c0eed6"},"vehicle_type_id":"4","last_reported":1734124101,"current_range_meters":0,"station_id":"","pricing_plan_id":"cebpf4jnsgd1na2vs0mg"},{"bike_id":"75506391-a12b-4ce2-997a-eff08551addc","system_id":"levelo_inurba_marseille","lat":43.23074,"lon":5.35506,"is_reserved":false,"is_disabled":false,"rental_uris":{"android":"levelo://app?vid=75506391-a12b-4ce2-997a-eff08551addc","ios":"levelo://app?vid=75506391-a12b-4ce2-997a-eff08551addc"},"vehicle_type_id":"4","last_reported":1734124101,"current_range_meters":38800,"station_id":"cpo3342slgdg3j2ifvpg","pricing_plan_id":"cebpf4jnsgd1na2vs0mg"},{"bike_id":"3db63f6a-9b65-424f-81b3-727b29af8e1a","system_id":"levelo_inurba_marseille","lat":43.25005,"lon":5.38935,"is_reserved":false,"is_disabled":false,"rental_uris":{"android":"levelo://app?vid=3db63f6a-9b65-424f-81b3-727b29af8e1a","ios":"levelo://app?vid=3db63f6a-9b65-424f-81b3-727b29af8e1a"},"vehicle_type_id":"4","last_reported":1734124101,"current_range_meters":38800,"station_id":"ce4bhgp2rcd13ifvqfd0","pricing_plan_id":"cebpf4jnsgd1na2vs0mg"},{"bike_id":"7c858096-757d-4275-9af6-d1ffd08a731e","system_id":"levelo_inurba_marseille","lat":43.318806,"lon":5.407306,"is_reserved":false,"is_disabled":false,"rental_uris":{"android":"levelo://app?vid=7c858096-757d-4275-9af6-d1ffd08a731e","ios":"levelo://app?vid=7c858096-757d-4275-9af6-d1ffd08a731e"},"vehicle_type_id":"4","last_reported":1734124101,"current_range_meters":38000,"station_id":"ce4bhq12rcd13ifvqhig","pricing_plan_id":"cebpf4jnsgd1na2vs0mg"},{"bike_id":"0dc53ed0-703c-41c7-a7ba-e5fe121ea6cc","system_id":"levelo_inurba_marseille","lat":43.28937,"lon":5.37877,"is_reserved":false,"is_disabled":false,"rental_uris":{"android":"levelo://app?vid=0dc53ed0-703c-41c7-a7ba-e5fe121ea6cc","ios":"levelo://app?vid=0dc53ed0-703c-41c7-a7ba-e5fe121ea6cc"},"vehicle_type_id":"4","last_reported":1734124101,"current_range_meters":32400,"station_id":"","pricing_plan_id":"cebpf4jnsgd1na2vs0mg"},{"bike_id":"21ef9410-1b31-4680-b8c8-65ff5a9b2032","system_id":"levelo_inurba_marseille","lat":43.31165,"lon":5.3873,"is_reserved":false,"is_disabled":false,"rental_uris":{"android":"levelo://app?vid=21ef9410-1b31-4680-b8c8-65ff5a9b2032","ios":"levelo://app?vid=21ef9410-1b31-4680-b8c8-65ff5a9b2032"},"vehicle_type_id":"4","last_reported":1734124101,"current_range_meters":36400,"station_id":"ce4bgv12rcd13ifvqcp0","pricing_plan_id":"cebpf4jnsgd1na2vs0mg"},{"bike_id":"1e09aea1-6592-4606-838e-01c5295332d1","system_id":"levelo_inurba_marseille","lat":43.32663,"lon":5.40992,"is_reserved":false,"is_disabled":true,"rental_uris":{"android":"levelo://app?vid=1e09aea1-6592-4606-838e-01c5295332d1","ios":"levelo://app?vid=1e09aea1-6592-4606-838e-01c5295332d1"},"vehicle_type_id":"4","last_reported":1734124101,"current_range_meters":32000,"station_id":"ce4bhpp2rcd13ifvqhgg","pricing_plan_id":"cebpf4jnsgd1na2vs0mg"},{"bike_id":"f0688521-339d-4b11-98b4-8b413dfcdc75","system_id":"levelo_inurba_marseille","lat":43.30243,"lon":5.40054,"is_reserved":false,"is_disabled":true,"rental_uris":{"android":"levelo://app?vid=f0688521-339d-4b11-98b4-8b413dfcdc75","ios":"levelo://app?vid=f0688521-339d-4b11-98b4-8b413dfcdc75"},"vehicle_type_id":"4","last_reported":1734124101,"current_range_meters":24800,"station_id":"ce4bgvh2rcd13ifvqcs0","pricing_plan_id":"cebpf4jnsgd1na2vs0mg"},{"bike_id":"c75bddd8-53e9-48da-b5b5-42395c8f7395","system_id":"levelo_inurba_marseille","lat":43.33742,"lon":5.39188,"is_reserved":false,"is_disabled":false,"rental_uris":{"android":"levelo://app?vid=c75bddd8-53e9-48da-b5b5-42395c8f7395","ios":"levelo://app?vid=c75bddd8-53e9-48da-b5b5-42395c8f7395"},"vehicle_type_id":"4","last_reported":1734124101,"current_range_meters":32400,"station_id":"ce4bhr92rcd13ifvqhsg","pricing_plan_id":"cebpf4jnsgd1na2vs0mg"},{"bike_id":"be3d60a6-6fb6-4cc8-81d6-6fe96ff5ee23","system_id":"levelo_inurba_marseille","lat":43.23068,"lon":5.35498,"is_reserved":false,"is_disabled":false,"rental_uris":{"android":"levelo://app?vid=be3d60a6-6fb6-4cc8-81d6-6fe96ff5ee23","ios":"levelo://app?vid=be3d60a6-6fb6-4cc8-81d6-6fe96ff5ee23"},"vehicle_type_id":"4","last_reported":1734124101,"current_range_meters":37600,"station_id":"cpo3342slgdg3j2ifvpg","pricing_plan_id":"cebpf4jnsgd1na2vs0mg"},{"bike_id":"1fe4a372-4453-497e-b3ef-f69a4428e7d4","system_id":"levelo_inurba_marseille","lat":43.23184,"lon":5.39998,"is_reserved":false,"is_disabled":false,"rental_uris":{"android":"levelo://app?vid=1fe4a372-4453-497e-b3ef-f69a4428e7d4","ios":"levelo://app?vid=1fe4a372-4453-497e-b3ef-f69a4428e7d4"},"vehicle_type_id":"4","last_reported":1734124101,"current_range_meters":5600,"station_id":"ce4bhn12rcd13ifvqgqg","pricing_plan_id":"cebpf4jnsgd1na2vs0mg"},{"bike_id":"a19bdc32-7d6d-4046-a238-b24edcb23725","system_id":"levelo_inurba_marseille","lat":43.29565,"lon":5.40012,"is_reserved":false,"is_disabled":false,"rental_uris":{"android":"levelo://app?vid=a19bdc32-7d6d-4046-a238-b24edcb23725","ios":"levelo://app?vid=a19bdc32-7d6d-4046-a238-b24edcb23725"},"vehicle_type_id":"4","last_reported":1734124101,"current_range_meters":36800,"station_id":"ce4bh312rcd13ifvqdj0","pricing_plan_id":"cebpf4jnsgd1na2vs0mg"},{"bike_id":"f2dbe875-44dc-45d4-8f6f-ea44ad8555bb","system_id":"levelo_inurba_marseille","lat":43.23181,"lon":5.40001,"is_reserved":false,"is_disabled":false,"rental_uris":{"android":"levelo://app?vid=f2dbe875-44dc-45d4-8f6f-ea44ad8555bb","ios":"levelo://app?vid=f2dbe875-44dc-45d4-8f6f-ea44ad8555bb"},"vehicle_type_id":"4","last_reported":1734124101,"current_range_meters":34800,"station_id":"ce4bhn12rcd13ifvqgqg","pricing_plan_id":"cebpf4jnsgd1na2vs0mg"},{"bike_id":"da15a7af-b98b-4274-ab13-f3fc077f857c","system_id":"levelo_inurba_marseille","lat":43.29417,"lon":5.38626,"is_reserved":false,"is_disabled":true,"rental_uris":{"android":"levelo://app?vid=da15a7af-b98b-4274-ab13-f3fc077f857c","ios":"levelo://app?vid=da15a7af-b98b-4274-ab13-f3fc077f857c"},"vehicle_type_id":"4","last_reported":1734124101,"current_range_meters":0,"station_id":"ce4bh2h2rcd13ifvqdh0","pricing_plan_id":"cebpf4jnsgd1na2vs0mg"},{"bike_id":"b718cd83-7d3d-4bab-bbb2-eadb10161d1f","system_id":"levelo_inurba_marseille","lat":43.288671,"lon":5.358399,"is_reserved":false,"is_disabled":false,"rental_uris":{"android":"levelo://app?vid=b718cd83-7d3d-4bab-bbb2-eadb10161d1f","ios":"levelo://app?vid=b718cd83-7d3d-4bab-bbb2-eadb10161d1f"},"vehicle_type_id":"4","last_reported":1734124101,"current_range_meters":24800,"station_id":"ce4bhb12rcd13ifvqem0","pricing_plan_id":"cebpf4jnsgd1na2vs0mg"},{"bike_id":"6c06fa9e-3c0f-45be-a672-2d46f07a95cd","system_id":"levelo_inurba_marseille","lat":43.28402,"lon":5.37525,"is_reserved":false,"is_disabled":false,"rental_uris":{"android":"levelo://app?vid=6c06fa9e-3c0f-45be-a672-2d46f07a95cd","ios":"levelo://app?vid=6c06fa9e-3c0f-45be-a672-2d46f07a95cd"},"vehicle_type_id":"4","last_reported":1734124101,"current_range_meters":20000,"station_id":"ce4bh412rcd13ifvqds0","pricing_plan_id":"cebpf4jnsgd1na2vs0mg"},{"bike_id":"d5735634-c369-470e-ae90-d9cb2c2ac3a4","system_id":"levelo_inurba_marseille","lat":43.29099,"lon":5.39982,"is_reserved":false,"is_disabled":false,"rental_uris":{"android":"levelo://app?vid=d5735634-c369-470e-ae90-d9cb2c2ac3a4","ios":"levelo://app?vid=d5735634-c369-470e-ae90-d9cb2c2ac3a4"},"vehicle_type_id":"4","last_reported":1734124101,"current_range_meters":27600,"station_id":"","pricing_plan_id":"cebpf4jnsgd1na2vs0mg"},{"bike_id":"be9a95eb-ef82-4d28-b6da-b3b7fb8c3e41","system_id":"levelo_inurba_marseille","lat":43.31065,"lon":5.38353,"is_reserved":false,"is_disabled":false,"rental_uris":{"android":"levelo://app?vid=be9a95eb-ef82-4d28-b6da-b3b7fb8c3e41","ios":"levelo://app?vid=be9a95eb-ef82-4d28-b6da-b3b7fb8c3e41"},"vehicle_type_id":"4","last_reported":1734124101,"current_range_meters":12400,"station_id":"ce4bgv92rcd13ifvqcr0","pricing_plan_id":"cebpf4jnsgd1na2vs0mg"},{"bike_id":"9332f19c-96e3-47ac-8807-c5c2384614c0","system_id":"levelo_inurba_marseille","lat":43.23059,"lon":5.3551,"is_reserved":false,"is_disabled":false,"rental_uris":{"android":"levelo://app?vid=9332f19c-96e3-47ac-8807-c5c2384614c0","ios":"levelo://app?vid=9332f19c-96e3-47ac-8807-c5c2384614c0"},"vehicle_type_id":"4","last_reported":1734124101,"current_range_meters":38800,"station_id":"cpo3342slgdg3j2ifvpg","pricing_plan_id":"cebpf4jnsgd1na2vs0mg"},{"bike_id":"380c9a62-9355-46ea-aba6-5d39cd47ad4b","system_id":"levelo_inurba_marseille","lat":43.31375,"lon":5.40624,"is_reserved":false,"is_disabled":false,"rental_uris":{"android":"levelo://app?vid=380c9a62-9355-46ea-aba6-5d39cd47ad4b","ios":"levelo://app?vid=380c9a62-9355-46ea-aba6-5d39cd47ad4b"},"vehicle_type_id":"4","last_reported":1734124101,"current_range_meters":2800,"station_id":"","pricing_plan_id":"cebpf4jnsgd1na2vs0mg"},{"bike_id":"0f0b9334-a512-4947-b2df-85ba2b1734fb","system_id":"levelo_inurba_marseille","lat":43.28861,"lon":5.35834,"is_reserved":false,"is_disabled":false,"rental_uris":{"android":"levelo://app?vid=0f0b9334-a512-4947-b2df-85ba2b1734fb","ios":"levelo://app?vid=0f0b9334-a512-4947-b2df-85ba2b1734fb"},"vehicle_type_id":"4","last_reported":1734124101,"current_range_meters":38800,"station_id":"ce4bhb12rcd13ifvqem0","pricing_plan_id":"cebpf4jnsgd1na2vs0mg"},{"bike_id":"c51875c3-4462-475c-9906-e5e3e8f579dd","system_id":"levelo_inurba_marseille","lat":43.30795,"lon":5.4353,"is_reserved":false,"is_disabled":false,"rental_uris":{"android":"levelo://app?vid=c51875c3-4462-475c-9906-e5e3e8f579dd","ios":"levelo://app?vid=c51875c3-4462-475c-9906-e5e3e8f579dd"},"vehicle_type_id":"4","last_reported":1734124101,"current_range_meters":34800,"station_id":"ce4bhph2rcd13ifvqheg","pricing_plan_id":"cebpf4jnsgd1na2vs0mg"},{"bike_id":"7f79df14-9dc4-4bf2-a830-e473657900df","system_id":"levelo_inurba_marseille","lat":43.29901,"lon":5.38158,"is_reserved":false,"is_disabled":true,"rental_uris":{"android":"levelo://app?vid=7f79df14-9dc4-4bf2-a830-e473657900df","ios":"levelo://app?vid=7f79df14-9dc4-4bf2-a830-e473657900df"},"vehicle_type_id":"4","last_reported":1734124101,"current_range_meters":1200,"station_id":"ce4bgj12rcd13ifvqbc0","pricing_plan_id":"cebpf4jnsgd1na2vs0mg"},{"bike_id":"a8942e43-f3d6-46fd-8576-2cc6b2787f3e","system_id":"levelo_inurba_marseille","lat":43.33018,"lon":5.39047,"is_reserved":false,"is_disabled":false,"rental_uris":{"android":"levelo://app?vid=a8942e43-f3d6-46fd-8576-2cc6b2787f3e","ios":"levelo://app?vid=a8942e43-f3d6-46fd-8576-2cc6b2787f3e"},"vehicle_type_id":"4","last_reported":1734124101,"current_range_meters":19600,"station_id":"ce4bhr92rcd13ifvqhrg","pricing_plan_id":"cebpf4jnsgd1na2vs0mg"},{"bike_id":"ff053c70-8c96-447a-bad0-ff4bd156c100","system_id":"levelo_inurba_marseille","lat":43.27997,"lon":5.40015,"is_reserved":false,"is_disabled":false,"rental_uris":{"android":"levelo://app?vid=ff053c70-8c96-447a-bad0-ff4bd156c100","ios":"levelo://app?vid=ff053c70-8c96-447a-bad0-ff4bd156c100"},"vehicle_type_id":"4","last_reported":1734124101,"current_range_meters":17600,"station_id":"ce4bho92rcd13ifvqh4g","pricing_plan_id":"cebpf4jnsgd1na2vs0mg"},{"bike_id":"bd9ca622-608b-40f1-937b-4a1e1400a4ce","system_id":"levelo_inurba_marseille","lat":43.28646,"lon":5.35106,"is_reserved":false,"is_disabled":false,"rental_uris":{"android":"levelo://app?vid=bd9ca622-608b-40f1-937b-4a1e1400a4ce","ios":"levelo://app?vid=bd9ca622-608b-40f1-937b-4a1e1400a4ce"},"vehicle_type_id":"4","last_reported":1734124101,"current_range_meters":37600,"station_id":"ce4bhch2rcd13ifvqeug","pricing_plan_id":"cebpf4jnsgd1na2vs0mg"},{"bike_id":"6d165fa3-bf4a-4f7a-8845-d2d67e119152","system_id":"levelo_inurba_marseille","lat":43.29574,"lon":5.39989,"is_reserved":false,"is_disabled":false,"rental_uris":{"android":"levelo://app?vid=6d165fa3-bf4a-4f7a-8845-d2d67e119152","ios":"levelo://app?vid=6d165fa3-bf4a-4f7a-8845-d2d67e119152"},"vehicle_type_id":"4","last_reported":1734124101,"current_range_meters":30000,"station_id":"ce4bh312rcd13ifvqdj0","pricing_plan_id":"cebpf4jnsgd1na2vs0mg"},{"bike_id":"e595c0b0-083a-4067-b6d1-6eab4a85ae17","system_id":"levelo_inurba_marseille","lat":43.2952,"lon":5.37499,"is_reserved":false,"is_disabled":false,"rental_uris":{"android":"levelo://app?vid=e595c0b0-083a-4067-b6d1-6eab4a85ae17","ios":"levelo://app?vid=e595c0b0-083a-4067-b6d1-6eab4a85ae17"},"vehicle_type_id":"4","last_reported":1734124101,"current_range_meters":28000,"station_id":"ce4bgkp2rcd13ifvqbmg","pricing_plan_id":"cebpf4jnsgd1na2vs0mg"},{"bike_id":"73ce6c11-114b-4393-ae0a-bfc03ae59980","system_id":"levelo_inurba_marseille","lat":43.30322,"lon":5.40437,"is_reserved":false,"is_disabled":true,"rental_uris":{"android":"levelo://app?vid=73ce6c11-114b-4393-ae0a-bfc03ae59980","ios":"levelo://app?vid=73ce6c11-114b-4393-ae0a-bfc03ae59980"},"vehicle_type_id":"4","last_reported":1734124101,"current_range_meters":0,"station_id":"ce4bh012rcd13ifvqd10","pricing_plan_id":"cebpf4jnsgd1na2vs0mg"},{"bike_id":"3669f638-f18c-4a01-89e7-868fe290b013","system_id":"levelo_inurba_marseille","lat":43.28844,"lon":5.3931,"is_reserved":false,"is_disabled":false,"rental_uris":{"android":"levelo://app?vid=3669f638-f18c-4a01-89e7-868fe290b013","ios":"levelo://app?vid=3669f638-f18c-4a01-89e7-868fe290b013"},"vehicle_type_id":"4","last_reported":1734124101,"current_range_meters":17600,"station_id":"ce4bh2p2rcd13ifvqdi0","pricing_plan_id":"cebpf4jnsgd1na2vs0mg"},{"bike_id":"837513f4-4af5-4927-b46e-d348c42ce2e1","system_id":"levelo_inurba_marseille","lat":43.29687,"lon":5.37288,"is_reserved":false,"is_disabled":false,"rental_uris":{"android":"levelo://app?vid=837513f4-4af5-4927-b46e-d348c42ce2e1","ios":"levelo://app?vid=837513f4-4af5-4927-b46e-d348c42ce2e1"},"vehicle_type_id":"4","last_reported":1734124101,"current_range_meters":38800,"station_id":"ce4bgk12rcd13ifvqbj0","pricing_plan_id":"cebpf4jnsgd1na2vs0mg"},{"bike_id":"0d417107-bde3-42d4-a161-e3f1cf746f1e","system_id":"levelo_inurba_marseille","lat":43.29787,"lon":5.37107,"is_reserved":false,"is_disabled":false,"rental_uris":{"android":"levelo://app?vid=0d417107-bde3-42d4-a161-e3f1cf746f1e","ios":"levelo://app?vid=0d417107-bde3-42d4-a161-e3f1cf746f1e"},"vehicle_type_id":"4","last_reported":1734124101,"current_range_meters":12800,"station_id":"ce4bgop2rcd13ifvqc1g","pricing_plan_id":"cebpf4jnsgd1na2vs0mg"},{"bike_id":"b7513edd-7ce6-43d1-a5ee-9d96e537e09d","system_id":"levelo_inurba_marseille","lat":43.29875,"lon":5.38913,"is_reserved":false,"is_disabled":false,"rental_uris":{"android":"levelo://app?vid=b7513edd-7ce6-43d1-a5ee-9d96e537e09d","ios":"levelo://app?vid=b7513edd-7ce6-43d1-a5ee-9d96e537e09d"},"vehicle_type_id":"4","last_reported":1734124101,"current_range_meters":38800,"station_id":"ce4bh392rcd13ifvqdl0","pricing_plan_id":"cebpf4jnsgd1na2vs0mg"},{"bike_id":"e08c18e4-e2f3-4beb-98b2-fce72514e92f","system_id":"levelo_inurba_marseille","lat":43.28468,"lon":5.38436,"is_reserved":false,"is_disabled":false,"rental_uris":{"android":"levelo://app?vid=e08c18e4-e2f3-4beb-98b2-fce72514e92f","ios":"levelo://app?vid=e08c18e4-e2f3-4beb-98b2-fce72514e92f"},"vehicle_type_id":"4","last_reported":1734124101,"current_range_meters":37600,"station_id":"ce4bh512rcd13ifvqe3g","pricing_plan_id":"cebpf4jnsgd1na2vs0mg"},{"bike_id":"c6234abb-f24f-4e51-8203-a434dd5a5cf7","system_id":"levelo_inurba_marseille","lat":43.27186,"lon":5.40984,"is_reserved":false,"is_disabled":false,"rental_uris":{"android":"levelo://app?vid=c6234abb-f24f-4e51-8203-a434dd5a5cf7","ios":"levelo://app?vid=c6234abb-f24f-4e51-8203-a434dd5a5cf7"},"vehicle_type_id":"4","last_reported":1734124101,"current_range_meters":11600,"station_id":"ce4bhl12rcd13ifvqgf0","pricing_plan_id":"cebpf4jnsgd1na2vs0mg"},{"bike_id":"6e6a004b-462d-4b03-aeaa-2611256f0d89","system_id":"levelo_inurba_marseille","lat":43.28111,"lon":5.38934,"is_reserved":false,"is_disabled":true,"rental_uris":{"android":"levelo://app?vid=6e6a004b-462d-4b03-aeaa-2611256f0d89","ios":"levelo://app?vid=6e6a004b-462d-4b03-aeaa-2611256f0d89"},"vehicle_type_id":"4","last_reported":1734124101,"current_range_meters":0,"station_id":"","pricing_plan_id":"cebpf4jnsgd1na2vs0mg"},{"bike_id":"ae5b5c4d-0d6a-46ca-9b0e-35cfd75d74bc","system_id":"levelo_inurba_marseille","lat":43.28626,"lon":5.35114,"is_reserved":false,"is_disabled":false,"rental_uris":{"android":"levelo://app?vid=ae5b5c4d-0d6a-46ca-9b0e-35cfd75d74bc","ios":"levelo://app?vid=ae5b5c4d-0d6a-46ca-9b0e-35cfd75d74bc"},"vehicle_type_id":"4","last_reported":1734124101,"current_range_meters":24800,"station_id":"ce4bhch2rcd13ifvqeug","pricing_plan_id":"cebpf4jnsgd1na2vs0mg"},{"bike_id":"e6050259-3c58-4826-903e-9d3dd4ce0843","system_id":"levelo_inurba_marseille","lat":43.30541,"lon":5.38428,"is_reserved":false,"is_disabled":false,"rental_uris":{"android":"levelo://app?vid=e6050259-3c58-4826-903e-9d3dd4ce0843","ios":"levelo://app?vid=e6050259-3c58-4826-903e-9d3dd4ce0843"},"vehicle_type_id":"4","last_reported":1734124101,"current_range_meters":20800,"station_id":"ce4bgg92rcd13ifvqb30","pricing_plan_id":"cebpf4jnsgd1na2vs0mg"},{"bike_id":"eca663ae-66a1-4c82-b827-0a5ae13eb968","system_id":"levelo_inurba_marseille","lat":43.29536,"lon":5.38552,"is_reserved":false,"is_disabled":false,"rental_uris":{"android":"levelo://app?vid=eca663ae-66a1-4c82-b827-0a5ae13eb968","ios":"levelo://app?vid=eca663ae-66a1-4c82-b827-0a5ae13eb968"},"vehicle_type_id":"4","last_reported":1734124101,"current_range_meters":36000,"station_id":"ce4bgih2rcd13ifvqba0","pricing_plan_id":"cebpf4jnsgd1na2vs0mg"},{"bike_id":"8b7d1d27-143c-469e-8a0c-371ccc84edb8","system_id":"levelo_inurba_marseille","lat":43.280059,"lon":5.399936,"is_reserved":false,"is_disabled":false,"rental_uris":{"android":"levelo://app?vid=8b7d1d27-143c-469e-8a0c-371ccc84edb8","ios":"levelo://app?vid=8b7d1d27-143c-469e-8a0c-371ccc84edb8"},"vehicle_type_id":"4","last_reported":1734124101,"current_range_meters":9600,"station_id":"ce4bho92rcd13ifvqh4g","pricing_plan_id":"cebpf4jnsgd1na2vs0mg"},{"bike_id":"a5390457-c1fe-4e0b-9d46-155440ac0464","system_id":"levelo_inurba_marseille","lat":43.29037,"lon":5.38653,"is_reserved":false,"is_disabled":false,"rental_uris":{"android":"levelo://app?vid=a5390457-c1fe-4e0b-9d46-155440ac0464","ios":"levelo://app?vid=a5390457-c1fe-4e0b-9d46-155440ac0464"},"vehicle_type_id":"4","last_reported":1734124101,"current_range_meters":38800,"station_id":"ce4bh4p2rcd13ifvqe0g","pricing_plan_id":"cebpf4jnsgd1na2vs0mg"},{"bike_id":"a3162d36-6192-44b9-9b32-10137b43d7d7","system_id":"levelo_inurba_marseille","lat":43.30328,"lon":5.40431,"is_reserved":false,"is_disabled":true,"rental_uris":{"android":"levelo://app?vid=a3162d36-6192-44b9-9b32-10137b43d7d7","ios":"levelo://app?vid=a3162d36-6192-44b9-9b32-10137b43d7d7"},"vehicle_type_id":"4","last_reported":1734124101,"current_range_meters":2000,"station_id":"ce4bh012rcd13ifvqd10","pricing_plan_id":"cebpf4jnsgd1na2vs0mg"},{"bike_id":"1536d859-8531-4d78-87ee-c9b02f5fc438","system_id":"levelo_inurba_marseille","lat":43.23071,"lon":5.35496,"is_reserved":false,"is_disabled":false,"rental_uris":{"android":"levelo://app?vid=1536d859-8531-4d78-87ee-c9b02f5fc438","ios":"levelo://app?vid=1536d859-8531-4d78-87ee-c9b02f5fc438"},"vehicle_type_id":"4","last_reported":1734124101,"current_range_meters":20400,"station_id":"cpo3342slgdg3j2ifvpg","pricing_plan_id":"cebpf4jnsgd1na2vs0mg"},{"bike_id":"1ca91086-b89a-4b6e-b753-8d1e9a45c200","system_id":"levelo_inurba_marseille","lat":43.25104,"lon":5.40335,"is_reserved":false,"is_disabled":false,"rental_uris":{"android":"levelo://app?vid=1ca91086-b89a-4b6e-b753-8d1e9a45c200","ios":"levelo://app?vid=1ca91086-b89a-4b6e-b753-8d1e9a45c200"},"vehicle_type_id":"4","last_reported":1734124101,"current_range_meters":38800,"station_id":"ce4bhlh2rcd13ifvqgig","pricing_plan_id":"cebpf4jnsgd1na2vs0mg"},{"bike_id":"186c3937-5a8a-4a37-8f01-2fe91ce5063e","system_id":"levelo_inurba_marseille","lat":43.2904,"lon":5.38643,"is_reserved":false,"is_disabled":false,"rental_uris":{"android":"levelo://app?vid=186c3937-5a8a-4a37-8f01-2fe91ce5063e","ios":"levelo://app?vid=186c3937-5a8a-4a37-8f01-2fe91ce5063e"},"vehicle_type_id":"4","last_reported":1734124101,"current_range_meters":33600,"station_id":"ce4bh4p2rcd13ifvqe0g","pricing_plan_id":"cebpf4jnsgd1na2vs0mg"},{"bike_id":"7965bd8b-65b9-4460-9e65-36f253ebc53b","system_id":"levelo_inurba_marseille","lat":43.320575,"lon":5.4152,"is_reserved":false,"is_disabled":false,"rental_uris":{"android":"levelo://app?vid=7965bd8b-65b9-4460-9e65-36f253ebc53b","ios":"levelo://app?vid=7965bd8b-65b9-4460-9e65-36f253ebc53b"},"vehicle_type_id":"4","last_reported":1734124101,"current_range_meters":22400,"station_id":"ce4bhq92rcd13ifvqhkg","pricing_plan_id":"cebpf4jnsgd1na2vs0mg"},{"bike_id":"baf2a051-8c83-4545-8cb9-f2d0770a50f8","system_id":"levelo_inurba_marseille","lat":43.3102,"lon":5.38026,"is_reserved":false,"is_disabled":false,"rental_uris":{"android":"levelo://app?vid=baf2a051-8c83-4545-8cb9-f2d0770a50f8","ios":"levelo://app?vid=baf2a051-8c83-4545-8cb9-f2d0770a50f8"},"vehicle_type_id":"4","last_reported":1734124101,"current_range_meters":14400,"station_id":"","pricing_plan_id":"cebpf4jnsgd1na2vs0mg"},{"bike_id":"20572f8e-c093-4c4d-a34f-67abec9126b1","system_id":"levelo_inurba_marseille","lat":43.29769,"lon":5.37096,"is_reserved":false,"is_disabled":false,"rental_uris":{"android":"levelo://app?vid=20572f8e-c093-4c4d-a34f-67abec9126b1","ios":"levelo://app?vid=20572f8e-c093-4c4d-a34f-67abec9126b1"},"vehicle_type_id":"4","last_reported":1734124101,"current_range_meters":23200,"station_id":"ce4bgop2rcd13ifvqc1g","pricing_plan_id":"cebpf4jnsgd1na2vs0mg"},{"bike_id":"e5192aff-1008-4e7e-b82a-23b5df79d920","system_id":"levelo_inurba_marseille","lat":43.29584,"lon":5.42302,"is_reserved":false,"is_disabled":false,"rental_uris":{"android":"levelo://app?vid=e5192aff-1008-4e7e-b82a-23b5df79d920","ios":"levelo://app?vid=e5192aff-1008-4e7e-b82a-23b5df79d920"},"vehicle_type_id":"4","last_reported":1734124101,"current_range_meters":38800,"station_id":"ce4bhph2rcd13ifvqhdg","pricing_plan_id":"cebpf4jnsgd1na2vs0mg"},{"bike_id":"ebc579c1-720a-48e5-83db-cbd3a7cd20a5","system_id":"levelo_inurba_marseille","lat":43.31485,"lon":5.37314,"is_reserved":false,"is_disabled":false,"rental_uris":{"android":"levelo://app?vid=ebc579c1-720a-48e5-83db-cbd3a7cd20a5","ios":"levelo://app?vid=ebc579c1-720a-48e5-83db-cbd3a7cd20a5"},"vehicle_type_id":"4","last_reported":1734124101,"current_range_meters":31200,"station_id":"ce4bgt12rcd13ifvqcd0","pricing_plan_id":"cebpf4jnsgd1na2vs0mg"},{"bike_id":"e8407cdb-b45b-4dca-875c-1432a5f3a9a2","system_id":"levelo_inurba_marseille","lat":43.29527,"lon":5.38543,"is_reserved":false,"is_disabled":true,"rental_uris":{"android":"levelo://app?vid=e8407cdb-b45b-4dca-875c-1432a5f3a9a2","ios":"levelo://app?vid=e8407cdb-b45b-4dca-875c-1432a5f3a9a2"},"vehicle_type_id":"4","last_reported":1734124101,"current_range_meters":0,"station_id":"ce4bgih2rcd13ifvqba0","pricing_plan_id":"cebpf4jnsgd1na2vs0mg"},{"bike_id":"34812574-9f57-4cca-a31e-841a9b691992","system_id":"levelo_inurba_marseille","lat":43.25823,"lon":5.39421,"is_reserved":false,"is_disabled":false,"rental_uris":{"android":"levelo://app?vid=34812574-9f57-4cca-a31e-841a9b691992","ios":"levelo://app?vid=34812574-9f57-4cca-a31e-841a9b691992"},"vehicle_type_id":"4","last_reported":1734124101,"current_range_meters":18800,"station_id":"ce4bhip2rcd13ifvqft0","pricing_plan_id":"cebpf4jnsgd1na2vs0mg"},{"bike_id":"a5589391-a7e4-412b-9a87-f917b2322580","system_id":"levelo_inurba_marseille","lat":43.2307,"lon":5.35485,"is_reserved":false,"is_disabled":false,"rental_uris":{"android":"levelo://app?vid=a5589391-a7e4-412b-9a87-f917b2322580","ios":"levelo://app?vid=a5589391-a7e4-412b-9a87-f917b2322580"},"vehicle_type_id":"4","last_reported":1734124101,"current_range_meters":38000,"station_id":"cpo3342slgdg3j2ifvpg","pricing_plan_id":"cebpf4jnsgd1na2vs0mg"},{"bike_id":"93c3a267-4474-477c-96bc-a80a969485c1","system_id":"levelo_inurba_marseille","lat":43.29684,"lon":5.37303,"is_reserved":false,"is_disabled":false,"rental_uris":{"android":"levelo://app?vid=93c3a267-4474-477c-96bc-a80a969485c1","ios":"levelo://app?vid=93c3a267-4474-477c-96bc-a80a969485c1"},"vehicle_type_id":"4","last_reported":1734124101,"current_range_meters":25200,"station_id":"ce4bgk12rcd13ifvqbj0","pricing_plan_id":"cebpf4jnsgd1na2vs0mg"},{"bike_id":"103e9cb3-a529-4d55-b047-75adf6d60c18","system_id":"levelo_inurba_marseille","lat":43.27961,"lon":5.39941,"is_reserved":false,"is_disabled":true,"rental_uris":{"android":"levelo://app?vid=103e9cb3-a529-4d55-b047-75adf6d60c18","ios":"levelo://app?vid=103e9cb3-a529-4d55-b047-75adf6d60c18"},"vehicle_type_id":"4","last_reported":1734124101,"current_range_meters":0,"station_id":"","pricing_plan_id":"cebpf4jnsgd1na2vs0mg"},{"bike_id":"9f6edf01-748c-401f-9fc5-e91fa31a072c","system_id":"levelo_inurba_marseille","lat":43.33019,"lon":5.39039,"is_reserved":false,"is_disabled":false,"rental_uris":{"android":"levelo://app?vid=9f6edf01-748c-401f-9fc5-e91fa31a072c","ios":"levelo://app?vid=9f6edf01-748c-401f-9fc5-e91fa31a072c"},"vehicle_type_id":"4","last_reported":1734124101,"current_range_meters":39200,"station_id":"ce4bhr92rcd13ifvqhrg","pricing_plan_id":"cebpf4jnsgd1na2vs0mg"},{"bike_id":"463fbd98-59e4-4493-bb70-0b070cdb96bb","system_id":"levelo_inurba_marseille","lat":43.28706,"lon":5.37401,"is_reserved":false,"is_disabled":false,"rental_uris":{"android":"levelo://app?vid=463fbd98-59e4-4493-bb70-0b070cdb96bb","ios":"levelo://app?vid=463fbd98-59e4-4493-bb70-0b070cdb96bb"},"vehicle_type_id":"4","last_reported":1734124101,"current_range_meters":12400,"station_id":"ce4bh3p2rcd13ifvqdq0","pricing_plan_id":"cebpf4jnsgd1na2vs0mg"},{"bike_id":"14afac6a-63b2-47cb-9bc3-0bc87d22bcde","system_id":"levelo_inurba_marseille","lat":43.32378,"lon":5.38885,"is_reserved":false,"is_disabled":false,"rental_uris":{"android":"levelo://app?vid=14afac6a-63b2-47cb-9bc3-0bc87d22bcde","ios":"levelo://app?vid=14afac6a-63b2-47cb-9bc3-0bc87d22bcde"},"vehicle_type_id":"4","last_reported":1734124101,"current_range_meters":38800,"station_id":"ce4bhqp2rcd13ifvqhog","pricing_plan_id":"cebpf4jnsgd1na2vs0mg"},{"bike_id":"cf114bb8-ce3e-43ba-8e23-69bcac3003fd","system_id":"levelo_inurba_marseille","lat":43.33756,"lon":5.3742,"is_reserved":false,"is_disabled":false,"rental_uris":{"android":"levelo://app?vid=cf114bb8-ce3e-43ba-8e23-69bcac3003fd","ios":"levelo://app?vid=cf114bb8-ce3e-43ba-8e23-69bcac3003fd"},"vehicle_type_id":"4","last_reported":1734124101,"current_range_meters":24000,"station_id":"","pricing_plan_id":"cebpf4jnsgd1na2vs0mg"},{"bike_id":"f72a7348-a98e-463a-8d26-f64d3092b70b","system_id":"levelo_inurba_marseille","lat":43.30538,"lon":5.38436,"is_reserved":false,"is_disabled":true,"rental_uris":{"android":"levelo://app?vid=f72a7348-a98e-463a-8d26-f64d3092b70b","ios":"levelo://app?vid=f72a7348-a98e-463a-8d26-f64d3092b70b"},"vehicle_type_id":"4","last_reported":1734124101,"current_range_meters":36400,"station_id":"ce4bgg92rcd13ifvqb30","pricing_plan_id":"cebpf4jnsgd1na2vs0mg"},{"bike_id":"1edcb435-be97-41f8-aa8c-4a20808cef7c","system_id":"levelo_inurba_marseille","lat":43.26809,"lon":5.40276,"is_reserved":false,"is_disabled":false,"rental_uris":{"android":"levelo://app?vid=1edcb435-be97-41f8-aa8c-4a20808cef7c","ios":"levelo://app?vid=1edcb435-be97-41f8-aa8c-4a20808cef7c"},"vehicle_type_id":"4","last_reported":1734124101,"current_range_meters":38800,"station_id":"ce501612rcd8frsf0b60","pricing_plan_id":"cebpf4jnsgd1na2vs0mg"},{"bike_id":"6d539810-def4-4a3a-ab46-6be66b4f8204","system_id":"levelo_inurba_marseille","lat":43.25003,"lon":5.38935,"is_reserved":false,"is_disabled":false,"rental_uris":{"android":"levelo://app?vid=6d539810-def4-4a3a-ab46-6be66b4f8204","ios":"levelo://app?vid=6d539810-def4-4a3a-ab46-6be66b4f8204"},"vehicle_type_id":"4","last_reported":1734124101,"current_range_meters":36800,"station_id":"ce4bhgp2rcd13ifvqfd0","pricing_plan_id":"cebpf4jnsgd1na2vs0mg"},{"bike_id":"600a3dff-b459-4dfc-a7ac-2b01e30fccee","system_id":"levelo_inurba_marseille","lat":43.23201,"lon":5.3555,"is_reserved":false,"is_disabled":false,"rental_uris":{"android":"levelo://app?vid=600a3dff-b459-4dfc-a7ac-2b01e30fccee","ios":"levelo://app?vid=600a3dff-b459-4dfc-a7ac-2b01e30fccee"},"vehicle_type_id":"4","last_reported":1734124101,"current_range_meters":17200,"station_id":"ce4bhu92rcd13ifvqi70","pricing_plan_id":"cebpf4jnsgd1na2vs0mg"},{"bike_id":"a46e3ccb-8bc2-4640-85fb-260de600c1f9","system_id":"levelo_inurba_marseille","lat":43.33776,"lon":5.37435,"is_reserved":false,"is_disabled":false,"rental_uris":{"android":"levelo://app?vid=a46e3ccb-8bc2-4640-85fb-260de600c1f9","ios":"levelo://app?vid=a46e3ccb-8bc2-4640-85fb-260de600c1f9"},"vehicle_type_id":"4","last_reported":1734124101,"current_range_meters":38000,"station_id":"","pricing_plan_id":"cebpf4jnsgd1na2vs0mg"},{"bike_id":"84194686-613b-49c2-8cdd-380f6646564a","system_id":"levelo_inurba_marseille","lat":43.310788,"lon":5.383454,"is_reserved":false,"is_disabled":false,"rental_uris":{"android":"levelo://app?vid=84194686-613b-49c2-8cdd-380f6646564a","ios":"levelo://app?vid=84194686-613b-49c2-8cdd-380f6646564a"},"vehicle_type_id":"4","last_reported":1734124101,"current_range_meters":38800,"station_id":"ce4bgv92rcd13ifvqcr0","pricing_plan_id":"cebpf4jnsgd1na2vs0mg"},{"bike_id":"b88f3e5c-3535-498c-b292-96723b6d5b05","system_id":"levelo_inurba_marseille","lat":43.29267,"lon":5.38444,"is_reserved":false,"is_disabled":false,"rental_uris":{"android":"levelo://app?vid=b88f3e5c-3535-498c-b292-96723b6d5b05","ios":"levelo://app?vid=b88f3e5c-3535-498c-b292-96723b6d5b05"},"vehicle_type_id":"4","last_reported":1734124101,"current_range_meters":38800,"station_id":"ce4bh692rcd13ifvqea0","pricing_plan_id":"cebpf4jnsgd1na2vs0mg"},{"bike_id":"ca3bf6a0-806c-4046-b219-bbea4c2ba646","system_id":"levelo_inurba_marseille","lat":43.23195,"lon":5.35552,"is_reserved":false,"is_disabled":false,"rental_uris":{"android":"levelo://app?vid=ca3bf6a0-806c-4046-b219-bbea4c2ba646","ios":"levelo://app?vid=ca3bf6a0-806c-4046-b219-bbea4c2ba646"},"vehicle_type_id":"4","last_reported":1734124101,"current_range_meters":39200,"station_id":"ce4bhu92rcd13ifvqi70","pricing_plan_id":"cebpf4jnsgd1na2vs0mg"},{"bike_id":"e9ca2719-5c12-4721-a244-0ac64bc660a9","system_id":"levelo_inurba_marseille","lat":43.30896,"lon":5.37213,"is_reserved":false,"is_disabled":false,"rental_uris":{"android":"levelo://app?vid=e9ca2719-5c12-4721-a244-0ac64bc660a9","ios":"levelo://app?vid=e9ca2719-5c12-4721-a244-0ac64bc660a9"},"vehicle_type_id":"4","last_reported":1734124101,"current_range_meters":35200,"station_id":"ce4bguh2rcd13ifvqckg","pricing_plan_id":"cebpf4jnsgd1na2vs0mg"},{"bike_id":"6a021073-9fee-4025-85e9-6c8f1f18021d","system_id":"levelo_inurba_marseille","lat":43.29419,"lon":5.38621,"is_reserved":false,"is_disabled":true,"rental_uris":{"android":"levelo://app?vid=6a021073-9fee-4025-85e9-6c8f1f18021d","ios":"levelo://app?vid=6a021073-9fee-4025-85e9-6c8f1f18021d"},"vehicle_type_id":"4","last_reported":1734124101,"current_range_meters":9200,"station_id":"ce4bh2h2rcd13ifvqdh0","pricing_plan_id":"cebpf4jnsgd1na2vs0mg"},