{"last_updated":1750014438,"ttl":60,"version":"2.2","data":{"bikes":[{"bike_id":"b31f0139-170f-4194-984f-4386218a1e9d","system_id":"levelo_inurba_marseille","lat":43.33771,"lon":5.37424,"is_reserved":false,"is_disabled":true,"rental_uris":{"android":"levelo://app?vid=b31f0139-170f-4194-984f-4386218a1e9d","ios":"levelo://app?vid=b31f0139-170f-4194-984f-4386218a1e9d"},"vehicle_type_id":"4","last_reported":1750014438,"current_range_meters":0,"station_id":"","pricing_plan_id":"cebpf4jnsgd1na2vs0mg"},{"bike_id":"1acfb620-cad7-48c0-8901-d7a5b74a5b65","system_id":"levelo_inurba_marseille","lat":43.33751,"lon":5.37456,"is_reserved":false,"is_disabled":true,"rental_uris":{"android":"levelo://app?vid=1acfb620-cad7-48c0-8901-d7a5b74a5b65","ios":"levelo://app?vid=1acfb620-cad7-48c0-8901-d7a5b74a5b65"},"vehicle_type_id":"4","last_reported":1750014438,"current_range_meters":0,"station_id":"","pricing_plan_id":"cebpf4jnsgd1na2vs0mg"},{"bike_id":"bf89d78c-eb96-40d5-beb0-f402ef102cc1","system_id":"levelo_inurba_marseille","lat":43.337444,"lon":5.374475,"is_reserved":false,"is_disabled":true,"rental_uris":{"android":"levelo://app?vid=bf89d78c-eb96-40d5-beb0-f402ef102cc1","ios":"levelo://app?vid=bf89d78c-eb96-40d5-beb0-f402ef102cc1"},"vehicle_type_id":"4","last_reported":1750014438,"current_range_meters":0,"station_id":"","pricing_plan_id":"cebpf4jnsgd1na2vs0mg"},{"bike_id":"3d6ef34c-1ec6-4ed3-88e4-07359f729c42","system_id":"levelo_inurba_marseille","lat":43.275767,"lon":5.433916,"is_reserved":false,"is_disabled":true,"rental_uris":{"android":"levelo://app?vid=3d6ef34c-1ec6-4ed3-88e4-07359f729c42","ios":"levelo://app?vid=3d6ef34c-1ec6-4ed3-88e4-07359f729c42"},"vehicle_type_id":"4","last_reported":1750014438,"current_range_meters":0,"station_id":"","pricing_plan_id":"cebpf4jnsgd1na2vs0mg"},{"bike_id":"5077581b-cebb-46fc-ba69-4fa8272d4810","system_id":"levelo_inurba_marseille","lat":43.21373,"lon":5.35508,"is_reserved":false,"is_disabled":true,"rental_uris":{"android":"levelo://app?vid=5077581b-cebb-46fc-ba69-4fa8272d4810","ios":"levelo://app?vid=5077581b-cebb-46fc-ba69-4fa8272d4810"},"vehicle_type_id":"4","last_reported":1750014438,"current_range_meters":0,"station_id":"","pricing_plan_id":"cebpf4jnsgd1na2vs0mg"},{"bike_id":"b700b739-d84e-40eb-a0b6-5cbfa9485ee2","system_id":"levelo_inurba_marseille","lat":43.27849,"lon":5.4218,"is_reserved":false,"is_disabled":true,"rental_uris":{"android":"levelo://app?vid=b700b739-d84e-40eb-a0b6-5cbfa9485ee2","ios":"levelo://app?vid=b700b739-d84e-40eb-a0b6-5cbfa9485ee2"},"vehicle_type_id":"4","last_reported":1750014438,"current_range_meters":0,"station_id":"","pricing_plan_id":"cebpf4jnsgd1na2vs0mg"},{"bike_id":"97421c04-2630-4fc1-9da9-b17d88602c5f","system_id":"levelo_inurba_marseille","lat":43.337682,"lon":5.374519,"is_reserved":false,"is_disabled":true,"rental_uris":{"android":"levelo://app?vid=97421c04-2630-4fc1-9da9-b17d88602c5f","ios":"levelo://app?vid=97421c04-2630-4fc1-9da9-b17d88602c5f"},"vehicle_type_id":"4","last_reported":1750014438,"current_range_meters":0,"station_id":"","pricing_plan_id":"cebpf4jnsgd1na2vs0mg"},{"bike_id":"ac061617-9a3c-4de6-bd1d-cee5ca15e0fc","system_id":"levelo_inurba_marseille","lat":43.28327,"lon":5.38777,"is_reserved":false,"is_disabled":true,"rental_uris":{"android":"levelo://app?vid=ac061617-9a3c-4de6-bd1d-cee5ca15e0fc","ios":"levelo://app?vid=ac061617-9a3c-4de6-bd1d-cee5ca15e0fc"},"vehicle_type_id":"4","last_reported":1750014438,"current_range_meters":0,"station_id":"","pricing_plan_id":"cebpf4jnsgd1na2vs0mg"},{"bike_id":"ebf89cec-3e1a-4275-9cd0-a3d19d69b5cf","system_id":"levelo_inurba_marseille","lat":43.27982,"lon":5.38476,"is_reserved":false,"is_disabled":true,"rental_uris":{"android":"levelo://app?vid=ebf89cec-3e1a-4275-9cd0-a3d19d69b5cf","ios":"levelo://app?vid=ebf89cec-3e1a-4275-9cd0-a3d19d69b5cf"},"vehicle_type_id":"4","last_reported":1750014438,"current_range_meters":0,"station_id":"","pricing_plan_id":"cebpf4jnsgd1na2vs0mg"},{"bike_id":"8d60347d-541c-40fb-90ca-203bf6bd520a","system_id":"levelo_inurba_marseille","lat":43.271269,"lon":5.363921,"is_reserved":false,"is_disabled":true,"rental_uris":{"android":"levelo://app?vid=8d60347d-541c-40fb-90ca-203bf6bd520a","ios":"levelo://app?vid=8d60347d-541c-40fb-90ca-203bf6bd520a"},"vehicle_type_id":"4","last_reported":1750014438,"current_range_meters":0,"station_id":"","pricing_plan_id":"cebpf4jnsgd1na2vs0mg"},{"bike_id":"98afa141-26c5-45c8-a0a6-15fd54ac73ab","system_id":"levelo_inurba_marseille","lat":43.21533,"lon":5.34736,"is_reserved":false,"is_disabled":true,"rental_uris":{"android":"levelo://app?vid=98afa141-26c5-45c8-a0a6-15fd54ac73ab","ios":"levelo://app?vid=98afa141-26c5-45c8-a0a6-15fd54ac73ab"},"vehicle_type_id":"4","last_reported":1750014438,"current_range_meters":0,"station_id":"","pricing_plan_id":"cebpf4jnsgd1na2vs0mg"},{"bike_id":"492f4bbd-1190-4ef2-b66a-479ffe91b09b","system_id":"levelo_inurba_marseille","lat":43.337444,"lon":5.374475,"is_reserved":false,"is_disabled":true,"rental_uris":{"android":"levelo://app?vid=492f4bbd-1190-4ef2-b66a-479ffe91b09b","ios":"levelo://app?vid=492f4bbd-1190-4ef2-b66a-479ffe91b09b"},"vehicle_type_id":"4","last_reported":1750014438,"current_range_meters":0,"station_id":"","pricing_plan_id":"cebpf4jnsgd1na2vs0mg"},{"bike_id":"f77cdbad-e20a-4ad1-ab1c-4c1a92b392b6","system_id":"levelo_inurba_marseille","lat":43.292633,"lon":5.408855,"is_reserved":false,"is_disabled":true,"rental_uris":{"android":"levelo://app?vid=f77cdbad-e20a-4ad1-ab1c-4c1a92b392b6","ios":"levelo://app?vid=f77cdbad-e20a-4ad1-ab1c-4c1a92b392b6"},"vehicle_type_id":"4","last_reported":1750014438,"current_range_meters":0,"station_id":"","pricing_plan_id":"cebpf4jnsgd1na2vs0mg"},{"bike_id":"a9b6bf99-4070-4437-bb20-72962ae30b90","system_id":"levelo_inurba_marseille","lat":43.27458,"lon":5.36383,"is_reserved":false,"is_disabled":true,"rental_uris":{"android":"levelo://app?vid=a9b6bf99-4070-4437-bb20-72962ae30b90","ios":"levelo://app?vid=a9b6bf99-4070-4437-bb20-72962ae30b90"},"vehicle_type_id":"4","last_reported":1750014438,"current_range_meters":0,"station_id":"","pricing_plan_id":"cebpf4jnsgd1na2vs0mg"},{"bike_id":"c750d029-bb12-4ff4-b32b-83d5cfb1260b","system_id":"levelo_inurba_marseille","lat":43.29622,"lon":5.37716,"is_reserved":false,"is_disabled":true,"rental_uris":{"android":"levelo://app?vid=c750d029-bb12-4ff4-b32b-83d5cfb1260b","ios":"levelo://app?vid=c750d029-bb12-4ff4-b32b-83d5cfb1260b"},"vehicle_type_id":"4","last_reported":1750014438,"current_range_meters":0,"station_id":"ce4bgi92rcd13ifvqb90","pricing_plan_id":"cebpf4jnsgd1na2vs0mg"},{"bike_id":"2f0d46bd-3e02-4130-b843-2ed91357beb3","system_id":"levelo_inurba_marseille","lat":43.29526,"lon":5.38548,"is_reserved":false,"is_disabled":true,"rental_uris":{"android":"levelo://app?vid=2f0d46bd-3e02-4130-b843-2ed91357beb3","ios":"levelo://app?vid=2f0d46bd-3e02-4130-b843-2ed91357beb3"},"vehicle_type_id":"4","last_reported":1750014438,"current_range_meters":0,"station_id":"ce4bgih2rcd13ifvqba0","pricing_plan_id":"cebpf4jnsgd1na2vs0mg"},{"bike_id":"0ba345d5-cd0b-471d-802f-8785c449bb11","system_id":"levelo_inurba_marseille","lat":43.30879,"lon":5.39611,"is_reserved":false,"is_disabled":true,"rental_uris":{"android":"levelo://app?vid=0ba345d5-cd0b-471d-802f-8785c449bb11","ios":"levelo://app?vid=0ba345d5-cd0b-471d-802f-8785c449bb11"},"vehicle_type_id":"4","last_reported":1750014438,"current_range_meters":0,"station_id":"ce4bh012rcd13ifvqcv0","pricing_plan_id":"cebpf4jnsgd1na2vs0mg"},{"bike_id":"847d7e07-ff59-47a1-a53b-43ed91e0af74","system_id":"levelo_inurba_marseille","lat":43.305963,"lon":5.393593,"is_reserved":false,"is_disabled":true,"rental_uris":{"android":"levelo://app?vid=847d7e07-ff59-47a1-a53b-43ed91e0af74","ios":"levelo://app?vid=847d7e07-ff59-47a1-a53b-43ed91e0af74"},"vehicle_type_id":"4","last_reported":1750014438,"current_range_meters":0,"station_id":"ce4bh0p2rcd13ifvqd80","pricing_plan_id":"cebpf4jnsgd1na2vs0mg"},{"bike_id":"91cf4022-9296-41c8-9489-5fb575328d8d","system_id":"levelo_inurba_marseille","lat":43.290023,"lon":5.356062,"is_reserved":false,"is_disabled":true,"rental_uris":{"android":"levelo://app?vid=91cf4022-9296-41c8-9489-5fb575328d8d","ios":"levelo://app?vid=91cf4022-9296-41c8-9489-5fb575328d8d"},"vehicle_type_id":"4","last_reported":1750014438,"current_range_meters":0,"station_id":"ce4bh392rcd13ifvqdm0","pricing_plan_id":"cebpf4jnsgd1na2vs0mg"},{"bike_id":"eeac80a3-d692-4eb6-8015-ddc8fd43fb06","system_id":"levelo_inurba_marseille","lat":43.28461,"lon":5.38411,"is_reserved":false,"is_disabled":true,"rental_uris":{"android":"levelo://app?vid=eeac80a3-d692-4eb6-8015-ddc8fd43fb06","ios":"levelo://app?vid=eeac80a3-d692-4eb6-8015-ddc8fd43fb06"},"vehicle_type_id":"4","last_reported":1750014438,"current_range_meters":0,"station_id":"ce4bh512rcd13ifvqe3g","pricing_plan_id":"cebpf4jnsgd1na2vs0mg"},{"bike_id":"1404c1b3-059e-44ec-bbdd-d1a900493a22","system_id":"levelo_inurba_marseille","lat":43.28846,"lon":5.3585,"is_reserved":false,"is_disabled":true,"rental_uris":{"android":"levelo://app?vid=1404c1b3-059e-44ec-bbdd-d1a900493a22","ios":"levelo://app?vid=1404c1b3-059e-44ec-bbdd-d1a900493a22"},"vehicle_type_id":"4","last_reported":1750014438,"current_range_meters":0,"station_id":"ce4bhb12rcd13ifvqem0","pricing_plan_id":"cebpf4jnsgd1na2vs0mg"},{"bike_id":"e9e63cce-7a12-4fa5-8445-9a3d2606df40","system_id":"levelo_inurba_marseille","lat":43.29276,"lon":5.36842,"is_reserved":false,"is_disabled":true,"rental_uris":{"android":"levelo://app?vid=e9e63cce-7a12-4fa5-8445-9a3d2606df40","ios":"levelo://app?vid=e9e63cce-7a12-4fa5-8445-9a3d2606df40"},"vehicle_type_id":"4","last_reported":1750014438,"current_range_meters":0,"station_id":"ce4bhbp2rcd13ifvqesg","pricing_plan_id":"cebpf4jnsgd1na2vs0mg"},{"bike_id":"404a03c8-9a1a-4e9d-ad06-1918e6df57e1","system_id":"levelo_inurba_marseille","lat":43.27921,"lon":5.39576,"is_reserved":false,"is_disabled":true,"rental_uris":{"android":"levelo://app?vid=404a03c8-9a1a-4e9d-ad06-1918e6df57e1","ios":"levelo://app?vid=404a03c8-9a1a-4e9d-ad06-1918e6df57e1"},"vehicle_type_id":"4","last_reported":1750014438,"current_range_meters":0,"station_id":"ce4bhf92rcd13ifvqf40","pricing_plan_id":"cebpf4jnsgd1na2vs0mg"},{"bike_id":"168479e5-89ce-4ee2-8c34-467e141e00e1","system_id":"levelo_inurba_marseille","lat":43.26557,"lon":5.37284,"is_reserved":false,"is_disabled":true,"rental_uris":{"android":"levelo://app?vid=168479e5-89ce-4ee2-8c34-467e141e00e1","ios":"levelo://app?vid=168479e5-89ce-4ee2-8c34-467e141e00e1"},"vehicle_type_id":"4","last_reported":1750014438,"current_range_meters":0,"station_id":"ce4bhg12rcd13ifvqf70","pricing_plan_id":"cebpf4jnsgd1na2vs0mg"},{"bike_id":"c778482b-a660-4d1a-a458-451e083d1d18","system_id":"levelo_inurba_marseille","lat":43.25111,"lon":5.40323,"is_reserved":false,"is_disabled":true,"rental_uris":{"android":"levelo://app?vid=c778482b-a660-4d1a-a458-451e083d1d18","ios":"levelo://app?vid=c778482b-a660-4d1a-a458-451e083d1d18"},"vehicle_type_id":"4","last_reported":1750014438,"current_range_meters":0,"station_id":"ce4bhlh2rcd13ifvqgig","pricing_plan_id":"cebpf4jnsgd1na2vs0mg"},{"bike_id":"1a053efc-6835-4fe3-8b2d-e42486c2efbb","system_id":"levelo_inurba_marseille","lat":43.23202,"lon":5.43679,"is_reserved":false,"is_disabled":true,"rental_uris":{"android":"levelo://app?vid=1a053efc-6835-4fe3-8b2d-e42486c2efbb","ios":"levelo://app?vid=1a053efc-6835-4fe3-8b2d-e42486c2efbb"},"vehicle_type_id":"4","last_reported":1750014438,"current_range_meters":0,"station_id":"ce4bhmp2rcd13ifvqgog","pricing_plan_id":"cebpf4jnsgd1na2vs0mg"},{"bike_id":"e32a7d57-a45b-40d1-8d6d-4c56ff511fb4","system_id":"levelo_inurba_marseille","lat":43.31882,"lon":5.40726,"is_reserved":false,"is_disabled":true,"rental_uris":{"android":"levelo://app?vid=e32a7d57-a45b-40d1-8d6d-4c56ff511fb4","ios":"levelo://app?vid=e32a7d57-a45b-40d1-8d6d-4c56ff511fb4"},"vehicle_type_id":"4","last_reported":1750014438,"current_range_meters":0,"station_id":"ce4bhq12rcd13ifvqhig","pricing_plan_id":"cebpf4jnsgd1na2vs0mg"},{"bike_id":"643ebcec-5183-422a-972a-3d6f419d7a84","system_id":"levelo_inurba_marseille","lat":43.26808,"lon":5.4027,"is_reserved":false,"is_disabled":true,"rental_uris":{"android":"levelo://app?vid=643ebcec-5183-422a-972a-3d6f419d7a84","ios":"levelo://app?vid=643ebcec-5183-422a-972a-3d6f419d7a84"},"vehicle_type_id":"4","last_reported":1750014438,"current_range_meters":0,"station_id":"ce501612rcd8frsf0b60","pricing_plan_id":"cebpf4jnsgd1na2vs0mg"},{"bike_id":"9aea8b8c-7d2c-47e6-9e92-fd12236b644f","system_id":"levelo_inurba_marseille","lat":43.21763,"lon":5.34608,"is_reserved":false,"is_disabled":true,"rental_uris":{"android":"levelo://app?vid=9aea8b8c-7d2c-47e6-9e92-fd12236b644f","ios":"levelo://app?vid=9aea8b8c-7d2c-47e6-9e92-fd12236b644f"},"vehicle_type_id":"4","last_reported":1750014438,"current_range_meters":0,"station_id":"st_cvj6r9ubvosntc0bgbag","pricing_plan_id":"cebpf4jnsgd1na2vs0mg"},{"bike_id":"bb014641-3381-4315-b44d-08abb89ee7c9","system_id":"levelo_inurba_marseille","lat":43.30784,"lon":5.37642,"is_reserved":false,"is_disabled":true,"rental_uris":{"android":"levelo://app?vid=bb014641-3381-4315-b44d-08abb89ee7c9","ios":"levelo://app?vid=bb014641-3381-4315-b44d-08abb89ee7c9"},"vehicle_type_id":"4","last_reported":1750014438,"current_range_meters":400,"station_id":"ce4bgv92rcd13ifvqcq0","pricing_plan_id":"cebpf4jnsgd1na2vs0mg"},{"bike_id":"65eeb200-d3c8-49f2-9763-971f7cbeb3cc","system_id":"levelo_inurba_marseille","lat":43.29006,"lon":5.35608,"is_reserved":false,"is_disabled":true,"rental_uris":{"android":"levelo://app?vid=65eeb200-d3c8-49f2-9763-971f7cbeb3cc","ios":"levelo://app?vid=65eeb200-d3c8-49f2-9763-971f7cbeb3cc"},"vehicle_type_id":"4","last_reported":1750014438,"current_range_meters":400,"station_id":"ce4bhb92rcd13ifvqen0","pricing_plan_id":"cebpf4jnsgd1na2vs0mg"},{"bike_id":"08688a68-1620-475b-a2de-1f4bb20864d9","system_id":"levelo_inurba_marseille","lat":43.25111,"lon":5.4032,"is_reserved":false,"is_disabled":true,"rental_uris":{"android":"levelo://app?vid=08688a68-1620-475b-a2de-1f4bb20864d9","ios":"levelo://app?vid=08688a68-1620-475b-a2de-1f4bb20864d9"},"vehicle_type_id":"4","last_reported":1750014438,"current_range_meters":400,"station_id":"ce4bhlh2rcd13ifvqgig","pricing_plan_id":"cebpf4jnsgd1na2vs0mg"},{"bike_id":"2a83ae2f-a99a-4a3e-9402-1e60d522e115","system_id":"levelo_inurba_marseille","lat":43.21193,"lon":5.35067,"is_reserved":false,"is_disabled":true,"rental_uris":{"android":"levelo://app?vid=2a83ae2f-a99a-4a3e-9402-1e60d522e115","ios":"levelo://app?vid=2a83ae2f-a99a-4a3e-9402-1e60d522e115"},"vehicle_type_id":"4","last_reported":1750014438,"current_range_meters":400,"station_id":"st_cvj6sg6p6f1abm77japg","pricing_plan_id":"cebpf4jnsgd1na2vs0mg"},{"bike_id":"375cf6e2-9084-4098-ab27-8d4a8a4f6660","system_id":"levelo_inurba_marseille","lat":43.22474,"lon":5.34739,"is_reserved":false,"is_disabled":true,"rental_uris":{"android":"levelo://app?vid=375cf6e2-9084-4098-ab27-8d4a8a4f6660","ios":"levelo://app?vid=375cf6e2-9084-4098-ab27-8d4a8a4f6660"},"vehicle_type_id":"4","last_reported":1750014438,"current_range_meters":800,"station_id":"","pricing_plan_id":"cebpf4jnsgd1na2vs0mg"},{"bike_id":"6a56a903-df92-4add-ba90-1724ae63d9c5","system_id":"levelo_inurba_marseille","lat":43.29433,"lon":5.38609,"is_reserved":false,"is_disabled":false,"rental_uris":{"android":"levelo://app?vid=6a56a903-df92-4add-ba90-1724ae63d9c5","ios":"levelo://app?vid=6a56a903-df92-4add-ba90-1724ae63d9c5"},"vehicle_type_id":"4","last_reported":1750014438,"current_range_meters":800,"station_id":"ce4bh2h2rcd13ifvqdh0","pricing_plan_id":"cebpf4jnsgd1na2vs0mg"},{"bike_id":"de46dbfc-47e2-457e-b64d-f8ab24ef74c5","system_id":"levelo_inurba_marseille","lat":43.29555,"lon":5.42297,"is_reserved":false,"is_disabled":true,"rental_uris":{"android":"levelo://app?vid=de46dbfc-47e2-457e-b64d-f8ab24ef74c5","ios":"levelo://app?vid=de46dbfc-47e2-457e-b64d-f8ab24ef74c5"},"vehicle_type_id":"4","last_reported":1750014438,"current_range_meters":800,"station_id":"ce4bhph2rcd13ifvqhdg","pricing_plan_id":"cebpf4jnsgd1na2vs0mg"},{"bike_id":"efa96738-4365-4ea8-a3a2-f255267472c3","system_id":"levelo_inurba_marseille","lat":43.32662,"lon":5.40992,"is_reserved":false,"is_disabled":true,"rental_uris":{"android":"levelo://app?vid=efa96738-4365-4ea8-a3a2-f255267472c3","ios":"levelo://app?vid=efa96738-4365-4ea8-a3a2-f255267472c3"},"vehicle_type_id":"4","last_reported":1750014438,"current_range_meters":800,"station_id":"ce4bhpp2rcd13ifvqhgg","pricing_plan_id":"cebpf4jnsgd1na2vs0mg"},{"bike_id":"0abdd23d-bae4-4a77-8781-875f39de46e6","system_id":"levelo_inurba_marseille","lat":43.27911,"lon":5.3958,"is_reserved":false,"is_disabled":true,"rental_uris":{"android":"levelo://app?vid=0abdd23d-bae4-4a77-8781-875f39de46e6","ios":"levelo://app?vid=0abdd23d-bae4-4a77-8781-875f39de46e6"},"vehicle_type_id":"4","last_reported":1750014438,"current_range_meters":1200,"station_id":"ce4bhf92rcd13ifvqf40","pricing_plan_id":"cebpf4jnsgd1na2vs0mg"},{"bike_id":"260854ee-979f-434b-8647-32351ff6ed16","system_id":"levelo_inurba_marseille","lat":43.28353,"lon":5.38635,"is_reserved":false,"is_disabled":true,"rental_uris":{"android":"levelo://app?vid=260854ee-979f-434b-8647-32351ff6ed16","ios":"levelo://app?vid=260854ee-979f-434b-8647-32351ff6ed16"},"vehicle_type_id":"4","last_reported":1750014438,"current_range_meters":1600,"station_id":"ce4bh492rcd13ifvqdvg","pricing_plan_id":"cebpf4jnsgd1na2vs0mg"},{"bike_id":"bcb2191c-662d-4497-a700-bc602c4df3ef","system_id":"levelo_inurba_marseille","lat":43.28271,"lon":5.35057,"is_reserved":false,"is_disabled":true,"rental_uris":{"android":"levelo://app?vid=bcb2191c-662d-4497-a700-bc602c4df3ef","ios":"levelo://app?vid=bcb2191c-662d-4497-a700-bc602c4df3ef"},"vehicle_type_id":"4","last_reported":1750014438,"current_range_meters":2000,"station_id":"ce4bhbp2rcd13ifvqerg","pricing_plan_id":"cebpf4jnsgd1na2vs0mg"},{"bike_id":"0a98c170-e5b7-4996-9304-73a5a87fa7a2","system_id":"levelo_inurba_marseille","lat":43.27569,"lon":5.38421,"is_reserved":false,"is_disabled":true,"rental_uris":{"android":"levelo://app?vid=0a98c170-e5b7-4996-9304-73a5a87fa7a2","ios":"levelo://app?vid=0a98c170-e5b7-4996-9304-73a5a87fa7a2"},"vehicle_type_id":"4","last_reported":1750014438,"current_range_meters":2000,"station_id":"ce4bhh92rcd13ifvqfi0","pricing_plan_id":"cebpf4jnsgd1na2vs0mg"},{"bike_id":"c51f5c12-4a3c-4a98-8e32-be5019d5baa3","system_id":"levelo_inurba_marseille","lat":43.28701,"lon":5.39986,"is_reserved":false,"is_disabled":true,"rental_uris":{"android":"levelo://app?vid=c51f5c12-4a3c-4a98-8e32-be5019d5baa3","ios":"levelo://app?vid=c51f5c12-4a3c-4a98-8e32-be5019d5baa3"},"vehicle_type_id":"4","last_reported":1750014438,"current_range_meters":2000,"station_id":"ce4bho92rcd13ifvqh3g","pricing_plan_id":"cebpf4jnsgd1na2vs0mg"},{"bike_id":"18ed2915-c487-40e9-becd-16ce95385796","system_id":"levelo_inurba_marseille","lat":43.3117,"lon":5.38728,"is_reserved":false,"is_disabled":false,"rental_uris":{"android":"levelo://app?vid=18ed2915-c487-40e9-becd-16ce95385796","ios":"levelo://app?vid=18ed2915-c487-40e9-becd-16ce95385796"},"vehicle_type_id":"4","last_reported":1750014438,"current_range_meters":2800,"station_id":"ce4bgv12rcd13ifvqcp0","pricing_plan_id":"cebpf4jnsgd1na2vs0mg"},{"bike_id":"c24d4f0f-2c83-41cc-82f8-3005bb3a31f8","system_id":"levelo_inurba_marseille","lat":43.316899,"lon":5.404761,"is_reserved":false,"is_disabled":false,"rental_uris":{"android":"levelo://app?vid=c24d4f0f-2c83-41cc-82f8-3005bb3a31f8","ios":"levelo://app?vid=c24d4f0f-2c83-41cc-82f8-3005bb3a31f8"},"vehicle_type_id":"4","last_reported":1750014438,"current_range_meters":2800,"station_id":"ce4bh012rcd13ifvqd00","pricing_plan_id":"cebpf4jnsgd1na2vs0mg"},{"bike_id":"a1b4b19f-da61-4b4b-8f9f-07ac45b1ade2","system_id":"levelo_inurba_marseille","lat":43.3013,"lon":5.39853,"is_reserved":false,"is_disabled":false,"rental_uris":{"android":"levelo://app?vid=a1b4b19f-da61-4b4b-8f9f-07ac45b1ade2","ios":"levelo://app?vid=a1b4b19f-da61-4b4b-8f9f-07ac45b1ade2"},"vehicle_type_id":"4","last_reported":1750014438,"current_range_meters":2800,"station_id":"ce4bh0h2rcd13ifvqd40","pricing_plan_id":"cebpf4jnsgd1na2vs0mg"},{"bike_id":"e8352dc9-f4df-47e5-823c-8bbe7b51736e","system_id":"levelo_inurba_marseille","lat":43.28663,"lon":5.36354,"is_reserved":false,"is_disabled":false,"rental_uris":{"android":"levelo://app?vid=e8352dc9-f4df-47e5-823c-8bbe7b51736e","ios":"levelo://app?vid=e8352dc9-f4df-47e5-823c-8bbe7b51736e"},"vehicle_type_id":"4","last_reported":1750014438,"current_range_meters":2800,"station_id":"ce4bhah2rcd13ifvqej0","pricing_plan_id":"cebpf4jnsgd1na2vs0mg"},{"bike_id":"de92586a-32c4-4e3b-a3a6-67f0b31fab47","system_id":"levelo_inurba_marseille","lat":43.30419,"lon":5.39754,"is_reserved":false,"is_disabled":false,"rental_uris":{"android":"levelo://app?vid=de92586a-32c4-4e3b-a3a6-67f0b31fab47","ios":"levelo://app?vid=de92586a-32c4-4e3b-a3a6-67f0b31fab47"},"vehicle_type_id":"4","last_reported":1750014438,"current_range_meters":3200,"station_id":"ce4bh092rcd13ifvqd20","pricing_plan_id":"cebpf4jnsgd1na2vs0mg"},{"bike_id":"cd67ae2a-c145-42b3-a546-81e303ae562c","system_id":"levelo_inurba_marseille","lat":43.2614,"lon":5.379536,"is_reserved":false,"is_disabled":false,"rental_uris":{"android":"levelo://app?vid=cd67ae2a-c145-42b3-a546-81e303ae562c","ios":"levelo://app?vid=cd67ae2a-c145-42b3-a546-81e303ae562c"},"vehicle_type_id":"4","last_reported":1750014438,"current_range_meters":3200,"station_id":"ce4bhnh2rcd13ifvqgtg","pricing_plan_id":"cebpf4jnsgd1na2vs0mg"},{"bike_id":"e0e45bb3-92ac-4f89-84fd-44bf032c3cf2","system_id":"levelo_inurba_marseille","lat":43.29931,"lon":5.37449,"is_reserved":false,"is_disabled":false,"rental_uris":{"android":"levelo://app?vid=e0e45bb3-92ac-4f89-84fd-44bf032c3cf2","ios":"levelo://app?vid=e0e45bb3-92ac-4f89-84fd-44bf032c3cf2"},"vehicle_type_id":"4","last_reported":1750014438,"current_range_meters":3600,"station_id":"ce4bgjh2rcd13ifvqbg0","pricing_plan_id":"cebpf4jnsgd1na2vs0mg"},{"bike_id":"7a75e7b8-799c-44ab-aa17-7247ce0cd799","system_id":"levelo_inurba_marseille","lat":43.2836,"lon":5.38096,"is_reserved":false,"is_disabled":false,"rental_uris":{"android":"levelo://app?vid=7a75e7b8-799c-44ab-aa17-7247ce0cd799","ios":"levelo://app?vid=7a75e7b8-799c-44ab-aa17-7247ce0cd799"},"vehicle_type_id":"4","last_reported":1750014438,"current_range_meters":3600,"station_id":"ce4bh412rcd13ifvqdr0","pricing_plan_id":"cebpf4jnsgd1na2vs0mg"},{"bike_id":"5e7ebee2-521b-43e2-bd03-865320f4c815","system_id":"levelo_inurba_marseille","lat":43.28109,"lon":5.37836,"is_reserved":false,"is_disabled":false,"rental_uris":{"android":"levelo://app?vid=5e7ebee2-521b-43e2-bd03-865320f4c815","ios":"levelo://app?vid=5e7ebee2-521b-43e2-bd03-865320f4c815"},"vehicle_type_id":"4","last_reported":1750014438,"current_range_meters":3600,"station_id":"ce4bha12rcd13ifvqee0","pricing_plan_id":"cebpf4jnsgd1na2vs0mg"},{"bike_id":"5fbbbc18-1094-4355-ba1b-c2c30fb97941","system_id":"levelo_inurba_marseille","lat":43.32001,"lon":5.381692,"is_reserved":false,"is_disabled":false,"rental_uris":{"android":"levelo://app?vid=5fbbbc18-1094-4355-ba1b-c2c30fb97941","ios":"levelo://app?vid=5fbbbc18-1094-4355-ba1b-c2c30fb97941"},"vehicle_type_id":"4","last_reported":1750014438,"current_range_meters":3600,"station_id":"ce4bhr12rcd13ifvqhpg","pricing_plan_id":"cebpf4jnsgd1na2vs0mg"},{"bike_id":"19f36125-5356-4c09-86ba-b894f9e8107a","system_id":"levelo_inurba_marseille","lat":43.29199,"lon":5.3755,"is_reserved":false,"is_disabled":false,"rental_uris":{"android":"levelo://app?vid=19f36125-5356-4c09-86ba-b894f9e8107a","ios":"levelo://app?vid=19f36125-5356-4c09-86ba-b894f9e8107a"},"vehicle_type_id":"4","last_reported":1750014438,"current_range_meters":4000,"station_id":"","pricing_plan_id":"cebpf4jnsgd1na2vs0mg"},{"bike_id":"921bc5d9-8d56-4972-a749-df98d389bd21","system_id":"levelo_inurba_marseille","lat":43.29195,"lon":5.39318,"is_reserved":false,"is_disabled":false,"rental_uris":{"android":"levelo://app?vid=921bc5d9-8d56-4972-a749-df98d389bd21","ios":"levelo://app?vid=921bc5d9-8d56-4972-a749-df98d389bd21"},"vehicle_type_id":"4","last_reported":1750014438,"current_range_meters":4000,"station_id":"ce4bh192rcd13ifvqdd0","pricing_plan_id":"cebpf4jnsgd1na2vs0mg"},{"bike_id":"2ab31527-f915-4286-b3a0-0beafd2cdd50","system_id":"levelo_inurba_marseille","lat":43.30033,"lon":5.36996,"is_reserved":false,"is_disabled":false,"rental_uris":{"android":"levelo://app?vid=2ab31527-f915-4286-b3a0-0beafd2cdd50","ios":"levelo://app?vid=2ab31527-f915-4286-b3a0-0beafd2cdd50"},"vehicle_type_id":"4","last_reported":1750014438,"current_range_meters":4400,"station_id":"","pricing_plan_id":"cebpf4jnsgd1na2vs0mg"},{"bike_id":"b1a5752b-268c-4e5b-a05b-bfd0b76b1b1f","system_id":"levelo_inurba_marseille","lat":43.23062,"lon":5.35491,"is_reserved":false,"is_disabled":false,"rental_uris":{"android":"levelo://app?vid=b1a5752b-268c-4e5b-a05b-bfd0b76b1b1f","ios":"levelo://app?vid=b1a5752b-268c-4e5b-a05b-bfd0b76b1b1f"},"vehicle_type_id":"4","last_reported":1750014438,"current_range_meters":4400,"station_id":"cpo3342slgdg3j2ifvpg","pricing_plan_id":"cebpf4jnsgd1na2vs0mg"},{"bike_id":"07cceb79-4aba-4170-8e02-9eed1d05fcd2","system_id":"levelo_inurba_marseille","lat":43.30877,"lon":5.39661,"is_reserved":false,"is_disabled":false,"rental_uris":{"android":"levelo://app?vid=07cceb79-4aba-4170-8e02-9eed1d05fcd2","ios":"levelo://app?vid=07cceb79-4aba-4170-8e02-9eed1d05fcd2"},"vehicle_type_id":"4","last_reported":1750014438,"current_range_meters":4800,"station_id":"ce4bh012rcd13ifvqcv0","pricing_plan_id":"cebpf4jnsgd1na2vs0mg"},{"bike_id":"9b58b5ea-2007-41fc-a14d-d8846fe0bd74","system_id":"levelo_inurba_marseille","lat":43.2837,"lon":5.3863,"is_reserved":false,"is_disabled":false,"rental_uris":{"android":"levelo://app?vid=9b58b5ea-2007-41fc-a14d-d8846fe0bd74","ios":"levelo://app?vid=9b58b5ea-2007-41fc-a14d-d8846fe0bd74"},"vehicle_type_id":"4","last_reported":1750014438,"current_range_meters":5600,"station_id":"ce4bh492rcd13ifvqdvg","pricing_plan_id":"cebpf4jnsgd1na2vs0mg"},{"bike_id":"14c28a7f-44f5-4f07-8c77-c4ff1b2b8d8a","system_id":"levelo_inurba_marseille","lat":43.2407,"lon":5.37766,"is_reserved":false,"is_disabled":false,"rental_uris":{"android":"levelo://app?vid=14c28a7f-44f5-4f07-8c77-c4ff1b2b8d8a","ios":"levelo://app?vid=14c28a7f-44f5-4f07-8c77-c4ff1b2b8d8a"},"vehicle_type_id":"4","last_reported":1750014438,"current_range_meters":5600,"station_id":"ce4bhnp2rcd13ifvqgvg","pricing_plan_id":"cebpf4jnsgd1na2vs0mg"},{"bike_id":"042c7e53-233b-464c-803d-56c850a98009","system_id":"levelo_inurba_marseille","lat":43.22928,"lon":5.35382,"is_reserved":false,"is_disabled":false,"rental_uris":{"android":"levelo://app?vid=042c7e53-233b-464c-803d-56c850a98009","ios":"levelo://app?vid=042c7e53-233b-464c-803d-56c850a98009"},"vehicle_type_id":"4","last_reported":1750014438,"current_range_meters":5600,"station_id":"cpo3532slgdg3j2ikp40","pricing_plan_id":"cebpf4jnsgd1na2vs0mg"},{"bike_id":"357558f0-8b10-41dc-8e13-5c366ecd37b5","system_id":"levelo_inurba_marseille","lat":43.21192,"lon":5.35085,"is_reserved":false,"is_disabled":false,"rental_uris":{"android":"levelo://app?vid=357558f0-8b10-41dc-8e13-5c366ecd37b5","ios":"levelo://app?vid=357558f0-8b10-41dc-8e13-5c366ecd37b5"},"vehicle_type_id":"4","last_reported":1750014438,"current_range_meters":5600,"station_id":"st_cvj6sg6p6f1abm77japg","pricing_plan_id":"cebpf4jnsgd1na2vs0mg"},{"bike_id":"c09b4cfa-9806-4058-8c81-d3f9dab2452c","system_id":"levelo_inurba_marseille","lat":43.28848,"lon":5.39315,"is_reserved":false,"is_disabled":false,"rental_uris":{"android":"levelo://app?vid=c09b4cfa-9806-4058-8c81-d3f9dab2452c","ios":"levelo://app?vid=c09b4cfa-9806-4058-8c81-d3f9dab2452c"},"vehicle_type_id":"4","last_reported":1750014438,"current_range_meters":6000,"station_id":"ce4bh2p2rcd13ifvqdi0","pricing_plan_id":"cebpf4jnsgd1na2vs0mg"},{"bike_id":"022d57d2-9448-45c9-9f59-dac901467a26","system_id":"levelo_inurba_marseille","lat":43.29437,"lon":5.3976,"is_reserved":false,"is_disabled":false,"rental_uris":{"android":"levelo://app?vid=022d57d2-9448-45c9-9f59-dac901467a26","ios":"levelo://app?vid=022d57d2-9448-45c9-9f59-dac901467a26"},"vehicle_type_id":"4","last_reported":1750014438,"current_range_meters":6000,"station_id":"ce4bh3h2rcd13ifvqdo0","pricing_plan_id":"cebpf4jnsgd1na2vs0mg"},{"bike_id":"9565e26a-bbe1-44a3-b105-b4912656a52c","system_id":"levelo_inurba_marseille","lat":43.30376,"lon":5.42494,"is_reserved":false,"is_disabled":false,"rental_uris":{"android":"levelo://app?vid=9565e26a-bbe1-44a3-b105-b4912656a52c","ios":"levelo://app?vid=9565e26a-bbe1-44a3-b105-b4912656a52c"},"vehicle_type_id":"4","last_reported":1750014438,"current_range_meters":6000,"station_id":"ce4bhoh2rcd13ifvqh6g","pricing_plan_id":"cebpf4jnsgd1na2vs0mg"},{"bike_id":"53320cc7-202b-4a6e-a10c-97a1d28c93f8","system_id":"levelo_inurba_marseille","lat":43.29307,"lon":5.37183,"is_reserved":false,"is_disabled":false,"rental_uris":{"android":"levelo://app?vid=53320cc7-202b-4a6e-a10c-97a1d28c93f8","ios":"levelo://app?vid=53320cc7-202b-4a6e-a10c-97a1d28c93f8"},"vehicle_type_id":"4","last_reported":1750014438,"current_range_meters":6400,"station_id":"ce4bgh92rcd13ifvqb40","pricing_plan_id":"cebpf4jnsgd1na2vs0mg"},{"bike_id":"6d4b3460-deb7-42e7-8f8a-18ce495672b2","system_id":"levelo_inurba_marseille","lat":43.30144,"lon":5.38773,"is_reserved":false,"is_disabled":false,"rental_uris":{"android":"levelo://app?vid=6d4b3460-deb7-42e7-8f8a-18ce495672b2","ios":"levelo://app?vid=6d4b3460-deb7-42e7-8f8a-18ce495672b2"},"vehicle_type_id":"4","last_reported":1750014438,"current_range_meters":6400,"station_id":"ce4bghh2rcd13ifvqb60","pricing_plan_id":"cebpf4jnsgd1na2vs0mg"},{"bike_id":"59ab2654-5ce6-4e9a-9e23-1a12458e89bc","system_id":"levelo_inurba_marseille","lat":43.33612,"lon":5.41036,"is_reserved":false,"is_disabled":false,"rental_uris":{"android":"levelo://app?vid=59ab2654-5ce6-4e9a-9e23-1a12458e89bc","ios":"levelo://app?vid=59ab2654-5ce6-4e9a-9e23-1a12458e89bc"},"vehicle_type_id":"4","last_reported":1750014438,"current_range_meters":6400,"station_id":"ce4bhqh2rcd13ifvqhmg","pricing_plan_id":"cebpf4jnsgd1na2vs0mg"},{"bike_id":"811e1173-09dd-4689-903c-7627cd25531f","system_id":"levelo_inurba_marseille","lat":43.29284,"lon":5.40112,"is_reserved":false,"is_disabled":false,"rental_uris":{"android":"levelo://app?vid=811e1173-09dd-4689-903c-7627cd25531f","ios":"levelo://app?vid=811e1173-09dd-4689-903c-7627cd25531f"},"vehicle_type_id":"4","last_reported":1750014438,"current_range_meters":6800,"station_id":"ce4bh312rcd13ifvqdk0","pricing_plan_id":"cebpf4jnsgd1na2vs0mg"},{"bike_id":"b4a005c0-81ad-4bb8-90c5-70d1b685526d","system_id":"levelo_inurba_marseille","lat":43.29797,"lon":5.38108,"is_reserved":false,"is_disabled":false,"rental_uris":{"android":"levelo://app?vid=b4a005c0-81ad-4bb8-90c5-70d1b685526d","ios":"levelo://app?vid=b4a005c0-81ad-4bb8-90c5-70d1b685526d"},"vehicle_type_id":"4","last_reported":1750014438,"current_range_meters":7200,"station_id":"ce4bgip2rcd13ifvqbb0","pricing_plan_id":"cebpf4jnsgd1na2vs0mg"},{"bike_id":"bbb05127-3461-411b-b53c-ab75ec6a6a84","system_id":"levelo_inurba_marseille","lat":43.31067,"lon":5.38349,"is_reserved":false,"is_disabled":false,"rental_uris":{"android":"levelo://app?vid=bbb05127-3461-411b-b53c-ab75ec6a6a84","ios":"levelo://app?vid=bbb05127-3461-411b-b53c-ab75ec6a6a84"},"vehicle_type_id":"4","last_reported":1750014438,"current_range_meters":7200,"station_id":"ce4bgv92rcd13ifvqcr0","pricing_plan_id":"cebpf4jnsgd1na2vs0mg"},{"bike_id":"3e0d0941-f749-4755-8e99-008f2a7eea52","system_id":"levelo_inurba_marseille","lat":43.28344,"lon":5.38113,"is_reserved":false,"is_disabled":false,"rental_uris":{"android":"levelo://app?vid=3e0d0941-f749-4755-8e99-008f2a7eea52","ios":"levelo://app?vid=3e0d0941-f749-4755-8e99-008f2a7eea52"},"vehicle_type_id":"4","last_reported":1750014438,"current_range_meters":7200,"station_id":"ce4bh412rcd13ifvqdr0","pricing_plan_id":"cebpf4jnsgd1na2vs0mg"},{"bike_id":"08e38484-3717-44de-935d-88db504e12a1","system_id":"levelo_inurba_marseille","lat":43.290437,"lon":5.37565,"is_reserved":false,"is_disabled":false,"rental_uris":{"android":"levelo://app?vid=08e38484-3717-44de-935d-88db504e12a1","ios":"levelo://app?vid=08e38484-3717-44de-935d-88db504e12a1"},"vehicle_type_id":"4","last_reported":1750014438,"current_range_meters":7200,"station_id":"ce4bh692rcd13ifvqe90","pricing_plan_id":"cebpf4jnsgd1na2vs0mg"},{"bike_id":"c48f2d8f-6332-4dcc-8ae1-1ee3fbf1239d","system_id":"levelo_inurba_marseille","lat":43.29844,"lon":5.36267,"is_reserved":false,"is_disabled":false,"rental_uris":{"android":"levelo://app?vid=c48f2d8f-6332-4dcc-8ae1-1ee3fbf1239d","ios":"levelo://app?vid=c48f2d8f-6332-4dcc-8ae1-1ee3fbf1239d"},"vehicle_type_id":"4","last_reported":1750014438,"current_range_meters":8000,"station_id":"ce4bgpp2rcd13ifvqc3g","pricing_plan_id":"cebpf4jnsgd1na2vs0mg"},{"bike_id":"fa6689e2-810e-41a0-bd2d-9dd7ea1c1180","system_id":"levelo_inurba_marseille","lat":43.28354,"lon":5.38101,"is_reserved":false,"is_disabled":false,"rental_uris":{"android":"levelo://app?vid=fa6689e2-810e-41a0-bd2d-9dd7ea1c1180","ios":"levelo://app?vid=fa6689e2-810e-41a0-bd2d-9dd7ea1c1180"},"vehicle_type_id":"4","last_reported":1750014438,"current_range_meters":8000,"station_id":"ce4bh412rcd13ifvqdr0","pricing_plan_id":"cebpf4jnsgd1na2vs0mg"},{"bike_id":"f90e6c50-8a55-4953-9861-868b8b13a016","system_id":"levelo_inurba_marseille","lat":43.28161,"lon":5.42639,"is_reserved":false,"is_disabled":false,"rental_uris":{"android":"levelo://app?vid=f90e6c50-8a55-4953-9861-868b8b13a016","ios":"levelo://app?vid=f90e6c50-8a55-4953-9861-868b8b13a016"},"vehicle_type_id":"4","last_reported":1750014438,"current_range_meters":8000,"station_id":"ce4bhnh2rcd13ifvqgug","pricing_plan_id":"cebpf4jnsgd1na2vs0mg"},{"bike_id":"529681ca-ce3c-4ac9-953e-be67a2f059ab","system_id":"levelo_inurba_marseille","lat":43.28146,"lon":5.42639,"is_reserved":false,"is_disabled":false,"rental_uris":{"android":"levelo://app?vid=529681ca-ce3c-4ac9-953e-be67a2f059ab","ios":"levelo://app?vid=529681ca-ce3c-4ac9-953e-be67a2f059ab"},"vehicle_type_id":"4","last_reported":1750014438,"current_range_meters":8000,"station_id":"ce4bhnh2rcd13ifvqgug","pricing_plan_id":"cebpf4jnsgd1na2vs0mg"},{"bike_id":"602256a3-d057-4287-96e4-179740aebdee","system_id":"levelo_inurba_marseille","lat":43.27946,"lon":5.4104,"is_reserved":false,"is_disabled":false,"rental_uris":{"android":"levelo://app?vid=602256a3-d057-4287-96e4-179740aebdee","ios":"levelo://app?vid=602256a3-d057-4287-96e4-179740aebdee"},"vehicle_type_id":"4","last_reported":1750014438,"current_range_meters":8000,"station_id":"ce4bhnp2rcd13ifvqh0g","pricing_plan_id":"cebpf4jnsgd1na2vs0mg"},{"bike_id":"21d31121-0294-4551-bb35-cc69a2c2e45a","system_id":"levelo_inurba_marseille","lat":43.29583,"lon":5.3674,"is_reserved":false,"is_disabled":false,"rental_uris":{"android":"levelo://app?vid=21d31121-0294-4551-bb35-cc69a2c2e45a","ios":"levelo://app?vid=21d31121-0294-4551-bb35-cc69a2c2e45a"},"vehicle_type_id":"4","last_reported":1750014438,"current_range_meters":8400,"station_id":"ce4bgph2rcd13ifvqc2g","pricing_plan_id":"cebpf4jnsgd1na2vs0mg"},{"bike_id":"e575f6ae-64b1-4f07-acc7-3c667d13d908","system_id":"levelo_inurba_marseille","lat":43.29835,"lon":5.3625,"is_reserved":false,"is_disabled":false,"rental_uris":{"android":"levelo://app?vid=e575f6ae-64b1-4f07-acc7-3c667d13d908","ios":"levelo://app?vid=e575f6ae-64b1-4f07-acc7-3c667d13d908"},"vehicle_type_id":"4","last_reported":1750014438,"current_range_meters":8400,"station_id":"ce4bgpp2rcd13ifvqc3g","pricing_plan_id":"cebpf4jnsgd1na2vs0mg"},{"bike_id":"573c6c62-2bbf-42e4-ad63-94930f2d78f2","system_id":"levelo_inurba_marseille","lat":43.30819,"lon":5.38186,"is_reserved":false,"is_disabled":false,"rental_uris":{"android":"levelo://app?vid=573c6c62-2bbf-42e4-ad63-94930f2d78f2","ios":"levelo://app?vid=573c6c62-2bbf-42e4-ad63-94930f2d78f2"},"vehicle_type_id":"4","last_reported":1750014438,"current_range_meters":8400,"station_id":"ce4bgt12rcd13ifvqce0","pricing_plan_id":"cebpf4jnsgd1na2vs0mg"},{"bike_id":"098b4b65-ffb1-4b72-93e3-a51dbd948fd0","system_id":"levelo_inurba_marseille","lat":43.30205,"lon":5.39477,"is_reserved":false,"is_disabled":false,"rental_uris":{"android":"levelo://app?vid=098b4b65-ffb1-4b72-93e3-a51dbd948fd0","ios":"levelo://app?vid=098b4b65-ffb1-4b72-93e3-a51dbd948fd0"},"vehicle_type_id":"4","last_reported":1750014438,"current_range_meters":8400,"station_id":"ce4bh0p2rcd13ifvqd70","pricing_plan_id":"cebpf4jnsgd1na2vs0mg"},{"bike_id":"88a18792-1509-4076-95d3-923deceaa968","system_id":"levelo_inurba_marseille","lat":43.29044,"lon":5.38629,"is_reserved":false,"is_disabled":false,"rental_uris":{"android":"levelo://app?vid=88a18792-1509-4076-95d3-923deceaa968","ios":"levelo://app?vid=88a18792-1509-4076-95d3-923deceaa968"},"vehicle_type_id":"4","last_reported":1750014438,"current_range_meters":8400,"station_id":"ce4bh4p2rcd13ifvqe0g","pricing_plan_id":"cebpf4jnsgd1na2vs0mg"},{"bike_id":"1b74457e-477c-4384-8c26-4e98442f36b3","system_id":"levelo_inurba_marseille","lat":43.29692,"lon":5.37298,"is_reserved":false,"is_disabled":false,"rental_uris":{"android":"levelo://app?vid=1b74457e-477c-4384-8c26-4e98442f36b3","ios":"levelo://app?vid=1b74457e-477c-4384-8c26-4e98442f36b3"},"vehicle_type_id":"4","last_reported":1750014438,"current_range_meters":8800,"station_id":"ce4bgk12rcd13ifvqbj0","pricing_plan_id":"cebpf4jnsgd1na2vs0mg"},{"bike_id":"c94cfbb6-34ce-4c58-8062-c3c9f5f2c097","system_id":"levelo_inurba_marseille","lat":43.29022,"lon":5.38635,"is_reserved":false,"is_disabled":false,"rental_uris":{"android":"levelo://app?vid=c94cfbb6-34ce-4c58-8062-c3c9f5f2c097","ios":"levelo://app?vid=c94cfbb6-34ce-4c58-8062-c3c9f5f2c097"},"vehicle_type_id":"4","last_reported":1750014438,"current_range_meters":8800,"station_id":"ce4bh4p2rcd13ifvqe0g","pricing_plan_id":"cebpf4jnsgd1na2vs0mg"},{"bike_id":"1832e110-b916-4383-b07b-1f4612cfb1aa","system_id":"levelo_inurba_marseille","lat":43.29054,"lon":5.37164,"is_reserved":false,"is_disabled":false,"rental_uris":{"android":"levelo://app?vid=1832e110-b916-4383-b07b-1f4612cfb1aa","ios":"levelo://app?vid=1832e110-b916-4383-b07b-1f4612cfb1aa"},"vehicle_type_id":"4","last_reported":1750014438,"current_range_meters":8800,"station_id":"ce4bh5p2rcd13ifvqe4g","pricing_plan_id":"cebpf4jnsgd1na2vs0mg"},{"bike_id":"83f06651-8cc7-4287-be4f-4281f5678160","system_id":"levelo_inurba_marseille","lat":43.31755,"lon":5.39014,"is_reserved":false,"is_disabled":false,"rental_uris":{"android":"levelo://app?vid=83f06651-8cc7-4287-be4f-4281f5678160","ios":"levelo://app?vid=83f06651-8cc7-4287-be4f-4281f5678160"},"vehicle_type_id":"4","last_reported":1750014438,"current_range_meters":8800,"station_id":"ce4bhqp2rcd13ifvqhng","pricing_plan_id":"cebpf4jnsgd1na2vs0mg"},{"bike_id":"eee37b92-da8f-4086-9175-f308ed9ddece","system_id":"levelo_inurba_marseille","lat":43.21217,"lon":5.35052,"is_reserved":false,"is_disabled":false,"rental_uris":{"android":"levelo://app?vid=eee37b92-da8f-4086-9175-f308ed9ddece","ios":"levelo://app?vid=eee37b92-da8f-4086-9175-f308ed9ddece"},"vehicle_type_id":"4","last_reported":1750014438,"current_range_meters":8800,"station_id":"st_cvj6sg6p6f1abm77japg","pricing_plan_id":"cebpf4jnsgd1na2vs0mg"},{"bike_id":"275fae90-d601-4ef8-87d7-6aa8403d0ad5","system_id":"levelo_inurba_marseille","lat":43.21761,"lon":5.34592,"is_reserved":false,"is_disabled":false,"rental_uris":{"android":"levelo://app?vid=275fae90-d601-4ef8-87d7-6aa8403d0ad5","ios":"levelo://app?vid=275fae90-d601-4ef8-87d7-6aa8403d0ad5"},"vehicle_type_id":"4","last_reported":1750014438,"current_range_meters":9200,"station_id":"","pricing_plan_id":"cebpf4jnsgd1na2vs0mg"},{"bike_id":"4bc78641-4d17-41ec-8d24-5a883318f70f","system_id":"levelo_inurba_marseille","lat":43.29554,"lon":5.42291,"is_reserved":false,"is_disabled":false,"rental_uris":{"android":"levelo://app?vid=4bc78641-4d17-41ec-8d24-5a883318f70f","ios":"levelo://app?vid=4bc78641-4d17-41ec-8d24-5a883318f70f"},"vehicle_type_id":"4","last_reported":1750014438,"current_range_meters":9200,"station_id":"ce4bhph2rcd13ifvqhdg","pricing_plan_id":"cebpf4jnsgd1na2vs0mg"},{"bike_id":"bac285e7-c068-4764-9660-eb5a5218ed83","system_id":"levelo_inurba_marseille","lat":43.32116,"lon":5.36779,"is_reserved":false,"is_disabled":false,"rental_uris":{"android":"levelo://app?vid=bac285e7-c068-4764-9660-eb5a5218ed83","ios":"levelo://app?vid=bac285e7-c068-4764-9660-eb5a5218ed83"},"vehicle_type_id":"4","last_reported":1750014438,"current_range_meters":9200,"station_id":"ce4bhrh2rcd13ifvqhug","pricing_plan_id":"cebpf4jnsgd1na2vs0mg"},{"bike_id":"ac466850-9a61-464b-b6df-c6eef6e07763","system_id":"levelo_inurba_marseille","lat":43.21752,"lon":5.34599,"is_reserved":false,"is_disabled":true,"rental_uris":{"android":"levelo://app?vid=ac466850-9a61-464b-b6df-c6eef6e07763","ios":"levelo://app?vid=ac466850-9a61-464b-b6df-c6eef6e07763"},"vehicle_type_id":"4","last_reported":1750014438,"current_range_meters":9200,"station_id":"st_cvj6r9ubvosntc0bgbag","pricing_plan_id":"cebpf4jnsgd1na2vs0mg"},{"bike_id":"d97dc030-8405-4eb1-abbf-845730c8e3dc","system_id":"levelo_inurba_marseille","lat":43.21191,"lon":5.35068,"is_reserved":false,"is_disabled":false,"rental_uris":{"android":"levelo://app?vid=d97dc030-8405-4eb1-abbf-845730c8e3dc","ios":"levelo://app?vid=d97dc030-8405-4eb1-abbf-845730c8e3dc"},"vehicle_type_id":"4","last_reported":1750014438,"current_range_meters":9200,"station_id":"st_cvj6sg6p6f1abm77japg","pricing_plan_id":"cebpf4jnsgd1na2vs0mg"},{"bike_id":"387d1fed-118c-437b-bd55-020621253e35","system_id":"levelo_inurba_marseille","lat":43.241,"lon":5.36834,"is_reserved":false,"is_disabled":false,"rental_uris":{"android":"levelo://app?vid=387d1fed-118c-437b-bd55-020621253e35","ios":"levelo://app?vid=387d1fed-118c-437b-bd55-020621253e35"},"vehicle_type_id":"4","last_reported":1750014438,"current_range_meters":9600,"station_id":"","pricing_plan_id":"cebpf4jnsgd1na2vs0mg"},{"bike_id":"10f85899-1f3c-4f05-bb02-7b855b615cf4","system_id":"levelo_inurba_marseille","lat":43.24661,"lon":5.38163,"is_reserved":false,"is_disabled":false,"rental_uris":{"android":"levelo://app?vid=10f85899-1f3c-4f05-bb02-7b855b615cf4","ios":"levelo://app?vid=10f85899-1f3c-4f05-bb02-7b855b615cf4"},"vehicle_type_id":"4","last_reported":1750014438,"current_range_meters":9600,"station_id":"ce4bhih2rcd13ifvqfr0","pricing_plan_id":"cebpf4jnsgd1na2vs0mg"},{"bike_id":"a112d53b-ad54-4060-8f8e-fad339f5de6e","system_id":"levelo_inurba_marseille","lat":43.21198,"lon":5.35068,"is_reserved":false,"is_disabled":false,"rental_uris":{"android":"levelo://app?vid=a112d53b-ad54-4060-8f8e-fad339f5de6e","ios":"levelo://app?vid=a112d53b-ad54-4060-8f8e-fad339f5de6e"},"vehicle_type_id":"4","last_reported":1750014438,"current_range_meters":9600,"station_id":"st_cvj6sg6p6f1abm77japg","pricing_plan_id":"cebpf4jnsgd1na2vs0mg"},{"bike_id":"0898f570-5cf0-4b53-a90b-cd7e76762474","system_id":"levelo_inurba_marseille","lat":43.30263,"lon":5.40084,"is_reserved":false,"is_disabled":false,"rental_uris":{"android":"levelo://app?vid=0898f570-5cf0-4b53-a90b-cd7e76762474","ios":"levelo://app?vid=0898f570-5cf0-4b53-a90b-cd7e76762474"},"vehicle_type_id":"4","last_reported":1750014438,"current_range_meters":10000,"station_id":"ce4bgvh2rcd13ifvqcs0","pricing_plan_id":"cebpf4jnsgd1na2vs0mg"},{"bike_id":"dbc70c9d-315c-45d1-b728-4d217314d477","system_id":"levelo_inurba_marseille","lat":43.29422,"lon":5.38634,"is_reserved":false,"is_disabled":false,"rental_uris":{"android":"levelo://app?vid=dbc70c9d-315c-45d1-b728-4d217314d477","ios":"levelo://app?vid=dbc70c9d-315c-45d1-b728-4d217314d477"},"vehicle_type_id":"4","last_reported":1750014438,"current_range_meters":10000,"station_id":"ce4bh2h2rcd13ifvqdh0","pricing_plan_id":"cebpf4jnsgd1na2vs0mg"},{"bike_id":"c7364910-c5b6-463c-a8db-fdceb3a7742c","system_id":"levelo_inurba_marseille","lat":43.29264,"lon":5.38435,"is_reserved":false,"is_disabled":false,"rental_uris":{"android":"levelo://app?vid=c7364910-c5b6-463c-a8db-fdceb3a7742c","ios":"levelo://app?vid=c7364910-c5b6-463c-a8db-fdceb3a7742c"},"vehicle_type_id":"4","last_reported":1750014438,"current_range_meters":10000,"station_id":"ce4bh692rcd13ifvqea0","pricing_plan_id":"cebpf4jnsgd1na2vs0mg"},{"bike_id":"d466030e-288a-4dc6-befe-6e0661cea7cf","system_id":"levelo_inurba_marseille","lat":43.28021,"lon":5.36947,"is_reserved":false,"is_disabled":false,"rental_uris":{"android":"levelo://app?vid=d466030e-288a-4dc6-befe-6e0661cea7cf","ios":"levelo://app?vid=d466030e-288a-4dc6-befe-6e0661cea7cf"},"vehicle_type_id":"4","last_reported":1750014438,"current_range_meters":10000,"station_id":"ce4bha12rcd13ifvqef0","pricing_plan_id":"cebpf4jnsgd1na2vs0mg"},{"bike_id":"98188997-2bb2-4976-9df6-486350f8d8cf","system_id":"levelo_inurba_marseille","lat":43.31719,"lon":5.42393,"is_reserved":false,"is_disabled":false,"rental_uris":{"android":"levelo://app?vid=98188997-2bb2-4976-9df6-486350f8d8cf","ios":"levelo://app?vid=98188997-2bb2-4976-9df6-486350f8d8cf"},"vehicle_type_id":"4","last_reported":1750014438,"current_range_meters":10000,"station_id":"ce4bhp92rcd13ifvqhbg","pricing_plan_id":"cebpf4jnsgd1na2vs0mg"},{"bike_id":"d8a4f7b4-052d-4bce-ae83-b9167311e0ea","system_id":"levelo_inurba_marseille","lat":43.21204,"lon":5.3507,"is_reserved":false,"is_disabled":false,"rental_uris":{"android":"levelo://app?vid=d8a4f7b4-052d-4bce-ae83-b9167311e0ea","ios":"levelo://app?vid=d8a4f7b4-052d-4bce-ae83-b9167311e0ea"},"vehicle_type_id":"4","last_reported":1750014438,"current_range_meters":10000,"station_id":"st_cvj6sg6p6f1abm77japg","pricing_plan_id":"cebpf4jnsgd1na2vs0mg"},{"bike_id":"bf61062e-31f1-4a6f-8966-c2c74d688473","system_id":"levelo_inurba_marseille","lat":43.26937,"lon":5.39117,"is_reserved":false,"is_disabled":false,"rental_uris":{"android":"levelo://app?vid=bf61062e-31f1-4a6f-8966-c2c74d688473","ios":"levelo://app?vid=bf61062e-31f1-4a6f-8966-c2c74d688473"},"vehicle_type_id":"4","last_reported":1750014438,"current_range_meters":10800,"station_id":"","pricing_plan_id":"cebpf4jnsgd1na2vs0mg"},{"bike_id":"9db533b3-1d99-47c4-a986-1208e6757d59","system_id":"levelo_inurba_marseille","lat":43.30888,"lon":5.39667,"is_reserved":false,"is_disabled":false,"rental_uris":{"android":"levelo://app?vid=9db533b3-1d99-47c4-a986-1208e6757d59","ios":"levelo://app?vid=9db533b3-1d99-47c4-a986-1208e6757d59"},"vehicle_type_id":"4","last_reported":1750014438,"current_range_meters":10800,"station_id":"ce4bh012rcd13ifvqcv0","pricing_plan_id":"cebpf4jnsgd1na2vs0mg"},{"bike_id":"323bc9ea-cb3a-4937-974b-e66525be08e1","system_id":"levelo_inurba_marseille","lat":43.29513,"lon":5.39406,"is_reserved":false,"is_disabled":false,"rental_uris":{"android":"levelo://app?vid=323bc9ea-cb3a-4937-974b-e66525be08e1","ios":"levelo://app?vid=323bc9ea-cb3a-4937-974b-e66525be08e1"},"vehicle_type_id":"4","last_reported":1750014438,"current_range_meters":10800,"station_id":"ce4bh292rcd13ifvqdf0","pricing_plan_id":"cebpf4jnsgd1na2vs0mg"},{"bike_id":"198ad2e3-953f-4ed7-a996-192cbef9069c","system_id":"levelo_inurba_marseille","lat":43.28561,"lon":5.39496,"is_reserved":false,"is_disabled":false,"rental_uris":{"android":"levelo://app?vid=198ad2e3-953f-4ed7-a996-192cbef9069c","ios":"levelo://app?vid=198ad2e3-953f-4ed7-a996-192cbef9069c"},"vehicle_type_id":"4","last_reported":1750014438,"current_range_meters":10800,"station_id":"ce4bh292rcd13ifvqdg0","pricing_plan_id":"cebpf4jnsgd1na2vs0mg"},{"bike_id":"2957e62e-2618-4bcc-ad72-7d1bfb6befd3","system_id":"levelo_inurba_marseille","lat":43.29464,"lon":5.38795,"is_reserved":false,"is_disabled":false,"rental_uris":{"android":"levelo://app?vid=2957e62e-2618-4bcc-ad72-7d1bfb6befd3","ios":"levelo://app?vid=2957e62e-2618-4bcc-ad72-7d1bfb6befd3"},"vehicle_type_id":"4","last_reported":1750014438,"current_range_meters":11200,"station_id":"","pricing_plan_id":"cebpf4jnsgd1na2vs0mg"},{"bike_id":"515f5060-f5b1-4396-ae5c-97f556afffc8","system_id":"levelo_inurba_marseille","lat":43.30538,"lon":5.38434,"is_reserved":false,"is_disabled":false,"rental_uris":{"android":"levelo://app?vid=515f5060-f5b1-4396-ae5c-97f556afffc8","ios":"levelo://app?vid=515f5060-f5b1-4396-ae5c-97f556afffc8"},"vehicle_type_id":"4","last_reported":1750014438,"current_range_meters":11200,"station_id":"ce4bgg92rcd13ifvqb30","pricing_plan_id":"cebpf4jnsgd1na2vs0mg"},{"bike_id":"6b5de963-a57e-4f78-a3c4-3d898c54c045","system_id":"levelo_inurba_marseille","lat":43.2319,"lon":5.39988,"is_reserved":false,"is_disabled":false,"rental_uris":{"android":"levelo://app?vid=6b5de963-a57e-4f78-a3c4-3d898c54c045","ios":"levelo://app?vid=6b5de963-a57e-4f78-a3c4-3d898c54c045"},"vehicle_type_id":"4","last_reported":1750014438,"current_range_meters":11200,"station_id":"ce4bhn12rcd13ifvqgqg","pricing_plan_id":"cebpf4jnsgd1na2vs0mg"},{"bike_id":"3c4d4cd2-050e-46ac-85d6-64baa38305d9","system_id":"levelo_inurba_marseille","lat":43.23211,"lon":5.35547,"is_reserved":false,"is_disabled":false,"rental_uris":{"android":"levelo://app?vid=3c4d4cd2-050e-46ac-85d6-64baa38305d9","ios":"levelo://app?vid=3c4d4cd2-050e-46ac-85d6-64baa38305d9"},"vehicle_type_id":"4","last_reported":1750014438,"current_range_meters":11200,"station_id":"ce4bhu92rcd13ifvqi70","pricing_plan_id":"cebpf4jnsgd1na2vs0mg"},{"bike_id":"7f366ca8-525b-4d7a-b871-2cb6dce50520","system_id":"levelo_inurba_marseille","lat":43.260631,"lon":5.393931,"is_reserved":false,"is_disabled":false,"rental_uris":{"android":"levelo://app?vid=7f366ca8-525b-4d7a-b871-2cb6dce50520","ios":"levelo://app?vid=7f366ca8-525b-4d7a-b871-2cb6dce50520"},"vehicle_type_id":"4","last_reported":1750014438,"current_range_meters":11600,"station_id":"ce4bhh92rcd13ifvqfj0","pricing_plan_id":"cebpf4jnsgd1na2vs0mg"},{"bike_id":"8520b270-81fa-42e3-83fa-dd27cc28f95e","system_id":"levelo_inurba_marseille","lat":43.27681,"lon":5.38893,"is_reserved":false,"is_disabled":false,"rental_uris":{"android":"levelo://app?vid=8520b270-81fa-42e3-83fa-dd27cc28f95e","ios":"levelo://app?vid=8520b270-81fa-42e3-83fa-dd27cc28f95e"},"vehicle_type_id":"4","last_reported":1750014438,"current_range_meters":11600,"station_id":"ce4bhi12rcd13ifvqfo0","pricing_plan_id":"cebpf4jnsgd1na2vs0mg"},{"bike_id":"396c4775-6efd-4fd1-adb3-80a1d4f74eab","system_id":"levelo_inurba_marseille","lat":43.26941,"lon":5.40258,"is_reserved":false,"is_disabled":false,"rental_uris":{"android":"levelo://app?vid=396c4775-6efd-4fd1-adb3-80a1d4f74eab","ios":"levelo://app?vid=396c4775-6efd-4fd1-adb3-80a1d4f74eab"},"vehicle_type_id":"4","last_reported":1750014438,"current_range_meters":11600,"station_id":"cjm6bp8fraef2m0cb0m0","pricing_plan_id":"cebpf4jnsgd1na2vs0mg"},{"bike_id":"73d2bea6-f99d-4671-8954-580edff743bc","system_id":"levelo_inurba_marseille","lat":43.21182,"lon":5.35081,"is_reserved":false,"is_disabled":false,"rental_uris":{"android":"levelo://app?vid=73d2bea6-f99d-4671-8954-580edff743bc","ios":"levelo://app?vid=73d2bea6-f99d-4671-8954-580edff743bc"},"vehicle_type_id":"4","last_reported":1750014438,"current_range_meters":11600,"station_id":"st_cvj6sg6p6f1abm77japg","pricing_plan_id":"cebpf4jnsgd1na2vs0mg"},{"bike_id":"35f04850-e512-49c2-8b54-022449aee064","system_id":"levelo_inurba_marseille","lat":43.27875,"lon":5.42448,"is_reserved":false,"is_disabled":false,"rental_uris":{"android":"levelo://app?vid=35f04850-e512-49c2-8b54-022449aee064","ios":"levelo://app?vid=35f04850-e512-49c2-8b54-022449aee064"},"vehicle_type_id":"4","last_reported":1750014438,"current_range_meters":12000,"station_id":"","pricing_plan_id":"cebpf4jnsgd1na2vs0mg"},{"bike_id":"9c27255c-7156-44cc-baa5-c769a1bcea96","system_id":"levelo_inurba_marseille","lat":43.2867,"lon":5.36354,"is_reserved":false,"is_disabled":false,"rental_uris":{"android":"levelo://app?vid=9c27255c-7156-44cc-baa5-c769a1bcea96","ios":"levelo://app?vid=9c27255c-7156-44cc-baa5-c769a1bcea96"},"vehicle_type_id":"4","last_reported":1750014438,"current_range_meters":12000,"station_id":"ce4bhah2rcd13ifvqej0","pricing_plan_id":"cebpf4jnsgd1na2vs0mg"},{"bike_id":"8d05a31a-b27b-46ed-87f5-b4621a005fa9","system_id":"levelo_inurba_marseille","lat":43.23197,"lon":5.35548,"is_reserved":false,"is_disabled":false,"rental_uris":{"android":"levelo://app?vid=8d05a31a-b27b-46ed-87f5-b4621a005fa9","ios":"levelo://app?vid=8d05a31a-b27b-46ed-87f5-b4621a005fa9"},"vehicle_type_id":"4","last_reported":1750014438,"current_range_meters":12400,"station_id":"ce4bhu92rcd13ifvqi70","pricing_plan_id":"cebpf4jnsgd1na2vs0mg"},{"bike_id":"2319ce10-a51c-42ad-ad50-827b68e4f300","system_id":"levelo_inurba_marseille","lat":43.29728,"lon":5.38039,"is_reserved":false,"is_disabled":false,"rental_uris":{"android":"levelo://app?vid=2319ce10-a51c-42ad-ad50-827b68e4f300","ios":"levelo://app?vid=2319ce10-a51c-42ad-ad50-827b68e4f300"},"vehicle_type_id":"4","last_reported":1750014438,"current_range_meters":12800,"station_id":"","pricing_plan_id":"cebpf4jnsgd1na2vs0mg"},{"bike_id":"6ced20cc-3013-4f30-bf06-e7541bcfc4ad","system_id":"levelo_inurba_marseille","lat":43.29422,"lon":5.38627,"is_reserved":false,"is_disabled":false,"rental_uris":{"android":"levelo://app?vid=6ced20cc-3013-4f30-bf06-e7541bcfc4ad","ios":"levelo://app?vid=6ced20cc-3013-4f30-bf06-e7541bcfc4ad"},"vehicle_type_id":"4","last_reported":1750014438,"current_range_meters":12800,"station_id":"ce4bh2h2rcd13ifvqdh0","pricing_plan_id":"cebpf4jnsgd1na2vs0mg"},{"bike_id":"49eace2d-87b3-4093-aa13-b16a773f712b","system_id":"levelo_inurba_marseille","lat":43.288495,"lon":5.393069,"is_reserved":false,"is_disabled":false,"rental_uris":{"android":"levelo://app?vid=49eace2d-87b3-4093-aa13-b16a773f712b","ios":"levelo://app?vid=49eace2d-87b3-4093-aa13-b16a773f712b"},"vehicle_type_id":"4","last_reported":1750014438,"current_range_meters":12800,"station_id":"ce4bh2p2rcd13ifvqdi0","pricing_plan_id":"cebpf4jnsgd1na2vs0mg"},{"bike_id":"0dbc12fb-b9ee-432f-9929-efa7fde2704f","system_id":"levelo_inurba_marseille","lat":43.29022,"lon":5.38151,"is_reserved":false,"is_disabled":false,"rental_uris":{"android":"levelo://app?vid=0dbc12fb-b9ee-432f-9929-efa7fde2704f","ios":"levelo://app?vid=0dbc12fb-b9ee-432f-9929-efa7fde2704f"},"vehicle_type_id":"4","last_reported":1750014438,"current_range_meters":12800,"station_id":"ce4bh4p2rcd13ifvqe1g","pricing_plan_id":"cebpf4jnsgd1na2vs0mg"},{"bike_id":"060b4b49-1c05-48ba-9f11-13b4737acf8d","system_id":"levelo_inurba_marseille","lat":43.2926,"lon":5.38434,"is_reserved":false,"is_disabled":false,"rental_uris":{"android":"levelo://app?vid=060b4b49-1c05-48ba-9f11-13b4737acf8d","ios":"levelo://app?vid=060b4b49-1c05-48ba-9f11-13b4737acf8d"},"vehicle_type_id":"4","last_reported":1750014438,"current_range_meters":12800,"station_id":"ce4bh692rcd13ifvqea0","pricing_plan_id":"cebpf4jnsgd1na2vs0mg"},{"bike_id":"bad824e5-b994-4dfd-b957-52ab71e0110b","system_id":"levelo_inurba_marseille","lat":43.31877,"lon":5.40737,"is_reserved":false,"is_disabled":false,"rental_uris":{"android":"levelo://app?vid=bad824e5-b994-4dfd-b957-52ab71e0110b","ios":"levelo://app?vid=bad824e5-b994-4dfd-b957-52ab71e0110b"},"vehicle_type_id":"4","last_reported":1750014438,"current_range_meters":12800,"station_id":"ce4bhq12rcd13ifvqhig","pricing_plan_id":"cebpf4jnsgd1na2vs0mg"},{"bike_id":"23a94eab-e6f9-4e49-a3ee-157d1c3c865e","system_id":"levelo_inurba_marseille","lat":43.32661,"lon":5.40991,"is_reserved":false,"is_disabled":false,"rental_uris":{"android":"levelo://app?vid=23a94eab-e6f9-4e49-a3ee-157d1c3c865e","ios":"levelo://app?vid=23a94eab-e6f9-4e49-a3ee-157d1c3c865e"},"vehicle_type_id":"4","last_reported":1750014438,"current_range_meters":13600,"station_id":"ce4bhpp2rcd13ifvqhgg","pricing_plan_id":"cebpf4jnsgd1na2vs0mg"},{"bike_id":"f95bb94e-610c-4a77-87ed-874b8292a9a6","system_id":"levelo_inurba_marseille","lat":43.31757,"lon":5.39017,"is_reserved":false,"is_disabled":false,"rental_uris":{"android":"levelo://app?vid=f95bb94e-610c-4a77-87ed-874b8292a9a6","ios":"levelo://app?vid=f95bb94e-610c-4a77-87ed-874b8292a9a6"},"vehicle_type_id":"4","last_reported":1750014438,"current_range_meters":13600,"station_id":"ce4bhqp2rcd13ifvqhng","pricing_plan_id":"cebpf4jnsgd1na2vs0mg"},{"bike_id":"5bf19c18-d0ad-489b-bd15-9440a1d65b2d","system_id":"levelo_inurba_marseille","lat":43.211865,"lon":5.350738,"is_reserved":false,"is_disabled":false,"rental_uris":{"android":"levelo://app?vid=5bf19c18-d0ad-489b-bd15-9440a1d65b2d","ios":"levelo://app?vid=5bf19c18-d0ad-489b-bd15-9440a1d65b2d"},"vehicle_type_id":"4","last_reported":1750014438,"current_range_meters":13600,"station_id":"st_cvj6sg6p6f1abm77japg","pricing_plan_id":"cebpf4jnsgd1na2vs0mg"},{"bike_id":"a3314fa1-d8cf-4847-946a-7595d70f87ad","system_id":"levelo_inurba_marseille","lat":43.28761,"lon":5.36178,"is_reserved":false,"is_disabled":false,"rental_uris":{"android":"levelo://app?vid=a3314fa1-d8cf-4847-946a-7595d70f87ad","ios":"levelo://app?vid=a3314fa1-d8cf-4847-946a-7595d70f87ad"},"vehicle_type_id":"4","last_reported":1750014438,"current_range_meters":14000,"station_id":"","pricing_plan_id":"cebpf4jnsgd1na2vs0mg"},{"bike_id":"b09de4b1-206d-43c5-964d-fffeaca7f88a","system_id":"levelo_inurba_marseille","lat":43.29074,"lon":5.37164,"is_reserved":false,"is_disabled":false,"rental_uris":{"android":"levelo://app?vid=b09de4b1-206d-43c5-964d-fffeaca7f88a","ios":"levelo://app?vid=b09de4b1-206d-43c5-964d-fffeaca7f88a"},"vehicle_type_id":"4","last_reported":1750014438,"current_range_meters":14000,"station_id":"ce4bh5p2rcd13ifvqe4g","pricing_plan_id":"cebpf4jnsgd1na2vs0mg"},{"bike_id":"90123311-0c3b-4be5-a80d-a087b986e37a","system_id":"levelo_inurba_marseille","lat":43.25002,"lon":5.38924,"is_reserved":false,"is_disabled":false,"rental_uris":{"android":"levelo://app?vid=90123311-0c3b-4be5-a80d-a087b986e37a","ios":"levelo://app?vid=90123311-0c3b-4be5-a80d-a087b986e37a"},"vehicle_type_id":"4","last_reported":1750014438,"current_range_meters":14000,"station_id":"ce4bhgp2rcd13ifvqfd0","pricing_plan_id":"cebpf4jnsgd1na2vs0mg"},{"bike_id":"f498bf19-0232-48bc-a273-fa2a19f8c3b2","system_id":"levelo_inurba_marseille","lat":43.26795,"lon":5.39409,"is_reserved":false,"is_disabled":false,"rental_uris":{"android":"levelo://app?vid=f498bf19-0232-48bc-a273-fa2a19f8c3b2","ios":"levelo://app?vid=f498bf19-0232-48bc-a273-fa2a19f8c3b2"},"vehicle_type_id":"4","last_reported":1750014438,"current_range_meters":14000,"station_id":"ce4bhh12rcd13ifvqfg0","pricing_plan_id":"cebpf4jnsgd1na2vs0mg"},{"bike_id":"0f037b0a-9745-49e5-970c-16e4bd761baa","system_id":"levelo_inurba_marseille","lat":43.25115,"lon":5.40322,"is_reserved":false,"is_disabled":false,"rental_uris":{"android":"levelo://app?vid=0f037b0a-9745-49e5-970c-16e4bd761baa","ios":"levelo://app?vid=0f037b0a-9745-49e5-970c-16e4bd761baa"},"vehicle_type_id":"4","last_reported":1750014438,"current_range_meters":14400,"station_id":"ce4bhlh2rcd13ifvqgig","pricing_plan_id":"cebpf4jnsgd1na2vs0mg"},{"bike_id":"cae08f8a-9511-476d-9ad2-fc5efb61a8eb","system_id":"levelo_inurba_marseille","lat":43.21556,"lon":5.34721,"is_reserved":false,"is_disabled":false,"rental_uris":{"android":"levelo://app?vid=cae08f8a-9511-476d-9ad2-fc5efb61a8eb","ios":"levelo://app?vid=cae08f8a-9511-476d-9ad2-fc5efb61a8eb"},"vehicle_type_id":"4","last_reported":1750014438,"current_range_meters":14800,"station_id":"","pricing_plan_id":"cebpf4jnsgd1na2vs0mg"},{"bike_id":"0fe8d47d-0db3-437d-9239-f712b4736eb4","system_id":"levelo_inurba_marseille","lat":43.32093,"lon":5.36775,"is_reserved":false,"is_disabled":false,"rental_uris":{"android":"levelo://app?vid=0fe8d47d-0db3-437d-9239-f712b4736eb4","ios":"levelo://app?vid=0fe8d47d-0db3-437d-9239-f712b4736eb4"},"vehicle_type_id":"4","last_reported":1750014438,"current_range_meters":14800,"station_id":"ce4bhrh2rcd13ifvqhug","pricing_plan_id":"cebpf4jnsgd1na2vs0mg"},{"bike_id":"9a0c3f99-8244-4ee9-a116-a84f3fe33d04","system_id":"levelo_inurba_marseille","lat":43.23205,"lon":5.35556,"is_reserved":false,"is_disabled":false,"rental_uris":{"android":"levelo://app?vid=9a0c3f99-8244-4ee9-a116-a84f3fe33d04","ios":"levelo://app?vid=9a0c3f99-8244-4ee9-a116-a84f3fe33d04"},"vehicle_type_id":"4","last_reported":1750014438,"current_range_meters":14800,"station_id":"ce4bhu92rcd13ifvqi70","pricing_plan_id":"cebpf4jnsgd1na2vs0mg"},{"bike_id":"91753df6-b383-4702-8414-24237e81fab8","system_id":"levelo_inurba_marseille","lat":43.24457,"lon":5.37159,"is_reserved":false,"is_disabled":false,"rental_uris":{"android":"levelo://app?vid=91753df6-b383-4702-8414-24237e81fab8","ios":"levelo://app?vid=91753df6-b383-4702-8414-24237e81fab8"},"vehicle_type_id":"4","last_reported":1750014438,"current_range_meters":15200,"station_id":"","pricing_plan_id":"cebpf4jnsgd1na2vs0mg"},{"bike_id":"97f8851e-21a3-4c6a-8d82-1c239c500fcb","system_id":"levelo_inurba_marseille","lat":43.273777,"lon":5.362576,"is_reserved":false,"is_disabled":false,"rental_uris":{"android":"levelo://app?vid=97f8851e-21a3-4c6a-8d82-1c239c500fcb","ios":"levelo://app?vid=97f8851e-21a3-4c6a-8d82-1c239c500fcb"},"vehicle_type_id":"4","last_reported":1750014438,"current_range_meters":15200,"station_id":"","pricing_plan_id":"cebpf4jnsgd1na2vs0mg"},{"bike_id":"49576848-0c83-47eb-9f4d-d2b4d2e8e388","system_id":"levelo_inurba_marseille","lat":43.2981,"lon":5.38091,"is_reserved":false,"is_disabled":false,"rental_uris":{"android":"levelo://app?vid=49576848-0c83-47eb-9f4d-d2b4d2e8e388","ios":"levelo://app?vid=49576848-0c83-47eb-9f4d-d2b4d2e8e388"},"vehicle_type_id":"4","last_reported":1750014438,"current_range_meters":15200,"station_id":"ce4bgip2rcd13ifvqbb0","pricing_plan_id":"cebpf4jnsgd1na2vs0mg"},{"bike_id":"c087248b-5de1-4e9d-a121-b8fc37681306","system_id":"levelo_inurba_marseille","lat":43.29974,"lon":5.38491,"is_reserved":false,"is_disabled":false,"rental_uris":{"android":"levelo://app?vid=c087248b-5de1-4e9d-a121-b8fc37681306","ios":"levelo://app?vid=c087248b-5de1-4e9d-a121-b8fc37681306"},"vehicle_type_id":"4","last_reported":1750014438,"current_range_meters":15200,"station_id":"ce4bgj92rcd13ifvqbd0","pricing_plan_id":"cebpf4jnsgd1na2vs0mg"},{"bike_id":"5c1ab5b3-c079-49f1-8c8e-ec9d7125ef10","system_id":"levelo_inurba_marseille","lat":43.30593,"lon":5.39336,"is_reserved":false,"is_disabled":false,"rental_uris":{"android":"levelo://app?vid=5c1ab5b3-c079-49f1-8c8e-ec9d7125ef10","ios":"levelo://app?vid=5c1ab5b3-c079-49f1-8c8e-ec9d7125ef10"},"vehicle_type_id":"4","last_reported":1750014438,"current_range_meters":15200,"station_id":"ce4bh0p2rcd13ifvqd80","pricing_plan_id":"cebpf4jnsgd1na2vs0mg"},{"bike_id":"38e08ec6-738b-4a04-a092-dec10c6891d3","system_id":"levelo_inurba_marseille","lat":43.26877,"lon":5.40687,"is_reserved":false,"is_disabled":false,"rental_uris":{"android":"levelo://app?vid=38e08ec6-738b-4a04-a092-dec10c6891d3","ios":"levelo://app?vid=38e08ec6-738b-4a04-a092-dec10c6891d3"},"vehicle_type_id":"4","last_reported":1750014438,"current_range_meters":16000,"station_id":"","pricing_plan_id":"cebpf4jnsgd1na2vs0mg"},{"bike_id":"724caf0a-a332-4c79-8ade-ed4cdbc1a79b","system_id":"levelo_inurba_marseille","lat":43.31322,"lon":5.39705,"is_reserved":false,"is_disabled":false,"rental_uris":{"android":"levelo://app?vid=724caf0a-a332-4c79-8ade-ed4cdbc1a79b","ios":"levelo://app?vid=724caf0a-a332-4c79-8ade-ed4cdbc1a79b"},"vehicle_type_id":"4","last_reported":1750014438,"current_range_meters":16000,"station_id":"ce4bgvp2rcd13ifvqcu0","pricing_plan_id":"cebpf4jnsgd1na2vs0mg"},{"bike_id":"28a4af07-b22d-428b-b25a-4422731f0622","system_id":"levelo_inurba_marseille","lat":43.26065,"lon":5.39416,"is_reserved":false,"is_disabled":false,"rental_uris":{"android":"levelo://app?vid=28a4af07-b22d-428b-b25a-4422731f0622","ios":"levelo://app?vid=28a4af07-b22d-428b-b25a-4422731f0622"},"vehicle_type_id":"4","last_reported":1750014438,"current_range_meters":16000,"station_id":"ce4bhh92rcd13ifvqfj0","pricing_plan_id":"cebpf4jnsgd1na2vs0mg"},{"bike_id":"6ab6b5e9-2b2f-476c-861d-e735f21df255","system_id":"levelo_inurba_marseille","lat":43.26234,"lon":5.4045,"is_reserved":false,"is_disabled":false,"rental_uris":{"android":"levelo://app?vid=6ab6b5e9-2b2f-476c-861d-e735f21df255","ios":"levelo://app?vid=6ab6b5e9-2b2f-476c-861d-e735f21df255"},"vehicle_type_id":"4","last_reported":1750014438,"current_range_meters":16000,"station_id":"ce4bhmh2rcd13ifvqgmg","pricing_plan_id":"cebpf4jnsgd1na2vs0mg"},{"bike_id":"83b882ef-55c9-4c2b-87a5-d87615622e30","system_id":"levelo_inurba_marseille","lat":43.32333,"lon":5.40624,"is_reserved":false,"is_disabled":false,"rental_uris":{"android":"levelo://app?vid=83b882ef-55c9-4c2b-87a5-d87615622e30","ios":"levelo://app?vid=83b882ef-55c9-4c2b-87a5-d87615622e30"},"vehicle_type_id":"4","last_reported":1750014438,"current_range_meters":16000,"station_id":"ce4bhq92rcd13ifvqhjg","pricing_plan_id":"cebpf4jnsgd1na2vs0mg"},{"bike_id":"ca404674-a7bb-4909-82c7-65fa93f0b6de","system_id":"levelo_inurba_marseille","lat":43.2119,"lon":5.35066,"is_reserved":false,"is_disabled":false,"rental_uris":{"android":"levelo://app?vid=ca404674-a7bb-4909-82c7-65fa93f0b6de","ios":"levelo://app?vid=ca404674-a7bb-4909-82c7-65fa93f0b6de"},"vehicle_type_id":"4","last_reported":1750014438,"current_range_meters":16000,"station_id":"st_cvj6sg6p6f1abm77japg","pricing_plan_id":"cebpf4jnsgd1na2vs0mg"},{"bike_id":"9f67ff39-2b86-422f-94a3-730fe36fa592","system_id":"levelo_inurba_marseille","lat":43.25076,"lon":5.39523,"is_reserved":false,"is_disabled":false,"rental_uris":{"android":"levelo://app?vid=9f67ff39-2b86-422f-94a3-730fe36fa592","ios":"levelo://app?vid=9f67ff39-2b86-422f-94a3-730fe36fa592"},"vehicle_type_id":"4","last_reported":1750014438,"current_range_meters":16400,"station_id":"ce4bhm12rcd13ifvqgkg","pricing_plan_id":"cebpf4jnsgd1na2vs0mg"},{"bike_id":"1d9df16e-4abf-44d7-b6e8-a27dd4aa3ffb","system_id":"levelo_inurba_marseille","lat":43.23199,"lon":5.35545,"is_reserved":false,"is_disabled":false,"rental_uris":{"android":"levelo://app?vid=1d9df16e-4abf-44d7-b6e8-a27dd4aa3ffb","ios":"levelo://app?vid=1d9df16e-4abf-44d7-b6e8-a27dd4aa3ffb"},"vehicle_type_id":"4","last_reported":1750014438,"current_range_meters":16400,"station_id":"ce4bhu92rcd13ifvqi70","pricing_plan_id":"cebpf4jnsgd1na2vs0mg"},{"bike_id":"2d16d2b6-c684-45ab-831f-9a77e91e8afb","system_id":"levelo_inurba_marseille","lat":43.211906,"lon":5.350745,"is_reserved":false,"is_disabled":false,"rental_uris":{"android":"levelo://app?vid=2d16d2b6-c684-45ab-831f-9a77e91e8afb","ios":"levelo://app?vid=2d16d2b6-c684-45ab-831f-9a77e91e8afb"},"vehicle_type_id":"4","last_reported":1750014438,"current_range_meters":16400,"station_id":"st_cvj6sg6p6f1abm77japg","pricing_plan_id":"cebpf4jnsgd1na2vs0mg"},{"bike_id":"cdc7b1a5-e40c-4229-915a-1c5c87e8ac2e","system_id":"levelo_inurba_marseille","lat":43.33124,"lon":5.38184,"is_reserved":false,"is_disabled":false,"rental_uris":{"android":"levelo://app?vid=cdc7b1a5-e40c-4229-915a-1c5c87e8ac2e","ios":"levelo://app?vid=cdc7b1a5-e40c-4229-915a-1c5c87e8ac2e"},"vehicle_type_id":"4","last_reported":1750014438,"current_range_meters":16800,"station_id":"","pricing_plan_id":"cebpf4jnsgd1na2vs0mg"},{"bike_id":"44ded28a-80f1-4b31-ba8c-72302ba186cc","system_id":"levelo_inurba_marseille","lat":43.28576,"lon":5.35076,"is_reserved":false,"is_disabled":false,"rental_uris":{"android":"levelo://app?vid=44ded28a-80f1-4b31-ba8c-72302ba186cc","ios":"levelo://app?vid=44ded28a-80f1-4b31-ba8c-72302ba186cc"},"vehicle_type_id":"4","last_reported":1750014438,"current_range_meters":16800,"station_id":"","pricing_plan_id":"cebpf4jnsgd1na2vs0mg"},{"bike_id":"90484c4b-b3ec-450a-890b-9442ccfcd9de","system_id":"levelo_inurba_marseille","lat":43.29968,"lon":5.38498,"is_reserved":false,"is_disabled":false,"rental_uris":{"android":"levelo://app?vid=90484c4b-b3ec-450a-890b-9442ccfcd9de","ios":"levelo://app?vid=90484c4b-b3ec-450a-890b-9442ccfcd9de"},"vehicle_type_id":"4","last_reported":1750014438,"current_range_meters":16800,"station_id":"ce4bgj92rcd13ifvqbd0","pricing_plan_id":"cebpf4jnsgd1na2vs0mg"},{"bike_id":"8ab583e7-be0f-4939-84f5-8953e558533b","system_id":"levelo_inurba_marseille","lat":43.302567,"lon":5.400772,"is_reserved":false,"is_disabled":false,"rental_uris":{"android":"levelo://app?vid=8ab583e7-be0f-4939-84f5-8953e558533b","ios":"levelo://app?vid=8ab583e7-be0f-4939-84f5-8953e558533b"},"vehicle_type_id":"4","last_reported":1750014438,"current_range_meters":16800,"station_id":"ce4bgvh2rcd13ifvqcs0","pricing_plan_id":"cebpf4jnsgd1na2vs0mg"},{"bike_id":"ae2a394f-b39b-4c57-86dc-a8ad2df185e9","system_id":"levelo_inurba_marseille","lat":43.28727,"lon":5.37941,"is_reserved":false,"is_disabled":false,"rental_uris":{"android":"levelo://app?vid=ae2a394f-b39b-4c57-86dc-a8ad2df185e9","ios":"levelo://app?vid=ae2a394f-b39b-4c57-86dc-a8ad2df185e9"},"vehicle_type_id":"4","last_reported":1750014438,"current_range_meters":16800,"station_id":"ce4bh9p2rcd13ifvqec0","pricing_plan_id":"cebpf4jnsgd1na2vs0mg"},{"bike_id":"03763c60-3a67-4e39-a9c3-e820a982f1bc","system_id":"levelo_inurba_marseille","lat":43.26235,"lon":5.40452,"is_reserved":false,"is_disabled":false,"rental_uris":{"android":"levelo://app?vid=03763c60-3a67-4e39-a9c3-e820a982f1bc","ios":"levelo://app?vid=03763c60-3a67-4e39-a9c3-e820a982f1bc"},"vehicle_type_id":"4","last_reported":1750014438,"current_range_meters":16800,"station_id":"ce4bhmh2rcd13ifvqgmg","pricing_plan_id":"cebpf4jnsgd1na2vs0mg"},{"bike_id":"f28434d1-194e-4622-9753-27d65f03db0a","system_id":"levelo_inurba_marseille","lat":43.27994,"lon":5.40026,"is_reserved":false,"is_disabled":false,"rental_uris":{"android":"levelo://app?vid=f28434d1-194e-4622-9753-27d65f03db0a","ios":"levelo://app?vid=f28434d1-194e-4622-9753-27d65f03db0a"},"vehicle_type_id":"4","last_reported":1750014438,"current_range_meters":16800,"station_id":"ce4bho92rcd13ifvqh4g","pricing_plan_id":"cebpf4jnsgd1na2vs0mg"},{"bike_id":"7ba50793-ca78-46bf-b55e-7e1fa892287b","system_id":"levelo_inurba_marseille","lat":43.3014,"lon":5.39861,"is_reserved":false,"is_disabled":false,"rental_uris":{"android":"levelo://app?vid=7ba50793-ca78-46bf-b55e-7e1fa892287b","ios":"levelo://app?vid=7ba50793-ca78-46bf-b55e-7e1fa892287b"},"vehicle_type_id":"4","last_reported":1750014438,"current_range_meters":17200,"station_id":"ce4bh0h2rcd13ifvqd40","pricing_plan_id":"cebpf4jnsgd1na2vs0mg"},{"bike_id":"0e3e876c-1408-49f1-b89e-ec2cc9204de2","system_id":"levelo_inurba_marseille","lat":43.26506,"lon":5.39532,"is_reserved":false,"is_disabled":false,"rental_uris":{"android":"levelo://app?vid=0e3e876c-1408-49f1-b89e-ec2cc9204de2","ios":"levelo://app?vid=0e3e876c-1408-49f1-b89e-ec2cc9204de2"},"vehicle_type_id":"4","last_reported":1750014438,"current_range_meters":17200,"station_id":"ce4bhi12rcd13ifvqfq0","pricing_plan_id":"cebpf4jnsgd1na2vs0mg"},{"bike_id":"7183bf46-ab0e-45c2-8a6d-5d074d526ac0","system_id":"levelo_inurba_marseille","lat":43.24069,"lon":5.37741,"is_reserved":false,"is_disabled":false,"rental_uris":{"android":"levelo://app?vid=7183bf46-ab0e-45c2-8a6d-5d074d526ac0","ios":"levelo://app?vid=7183bf46-ab0e-45c2-8a6d-5d074d526ac0"},"vehicle_type_id":"4","last_reported":1750014438,"current_range_meters":17200,"station_id":"ce4bhnp2rcd13ifvqgvg","pricing_plan_id":"cebpf4jnsgd1na2vs0mg"},{"bike_id":"0d51830a-756f-4f39-bdf4-2fe9707991c7","system_id":"levelo_inurba_marseille","lat":43.21194,"lon":5.35066,"is_reserved":false,"is_disabled":false,"rental_uris":{"android":"levelo://app?vid=0d51830a-756f-4f39-bdf4-2fe9707991c7","ios":"levelo://app?vid=0d51830a-756f-4f39-bdf4-2fe9707991c7"},"vehicle_type_id":"4","last_reported":1750014438,"current_range_meters":17200,"station_id":"st_cvj6sg6p6f1abm77japg","pricing_plan_id":"cebpf4jnsgd1na2vs0mg"},{"bike_id":"384edf98-156d-4b16-af67-7712319498ad","system_id":"levelo_inurba_marseille","lat":43.29028,"lon":5.38649,"is_reserved":false,"is_disabled":false,"rental_uris":{"android":"levelo://app?vid=384edf98-156d-4b16-af67-7712319498ad","ios":"levelo://app?vid=384edf98-156d-4b16-af67-7712319498ad"},"vehicle_type_id":"4","last_reported":1750014438,"current_range_meters":17600,"station_id":"ce4bh4p2rcd13ifvqe0g","pricing_plan_id":"cebpf4jnsgd1na2vs0mg"},{"bike_id":"8d53d097-c7c9-49c5-a697-ea8b6ac90346","system_id":"levelo_inurba_marseille","lat":43.29267,"lon":5.38433,"is_reserved":false,"is_disabled":false,"rental_uris":{"android":"levelo://app?vid=8d53d097-c7c9-49c5-a697-ea8b6ac90346","ios":"levelo://app?vid=8d53d097-c7c9-49c5-a697-ea8b6ac90346"},"vehicle_type_id":"4","last_reported":1750014438,"current_range_meters":17600,"station_id":"ce4bh692rcd13ifvqea0","pricing_plan_id":"cebpf4jnsgd1na2vs0mg"},{"bike_id":"7b9010cb-65eb-4696-b39f-3538e90a6031","system_id":"levelo_inurba_marseille","lat":43.34182,"lon":5.3745,"is_reserved":false,"is_disabled":false,"rental_uris":{"android":"levelo://app?vid=7b9010cb-65eb-4696-b39f-3538e90a6031","ios":"levelo://app?vid=7b9010cb-65eb-4696-b39f-3538e90a6031"},"vehicle_type_id":"4","last_reported":1750014438,"current_range_meters":18000,"station_id":"","pricing_plan_id":"cebpf4jnsgd1na2vs0mg"},{"bike_id":"5ded8d26-9ed5-43bd-9f48-fe54ee941d94","system_id":"levelo_inurba_marseille","lat":43.3021,"lon":5.39471,"is_reserved":false,"is_disabled":false,"rental_uris":{"android":"levelo://app?vid=5ded8d26-9ed5-43bd-9f48-fe54ee941d94","ios":"levelo://app?vid=5ded8d26-9ed5-43bd-9f48-fe54ee941d94"},"vehicle_type_id":"4","last_reported":1750014438,"current_range_meters":18000,"station_id":"ce4bh0p2rcd13ifvqd70","pricing_plan_id":"cebpf4jnsgd1na2vs0mg"},{"bike_id":"f9de72c2-0951-4ee0-8d52-f0270a2fd45d","system_id":"levelo_inurba_marseille","lat":43.29438,"lon":5.3858,"is_reserved":false,"is_disabled":false,"rental_uris":{"android":"levelo://app?vid=f9de72c2-0951-4ee0-8d52-f0270a2fd45d","ios":"levelo://app?vid=f9de72c2-0951-4ee0-8d52-f0270a2fd45d"},"vehicle_type_id":"4","last_reported":1750014438,"current_range_meters":18000,"station_id":"ce4bh2h2rcd13ifvqdh0","pricing_plan_id":"cebpf4jnsgd1na2vs0mg"},{"bike_id":"84b43430-4d99-410c-abfb-327015b70be1","system_id":"levelo_inurba_marseille","lat":43.33142,"lon":5.38177,"is_reserved":false,"is_disabled":false,"rental_uris":{"android":"levelo://app?vid=84b43430-4d99-410c-abfb-327015b70be1","ios":"levelo://app?vid=84b43430-4d99-410c-abfb-327015b70be1"},"vehicle_type_id":"4","last_reported":1750014438,"current_range_meters":18800,"station_id":"","pricing_plan_id":"cebpf4jnsgd1na2vs0mg"},{"bike_id":"eb312711-0fdd-4be9-b12f-083d5b29e8ae","system_id":"levelo_inurba_marseille","lat":43.3133,"lon":5.3969,"is_reserved":false,"is_disabled":false,"rental_uris":{"android":"levelo://app?vid=eb312711-0fdd-4be9-b12f-083d5b29e8ae","ios":"levelo://app?vid=eb312711-0fdd-4be9-b12f-083d5b29e8ae"},"vehicle_type_id":"4","last_reported":1750014438,"current_range_meters":18800,"station_id":"ce4bgvp2rcd13ifvqcu0","pricing_plan_id":"cebpf4jnsgd1na2vs0mg"},{"bike_id":"afb51891-7343-440c-920e-05a16359c2ff","system_id":"levelo_inurba_marseille","lat":43.29567,"lon":5.39971,"is_reserved":false,"is_disabled":false,"rental_uris":{"android":"levelo://app?vid=afb51891-7343-440c-920e-05a16359c2ff","ios":"levelo://app?vid=afb51891-7343-440c-920e-05a16359c2ff"},"vehicle_type_id":"4","last_reported":1750014438,"current_range_meters":18800,"station_id":"ce4bh312rcd13ifvqdj0","pricing_plan_id":"cebpf4jnsgd1na2vs0mg"},{"bike_id":"b9eb8d5a-9ef5-4e5b-bb4f-04926a71c7ff","system_id":"levelo_inurba_marseille","lat":43.29252,"lon":5.38442,"is_reserved":false,"is_disabled":false,"rental_uris":{"android":"levelo://app?vid=b9eb8d5a-9ef5-4e5b-bb4f-04926a71c7ff","ios":"levelo://app?vid=b9eb8d5a-9ef5-4e5b-bb4f-04926a71c7ff"},"vehicle_type_id":"4","last_reported":1750014438,"current_range_meters":18800,"station_id":"ce4bh692rcd13ifvqea0","pricing_plan_id":"cebpf4jnsgd1na2vs0mg"},{"bike_id":"9a43b84d-6cf1-4a38-beb9-87f8b42f5867","system_id":"levelo_inurba_marseille","lat":43.27182,"lon":5.40983,"is_reserved":false,"is_disabled":false,"rental_uris":{"android":"levelo://app?vid=9a43b84d-6cf1-4a38-beb9-87f8b42f5867","ios":"levelo://app?vid=9a43b84d-6cf1-4a38-beb9-87f8b42f5867"},"vehicle_type_id":"4","last_reported":1750014438,"current_range_meters":18800,"station_id":"ce4bhl12rcd13ifvqgf0","pricing_plan_id":"cebpf4jnsgd1na2vs0mg"},{"bike_id":"6236337f-f2f2-4734-9d05-e21827a027fc","system_id":"levelo_inurba_marseille","lat":43.33013,"lon":5.3904,"is_reserved":false,"is_disabled":false,"rental_uris":{"android":"levelo://app?vid=6236337f-f2f2-4734-9d05-e21827a027fc","ios":"levelo://app?vid=6236337f-f2f2-4734-9d05-e21827a027fc"},"vehicle_type_id":"4","last_reported":1750014438,"current_range_meters":18800,"station_id":"ce4bhr92rcd13ifvqhrg","pricing_plan_id":"cebpf4jnsgd1na2vs0mg"},{"bike_id":"b200674b-2afa-40ff-b238-2359448b6baf","system_id":"levelo_inurba_marseille","lat":43.23209,"lon":5.35549,"is_reserved":false,"is_disabled":false,"rental_uris":{"android":"levelo://app?vid=b200674b-2afa-40ff-b238-2359448b6baf","ios":"levelo://app?vid=b200674b-2afa-40ff-b238-2359448b6baf"},"vehicle_type_id":"4","last_reported":1750014438,"current_range_meters":18800,"station_id":"ce4bhu92rcd13ifvqi70","pricing_plan_id":"cebpf4jnsgd1na2vs0mg"},{"bike_id":"6f904e79-074e-44f7-a4ee-8b0cd00a4a95","system_id":"levelo_inurba_marseille","lat":43.21198,"lon":5.3505,"is_reserved":false,"is_disabled":false,"rental_uris":{"android":"levelo://app?vid=6f904e79-074e-44f7-a4ee-8b0cd00a4a95","ios":"levelo://app?vid=6f904e79-074e-44f7-a4ee-8b0cd00a4a95"},"vehicle_type_id":"4","last_reported":1750014438,"current_range_meters":18800,"station_id":"st_cvj6sg6p6f1abm77japg","pricing_plan_id":"cebpf4jnsgd1na2vs0mg"},{"bike_id":"c937b220-d077-480a-817b-887f33f079c0","system_id":"levelo_inurba_marseille","lat":43.31778,"lon":5.37272,"is_reserved":false,"is_disabled":false,"rental_uris":{"android":"levelo://app?vid=c937b220-d077-480a-817b-887f33f079c0","ios":"levelo://app?vid=c937b220-d077-480a-817b-887f33f079c0"},"vehicle_type_id":"4","last_reported":1750014438,"current_range_meters":19200,"station_id":"","pricing_plan_id":"cebpf4jnsgd1na2vs0mg"},{"bike_id":"e2ce860c-0033-46cc-b595-52504ea1c216","system_id":"levelo_inurba_marseille","lat":43.31765,"lon":5.38774,"is_reserved":false,"is_disabled":false,"rental_uris":{"android":"levelo://app?vid=e2ce860c-0033-46cc-b595-52504ea1c216","ios":"levelo://app?vid=e2ce860c-0033-46cc-b595-52504ea1c216"},"vehicle_type_id":"4","last_reported":1750014438,"current_range_meters":19200,"station_id":"","pricing_plan_id":"cebpf4jnsgd1na2vs0mg"},{"bike_id":"b31d3165-d5e1-4bc6-a607-ca1a1c981148","system_id":"levelo_inurba_marseille","lat":43.27578,"lon":5.41751,"is_reserved":false,"is_disabled":false,"rental_uris":{"android":"levelo://app?vid=b31d3165-d5e1-4bc6-a607-ca1a1c981148","ios":"levelo://app?vid=b31d3165-d5e1-4bc6-a607-ca1a1c981148"},"vehicle_type_id":"4","last_reported":1750014438,"current_range_meters":19200,"station_id":"","pricing_plan_id":"cebpf4jnsgd1na2vs0mg"},{"bike_id":"46261288-1d65-42a5-b499-90b6b78b0002","system_id":"levelo_inurba_marseille","lat":43.27062,"lon":5.40263,"is_reserved":false,"is_disabled":false,"rental_uris":{"android":"levelo://app?vid=46261288-1d65-42a5-b499-90b6b78b0002","ios":"levelo://app?vid=46261288-1d65-42a5-b499-90b6b78b0002"},"vehicle_type_id":"4","last_reported":1750014438,"current_range_meters":19200,"station_id":"ce4bhk92rcd13ifvqgc0","pricing_plan_id":"cebpf4jnsgd1na2vs0mg"},{"bike_id":"ab27ac5c-ef75-403a-850b-e0d9f203b623","system_id":"levelo_inurba_marseille","lat":43.22498,"lon":5.34778,"is_reserved":false,"is_disabled":false,"rental_uris":{"android":"levelo://app?vid=ab27ac5c-ef75-403a-850b-e0d9f203b623","ios":"levelo://app?vid=ab27ac5c-ef75-403a-850b-e0d9f203b623"},"vehicle_type_id":"4","last_reported":1750014438,"current_range_meters":19200,"station_id":"st_cvj5dfep6f1abm77gieg","pricing_plan_id":"cebpf4jnsgd1na2vs0mg"},{"bike_id":"826f0ca3-e5fc-4cf8-8696-cb1fe62172b3","system_id":"levelo_inurba_marseille","lat":43.2121,"lon":5.3505,"is_reserved":false,"is_disabled":false,"rental_uris":{"android":"levelo://app?vid=826f0ca3-e5fc-4cf8-8696-cb1fe62172b3","ios":"levelo://app?vid=826f0ca3-e5fc-4cf8-8696-cb1fe62172b3"},"vehicle_type_id":"4","last_reported":1750014438,"current_range_meters":19600,"station_id":"","pricing_plan_id":"cebpf4jnsgd1na2vs0mg"},{"bike_id":"bd7bc889-0ace-44ba-adc2-5e336bdf27e2","system_id":"levelo_inurba_marseille","lat":43.30974,"lon":5.3748,"is_reserved":false,"is_disabled":false,"rental_uris":{"android":"levelo://app?vid=bd7bc889-0ace-44ba-adc2-5e336bdf27e2","ios":"levelo://app?vid=bd7bc889-0ace-44ba-adc2-5e336bdf27e2"},"vehicle_type_id":"4","last_reported":1750014438,"current_range_meters":19600,"station_id":"","pricing_plan_id":"cebpf4jnsgd1na2vs0mg"},{"bike_id":"731cf8ad-53c6-48de-9e4b-515deb0e8217","system_id":"levelo_inurba_marseille","lat":43.28671,"lon":5.38659,"is_reserved":false,"is_disabled":false,"rental_uris":{"android":"levelo://app?vid=731cf8ad-53c6-48de-9e4b-515deb0e8217","ios":"levelo://app?vid=731cf8ad-53c6-48de-9e4b-515deb0e8217"},"vehicle_type_id":"4","last_reported":1750014438,"current_range_meters":19600,"station_id":"ce4bh492rcd13ifvqdug","pricing_plan_id":"cebpf4jnsgd1na2vs0mg"},{"bike_id":"f4960cb7-92f3-48e4-a1cc-a2b8a605a4b3","system_id":"levelo_inurba_marseille","lat":43.337661,"lon":5.37425,"is_reserved":false,"is_disabled":false,"rental_uris":{"android":"levelo://app?vid=f4960cb7-92f3-48e4-a1cc-a2b8a605a4b3","ios":"levelo://app?vid=f4960cb7-92f3-48e4-a1cc-a2b8a605a4b3"},"vehicle_type_id":"4","last_reported":1750014438,"current_range_meters":20000,"station_id":"","pricing_plan_id":"cebpf4jnsgd1na2vs0mg"},{"bike_id":"d6d0da55-c036-4729-a43a-00ed3214aa49","system_id":"levelo_inurba_marseille","lat":43.29365,"lon":5.378467,"is_reserved":false,"is_disabled":false,"rental_uris":{"android":"levelo://app?vid=d6d0da55-c036-4729-a43a-00ed3214aa49","ios":"levelo://app?vid=d6d0da55-c036-4729-a43a-00ed3214aa49"},"vehicle_type_id":"4","last_reported":1750014438,"current_range_meters":20000,"station_id":"ce4bgjh2rcd13ifvqbf0","pricing_plan_id":"cebpf4jnsgd1na2vs0mg"},{"bike_id":"f7ffaabc-4f36-4bf3-a0b2-87bc8e5b3dfb","system_id":"levelo_inurba_marseille","lat":43.285659,"lon":5.393996,"is_reserved":false,"is_disabled":false,"rental_uris":{"android":"levelo://app?vid=f7ffaabc-4f36-4bf3-a0b2-87bc8e5b3dfb","ios":"levelo://app?vid=f7ffaabc-4f36-4bf3-a0b2-87bc8e5b3dfb"},"vehicle_type_id":"4","last_reported":1750014438,"current_range_meters":20000,"station_id":"ce4bh292rcd13ifvqdg0","pricing_plan_id":"cebpf4jnsgd1na2vs0mg"},{"bike_id":"4193675b-4091-4be7-bf6a-d764fca1283c","system_id":"levelo_inurba_marseille","lat":43.283479,"lon":5.381131,"is_reserved":false,"is_disabled":false,"rental_uris":{"android":"levelo://app?vid=4193675b-4091-4be7-bf6a-d764fca1283c","ios":"levelo://app?vid=4193675b-4091-4be7-bf6a-d764fca1283c"},"vehicle_type_id":"4","last_reported":1750014438,"current_range_meters":20000,"station_id":"ce4bh412rcd13ifvqdr0","pricing_plan_id":"cebpf4jnsgd1na2vs0mg"},{"bike_id":"6d5403d0-507c-4a07-97a2-30a878882041","system_id":"levelo_inurba_marseille","lat":43.28926,"lon":5.38401,"is_reserved":false,"is_disabled":false,"rental_uris":{"android":"levelo://app?vid=6d5403d0-507c-4a07-97a2-30a878882041","ios":"levelo://app?vid=6d5403d0-507c-4a07-97a2-30a878882041"},"vehicle_type_id":"4","last_reported":1750014438,"current_range_meters":20000,"station_id":"ce4bh612rcd13ifvqe6g","pricing_plan_id":"cebpf4jnsgd1na2vs0mg"},{"bike_id":"4971e09a-6fa0-4d6b-8fcb-78ca44f02791","system_id":"levelo_inurba_marseille","lat":43.301727,"lon":5.453433,"is_reserved":false,"is_disabled":false,"rental_uris":{"android":"levelo://app?vid=4971e09a-6fa0-4d6b-8fcb-78ca44f02791","ios":"levelo://app?vid=4971e09a-6fa0-4d6b-8fcb-78ca44f02791"},"vehicle_type_id":"4","last_reported":1750014438,"current_range_meters":20400,"station_id":"","pricing_plan_id":"cebpf4jnsgd1na2vs0mg"},{"bike_id":"115bc463-25cf-499b-9d0c-1e5446b33067","system_id":"levelo_inurba_marseille","lat":43.29991,"lon":5.38502,"is_reserved":false,"is_disabled":false,"rental_uris":{"android":"levelo://app?vid=115bc463-25cf-499b-9d0c-1e5446b33067","ios":"levelo://app?vid=115bc463-25cf-499b-9d0c-1e5446b33067"},"vehicle_type_id":"4","last_reported":1750014438,"current_range_meters":20800,"station_id":"ce4bgj92rcd13ifvqbd0","pricing_plan_id":"cebpf4jnsgd1na2vs0mg"},{"bike_id":"640a892c-692d-4ed4-8342-0b7917746949","system_id":"levelo_inurba_marseille","lat":43.29042,"lon":5.38628,"is_reserved":false,"is_disabled":false,"rental_uris":{"android":"levelo://app?vid=640a892c-692d-4ed4-8342-0b7917746949","ios":"levelo://app?vid=640a892c-692d-4ed4-8342-0b7917746949"},"vehicle_type_id":"4","last_reported":1750014438,"current_range_meters":20800,"station_id":"ce4bh4p2rcd13ifvqe0g","pricing_plan_id":"cebpf4jnsgd1na2vs0mg"},{"bike_id":"be10e7f7-2949-4182-8b80-28303dc661df","system_id":"levelo_inurba_marseille","lat":43.279898,"lon":5.416519,"is_reserved":false,"is_disabled":false,"rental_uris":{"android":"levelo://app?vid=be10e7f7-2949-4182-8b80-28303dc661df","ios":"levelo://app?vid=be10e7f7-2949-4182-8b80-28303dc661df"},"vehicle_type_id":"4","last_reported":1750014438,"current_range_meters":20800,"station_id":"ce4bho12rcd13ifvqh1g","pricing_plan_id":"cebpf4jnsgd1na2vs0mg"},{"bike_id":"c20451b8-ea3d-49aa-99f8-dc989295f9b4","system_id":"levelo_inurba_marseille","lat":43.23064,"lon":5.3549,"is_reserved":false,"is_disabled":false,"rental_uris":{"android":"levelo://app?vid=c20451b8-ea3d-49aa-99f8-dc989295f9b4","ios":"levelo://app?vid=c20451b8-ea3d-49aa-99f8-dc989295f9b4"},"vehicle_type_id":"4","last_reported":1750014438,"current_range_meters":20800,"station_id":"cpo3342slgdg3j2ifvpg","pricing_plan_id":"cebpf4jnsgd1na2vs0mg"},{"bike_id":"ea43431a-ba21-4b59-af70-df9a29a07e9d","system_id":"levelo_inurba_marseille","lat":43.31331,"lon":5.39693,"is_reserved":false,"is_disabled":false,"rental_uris":{"android":"levelo://app?vid=ea43431a-ba21-4b59-af70-df9a29a07e9d","ios":"levelo://app?vid=ea43431a-ba21-4b59-af70-df9a29a07e9d"},"vehicle_type_id":"4","last_reported":1750014438,"current_range_meters":21600,"station_id":"ce4bgvp2rcd13ifvqcu0","pricing_plan_id":"cebpf4jnsgd1na2vs0mg"},{"bike_id":"c5df6815-fb67-41ff-8fa2-6717a3b0ffdb","system_id":"levelo_inurba_marseille","lat":43.251162,"lon":5.403161,"is_reserved":false,"is_disabled":false,"rental_uris":{"android":"levelo://app?vid=c5df6815-fb67-41ff-8fa2-6717a3b0ffdb","ios":"levelo://app?vid=c5df6815-fb67-41ff-8fa2-6717a3b0ffdb"},"vehicle_type_id":"4","last_reported":1750014438,"current_range_meters":21600,"station_id":"ce4bhlh2rcd13ifvqgig","pricing_plan_id":"cebpf4jnsgd1na2vs0mg"},{"bike_id":"e612b7a7-3207-4aae-b53e-c8d480fc9283","system_id":"levelo_inurba_marseille","lat":43.23201,"lon":5.35543,"is_reserved":false,"is_disabled":false,"rental_uris":{"android":"levelo://app?vid=e612b7a7-3207-4aae-b53e-c8d480fc9283","ios":"levelo://app?vid=e612b7a7-3207-4aae-b53e-c8d480fc9283"},"vehicle_type_id":"4","last_reported":1750014438,"current_range_meters":21600,"station_id":"ce4bhu92rcd13ifvqi70","pricing_plan_id":"cebpf4jnsgd1na2vs0mg"},{"bike_id":"011d9f3f-2654-4b9a-a804-395d5992c6c9","system_id":"levelo_inurba_marseille","lat":43.26941,"lon":5.40254,"is_reserved":false,"is_disabled":false,"rental_uris":{"android":"levelo://app?vid=011d9f3f-2654-4b9a-a804-395d5992c6c9","ios":"levelo://app?vid=011d9f3f-2654-4b9a-a804-395d5992c6c9"},"vehicle_type_id":"4","last_reported":1750014438,"current_range_meters":21600,"station_id":"cjm6bp8fraef2m0cb0m0","pricing_plan_id":"cebpf4jnsgd1na2vs0mg"},{"bike_id":"a3d7694f-d968-40d1-91d7-61331c847eb1","system_id":"levelo_inurba_marseille","lat":43.31168,"lon":5.38729,"is_reserved":false,"is_disabled":false,"rental_uris":{"android":"levelo://app?vid=a3d7694f-d968-40d1-91d7-61331c847eb1","ios":"levelo://app?vid=a3d7694f-d968-40d1-91d7-61331c847eb1"},"vehicle_type_id":"4","last_reported":1750014438,"current_range_meters":22000,"station_id":"ce4bgv12rcd13ifvqcp0","pricing_plan_id":"cebpf4jnsgd1na2vs0mg"},{"bike_id":"3fe270ae-9493-44e8-9ab8-6aa869449bef","system_id":"levelo_inurba_marseille","lat":43.30948,"lon":5.40128,"is_reserved":false,"is_disabled":false,"rental_uris":{"android":"levelo://app?vid=3fe270ae-9493-44e8-9ab8-6aa869449bef","ios":"levelo://app?vid=3fe270ae-9493-44e8-9ab8-6aa869449bef"},"vehicle_type_id":"4","last_reported":1750014438,"current_range_meters":22000,"station_id":"ce4bgvp2rcd13ifvqct0","pricing_plan_id":"cebpf4jnsgd1na2vs0mg"},{"bike_id":"b114b698-5176-479d-804e-aa587a7e4c57","system_id":"levelo_inurba_marseille","lat":43.31329,"lon":5.39691,"is_reserved":false,"is_disabled":false,"rental_uris":{"android":"levelo://app?vid=b114b698-5176-479d-804e-aa587a7e4c57","ios":"levelo://app?vid=b114b698-5176-479d-804e-aa587a7e4c57"},"vehicle_type_id":"4","last_reported":1750014438,"current_range_meters":22000,"station_id":"ce4bgvp2rcd13ifvqcu0","pricing_plan_id":"cebpf4jnsgd1na2vs0mg"},{"bike_id":"a5605d9c-1d6c-47ae-b81d-6e65cb8eb85c","system_id":"levelo_inurba_marseille","lat":43.26065,"lon":5.39411,"is_reserved":false,"is_disabled":false,"rental_uris":{"android":"levelo://app?vid=a5605d9c-1d6c-47ae-b81d-6e65cb8eb85c","ios":"levelo://app?vid=a5605d9c-1d6c-47ae-b81d-6e65cb8eb85c"},"vehicle_type_id":"4","last_reported":1750014438,"current_range_meters":22000,"station_id":"ce4bhh92rcd13ifvqfj0","pricing_plan_id":"cebpf4jnsgd1na2vs0mg"},{"bike_id":"db696f9f-9ecc-4e26-bd9c-bd73bc64204b","system_id":"levelo_inurba_marseille","lat":43.29899,"lon":5.43672,"is_reserved":false,"is_disabled":false,"rental_uris":{"android":"levelo://app?vid=db696f9f-9ecc-4e26-bd9c-bd73bc64204b","ios":"levelo://app?vid=db696f9f-9ecc-4e26-bd9c-bd73bc64204b"},"vehicle_type_id":"4","last_reported":1750014438,"current_range_meters":22000,"station_id":"ce4bhpp2rcd13ifvqhfg","pricing_plan_id":"cebpf4jnsgd1na2vs0mg"},{"bike_id":"09f811fc-ab4a-42b7-a739-0f8c9be6dce4","system_id":"levelo_inurba_marseille","lat":43.21198,"lon":5.35077,"is_reserved":false,"is_disabled":false,"rental_uris":{"android":"levelo://app?vid=09f811fc-ab4a-42b7-a739-0f8c9be6dce4","ios":"levelo://app?vid=09f811fc-ab4a-42b7-a739-0f8c9be6dce4"},"vehicle_type_id":"4","last_reported":1750014438,"current_range_meters":22000,"station_id":"st_cvj6sg6p6f1abm77japg","pricing_plan_id":"cebpf4jnsgd1na2vs0mg"},{"bike_id":"b9f07c22-7067-4673-b065-4b4b66e565ed","system_id":"levelo_inurba_marseille","lat":43.29918,"lon":5.37452,"is_reserved":false,"is_disabled":false,"rental_uris":{"android":"levelo://app?vid=b9f07c22-7067-4673-b065-4b4b66e565ed","ios":"levelo://app?vid=b9f07c22-7067-4673-b065-4b4b66e565ed"},"vehicle_type_id":"4","last_reported":1750014438,"current_range_meters":22400,"station_id":"ce4bgjh2rcd13ifvqbg0","pricing_plan_id":"cebpf4jnsgd1na2vs0mg"},{"bike_id":"86ae1ef1-42cc-45d3-8916-d2b3c12cbe3b","system_id":"levelo_inurba_marseille","lat":43.30633,"lon":5.40092,"is_reserved":false,"is_disabled":false,"rental_uris":{"android":"levelo://app?vid=86ae1ef1-42cc-45d3-8916-d2b3c12cbe3b","ios":"levelo://app?vid=86ae1ef1-42cc-45d3-8916-d2b3c12cbe3b"},"vehicle_type_id":"4","last_reported":1750014438,"current_range_meters":22400,"station_id":"ce4bh112rcd13ifvqda0","pricing_plan_id":"cebpf4jnsgd1na2vs0mg"},{"bike_id":"b38da09b-f621-4f83-85a7-31d404e707f9","system_id":"levelo_inurba_marseille","lat":43.25327,"lon":5.3936,"is_reserved":false,"is_disabled":false,"rental_uris":{"android":"levelo://app?vid=b38da09b-f621-4f83-85a7-31d404e707f9","ios":"levelo://app?vid=b38da09b-f621-4f83-85a7-31d404e707f9"},"vehicle_type_id":"4","last_reported":1750014438,"current_range_meters":22800,"station_id":"","pricing_plan_id":"cebpf4jnsgd1na2vs0mg"},{"bike_id":"064f09c5-29a1-4ab3-ae7c-b86c57d1baba","system_id":"levelo_inurba_marseille","lat":43.29273,"lon":5.38436,"is_reserved":false,"is_disabled":false,"rental_uris":{"android":"levelo://app?vid=064f09c5-29a1-4ab3-ae7c-b86c57d1baba","ios":"levelo://app?vid=064f09c5-29a1-4ab3-ae7c-b86c57d1baba"},"vehicle_type_id":"4","last_reported":1750014438,"current_range_meters":22800,"station_id":"ce4bh692rcd13ifvqea0","pricing_plan_id":"cebpf4jnsgd1na2vs0mg"},{"bike_id":"2dbf7bfe-5d10-4a2d-ac97-7f1bae695652","system_id":"levelo_inurba_marseille","lat":43.28728,"lon":5.37942,"is_reserved":false,"is_disabled":false,"rental_uris":{"android":"levelo://app?vid=2dbf7bfe-5d10-4a2d-ac97-7f1bae695652","ios":"levelo://app?vid=2dbf7bfe-5d10-4a2d-ac97-7f1bae695652"},"vehicle_type_id":"4","last_reported":1750014438,"current_range_meters":22800,"station_id":"ce4bh9p2rcd13ifvqec0","pricing_plan_id":"cebpf4jnsgd1na2vs0mg"},{"bike_id":"113b35ba-4bfc-4653-9981-9c94fd020996","system_id":"levelo_inurba_marseille","lat":43.232038,"lon":5.35544,"is_reserved":false,"is_disabled":false,"rental_uris":{"android":"levelo://app?vid=113b35ba-4bfc-4653-9981-9c94fd020996","ios":"levelo://app?vid=113b35ba-4bfc-4653-9981-9c94fd020996"},"vehicle_type_id":"4","last_reported":1750014438,"current_range_meters":22800,"station_id":"ce4bhu92rcd13ifvqi70","pricing_plan_id":"cebpf4jnsgd1na2vs0mg"},{"bike_id":"f8f5c739-72f4-49b1-b3d4-90e1f195211d","system_id":"levelo_inurba_marseille","lat":43.21196,"lon":5.3506,"is_reserved":false,"is_disabled":false,"rental_uris":{"android":"levelo://app?vid=f8f5c739-72f4-49b1-b3d4-90e1f195211d","ios":"levelo://app?vid=f8f5c739-72f4-49b1-b3d4-90e1f195211d"},"vehicle_type_id":"4","last_reported":1750014438,"current_range_meters":22800,"station_id":"st_cvj6sg6p6f1abm77japg","pricing_plan_id":"cebpf4jnsgd1na2vs0mg"},{"bike_id":"a895562e-7b04-44b7-9a5e-95b4c43fd47e","system_id":"levelo_inurba_marseille","lat":43.318203,"lon":5.373953,"is_reserved":false,"is_disabled":false,"rental_uris":{"android":"levelo://app?vid=a895562e-7b04-44b7-9a5e-95b4c43fd47e","ios":"levelo://app?vid=a895562e-7b04-44b7-9a5e-95b4c43fd47e"},"vehicle_type_id":"4","last_reported":1750014438,"current_range_meters":23200,"station_id":"","pricing_plan_id":"cebpf4jnsgd1na2vs0mg"},{"bike_id":"cbd7bdb7-1d4d-4869-8924-d7daeae0eda1","system_id":"levelo_inurba_marseille","lat":43.292964,"lon":5.374604,"is_reserved":false,"is_disabled":false,"rental_uris":{"android":"levelo://app?vid=cbd7bdb7-1d4d-4869-8924-d7daeae0eda1","ios":"levelo://app?vid=cbd7bdb7-1d4d-4869-8924-d7daeae0eda1"},"vehicle_type_id":"4","last_reported":1750014438,"current_range_meters":23200,"station_id":"ce4bgi12rcd13ifvqb70","pricing_plan_id":"cebpf4jnsgd1na2vs0mg"},{"bike_id":"7c989abf-e520-4f4d-ae1e-b612dd91159c","system_id":"levelo_inurba_marseille","lat":43.297423,"lon":5.380524,"is_reserved":false,"is_disabled":false,"rental_uris":{"android":"levelo://app?vid=7c989abf-e520-4f4d-ae1e-b612dd91159c","ios":"levelo://app?vid=7c989abf-e520-4f4d-ae1e-b612dd91159c"},"vehicle_type_id":"4","last_reported":1750014438,"current_range_meters":23200,"station_id":"ce4bgip2rcd13ifvqbb0","pricing_plan_id":"cebpf4jnsgd1na2vs0mg"},{"bike_id":"cc9b5ec9-7df7-489f-b86e-8129fa58e7c1","system_id":"levelo_inurba_marseille","lat":43.306363,"lon":5.400964,"is_reserved":false,"is_disabled":false,"rental_uris":{"android":"levelo://app?vid=cc9b5ec9-7df7-489f-b86e-8129fa58e7c1","ios":"levelo://app?vid=cc9b5ec9-7df7-489f-b86e-8129fa58e7c1"},"vehicle_type_id":"4","last_reported":1750014438,"current_range_meters":23200,"station_id":"ce4bh112rcd13ifvqda0","pricing_plan_id":"cebpf4jnsgd1na2vs0mg"},{"bike_id":"b624d201-2b28-4662-a600-a7cce0c1da03","system_id":"levelo_inurba_marseille","lat":43.30099,"lon":5.39082,"is_reserved":false,"is_disabled":false,"rental_uris":{"android":"levelo://app?vid=b624d201-2b28-4662-a600-a7cce0c1da03","ios":"levelo://app?vid=b624d201-2b28-4662-a600-a7cce0c1da03"},"vehicle_type_id":"4","last_reported":1750014438,"current_range_meters":23200,"station_id":"ce4bh192rcd13ifvqdb0","pricing_plan_id":"cebpf4jnsgd1na2vs0mg"},{"bike_id":"2ce0c462-54ba-4a69-8310-4c5da0d48ebe","system_id":"levelo_inurba_marseille","lat":43.28353,"lon":5.38105,"is_reserved":false,"is_disabled":false,"rental_uris":{"android":"levelo://app?vid=2ce0c462-54ba-4a69-8310-4c5da0d48ebe","ios":"levelo://app?vid=2ce0c462-54ba-4a69-8310-4c5da0d48ebe"},"vehicle_type_id":"4","last_reported":1750014438,"current_range_meters":23200,"station_id":"ce4bh412rcd13ifvqdr0","pricing_plan_id":"cebpf4jnsgd1na2vs0mg"},{"bike_id":"41adb326-a79c-42bd-8800-4a34262cc886","system_id":"levelo_inurba_marseille","lat":43.27904,"lon":5.38016,"is_reserved":false,"is_disabled":false,"rental_uris":{"android":"levelo://app?vid=41adb326-a79c-42bd-8800-4a34262cc886","ios":"levelo://app?vid=41adb326-a79c-42bd-8800-4a34262cc886"},"vehicle_type_id":"4","last_reported":1750014438,"current_range_meters":23200,"station_id":"ce4bhf92rcd13ifvqf50","pricing_plan_id":"cebpf4jnsgd1na2vs0mg"},{"bike_id":"b445f91d-006f-491e-89d3-fed742b11a68","system_id":"levelo_inurba_marseille","lat":43.27839,"lon":5.39209,"is_reserved":false,"is_disabled":false,"rental_uris":{"android":"levelo://app?vid=b445f91d-006f-491e-89d3-fed742b11a68","ios":"levelo://app?vid=b445f91d-006f-491e-89d3-fed742b11a68"},"vehicle_type_id":"4","last_reported":1750014438,"current_range_meters":23200,"station_id":"ce4bhjp2rcd13ifvqga0","pricing_plan_id":"cebpf4jnsgd1na2vs0mg"},{"bike_id":"6e109a25-b453-4c60-b595-9be2ab1913b0","system_id":"levelo_inurba_marseille","lat":43.22936,"lon":5.3537,"is_reserved":false,"is_disabled":false,"rental_uris":{"android":"levelo://app?vid=6e109a25-b453-4c60-b595-9be2ab1913b0","ios":"levelo://app?vid=6e109a25-b453-4c60-b595-9be2ab1913b0"},"vehicle_type_id":"4","last_reported":1750014438,"current_range_meters":23200,"station_id":"cpo3532slgdg3j2ikp40","pricing_plan_id":"cebpf4jnsgd1na2vs0mg"},{"bike_id":"fa1edba4-f090-4873-b496-11eff1d6aaa9","system_id":"levelo_inurba_marseille","lat":43.24335,"lon":5.41218,"is_reserved":false,"is_disabled":false,"rental_uris":{"android":"levelo://app?vid=fa1edba4-f090-4873-b496-11eff1d6aaa9","ios":"levelo://app?vid=fa1edba4-f090-4873-b496-11eff1d6aaa9"},"vehicle_type_id":"4","last_reported":1750014438,"current_range_meters":24000,"station_id":"","pricing_plan_id":"cebpf4jnsgd1na2vs0mg"},{"bike_id":"aca2148a-7a96-4f15-a87a-ea3836a2f174","system_id":"levelo_inurba_marseille","lat":43.29031,"lon":5.39962,"is_reserved":false,"is_disabled":false,"rental_uris":{"android":"levelo://app?vid=aca2148a-7a96-4f15-a87a-ea3836a2f174","ios":"levelo://app?vid=aca2148a-7a96-4f15-a87a-ea3836a2f174"},"vehicle_type_id":"4","last_reported":1750014438,"current_range_meters":24000,"station_id":"ce4bh392rcd13ifvqdm0","pricing_plan_id":"cebpf4jnsgd1na2vs0mg"},{"bike_id":"26d84882-e773-4cc1-a254-270e00b79cd4","system_id":"levelo_inurba_marseille","lat":43.2606,"lon":5.39395,"is_reserved":false,"is_disabled":false,"rental_uris":{"android":"levelo://app?vid=26d84882-e773-4cc1-a254-270e00b79cd4","ios":"levelo://app?vid=26d84882-e773-4cc1-a254-270e00b79cd4"},"vehicle_type_id":"4","last_reported":1750014438,"current_range_meters":24000,"station_id":"ce4bhh92rcd13ifvqfj0","pricing_plan_id":"cebpf4jnsgd1na2vs0mg"},{"bike_id":"65dc08ce-4223-4678-9d71-550bf75ca16a","system_id":"levelo_inurba_marseille","lat":43.257203,"lon":5.411113,"is_reserved":false,"is_disabled":false,"rental_uris":{"android":"levelo://app?vid=65dc08ce-4223-4678-9d71-550bf75ca16a","ios":"levelo://app?vid=65dc08ce-4223-4678-9d71-550bf75ca16a"},"vehicle_type_id":"4","last_reported":1750014438,"current_range_meters":24000,"station_id":"ce4bhkp2rcd13ifvqgd0","pricing_plan_id":"cebpf4jnsgd1na2vs0mg"},{"bike_id":"c8dfb0ea-7452-4653-979a-81a495939d6b","system_id":"levelo_inurba_marseille","lat":43.29906,"lon":5.43655,"is_reserved":false,"is_disabled":false,"rental_uris":{"android":"levelo://app?vid=c8dfb0ea-7452-4653-979a-81a495939d6b","ios":"levelo://app?vid=c8dfb0ea-7452-4653-979a-81a495939d6b"},"vehicle_type_id":"4","last_reported":1750014438,"current_range_meters":24000,"station_id":"ce4bhpp2rcd13ifvqhfg","pricing_plan_id":"cebpf4jnsgd1na2vs0mg"},{"bike_id":"1ac79cd5-ec23-43d3-b4f8-ceb61207651b","system_id":"levelo_inurba_marseille","lat":43.3211,"lon":5.36766,"is_reserved":false,"is_disabled":false,"rental_uris":{"android":"levelo://app?vid=1ac79cd5-ec23-43d3-b4f8-ceb61207651b","ios":"levelo://app?vid=1ac79cd5-ec23-43d3-b4f8-ceb61207651b"},