{"last_updated":1743433851,"ttl":60,"version":"2.2","data":{"bikes":[{"bike_id":"194f8e9f-ca70-4f9e-97d4-22d71c3a2914","system_id":"levelo_inurba_marseille","lat":43.28574,"lon":5.39501,"is_reserved":false,"is_disabled":false,"rental_uris":{"android":"levelo://app?vid=194f8e9f-ca70-4f9e-97d4-22d71c3a2914","ios":"levelo://app?vid=194f8e9f-ca70-4f9e-97d4-22d71c3a2914"},"vehicle_type_id":"4","last_reported":1743433851,"current_range_meters":2800,"station_id":"ce4bh292rcd13ifvqdg0","pricing_plan_id":"cebpf4jnsgd1na2vs0mg"},{"bike_id":"afc859d3-8f1a-43b1-a88f-c6420b21c985","system_id":"levelo_inurba_marseille","lat":43.2705,"lon":5.40192,"is_reserved":false,"is_disabled":false,"rental_uris":{"android":"levelo://app?vid=afc859d3-8f1a-43b1-a88f-c6420b21c985","ios":"levelo://app?vid=afc859d3-8f1a-43b1-a88f-c6420b21c985"},"vehicle_type_id":"4","last_reported":1743433851,"current_range_meters":2800,"station_id":"","pricing_plan_id":"cebpf4jnsgd1na2vs0mg"},{"bike_id":"35682568-1d4a-4453-a4b0-709777b1a2b7","system_id":"levelo_inurba_marseille","lat":43.25488,"lon":5.3764,"is_reserved":false,"is_disabled":false,"rental_uris":{"android":"levelo://app?vid=35682568-1d4a-4453-a4b0-709777b1a2b7","ios":"levelo://app?vid=35682568-1d4a-4453-a4b0-709777b1a2b7"},"vehicle_type_id":"4","last_reported":1743433851,"current_range_meters":2000,"station_id":"ce4bhh12rcd13ifvqff0","pricing_plan_id":"cebpf4jnsgd1na2vs0mg"},{"bike_id":"96ac20e8-5840-4579-b371-184ec6253952","system_id":"levelo_inurba_marseille","lat":43.27492,"lon":5.41159,"is_reserved":false,"is_disabled":false,"rental_uris":{"android":"levelo://app?vid=96ac20e8-5840-4579-b371-184ec6253952","ios":"levelo://app?vid=96ac20e8-5840-4579-b371-184ec6253952"},"vehicle_type_id":"4","last_reported":1743433851,"current_range_meters":2800,"station_id":"","pricing_plan_id":"cebpf4jnsgd1na2vs0mg"},{"bike_id":"9f73f95c-1238-437b-b1cc-b17adecb068a","system_id":"levelo_inurba_marseille","lat":43.28477,"lon":5.35939,"is_reserved":false,"is_disabled":false,"rental_uris":{"android":"levelo://app?vid=9f73f95c-1238-437b-b1cc-b17adecb068a","ios":"levelo://app?vid=9f73f95c-1238-437b-b1cc-b17adecb068a"},"vehicle_type_id":"4","last_reported":1743433851,"current_range_meters":2800,"station_id":"ce4bhah2rcd13ifvqei0","pricing_plan_id":"cebpf4jnsgd1na2vs0mg"},{"bike_id":"4aa83ada-3181-4747-860b-396c635a0c0b","system_id":"levelo_inurba_marseille","lat":43.30562,"lon":5.38445,"is_reserved":false,"is_disabled":false,"rental_uris":{"android":"levelo://app?vid=4aa83ada-3181-4747-860b-396c635a0c0b","ios":"levelo://app?vid=4aa83ada-3181-4747-860b-396c635a0c0b"},"vehicle_type_id":"4","last_reported":1743433851,"current_range_meters":2800,"station_id":"ce4bgg92rcd13ifvqb30","pricing_plan_id":"cebpf4jnsgd1na2vs0mg"},{"bike_id":"3cc157a0-dcbf-40a8-bda5-25262c0ca68e","system_id":"levelo_inurba_marseille","lat":43.27852,"lon":5.39215,"is_reserved":false,"is_disabled":false,"rental_uris":{"android":"levelo://app?vid=3cc157a0-dcbf-40a8-bda5-25262c0ca68e","ios":"levelo://app?vid=3cc157a0-dcbf-40a8-bda5-25262c0ca68e"},"vehicle_type_id":"4","last_reported":1743433851,"current_range_meters":2800,"station_id":"ce4bhjp2rcd13ifvqga0","pricing_plan_id":"cebpf4jnsgd1na2vs0mg"},{"bike_id":"c82d5dd1-4f66-4fdc-8b9d-012172fac7dd","system_id":"levelo_inurba_marseille","lat":43.22932,"lon":5.35409,"is_reserved":false,"is_disabled":true,"rental_uris":{"android":"levelo://app?vid=c82d5dd1-4f66-4fdc-8b9d-012172fac7dd","ios":"levelo://app?vid=c82d5dd1-4f66-4fdc-8b9d-012172fac7dd"},"vehicle_type_id":"4","last_reported":1743433851,"current_range_meters":2800,"station_id":"cpo3532slgdg3j2ikp40","pricing_plan_id":"cebpf4jnsgd1na2vs0mg"},{"bike_id":"5664cd51-8f46-4320-8083-3cabe0b8ea8d","system_id":"levelo_inurba_marseille","lat":43.2808,"lon":5.39664,"is_reserved":false,"is_disabled":false,"rental_uris":{"android":"levelo://app?vid=5664cd51-8f46-4320-8083-3cabe0b8ea8d","ios":"levelo://app?vid=5664cd51-8f46-4320-8083-3cabe0b8ea8d"},"vehicle_type_id":"4","last_reported":1743433851,"current_range_meters":2800,"station_id":"ce4bho12rcd13ifvqh2g","pricing_plan_id":"cebpf4jnsgd1na2vs0mg"},{"bike_id":"564dd5eb-5594-4a5b-8252-4fd7a2cdd1a3","system_id":"levelo_inurba_marseille","lat":43.25106,"lon":5.40322,"is_reserved":false,"is_disabled":true,"rental_uris":{"android":"levelo://app?vid=564dd5eb-5594-4a5b-8252-4fd7a2cdd1a3","ios":"levelo://app?vid=564dd5eb-5594-4a5b-8252-4fd7a2cdd1a3"},"vehicle_type_id":"4","last_reported":1743433851,"current_range_meters":0,"station_id":"ce4bhlh2rcd13ifvqgig","pricing_plan_id":"cebpf4jnsgd1na2vs0mg"},{"bike_id":"1b381c10-f016-45ee-8746-3da51f18f323","system_id":"levelo_inurba_marseille","lat":43.28621,"lon":5.3511,"is_reserved":false,"is_disabled":false,"rental_uris":{"android":"levelo://app?vid=1b381c10-f016-45ee-8746-3da51f18f323","ios":"levelo://app?vid=1b381c10-f016-45ee-8746-3da51f18f323"},"vehicle_type_id":"4","last_reported":1743433851,"current_range_meters":3200,"station_id":"ce4bhch2rcd13ifvqeug","pricing_plan_id":"cebpf4jnsgd1na2vs0mg"},{"bike_id":"bc8dcc8a-2d10-40c0-9625-d88e9e5ff3e9","system_id":"levelo_inurba_marseille","lat":43.2307,"lon":5.35493,"is_reserved":false,"is_disabled":false,"rental_uris":{"android":"levelo://app?vid=bc8dcc8a-2d10-40c0-9625-d88e9e5ff3e9","ios":"levelo://app?vid=bc8dcc8a-2d10-40c0-9625-d88e9e5ff3e9"},"vehicle_type_id":"4","last_reported":1743433851,"current_range_meters":3600,"station_id":"cpo3342slgdg3j2ifvpg","pricing_plan_id":"cebpf4jnsgd1na2vs0mg"},{"bike_id":"d0ed36b4-3c5a-4da6-8fb4-955c321dd03a","system_id":"levelo_inurba_marseille","lat":43.275069,"lon":5.410279,"is_reserved":false,"is_disabled":false,"rental_uris":{"android":"levelo://app?vid=d0ed36b4-3c5a-4da6-8fb4-955c321dd03a","ios":"levelo://app?vid=d0ed36b4-3c5a-4da6-8fb4-955c321dd03a"},"vehicle_type_id":"4","last_reported":1743433851,"current_range_meters":3600,"station_id":"","pricing_plan_id":"cebpf4jnsgd1na2vs0mg"},{"bike_id":"42bc7b23-0e2f-4d72-b583-40bcdabb28c7","system_id":"levelo_inurba_marseille","lat":43.29543,"lon":5.3738,"is_reserved":false,"is_disabled":true,"rental_uris":{"android":"levelo://app?vid=42bc7b23-0e2f-4d72-b583-40bcdabb28c7","ios":"levelo://app?vid=42bc7b23-0e2f-4d72-b583-40bcdabb28c7"},"vehicle_type_id":"4","last_reported":1743433851,"current_range_meters":3600,"station_id":"","pricing_plan_id":"cebpf4jnsgd1na2vs0mg"},{"bike_id":"45bf04a8-56b0-480d-bed5-8478d51aa140","system_id":"levelo_inurba_marseille","lat":43.27216,"lon":5.39178,"is_reserved":false,"is_disabled":false,"rental_uris":{"android":"levelo://app?vid=45bf04a8-56b0-480d-bed5-8478d51aa140","ios":"levelo://app?vid=45bf04a8-56b0-480d-bed5-8478d51aa140"},"vehicle_type_id":"4","last_reported":1743433851,"current_range_meters":3600,"station_id":"ce4bhhp2rcd13ifvqfm0","pricing_plan_id":"cebpf4jnsgd1na2vs0mg"},{"bike_id":"5f54d995-95ad-45d3-96b5-c228b377f18f","system_id":"levelo_inurba_marseille","lat":43.2926,"lon":5.37625,"is_reserved":false,"is_disabled":false,"rental_uris":{"android":"levelo://app?vid=5f54d995-95ad-45d3-96b5-c228b377f18f","ios":"levelo://app?vid=5f54d995-95ad-45d3-96b5-c228b377f18f"},"vehicle_type_id":"4","last_reported":1743433851,"current_range_meters":3600,"station_id":"ce4bgi12rcd13ifvqb80","pricing_plan_id":"cebpf4jnsgd1na2vs0mg"},{"bike_id":"83e660aa-f535-410b-96e0-c11d2e98b506","system_id":"levelo_inurba_marseille","lat":43.291992,"lon":5.39327,"is_reserved":false,"is_disabled":false,"rental_uris":{"android":"levelo://app?vid=83e660aa-f535-410b-96e0-c11d2e98b506","ios":"levelo://app?vid=83e660aa-f535-410b-96e0-c11d2e98b506"},"vehicle_type_id":"4","last_reported":1743433851,"current_range_meters":4000,"station_id":"ce4bh192rcd13ifvqdd0","pricing_plan_id":"cebpf4jnsgd1na2vs0mg"},{"bike_id":"5ebe37f0-cab5-4adf-8c4a-729ffe14ad9e","system_id":"levelo_inurba_marseille","lat":43.28415,"lon":5.3498,"is_reserved":false,"is_disabled":false,"rental_uris":{"android":"levelo://app?vid=5ebe37f0-cab5-4adf-8c4a-729ffe14ad9e","ios":"levelo://app?vid=5ebe37f0-cab5-4adf-8c4a-729ffe14ad9e"},"vehicle_type_id":"4","last_reported":1743433851,"current_range_meters":4400,"station_id":"ce4bhbh2rcd13ifvqepg","pricing_plan_id":"cebpf4jnsgd1na2vs0mg"},{"bike_id":"acb5661f-5ad1-43a5-8f99-4e5cb109c4f2","system_id":"levelo_inurba_marseille","lat":43.30301,"lon":5.36879,"is_reserved":false,"is_disabled":false,"rental_uris":{"android":"levelo://app?vid=acb5661f-5ad1-43a5-8f99-4e5cb109c4f2","ios":"levelo://app?vid=acb5661f-5ad1-43a5-8f99-4e5cb109c4f2"},"vehicle_type_id":"4","last_reported":1743433851,"current_range_meters":4400,"station_id":"ce4bgqh2rcd13ifvqc5g","pricing_plan_id":"cebpf4jnsgd1na2vs0mg"},{"bike_id":"312f8c6d-7d05-4283-9f98-0d56f60844a5","system_id":"levelo_inurba_marseille","lat":43.28278,"lon":5.35075,"is_reserved":false,"is_disabled":false,"rental_uris":{"android":"levelo://app?vid=312f8c6d-7d05-4283-9f98-0d56f60844a5","ios":"levelo://app?vid=312f8c6d-7d05-4283-9f98-0d56f60844a5"},"vehicle_type_id":"4","last_reported":1743433851,"current_range_meters":4400,"station_id":"ce4bhbp2rcd13ifvqerg","pricing_plan_id":"cebpf4jnsgd1na2vs0mg"},{"bike_id":"384b53be-0dd1-4ff6-96b3-76e22c52ec3c","system_id":"levelo_inurba_marseille","lat":43.27653,"lon":5.41883,"is_reserved":false,"is_disabled":false,"rental_uris":{"android":"levelo://app?vid=384b53be-0dd1-4ff6-96b3-76e22c52ec3c","ios":"levelo://app?vid=384b53be-0dd1-4ff6-96b3-76e22c52ec3c"},"vehicle_type_id":"4","last_reported":1743433851,"current_range_meters":4400,"station_id":"","pricing_plan_id":"cebpf4jnsgd1na2vs0mg"},{"bike_id":"0f715678-ed94-485b-8e59-2e890c9c38d4","system_id":"levelo_inurba_marseille","lat":43.29524,"lon":5.37516,"is_reserved":false,"is_disabled":false,"rental_uris":{"android":"levelo://app?vid=0f715678-ed94-485b-8e59-2e890c9c38d4","ios":"levelo://app?vid=0f715678-ed94-485b-8e59-2e890c9c38d4"},"vehicle_type_id":"4","last_reported":1743433851,"current_range_meters":4800,"station_id":"ce4bgkp2rcd13ifvqbmg","pricing_plan_id":"cebpf4jnsgd1na2vs0mg"},{"bike_id":"7361d9bb-9566-4939-b34d-0c0b9e766e78","system_id":"levelo_inurba_marseille","lat":43.29055,"lon":5.37155,"is_reserved":false,"is_disabled":false,"rental_uris":{"android":"levelo://app?vid=7361d9bb-9566-4939-b34d-0c0b9e766e78","ios":"levelo://app?vid=7361d9bb-9566-4939-b34d-0c0b9e766e78"},"vehicle_type_id":"4","last_reported":1743433851,"current_range_meters":4400,"station_id":"ce4bh5p2rcd13ifvqe4g","pricing_plan_id":"cebpf4jnsgd1na2vs0mg"},{"bike_id":"44cd48ba-b467-40f3-a5e5-8077a1d62410","system_id":"levelo_inurba_marseille","lat":43.307985,"lon":5.435311,"is_reserved":false,"is_disabled":false,"rental_uris":{"android":"levelo://app?vid=44cd48ba-b467-40f3-a5e5-8077a1d62410","ios":"levelo://app?vid=44cd48ba-b467-40f3-a5e5-8077a1d62410"},"vehicle_type_id":"4","last_reported":1743433851,"current_range_meters":4800,"station_id":"ce4bhph2rcd13ifvqheg","pricing_plan_id":"cebpf4jnsgd1na2vs0mg"},{"bike_id":"961ccc4e-5600-4f15-8499-7936cfa27861","system_id":"levelo_inurba_marseille","lat":43.30881,"lon":5.37296,"is_reserved":false,"is_disabled":false,"rental_uris":{"android":"levelo://app?vid=961ccc4e-5600-4f15-8499-7936cfa27861","ios":"levelo://app?vid=961ccc4e-5600-4f15-8499-7936cfa27861"},"vehicle_type_id":"4","last_reported":1743433851,"current_range_meters":4800,"station_id":"","pricing_plan_id":"cebpf4jnsgd1na2vs0mg"},{"bike_id":"36438f87-de35-42e6-84d1-312e6a8359ec","system_id":"levelo_inurba_marseille","lat":43.24172,"lon":5.39702,"is_reserved":false,"is_disabled":false,"rental_uris":{"android":"levelo://app?vid=36438f87-de35-42e6-84d1-312e6a8359ec","ios":"levelo://app?vid=36438f87-de35-42e6-84d1-312e6a8359ec"},"vehicle_type_id":"4","last_reported":1743433851,"current_range_meters":4800,"station_id":"ce4bhn12rcd13ifvqgpg","pricing_plan_id":"cebpf4jnsgd1na2vs0mg"},{"bike_id":"d1379a4b-7d1c-4a20-9b6a-00a7778584be","system_id":"levelo_inurba_marseille","lat":43.26067,"lon":5.3941,"is_reserved":false,"is_disabled":false,"rental_uris":{"android":"levelo://app?vid=d1379a4b-7d1c-4a20-9b6a-00a7778584be","ios":"levelo://app?vid=d1379a4b-7d1c-4a20-9b6a-00a7778584be"},"vehicle_type_id":"4","last_reported":1743433851,"current_range_meters":4800,"station_id":"ce4bhh92rcd13ifvqfj0","pricing_plan_id":"cebpf4jnsgd1na2vs0mg"},{"bike_id":"9aeb9f8a-b44f-47bc-85ba-b79099039b3e","system_id":"levelo_inurba_marseille","lat":43.28458,"lon":5.35895,"is_reserved":false,"is_disabled":false,"rental_uris":{"android":"levelo://app?vid=9aeb9f8a-b44f-47bc-85ba-b79099039b3e","ios":"levelo://app?vid=9aeb9f8a-b44f-47bc-85ba-b79099039b3e"},"vehicle_type_id":"4","last_reported":1743433851,"current_range_meters":4800,"station_id":"ce4bhah2rcd13ifvqei0","pricing_plan_id":"cebpf4jnsgd1na2vs0mg"},{"bike_id":"22aaf711-7bea-4ce2-8a59-f30cc479d153","system_id":"levelo_inurba_marseille","lat":43.29606,"lon":5.3811,"is_reserved":false,"is_disabled":false,"rental_uris":{"android":"levelo://app?vid=22aaf711-7bea-4ce2-8a59-f30cc479d153","ios":"levelo://app?vid=22aaf711-7bea-4ce2-8a59-f30cc479d153"},"vehicle_type_id":"4","last_reported":1743433851,"current_range_meters":4800,"station_id":"ce4bgl12rcd13ifvqbo0","pricing_plan_id":"cebpf4jnsgd1na2vs0mg"},{"bike_id":"b4642d85-b42c-41b1-bd12-7683ab6d5c65","system_id":"levelo_inurba_marseille","lat":43.29539,"lon":5.42261,"is_reserved":false,"is_disabled":false,"rental_uris":{"android":"levelo://app?vid=b4642d85-b42c-41b1-bd12-7683ab6d5c65","ios":"levelo://app?vid=b4642d85-b42c-41b1-bd12-7683ab6d5c65"},"vehicle_type_id":"4","last_reported":1743433851,"current_range_meters":4800,"station_id":"ce4bhph2rcd13ifvqhdg","pricing_plan_id":"cebpf4jnsgd1na2vs0mg"},{"bike_id":"76d4ed16-8625-4a14-a5f1-d28ac2574c13","system_id":"levelo_inurba_marseille","lat":43.2454,"lon":5.3954,"is_reserved":false,"is_disabled":false,"rental_uris":{"android":"levelo://app?vid=76d4ed16-8625-4a14-a5f1-d28ac2574c13","ios":"levelo://app?vid=76d4ed16-8625-4a14-a5f1-d28ac2574c13"},"vehicle_type_id":"4","last_reported":1743433851,"current_range_meters":5600,"station_id":"ce4bhlp2rcd13ifvqgjg","pricing_plan_id":"cebpf4jnsgd1na2vs0mg"},{"bike_id":"6e6a66e5-58ca-4db1-9695-b46ed5c28827","system_id":"levelo_inurba_marseille","lat":43.28422,"lon":5.34988,"is_reserved":false,"is_disabled":false,"rental_uris":{"android":"levelo://app?vid=6e6a66e5-58ca-4db1-9695-b46ed5c28827","ios":"levelo://app?vid=6e6a66e5-58ca-4db1-9695-b46ed5c28827"},"vehicle_type_id":"4","last_reported":1743433851,"current_range_meters":5600,"station_id":"ce4bhbh2rcd13ifvqepg","pricing_plan_id":"cebpf4jnsgd1na2vs0mg"},{"bike_id":"b4f8a49c-a9d1-4682-8c09-20820c62e7e8","system_id":"levelo_inurba_marseille","lat":43.26815,"lon":5.40284,"is_reserved":false,"is_disabled":false,"rental_uris":{"android":"levelo://app?vid=b4f8a49c-a9d1-4682-8c09-20820c62e7e8","ios":"levelo://app?vid=b4f8a49c-a9d1-4682-8c09-20820c62e7e8"},"vehicle_type_id":"4","last_reported":1743433851,"current_range_meters":5600,"station_id":"ce501612rcd8frsf0b60","pricing_plan_id":"cebpf4jnsgd1na2vs0mg"},{"bike_id":"746e664b-75ff-400c-b6af-5ad7003f0f7f","system_id":"levelo_inurba_marseille","lat":43.24179,"lon":5.39735,"is_reserved":false,"is_disabled":false,"rental_uris":{"android":"levelo://app?vid=746e664b-75ff-400c-b6af-5ad7003f0f7f","ios":"levelo://app?vid=746e664b-75ff-400c-b6af-5ad7003f0f7f"},"vehicle_type_id":"4","last_reported":1743433851,"current_range_meters":5600,"station_id":"ce4bhn12rcd13ifvqgpg","pricing_plan_id":"cebpf4jnsgd1na2vs0mg"},{"bike_id":"eca574f3-98fb-4051-8efd-36b501a4bf00","system_id":"levelo_inurba_marseille","lat":43.2583,"lon":5.39436,"is_reserved":false,"is_disabled":false,"rental_uris":{"android":"levelo://app?vid=eca574f3-98fb-4051-8efd-36b501a4bf00","ios":"levelo://app?vid=eca574f3-98fb-4051-8efd-36b501a4bf00"},"vehicle_type_id":"4","last_reported":1743433851,"current_range_meters":6000,"station_id":"ce4bhip2rcd13ifvqft0","pricing_plan_id":"cebpf4jnsgd1na2vs0mg"},{"bike_id":"6abfcf76-b46b-48ec-9741-222295465860","system_id":"levelo_inurba_marseille","lat":43.28589,"lon":5.37101,"is_reserved":false,"is_disabled":false,"rental_uris":{"android":"levelo://app?vid=6abfcf76-b46b-48ec-9741-222295465860","ios":"levelo://app?vid=6abfcf76-b46b-48ec-9741-222295465860"},"vehicle_type_id":"4","last_reported":1743433851,"current_range_meters":6000,"station_id":"ce4bh312rcd13ifvqdj0","pricing_plan_id":"cebpf4jnsgd1na2vs0mg"},{"bike_id":"fb5a3640-c2bd-4d5a-a532-631ac7449c3d","system_id":"levelo_inurba_marseille","lat":43.27998,"lon":5.40945,"is_reserved":false,"is_disabled":false,"rental_uris":{"android":"levelo://app?vid=fb5a3640-c2bd-4d5a-a532-631ac7449c3d","ios":"levelo://app?vid=fb5a3640-c2bd-4d5a-a532-631ac7449c3d"},"vehicle_type_id":"4","last_reported":1743433851,"current_range_meters":6000,"station_id":"","pricing_plan_id":"cebpf4jnsgd1na2vs0mg"},{"bike_id":"95810665-cf50-4795-8a4d-e151042a8c4a","system_id":"levelo_inurba_marseille","lat":43.29531,"lon":5.37554,"is_reserved":false,"is_disabled":false,"rental_uris":{"android":"levelo://app?vid=95810665-cf50-4795-8a4d-e151042a8c4a","ios":"levelo://app?vid=95810665-cf50-4795-8a4d-e151042a8c4a"},"vehicle_type_id":"4","last_reported":1743433851,"current_range_meters":6000,"station_id":"ce4bgkp2rcd13ifvqbmg","pricing_plan_id":"cebpf4jnsgd1na2vs0mg"},{"bike_id":"72fdb279-423e-49c8-a30b-f406d7440799","system_id":"levelo_inurba_marseille","lat":43.27366,"lon":5.36255,"is_reserved":false,"is_disabled":false,"rental_uris":{"android":"levelo://app?vid=72fdb279-423e-49c8-a30b-f406d7440799","ios":"levelo://app?vid=72fdb279-423e-49c8-a30b-f406d7440799"},"vehicle_type_id":"4","last_reported":1743433851,"current_range_meters":6000,"station_id":"ce4bhbh2rcd13ifvqeo0","pricing_plan_id":"cebpf4jnsgd1na2vs0mg"},{"bike_id":"c130138e-8c95-4931-95ad-e547be309ba2","system_id":"levelo_inurba_marseille","lat":43.29032,"lon":5.38643,"is_reserved":false,"is_disabled":false,"rental_uris":{"android":"levelo://app?vid=c130138e-8c95-4931-95ad-e547be309ba2","ios":"levelo://app?vid=c130138e-8c95-4931-95ad-e547be309ba2"},"vehicle_type_id":"4","last_reported":1743433851,"current_range_meters":6000,"station_id":"ce4bh4p2rcd13ifvqe0g","pricing_plan_id":"cebpf4jnsgd1na2vs0mg"},{"bike_id":"82d8e203-da64-466b-9b1d-e9f0a9bfebfe","system_id":"levelo_inurba_marseille","lat":43.32545,"lon":5.41453,"is_reserved":false,"is_disabled":true,"rental_uris":{"android":"levelo://app?vid=82d8e203-da64-466b-9b1d-e9f0a9bfebfe","ios":"levelo://app?vid=82d8e203-da64-466b-9b1d-e9f0a9bfebfe"},"vehicle_type_id":"4","last_reported":1743433851,"current_range_meters":6400,"station_id":"ce4bhq12rcd13ifvqhhg","pricing_plan_id":"cebpf4jnsgd1na2vs0mg"},{"bike_id":"18a0240a-4b66-4de0-8774-60a112f77be3","system_id":"levelo_inurba_marseille","lat":43.31236,"lon":5.36835,"is_reserved":false,"is_disabled":false,"rental_uris":{"android":"levelo://app?vid=18a0240a-4b66-4de0-8774-60a112f77be3","ios":"levelo://app?vid=18a0240a-4b66-4de0-8774-60a112f77be3"},"vehicle_type_id":"4","last_reported":1743433851,"current_range_meters":6400,"station_id":"ce4bgl92rcd13ifvqbq0","pricing_plan_id":"cebpf4jnsgd1na2vs0mg"},{"bike_id":"700fc2e2-88a4-4627-8337-fc3b3aacf804","system_id":"levelo_inurba_marseille","lat":43.2737,"lon":5.36243,"is_reserved":false,"is_disabled":false,"rental_uris":{"android":"levelo://app?vid=700fc2e2-88a4-4627-8337-fc3b3aacf804","ios":"levelo://app?vid=700fc2e2-88a4-4627-8337-fc3b3aacf804"},"vehicle_type_id":"4","last_reported":1743433851,"current_range_meters":6400,"station_id":"ce4bhbh2rcd13ifvqeo0","pricing_plan_id":"cebpf4jnsgd1na2vs0mg"},{"bike_id":"33a2857d-fc02-4112-94e5-d394d3d364f0","system_id":"levelo_inurba_marseille","lat":43.31228,"lon":5.36864,"is_reserved":false,"is_disabled":false,"rental_uris":{"android":"levelo://app?vid=33a2857d-fc02-4112-94e5-d394d3d364f0","ios":"levelo://app?vid=33a2857d-fc02-4112-94e5-d394d3d364f0"},"vehicle_type_id":"4","last_reported":1743433851,"current_range_meters":6400,"station_id":"ce4bgl92rcd13ifvqbq0","pricing_plan_id":"cebpf4jnsgd1na2vs0mg"},{"bike_id":"ff4e99ef-dd9f-4161-aae1-5da350acb579","system_id":"levelo_inurba_marseille","lat":43.26682,"lon":5.38278,"is_reserved":false,"is_disabled":false,"rental_uris":{"android":"levelo://app?vid=ff4e99ef-dd9f-4161-aae1-5da350acb579","ios":"levelo://app?vid=ff4e99ef-dd9f-4161-aae1-5da350acb579"},"vehicle_type_id":"4","last_reported":1743433851,"current_range_meters":6400,"station_id":"ce4bhg92rcd13ifvqf90","pricing_plan_id":"cebpf4jnsgd1na2vs0mg"},{"bike_id":"7d55cb0f-3f40-4c5f-995e-03da6a5194d0","system_id":"levelo_inurba_marseille","lat":43.28477,"lon":5.38432,"is_reserved":false,"is_disabled":true,"rental_uris":{"android":"levelo://app?vid=7d55cb0f-3f40-4c5f-995e-03da6a5194d0","ios":"levelo://app?vid=7d55cb0f-3f40-4c5f-995e-03da6a5194d0"},"vehicle_type_id":"4","last_reported":1743433851,"current_range_meters":6400,"station_id":"ce4bh512rcd13ifvqe3g","pricing_plan_id":"cebpf4jnsgd1na2vs0mg"},{"bike_id":"ec94352e-9b65-4106-b75a-81815093403b","system_id":"levelo_inurba_marseille","lat":43.24174,"lon":5.39722,"is_reserved":false,"is_disabled":false,"rental_uris":{"android":"levelo://app?vid=ec94352e-9b65-4106-b75a-81815093403b","ios":"levelo://app?vid=ec94352e-9b65-4106-b75a-81815093403b"},"vehicle_type_id":"4","last_reported":1743433851,"current_range_meters":6400,"station_id":"ce4bhn12rcd13ifvqgpg","pricing_plan_id":"cebpf4jnsgd1na2vs0mg"},{"bike_id":"cc9a8695-bf5d-47be-8100-011afee16021","system_id":"levelo_inurba_marseille","lat":43.27067,"lon":5.42284,"is_reserved":false,"is_disabled":false,"rental_uris":{"android":"levelo://app?vid=cc9a8695-bf5d-47be-8100-011afee16021","ios":"levelo://app?vid=cc9a8695-bf5d-47be-8100-011afee16021"},"vehicle_type_id":"4","last_reported":1743433851,"current_range_meters":6800,"station_id":"ce4bhk92rcd13ifvqgb0","pricing_plan_id":"cebpf4jnsgd1na2vs0mg"},{"bike_id":"41a8be12-969d-4c24-b7bc-57005a4fd1dc","system_id":"levelo_inurba_marseille","lat":43.25866,"lon":5.39906,"is_reserved":false,"is_disabled":false,"rental_uris":{"android":"levelo://app?vid=41a8be12-969d-4c24-b7bc-57005a4fd1dc","ios":"levelo://app?vid=41a8be12-969d-4c24-b7bc-57005a4fd1dc"},"vehicle_type_id":"4","last_reported":1743433851,"current_range_meters":6800,"station_id":"ce4bhl92rcd13ifvqghg","pricing_plan_id":"cebpf4jnsgd1na2vs0mg"},{"bike_id":"6fa079d8-58de-4462-8e8f-3bf0cd4c0297","system_id":"levelo_inurba_marseille","lat":43.30272,"lon":5.3772,"is_reserved":false,"is_disabled":false,"rental_uris":{"android":"levelo://app?vid=6fa079d8-58de-4462-8e8f-3bf0cd4c0297","ios":"levelo://app?vid=6fa079d8-58de-4462-8e8f-3bf0cd4c0297"},"vehicle_type_id":"4","last_reported":1743433851,"current_range_meters":6800,"station_id":"ce4bguh2rcd13ifvqcj0","pricing_plan_id":"cebpf4jnsgd1na2vs0mg"},{"bike_id":"3faa5605-dbda-48c1-b683-206f2a8e0dca","system_id":"levelo_inurba_marseille","lat":43.29272,"lon":5.37616,"is_reserved":false,"is_disabled":false,"rental_uris":{"android":"levelo://app?vid=3faa5605-dbda-48c1-b683-206f2a8e0dca","ios":"levelo://app?vid=3faa5605-dbda-48c1-b683-206f2a8e0dca"},"vehicle_type_id":"4","last_reported":1743433851,"current_range_meters":6800,"station_id":"ce4bgi12rcd13ifvqb80","pricing_plan_id":"cebpf4jnsgd1na2vs0mg"},{"bike_id":"75444abe-0bed-4d8c-9358-03915080e580","system_id":"levelo_inurba_marseille","lat":43.23058,"lon":5.35495,"is_reserved":false,"is_disabled":false,"rental_uris":{"android":"levelo://app?vid=75444abe-0bed-4d8c-9358-03915080e580","ios":"levelo://app?vid=75444abe-0bed-4d8c-9358-03915080e580"},"vehicle_type_id":"4","last_reported":1743433851,"current_range_meters":6800,"station_id":"cpo3342slgdg3j2ifvpg","pricing_plan_id":"cebpf4jnsgd1na2vs0mg"},{"bike_id":"4cd69ad2-4b6d-4d3b-b443-d4a36be19e45","system_id":"levelo_inurba_marseille","lat":43.29035,"lon":5.38654,"is_reserved":false,"is_disabled":false,"rental_uris":{"android":"levelo://app?vid=4cd69ad2-4b6d-4d3b-b443-d4a36be19e45","ios":"levelo://app?vid=4cd69ad2-4b6d-4d3b-b443-d4a36be19e45"},"vehicle_type_id":"4","last_reported":1743433851,"current_range_meters":6800,"station_id":"ce4bh4p2rcd13ifvqe0g","pricing_plan_id":"cebpf4jnsgd1na2vs0mg"},{"bike_id":"85fad29d-07fa-4834-92ea-a24165516ebf","system_id":"levelo_inurba_marseille","lat":43.23069,"lon":5.35491,"is_reserved":false,"is_disabled":false,"rental_uris":{"android":"levelo://app?vid=85fad29d-07fa-4834-92ea-a24165516ebf","ios":"levelo://app?vid=85fad29d-07fa-4834-92ea-a24165516ebf"},"vehicle_type_id":"4","last_reported":1743433851,"current_range_meters":7200,"station_id":"cpo3342slgdg3j2ifvpg","pricing_plan_id":"cebpf4jnsgd1na2vs0mg"},{"bike_id":"06a9141e-7ce2-4818-9417-42d6de8bd6be","system_id":"levelo_inurba_marseille","lat":43.27378,"lon":5.3626,"is_reserved":false,"is_disabled":false,"rental_uris":{"android":"levelo://app?vid=06a9141e-7ce2-4818-9417-42d6de8bd6be","ios":"levelo://app?vid=06a9141e-7ce2-4818-9417-42d6de8bd6be"},"vehicle_type_id":"4","last_reported":1743433851,"current_range_meters":7200,"station_id":"ce4bhbh2rcd13ifvqeo0","pricing_plan_id":"cebpf4jnsgd1na2vs0mg"},{"bike_id":"36291f21-10e9-409f-9c08-11a98fedd09d","system_id":"levelo_inurba_marseille","lat":43.26555,"lon":5.37292,"is_reserved":false,"is_disabled":false,"rental_uris":{"android":"levelo://app?vid=36291f21-10e9-409f-9c08-11a98fedd09d","ios":"levelo://app?vid=36291f21-10e9-409f-9c08-11a98fedd09d"},"vehicle_type_id":"4","last_reported":1743433851,"current_range_meters":7200,"station_id":"ce4bhg12rcd13ifvqf70","pricing_plan_id":"cebpf4jnsgd1na2vs0mg"},{"bike_id":"8105ab87-f1cc-4efc-8e6e-fec6554e830d","system_id":"levelo_inurba_marseille","lat":43.28266,"lon":5.35082,"is_reserved":false,"is_disabled":false,"rental_uris":{"android":"levelo://app?vid=8105ab87-f1cc-4efc-8e6e-fec6554e830d","ios":"levelo://app?vid=8105ab87-f1cc-4efc-8e6e-fec6554e830d"},"vehicle_type_id":"4","last_reported":1743433851,"current_range_meters":7200,"station_id":"ce4bhbp2rcd13ifvqerg","pricing_plan_id":"cebpf4jnsgd1na2vs0mg"},{"bike_id":"6227088b-8ea7-4271-92b8-c845300adf9a","system_id":"levelo_inurba_marseille","lat":43.32368,"lon":5.36807,"is_reserved":false,"is_disabled":false,"rental_uris":{"android":"levelo://app?vid=6227088b-8ea7-4271-92b8-c845300adf9a","ios":"levelo://app?vid=6227088b-8ea7-4271-92b8-c845300adf9a"},"vehicle_type_id":"4","last_reported":1743433851,"current_range_meters":7200,"station_id":"ce4bhsh2rcd13ifvqi2g","pricing_plan_id":"cebpf4jnsgd1na2vs0mg"},{"bike_id":"7eed532e-ba51-4f9f-9955-d8aeb91c05ca","system_id":"levelo_inurba_marseille","lat":43.2705,"lon":5.40261,"is_reserved":false,"is_disabled":false,"rental_uris":{"android":"levelo://app?vid=7eed532e-ba51-4f9f-9955-d8aeb91c05ca","ios":"levelo://app?vid=7eed532e-ba51-4f9f-9955-d8aeb91c05ca"},"vehicle_type_id":"4","last_reported":1743433851,"current_range_meters":7200,"station_id":"ce4bhk92rcd13ifvqgc0","pricing_plan_id":"cebpf4jnsgd1na2vs0mg"},{"bike_id":"58ba954f-d3fd-4cac-abd2-623144afb52a","system_id":"levelo_inurba_marseille","lat":43.2294,"lon":5.35388,"is_reserved":false,"is_disabled":false,"rental_uris":{"android":"levelo://app?vid=58ba954f-d3fd-4cac-abd2-623144afb52a","ios":"levelo://app?vid=58ba954f-d3fd-4cac-abd2-623144afb52a"},"vehicle_type_id":"4","last_reported":1743433851,"current_range_meters":7200,"station_id":"cpo3532slgdg3j2ikp40","pricing_plan_id":"cebpf4jnsgd1na2vs0mg"},{"bike_id":"0c6c12d2-e0f5-4188-bee8-90868db36847","system_id":"levelo_inurba_marseille","lat":43.2562,"lon":5.41987,"is_reserved":false,"is_disabled":false,"rental_uris":{"android":"levelo://app?vid=0c6c12d2-e0f5-4188-bee8-90868db36847","ios":"levelo://app?vid=0c6c12d2-e0f5-4188-bee8-90868db36847"},"vehicle_type_id":"4","last_reported":1743433851,"current_range_meters":8000,"station_id":"","pricing_plan_id":"cebpf4jnsgd1na2vs0mg"},{"bike_id":"cf5b2779-ec4f-44a5-bcc7-59767290b186","system_id":"levelo_inurba_marseille","lat":43.28233,"lon":5.36599,"is_reserved":false,"is_disabled":false,"rental_uris":{"android":"levelo://app?vid=cf5b2779-ec4f-44a5-bcc7-59767290b186","ios":"levelo://app?vid=cf5b2779-ec4f-44a5-bcc7-59767290b186"},"vehicle_type_id":"4","last_reported":1743433851,"current_range_meters":8000,"station_id":"","pricing_plan_id":"cebpf4jnsgd1na2vs0mg"},{"bike_id":"2213fe11-fcce-4801-9cad-f51d8801a045","system_id":"levelo_inurba_marseille","lat":43.24178,"lon":5.39732,"is_reserved":false,"is_disabled":false,"rental_uris":{"android":"levelo://app?vid=2213fe11-fcce-4801-9cad-f51d8801a045","ios":"levelo://app?vid=2213fe11-fcce-4801-9cad-f51d8801a045"},"vehicle_type_id":"4","last_reported":1743433851,"current_range_meters":8000,"station_id":"ce4bhn12rcd13ifvqgpg","pricing_plan_id":"cebpf4jnsgd1na2vs0mg"},{"bike_id":"a2d16333-5183-407f-9f28-1543760230d9","system_id":"levelo_inurba_marseille","lat":43.28436,"lon":5.34991,"is_reserved":false,"is_disabled":false,"rental_uris":{"android":"levelo://app?vid=a2d16333-5183-407f-9f28-1543760230d9","ios":"levelo://app?vid=a2d16333-5183-407f-9f28-1543760230d9"},"vehicle_type_id":"4","last_reported":1743433851,"current_range_meters":8000,"station_id":"ce4bhbh2rcd13ifvqepg","pricing_plan_id":"cebpf4jnsgd1na2vs0mg"},{"bike_id":"e49e2499-bc96-48e0-ae45-30f98c821f2d","system_id":"levelo_inurba_marseille","lat":43.28279,"lon":5.35071,"is_reserved":false,"is_disabled":false,"rental_uris":{"android":"levelo://app?vid=e49e2499-bc96-48e0-ae45-30f98c821f2d","ios":"levelo://app?vid=e49e2499-bc96-48e0-ae45-30f98c821f2d"},"vehicle_type_id":"4","last_reported":1743433851,"current_range_meters":8000,"station_id":"ce4bhbp2rcd13ifvqerg","pricing_plan_id":"cebpf4jnsgd1na2vs0mg"},{"bike_id":"4a4bf873-80c7-477b-a617-a96db2a1a9eb","system_id":"levelo_inurba_marseille","lat":43.30232,"lon":5.40057,"is_reserved":false,"is_disabled":true,"rental_uris":{"android":"levelo://app?vid=4a4bf873-80c7-477b-a617-a96db2a1a9eb","ios":"levelo://app?vid=4a4bf873-80c7-477b-a617-a96db2a1a9eb"},"vehicle_type_id":"4","last_reported":1743433851,"current_range_meters":8000,"station_id":"ce4bgvh2rcd13ifvqcs0","pricing_plan_id":"cebpf4jnsgd1na2vs0mg"},{"bike_id":"c00fbc0e-b70f-4fba-a332-b91bb260dc1f","system_id":"levelo_inurba_marseille","lat":43.29082,"lon":5.37168,"is_reserved":false,"is_disabled":false,"rental_uris":{"android":"levelo://app?vid=c00fbc0e-b70f-4fba-a332-b91bb260dc1f","ios":"levelo://app?vid=c00fbc0e-b70f-4fba-a332-b91bb260dc1f"},"vehicle_type_id":"4","last_reported":1743433851,"current_range_meters":8000,"station_id":"ce4bh5p2rcd13ifvqe4g","pricing_plan_id":"cebpf4jnsgd1na2vs0mg"},{"bike_id":"96f73177-049f-409e-8102-d49ca3ba506f","system_id":"levelo_inurba_marseille","lat":43.31137,"lon":5.36841,"is_reserved":false,"is_disabled":false,"rental_uris":{"android":"levelo://app?vid=96f73177-049f-409e-8102-d49ca3ba506f","ios":"levelo://app?vid=96f73177-049f-409e-8102-d49ca3ba506f"},"vehicle_type_id":"4","last_reported":1743433851,"current_range_meters":8000,"station_id":"","pricing_plan_id":"cebpf4jnsgd1na2vs0mg"},{"bike_id":"ad5519e1-21af-49e9-8b7f-027fa3805945","system_id":"levelo_inurba_marseille","lat":43.255013,"lon":5.376497,"is_reserved":false,"is_disabled":false,"rental_uris":{"android":"levelo://app?vid=ad5519e1-21af-49e9-8b7f-027fa3805945","ios":"levelo://app?vid=ad5519e1-21af-49e9-8b7f-027fa3805945"},"vehicle_type_id":"4","last_reported":1743433851,"current_range_meters":8000,"station_id":"ce4bhh12rcd13ifvqff0","pricing_plan_id":"cebpf4jnsgd1na2vs0mg"},{"bike_id":"407b633a-987e-4722-b77a-993eaa06a6b7","system_id":"levelo_inurba_marseille","lat":43.31584,"lon":5.38855,"is_reserved":false,"is_disabled":false,"rental_uris":{"android":"levelo://app?vid=407b633a-987e-4722-b77a-993eaa06a6b7","ios":"levelo://app?vid=407b633a-987e-4722-b77a-993eaa06a6b7"},"vehicle_type_id":"4","last_reported":1743433851,"current_range_meters":8400,"station_id":"","pricing_plan_id":"cebpf4jnsgd1na2vs0mg"},{"bike_id":"26491ca7-548d-4e79-bb88-d6aba04dfcf8","system_id":"levelo_inurba_marseille","lat":43.25105,"lon":5.39519,"is_reserved":false,"is_disabled":false,"rental_uris":{"android":"levelo://app?vid=26491ca7-548d-4e79-bb88-d6aba04dfcf8","ios":"levelo://app?vid=26491ca7-548d-4e79-bb88-d6aba04dfcf8"},"vehicle_type_id":"4","last_reported":1743433851,"current_range_meters":8400,"station_id":"ce4bhm12rcd13ifvqgkg","pricing_plan_id":"cebpf4jnsgd1na2vs0mg"},{"bike_id":"6165c5e1-15f4-4779-ba2f-91df8ba3f8c0","system_id":"levelo_inurba_marseille","lat":43.28915,"lon":5.42987,"is_reserved":false,"is_disabled":false,"rental_uris":{"android":"levelo://app?vid=6165c5e1-15f4-4779-ba2f-91df8ba3f8c0","ios":"levelo://app?vid=6165c5e1-15f4-4779-ba2f-91df8ba3f8c0"},"vehicle_type_id":"4","last_reported":1743433851,"current_range_meters":8400,"station_id":"","pricing_plan_id":"cebpf4jnsgd1na2vs0mg"},{"bike_id":"8d7c3505-7081-460a-8bd2-6a01d60a2aaa","system_id":"levelo_inurba_marseille","lat":43.29519,"lon":5.39043,"is_reserved":false,"is_disabled":false,"rental_uris":{"android":"levelo://app?vid=8d7c3505-7081-460a-8bd2-6a01d60a2aaa","ios":"levelo://app?vid=8d7c3505-7081-460a-8bd2-6a01d60a2aaa"},"vehicle_type_id":"4","last_reported":1743433851,"current_range_meters":8400,"station_id":"ce4bh3p2rcd13ifvqdp0","pricing_plan_id":"cebpf4jnsgd1na2vs0mg"},{"bike_id":"c0578620-bc79-47d3-bd1d-8e4e67347a1d","system_id":"levelo_inurba_marseille","lat":43.27999,"lon":5.40019,"is_reserved":false,"is_disabled":false,"rental_uris":{"android":"levelo://app?vid=c0578620-bc79-47d3-bd1d-8e4e67347a1d","ios":"levelo://app?vid=c0578620-bc79-47d3-bd1d-8e4e67347a1d"},"vehicle_type_id":"4","last_reported":1743433851,"current_range_meters":8400,"station_id":"ce4bho92rcd13ifvqh4g","pricing_plan_id":"cebpf4jnsgd1na2vs0mg"},{"bike_id":"8a423c5b-57f1-4052-9547-c2b64f34ded2","system_id":"levelo_inurba_marseille","lat":43.28285,"lon":5.35093,"is_reserved":false,"is_disabled":false,"rental_uris":{"android":"levelo://app?vid=8a423c5b-57f1-4052-9547-c2b64f34ded2","ios":"levelo://app?vid=8a423c5b-57f1-4052-9547-c2b64f34ded2"},"vehicle_type_id":"4","last_reported":1743433851,"current_range_meters":8400,"station_id":"ce4bhbp2rcd13ifvqerg","pricing_plan_id":"cebpf4jnsgd1na2vs0mg"},{"bike_id":"8e4abe18-de39-4710-9451-43b6b0a646cf","system_id":"levelo_inurba_marseille","lat":43.298,"lon":5.40414,"is_reserved":false,"is_disabled":false,"rental_uris":{"android":"levelo://app?vid=8e4abe18-de39-4710-9451-43b6b0a646cf","ios":"levelo://app?vid=8e4abe18-de39-4710-9451-43b6b0a646cf"},"vehicle_type_id":"4","last_reported":1743433851,"current_range_meters":8400,"station_id":"ce4bh112rcd13ifvqd90","pricing_plan_id":"cebpf4jnsgd1na2vs0mg"},{"bike_id":"9d8048cc-0c35-415c-802a-776b5f4ff1b5","system_id":"levelo_inurba_marseille","lat":43.31376,"lon":5.36712,"is_reserved":false,"is_disabled":false,"rental_uris":{"android":"levelo://app?vid=9d8048cc-0c35-415c-802a-776b5f4ff1b5","ios":"levelo://app?vid=9d8048cc-0c35-415c-802a-776b5f4ff1b5"},"vehicle_type_id":"4","last_reported":1743433851,"current_range_meters":8400,"station_id":"ce4bgr92rcd13ifvqc6g","pricing_plan_id":"cebpf4jnsgd1na2vs0mg"},{"bike_id":"3166b99c-56ba-4dc7-a436-b01ab0995a3b","system_id":"levelo_inurba_marseille","lat":43.24173,"lon":5.39721,"is_reserved":false,"is_disabled":false,"rental_uris":{"android":"levelo://app?vid=3166b99c-56ba-4dc7-a436-b01ab0995a3b","ios":"levelo://app?vid=3166b99c-56ba-4dc7-a436-b01ab0995a3b"},"vehicle_type_id":"4","last_reported":1743433851,"current_range_meters":8800,"station_id":"ce4bhn12rcd13ifvqgpg","pricing_plan_id":"cebpf4jnsgd1na2vs0mg"},{"bike_id":"ca0583b7-5669-4753-8262-d8e09aa9fe38","system_id":"levelo_inurba_marseille","lat":43.30566,"lon":5.36512,"is_reserved":false,"is_disabled":false,"rental_uris":{"android":"levelo://app?vid=ca0583b7-5669-4753-8262-d8e09aa9fe38","ios":"levelo://app?vid=ca0583b7-5669-4753-8262-d8e09aa9fe38"},"vehicle_type_id":"4","last_reported":1743433851,"current_range_meters":8800,"station_id":"ce4bgs12rcd13ifvqcag","pricing_plan_id":"cebpf4jnsgd1na2vs0mg"},{"bike_id":"5de7c429-29d4-472f-b1cd-0c646e91229d","system_id":"levelo_inurba_marseille","lat":43.29423,"lon":5.38634,"is_reserved":false,"is_disabled":false,"rental_uris":{"android":"levelo://app?vid=5de7c429-29d4-472f-b1cd-0c646e91229d","ios":"levelo://app?vid=5de7c429-29d4-472f-b1cd-0c646e91229d"},"vehicle_type_id":"4","last_reported":1743433851,"current_range_meters":8800,"station_id":"ce4bh2h2rcd13ifvqdh0","pricing_plan_id":"cebpf4jnsgd1na2vs0mg"},{"bike_id":"fb8ae3d7-aed2-4e53-b361-916b6a565d76","system_id":"levelo_inurba_marseille","lat":43.22931,"lon":5.35402,"is_reserved":false,"is_disabled":false,"rental_uris":{"android":"levelo://app?vid=fb8ae3d7-aed2-4e53-b361-916b6a565d76","ios":"levelo://app?vid=fb8ae3d7-aed2-4e53-b361-916b6a565d76"},"vehicle_type_id":"4","last_reported":1743433851,"current_range_meters":8800,"station_id":"cpo3532slgdg3j2ikp40","pricing_plan_id":"cebpf4jnsgd1na2vs0mg"},{"bike_id":"204ecd7d-d79a-4494-8305-7c83c69add7d","system_id":"levelo_inurba_marseille","lat":43.25665,"lon":5.41983,"is_reserved":false,"is_disabled":false,"rental_uris":{"android":"levelo://app?vid=204ecd7d-d79a-4494-8305-7c83c69add7d","ios":"levelo://app?vid=204ecd7d-d79a-4494-8305-7c83c69add7d"},"vehicle_type_id":"4","last_reported":1743433851,"current_range_meters":8800,"station_id":"","pricing_plan_id":"cebpf4jnsgd1na2vs0mg"},{"bike_id":"ba1107aa-9b1f-4710-bb75-05314e757fc6","system_id":"levelo_inurba_marseille","lat":43.31688,"lon":5.37262,"is_reserved":false,"is_disabled":false,"rental_uris":{"android":"levelo://app?vid=ba1107aa-9b1f-4710-bb75-05314e757fc6","ios":"levelo://app?vid=ba1107aa-9b1f-4710-bb75-05314e757fc6"},"vehicle_type_id":"4","last_reported":1743433851,"current_range_meters":8800,"station_id":"","pricing_plan_id":"cebpf4jnsgd1na2vs0mg"},{"bike_id":"5c537328-d3da-461e-81bd-b87159e66329","system_id":"levelo_inurba_marseille","lat":43.29525,"lon":5.39046,"is_reserved":false,"is_disabled":false,"rental_uris":{"android":"levelo://app?vid=5c537328-d3da-461e-81bd-b87159e66329","ios":"levelo://app?vid=5c537328-d3da-461e-81bd-b87159e66329"},"vehicle_type_id":"4","last_reported":1743433851,"current_range_meters":8800,"station_id":"ce4bh3p2rcd13ifvqdp0","pricing_plan_id":"cebpf4jnsgd1na2vs0mg"},{"bike_id":"59619804-8ded-4ad0-af71-484e24142382","system_id":"levelo_inurba_marseille","lat":43.30076,"lon":5.3909,"is_reserved":false,"is_disabled":false,"rental_uris":{"android":"levelo://app?vid=59619804-8ded-4ad0-af71-484e24142382","ios":"levelo://app?vid=59619804-8ded-4ad0-af71-484e24142382"},"vehicle_type_id":"4","last_reported":1743433851,"current_range_meters":9200,"station_id":"ce4bh192rcd13ifvqdb0","pricing_plan_id":"cebpf4jnsgd1na2vs0mg"},{"bike_id":"970d4a28-2e4b-453e-912d-59e6f284b811","system_id":"levelo_inurba_marseille","lat":43.32365,"lon":5.38879,"is_reserved":false,"is_disabled":true,"rental_uris":{"android":"levelo://app?vid=970d4a28-2e4b-453e-912d-59e6f284b811","ios":"levelo://app?vid=970d4a28-2e4b-453e-912d-59e6f284b811"},"vehicle_type_id":"4","last_reported":1743433851,"current_range_meters":9200,"station_id":"ce4bhqp2rcd13ifvqhog","pricing_plan_id":"cebpf4jnsgd1na2vs0mg"},{"bike_id":"34270fff-d204-425c-be43-6633098181f4","system_id":"levelo_inurba_marseille","lat":43.29621,"lon":5.40598,"is_reserved":false,"is_disabled":false,"rental_uris":{"android":"levelo://app?vid=34270fff-d204-425c-be43-6633098181f4","ios":"levelo://app?vid=34270fff-d204-425c-be43-6633098181f4"},"vehicle_type_id":"4","last_reported":1743433851,"current_range_meters":9200,"station_id":"ce4bh0h2rcd13ifvqd60","pricing_plan_id":"cebpf4jnsgd1na2vs0mg"},{"bike_id":"121010d1-d0ea-475b-97a6-f9054736109c","system_id":"levelo_inurba_marseille","lat":43.23194,"lon":5.39993,"is_reserved":false,"is_disabled":false,"rental_uris":{"android":"levelo://app?vid=121010d1-d0ea-475b-97a6-f9054736109c","ios":"levelo://app?vid=121010d1-d0ea-475b-97a6-f9054736109c"},"vehicle_type_id":"4","last_reported":1743433851,"current_range_meters":9200,"station_id":"ce4bhn12rcd13ifvqgqg","pricing_plan_id":"cebpf4jnsgd1na2vs0mg"},{"bike_id":"d8f50143-8ccf-4482-87e3-1dc28a04a34f","system_id":"levelo_inurba_marseille","lat":43.29634,"lon":5.40604,"is_reserved":false,"is_disabled":false,"rental_uris":{"android":"levelo://app?vid=d8f50143-8ccf-4482-87e3-1dc28a04a34f","ios":"levelo://app?vid=d8f50143-8ccf-4482-87e3-1dc28a04a34f"},"vehicle_type_id":"4","last_reported":1743433851,"current_range_meters":9200,"station_id":"ce4bh0h2rcd13ifvqd60","pricing_plan_id":"cebpf4jnsgd1na2vs0mg"},{"bike_id":"b3e97410-c1b2-4369-b878-0aa5bbd817bc","system_id":"levelo_inurba_marseille","lat":43.28466,"lon":5.35892,"is_reserved":false,"is_disabled":true,"rental_uris":{"android":"levelo://app?vid=b3e97410-c1b2-4369-b878-0aa5bbd817bc","ios":"levelo://app?vid=b3e97410-c1b2-4369-b878-0aa5bbd817bc"},"vehicle_type_id":"4","last_reported":1743433851,"current_range_meters":9200,"station_id":"ce4bhah2rcd13ifvqei0","pricing_plan_id":"cebpf4jnsgd1na2vs0mg"},{"bike_id":"99e7d147-e2b6-4982-8a11-f600737d5497","system_id":"levelo_inurba_marseille","lat":43.31236,"lon":5.36875,"is_reserved":false,"is_disabled":false,"rental_uris":{"android":"levelo://app?vid=99e7d147-e2b6-4982-8a11-f600737d5497","ios":"levelo://app?vid=99e7d147-e2b6-4982-8a11-f600737d5497"},"vehicle_type_id":"4","last_reported":1743433851,"current_range_meters":9200,"station_id":"ce4bgl92rcd13ifvqbq0","pricing_plan_id":"cebpf4jnsgd1na2vs0mg"},{"bike_id":"e1670699-eef0-4d5f-b3bd-bb683bf745f4","system_id":"levelo_inurba_marseille","lat":43.29213,"lon":5.39329,"is_reserved":false,"is_disabled":false,"rental_uris":{"android":"levelo://app?vid=e1670699-eef0-4d5f-b3bd-bb683bf745f4","ios":"levelo://app?vid=e1670699-eef0-4d5f-b3bd-bb683bf745f4"},"vehicle_type_id":"4","last_reported":1743433851,"current_range_meters":9200,"station_id":"ce4bh192rcd13ifvqdd0","pricing_plan_id":"cebpf4jnsgd1na2vs0mg"},{"bike_id":"a66fa036-89bf-4eb5-aaa7-e97f5fb65a7d","system_id":"levelo_inurba_marseille","lat":43.27077,"lon":5.4227,"is_reserved":false,"is_disabled":false,"rental_uris":{"android":"levelo://app?vid=a66fa036-89bf-4eb5-aaa7-e97f5fb65a7d","ios":"levelo://app?vid=a66fa036-89bf-4eb5-aaa7-e97f5fb65a7d"},"vehicle_type_id":"4","last_reported":1743433851,"current_range_meters":9200,"station_id":"ce4bhk92rcd13ifvqgb0","pricing_plan_id":"cebpf4jnsgd1na2vs0mg"},{"bike_id":"8351f8a9-a680-4312-9fc5-e5c852794678","system_id":"levelo_inurba_marseille","lat":43.33028,"lon":5.39057,"is_reserved":false,"is_disabled":false,"rental_uris":{"android":"levelo://app?vid=8351f8a9-a680-4312-9fc5-e5c852794678","ios":"levelo://app?vid=8351f8a9-a680-4312-9fc5-e5c852794678"},"vehicle_type_id":"4","last_reported":1743433851,"current_range_meters":9200,"station_id":"ce4bhr92rcd13ifvqhrg","pricing_plan_id":"cebpf4jnsgd1na2vs0mg"},{"bike_id":"cc7d7316-cdc7-4682-b402-176881a3000b","system_id":"levelo_inurba_marseille","lat":43.29548,"lon":5.39415,"is_reserved":false,"is_disabled":false,"rental_uris":{"android":"levelo://app?vid=cc7d7316-cdc7-4682-b402-176881a3000b","ios":"levelo://app?vid=cc7d7316-cdc7-4682-b402-176881a3000b"},"vehicle_type_id":"4","last_reported":1743433851,"current_range_meters":8800,"station_id":"ce4bh292rcd13ifvqdf0","pricing_plan_id":"cebpf4jnsgd1na2vs0mg"},{"bike_id":"0048dfd7-a92f-4da1-96eb-62772823ec37","system_id":"levelo_inurba_marseille","lat":43.28271,"lon":5.35084,"is_reserved":false,"is_disabled":false,"rental_uris":{"android":"levelo://app?vid=0048dfd7-a92f-4da1-96eb-62772823ec37","ios":"levelo://app?vid=0048dfd7-a92f-4da1-96eb-62772823ec37"},"vehicle_type_id":"4","last_reported":1743433851,"current_range_meters":9200,"station_id":"ce4bhbp2rcd13ifvqerg","pricing_plan_id":"cebpf4jnsgd1na2vs0mg"},{"bike_id":"fd451361-df42-42f6-97fe-ff667610a759","system_id":"levelo_inurba_marseille","lat":43.30148,"lon":5.38086,"is_reserved":false,"is_disabled":false,"rental_uris":{"android":"levelo://app?vid=fd451361-df42-42f6-97fe-ff667610a759","ios":"levelo://app?vid=fd451361-df42-42f6-97fe-ff667610a759"},"vehicle_type_id":"4","last_reported":1743433851,"current_range_meters":9200,"station_id":"ce4bgjp2rcd13ifvqbh0","pricing_plan_id":"cebpf4jnsgd1na2vs0mg"},{"bike_id":"33617128-679c-4f50-bd11-824487d39bcd","system_id":"levelo_inurba_marseille","lat":43.28283,"lon":5.3507,"is_reserved":false,"is_disabled":false,"rental_uris":{"android":"levelo://app?vid=33617128-679c-4f50-bd11-824487d39bcd","ios":"levelo://app?vid=33617128-679c-4f50-bd11-824487d39bcd"},"vehicle_type_id":"4","last_reported":1743433851,"current_range_meters":9200,"station_id":"ce4bhbp2rcd13ifvqerg","pricing_plan_id":"cebpf4jnsgd1na2vs0mg"},{"bike_id":"abe50da3-d276-4e2d-89dc-4ba535cd6c8e","system_id":"levelo_inurba_marseille","lat":43.30919,"lon":5.36824,"is_reserved":false,"is_disabled":false,"rental_uris":{"android":"levelo://app?vid=abe50da3-d276-4e2d-89dc-4ba535cd6c8e","ios":"levelo://app?vid=abe50da3-d276-4e2d-89dc-4ba535cd6c8e"},"vehicle_type_id":"4","last_reported":1743433851,"current_range_meters":9600,"station_id":"ce4bgn92rcd13ifvqbvg","pricing_plan_id":"cebpf4jnsgd1na2vs0mg"},{"bike_id":"5cebf4ea-95d1-47df-9f3d-f5a6e16c236c","system_id":"levelo_inurba_marseille","lat":43.2868,"lon":5.38675,"is_reserved":false,"is_disabled":false,"rental_uris":{"android":"levelo://app?vid=5cebf4ea-95d1-47df-9f3d-f5a6e16c236c","ios":"levelo://app?vid=5cebf4ea-95d1-47df-9f3d-f5a6e16c236c"},"vehicle_type_id":"4","last_reported":1743433851,"current_range_meters":9600,"station_id":"ce4bh492rcd13ifvqdug","pricing_plan_id":"cebpf4jnsgd1na2vs0mg"},{"bike_id":"82314f1c-78c7-4ec5-bb95-87cbad0564c9","system_id":"levelo_inurba_marseille","lat":43.23179,"lon":5.3999,"is_reserved":false,"is_disabled":false,"rental_uris":{"android":"levelo://app?vid=82314f1c-78c7-4ec5-bb95-87cbad0564c9","ios":"levelo://app?vid=82314f1c-78c7-4ec5-bb95-87cbad0564c9"},"vehicle_type_id":"4","last_reported":1743433851,"current_range_meters":9600,"station_id":"ce4bhn12rcd13ifvqgqg","pricing_plan_id":"cebpf4jnsgd1na2vs0mg"},{"bike_id":"2d628eb0-a34f-4e98-aa4c-4ac132b4a38f","system_id":"levelo_inurba_marseille","lat":43.29018,"lon":5.35619,"is_reserved":false,"is_disabled":false,"rental_uris":{"android":"levelo://app?vid=2d628eb0-a34f-4e98-aa4c-4ac132b4a38f","ios":"levelo://app?vid=2d628eb0-a34f-4e98-aa4c-4ac132b4a38f"},"vehicle_type_id":"4","last_reported":1743433851,"current_range_meters":9600,"station_id":"ce4bhb92rcd13ifvqen0","pricing_plan_id":"cebpf4jnsgd1na2vs0mg"},{"bike_id":"14c6f955-5601-4536-bf1a-199a9389832d","system_id":"levelo_inurba_marseille","lat":43.28456,"lon":5.35886,"is_reserved":false,"is_disabled":false,"rental_uris":{"android":"levelo://app?vid=14c6f955-5601-4536-bf1a-199a9389832d","ios":"levelo://app?vid=14c6f955-5601-4536-bf1a-199a9389832d"},"vehicle_type_id":"4","last_reported":1743433851,"current_range_meters":9600,"station_id":"ce4bhah2rcd13ifvqei0","pricing_plan_id":"cebpf4jnsgd1na2vs0mg"},{"bike_id":"2bf31f9f-c5c0-434c-ab3b-b017d7dc966d","system_id":"levelo_inurba_marseille","lat":43.23051,"lon":5.35498,"is_reserved":false,"is_disabled":false,"rental_uris":{"android":"levelo://app?vid=2bf31f9f-c5c0-434c-ab3b-b017d7dc966d","ios":"levelo://app?vid=2bf31f9f-c5c0-434c-ab3b-b017d7dc966d"},"vehicle_type_id":"4","last_reported":1743433851,"current_range_meters":9600,"station_id":"cpo3342slgdg3j2ifvpg","pricing_plan_id":"cebpf4jnsgd1na2vs0mg"},{"bike_id":"27e0911e-ba73-4d08-8d8f-30f7aff23ddc","system_id":"levelo_inurba_marseille","lat":43.29534,"lon":5.39418,"is_reserved":false,"is_disabled":false,"rental_uris":{"android":"levelo://app?vid=27e0911e-ba73-4d08-8d8f-30f7aff23ddc","ios":"levelo://app?vid=27e0911e-ba73-4d08-8d8f-30f7aff23ddc"},"vehicle_type_id":"4","last_reported":1743433851,"current_range_meters":9600,"station_id":"ce4bh292rcd13ifvqdf0","pricing_plan_id":"cebpf4jnsgd1na2vs0mg"},{"bike_id":"9163f26b-64b1-4207-9226-6fcb966e0639","system_id":"levelo_inurba_marseille","lat":43.24164,"lon":5.36391,"is_reserved":false,"is_disabled":false,"rental_uris":{"android":"levelo://app?vid=9163f26b-64b1-4207-9226-6fcb966e0639","ios":"levelo://app?vid=9163f26b-64b1-4207-9226-6fcb966e0639"},"vehicle_type_id":"4","last_reported":1743433851,"current_range_meters":9600,"station_id":"cpo36qri1sfpv3e86is0","pricing_plan_id":"cebpf4jnsgd1na2vs0mg"},{"bike_id":"d2f2ddd5-8dd4-436f-ba30-fd70dfe59da3","system_id":"levelo_inurba_marseille","lat":43.32107,"lon":5.36774,"is_reserved":false,"is_disabled":false,"rental_uris":{"android":"levelo://app?vid=d2f2ddd5-8dd4-436f-ba30-fd70dfe59da3","ios":"levelo://app?vid=d2f2ddd5-8dd4-436f-ba30-fd70dfe59da3"},"vehicle_type_id":"4","last_reported":1743433851,"current_range_meters":10000,"station_id":"ce4bhrh2rcd13ifvqhug","pricing_plan_id":"cebpf4jnsgd1na2vs0mg"},{"bike_id":"b0b73e20-b999-480d-9e41-77f611c0a848","system_id":"levelo_inurba_marseille","lat":43.2827,"lon":5.35074,"is_reserved":false,"is_disabled":false,"rental_uris":{"android":"levelo://app?vid=b0b73e20-b999-480d-9e41-77f611c0a848","ios":"levelo://app?vid=b0b73e20-b999-480d-9e41-77f611c0a848"},"vehicle_type_id":"4","last_reported":1743433851,"current_range_meters":10000,"station_id":"ce4bhbp2rcd13ifvqerg","pricing_plan_id":"cebpf4jnsgd1na2vs0mg"},{"bike_id":"23a2997f-acca-44d1-a72c-cccdd94a796c","system_id":"levelo_inurba_marseille","lat":43.30934,"lon":5.40143,"is_reserved":false,"is_disabled":true,"rental_uris":{"android":"levelo://app?vid=23a2997f-acca-44d1-a72c-cccdd94a796c","ios":"levelo://app?vid=23a2997f-acca-44d1-a72c-cccdd94a796c"},"vehicle_type_id":"4","last_reported":1743433851,"current_range_meters":10000,"station_id":"ce4bgvp2rcd13ifvqct0","pricing_plan_id":"cebpf4jnsgd1na2vs0mg"},{"bike_id":"ecf52612-0bc0-40be-af1a-5779690f20a7","system_id":"levelo_inurba_marseille","lat":43.28272,"lon":5.3507,"is_reserved":false,"is_disabled":false,"rental_uris":{"android":"levelo://app?vid=ecf52612-0bc0-40be-af1a-5779690f20a7","ios":"levelo://app?vid=ecf52612-0bc0-40be-af1a-5779690f20a7"},"vehicle_type_id":"4","last_reported":1743433851,"current_range_meters":10000,"station_id":"ce4bhbp2rcd13ifvqerg","pricing_plan_id":"cebpf4jnsgd1na2vs0mg"},{"bike_id":"a4d8b6a3-056f-4e93-b465-ec17e311e0da","system_id":"levelo_inurba_marseille","lat":43.26199,"lon":5.37936,"is_reserved":false,"is_disabled":false,"rental_uris":{"android":"levelo://app?vid=a4d8b6a3-056f-4e93-b465-ec17e311e0da","ios":"levelo://app?vid=a4d8b6a3-056f-4e93-b465-ec17e311e0da"},"vehicle_type_id":"4","last_reported":1743433851,"current_range_meters":10000,"station_id":"ce4bhjp2rcd13ifvqg90","pricing_plan_id":"cebpf4jnsgd1na2vs0mg"},{"bike_id":"443b1ee5-f3f9-4110-95a2-b62fcdfc5153","system_id":"levelo_inurba_marseille","lat":43.23063,"lon":5.35497,"is_reserved":false,"is_disabled":false,"rental_uris":{"android":"levelo://app?vid=443b1ee5-f3f9-4110-95a2-b62fcdfc5153","ios":"levelo://app?vid=443b1ee5-f3f9-4110-95a2-b62fcdfc5153"},"vehicle_type_id":"4","last_reported":1743433851,"current_range_meters":10000,"station_id":"cpo3342slgdg3j2ifvpg","pricing_plan_id":"cebpf4jnsgd1na2vs0mg"},{"bike_id":"829dcf0a-97d2-4376-8d94-9d5a1b6dd863","system_id":"levelo_inurba_marseille","lat":43.28288,"lon":5.35079,"is_reserved":false,"is_disabled":false,"rental_uris":{"android":"levelo://app?vid=829dcf0a-97d2-4376-8d94-9d5a1b6dd863","ios":"levelo://app?vid=829dcf0a-97d2-4376-8d94-9d5a1b6dd863"},"vehicle_type_id":"4","last_reported":1743433851,"current_range_meters":10000,"station_id":"ce4bhbp2rcd13ifvqerg","pricing_plan_id":"cebpf4jnsgd1na2vs0mg"},{"bike_id":"b144f4c3-562d-4fca-b862-bbe9ab17e2c8","system_id":"levelo_inurba_marseille","lat":43.28428,"lon":5.34997,"is_reserved":false,"is_disabled":false,"rental_uris":{"android":"levelo://app?vid=b144f4c3-562d-4fca-b862-bbe9ab17e2c8","ios":"levelo://app?vid=b144f4c3-562d-4fca-b862-bbe9ab17e2c8"},"vehicle_type_id":"4","last_reported":1743433851,"current_range_meters":10000,"station_id":"ce4bhbh2rcd13ifvqepg","pricing_plan_id":"cebpf4jnsgd1na2vs0mg"},{"bike_id":"0f8f638f-6c59-4dfb-ab4f-882d40e453aa","system_id":"levelo_inurba_marseille","lat":43.29281,"lon":5.42763,"is_reserved":false,"is_disabled":false,"rental_uris":{"android":"levelo://app?vid=0f8f638f-6c59-4dfb-ab4f-882d40e453aa","ios":"levelo://app?vid=0f8f638f-6c59-4dfb-ab4f-882d40e453aa"},"vehicle_type_id":"4","last_reported":1743433851,"current_range_meters":10000,"station_id":"","pricing_plan_id":"cebpf4jnsgd1na2vs0mg"},{"bike_id":"c0b6faf4-b524-47ae-a7be-2bae4d04a860","system_id":"levelo_inurba_marseille","lat":43.26061,"lon":5.39396,"is_reserved":false,"is_disabled":false,"rental_uris":{"android":"levelo://app?vid=c0b6faf4-b524-47ae-a7be-2bae4d04a860","ios":"levelo://app?vid=c0b6faf4-b524-47ae-a7be-2bae4d04a860"},"vehicle_type_id":"4","last_reported":1743433851,"current_range_meters":10000,"station_id":"ce4bhh92rcd13ifvqfj0","pricing_plan_id":"cebpf4jnsgd1na2vs0mg"},{"bike_id":"c5eb6efc-e4a6-4f89-aafb-76f23657e243","system_id":"levelo_inurba_marseille","lat":43.28262,"lon":5.35063,"is_reserved":false,"is_disabled":false,"rental_uris":{"android":"levelo://app?vid=c5eb6efc-e4a6-4f89-aafb-76f23657e243","ios":"levelo://app?vid=c5eb6efc-e4a6-4f89-aafb-76f23657e243"},"vehicle_type_id":"4","last_reported":1743433851,"current_range_meters":10000,"station_id":"ce4bhbp2rcd13ifvqerg","pricing_plan_id":"cebpf4jnsgd1na2vs0mg"},{"bike_id":"d454fb38-9af5-424b-9ef1-00b2a0e91c70","system_id":"levelo_inurba_marseille","lat":43.229315,"lon":5.353698,"is_reserved":false,"is_disabled":false,"rental_uris":{"android":"levelo://app?vid=d454fb38-9af5-424b-9ef1-00b2a0e91c70","ios":"levelo://app?vid=d454fb38-9af5-424b-9ef1-00b2a0e91c70"},"vehicle_type_id":"4","last_reported":1743433851,"current_range_meters":10000,"station_id":"cpo3532slgdg3j2ikp40","pricing_plan_id":"cebpf4jnsgd1na2vs0mg"},{"bike_id":"cd4c796a-dd7d-4683-aa9e-b566ad8e8a64","system_id":"levelo_inurba_marseille","lat":43.28617,"lon":5.35099,"is_reserved":false,"is_disabled":false,"rental_uris":{"android":"levelo://app?vid=cd4c796a-dd7d-4683-aa9e-b566ad8e8a64","ios":"levelo://app?vid=cd4c796a-dd7d-4683-aa9e-b566ad8e8a64"},"vehicle_type_id":"4","last_reported":1743433851,"current_range_meters":10000,"station_id":"ce4bhch2rcd13ifvqeug","pricing_plan_id":"cebpf4jnsgd1na2vs0mg"},{"bike_id":"6230a085-82f2-44f1-aaa6-f8b1ebcaef70","system_id":"levelo_inurba_marseille","lat":43.28406,"lon":5.34985,"is_reserved":false,"is_disabled":false,"rental_uris":{"android":"levelo://app?vid=6230a085-82f2-44f1-aaa6-f8b1ebcaef70","ios":"levelo://app?vid=6230a085-82f2-44f1-aaa6-f8b1ebcaef70"},"vehicle_type_id":"4","last_reported":1743433851,"current_range_meters":10000,"station_id":"ce4bhbh2rcd13ifvqepg","pricing_plan_id":"cebpf4jnsgd1na2vs0mg"},{"bike_id":"8fa5fb11-10c8-4bed-b75c-83f4c72259ad","system_id":"levelo_inurba_marseille","lat":43.32371,"lon":5.36792,"is_reserved":false,"is_disabled":false,"rental_uris":{"android":"levelo://app?vid=8fa5fb11-10c8-4bed-b75c-83f4c72259ad","ios":"levelo://app?vid=8fa5fb11-10c8-4bed-b75c-83f4c72259ad"},"vehicle_type_id":"4","last_reported":1743433851,"current_range_meters":10000,"station_id":"ce4bhsh2rcd13ifvqi2g","pricing_plan_id":"cebpf4jnsgd1na2vs0mg"},{"bike_id":"fbc1c0a9-d425-4eb3-ba26-c96313abb304","system_id":"levelo_inurba_marseille","lat":43.2861,"lon":5.3512,"is_reserved":false,"is_disabled":false,"rental_uris":{"android":"levelo://app?vid=fbc1c0a9-d425-4eb3-ba26-c96313abb304","ios":"levelo://app?vid=fbc1c0a9-d425-4eb3-ba26-c96313abb304"},"vehicle_type_id":"4","last_reported":1743433851,"current_range_meters":10000,"station_id":"ce4bhch2rcd13ifvqeug","pricing_plan_id":"cebpf4jnsgd1na2vs0mg"},{"bike_id":"2726bfdb-4638-4364-9f4e-00c2e4c7a44d","system_id":"levelo_inurba_marseille","lat":43.32099,"lon":5.36791,"is_reserved":false,"is_disabled":false,"rental_uris":{"android":"levelo://app?vid=2726bfdb-4638-4364-9f4e-00c2e4c7a44d","ios":"levelo://app?vid=2726bfdb-4638-4364-9f4e-00c2e4c7a44d"},"vehicle_type_id":"4","last_reported":1743433851,"current_range_meters":10800,"station_id":"ce4bhrh2rcd13ifvqhug","pricing_plan_id":"cebpf4jnsgd1na2vs0mg"},{"bike_id":"6fa97106-103e-4571-85c0-458067ed9648","system_id":"levelo_inurba_marseille","lat":43.22924,"lon":5.35387,"is_reserved":false,"is_disabled":false,"rental_uris":{"android":"levelo://app?vid=6fa97106-103e-4571-85c0-458067ed9648","ios":"levelo://app?vid=6fa97106-103e-4571-85c0-458067ed9648"},"vehicle_type_id":"4","last_reported":1743433851,"current_range_meters":10800,"station_id":"cpo3532slgdg3j2ikp40","pricing_plan_id":"cebpf4jnsgd1na2vs0mg"},{"bike_id":"a358dfe8-8e12-4102-9fc4-95ff5ba6904c","system_id":"levelo_inurba_marseille","lat":43.28626,"lon":5.3511,"is_reserved":false,"is_disabled":false,"rental_uris":{"android":"levelo://app?vid=a358dfe8-8e12-4102-9fc4-95ff5ba6904c","ios":"levelo://app?vid=a358dfe8-8e12-4102-9fc4-95ff5ba6904c"},"vehicle_type_id":"4","last_reported":1743433851,"current_range_meters":10800,"station_id":"ce4bhch2rcd13ifvqeug","pricing_plan_id":"cebpf4jnsgd1na2vs0mg"},{"bike_id":"75eb16ac-b755-478d-bfb5-2e22abc751f6","system_id":"levelo_inurba_marseille","lat":43.29642,"lon":5.37149,"is_reserved":false,"is_disabled":true,"rental_uris":{"android":"levelo://app?vid=75eb16ac-b755-478d-bfb5-2e22abc751f6","ios":"levelo://app?vid=75eb16ac-b755-478d-bfb5-2e22abc751f6"},"vehicle_type_id":"4","last_reported":1743433851,"current_range_meters":10800,"station_id":"ce4bgnh2rcd13ifvqc0g","pricing_plan_id":"cebpf4jnsgd1na2vs0mg"},{"bike_id":"a49051c8-5f06-4471-9ba7-c2f53f6d878a","system_id":"levelo_inurba_marseille","lat":43.28431,"lon":5.35007,"is_reserved":false,"is_disabled":false,"rental_uris":{"android":"levelo://app?vid=a49051c8-5f06-4471-9ba7-c2f53f6d878a","ios":"levelo://app?vid=a49051c8-5f06-4471-9ba7-c2f53f6d878a"},"vehicle_type_id":"4","last_reported":1743433851,"current_range_meters":10800,"station_id":"ce4bhbh2rcd13ifvqepg","pricing_plan_id":"cebpf4jnsgd1na2vs0mg"},{"bike_id":"cb6936a1-cd1b-4349-b91b-d49d7f2703a0","system_id":"levelo_inurba_marseille","lat":43.30312,"lon":5.39207,"is_reserved":false,"is_disabled":true,"rental_uris":{"android":"levelo://app?vid=cb6936a1-cd1b-4349-b91b-d49d7f2703a0","ios":"levelo://app?vid=cb6936a1-cd1b-4349-b91b-d49d7f2703a0"},"vehicle_type_id":"4","last_reported":1743433851,"current_range_meters":10800,"station_id":"ce4bgkh2rcd13ifvqbk0","pricing_plan_id":"cebpf4jnsgd1na2vs0mg"},{"bike_id":"668c01cb-7bea-48c9-8f15-6bcc0c19c832","system_id":"levelo_inurba_marseille","lat":43.26209,"lon":5.37927,"is_reserved":false,"is_disabled":true,"rental_uris":{"android":"levelo://app?vid=668c01cb-7bea-48c9-8f15-6bcc0c19c832","ios":"levelo://app?vid=668c01cb-7bea-48c9-8f15-6bcc0c19c832"},"vehicle_type_id":"4","last_reported":1743433851,"current_range_meters":11200,"station_id":"ce4bhjp2rcd13ifvqg90","pricing_plan_id":"cebpf4jnsgd1na2vs0mg"},{"bike_id":"92fc1d36-1fe7-4bcf-b2c5-fc0e570ebf39","system_id":"levelo_inurba_marseille","lat":43.305346,"lon":5.365274,"is_reserved":false,"is_disabled":false,"rental_uris":{"android":"levelo://app?vid=92fc1d36-1fe7-4bcf-b2c5-fc0e570ebf39","ios":"levelo://app?vid=92fc1d36-1fe7-4bcf-b2c5-fc0e570ebf39"},"vehicle_type_id":"4","last_reported":1743433851,"current_range_meters":11200,"station_id":"ce4bgs12rcd13ifvqcag","pricing_plan_id":"cebpf4jnsgd1na2vs0mg"},{"bike_id":"ed606706-3ed4-42a9-b9b0-cffb1f8f9129","system_id":"levelo_inurba_marseille","lat":43.29704,"lon":5.37306,"is_reserved":false,"is_disabled":false,"rental_uris":{"android":"levelo://app?vid=ed606706-3ed4-42a9-b9b0-cffb1f8f9129","ios":"levelo://app?vid=ed606706-3ed4-42a9-b9b0-cffb1f8f9129"},"vehicle_type_id":"4","last_reported":1743433851,"current_range_meters":10800,"station_id":"ce4bgk12rcd13ifvqbj0","pricing_plan_id":"cebpf4jnsgd1na2vs0mg"},{"bike_id":"a74ed033-7731-40ac-a365-a455b97106d4","system_id":"levelo_inurba_marseille","lat":43.26684,"lon":5.38306,"is_reserved":false,"is_disabled":false,"rental_uris":{"android":"levelo://app?vid=a74ed033-7731-40ac-a365-a455b97106d4","ios":"levelo://app?vid=a74ed033-7731-40ac-a365-a455b97106d4"},"vehicle_type_id":"4","last_reported":1743433851,"current_range_meters":11200,"station_id":"ce4bhg92rcd13ifvqf90","pricing_plan_id":"cebpf4jnsgd1na2vs0mg"},{"bike_id":"b5982baf-12b8-4082-8de9-71a23b17d4a0","system_id":"levelo_inurba_marseille","lat":43.29177,"lon":5.37156,"is_reserved":false,"is_disabled":false,"rental_uris":{"android":"levelo://app?vid=b5982baf-12b8-4082-8de9-71a23b17d4a0","ios":"levelo://app?vid=b5982baf-12b8-4082-8de9-71a23b17d4a0"},"vehicle_type_id":"4","last_reported":1743433851,"current_range_meters":11200,"station_id":"ce4bha92rcd13ifvqeh0","pricing_plan_id":"cebpf4jnsgd1na2vs0mg"},{"bike_id":"285fa790-3775-479b-9dc1-994f548672b5","system_id":"levelo_inurba_marseille","lat":43.28423,"lon":5.34998,"is_reserved":false,"is_disabled":false,"rental_uris":{"android":"levelo://app?vid=285fa790-3775-479b-9dc1-994f548672b5","ios":"levelo://app?vid=285fa790-3775-479b-9dc1-994f548672b5"},"vehicle_type_id":"4","last_reported":1743433851,"current_range_meters":11200,"station_id":"ce4bhbh2rcd13ifvqepg","pricing_plan_id":"cebpf4jnsgd1na2vs0mg"},{"bike_id":"ae0831e1-2b67-489c-9508-e7afd6bc4e87","system_id":"levelo_inurba_marseille","lat":43.25086,"lon":5.39526,"is_reserved":false,"is_disabled":false,"rental_uris":{"android":"levelo://app?vid=ae0831e1-2b67-489c-9508-e7afd6bc4e87","ios":"levelo://app?vid=ae0831e1-2b67-489c-9508-e7afd6bc4e87"},"vehicle_type_id":"4","last_reported":1743433851,"current_range_meters":11600,"station_id":"ce4bhm12rcd13ifvqgkg","pricing_plan_id":"cebpf4jnsgd1na2vs0mg"},{"bike_id":"97ef780c-f64a-495a-811d-244c262ee047","system_id":"levelo_inurba_marseille","lat":43.307744,"lon":5.38185,"is_reserved":false,"is_disabled":false,"rental_uris":{"android":"levelo://app?vid=97ef780c-f64a-495a-811d-244c262ee047","ios":"levelo://app?vid=97ef780c-f64a-495a-811d-244c262ee047"},"vehicle_type_id":"4","last_reported":1743433851,"current_range_meters":11600,"station_id":"ce4bgt12rcd13ifvqce0","pricing_plan_id":"cebpf4jnsgd1na2vs0mg"},{"bike_id":"307789e6-dd5b-4f3e-84cd-fe3c1381baf5","system_id":"levelo_inurba_marseille","lat":43.2842,"lon":5.34983,"is_reserved":false,"is_disabled":false,"rental_uris":{"android":"levelo://app?vid=307789e6-dd5b-4f3e-84cd-fe3c1381baf5","ios":"levelo://app?vid=307789e6-dd5b-4f3e-84cd-fe3c1381baf5"},"vehicle_type_id":"4","last_reported":1743433851,"current_range_meters":11600,"station_id":"ce4bhbh2rcd13ifvqepg","pricing_plan_id":"cebpf4jnsgd1na2vs0mg"},{"bike_id":"e3ed6a7b-116d-4bce-98f8-0c4519635233","system_id":"levelo_inurba_marseille","lat":43.31986,"lon":5.37413,"is_reserved":false,"is_disabled":false,"rental_uris":{"android":"levelo://app?vid=e3ed6a7b-116d-4bce-98f8-0c4519635233","ios":"levelo://app?vid=e3ed6a7b-116d-4bce-98f8-0c4519635233"},"vehicle_type_id":"4","last_reported":1743433851,"current_range_meters":11600,"station_id":"","pricing_plan_id":"cebpf4jnsgd1na2vs0mg"},{"bike_id":"781e4fad-e8e0-41bd-9fc7-1331b936d0b1","system_id":"levelo_inurba_marseille","lat":43.28418,"lon":5.34994,"is_reserved":false,"is_disabled":false,"rental_uris":{"android":"levelo://app?vid=781e4fad-e8e0-41bd-9fc7-1331b936d0b1","ios":"levelo://app?vid=781e4fad-e8e0-41bd-9fc7-1331b936d0b1"},"vehicle_type_id":"4","last_reported":1743433851,"current_range_meters":11600,"station_id":"ce4bhbh2rcd13ifvqepg","pricing_plan_id":"cebpf4jnsgd1na2vs0mg"},{"bike_id":"8b4ee919-293e-4cf2-9b95-984074054576","system_id":"levelo_inurba_marseille","lat":43.240704,"lon":5.377701,"is_reserved":false,"is_disabled":false,"rental_uris":{"android":"levelo://app?vid=8b4ee919-293e-4cf2-9b95-984074054576","ios":"levelo://app?vid=8b4ee919-293e-4cf2-9b95-984074054576"},"vehicle_type_id":"4","last_reported":1743433851,"current_range_meters":11200,"station_id":"ce4bhnp2rcd13ifvqgvg","pricing_plan_id":"cebpf4jnsgd1na2vs0mg"},{"bike_id":"4779e75b-3819-4ce9-98b2-2be607e2e921","system_id":"levelo_inurba_marseille","lat":43.28671,"lon":5.36357,"is_reserved":false,"is_disabled":false,"rental_uris":{"android":"levelo://app?vid=4779e75b-3819-4ce9-98b2-2be607e2e921","ios":"levelo://app?vid=4779e75b-3819-4ce9-98b2-2be607e2e921"},"vehicle_type_id":"4","last_reported":1743433851,"current_range_meters":12000,"station_id":"ce4bhah2rcd13ifvqej0","pricing_plan_id":"cebpf4jnsgd1na2vs0mg"},{"bike_id":"e08cdf3b-038a-44ee-a15f-4650001e6aa9","system_id":"levelo_inurba_marseille","lat":43.29842,"lon":5.36271,"is_reserved":false,"is_disabled":false,"rental_uris":{"android":"levelo://app?vid=e08cdf3b-038a-44ee-a15f-4650001e6aa9","ios":"levelo://app?vid=e08cdf3b-038a-44ee-a15f-4650001e6aa9"},"vehicle_type_id":"4","last_reported":1743433851,"current_range_meters":12000,"station_id":"ce4bgpp2rcd13ifvqc3g","pricing_plan_id":"cebpf4jnsgd1na2vs0mg"},{"bike_id":"77df8e41-57ec-4640-ac8f-81838137030d","system_id":"levelo_inurba_marseille","lat":43.28264,"lon":5.35067,"is_reserved":false,"is_disabled":false,"rental_uris":{"android":"levelo://app?vid=77df8e41-57ec-4640-ac8f-81838137030d","ios":"levelo://app?vid=77df8e41-57ec-4640-ac8f-81838137030d"},"vehicle_type_id":"4","last_reported":1743433851,"current_range_meters":12000,"station_id":"ce4bhbp2rcd13ifvqerg","pricing_plan_id":"cebpf4jnsgd1na2vs0mg"},{"bike_id":"31647d2d-a912-4f0a-ae4e-c927fae7ff1e","system_id":"levelo_inurba_marseille","lat":43.2828,"lon":5.35079,"is_reserved":false,"is_disabled":false,"rental_uris":{"android":"levelo://app?vid=31647d2d-a912-4f0a-ae4e-c927fae7ff1e","ios":"levelo://app?vid=31647d2d-a912-4f0a-ae4e-c927fae7ff1e"},"vehicle_type_id":"4","last_reported":1743433851,"current_range_meters":12400,"station_id":"ce4bhbp2rcd13ifvqerg","pricing_plan_id":"cebpf4jnsgd1na2vs0mg"},{"bike_id":"f41e2eef-3409-4d82-b478-b6958ffb7ce8","system_id":"levelo_inurba_marseille","lat":43.24167,"lon":5.36401,"is_reserved":false,"is_disabled":false,"rental_uris":{"android":"levelo://app?vid=f41e2eef-3409-4d82-b478-b6958ffb7ce8","ios":"levelo://app?vid=f41e2eef-3409-4d82-b478-b6958ffb7ce8"},"vehicle_type_id":"4","last_reported":1743433851,"current_range_meters":12400,"station_id":"cpo36qri1sfpv3e86is0","pricing_plan_id":"cebpf4jnsgd1na2vs0mg"},{"bike_id":"76632b46-6a56-44d1-8868-c15662d6d66b","system_id":"levelo_inurba_marseille","lat":43.24547,"lon":5.39526,"is_reserved":false,"is_disabled":false,"rental_uris":{"android":"levelo://app?vid=76632b46-6a56-44d1-8868-c15662d6d66b","ios":"levelo://app?vid=76632b46-6a56-44d1-8868-c15662d6d66b"},"vehicle_type_id":"4","last_reported":1743433851,"current_range_meters":12400,"station_id":"ce4bhlp2rcd13ifvqgjg","pricing_plan_id":"cebpf4jnsgd1na2vs0mg"},{"bike_id":"ec5fa713-f7d4-45fe-aed2-e0940dc48d3b","system_id":"levelo_inurba_marseille","lat":43.28612,"lon":5.351,"is_reserved":false,"is_disabled":false,"rental_uris":{"android":"levelo://app?vid=ec5fa713-f7d4-45fe-aed2-e0940dc48d3b","ios":"levelo://app?vid=ec5fa713-f7d4-45fe-aed2-e0940dc48d3b"},"vehicle_type_id":"4","last_reported":1743433851,"current_range_meters":12400,"station_id":"ce4bhch2rcd13ifvqeug","pricing_plan_id":"cebpf4jnsgd1na2vs0mg"},{"bike_id":"72f9c339-b341-4e59-864a-ade49bf382bf","system_id":"levelo_inurba_marseille","lat":43.31173,"lon":5.38714,"is_reserved":false,"is_disabled":false,"rental_uris":{"android":"levelo://app?vid=72f9c339-b341-4e59-864a-ade49bf382bf","ios":"levelo://app?vid=72f9c339-b341-4e59-864a-ade49bf382bf"},"vehicle_type_id":"4","last_reported":1743433851,"current_range_meters":12400,"station_id":"ce4bgv12rcd13ifvqcp0","pricing_plan_id":"cebpf4jnsgd1na2vs0mg"},{"bike_id":"4ae8c713-e123-47b1-a6a1-f150ec603c10","system_id":"levelo_inurba_marseille","lat":43.28268,"lon":5.35072,"is_reserved":false,"is_disabled":false,"rental_uris":{"android":"levelo://app?vid=4ae8c713-e123-47b1-a6a1-f150ec603c10","ios":"levelo://app?vid=4ae8c713-e123-47b1-a6a1-f150ec603c10"},"vehicle_type_id":"4","last_reported":1743433851,"current_range_meters":12400,"station_id":"ce4bhbp2rcd13ifvqerg","pricing_plan_id":"cebpf4jnsgd1na2vs0mg"},{"bike_id":"4149bb35-63ab-42ac-bcca-276467ba6690","system_id":"levelo_inurba_marseille","lat":43.30151,"lon":5.39877,"is_reserved":false,"is_disabled":false,"rental_uris":{"android":"levelo://app?vid=4149bb35-63ab-42ac-bcca-276467ba6690","ios":"levelo://app?vid=4149bb35-63ab-42ac-bcca-276467ba6690"},"vehicle_type_id":"4","last_reported":1743433851,"current_range_meters":12800,"station_id":"ce4bh0h2rcd13ifvqd40","pricing_plan_id":"cebpf4jnsgd1na2vs0mg"},{"bike_id":"7e6d6075-c567-4e88-84d0-3cd22224fb8e","system_id":"levelo_inurba_marseille","lat":43.26557,"lon":5.37287,"is_reserved":false,"is_disabled":false,"rental_uris":{"android":"levelo://app?vid=7e6d6075-c567-4e88-84d0-3cd22224fb8e","ios":"levelo://app?vid=7e6d6075-c567-4e88-84d0-3cd22224fb8e"},"vehicle_type_id":"4","last_reported":1743433851,"current_range_meters":12800,"station_id":"ce4bhg12rcd13ifvqf70","pricing_plan_id":"cebpf4jnsgd1na2vs0mg"},{"bike_id":"ac1839bf-9575-4380-a4e0-712c605d403a","system_id":"levelo_inurba_marseille","lat":43.28618,"lon":5.35105,"is_reserved":false,"is_disabled":false,"rental_uris":{"android":"levelo://app?vid=ac1839bf-9575-4380-a4e0-712c605d403a","ios":"levelo://app?vid=ac1839bf-9575-4380-a4e0-712c605d403a"},"vehicle_type_id":"4","last_reported":1743433851,"current_range_meters":12800,"station_id":"ce4bhch2rcd13ifvqeug","pricing_plan_id":"cebpf4jnsgd1na2vs0mg"},{"bike_id":"5b60cf3d-0618-411d-9613-41d8a527c454","system_id":"levelo_inurba_marseille","lat":43.26201,"lon":5.40475,"is_reserved":false,"is_disabled":false,"rental_uris":{"android":"levelo://app?vid=5b60cf3d-0618-411d-9613-41d8a527c454","ios":"levelo://app?vid=5b60cf3d-0618-411d-9613-41d8a527c454"},"vehicle_type_id":"4","last_reported":1743433851,"current_range_meters":12800,"station_id":"ce4bhmh2rcd13ifvqgmg","pricing_plan_id":"cebpf4jnsgd1na2vs0mg"},{"bike_id":"b2859a9e-1c34-444e-8ae5-95896cb01a06","system_id":"levelo_inurba_marseille","lat":43.25487,"lon":5.37653,"is_reserved":false,"is_disabled":false,"rental_uris":{"android":"levelo://app?vid=b2859a9e-1c34-444e-8ae5-95896cb01a06","ios":"levelo://app?vid=b2859a9e-1c34-444e-8ae5-95896cb01a06"},"vehicle_type_id":"4","last_reported":1743433851,"current_range_meters":13600,"station_id":"ce4bhh12rcd13ifvqff0","pricing_plan_id":"cebpf4jnsgd1na2vs0mg"},{"bike_id":"b608855d-4db6-4537-ad42-2ce8a35d8326","system_id":"levelo_inurba_marseille","lat":43.284183,"lon":5.3499,"is_reserved":false,"is_disabled":false,"rental_uris":{"android":"levelo://app?vid=b608855d-4db6-4537-ad42-2ce8a35d8326","ios":"levelo://app?vid=b608855d-4db6-4537-ad42-2ce8a35d8326"},"vehicle_type_id":"4","last_reported":1743433851,"current_range_meters":13600,"station_id":"ce4bhbh2rcd13ifvqepg","pricing_plan_id":"cebpf4jnsgd1na2vs0mg"},{"bike_id":"a03f95b0-831b-4a5e-b052-ff67b9f54681","system_id":"levelo_inurba_marseille","lat":43.31067,"lon":5.38355,"is_reserved":false,"is_disabled":false,"rental_uris":{"android":"levelo://app?vid=a03f95b0-831b-4a5e-b052-ff67b9f54681","ios":"levelo://app?vid=a03f95b0-831b-4a5e-b052-ff67b9f54681"},"vehicle_type_id":"4","last_reported":1743433851,"current_range_meters":10000,"station_id":"ce4bgv92rcd13ifvqcr0","pricing_plan_id":"cebpf4jnsgd1na2vs0mg"},{"bike_id":"94ef58da-c300-4395-b37e-2c197b85133d","system_id":"levelo_inurba_marseille","lat":43.27557,"lon":5.38415,"is_reserved":false,"is_disabled":false,"rental_uris":{"android":"levelo://app?vid=94ef58da-c300-4395-b37e-2c197b85133d","ios":"levelo://app?vid=94ef58da-c300-4395-b37e-2c197b85133d"},"vehicle_type_id":"4","last_reported":1743433851,"current_range_meters":11600,"station_id":"ce4bhh92rcd13ifvqfi0","pricing_plan_id":"cebpf4jnsgd1na2vs0mg"},{"bike_id":"04181f39-e136-4973-a5d9-0265d794bc05","system_id":"levelo_inurba_marseille","lat":43.311089,"lon":5.377615,"is_reserved":false,"is_disabled":false,"rental_uris":{"android":"levelo://app?vid=04181f39-e136-4973-a5d9-0265d794bc05","ios":"levelo://app?vid=04181f39-e136-4973-a5d9-0265d794bc05"},"vehicle_type_id":"4","last_reported":1743433851,"current_range_meters":12800,"station_id":"ce4bgt92rcd13ifvqcf0","pricing_plan_id":"cebpf4jnsgd1na2vs0mg"},{"bike_id":"6408bbfa-f8a0-4c80-a44a-89839c7bc2c6","system_id":"levelo_inurba_marseille","lat":43.27557,"lon":5.38415,"is_reserved":false,"is_disabled":false,"rental_uris":{"android":"levelo://app?vid=6408bbfa-f8a0-4c80-a44a-89839c7bc2c6","ios":"levelo://app?vid=6408bbfa-f8a0-4c80-a44a-89839c7bc2c6"},"vehicle_type_id":"4","last_reported":1743433851,"current_range_meters":13600,"station_id":"ce4bhh92rcd13ifvqfi0","pricing_plan_id":"cebpf4jnsgd1na2vs0mg"},{"bike_id":"7a894edd-a4a4-40de-8b70-ca9fb3d5e3fd","system_id":"levelo_inurba_marseille","lat":43.31085,"lon":5.42447,"is_reserved":false,"is_disabled":false,"rental_uris":{"android":"levelo://app?vid=7a894edd-a4a4-40de-8b70-ca9fb3d5e3fd","ios":"levelo://app?vid=7a894edd-a4a4-40de-8b70-ca9fb3d5e3fd"},"vehicle_type_id":"4","last_reported":1743433851,"current_range_meters":14000,"station_id":"ce4bhp92rcd13ifvqhag","pricing_plan_id":"cebpf4jnsgd1na2vs0mg"},{"bike_id":"79667942-50eb-4c55-9e74-df15dbd3bcbe","system_id":"levelo_inurba_marseille","lat":43.27558,"lon":5.38416,"is_reserved":false,"is_disabled":false,"rental_uris":{"android":"levelo://app?vid=79667942-50eb-4c55-9e74-df15dbd3bcbe","ios":"levelo://app?vid=79667942-50eb-4c55-9e74-df15dbd3bcbe"},"vehicle_type_id":"4","last_reported":1743433851,"current_range_meters":14000,"station_id":"ce4bhh92rcd13ifvqfi0","pricing_plan_id":"cebpf4jnsgd1na2vs0mg"},{"bike_id":"9c5c138b-8f1e-42e5-9177-d1d1c4ccd899","system_id":"levelo_inurba_marseille","lat":43.28413,"lon":5.3752,"is_reserved":false,"is_disabled":false,"rental_uris":{"android":"levelo://app?vid=9c5c138b-8f1e-42e5-9177-d1d1c4ccd899","ios":"levelo://app?vid=9c5c138b-8f1e-42e5-9177-d1d1c4ccd899"},"vehicle_type_id":"4","last_reported":1743433851,"current_range_meters":14000,"station_id":"ce4bh412rcd13ifvqds0","pricing_plan_id":"cebpf4jnsgd1na2vs0mg"},{"bike_id":"97accc6c-ec8e-434d-bd9b-278659019a9a","system_id":"levelo_inurba_marseille","lat":43.29851,"lon":5.36273,"is_reserved":false,"is_disabled":false,"rental_uris":{"android":"levelo://app?vid=97accc6c-ec8e-434d-bd9b-278659019a9a","ios":"levelo://app?vid=97accc6c-ec8e-434d-bd9b-278659019a9a"},"vehicle_type_id":"4","last_reported":1743433851,"current_range_meters":14000,"station_id":"ce4bgpp2rcd13ifvqc3g","pricing_plan_id":"cebpf4jnsgd1na2vs0mg"},{"bike_id":"d162ab97-160b-4082-a300-c7000c41052c","system_id":"levelo_inurba_marseille","lat":43.28425,"lon":5.34992,"is_reserved":false,"is_disabled":false,"rental_uris":{"android":"levelo://app?vid=d162ab97-160b-4082-a300-c7000c41052c","ios":"levelo://app?vid=d162ab97-160b-4082-a300-c7000c41052c"},"vehicle_type_id":"4","last_reported":1743433851,"current_range_meters":14000,"station_id":"ce4bhbh2rcd13ifvqepg","pricing_plan_id":"cebpf4jnsgd1na2vs0mg"},{"bike_id":"0dd3a5d7-4b17-48d9-8e27-71d9609b80fa","system_id":"levelo_inurba_marseille","lat":43.28441,"lon":5.34981,"is_reserved":false,"is_disabled":false,"rental_uris":{"android":"levelo://app?vid=0dd3a5d7-4b17-48d9-8e27-71d9609b80fa","ios":"levelo://app?vid=0dd3a5d7-4b17-48d9-8e27-71d9609b80fa"},"vehicle_type_id":"4","last_reported":1743433851,"current_range_meters":14400,"station_id":"ce4bhbh2rcd13ifvqepg","pricing_plan_id":"cebpf4jnsgd1na2vs0mg"},{"bike_id":"35460d34-8ea1-4d1d-bf4b-3c37492b1367","system_id":"levelo_inurba_marseille","lat":43.28435,"lon":5.34986,"is_reserved":false,"is_disabled":false,"rental_uris":{"android":"levelo://app?vid=35460d34-8ea1-4d1d-bf4b-3c37492b1367","ios":"levelo://app?vid=35460d34-8ea1-4d1d-bf4b-3c37492b1367"},"vehicle_type_id":"4","last_reported":1743433851,"current_range_meters":14400,"station_id":"ce4bhbh2rcd13ifvqepg","pricing_plan_id":"cebpf4jnsgd1na2vs0mg"},{"bike_id":"90d7b6c9-5274-48de-a2a6-6ab8f7bab736","system_id":"levelo_inurba_marseille","lat":43.27369,"lon":5.36262,"is_reserved":false,"is_disabled":false,"rental_uris":{"android":"levelo://app?vid=90d7b6c9-5274-48de-a2a6-6ab8f7bab736","ios":"levelo://app?vid=90d7b6c9-5274-48de-a2a6-6ab8f7bab736"},"vehicle_type_id":"4","last_reported":1743433851,"current_range_meters":14400,"station_id":"ce4bhbh2rcd13ifvqeo0","pricing_plan_id":"cebpf4jnsgd1na2vs0mg"},{"bike_id":"12defb52-2590-4a06-99dc-bdc031cd4e15","system_id":"levelo_inurba_marseille","lat":43.29277,"lon":5.38448,"is_reserved":false,"is_disabled":false,"rental_uris":{"android":"levelo://app?vid=12defb52-2590-4a06-99dc-bdc031cd4e15","ios":"levelo://app?vid=12defb52-2590-4a06-99dc-bdc031cd4e15"},"vehicle_type_id":"4","last_reported":1743433851,"current_range_meters":14400,"station_id":"ce4bh692rcd13ifvqea0","pricing_plan_id":"cebpf4jnsgd1na2vs0mg"},{"bike_id":"009644a9-0649-4ef5-9309-4363b281eee8","system_id":"levelo_inurba_marseille","lat":43.29254,"lon":5.37626,"is_reserved":false,"is_disabled":false,"rental_uris":{"android":"levelo://app?vid=009644a9-0649-4ef5-9309-4363b281eee8","ios":"levelo://app?vid=009644a9-0649-4ef5-9309-4363b281eee8"},"vehicle_type_id":"4","last_reported":1743433851,"current_range_meters":14400,"station_id":"ce4bgi12rcd13ifvqb80","pricing_plan_id":"cebpf4jnsgd1na2vs0mg"},{"bike_id":"da56271d-f817-4d2a-b8ba-5220152f7401","system_id":"levelo_inurba_marseille","lat":43.30914,"lon":5.3684,"is_reserved":false,"is_disabled":false,"rental_uris":{"android":"levelo://app?vid=da56271d-f817-4d2a-b8ba-5220152f7401","ios":"levelo://app?vid=da56271d-f817-4d2a-b8ba-5220152f7401"},"vehicle_type_id":"4","last_reported":1743433851,"current_range_meters":14400,"station_id":"ce4bgn92rcd13ifvqbvg","pricing_plan_id":"cebpf4jnsgd1na2vs0mg"},{"bike_id":"77a49b2d-e6a6-4c0d-9224-b6c92ad62afc","system_id":"levelo_inurba_marseille","lat":43.28455,"lon":5.39204,"is_reserved":false,"is_disabled":false,"rental_uris":{"android":"levelo://app?vid=77a49b2d-e6a6-4c0d-9224-b6c92ad62afc","ios":"levelo://app?vid=77a49b2d-e6a6-4c0d-9224-b6c92ad62afc"},"vehicle_type_id":"4","last_reported":1743433851,"current_range_meters":14800,"station_id":"ce4bhoh2rcd13ifvqh5g","pricing_plan_id":"cebpf4jnsgd1na2vs0mg"},{"bike_id":"8bcdac8d-bfbd-4e55-bc7e-a4fe1ae09e71","system_id":"levelo_inurba_marseille","lat":43.22929,"lon":5.35379,"is_reserved":false,"is_disabled":false,"rental_uris":{"android":"levelo://app?vid=8bcdac8d-bfbd-4e55-bc7e-a4fe1ae09e71","ios":"levelo://app?vid=8bcdac8d-bfbd-4e55-bc7e-a4fe1ae09e71"},"vehicle_type_id":"4","last_reported":1743433851,"current_range_meters":14800,"station_id":"cpo3532slgdg3j2ikp40","pricing_plan_id":"cebpf4jnsgd1na2vs0mg"},{"bike_id":"4d1ef574-507a-4fec-a6d9-b5b49b8c445e","system_id":"levelo_inurba_marseille","lat":43.29271,"lon":5.36855,"is_reserved":false,"is_disabled":true,"rental_uris":{"android":"levelo://app?vid=4d1ef574-507a-4fec-a6d9-b5b49b8c445e","ios":"levelo://app?vid=4d1ef574-507a-4fec-a6d9-b5b49b8c445e"},"vehicle_type_id":"4","last_reported":1743433851,"current_range_meters":15200,"station_id":"ce4bhbp2rcd13ifvqesg","pricing_plan_id":"cebpf4jnsgd1na2vs0mg"},{"bike_id":"af82297b-fa17-4613-b45f-70b3acdd7830","system_id":"levelo_inurba_marseille","lat":43.301935,"lon":5.399027,"is_reserved":false,"is_disabled":false,"rental_uris":{"android":"levelo://app?vid=af82297b-fa17-4613-b45f-70b3acdd7830","ios":"levelo://app?vid=af82297b-fa17-4613-b45f-70b3acdd7830"},"vehicle_type_id":"4","last_reported":1743433851,"current_range_meters":14800,"station_id":"ce4bh0h2rcd13ifvqd40","pricing_plan_id":"cebpf4jnsgd1na2vs0mg"},{"bike_id":"563f1298-5e80-43d7-bd83-8b78e60378b3","system_id":"levelo_inurba_marseille","lat":43.305372,"lon":5.365238,"is_reserved":false,"is_disabled":false,"rental_uris":{"android":"levelo://app?vid=563f1298-5e80-43d7-bd83-8b78e60378b3","ios":"levelo://app?vid=563f1298-5e80-43d7-bd83-8b78e60378b3"},"vehicle_type_id":"4","last_reported":1743433851,"current_range_meters":14800,"station_id":"ce4bgs12rcd13ifvqcag","pricing_plan_id":"cebpf4jnsgd1na2vs0mg"},{"bike_id":"9f26f6b4-6f8c-41bd-9823-94cef41b22be","system_id":"levelo_inurba_marseille","lat":43.23192,"lon":5.39987,"is_reserved":false,"is_disabled":false,"rental_uris":{"android":"levelo://app?vid=9f26f6b4-6f8c-41bd-9823-94cef41b22be","ios":"levelo://app?vid=9f26f6b4-6f8c-41bd-9823-94cef41b22be"},"vehicle_type_id":"4","last_reported":1743433851,"current_range_meters":15200,"station_id":"ce4bhn12rcd13ifvqgqg","pricing_plan_id":"cebpf4jnsgd1na2vs0mg"},{"bike_id":"962d6aed-ca3b-4ee6-a2aa-de8d60c94ced","system_id":"levelo_inurba_marseille","lat":43.291412,"lon":5.355818,"is_reserved":false,"is_disabled":false,"rental_uris":{"android":"levelo://app?vid=962d6aed-ca3b-4ee6-a2aa-de8d60c94ced","ios":"levelo://app?vid=962d6aed-ca3b-4ee6-a2aa-de8d60c94ced"},"vehicle_type_id":"4","last_reported":1743433851,"current_range_meters":16000,"station_id":"ce4bh0h2rcd13ifvqd40","pricing_plan_id":"cebpf4jnsgd1na2vs0mg"},{"bike_id":"2c567be4-626d-4614-8796-6c92d09d2fa1","system_id":"levelo_inurba_marseille","lat":43.28606,"lon":5.3706,"is_reserved":false,"is_disabled":false,"rental_uris":{"android":"levelo://app?vid=2c567be4-626d-4614-8796-6c92d09d2fa1","ios":"levelo://app?vid=2c567be4-626d-4614-8796-6c92d09d2fa1"},"vehicle_type_id":"4","last_reported":1743433851,"current_range_meters":16000,"station_id":"ce4bht12rcd13ifvqi60","pricing_plan_id":"cebpf4jnsgd1na2vs0mg"},{"bike_id":"d555a6dd-87fb-4f1f-accb-2e9da48fe4bc","system_id":"levelo_inurba_marseille","lat":43.27386,"lon":5.36268,"is_reserved":false,"is_disabled":false,"rental_uris":{"android":"levelo://app?vid=d555a6dd-87fb-4f1f-accb-2e9da48fe4bc","ios":"levelo://app?vid=d555a6dd-87fb-4f1f-accb-2e9da48fe4bc"},"vehicle_type_id":"4","last_reported":1743433851,"current_range_meters":16000,"station_id":"ce4bhbh2rcd13ifvqeo0","pricing_plan_id":"cebpf4jnsgd1na2vs0mg"},{"bike_id":"28ac636b-156e-4057-9aee-4dd6355fdd79","system_id":"levelo_inurba_marseille","lat":43.2969,"lon":5.37301,"is_reserved":false,"is_disabled":false,"rental_uris":{"android":"levelo://app?vid=28ac636b-156e-4057-9aee-4dd6355fdd79","ios":"levelo://app?vid=28ac636b-156e-4057-9aee-4dd6355fdd79"},"vehicle_type_id":"4","last_reported":1743433851,"current_range_meters":16000,"station_id":"ce4bgk12rcd13ifvqbj0","pricing_plan_id":"cebpf4jnsgd1na2vs0mg"},{"bike_id":"d34b543c-c92a-4d83-8484-c2d5fe30d198","system_id":"levelo_inurba_marseille","lat":43.28266,"lon":5.35067,"is_reserved":false,"is_disabled":false,"rental_uris":{"android":"levelo://app?vid=d34b543c-c92a-4d83-8484-c2d5fe30d198","ios":"levelo://app?vid=d34b543c-c92a-4d83-8484-c2d5fe30d198"},"vehicle_type_id":"4","last_reported":1743433851,"current_range_meters":16000,"station_id":"","pricing_plan_id":"cebpf4jnsgd1na2vs0mg"},{"bike_id":"9d8b51bf-fd65-426c-9799-839498b24ee9","system_id":"levelo_inurba_marseille","lat":43.30667,"lon":5.36625,"is_reserved":false,"is_disabled":true,"rental_uris":{"android":"levelo://app?vid=9d8b51bf-fd65-426c-9799-839498b24ee9","ios":"levelo://app?vid=9d8b51bf-fd65-426c-9799-839498b24ee9"},"vehicle_type_id":"4","last_reported":1743433851,"current_range_meters":16000,"station_id":"","pricing_plan_id":"cebpf4jnsgd1na2vs0mg"},{"bike_id":"fa510546-8b93-4cd5-a810-9e947f09d20b","system_id":"levelo_inurba_marseille","lat":43.28739,"lon":5.361,"is_reserved":false,"is_disabled":false,"rental_uris":{"android":"levelo://app?vid=fa510546-8b93-4cd5-a810-9e947f09d20b","ios":"levelo://app?vid=fa510546-8b93-4cd5-a810-9e947f09d20b"},"vehicle_type_id":"4","last_reported":1743433851,"current_range_meters":16000,"station_id":"cki0cbj6b192h4jlfktg","pricing_plan_id":"cebpf4jnsgd1na2vs0mg"},{"bike_id":"295db1eb-185f-468e-8c2e-773f12d97773","system_id":"levelo_inurba_marseille","lat":43.24534,"lon":5.39528,"is_reserved":false,"is_disabled":false,"rental_uris":{"android":"levelo://app?vid=295db1eb-185f-468e-8c2e-773f12d97773","ios":"levelo://app?vid=295db1eb-185f-468e-8c2e-773f12d97773"},"vehicle_type_id":"4","last_reported":1743433851,"current_range_meters":16000,"station_id":"ce4bhlp2rcd13ifvqgjg","pricing_plan_id":"cebpf4jnsgd1na2vs0mg"},{"bike_id":"280a0250-0061-4c11-bdde-7739e6644035","system_id":"levelo_inurba_marseille","lat":43.30515,"lon":5.36741,"is_reserved":false,"is_disabled":false,"rental_uris":{"android":"levelo://app?vid=280a0250-0061-4c11-bdde-7739e6644035","ios":"levelo://app?vid=280a0250-0061-4c11-bdde-7739e6644035"},"vehicle_type_id":"4","last_reported":1743433851,"current_range_meters":16400,"station_id":"ce4bgrp2rcd13ifvqc9g","pricing_plan_id":"cebpf4jnsgd1na2vs0mg"},{"bike_id":"be6ce756-6a1b-4284-b56d-e7d286a86352","system_id":"levelo_inurba_marseille","lat":43.2866,"lon":5.36366,"is_reserved":false,"is_disabled":false,"rental_uris":{"android":"levelo://app?vid=be6ce756-6a1b-4284-b56d-e7d286a86352","ios":"levelo://app?vid=be6ce756-6a1b-4284-b56d-e7d286a86352"},"vehicle_type_id":"4","last_reported":1743433851,"current_range_meters":16400,"station_id":"ce4bhah2rcd13ifvqej0","pricing_plan_id":"cebpf4jnsgd1na2vs0mg"},{"bike_id":"b421ed20-73fd-4fa8-b7ef-66e1182d4f3e","system_id":"levelo_inurba_marseille","lat":43.27812,"lon":5.4072,"is_reserved":false,"is_disabled":false,"rental_uris":{"android":"levelo://app?vid=b421ed20-73fd-4fa8-b7ef-66e1182d4f3e","ios":"levelo://app?vid=b421ed20-73fd-4fa8-b7ef-66e1182d4f3e"},"vehicle_type_id":"4","last_reported":1743433851,"current_range_meters":16400,"station_id":"ce4bhnh2rcd13ifvqgtg","pricing_plan_id":"cebpf4jnsgd1na2vs0mg"},{"bike_id":"5b3317e2-ce4d-4867-a93b-a544e1acc1fa","system_id":"levelo_inurba_marseille","lat":43.28598,"lon":5.35106,"is_reserved":false,"is_disabled":false,"rental_uris":{"android":"levelo://app?vid=5b3317e2-ce4d-4867-a93b-a544e1acc1fa","ios":"levelo://app?vid=5b3317e2-ce4d-4867-a93b-a544e1acc1fa"},"vehicle_type_id":"4","last_reported":1743433851,"current_range_meters":16400,"station_id":"ce4bgup2rcd13ifvqcn0","pricing_plan_id":"cebpf4jnsgd1na2vs0mg"},{"bike_id":"06357cc9-b5a2-4479-a20a-541038310ad8","system_id":"levelo_inurba_marseille","lat":43.26824,"lon":5.40258,"is_reserved":false,"is_disabled":true,"rental_uris":{"android":"levelo://app?vid=06357cc9-b5a2-4479-a20a-541038310ad8","ios":"levelo://app?vid=06357cc9-b5a2-4479-a20a-541038310ad8"},"vehicle_type_id":"4","last_reported":1743433851,"current_range_meters":16400,"station_id":"ce501612rcd8frsf0b60","pricing_plan_id":"cebpf4jnsgd1na2vs0mg"},{"bike_id":"1b63ccb2-1298-4d96-b7f3-6ad6cace00e9","system_id":"levelo_inurba_marseille","lat":43.2613,"lon":5.40096,"is_reserved":false,"is_disabled":false,"rental_uris":{"android":"levelo://app?vid=1b63ccb2-1298-4d96-b7f3-6ad6cace00e9","ios":"levelo://app?vid=1b63ccb2-1298-4d96-b7f3-6ad6cace00e9"},"vehicle_type_id":"4","last_reported":1743433851,"current_range_meters":16400,"station_id":"","pricing_plan_id":"cebpf4jnsgd1na2vs0mg"},{"bike_id":"0a861bce-e43b-4e0f-88cb-e1f4c36e3623","system_id":"levelo_inurba_marseille","lat":43.26683,"lon":5.38274,"is_reserved":false,"is_disabled":false,"rental_uris":{"android":"levelo://app?vid=0a861bce-e43b-4e0f-88cb-e1f4c36e3623","ios":"levelo://app?vid=0a861bce-e43b-4e0f-88cb-e1f4c36e3623"},"vehicle_type_id":"4","last_reported":1743433851,"current_range_meters":16400,"station_id":"ce4bhg92rcd13ifvqf90","pricing_plan_id":"cebpf4jnsgd1na2vs0mg"},{"bike_id":"08b0071e-1463-4449-89b6-94f7cf804781","system_id":"levelo_inurba_marseille","lat":43.31267,"lon":5.36845,"is_reserved":false,"is_disabled":true,"rental_uris":{"android":"levelo://app?vid=08b0071e-1463-4449-89b6-94f7cf804781","ios":"levelo://app?vid=08b0071e-1463-4449-89b6-94f7cf804781"},"vehicle_type_id":"4","last_reported":1743433851,"current_range_meters":16400,"station_id":"ce4bgl92rcd13ifvqbq0","pricing_plan_id":"cebpf4jnsgd1na2vs0mg"},{"bike_id":"b18d61be-1314-4787-bdc3-677619cdb9f9","system_id":"levelo_inurba_marseille","lat":43.29915,"lon":5.37036,"is_reserved":false,"is_disabled":false,"rental_uris":{"android":"levelo://app?vid=b18d61be-1314-4787-bdc3-677619cdb9f9","ios":"levelo://app?vid=b18d61be-1314-4787-bdc3-677619cdb9f9"},"vehicle_type_id":"4","last_reported":1743433851,"current_range_meters":16400,"station_id":"","pricing_plan_id":"cebpf4jnsgd1na2vs0mg"},{"bike_id":"f9a2a5f0-9c98-43ac-84ca-a9b38b605fa6","system_id":"levelo_inurba_marseille","lat":43.30542,"lon":5.36735,"is_reserved":false,"is_disabled":false,"rental_uris":{"android":"levelo://app?vid=f9a2a5f0-9c98-43ac-84ca-a9b38b605fa6","ios":"levelo://app?vid=f9a2a5f0-9c98-43ac-84ca-a9b38b605fa6"},"vehicle_type_id":"4","last_reported":1743433851,"current_range_meters":16400,"station_id":"ce4bgrp2rcd13ifvqc9g","pricing_plan_id":"cebpf4jnsgd1na2vs0mg"},{"bike_id":"e47bc61d-df2d-41b3-b26b-dd94e6e5e301","system_id":"levelo_inurba_marseille","lat":43.26246,"lon":5.42117,"is_reserved":false,"is_disabled":false,"rental_uris":{"android":"levelo://app?vid=e47bc61d-df2d-41b3-b26b-dd94e6e5e301","ios":"levelo://app?vid=e47bc61d-df2d-41b3-b26b-dd94e6e5e301"},"vehicle_type_id":"4","last_reported":1743433851,"current_range_meters":16400,"station_id":"","pricing_plan_id":"cebpf4jnsgd1na2vs0mg"},{"bike_id":"f74ab59f-be69-4dbf-bb7a-b8d19bcdb4f1","system_id":"levelo_inurba_marseille","lat":43.2618,"lon":5.37943,"is_reserved":false,"is_disabled":false,"rental_uris":{"android":"levelo://app?vid=f74ab59f-be69-4dbf-bb7a-b8d19bcdb4f1","ios":"levelo://app?vid=f74ab59f-be69-4dbf-bb7a-b8d19bcdb4f1"},"vehicle_type_id":"4","last_reported":1743433851,"current_range_meters":16400,"station_id":"ce4bhjp2rcd13ifvqg90","pricing_plan_id":"cebpf4jnsgd1na2vs0mg"},{"bike_id":"27773214-4312-4127-aa54-e74cba3d6d07","system_id":"levelo_inurba_marseille","lat":43.27797,"lon":5.40745,"is_reserved":false,"is_disabled":false,"rental_uris":{"android":"levelo://app?vid=27773214-4312-4127-aa54-e74cba3d6d07","ios":"levelo://app?vid=27773214-4312-4127-aa54-e74cba3d6d07"},"vehicle_type_id":"4","last_reported":1743433851,"current_range_meters":16400,"station_id":"ce4bhnh2rcd13ifvqgtg","pricing_plan_id":"cebpf4jnsgd1na2vs0mg"},{"bike_id":"31349135-1628-41cd-a034-49c95e388b8e","system_id":"levelo_inurba_marseille","lat":43.28287,"lon":5.35091,"is_reserved":false,"is_disabled":false,"rental_uris":{"android":"levelo://app?vid=31349135-1628-41cd-a034-49c95e388b8e","ios":"levelo://app?vid=31349135-1628-41cd-a034-49c95e388b8e"},"vehicle_type_id":"4","last_reported":1743433851,"current_range_meters":16400,"station_id":"ce4bhbp2rcd13ifvqerg","pricing_plan_id":"cebpf4jnsgd1na2vs0mg"},{"bike_id":"948b9bcc-1ca5-487b-8b1a-9c0ff39eb7f2","system_id":"levelo_inurba_marseille","lat":43.29428,"lon":5.38631,"is_reserved":false,"is_disabled":false,"rental_uris":{"android":"levelo://app?vid=948b9bcc-1ca5-487b-8b1a-9c0ff39eb7f2","ios":"levelo://app?vid=948b9bcc-1ca5-487b-8b1a-9c0ff39eb7f2"},"vehicle_type_id":"4","last_reported":1743433851,"current_range_meters":16400,"station_id":"ce4bh2h2rcd13ifvqdh0","pricing_plan_id":"cebpf4jnsgd1na2vs0mg"},{"bike_id":"8221247b-981f-4f6f-be1c-477deae787ea","system_id":"levelo_inurba_marseille","lat":43.22929,"lon":5.35388,"is_reserved":false,"is_disabled":false,"rental_uris":{"android":"levelo://app?vid=8221247b-981f-4f6f-be1c-477deae787ea","ios":"levelo://app?vid=8221247b-981f-4f6f-be1c-477deae787ea"},"vehicle_type_id":"4","last_reported":1743433851,"current_range_meters":16400,"station_id":"cpo3532slgdg3j2ikp40","pricing_plan_id":"cebpf4jnsgd1na2vs0mg"},{"bike_id":"15fc2053-19a0-4c85-8165-533a6330be08","system_id":"levelo_inurba_marseille","lat":43.23152,"lon":5.43721,"is_reserved":false,"is_disabled":false,"rental_uris":{"android":"levelo://app?vid=15fc2053-19a0-4c85-8165-533a6330be08","ios":"levelo://app?vid=15fc2053-19a0-4c85-8165-533a6330be08"},"vehicle_type_id":"4","last_reported":1743433851,"current_range_meters":16800,"station_id":"ce4bhmp2rcd13ifvqgog","pricing_plan_id":"cebpf4jnsgd1na2vs0mg"},{"bike_id":"8e73c3d9-a6a5-42aa-b926-458ab18c6b60","system_id":"levelo_inurba_marseille","lat":43.31373,"lon":5.36706,"is_reserved":false,"is_disabled":false,"rental_uris":{"android":"levelo://app?vid=8e73c3d9-a6a5-42aa-b926-458ab18c6b60","ios":"levelo://app?vid=8e73c3d9-a6a5-42aa-b926-458ab18c6b60"},"vehicle_type_id":"4","last_reported":1743433851,"current_range_meters":16800,"station_id":"ce4bgr92rcd13ifvqc6g","pricing_plan_id":"cebpf4jnsgd1na2vs0mg"},{"bike_id":"9a3354d3-065a-4b2d-b4a8-e18196e4c690","system_id":"levelo_inurba_marseille","lat":43.28273,"lon":5.3507,"is_reserved":false,"is_disabled":false,"rental_uris":{"android":"levelo://app?vid=9a3354d3-065a-4b2d-b4a8-e18196e4c690","ios":"levelo://app?vid=9a3354d3-065a-4b2d-b4a8-e18196e4c690"},"vehicle_type_id":"4","last_reported":1743433851,"current_range_meters":16800,"station_id":"ce4bhbp2rcd13ifvqerg","pricing_plan_id":"cebpf4jnsgd1na2vs0mg"},{"bike_id":"988a6464-ed1a-44aa-a336-c22e8c52671d","system_id":"levelo_inurba_marseille","lat":43.29424,"lon":5.38631,"is_reserved":false,"is_disabled":false,"rental_uris":{"android":"levelo://app?vid=988a6464-ed1a-44aa-a336-c22e8c52671d","ios":"levelo://app?vid=988a6464-ed1a-44aa-a336-c22e8c52671d"},"vehicle_type_id":"4","last_reported":1743433851,"current_range_meters":16800,"station_id":"ce4bh2h2rcd13ifvqdh0","pricing_plan_id":"cebpf4jnsgd1na2vs0mg"},{"bike_id":"79548e4d-f761-40d8-9010-ab2d16098642","system_id":"levelo_inurba_marseille","lat":43.23062,"lon":5.3549,"is_reserved":false,"is_disabled":false,"rental_uris":{"android":"levelo://app?vid=79548e4d-f761-40d8-9010-ab2d16098642","ios":"levelo://app?vid=79548e4d-f761-40d8-9010-ab2d16098642"},"vehicle_type_id":"4","last_reported":1743433851,"current_range_meters":16800,"station_id":"cpo3342slgdg3j2ifvpg","pricing_plan_id":"cebpf4jnsgd1na2vs0mg"},{"bike_id":"b0aef815-38c9-4528-b35d-7e821f4eab19","system_id":"levelo_inurba_marseille","lat":43.26556,"lon":5.37285,"is_reserved":false,"is_disabled":false,"rental_uris":{"android":"levelo://app?vid=b0aef815-38c9-4528-b35d-7e821f4eab19","ios":"levelo://app?vid=b0aef815-38c9-4528-b35d-7e821f4eab19"},"vehicle_type_id":"4","last_reported":1743433851,"current_range_meters":16800,"station_id":"ce4bhg12rcd13ifvqf70","pricing_plan_id":"cebpf4jnsgd1na2vs0mg"},{"bike_id":"ca464ee6-da2a-4ff6-aa66-cbfed9fd5edf","system_id":"levelo_inurba_marseille","lat":43.30323,"lon":5.40447,"is_reserved":false,"is_disabled":false,"rental_uris":{"android":"levelo://app?vid=ca464ee6-da2a-4ff6-aa66-cbfed9fd5edf","ios":"levelo://app?vid=ca464ee6-da2a-4ff6-aa66-cbfed9fd5edf"},"vehicle_type_id":"4","last_reported":1743433851,"current_range_meters":16800,"station_id":"ce4bh012rcd13ifvqd10","pricing_plan_id":"cebpf4jnsgd1na2vs0mg"},{"bike_id":"a32f7781-a1b5-44a3-aa6b-479ac097cd80","system_id":"levelo_inurba_marseille","lat":43.26692,"lon":5.3827,"is_reserved":false,"is_disabled":true,"rental_uris":{"android":"levelo://app?vid=a32f7781-a1b5-44a3-aa6b-479ac097cd80","ios":"levelo://app?vid=a32f7781-a1b5-44a3-aa6b-479ac097cd80"},"vehicle_type_id":"4","last_reported":1743433851,"current_range_meters":16800,"station_id":"ce4bhg92rcd13ifvqf90","pricing_plan_id":"cebpf4jnsgd1na2vs0mg"},{"bike_id":"d6f6a378-c7e7-4990-a86d-df8cfed7333e","system_id":"levelo_inurba_marseille","lat":43.29806,"lon":5.40402,"is_reserved":false,"is_disabled":false,"rental_uris":{"android":"levelo://app?vid=d6f6a378-c7e7-4990-a86d-df8cfed7333e","ios":"levelo://app?vid=d6f6a378-c7e7-4990-a86d-df8cfed7333e"},"vehicle_type_id":"4","last_reported":1743433851,"current_range_meters":16800,"station_id":"ce4bh112rcd13ifvqd90","pricing_plan_id":"cebpf4jnsgd1na2vs0mg"},{"bike_id":"c7c4a409-b0a9-4372-adec-737b17e711c1","system_id":"levelo_inurba_marseille","lat":43.27363,"lon":5.36237,"is_reserved":false,"is_disabled":false,"rental_uris":{"android":"levelo://app?vid=c7c4a409-b0a9-4372-adec-737b17e711c1","ios":"levelo://app?vid=c7c4a409-b0a9-4372-adec-737b17e711c1"},"vehicle_type_id":"4","last_reported":1743433851,"current_range_meters":17200,"station_id":"ce4bhbh2rcd13ifvqeo0","pricing_plan_id":"cebpf4jnsgd1na2vs0mg"},{"bike_id":"60790fa8-3c8f-4eb9-8557-220480b38c80","system_id":"levelo_inurba_marseille","lat":43.29795,"lon":5.39349,"is_reserved":false,"is_disabled":false,"rental_uris":{"android":"levelo://app?vid=60790fa8-3c8f-4eb9-8557-220480b38c80","ios":"levelo://app?vid=60790fa8-3c8f-4eb9-8557-220480b38c80"},"vehicle_type_id":"4","last_reported":1743433851,"current_range_meters":17200,"station_id":"chh1huq6cuj3fo74tm60","pricing_plan_id":"cebpf4jnsgd1na2vs0mg"},{"bike_id":"988f3ea8-8850-4ab8-97aa-ddba4bd9806a","system_id":"levelo_inurba_marseille","lat":43.29157,"lon":5.37166,"is_reserved":false,"is_disabled":true,"rental_uris":{"android":"levelo://app?vid=988f3ea8-8850-4ab8-97aa-ddba4bd9806a","ios":"levelo://app?vid=988f3ea8-8850-4ab8-97aa-ddba4bd9806a"},"vehicle_type_id":"4","last_reported":1743433851,"current_range_meters":17200,"station_id":"ce4bha92rcd13ifvqeh0","pricing_plan_id":"cebpf4jnsgd1na2vs0mg"},{"bike_id":"984849ee-93e7-4d54-8939-9c582f8089f3","system_id":"levelo_inurba_marseille","lat":43.2917,"lon":5.37163,"is_reserved":false,"is_disabled":false,"rental_uris":{"android":"levelo://app?vid=984849ee-93e7-4d54-8939-9c582f8089f3","ios":"levelo://app?vid=984849ee-93e7-4d54-8939-9c582f8089f3"},"vehicle_type_id":"4","last_reported":1743433851,"current_range_meters":17200,"station_id":"ce4bha92rcd13ifvqeh0","pricing_plan_id":"cebpf4jnsgd1na2vs0mg"},{"bike_id":"858637d6-44cd-4e4e-95f7-81e3c7061ae3","system_id":"levelo_inurba_marseille","lat":43.30903,"lon":5.36851,"is_reserved":false,"is_disabled":false,"rental_uris":{"android":"levelo://app?vid=858637d6-44cd-4e4e-95f7-81e3c7061ae3","ios":"levelo://app?vid=858637d6-44cd-4e4e-95f7-81e3c7061ae3"},"vehicle_type_id":"4","last_reported":1743433851,"current_range_meters":17200,"station_id":"ce4bgn92rcd13ifvqbvg","pricing_plan_id":"cebpf4jnsgd1na2vs0mg"},{"bike_id":"57e6fa07-fefa-483c-a064-ec27c42d9afd","system_id":"levelo_inurba_marseille","lat":43.28858,"lon":5.3932,"is_reserved":false,"is_disabled":true,"rental_uris":{"android":"levelo://app?vid=57e6fa07-fefa-483c-a064-ec27c42d9afd","ios":"levelo://app?vid=57e6fa07-fefa-483c-a064-ec27c42d9afd"},"vehicle_type_id":"4","last_reported":1743433851,"current_range_meters":17200,"station_id":"ce4bh2p2rcd13ifvqdi0","pricing_plan_id":"cebpf4jnsgd1na2vs0mg"},{"bike_id":"a4e87992-398f-412d-a847-7e2527eea5b5","system_id":"levelo_inurba_marseille","lat":43.32047,"lon":5.41557,"is_reserved":false,"is_disabled":false,"rental_uris":{"android":"levelo://app?vid=a4e87992-398f-412d-a847-7e2527eea5b5","ios":"levelo://app?vid=a4e87992-398f-412d-a847-7e2527eea5b5"},"vehicle_type_id":"4","last_reported":1743433851,"current_range_meters":17200,"station_id":"ce4bhq92rcd13ifvqhkg","pricing_plan_id":"cebpf4jnsgd1na2vs0mg"},{"bike_id":"16bdf1e7-e518-430d-8271-d3baac60cfc9","system_id":"levelo_inurba_marseille","lat":43.25869,"lon":5.39896,"is_reserved":false,"is_disabled":false,"rental_uris":{"android":"levelo://app?vid=16bdf1e7-e518-430d-8271-d3baac60cfc9","ios":"levelo://app?vid=16bdf1e7-e518-430d-8271-d3baac60cfc9"},"vehicle_type_id":"4","last_reported":1743433851,"current_range_meters":17200,"station_id":"ce4bhl92rcd13ifvqghg","pricing_plan_id":"cebpf4jnsgd1na2vs0mg"},{"bike_id":"bef47032-81a9-46ef-95f0-e0d1feeeaf69","system_id":"levelo_inurba_marseille","lat":43.30131,"lon":5.39878,"is_reserved":false,"is_disabled":false,"rental_uris":{"android":"levelo://app?vid=bef47032-81a9-46ef-95f0-e0d1feeeaf69","ios":"levelo://app?vid=bef47032-81a9-46ef-95f0-e0d1feeeaf69"},"vehicle_type_id":"4","last_reported":1743433851,"current_range_meters":17600,"station_id":"ce4bh0h2rcd13ifvqd40","pricing_plan_id":"cebpf4jnsgd1na2vs0mg"},{"bike_id":"25de6368-9702-4dd7-af2f-4e77192b4161","system_id":"levelo_inurba_marseille","lat":43.28402,"lon":5.34996,"is_reserved":false,"is_disabled":false,"rental_uris":{"android":"levelo://app?vid=25de6368-9702-4dd7-af2f-4e77192b4161","ios":"levelo://app?vid=25de6368-9702-4dd7-af2f-4e77192b4161"},"vehicle_type_id":"4","last_reported":1743433851,"current_range_meters":17600,"station_id":"ce4bhbh2rcd13ifvqepg","pricing_plan_id":"cebpf4jnsgd1na2vs0mg"},{"bike_id":"87d2502c-7399-4f76-ab1d-2c85ee589067","system_id":"levelo_inurba_marseille","lat":43.26204,"lon":5.37925,"is_reserved":false,"is_disabled":false,"rental_uris":{"android":"levelo://app?vid=87d2502c-7399-4f76-ab1d-2c85ee589067","ios":"levelo://app?vid=87d2502c-7399-4f76-ab1d-2c85ee589067"},