{"last_updated":1713542920,"ttl":30,"version":"2.2","data":{"bikes":[{"bike_id":"29ef4f8c-04de-485a-88b8-b297d4b1cfa1","system_id":"levelo_inurba_marseille","lat":43.312239,"lon":5.368562,"is_reserved":false,"is_disabled":false,"rental_uris":{"android":"levelo://app?vid=29ef4f8c-04de-485a-88b8-b297d4b1cfa1","ios":"levelo://app?vid=29ef4f8c-04de-485a-88b8-b297d4b1cfa1"},"vehicle_type_id":"4","last_reported":1713542920,"current_range_meters":800,"station_id":"ce4bgl92rcd13ifvqbq0","pricing_plan_id":"cebpf4jnsgd1na2vs0mg"},{"bike_id":"9f91af8d-b16c-4a7b-83f2-cb54e230ef0f","system_id":"levelo_inurba_marseille","lat":43.293259,"lon":5.371586,"is_reserved":false,"is_disabled":false,"rental_uris":{"android":"levelo://app?vid=9f91af8d-b16c-4a7b-83f2-cb54e230ef0f","ios":"levelo://app?vid=9f91af8d-b16c-4a7b-83f2-cb54e230ef0f"},"vehicle_type_id":"4","last_reported":1713542920,"current_range_meters":15600,"station_id":"ce4bgh92rcd13ifvqb40","pricing_plan_id":"cebpf4jnsgd1na2vs0mg"},{"bike_id":"b540c1d0-02b6-47c7-9aa4-83df65145d33","system_id":"levelo_inurba_marseille","lat":43.309076,"lon":5.368465,"is_reserved":false,"is_disabled":false,"rental_uris":{"android":"levelo://app?vid=b540c1d0-02b6-47c7-9aa4-83df65145d33","ios":"levelo://app?vid=b540c1d0-02b6-47c7-9aa4-83df65145d33"},"vehicle_type_id":"4","last_reported":1713542920,"current_range_meters":0,"station_id":"ce4bgn92rcd13ifvqbvg","pricing_plan_id":"cebpf4jnsgd1na2vs0mg"},{"bike_id":"9e771e63-5ba7-430a-9998-a192037e0841","system_id":"levelo_inurba_marseille","lat":43.314811,"lon":5.373104,"is_reserved":false,"is_disabled":false,"rental_uris":{"android":"levelo://app?vid=9e771e63-5ba7-430a-9998-a192037e0841","ios":"levelo://app?vid=9e771e63-5ba7-430a-9998-a192037e0841"},"vehicle_type_id":"4","last_reported":1713542920,"current_range_meters":15600,"station_id":"ce4bgt12rcd13ifvqcd0","pricing_plan_id":"cebpf4jnsgd1na2vs0mg"},{"bike_id":"f166a9ee-f972-4592-b63e-a8cb58eb12bf","system_id":"levelo_inurba_marseille","lat":43.314967,"lon":5.373013,"is_reserved":false,"is_disabled":false,"rental_uris":{"android":"levelo://app?vid=f166a9ee-f972-4592-b63e-a8cb58eb12bf","ios":"levelo://app?vid=f166a9ee-f972-4592-b63e-a8cb58eb12bf"},"vehicle_type_id":"4","last_reported":1713542920,"current_range_meters":0,"station_id":"ce4bgt12rcd13ifvqcd0","pricing_plan_id":"cebpf4jnsgd1na2vs0mg"},{"bike_id":"776d853b-2319-4531-99e2-0a8fd3296a33","system_id":"levelo_inurba_marseille","lat":43.314811,"lon":5.373103,"is_reserved":false,"is_disabled":false,"rental_uris":{"android":"levelo://app?vid=776d853b-2319-4531-99e2-0a8fd3296a33","ios":"levelo://app?vid=776d853b-2319-4531-99e2-0a8fd3296a33"},"vehicle_type_id":"4","last_reported":1713542920,"current_range_meters":21600,"station_id":"ce4bgt12rcd13ifvqcd0","pricing_plan_id":"cebpf4jnsgd1na2vs0mg"},{"bike_id":"2af52a70-aabc-43a6-98f0-92c230a214ed","system_id":"levelo_inurba_marseille","lat":43.314811,"lon":5.373104,"is_reserved":false,"is_disabled":false,"rental_uris":{"android":"levelo://app?vid=2af52a70-aabc-43a6-98f0-92c230a214ed","ios":"levelo://app?vid=2af52a70-aabc-43a6-98f0-92c230a214ed"},"vehicle_type_id":"4","last_reported":1713542920,"current_range_meters":8800,"station_id":"ce4bgt12rcd13ifvqcd0","pricing_plan_id":"cebpf4jnsgd1na2vs0mg"},{"bike_id":"9d3684c6-4b7b-4084-a48b-284fdd5dff1e","system_id":"levelo_inurba_marseille","lat":43.314811,"lon":5.373104,"is_reserved":false,"is_disabled":false,"rental_uris":{"android":"levelo://app?vid=9d3684c6-4b7b-4084-a48b-284fdd5dff1e","ios":"levelo://app?vid=9d3684c6-4b7b-4084-a48b-284fdd5dff1e"},"vehicle_type_id":"4","last_reported":1713542920,"current_range_meters":0,"station_id":"ce4bgt12rcd13ifvqcd0","pricing_plan_id":"cebpf4jnsgd1na2vs0mg"},{"bike_id":"5c24c6c5-75bc-4dc6-9e25-102aeea623fd","system_id":"levelo_inurba_marseille","lat":43.305714,"lon":5.365633,"is_reserved":false,"is_disabled":false,"rental_uris":{"android":"levelo://app?vid=5c24c6c5-75bc-4dc6-9e25-102aeea623fd","ios":"levelo://app?vid=5c24c6c5-75bc-4dc6-9e25-102aeea623fd"},"vehicle_type_id":"4","last_reported":1713542920,"current_range_meters":2000,"station_id":"ce4bgs12rcd13ifvqcag","pricing_plan_id":"cebpf4jnsgd1na2vs0mg"},{"bike_id":"1c097921-050d-4017-acdd-c47202a6fd6c","system_id":"levelo_inurba_marseille","lat":43.305714,"lon":5.365633,"is_reserved":false,"is_disabled":false,"rental_uris":{"android":"levelo://app?vid=1c097921-050d-4017-acdd-c47202a6fd6c","ios":"levelo://app?vid=1c097921-050d-4017-acdd-c47202a6fd6c"},"vehicle_type_id":"4","last_reported":1713542920,"current_range_meters":23600,"station_id":"ce4bgs12rcd13ifvqcag","pricing_plan_id":"cebpf4jnsgd1na2vs0mg"},{"bike_id":"78524c45-1eeb-431e-9f11-3d8fb2755d52","system_id":"levelo_inurba_marseille","lat":43.305368,"lon":5.367343,"is_reserved":false,"is_disabled":false,"rental_uris":{"android":"levelo://app?vid=78524c45-1eeb-431e-9f11-3d8fb2755d52","ios":"levelo://app?vid=78524c45-1eeb-431e-9f11-3d8fb2755d52"},"vehicle_type_id":"4","last_reported":1713542920,"current_range_meters":28400,"station_id":"ce4bgrp2rcd13ifvqc9g","pricing_plan_id":"cebpf4jnsgd1na2vs0mg"},{"bike_id":"52f22b5a-486d-4c62-a4ac-137bfb2f235e","system_id":"levelo_inurba_marseille","lat":43.30554,"lon":5.36534,"is_reserved":false,"is_disabled":false,"rental_uris":{"android":"levelo://app?vid=52f22b5a-486d-4c62-a4ac-137bfb2f235e","ios":"levelo://app?vid=52f22b5a-486d-4c62-a4ac-137bfb2f235e"},"vehicle_type_id":"4","last_reported":1713542920,"current_range_meters":25200,"station_id":"","pricing_plan_id":"cebpf4jnsgd1na2vs0mg"},{"bike_id":"7ebd1946-44e0-4109-a085-eca50000564d","system_id":"levelo_inurba_marseille","lat":43.305368,"lon":5.367343,"is_reserved":false,"is_disabled":false,"rental_uris":{"android":"levelo://app?vid=7ebd1946-44e0-4109-a085-eca50000564d","ios":"levelo://app?vid=7ebd1946-44e0-4109-a085-eca50000564d"},"vehicle_type_id":"4","last_reported":1713542920,"current_range_meters":21200,"station_id":"ce4bgrp2rcd13ifvqc9g","pricing_plan_id":"cebpf4jnsgd1na2vs0mg"},{"bike_id":"f5d1f786-eed1-46a1-bb36-aad8537437c6","system_id":"levelo_inurba_marseille","lat":43.305714,"lon":5.365633,"is_reserved":false,"is_disabled":false,"rental_uris":{"android":"levelo://app?vid=f5d1f786-eed1-46a1-bb36-aad8537437c6","ios":"levelo://app?vid=f5d1f786-eed1-46a1-bb36-aad8537437c6"},"vehicle_type_id":"4","last_reported":1713542920,"current_range_meters":17600,"station_id":"ce4bgs12rcd13ifvqcag","pricing_plan_id":"cebpf4jnsgd1na2vs0mg"},{"bike_id":"decf33be-378d-4d84-8cef-c330f61d21fd","system_id":"levelo_inurba_marseille","lat":43.305712,"lon":5.365641,"is_reserved":false,"is_disabled":false,"rental_uris":{"android":"levelo://app?vid=decf33be-378d-4d84-8cef-c330f61d21fd","ios":"levelo://app?vid=decf33be-378d-4d84-8cef-c330f61d21fd"},"vehicle_type_id":"4","last_reported":1713542920,"current_range_meters":27600,"station_id":"ce4bgs12rcd13ifvqcag","pricing_plan_id":"cebpf4jnsgd1na2vs0mg"},{"bike_id":"48a4a063-3e96-45a9-bb83-b06982cee3c8","system_id":"levelo_inurba_marseille","lat":43.299717,"lon":5.384845,"is_reserved":false,"is_disabled":false,"rental_uris":{"android":"levelo://app?vid=48a4a063-3e96-45a9-bb83-b06982cee3c8","ios":"levelo://app?vid=48a4a063-3e96-45a9-bb83-b06982cee3c8"},"vehicle_type_id":"4","last_reported":1713542920,"current_range_meters":17600,"station_id":"ce4bgj92rcd13ifvqbd0","pricing_plan_id":"cebpf4jnsgd1na2vs0mg"},{"bike_id":"7463ceb2-6bbd-40e6-9c4b-81336a1676ad","system_id":"levelo_inurba_marseille","lat":43.305706,"lon":5.365654,"is_reserved":false,"is_disabled":false,"rental_uris":{"android":"levelo://app?vid=7463ceb2-6bbd-40e6-9c4b-81336a1676ad","ios":"levelo://app?vid=7463ceb2-6bbd-40e6-9c4b-81336a1676ad"},"vehicle_type_id":"4","last_reported":1713542920,"current_range_meters":8000,"station_id":"ce4bgs12rcd13ifvqcag","pricing_plan_id":"cebpf4jnsgd1na2vs0mg"},{"bike_id":"ac4eb6c9-f870-4521-b803-e7d45bd0b145","system_id":"levelo_inurba_marseille","lat":43.305368,"lon":5.367343,"is_reserved":false,"is_disabled":false,"rental_uris":{"android":"levelo://app?vid=ac4eb6c9-f870-4521-b803-e7d45bd0b145","ios":"levelo://app?vid=ac4eb6c9-f870-4521-b803-e7d45bd0b145"},"vehicle_type_id":"4","last_reported":1713542920,"current_range_meters":19200,"station_id":"ce4bgrp2rcd13ifvqc9g","pricing_plan_id":"cebpf4jnsgd1na2vs0mg"},{"bike_id":"fbe86888-52f5-4d8d-a6cb-173dbcc40400","system_id":"levelo_inurba_marseille","lat":43.30517,"lon":5.36684,"is_reserved":false,"is_disabled":false,"rental_uris":{"android":"levelo://app?vid=fbe86888-52f5-4d8d-a6cb-173dbcc40400","ios":"levelo://app?vid=fbe86888-52f5-4d8d-a6cb-173dbcc40400"},"vehicle_type_id":"4","last_reported":1713542920,"current_range_meters":7200,"station_id":"","pricing_plan_id":"cebpf4jnsgd1na2vs0mg"},{"bike_id":"325807d0-9946-4374-a2e9-180c43b2d61f","system_id":"levelo_inurba_marseille","lat":43.305368,"lon":5.367343,"is_reserved":false,"is_disabled":false,"rental_uris":{"android":"levelo://app?vid=325807d0-9946-4374-a2e9-180c43b2d61f","ios":"levelo://app?vid=325807d0-9946-4374-a2e9-180c43b2d61f"},"vehicle_type_id":"4","last_reported":1713542920,"current_range_meters":22400,"station_id":"ce4bgrp2rcd13ifvqc9g","pricing_plan_id":"cebpf4jnsgd1na2vs0mg"},{"bike_id":"02bf37f5-e514-4a5f-b8ff-7b4015a14d97","system_id":"levelo_inurba_marseille","lat":43.305989,"lon":5.37225,"is_reserved":false,"is_disabled":false,"rental_uris":{"android":"levelo://app?vid=02bf37f5-e514-4a5f-b8ff-7b4015a14d97","ios":"levelo://app?vid=02bf37f5-e514-4a5f-b8ff-7b4015a14d97"},"vehicle_type_id":"4","last_reported":1713542920,"current_range_meters":4800,"station_id":"ce4bgqh2rcd13ifvqc4g","pricing_plan_id":"cebpf4jnsgd1na2vs0mg"},{"bike_id":"24e9c0d9-3fdb-4013-8378-5271391c64ee","system_id":"levelo_inurba_marseille","lat":43.30602,"lon":5.37212,"is_reserved":false,"is_disabled":false,"rental_uris":{"android":"levelo://app?vid=24e9c0d9-3fdb-4013-8378-5271391c64ee","ios":"levelo://app?vid=24e9c0d9-3fdb-4013-8378-5271391c64ee"},"vehicle_type_id":"4","last_reported":1713542920,"current_range_meters":1200,"station_id":"ce4bgqh2rcd13ifvqc4g","pricing_plan_id":"cebpf4jnsgd1na2vs0mg"},{"bike_id":"556e84e2-fc66-4a4d-a1ea-9d12f45a0580","system_id":"levelo_inurba_marseille","lat":43.311125,"lon":5.377624,"is_reserved":false,"is_disabled":false,"rental_uris":{"android":"levelo://app?vid=556e84e2-fc66-4a4d-a1ea-9d12f45a0580","ios":"levelo://app?vid=556e84e2-fc66-4a4d-a1ea-9d12f45a0580"},"vehicle_type_id":"4","last_reported":1713542920,"current_range_meters":12800,"station_id":"ce4bgt92rcd13ifvqcg0","pricing_plan_id":"cebpf4jnsgd1na2vs0mg"},{"bike_id":"5af90fe2-9178-449e-9fb5-e0811c231994","system_id":"levelo_inurba_marseille","lat":43.3112,"lon":5.37768,"is_reserved":false,"is_disabled":false,"rental_uris":{"android":"levelo://app?vid=5af90fe2-9178-449e-9fb5-e0811c231994","ios":"levelo://app?vid=5af90fe2-9178-449e-9fb5-e0811c231994"},"vehicle_type_id":"4","last_reported":1713542920,"current_range_meters":11200,"station_id":"ce4bgt92rcd13ifvqcg0","pricing_plan_id":"cebpf4jnsgd1na2vs0mg"},{"bike_id":"5acf1d3f-b4d6-4369-9aed-500b87ab203f","system_id":"levelo_inurba_marseille","lat":43.310992,"lon":5.378084,"is_reserved":false,"is_disabled":false,"rental_uris":{"android":"levelo://app?vid=5acf1d3f-b4d6-4369-9aed-500b87ab203f","ios":"levelo://app?vid=5acf1d3f-b4d6-4369-9aed-500b87ab203f"},"vehicle_type_id":"4","last_reported":1713542920,"current_range_meters":4800,"station_id":"ce4bgt92rcd13ifvqcg0","pricing_plan_id":"cebpf4jnsgd1na2vs0mg"},{"bike_id":"a3d5937e-1363-4a04-84e9-758581cd15bb","system_id":"levelo_inurba_marseille","lat":43.31697,"lon":5.37733,"is_reserved":false,"is_disabled":false,"rental_uris":{"android":"levelo://app?vid=a3d5937e-1363-4a04-84e9-758581cd15bb","ios":"levelo://app?vid=a3d5937e-1363-4a04-84e9-758581cd15bb"},"vehicle_type_id":"4","last_reported":1713542920,"current_range_meters":16400,"station_id":"ce4bgth2rcd13ifvqch0","pricing_plan_id":"cebpf4jnsgd1na2vs0mg"},{"bike_id":"b01a09c2-a4b2-4838-80c3-a98d974b080e","system_id":"levelo_inurba_marseille","lat":43.317068,"lon":5.377357,"is_reserved":false,"is_disabled":false,"rental_uris":{"android":"levelo://app?vid=b01a09c2-a4b2-4838-80c3-a98d974b080e","ios":"levelo://app?vid=b01a09c2-a4b2-4838-80c3-a98d974b080e"},"vehicle_type_id":"4","last_reported":1713542920,"current_range_meters":13200,"station_id":"ce4bgth2rcd13ifvqch0","pricing_plan_id":"cebpf4jnsgd1na2vs0mg"},{"bike_id":"78ecf8fd-2202-4442-a71e-4661226b4ccb","system_id":"levelo_inurba_marseille","lat":43.317075,"lon":5.377367,"is_reserved":false,"is_disabled":false,"rental_uris":{"android":"levelo://app?vid=78ecf8fd-2202-4442-a71e-4661226b4ccb","ios":"levelo://app?vid=78ecf8fd-2202-4442-a71e-4661226b4ccb"},"vehicle_type_id":"4","last_reported":1713542920,"current_range_meters":8000,"station_id":"ce4bgth2rcd13ifvqch0","pricing_plan_id":"cebpf4jnsgd1na2vs0mg"},{"bike_id":"f079d978-50fa-4baa-b4fa-e489fa0c65fe","system_id":"levelo_inurba_marseille","lat":43.317075,"lon":5.377367,"is_reserved":false,"is_disabled":false,"rental_uris":{"android":"levelo://app?vid=f079d978-50fa-4baa-b4fa-e489fa0c65fe","ios":"levelo://app?vid=f079d978-50fa-4baa-b4fa-e489fa0c65fe"},"vehicle_type_id":"4","last_reported":1713542920,"current_range_meters":31200,"station_id":"ce4bgth2rcd13ifvqch0","pricing_plan_id":"cebpf4jnsgd1na2vs0mg"},{"bike_id":"fc6782a5-a22f-4cc8-8045-c0cf6d0a3cb7","system_id":"levelo_inurba_marseille","lat":43.317075,"lon":5.377367,"is_reserved":false,"is_disabled":false,"rental_uris":{"android":"levelo://app?vid=fc6782a5-a22f-4cc8-8045-c0cf6d0a3cb7","ios":"levelo://app?vid=fc6782a5-a22f-4cc8-8045-c0cf6d0a3cb7"},"vehicle_type_id":"4","last_reported":1713542920,"current_range_meters":31600,"station_id":"ce4bgth2rcd13ifvqch0","pricing_plan_id":"cebpf4jnsgd1na2vs0mg"},{"bike_id":"63713dd1-6d54-42df-adaa-e625458f4fb2","system_id":"levelo_inurba_marseille","lat":43.310381,"lon":5.379069,"is_reserved":false,"is_disabled":false,"rental_uris":{"android":"levelo://app?vid=63713dd1-6d54-42df-adaa-e625458f4fb2","ios":"levelo://app?vid=63713dd1-6d54-42df-adaa-e625458f4fb2"},"vehicle_type_id":"4","last_reported":1713542920,"current_range_meters":0,"station_id":"","pricing_plan_id":"cebpf4jnsgd1na2vs0mg"},{"bike_id":"36e1c7b0-6ac5-4d8a-8ec0-28f13a713d3f","system_id":"levelo_inurba_marseille","lat":43.315289,"lon":5.380349,"is_reserved":false,"is_disabled":false,"rental_uris":{"android":"levelo://app?vid=36e1c7b0-6ac5-4d8a-8ec0-28f13a713d3f","ios":"levelo://app?vid=36e1c7b0-6ac5-4d8a-8ec0-28f13a713d3f"},"vehicle_type_id":"4","last_reported":1713542920,"current_range_meters":3200,"station_id":"ce4bhsp2rcd13ifvqi50","pricing_plan_id":"cebpf4jnsgd1na2vs0mg"},{"bike_id":"874142a5-7bf0-4bd8-9530-402450c1b0bf","system_id":"levelo_inurba_marseille","lat":43.308012,"lon":5.381511,"is_reserved":false,"is_disabled":false,"rental_uris":{"android":"levelo://app?vid=874142a5-7bf0-4bd8-9530-402450c1b0bf","ios":"levelo://app?vid=874142a5-7bf0-4bd8-9530-402450c1b0bf"},"vehicle_type_id":"4","last_reported":1713542920,"current_range_meters":1200,"station_id":"ce4bgt12rcd13ifvqce0","pricing_plan_id":"cebpf4jnsgd1na2vs0mg"},{"bike_id":"11160e63-8121-4c4d-9b02-5fb916971a0d","system_id":"levelo_inurba_marseille","lat":43.308012,"lon":5.381511,"is_reserved":false,"is_disabled":false,"rental_uris":{"android":"levelo://app?vid=11160e63-8121-4c4d-9b02-5fb916971a0d","ios":"levelo://app?vid=11160e63-8121-4c4d-9b02-5fb916971a0d"},"vehicle_type_id":"4","last_reported":1713542920,"current_range_meters":0,"station_id":"ce4bgt12rcd13ifvqce0","pricing_plan_id":"cebpf4jnsgd1na2vs0mg"},{"bike_id":"656828fa-b15d-4c23-8b65-c2b21a808449","system_id":"levelo_inurba_marseille","lat":43.294162,"lon":5.386292,"is_reserved":false,"is_disabled":false,"rental_uris":{"android":"levelo://app?vid=656828fa-b15d-4c23-8b65-c2b21a808449","ios":"levelo://app?vid=656828fa-b15d-4c23-8b65-c2b21a808449"},"vehicle_type_id":"4","last_reported":1713542920,"current_range_meters":7600,"station_id":"ce4bh2h2rcd13ifvqdh0","pricing_plan_id":"cebpf4jnsgd1na2vs0mg"},{"bike_id":"4a4eba72-220b-4107-8513-c313a69b6994","system_id":"levelo_inurba_marseille","lat":43.30469,"lon":5.37898,"is_reserved":false,"is_disabled":false,"rental_uris":{"android":"levelo://app?vid=4a4eba72-220b-4107-8513-c313a69b6994","ios":"levelo://app?vid=4a4eba72-220b-4107-8513-c313a69b6994"},"vehicle_type_id":"4","last_reported":1713542920,"current_range_meters":0,"station_id":"ce4bgup2rcd13ifvqcn0","pricing_plan_id":"cebpf4jnsgd1na2vs0mg"},{"bike_id":"a7b1d095-942f-442c-86d6-5de9844adc95","system_id":"levelo_inurba_marseille","lat":43.304606,"lon":5.379026,"is_reserved":false,"is_disabled":false,"rental_uris":{"android":"levelo://app?vid=a7b1d095-942f-442c-86d6-5de9844adc95","ios":"levelo://app?vid=a7b1d095-942f-442c-86d6-5de9844adc95"},"vehicle_type_id":"4","last_reported":1713542920,"current_range_meters":29600,"station_id":"ce4bgup2rcd13ifvqcn0","pricing_plan_id":"cebpf4jnsgd1na2vs0mg"},{"bike_id":"fc0a4964-2b09-49b9-9dba-fdbe43fe31e8","system_id":"levelo_inurba_marseille","lat":43.302224,"lon":5.374889,"is_reserved":false,"is_disabled":false,"rental_uris":{"android":"levelo://app?vid=fc0a4964-2b09-49b9-9dba-fdbe43fe31e8","ios":"levelo://app?vid=fc0a4964-2b09-49b9-9dba-fdbe43fe31e8"},"vehicle_type_id":"4","last_reported":1713542920,"current_range_meters":30800,"station_id":"","pricing_plan_id":"cebpf4jnsgd1na2vs0mg"},{"bike_id":"71a09584-b19f-4d58-818f-55bb87703e99","system_id":"levelo_inurba_marseille","lat":43.324771,"lon":5.36557,"is_reserved":false,"is_disabled":false,"rental_uris":{"android":"levelo://app?vid=71a09584-b19f-4d58-818f-55bb87703e99","ios":"levelo://app?vid=71a09584-b19f-4d58-818f-55bb87703e99"},"vehicle_type_id":"4","last_reported":1713542920,"current_range_meters":0,"station_id":"ce4bhs12rcd13ifvqhvg","pricing_plan_id":"cebpf4jnsgd1na2vs0mg"},{"bike_id":"ca86e147-e52e-4616-95e5-1fa822dc0687","system_id":"levelo_inurba_marseille","lat":43.324771,"lon":5.36557,"is_reserved":false,"is_disabled":false,"rental_uris":{"android":"levelo://app?vid=ca86e147-e52e-4616-95e5-1fa822dc0687","ios":"levelo://app?vid=ca86e147-e52e-4616-95e5-1fa822dc0687"},"vehicle_type_id":"4","last_reported":1713542920,"current_range_meters":15600,"station_id":"ce4bhs12rcd13ifvqhvg","pricing_plan_id":"cebpf4jnsgd1na2vs0mg"},{"bike_id":"ce4f6a12-b377-485f-a7c4-b896fa7c532a","system_id":"levelo_inurba_marseille","lat":43.324771,"lon":5.36557,"is_reserved":false,"is_disabled":false,"rental_uris":{"android":"levelo://app?vid=ce4f6a12-b377-485f-a7c4-b896fa7c532a","ios":"levelo://app?vid=ce4f6a12-b377-485f-a7c4-b896fa7c532a"},"vehicle_type_id":"4","last_reported":1713542920,"current_range_meters":6800,"station_id":"ce4bhs12rcd13ifvqhvg","pricing_plan_id":"cebpf4jnsgd1na2vs0mg"},{"bike_id":"309e139a-7ecc-4d62-956e-54da96b01f37","system_id":"levelo_inurba_marseille","lat":43.324771,"lon":5.36557,"is_reserved":false,"is_disabled":false,"rental_uris":{"android":"levelo://app?vid=309e139a-7ecc-4d62-956e-54da96b01f37","ios":"levelo://app?vid=309e139a-7ecc-4d62-956e-54da96b01f37"},"vehicle_type_id":"4","last_reported":1713542920,"current_range_meters":20000,"station_id":"ce4bhs12rcd13ifvqhvg","pricing_plan_id":"cebpf4jnsgd1na2vs0mg"},{"bike_id":"d10cf3df-bd12-4dd5-b6c7-d1bae9d72b94","system_id":"levelo_inurba_marseille","lat":43.310804,"lon":5.38359,"is_reserved":false,"is_disabled":false,"rental_uris":{"android":"levelo://app?vid=d10cf3df-bd12-4dd5-b6c7-d1bae9d72b94","ios":"levelo://app?vid=d10cf3df-bd12-4dd5-b6c7-d1bae9d72b94"},"vehicle_type_id":"4","last_reported":1713542920,"current_range_meters":12400,"station_id":"ce4bgv92rcd13ifvqcr0","pricing_plan_id":"cebpf4jnsgd1na2vs0mg"},{"bike_id":"23c87026-c912-417b-b00d-b71752d366b2","system_id":"levelo_inurba_marseille","lat":43.302784,"lon":5.377158,"is_reserved":false,"is_disabled":false,"rental_uris":{"android":"levelo://app?vid=23c87026-c912-417b-b00d-b71752d366b2","ios":"levelo://app?vid=23c87026-c912-417b-b00d-b71752d366b2"},"vehicle_type_id":"4","last_reported":1713542920,"current_range_meters":0,"station_id":"ce4bguh2rcd13ifvqcj0","pricing_plan_id":"cebpf4jnsgd1na2vs0mg"},{"bike_id":"6267886c-a9e4-4ea9-a82e-fc8b9034e861","system_id":"levelo_inurba_marseille","lat":43.310804,"lon":5.38359,"is_reserved":false,"is_disabled":false,"rental_uris":{"android":"levelo://app?vid=6267886c-a9e4-4ea9-a82e-fc8b9034e861","ios":"levelo://app?vid=6267886c-a9e4-4ea9-a82e-fc8b9034e861"},"vehicle_type_id":"4","last_reported":1713542920,"current_range_meters":5600,"station_id":"ce4bgv92rcd13ifvqcr0","pricing_plan_id":"cebpf4jnsgd1na2vs0mg"},{"bike_id":"862717e1-ce48-4790-9647-836719f1ec9e","system_id":"levelo_inurba_marseille","lat":43.310804,"lon":5.38359,"is_reserved":false,"is_disabled":false,"rental_uris":{"android":"levelo://app?vid=862717e1-ce48-4790-9647-836719f1ec9e","ios":"levelo://app?vid=862717e1-ce48-4790-9647-836719f1ec9e"},"vehicle_type_id":"4","last_reported":1713542920,"current_range_meters":5200,"station_id":"ce4bgv92rcd13ifvqcr0","pricing_plan_id":"cebpf4jnsgd1na2vs0mg"},{"bike_id":"89d908c1-c500-4548-99cb-233221c3fb7d","system_id":"levelo_inurba_marseille","lat":43.310804,"lon":5.38359,"is_reserved":false,"is_disabled":false,"rental_uris":{"android":"levelo://app?vid=89d908c1-c500-4548-99cb-233221c3fb7d","ios":"levelo://app?vid=89d908c1-c500-4548-99cb-233221c3fb7d"},"vehicle_type_id":"4","last_reported":1713542920,"current_range_meters":11200,"station_id":"ce4bgv92rcd13ifvqcr0","pricing_plan_id":"cebpf4jnsgd1na2vs0mg"},{"bike_id":"eaa2eba9-5116-4ce7-aff4-e30a8927cd85","system_id":"levelo_inurba_marseille","lat":43.310804,"lon":5.38359,"is_reserved":false,"is_disabled":false,"rental_uris":{"android":"levelo://app?vid=eaa2eba9-5116-4ce7-aff4-e30a8927cd85","ios":"levelo://app?vid=eaa2eba9-5116-4ce7-aff4-e30a8927cd85"},"vehicle_type_id":"4","last_reported":1713542920,"current_range_meters":1600,"station_id":"ce4bgv92rcd13ifvqcr0","pricing_plan_id":"cebpf4jnsgd1na2vs0mg"},{"bike_id":"f271d040-a7d6-4d98-bb8c-7a48938d8d85","system_id":"levelo_inurba_marseille","lat":43.302784,"lon":5.377158,"is_reserved":false,"is_disabled":false,"rental_uris":{"android":"levelo://app?vid=f271d040-a7d6-4d98-bb8c-7a48938d8d85","ios":"levelo://app?vid=f271d040-a7d6-4d98-bb8c-7a48938d8d85"},"vehicle_type_id":"4","last_reported":1713542920,"current_range_meters":18000,"station_id":"ce4bguh2rcd13ifvqcj0","pricing_plan_id":"cebpf4jnsgd1na2vs0mg"},{"bike_id":"71cf26d6-2800-48dd-ae6e-8eda1eae26de","system_id":"levelo_inurba_marseille","lat":43.305395,"lon":5.380968,"is_reserved":false,"is_disabled":false,"rental_uris":{"android":"levelo://app?vid=71cf26d6-2800-48dd-ae6e-8eda1eae26de","ios":"levelo://app?vid=71cf26d6-2800-48dd-ae6e-8eda1eae26de"},"vehicle_type_id":"4","last_reported":1713542920,"current_range_meters":20800,"station_id":"","pricing_plan_id":"cebpf4jnsgd1na2vs0mg"},{"bike_id":"5e0422c4-4db2-4cd5-8ec6-f1a5f73617e2","system_id":"levelo_inurba_marseille","lat":43.306124,"lon":5.381717,"is_reserved":false,"is_disabled":false,"rental_uris":{"android":"levelo://app?vid=5e0422c4-4db2-4cd5-8ec6-f1a5f73617e2","ios":"levelo://app?vid=5e0422c4-4db2-4cd5-8ec6-f1a5f73617e2"},"vehicle_type_id":"4","last_reported":1713542920,"current_range_meters":13600,"station_id":"","pricing_plan_id":"cebpf4jnsgd1na2vs0mg"},{"bike_id":"334e3407-4f9b-4b57-a5ef-39033f25d948","system_id":"levelo_inurba_marseille","lat":43.319935,"lon":5.381699,"is_reserved":false,"is_disabled":false,"rental_uris":{"android":"levelo://app?vid=334e3407-4f9b-4b57-a5ef-39033f25d948","ios":"levelo://app?vid=334e3407-4f9b-4b57-a5ef-39033f25d948"},"vehicle_type_id":"4","last_reported":1713542920,"current_range_meters":11600,"station_id":"ce4bhr12rcd13ifvqhpg","pricing_plan_id":"cebpf4jnsgd1na2vs0mg"},{"bike_id":"d212c281-3522-420a-b06f-b80966290c73","system_id":"levelo_inurba_marseille","lat":43.319935,"lon":5.381699,"is_reserved":false,"is_disabled":false,"rental_uris":{"android":"levelo://app?vid=d212c281-3522-420a-b06f-b80966290c73","ios":"levelo://app?vid=d212c281-3522-420a-b06f-b80966290c73"},"vehicle_type_id":"4","last_reported":1713542920,"current_range_meters":15200,"station_id":"ce4bhr12rcd13ifvqhpg","pricing_plan_id":"cebpf4jnsgd1na2vs0mg"},{"bike_id":"30d617ff-4f74-4992-b3e5-455e6c9e9129","system_id":"levelo_inurba_marseille","lat":43.319935,"lon":5.381699,"is_reserved":false,"is_disabled":false,"rental_uris":{"android":"levelo://app?vid=30d617ff-4f74-4992-b3e5-455e6c9e9129","ios":"levelo://app?vid=30d617ff-4f74-4992-b3e5-455e6c9e9129"},"vehicle_type_id":"4","last_reported":1713542920,"current_range_meters":25600,"station_id":"ce4bhr12rcd13ifvqhpg","pricing_plan_id":"cebpf4jnsgd1na2vs0mg"},{"bike_id":"0528e012-bd61-4f6c-9a4a-e8de2661a0cf","system_id":"levelo_inurba_marseille","lat":43.319935,"lon":5.381699,"is_reserved":false,"is_disabled":false,"rental_uris":{"android":"levelo://app?vid=0528e012-bd61-4f6c-9a4a-e8de2661a0cf","ios":"levelo://app?vid=0528e012-bd61-4f6c-9a4a-e8de2661a0cf"},"vehicle_type_id":"4","last_reported":1713542920,"current_range_meters":9600,"station_id":"ce4bhr12rcd13ifvqhpg","pricing_plan_id":"cebpf4jnsgd1na2vs0mg"},{"bike_id":"e28f296b-3328-465c-9794-48ac9800dcab","system_id":"levelo_inurba_marseille","lat":43.32002,"lon":5.38156,"is_reserved":false,"is_disabled":false,"rental_uris":{"android":"levelo://app?vid=e28f296b-3328-465c-9794-48ac9800dcab","ios":"levelo://app?vid=e28f296b-3328-465c-9794-48ac9800dcab"},"vehicle_type_id":"4","last_reported":1713542920,"current_range_meters":28400,"station_id":"ce4bhr12rcd13ifvqhpg","pricing_plan_id":"cebpf4jnsgd1na2vs0mg"},{"bike_id":"e91a43f2-fd5b-4c11-aea8-faeea8359a23","system_id":"levelo_inurba_marseille","lat":43.299222,"lon":5.365554,"is_reserved":false,"is_disabled":false,"rental_uris":{"android":"levelo://app?vid=e91a43f2-fd5b-4c11-aea8-faeea8359a23","ios":"levelo://app?vid=e91a43f2-fd5b-4c11-aea8-faeea8359a23"},"vehicle_type_id":"4","last_reported":1713542920,"current_range_meters":0,"station_id":"ce4bgm92rcd13ifvqbr0","pricing_plan_id":"cebpf4jnsgd1na2vs0mg"},{"bike_id":"a9abbc49-b526-427a-94af-6f67e0e472cf","system_id":"levelo_inurba_marseille","lat":43.290995,"lon":5.381361,"is_reserved":false,"is_disabled":false,"rental_uris":{"android":"levelo://app?vid=a9abbc49-b526-427a-94af-6f67e0e472cf","ios":"levelo://app?vid=a9abbc49-b526-427a-94af-6f67e0e472cf"},"vehicle_type_id":"4","last_reported":1713542920,"current_range_meters":12000,"station_id":"ce4bh512rcd13ifvqe2g","pricing_plan_id":"cebpf4jnsgd1na2vs0mg"},{"bike_id":"4ed3b5ca-295d-40ef-af31-2c1f249fcdd3","system_id":"levelo_inurba_marseille","lat":43.317121,"lon":5.423936,"is_reserved":false,"is_disabled":false,"rental_uris":{"android":"levelo://app?vid=4ed3b5ca-295d-40ef-af31-2c1f249fcdd3","ios":"levelo://app?vid=4ed3b5ca-295d-40ef-af31-2c1f249fcdd3"},"vehicle_type_id":"4","last_reported":1713542920,"current_range_meters":17600,"station_id":"ce4bhp92rcd13ifvqhbg","pricing_plan_id":"cebpf4jnsgd1na2vs0mg"},{"bike_id":"f67d7faf-beba-4560-9994-ed8709fb9c03","system_id":"levelo_inurba_marseille","lat":43.311722,"lon":5.387247,"is_reserved":false,"is_disabled":false,"rental_uris":{"android":"levelo://app?vid=f67d7faf-beba-4560-9994-ed8709fb9c03","ios":"levelo://app?vid=f67d7faf-beba-4560-9994-ed8709fb9c03"},"vehicle_type_id":"4","last_reported":1713542920,"current_range_meters":10000,"station_id":"ce4bgv12rcd13ifvqcp0","pricing_plan_id":"cebpf4jnsgd1na2vs0mg"},{"bike_id":"9068ad5c-38af-4cda-accc-db4b4d85ed68","system_id":"levelo_inurba_marseille","lat":43.311722,"lon":5.387247,"is_reserved":false,"is_disabled":false,"rental_uris":{"android":"levelo://app?vid=9068ad5c-38af-4cda-accc-db4b4d85ed68","ios":"levelo://app?vid=9068ad5c-38af-4cda-accc-db4b4d85ed68"},"vehicle_type_id":"4","last_reported":1713542920,"current_range_meters":6800,"station_id":"ce4bgv12rcd13ifvqcp0","pricing_plan_id":"cebpf4jnsgd1na2vs0mg"},{"bike_id":"812ac1dc-1351-4c54-abb2-9923d6a5a03a","system_id":"levelo_inurba_marseille","lat":43.311722,"lon":5.387247,"is_reserved":false,"is_disabled":false,"rental_uris":{"android":"levelo://app?vid=812ac1dc-1351-4c54-abb2-9923d6a5a03a","ios":"levelo://app?vid=812ac1dc-1351-4c54-abb2-9923d6a5a03a"},"vehicle_type_id":"4","last_reported":1713542920,"current_range_meters":15600,"station_id":"ce4bgv12rcd13ifvqcp0","pricing_plan_id":"cebpf4jnsgd1na2vs0mg"},{"bike_id":"1dfb617b-d82a-4a1d-9046-88a7f9c6a906","system_id":"levelo_inurba_marseille","lat":43.305225,"lon":5.384495,"is_reserved":false,"is_disabled":false,"rental_uris":{"android":"levelo://app?vid=1dfb617b-d82a-4a1d-9046-88a7f9c6a906","ios":"levelo://app?vid=1dfb617b-d82a-4a1d-9046-88a7f9c6a906"},"vehicle_type_id":"4","last_reported":1713542920,"current_range_meters":0,"station_id":"ce4bgk12rcd13ifvqbi0","pricing_plan_id":"cebpf4jnsgd1na2vs0mg"},{"bike_id":"2366636a-aeff-4f47-83b9-bc9f0d1bd55c","system_id":"levelo_inurba_marseille","lat":43.297794,"lon":5.370888,"is_reserved":false,"is_disabled":false,"rental_uris":{"android":"levelo://app?vid=2366636a-aeff-4f47-83b9-bc9f0d1bd55c","ios":"levelo://app?vid=2366636a-aeff-4f47-83b9-bc9f0d1bd55c"},"vehicle_type_id":"4","last_reported":1713542920,"current_range_meters":26800,"station_id":"ce4bgop2rcd13ifvqc1g","pricing_plan_id":"cebpf4jnsgd1na2vs0mg"},{"bike_id":"aedfe733-bc86-47da-ae79-78f8bac2b0c5","system_id":"levelo_inurba_marseille","lat":43.30218,"lon":5.38182,"is_reserved":false,"is_disabled":false,"rental_uris":{"android":"levelo://app?vid=aedfe733-bc86-47da-ae79-78f8bac2b0c5","ios":"levelo://app?vid=aedfe733-bc86-47da-ae79-78f8bac2b0c5"},"vehicle_type_id":"4","last_reported":1713542920,"current_range_meters":1200,"station_id":"","pricing_plan_id":"cebpf4jnsgd1na2vs0mg"},{"bike_id":"f89c7306-c12d-4a4e-8072-dbae07c96efd","system_id":"levelo_inurba_marseille","lat":43.297774,"lon":5.370875,"is_reserved":false,"is_disabled":false,"rental_uris":{"android":"levelo://app?vid=f89c7306-c12d-4a4e-8072-dbae07c96efd","ios":"levelo://app?vid=f89c7306-c12d-4a4e-8072-dbae07c96efd"},"vehicle_type_id":"4","last_reported":1713542920,"current_range_meters":7200,"station_id":"ce4bgop2rcd13ifvqc1g","pricing_plan_id":"cebpf4jnsgd1na2vs0mg"},{"bike_id":"029c97dc-223a-43eb-996d-14055a31295c","system_id":"levelo_inurba_marseille","lat":43.297794,"lon":5.370888,"is_reserved":false,"is_disabled":false,"rental_uris":{"android":"levelo://app?vid=029c97dc-223a-43eb-996d-14055a31295c","ios":"levelo://app?vid=029c97dc-223a-43eb-996d-14055a31295c"},"vehicle_type_id":"4","last_reported":1713542920,"current_range_meters":2000,"station_id":"ce4bgop2rcd13ifvqc1g","pricing_plan_id":"cebpf4jnsgd1na2vs0mg"},{"bike_id":"d37c1300-16b8-430c-97e7-be7153b1d766","system_id":"levelo_inurba_marseille","lat":43.322872,"lon":5.382756,"is_reserved":false,"is_disabled":false,"rental_uris":{"android":"levelo://app?vid=d37c1300-16b8-430c-97e7-be7153b1d766","ios":"levelo://app?vid=d37c1300-16b8-430c-97e7-be7153b1d766"},"vehicle_type_id":"4","last_reported":1713542920,"current_range_meters":0,"station_id":"ce4bhr12rcd13ifvqhqg","pricing_plan_id":"cebpf4jnsgd1na2vs0mg"},{"bike_id":"76931112-13b2-4ce1-aed6-6fa548f70599","system_id":"levelo_inurba_marseille","lat":43.322872,"lon":5.382756,"is_reserved":false,"is_disabled":false,"rental_uris":{"android":"levelo://app?vid=76931112-13b2-4ce1-aed6-6fa548f70599","ios":"levelo://app?vid=76931112-13b2-4ce1-aed6-6fa548f70599"},"vehicle_type_id":"4","last_reported":1713542920,"current_range_meters":30800,"station_id":"ce4bhr12rcd13ifvqhqg","pricing_plan_id":"cebpf4jnsgd1na2vs0mg"},{"bike_id":"59c296c1-c1af-4a71-9e20-fa9c7f8757f9","system_id":"levelo_inurba_marseille","lat":43.322872,"lon":5.382756,"is_reserved":false,"is_disabled":false,"rental_uris":{"android":"levelo://app?vid=59c296c1-c1af-4a71-9e20-fa9c7f8757f9","ios":"levelo://app?vid=59c296c1-c1af-4a71-9e20-fa9c7f8757f9"},"vehicle_type_id":"4","last_reported":1713542920,"current_range_meters":31600,"station_id":"ce4bhr12rcd13ifvqhqg","pricing_plan_id":"cebpf4jnsgd1na2vs0mg"},{"bike_id":"b1c9170a-6a31-47d1-8e62-5b624c342910","system_id":"levelo_inurba_marseille","lat":43.322872,"lon":5.382756,"is_reserved":false,"is_disabled":false,"rental_uris":{"android":"levelo://app?vid=b1c9170a-6a31-47d1-8e62-5b624c342910","ios":"levelo://app?vid=b1c9170a-6a31-47d1-8e62-5b624c342910"},"vehicle_type_id":"4","last_reported":1713542920,"current_range_meters":13600,"station_id":"ce4bhr12rcd13ifvqhqg","pricing_plan_id":"cebpf4jnsgd1na2vs0mg"},{"bike_id":"6a9bcf40-c5f9-44a4-a58e-664576d7b299","system_id":"levelo_inurba_marseille","lat":43.322872,"lon":5.382756,"is_reserved":false,"is_disabled":false,"rental_uris":{"android":"levelo://app?vid=6a9bcf40-c5f9-44a4-a58e-664576d7b299","ios":"levelo://app?vid=6a9bcf40-c5f9-44a4-a58e-664576d7b299"},"vehicle_type_id":"4","last_reported":1713542920,"current_range_meters":20800,"station_id":"ce4bhr12rcd13ifvqhqg","pricing_plan_id":"cebpf4jnsgd1na2vs0mg"},{"bike_id":"aa38acc2-91cb-407c-ac8c-05b08cc96e3e","system_id":"levelo_inurba_marseille","lat":43.322872,"lon":5.382756,"is_reserved":false,"is_disabled":false,"rental_uris":{"android":"levelo://app?vid=aa38acc2-91cb-407c-ac8c-05b08cc96e3e","ios":"levelo://app?vid=aa38acc2-91cb-407c-ac8c-05b08cc96e3e"},"vehicle_type_id":"4","last_reported":1713542920,"current_range_meters":31600,"station_id":"ce4bhr12rcd13ifvqhqg","pricing_plan_id":"cebpf4jnsgd1na2vs0mg"},{"bike_id":"e5df68f6-b1ff-4d0a-b7e9-c02ca9b8210e","system_id":"levelo_inurba_marseille","lat":43.322872,"lon":5.382756,"is_reserved":false,"is_disabled":false,"rental_uris":{"android":"levelo://app?vid=e5df68f6-b1ff-4d0a-b7e9-c02ca9b8210e","ios":"levelo://app?vid=e5df68f6-b1ff-4d0a-b7e9-c02ca9b8210e"},"vehicle_type_id":"4","last_reported":1713542920,"current_range_meters":31600,"station_id":"ce4bhr12rcd13ifvqhqg","pricing_plan_id":"cebpf4jnsgd1na2vs0mg"},{"bike_id":"c1c913df-b844-406e-83f7-dff5f43f7dc5","system_id":"levelo_inurba_marseille","lat":43.322872,"lon":5.382756,"is_reserved":false,"is_disabled":false,"rental_uris":{"android":"levelo://app?vid=c1c913df-b844-406e-83f7-dff5f43f7dc5","ios":"levelo://app?vid=c1c913df-b844-406e-83f7-dff5f43f7dc5"},"vehicle_type_id":"4","last_reported":1713542920,"current_range_meters":31600,"station_id":"ce4bhr12rcd13ifvqhqg","pricing_plan_id":"cebpf4jnsgd1na2vs0mg"},{"bike_id":"3a777aae-0d2a-4638-8c09-6f1de81534e0","system_id":"levelo_inurba_marseille","lat":43.322872,"lon":5.382756,"is_reserved":false,"is_disabled":false,"rental_uris":{"android":"levelo://app?vid=3a777aae-0d2a-4638-8c09-6f1de81534e0","ios":"levelo://app?vid=3a777aae-0d2a-4638-8c09-6f1de81534e0"},"vehicle_type_id":"4","last_reported":1713542920,"current_range_meters":28800,"station_id":"ce4bhr12rcd13ifvqhqg","pricing_plan_id":"cebpf4jnsgd1na2vs0mg"},{"bike_id":"a4e08546-6278-4fec-a3f5-ea17e1bddef5","system_id":"levelo_inurba_marseille","lat":43.322872,"lon":5.382756,"is_reserved":false,"is_disabled":false,"rental_uris":{"android":"levelo://app?vid=a4e08546-6278-4fec-a3f5-ea17e1bddef5","ios":"levelo://app?vid=a4e08546-6278-4fec-a3f5-ea17e1bddef5"},"vehicle_type_id":"4","last_reported":1713542920,"current_range_meters":12800,"station_id":"ce4bhr12rcd13ifvqhqg","pricing_plan_id":"cebpf4jnsgd1na2vs0mg"},{"bike_id":"3b8d6506-258d-404d-8d59-fe4d1ff9e36b","system_id":"levelo_inurba_marseille","lat":43.297163,"lon":5.365866,"is_reserved":false,"is_disabled":false,"rental_uris":{"android":"levelo://app?vid=3b8d6506-258d-404d-8d59-fe4d1ff9e36b","ios":"levelo://app?vid=3b8d6506-258d-404d-8d59-fe4d1ff9e36b"},"vehicle_type_id":"4","last_reported":1713542920,"current_range_meters":31600,"station_id":"ce4bgn12rcd13ifvqbt0","pricing_plan_id":"cebpf4jnsgd1na2vs0mg"},{"bike_id":"ea6abbe8-20e0-44c7-a2b9-81328d9fd21f","system_id":"levelo_inurba_marseille","lat":43.297163,"lon":5.365866,"is_reserved":false,"is_disabled":false,"rental_uris":{"android":"levelo://app?vid=ea6abbe8-20e0-44c7-a2b9-81328d9fd21f","ios":"levelo://app?vid=ea6abbe8-20e0-44c7-a2b9-81328d9fd21f"},"vehicle_type_id":"4","last_reported":1713542920,"current_range_meters":12400,"station_id":"ce4bgn12rcd13ifvqbt0","pricing_plan_id":"cebpf4jnsgd1na2vs0mg"},{"bike_id":"9adb2a75-ea30-4eec-beff-4a9cb5790920","system_id":"levelo_inurba_marseille","lat":43.297163,"lon":5.365866,"is_reserved":false,"is_disabled":false,"rental_uris":{"android":"levelo://app?vid=9adb2a75-ea30-4eec-beff-4a9cb5790920","ios":"levelo://app?vid=9adb2a75-ea30-4eec-beff-4a9cb5790920"},"vehicle_type_id":"4","last_reported":1713542920,"current_range_meters":0,"station_id":"ce4bgn12rcd13ifvqbt0","pricing_plan_id":"cebpf4jnsgd1na2vs0mg"},{"bike_id":"f7c11b80-e29d-4b32-8277-46d906f43492","system_id":"levelo_inurba_marseille","lat":43.297163,"lon":5.365866,"is_reserved":false,"is_disabled":false,"rental_uris":{"android":"levelo://app?vid=f7c11b80-e29d-4b32-8277-46d906f43492","ios":"levelo://app?vid=f7c11b80-e29d-4b32-8277-46d906f43492"},"vehicle_type_id":"4","last_reported":1713542920,"current_range_meters":18800,"station_id":"ce4bgn12rcd13ifvqbt0","pricing_plan_id":"cebpf4jnsgd1na2vs0mg"},{"bike_id":"791c5625-8244-43c2-aa3b-548ede99cdb9","system_id":"levelo_inurba_marseille","lat":43.296957,"lon":5.366153,"is_reserved":false,"is_disabled":false,"rental_uris":{"android":"levelo://app?vid=791c5625-8244-43c2-aa3b-548ede99cdb9","ios":"levelo://app?vid=791c5625-8244-43c2-aa3b-548ede99cdb9"},"vehicle_type_id":"4","last_reported":1713542920,"current_range_meters":21200,"station_id":"ce4bgn12rcd13ifvqbt0","pricing_plan_id":"cebpf4jnsgd1na2vs0mg"},{"bike_id":"9845b6cd-ec31-4534-93ec-dd025ea3bb84","system_id":"levelo_inurba_marseille","lat":43.2968,"lon":5.37291,"is_reserved":false,"is_disabled":false,"rental_uris":{"android":"levelo://app?vid=9845b6cd-ec31-4534-93ec-dd025ea3bb84","ios":"levelo://app?vid=9845b6cd-ec31-4534-93ec-dd025ea3bb84"},"vehicle_type_id":"4","last_reported":1713542920,"current_range_meters":13600,"station_id":"ce4bgk12rcd13ifvqbj0","pricing_plan_id":"cebpf4jnsgd1na2vs0mg"},{"bike_id":"d0f7eaeb-6b8b-45b4-acec-bb44e1f54022","system_id":"levelo_inurba_marseille","lat":43.2968,"lon":5.37291,"is_reserved":false,"is_disabled":false,"rental_uris":{"android":"levelo://app?vid=d0f7eaeb-6b8b-45b4-acec-bb44e1f54022","ios":"levelo://app?vid=d0f7eaeb-6b8b-45b4-acec-bb44e1f54022"},"vehicle_type_id":"4","last_reported":1713542920,"current_range_meters":8000,"station_id":"ce4bgk12rcd13ifvqbj0","pricing_plan_id":"cebpf4jnsgd1na2vs0mg"},{"bike_id":"34412576-ff8e-4b6f-b781-70212f01c9e7","system_id":"levelo_inurba_marseille","lat":43.2968,"lon":5.37291,"is_reserved":false,"is_disabled":false,"rental_uris":{"android":"levelo://app?vid=34412576-ff8e-4b6f-b781-70212f01c9e7","ios":"levelo://app?vid=34412576-ff8e-4b6f-b781-70212f01c9e7"},"vehicle_type_id":"4","last_reported":1713542920,"current_range_meters":29600,"station_id":"ce4bgk12rcd13ifvqbj0","pricing_plan_id":"cebpf4jnsgd1na2vs0mg"},{"bike_id":"b8a1c3c8-04c5-45b8-909e-1d4509883451","system_id":"levelo_inurba_marseille","lat":43.296131,"lon":5.370791,"is_reserved":false,"is_disabled":false,"rental_uris":{"android":"levelo://app?vid=b8a1c3c8-04c5-45b8-909e-1d4509883451","ios":"levelo://app?vid=b8a1c3c8-04c5-45b8-909e-1d4509883451"},"vehicle_type_id":"4","last_reported":1713542920,"current_range_meters":31200,"station_id":"ce4bgnh2rcd13ifvqc0g","pricing_plan_id":"cebpf4jnsgd1na2vs0mg"},{"bike_id":"1a39d312-63ed-406e-97b8-869ef16f7ba7","system_id":"levelo_inurba_marseille","lat":43.296129,"lon":5.370777,"is_reserved":false,"is_disabled":false,"rental_uris":{"android":"levelo://app?vid=1a39d312-63ed-406e-97b8-869ef16f7ba7","ios":"levelo://app?vid=1a39d312-63ed-406e-97b8-869ef16f7ba7"},"vehicle_type_id":"4","last_reported":1713542920,"current_range_meters":26400,"station_id":"ce4bgnh2rcd13ifvqc0g","pricing_plan_id":"cebpf4jnsgd1na2vs0mg"},{"bike_id":"ea9a2938-a1dc-47c9-a270-98f41b0d7913","system_id":"levelo_inurba_marseille","lat":43.299028,"lon":5.381509,"is_reserved":false,"is_disabled":false,"rental_uris":{"android":"levelo://app?vid=ea9a2938-a1dc-47c9-a270-98f41b0d7913","ios":"levelo://app?vid=ea9a2938-a1dc-47c9-a270-98f41b0d7913"},"vehicle_type_id":"4","last_reported":1713542920,"current_range_meters":1200,"station_id":"ce4bgj12rcd13ifvqbc0","pricing_plan_id":"cebpf4jnsgd1na2vs0mg"},{"bike_id":"129cb4b2-74ff-4735-b804-386769f4c33e","system_id":"levelo_inurba_marseille","lat":43.29573,"lon":5.367355,"is_reserved":false,"is_disabled":false,"rental_uris":{"android":"levelo://app?vid=129cb4b2-74ff-4735-b804-386769f4c33e","ios":"levelo://app?vid=129cb4b2-74ff-4735-b804-386769f4c33e"},"vehicle_type_id":"4","last_reported":1713542920,"current_range_meters":21200,"station_id":"ce4bgph2rcd13ifvqc2g","pricing_plan_id":"cebpf4jnsgd1na2vs0mg"},{"bike_id":"617124f9-dc3e-4d0b-8a24-521ca459846f","system_id":"levelo_inurba_marseille","lat":43.29904,"lon":5.38152,"is_reserved":false,"is_disabled":false,"rental_uris":{"android":"levelo://app?vid=617124f9-dc3e-4d0b-8a24-521ca459846f","ios":"levelo://app?vid=617124f9-dc3e-4d0b-8a24-521ca459846f"},"vehicle_type_id":"4","last_reported":1713542920,"current_range_meters":20000,"station_id":"ce4bgj12rcd13ifvqbc0","pricing_plan_id":"cebpf4jnsgd1na2vs0mg"},{"bike_id":"82a0e264-18aa-41b6-8890-916f017e5c3c","system_id":"levelo_inurba_marseille","lat":43.309589,"lon":5.390258,"is_reserved":false,"is_disabled":false,"rental_uris":{"android":"levelo://app?vid=82a0e264-18aa-41b6-8890-916f017e5c3c","ios":"levelo://app?vid=82a0e264-18aa-41b6-8890-916f017e5c3c"},"vehicle_type_id":"4","last_reported":1713542920,"current_range_meters":400,"station_id":"ce4bgup2rcd13ifvqco0","pricing_plan_id":"cebpf4jnsgd1na2vs0mg"},{"bike_id":"44056c46-e842-436c-bcf1-3e98275f0e0c","system_id":"levelo_inurba_marseille","lat":43.31765,"lon":5.39007,"is_reserved":false,"is_disabled":false,"rental_uris":{"android":"levelo://app?vid=44056c46-e842-436c-bcf1-3e98275f0e0c","ios":"levelo://app?vid=44056c46-e842-436c-bcf1-3e98275f0e0c"},"vehicle_type_id":"4","last_reported":1713542920,"current_range_meters":2800,"station_id":"ce4bhqp2rcd13ifvqhng","pricing_plan_id":"cebpf4jnsgd1na2vs0mg"},{"bike_id":"a5ec90bb-ecc0-4490-a238-308628750f65","system_id":"levelo_inurba_marseille","lat":43.31756,"lon":5.39011,"is_reserved":false,"is_disabled":false,"rental_uris":{"android":"levelo://app?vid=a5ec90bb-ecc0-4490-a238-308628750f65","ios":"levelo://app?vid=a5ec90bb-ecc0-4490-a238-308628750f65"},"vehicle_type_id":"4","last_reported":1713542920,"current_range_meters":9200,"station_id":"ce4bhqp2rcd13ifvqhng","pricing_plan_id":"cebpf4jnsgd1na2vs0mg"},{"bike_id":"02849443-3ff0-4f6b-b548-a4672c13a2fb","system_id":"levelo_inurba_marseille","lat":43.317557,"lon":5.390173,"is_reserved":false,"is_disabled":false,"rental_uris":{"android":"levelo://app?vid=02849443-3ff0-4f6b-b548-a4672c13a2fb","ios":"levelo://app?vid=02849443-3ff0-4f6b-b548-a4672c13a2fb"},"vehicle_type_id":"4","last_reported":1713542920,"current_range_meters":29600,"station_id":"ce4bhqp2rcd13ifvqhng","pricing_plan_id":"cebpf4jnsgd1na2vs0mg"},{"bike_id":"5d76b699-e68e-450f-a947-8488adcac694","system_id":"levelo_inurba_marseille","lat":43.31763,"lon":5.39016,"is_reserved":false,"is_disabled":false,"rental_uris":{"android":"levelo://app?vid=5d76b699-e68e-450f-a947-8488adcac694","ios":"levelo://app?vid=5d76b699-e68e-450f-a947-8488adcac694"},"vehicle_type_id":"4","last_reported":1713542920,"current_range_meters":18800,"station_id":"","pricing_plan_id":"cebpf4jnsgd1na2vs0mg"},{"bike_id":"2ab03a01-4d96-4d10-98a7-922796cff0dc","system_id":"levelo_inurba_marseille","lat":43.298037,"lon":5.381066,"is_reserved":false,"is_disabled":false,"rental_uris":{"android":"levelo://app?vid=2ab03a01-4d96-4d10-98a7-922796cff0dc","ios":"levelo://app?vid=2ab03a01-4d96-4d10-98a7-922796cff0dc"},"vehicle_type_id":"4","last_reported":1713542920,"current_range_meters":6400,"station_id":"ce4bgip2rcd13ifvqbb0","pricing_plan_id":"cebpf4jnsgd1na2vs0mg"},{"bike_id":"7a162ab0-e8bc-4109-ad7a-6416a20638a6","system_id":"levelo_inurba_marseille","lat":43.298764,"lon":5.388973,"is_reserved":false,"is_disabled":false,"rental_uris":{"android":"levelo://app?vid=7a162ab0-e8bc-4109-ad7a-6416a20638a6","ios":"levelo://app?vid=7a162ab0-e8bc-4109-ad7a-6416a20638a6"},"vehicle_type_id":"4","last_reported":1713542920,"current_range_meters":18400,"station_id":"ce4bh392rcd13ifvqdl0","pricing_plan_id":"cebpf4jnsgd1na2vs0mg"},{"bike_id":"8948e77d-f792-4258-8508-f2bc01af245f","system_id":"levelo_inurba_marseille","lat":43.297774,"lon":5.370875,"is_reserved":false,"is_disabled":false,"rental_uris":{"android":"levelo://app?vid=8948e77d-f792-4258-8508-f2bc01af245f","ios":"levelo://app?vid=8948e77d-f792-4258-8508-f2bc01af245f"},"vehicle_type_id":"4","last_reported":1713542920,"current_range_meters":0,"station_id":"ce4bgop2rcd13ifvqc1g","pricing_plan_id":"cebpf4jnsgd1na2vs0mg"},{"bike_id":"ed0859fc-ee6a-431f-866f-d1c99355b820","system_id":"levelo_inurba_marseille","lat":43.296277,"lon":5.377108,"is_reserved":false,"is_disabled":false,"rental_uris":{"android":"levelo://app?vid=ed0859fc-ee6a-431f-866f-d1c99355b820","ios":"levelo://app?vid=ed0859fc-ee6a-431f-866f-d1c99355b820"},"vehicle_type_id":"4","last_reported":1713542920,"current_range_meters":3200,"station_id":"ce4bgi92rcd13ifvqb90","pricing_plan_id":"cebpf4jnsgd1na2vs0mg"},{"bike_id":"7b77e909-2e37-4aee-9e96-c9bffa0b7884","system_id":"levelo_inurba_marseille","lat":43.29539,"lon":5.37502,"is_reserved":false,"is_disabled":false,"rental_uris":{"android":"levelo://app?vid=7b77e909-2e37-4aee-9e96-c9bffa0b7884","ios":"levelo://app?vid=7b77e909-2e37-4aee-9e96-c9bffa0b7884"},"vehicle_type_id":"4","last_reported":1713542920,"current_range_meters":0,"station_id":"ce4bgkp2rcd13ifvqbmg","pricing_plan_id":"cebpf4jnsgd1na2vs0mg"},{"bike_id":"f4d91c4e-1c55-4b73-9e06-c11b849e0819","system_id":"levelo_inurba_marseille","lat":43.299724,"lon":5.384848,"is_reserved":false,"is_disabled":false,"rental_uris":{"android":"levelo://app?vid=f4d91c4e-1c55-4b73-9e06-c11b849e0819","ios":"levelo://app?vid=f4d91c4e-1c55-4b73-9e06-c11b849e0819"},"vehicle_type_id":"4","last_reported":1713542920,"current_range_meters":4400,"station_id":"ce4bgj92rcd13ifvqbd0","pricing_plan_id":"cebpf4jnsgd1na2vs0mg"},{"bike_id":"3896c664-50fa-42db-9a2c-2d55be44e9c6","system_id":"levelo_inurba_marseille","lat":43.32365,"lon":5.38874,"is_reserved":false,"is_disabled":false,"rental_uris":{"android":"levelo://app?vid=3896c664-50fa-42db-9a2c-2d55be44e9c6","ios":"levelo://app?vid=3896c664-50fa-42db-9a2c-2d55be44e9c6"},"vehicle_type_id":"4","last_reported":1713542920,"current_range_meters":14800,"station_id":"ce4bhqp2rcd13ifvqhog","pricing_plan_id":"cebpf4jnsgd1na2vs0mg"},{"bike_id":"18932b7c-40de-4059-87ad-d2ba24c06a76","system_id":"levelo_inurba_marseille","lat":43.32361,"lon":5.38882,"is_reserved":false,"is_disabled":false,"rental_uris":{"android":"levelo://app?vid=18932b7c-40de-4059-87ad-d2ba24c06a76","ios":"levelo://app?vid=18932b7c-40de-4059-87ad-d2ba24c06a76"},"vehicle_type_id":"4","last_reported":1713542920,"current_range_meters":30400,"station_id":"ce4bhqp2rcd13ifvqhog","pricing_plan_id":"cebpf4jnsgd1na2vs0mg"},{"bike_id":"f45058a6-c0b9-4a5b-b54e-4d97cf1fa425","system_id":"levelo_inurba_marseille","lat":43.32361,"lon":5.38882,"is_reserved":false,"is_disabled":false,"rental_uris":{"android":"levelo://app?vid=f45058a6-c0b9-4a5b-b54e-4d97cf1fa425","ios":"levelo://app?vid=f45058a6-c0b9-4a5b-b54e-4d97cf1fa425"},"vehicle_type_id":"4","last_reported":1713542920,"current_range_meters":16800,"station_id":"ce4bhqp2rcd13ifvqhog","pricing_plan_id":"cebpf4jnsgd1na2vs0mg"},{"bike_id":"41618449-04ce-479d-8abc-0fafc120ac12","system_id":"levelo_inurba_marseille","lat":43.32369,"lon":5.38876,"is_reserved":false,"is_disabled":false,"rental_uris":{"android":"levelo://app?vid=41618449-04ce-479d-8abc-0fafc120ac12","ios":"levelo://app?vid=41618449-04ce-479d-8abc-0fafc120ac12"},"vehicle_type_id":"4","last_reported":1713542920,"current_range_meters":31200,"station_id":"ce4bhqp2rcd13ifvqhog","pricing_plan_id":"cebpf4jnsgd1na2vs0mg"},{"bike_id":"ef5c7ff1-5df6-42d6-bf82-48d7daec79c9","system_id":"levelo_inurba_marseille","lat":43.32361,"lon":5.38884,"is_reserved":false,"is_disabled":false,"rental_uris":{"android":"levelo://app?vid=ef5c7ff1-5df6-42d6-bf82-48d7daec79c9","ios":"levelo://app?vid=ef5c7ff1-5df6-42d6-bf82-48d7daec79c9"},"vehicle_type_id":"4","last_reported":1713542920,"current_range_meters":22000,"station_id":"ce4bhqp2rcd13ifvqhog","pricing_plan_id":"cebpf4jnsgd1na2vs0mg"},{"bike_id":"10bd876b-372c-48b6-9eea-48946bb81dd8","system_id":"levelo_inurba_marseille","lat":43.32367,"lon":5.388836,"is_reserved":false,"is_disabled":false,"rental_uris":{"android":"levelo://app?vid=10bd876b-372c-48b6-9eea-48946bb81dd8","ios":"levelo://app?vid=10bd876b-372c-48b6-9eea-48946bb81dd8"},"vehicle_type_id":"4","last_reported":1713542920,"current_range_meters":12000,"station_id":"ce4bhqp2rcd13ifvqhog","pricing_plan_id":"cebpf4jnsgd1na2vs0mg"},{"bike_id":"0ba3da43-4715-4dae-a4a4-ad4aa9af1f28","system_id":"levelo_inurba_marseille","lat":43.32367,"lon":5.388836,"is_reserved":false,"is_disabled":false,"rental_uris":{"android":"levelo://app?vid=0ba3da43-4715-4dae-a4a4-ad4aa9af1f28","ios":"levelo://app?vid=0ba3da43-4715-4dae-a4a4-ad4aa9af1f28"},"vehicle_type_id":"4","last_reported":1713542920,"current_range_meters":4800,"station_id":"ce4bhqp2rcd13ifvqhog","pricing_plan_id":"cebpf4jnsgd1na2vs0mg"},{"bike_id":"a730cd16-45c9-4eac-9f20-d9ef2d8cd53f","system_id":"levelo_inurba_marseille","lat":43.32367,"lon":5.388836,"is_reserved":false,"is_disabled":false,"rental_uris":{"android":"levelo://app?vid=a730cd16-45c9-4eac-9f20-d9ef2d8cd53f","ios":"levelo://app?vid=a730cd16-45c9-4eac-9f20-d9ef2d8cd53f"},"vehicle_type_id":"4","last_reported":1713542920,"current_range_meters":30800,"station_id":"ce4bhqp2rcd13ifvqhog","pricing_plan_id":"cebpf4jnsgd1na2vs0mg"},{"bike_id":"42ed3647-19be-4c84-a479-dde7bed9f72b","system_id":"levelo_inurba_marseille","lat":43.32367,"lon":5.388836,"is_reserved":false,"is_disabled":false,"rental_uris":{"android":"levelo://app?vid=42ed3647-19be-4c84-a479-dde7bed9f72b","ios":"levelo://app?vid=42ed3647-19be-4c84-a479-dde7bed9f72b"},"vehicle_type_id":"4","last_reported":1713542920,"current_range_meters":29200,"station_id":"ce4bhqp2rcd13ifvqhog","pricing_plan_id":"cebpf4jnsgd1na2vs0mg"},{"bike_id":"ec3b84dd-a863-4f78-aeb0-dee9498f4259","system_id":"levelo_inurba_marseille","lat":43.32367,"lon":5.388836,"is_reserved":false,"is_disabled":false,"rental_uris":{"android":"levelo://app?vid=ec3b84dd-a863-4f78-aeb0-dee9498f4259","ios":"levelo://app?vid=ec3b84dd-a863-4f78-aeb0-dee9498f4259"},"vehicle_type_id":"4","last_reported":1713542920,"current_range_meters":17200,"station_id":"ce4bhqp2rcd13ifvqhog","pricing_plan_id":"cebpf4jnsgd1na2vs0mg"},{"bike_id":"7a65131e-0273-4ca2-a7d9-93e390028f62","system_id":"levelo_inurba_marseille","lat":43.29602,"lon":5.381084,"is_reserved":false,"is_disabled":false,"rental_uris":{"android":"levelo://app?vid=7a65131e-0273-4ca2-a7d9-93e390028f62","ios":"levelo://app?vid=7a65131e-0273-4ca2-a7d9-93e390028f62"},"vehicle_type_id":"4","last_reported":1713542920,"current_range_meters":12000,"station_id":"ce4bgl12rcd13ifvqbo0","pricing_plan_id":"cebpf4jnsgd1na2vs0mg"},{"bike_id":"c329260a-fe74-49cc-850d-1703775c2806","system_id":"levelo_inurba_marseille","lat":43.292749,"lon":5.368402,"is_reserved":false,"is_disabled":false,"rental_uris":{"android":"levelo://app?vid=c329260a-fe74-49cc-850d-1703775c2806","ios":"levelo://app?vid=c329260a-fe74-49cc-850d-1703775c2806"},"vehicle_type_id":"4","last_reported":1713542920,"current_range_meters":0,"station_id":"ce4bhbp2rcd13ifvqesg","pricing_plan_id":"cebpf4jnsgd1na2vs0mg"},{"bike_id":"2f934264-2561-4d0e-9160-df161d38c992","system_id":"levelo_inurba_marseille","lat":43.293249,"lon":5.371578,"is_reserved":false,"is_disabled":false,"rental_uris":{"android":"levelo://app?vid=2f934264-2561-4d0e-9160-df161d38c992","ios":"levelo://app?vid=2f934264-2561-4d0e-9160-df161d38c992"},"vehicle_type_id":"4","last_reported":1713542920,"current_range_meters":18000,"station_id":"ce4bgh92rcd13ifvqb40","pricing_plan_id":"cebpf4jnsgd1na2vs0mg"},{"bike_id":"b4fcce7d-57ff-4ac4-89a5-512032373845","system_id":"levelo_inurba_marseille","lat":43.292749,"lon":5.368402,"is_reserved":false,"is_disabled":false,"rental_uris":{"android":"levelo://app?vid=b4fcce7d-57ff-4ac4-89a5-512032373845","ios":"levelo://app?vid=b4fcce7d-57ff-4ac4-89a5-512032373845"},"vehicle_type_id":"4","last_reported":1713542920,"current_range_meters":0,"station_id":"ce4bhbp2rcd13ifvqesg","pricing_plan_id":"cebpf4jnsgd1na2vs0mg"},{"bike_id":"3baad4e2-1fbc-499f-8a28-dafcc03d7611","system_id":"levelo_inurba_marseille","lat":43.293259,"lon":5.371586,"is_reserved":false,"is_disabled":false,"rental_uris":{"android":"levelo://app?vid=3baad4e2-1fbc-499f-8a28-dafcc03d7611","ios":"levelo://app?vid=3baad4e2-1fbc-499f-8a28-dafcc03d7611"},"vehicle_type_id":"4","last_reported":1713542920,"current_range_meters":28800,"station_id":"ce4bgh92rcd13ifvqb40","pricing_plan_id":"cebpf4jnsgd1na2vs0mg"},{"bike_id":"03f3392a-137c-45af-a313-a00952caa9d9","system_id":"levelo_inurba_marseille","lat":43.293259,"lon":5.371586,"is_reserved":false,"is_disabled":false,"rental_uris":{"android":"levelo://app?vid=03f3392a-137c-45af-a313-a00952caa9d9","ios":"levelo://app?vid=03f3392a-137c-45af-a313-a00952caa9d9"},"vehicle_type_id":"4","last_reported":1713542920,"current_range_meters":1200,"station_id":"ce4bgh92rcd13ifvqb40","pricing_plan_id":"cebpf4jnsgd1na2vs0mg"},{"bike_id":"1da3ff02-8377-4b80-8498-8f750702f639","system_id":"levelo_inurba_marseille","lat":43.293259,"lon":5.371586,"is_reserved":false,"is_disabled":false,"rental_uris":{"android":"levelo://app?vid=1da3ff02-8377-4b80-8498-8f750702f639","ios":"levelo://app?vid=1da3ff02-8377-4b80-8498-8f750702f639"},"vehicle_type_id":"4","last_reported":1713542920,"current_range_meters":15600,"station_id":"ce4bgh92rcd13ifvqb40","pricing_plan_id":"cebpf4jnsgd1na2vs0mg"},{"bike_id":"9f25f475-12a2-4671-8949-80ddaebc2581","system_id":"levelo_inurba_marseille","lat":43.293009,"lon":5.374584,"is_reserved":false,"is_disabled":false,"rental_uris":{"android":"levelo://app?vid=9f25f475-12a2-4671-8949-80ddaebc2581","ios":"levelo://app?vid=9f25f475-12a2-4671-8949-80ddaebc2581"},"vehicle_type_id":"4","last_reported":1713542920,"current_range_meters":20800,"station_id":"ce4bgi12rcd13ifvqb70","pricing_plan_id":"cebpf4jnsgd1na2vs0mg"},{"bike_id":"0b522f35-bb12-40db-af4f-33d95ad10271","system_id":"levelo_inurba_marseille","lat":43.292826,"lon":5.373478,"is_reserved":false,"is_disabled":false,"rental_uris":{"android":"levelo://app?vid=0b522f35-bb12-40db-af4f-33d95ad10271","ios":"levelo://app?vid=0b522f35-bb12-40db-af4f-33d95ad10271"},"vehicle_type_id":"4","last_reported":1713542920,"current_range_meters":18000,"station_id":"ce4bgi12rcd13ifvqb70","pricing_plan_id":"cebpf4jnsgd1na2vs0mg"},{"bike_id":"018af7a1-175d-4e78-b8ec-6b1a3e9e935c","system_id":"levelo_inurba_marseille","lat":43.305994,"lon":5.393687,"is_reserved":false,"is_disabled":false,"rental_uris":{"android":"levelo://app?vid=018af7a1-175d-4e78-b8ec-6b1a3e9e935c","ios":"levelo://app?vid=018af7a1-175d-4e78-b8ec-6b1a3e9e935c"},"vehicle_type_id":"4","last_reported":1713542920,"current_range_meters":0,"station_id":"ce4bh0p2rcd13ifvqd80","pricing_plan_id":"cebpf4jnsgd1na2vs0mg"},{"bike_id":"3d22231f-b807-4735-9812-ee82e63115d5","system_id":"levelo_inurba_marseille","lat":43.305994,"lon":5.393687,"is_reserved":false,"is_disabled":false,"rental_uris":{"android":"levelo://app?vid=3d22231f-b807-4735-9812-ee82e63115d5","ios":"levelo://app?vid=3d22231f-b807-4735-9812-ee82e63115d5"},"vehicle_type_id":"4","last_reported":1713542920,"current_range_meters":0,"station_id":"ce4bh0p2rcd13ifvqd80","pricing_plan_id":"cebpf4jnsgd1na2vs0mg"},{"bike_id":"48fdd270-97f4-409e-af9b-ad54dc23214c","system_id":"levelo_inurba_marseille","lat":43.300852,"lon":5.390859,"is_reserved":false,"is_disabled":false,"rental_uris":{"android":"levelo://app?vid=48fdd270-97f4-409e-af9b-ad54dc23214c","ios":"levelo://app?vid=48fdd270-97f4-409e-af9b-ad54dc23214c"},"vehicle_type_id":"4","last_reported":1713542920,"current_range_meters":27200,"station_id":"ce4bh192rcd13ifvqdb0","pricing_plan_id":"cebpf4jnsgd1na2vs0mg"},{"bike_id":"39892a33-eaaf-4bea-b6f7-efd1acf1d0f3","system_id":"levelo_inurba_marseille","lat":43.30085,"lon":5.390856,"is_reserved":false,"is_disabled":false,"rental_uris":{"android":"levelo://app?vid=39892a33-eaaf-4bea-b6f7-efd1acf1d0f3","ios":"levelo://app?vid=39892a33-eaaf-4bea-b6f7-efd1acf1d0f3"},"vehicle_type_id":"4","last_reported":1713542920,"current_range_meters":13200,"station_id":"ce4bh192rcd13ifvqdb0","pricing_plan_id":"cebpf4jnsgd1na2vs0mg"},{"bike_id":"186a4aea-44f3-40dc-8a30-92ce3b81662f","system_id":"levelo_inurba_marseille","lat":43.292311,"lon":5.360731,"is_reserved":false,"is_disabled":false,"rental_uris":{"android":"levelo://app?vid=186a4aea-44f3-40dc-8a30-92ce3b81662f","ios":"levelo://app?vid=186a4aea-44f3-40dc-8a30-92ce3b81662f"},"vehicle_type_id":"4","last_reported":1713542920,"current_range_meters":29200,"station_id":"ce4bhbh2rcd13ifvqeqg","pricing_plan_id":"cebpf4jnsgd1na2vs0mg"},{"bike_id":"b66d7182-2c95-417a-b60d-24f51ecb3c47","system_id":"levelo_inurba_marseille","lat":43.2923,"lon":5.36062,"is_reserved":false,"is_disabled":false,"rental_uris":{"android":"levelo://app?vid=b66d7182-2c95-417a-b60d-24f51ecb3c47","ios":"levelo://app?vid=b66d7182-2c95-417a-b60d-24f51ecb3c47"},"vehicle_type_id":"4","last_reported":1713542920,"current_range_meters":2000,"station_id":"ce4bhbh2rcd13ifvqeqg","pricing_plan_id":"cebpf4jnsgd1na2vs0mg"},{"bike_id":"af409fb3-ff14-4ca8-b15a-4a2ece68efd0","system_id":"levelo_inurba_marseille","lat":43.292311,"lon":5.360731,"is_reserved":false,"is_disabled":false,"rental_uris":{"android":"levelo://app?vid=af409fb3-ff14-4ca8-b15a-4a2ece68efd0","ios":"levelo://app?vid=af409fb3-ff14-4ca8-b15a-4a2ece68efd0"},"vehicle_type_id":"4","last_reported":1713542920,"current_range_meters":12400,"station_id":"ce4bhbh2rcd13ifvqeqg","pricing_plan_id":"cebpf4jnsgd1na2vs0mg"},{"bike_id":"27b041ec-f496-4f78-8713-3fbe6435a77d","system_id":"levelo_inurba_marseille","lat":43.30085,"lon":5.390856,"is_reserved":false,"is_disabled":false,"rental_uris":{"android":"levelo://app?vid=27b041ec-f496-4f78-8713-3fbe6435a77d","ios":"levelo://app?vid=27b041ec-f496-4f78-8713-3fbe6435a77d"},"vehicle_type_id":"4","last_reported":1713542920,"current_range_meters":6000,"station_id":"ce4bh192rcd13ifvqdb0","pricing_plan_id":"cebpf4jnsgd1na2vs0mg"},{"bike_id":"0f8474f8-8dec-418d-ad7c-c8672396e925","system_id":"levelo_inurba_marseille","lat":43.29224,"lon":5.36067,"is_reserved":false,"is_disabled":false,"rental_uris":{"android":"levelo://app?vid=0f8474f8-8dec-418d-ad7c-c8672396e925","ios":"levelo://app?vid=0f8474f8-8dec-418d-ad7c-c8672396e925"},"vehicle_type_id":"4","last_reported":1713542920,"current_range_meters":0,"station_id":"ce4bhbh2rcd13ifvqeqg","pricing_plan_id":"cebpf4jnsgd1na2vs0mg"},{"bike_id":"1d20b4aa-59ff-4175-bb06-7ddcac0b73d0","system_id":"levelo_inurba_marseille","lat":43.292311,"lon":5.360731,"is_reserved":false,"is_disabled":false,"rental_uris":{"android":"levelo://app?vid=1d20b4aa-59ff-4175-bb06-7ddcac0b73d0","ios":"levelo://app?vid=1d20b4aa-59ff-4175-bb06-7ddcac0b73d0"},"vehicle_type_id":"4","last_reported":1713542920,"current_range_meters":16800,"station_id":"ce4bhbh2rcd13ifvqeqg","pricing_plan_id":"cebpf4jnsgd1na2vs0mg"},{"bike_id":"702b0742-3a8c-43af-beb6-eb201285777a","system_id":"levelo_inurba_marseille","lat":43.294153,"lon":5.386305,"is_reserved":false,"is_disabled":false,"rental_uris":{"android":"levelo://app?vid=702b0742-3a8c-43af-beb6-eb201285777a","ios":"levelo://app?vid=702b0742-3a8c-43af-beb6-eb201285777a"},"vehicle_type_id":"4","last_reported":1713542920,"current_range_meters":27600,"station_id":"ce4bh2h2rcd13ifvqdh0","pricing_plan_id":"cebpf4jnsgd1na2vs0mg"},{"bike_id":"b0f85840-fd23-4b87-a0fc-9b858c7cd311","system_id":"levelo_inurba_marseille","lat":43.298764,"lon":5.388973,"is_reserved":false,"is_disabled":false,"rental_uris":{"android":"levelo://app?vid=b0f85840-fd23-4b87-a0fc-9b858c7cd311","ios":"levelo://app?vid=b0f85840-fd23-4b87-a0fc-9b858c7cd311"},"vehicle_type_id":"4","last_reported":1713542920,"current_range_meters":6800,"station_id":"ce4bh392rcd13ifvqdl0","pricing_plan_id":"cebpf4jnsgd1na2vs0mg"},{"bike_id":"6d051c59-aaec-4904-915c-a8b49f1f250c","system_id":"levelo_inurba_marseille","lat":43.298764,"lon":5.388973,"is_reserved":false,"is_disabled":false,"rental_uris":{"android":"levelo://app?vid=6d051c59-aaec-4904-915c-a8b49f1f250c","ios":"levelo://app?vid=6d051c59-aaec-4904-915c-a8b49f1f250c"},"vehicle_type_id":"4","last_reported":1713542920,"current_range_meters":4000,"station_id":"ce4bh392rcd13ifvqdl0","pricing_plan_id":"cebpf4jnsgd1na2vs0mg"},{"bike_id":"df64eaa2-58c2-468f-a24b-11d3e0a55051","system_id":"levelo_inurba_marseille","lat":43.292005,"lon":5.357875,"is_reserved":false,"is_disabled":false,"rental_uris":{"android":"levelo://app?vid=df64eaa2-58c2-468f-a24b-11d3e0a55051","ios":"levelo://app?vid=df64eaa2-58c2-468f-a24b-11d3e0a55051"},"vehicle_type_id":"4","last_reported":1713542920,"current_range_meters":12400,"station_id":"ce4bhb12rcd13ifvqel0","pricing_plan_id":"cebpf4jnsgd1na2vs0mg"},{"bike_id":"319ad13a-2fa6-4aa9-9243-c123ac99fed9","system_id":"levelo_inurba_marseille","lat":43.291671,"lon":5.371575,"is_reserved":false,"is_disabled":false,"rental_uris":{"android":"levelo://app?vid=319ad13a-2fa6-4aa9-9243-c123ac99fed9","ios":"levelo://app?vid=319ad13a-2fa6-4aa9-9243-c123ac99fed9"},"vehicle_type_id":"4","last_reported":1713542920,"current_range_meters":20400,"station_id":"ce4bha92rcd13ifvqeh0","pricing_plan_id":"cebpf4jnsgd1na2vs0mg"},{"bike_id":"7a97d892-eee7-4a88-bb07-390e1813cd04","system_id":"levelo_inurba_marseille","lat":43.291675,"lon":5.371583,"is_reserved":false,"is_disabled":false,"rental_uris":{"android":"levelo://app?vid=7a97d892-eee7-4a88-bb07-390e1813cd04","ios":"levelo://app?vid=7a97d892-eee7-4a88-bb07-390e1813cd04"},"vehicle_type_id":"4","last_reported":1713542920,"current_range_meters":800,"station_id":"ce4bha92rcd13ifvqeh0","pricing_plan_id":"cebpf4jnsgd1na2vs0mg"},{"bike_id":"61ad6805-c2db-42d9-ae57-c3523b9c2662","system_id":"levelo_inurba_marseille","lat":43.291675,"lon":5.371583,"is_reserved":false,"is_disabled":false,"rental_uris":{"android":"levelo://app?vid=61ad6805-c2db-42d9-ae57-c3523b9c2662","ios":"levelo://app?vid=61ad6805-c2db-42d9-ae57-c3523b9c2662"},"vehicle_type_id":"4","last_reported":1713542920,"current_range_meters":16400,"station_id":"ce4bha92rcd13ifvqeh0","pricing_plan_id":"cebpf4jnsgd1na2vs0mg"},{"bike_id":"ffc83026-7b35-496b-b555-dab2be34d277","system_id":"levelo_inurba_marseille","lat":43.313291,"lon":5.396838,"is_reserved":false,"is_disabled":false,"rental_uris":{"android":"levelo://app?vid=ffc83026-7b35-496b-b555-dab2be34d277","ios":"levelo://app?vid=ffc83026-7b35-496b-b555-dab2be34d277"},"vehicle_type_id":"4","last_reported":1713542920,"current_range_meters":0,"station_id":"ce4bgvp2rcd13ifvqcu0","pricing_plan_id":"cebpf4jnsgd1na2vs0mg"},{"bike_id":"e827fdc5-b3d8-4ddd-8879-af0c172ccc07","system_id":"levelo_inurba_marseille","lat":43.291675,"lon":5.371583,"is_reserved":false,"is_disabled":false,"rental_uris":{"android":"levelo://app?vid=e827fdc5-b3d8-4ddd-8879-af0c172ccc07","ios":"levelo://app?vid=e827fdc5-b3d8-4ddd-8879-af0c172ccc07"},"vehicle_type_id":"4","last_reported":1713542920,"current_range_meters":13600,"station_id":"ce4bha92rcd13ifvqeh0","pricing_plan_id":"cebpf4jnsgd1na2vs0mg"},{"bike_id":"d01fc990-b18f-4b3e-b0c3-ee36be8dd86b","system_id":"levelo_inurba_marseille","lat":43.298764,"lon":5.388973,"is_reserved":false,"is_disabled":false,"rental_uris":{"android":"levelo://app?vid=d01fc990-b18f-4b3e-b0c3-ee36be8dd86b","ios":"levelo://app?vid=d01fc990-b18f-4b3e-b0c3-ee36be8dd86b"},"vehicle_type_id":"4","last_reported":1713542920,"current_range_meters":3600,"station_id":"ce4bh392rcd13ifvqdl0","pricing_plan_id":"cebpf4jnsgd1na2vs0mg"},{"bike_id":"b2dd975e-5114-48c3-88fc-be77bc79bae0","system_id":"levelo_inurba_marseille","lat":43.291675,"lon":5.371583,"is_reserved":false,"is_disabled":false,"rental_uris":{"android":"levelo://app?vid=b2dd975e-5114-48c3-88fc-be77bc79bae0","ios":"levelo://app?vid=b2dd975e-5114-48c3-88fc-be77bc79bae0"},"vehicle_type_id":"4","last_reported":1713542920,"current_range_meters":31200,"station_id":"ce4bha92rcd13ifvqeh0","pricing_plan_id":"cebpf4jnsgd1na2vs0mg"},{"bike_id":"61c1c49e-b9f6-4c7f-8692-e5c9884b1165","system_id":"levelo_inurba_marseille","lat":43.291675,"lon":5.371583,"is_reserved":false,"is_disabled":false,"rental_uris":{"android":"levelo://app?vid=61c1c49e-b9f6-4c7f-8692-e5c9884b1165","ios":"levelo://app?vid=61c1c49e-b9f6-4c7f-8692-e5c9884b1165"},"vehicle_type_id":"4","last_reported":1713542920,"current_range_meters":6400,"station_id":"ce4bha92rcd13ifvqeh0","pricing_plan_id":"cebpf4jnsgd1na2vs0mg"},{"bike_id":"6715b107-d33d-4b24-8d41-6980418cc0ed","system_id":"levelo_inurba_marseille","lat":43.291675,"lon":5.371583,"is_reserved":false,"is_disabled":false,"rental_uris":{"android":"levelo://app?vid=6715b107-d33d-4b24-8d41-6980418cc0ed","ios":"levelo://app?vid=6715b107-d33d-4b24-8d41-6980418cc0ed"},"vehicle_type_id":"4","last_reported":1713542920,"current_range_meters":13200,"station_id":"ce4bha92rcd13ifvqeh0","pricing_plan_id":"cebpf4jnsgd1na2vs0mg"},{"bike_id":"8b62cc34-014f-4a0e-b6af-311e67a765d3","system_id":"levelo_inurba_marseille","lat":43.2936,"lon":5.37835,"is_reserved":false,"is_disabled":false,"rental_uris":{"android":"levelo://app?vid=8b62cc34-014f-4a0e-b6af-311e67a765d3","ios":"levelo://app?vid=8b62cc34-014f-4a0e-b6af-311e67a765d3"},"vehicle_type_id":"4","last_reported":1713542920,"current_range_meters":7200,"station_id":"ce4bgjh2rcd13ifvqbf0","pricing_plan_id":"cebpf4jnsgd1na2vs0mg"},{"bike_id":"019debde-2177-413f-9b37-e356d86d43fa","system_id":"levelo_inurba_marseille","lat":43.291671,"lon":5.371575,"is_reserved":false,"is_disabled":false,"rental_uris":{"android":"levelo://app?vid=019debde-2177-413f-9b37-e356d86d43fa","ios":"levelo://app?vid=019debde-2177-413f-9b37-e356d86d43fa"},"vehicle_type_id":"4","last_reported":1713542920,"current_range_meters":30400,"station_id":"ce4bha92rcd13ifvqeh0","pricing_plan_id":"cebpf4jnsgd1na2vs0mg"},{"bike_id":"6141367f-d4a8-4222-aebf-04ee1bf3efc4","system_id":"levelo_inurba_marseille","lat":43.291994,"lon":5.357886,"is_reserved":false,"is_disabled":false,"rental_uris":{"android":"levelo://app?vid=6141367f-d4a8-4222-aebf-04ee1bf3efc4","ios":"levelo://app?vid=6141367f-d4a8-4222-aebf-04ee1bf3efc4"},"vehicle_type_id":"4","last_reported":1713542920,"current_range_meters":3600,"station_id":"ce4bhb12rcd13ifvqel0","pricing_plan_id":"cebpf4jnsgd1na2vs0mg"},{"bike_id":"53379a76-ae0f-4ae8-b37a-89a018bb7c51","system_id":"levelo_inurba_marseille","lat":43.292311,"lon":5.360731,"is_reserved":false,"is_disabled":false,"rental_uris":{"android":"levelo://app?vid=53379a76-ae0f-4ae8-b37a-89a018bb7c51","ios":"levelo://app?vid=53379a76-ae0f-4ae8-b37a-89a018bb7c51"},"vehicle_type_id":"4","last_reported":1713542920,"current_range_meters":16000,"station_id":"ce4bhbh2rcd13ifvqeqg","pricing_plan_id":"cebpf4jnsgd1na2vs0mg"},{"bike_id":"bcb03883-7431-45a9-a345-b53c57af472c","system_id":"levelo_inurba_marseille","lat":43.313291,"lon":5.396838,"is_reserved":false,"is_disabled":false,"rental_uris":{"android":"levelo://app?vid=bcb03883-7431-45a9-a345-b53c57af472c","ios":"levelo://app?vid=bcb03883-7431-45a9-a345-b53c57af472c"},"vehicle_type_id":"4","last_reported":1713542920,"current_range_meters":25200,"station_id":"ce4bgvp2rcd13ifvqcu0","pricing_plan_id":"cebpf4jnsgd1na2vs0mg"},{"bike_id":"5a3b4be6-8391-4061-81e6-b23f7623f21c","system_id":"levelo_inurba_marseille","lat":43.291994,"lon":5.357886,"is_reserved":false,"is_disabled":false,"rental_uris":{"android":"levelo://app?vid=5a3b4be6-8391-4061-81e6-b23f7623f21c","ios":"levelo://app?vid=5a3b4be6-8391-4061-81e6-b23f7623f21c"},"vehicle_type_id":"4","last_reported":1713542920,"current_range_meters":19600,"station_id":"ce4bhb12rcd13ifvqel0","pricing_plan_id":"cebpf4jnsgd1na2vs0mg"},{"bike_id":"9e1da337-143c-46c6-b55f-204e19fb3dab","system_id":"levelo_inurba_marseille","lat":43.291994,"lon":5.357886,"is_reserved":false,"is_disabled":false,"rental_uris":{"android":"levelo://app?vid=9e1da337-143c-46c6-b55f-204e19fb3dab","ios":"levelo://app?vid=9e1da337-143c-46c6-b55f-204e19fb3dab"},"vehicle_type_id":"4","last_reported":1713542920,"current_range_meters":0,"station_id":"ce4bhb12rcd13ifvqel0","pricing_plan_id":"cebpf4jnsgd1na2vs0mg"},{"bike_id":"3fe07c92-3b1b-40a8-a72f-42cd8cee1de9","system_id":"levelo_inurba_marseille","lat":43.292,"lon":5.35803,"is_reserved":false,"is_disabled":false,"rental_uris":{"android":"levelo://app?vid=3fe07c92-3b1b-40a8-a72f-42cd8cee1de9","ios":"levelo://app?vid=3fe07c92-3b1b-40a8-a72f-42cd8cee1de9"},"vehicle_type_id":"4","last_reported":1713542920,"current_range_meters":22000,"station_id":"ce4bhb12rcd13ifvqel0","pricing_plan_id":"cebpf4jnsgd1na2vs0mg"},{"bike_id":"fe0863f8-fb16-447a-98d3-b99fdb2de53b","system_id":"levelo_inurba_marseille","lat":43.313291,"lon":5.396838,"is_reserved":false,"is_disabled":false,"rental_uris":{"android":"levelo://app?vid=fe0863f8-fb16-447a-98d3-b99fdb2de53b","ios":"levelo://app?vid=fe0863f8-fb16-447a-98d3-b99fdb2de53b"},"vehicle_type_id":"4","last_reported":1713542920,"current_range_meters":0,"station_id":"ce4bgvp2rcd13ifvqcu0","pricing_plan_id":"cebpf4jnsgd1na2vs0mg"},{"bike_id":"58d7a175-9a9e-4e25-a969-ec00e92d5fa9","system_id":"levelo_inurba_marseille","lat":43.313291,"lon":5.396838,"is_reserved":false,"is_disabled":false,"rental_uris":{"android":"levelo://app?vid=58d7a175-9a9e-4e25-a969-ec00e92d5fa9","ios":"levelo://app?vid=58d7a175-9a9e-4e25-a969-ec00e92d5fa9"},"vehicle_type_id":"4","last_reported":1713542920,"current_range_meters":11600,"station_id":"ce4bgvp2rcd13ifvqcu0","pricing_plan_id":"cebpf4jnsgd1na2vs0mg"},{"bike_id":"5f85a3a7-f2a1-4eda-9d1f-71baae64ef04","system_id":"levelo_inurba_marseille","lat":43.291994,"lon":5.357886,"is_reserved":false,"is_disabled":false,"rental_uris":{"android":"levelo://app?vid=5f85a3a7-f2a1-4eda-9d1f-71baae64ef04","ios":"levelo://app?vid=5f85a3a7-f2a1-4eda-9d1f-71baae64ef04"},"vehicle_type_id":"4","last_reported":1713542920,"current_range_meters":19600,"station_id":"ce4bhb12rcd13ifvqel0","pricing_plan_id":"cebpf4jnsgd1na2vs0mg"},{"bike_id":"517b1cd8-9d3f-4103-ad35-872cbe3bfa49","system_id":"levelo_inurba_marseille","lat":43.313291,"lon":5.396838,"is_reserved":false,"is_disabled":false,"rental_uris":{"android":"levelo://app?vid=517b1cd8-9d3f-4103-ad35-872cbe3bfa49","ios":"levelo://app?vid=517b1cd8-9d3f-4103-ad35-872cbe3bfa49"},"vehicle_type_id":"4","last_reported":1713542920,"current_range_meters":18800,"station_id":"ce4bgvp2rcd13ifvqcu0","pricing_plan_id":"cebpf4jnsgd1na2vs0mg"},{"bike_id":"c76bbdf3-6740-4c27-a5ed-e4d826d05d83","system_id":"levelo_inurba_marseille","lat":43.313291,"lon":5.396838,"is_reserved":false,"is_disabled":false,"rental_uris":{"android":"levelo://app?vid=c76bbdf3-6740-4c27-a5ed-e4d826d05d83","ios":"levelo://app?vid=c76bbdf3-6740-4c27-a5ed-e4d826d05d83"},"vehicle_type_id":"4","last_reported":1713542920,"current_range_meters":0,"station_id":"ce4bgvp2rcd13ifvqcu0","pricing_plan_id":"cebpf4jnsgd1na2vs0mg"},{"bike_id":"2a7740bd-6c5b-4caa-920e-9d4543746fe5","system_id":"levelo_inurba_marseille","lat":43.313291,"lon":5.396838,"is_reserved":false,"is_disabled":false,"rental_uris":{"android":"levelo://app?vid=2a7740bd-6c5b-4caa-920e-9d4543746fe5","ios":"levelo://app?vid=2a7740bd-6c5b-4caa-920e-9d4543746fe5"},"vehicle_type_id":"4","last_reported":1713542920,"current_range_meters":4000,"station_id":"ce4bgvp2rcd13ifvqcu0","pricing_plan_id":"cebpf4jnsgd1na2vs0mg"},{"bike_id":"881d8951-28ac-4453-8c27-da62cc493512","system_id":"levelo_inurba_marseille","lat":43.313291,"lon":5.396838,"is_reserved":false,"is_disabled":false,"rental_uris":{"android":"levelo://app?vid=881d8951-28ac-4453-8c27-da62cc493512","ios":"levelo://app?vid=881d8951-28ac-4453-8c27-da62cc493512"},"vehicle_type_id":"4","last_reported":1713542920,"current_range_meters":18800,"station_id":"ce4bgvp2rcd13ifvqcu0","pricing_plan_id":"cebpf4jnsgd1na2vs0mg"},{"bike_id":"3ba06c92-dbac-4f72-96ec-66589620d5e0","system_id":"levelo_inurba_marseille","lat":43.313291,"lon":5.396838,"is_reserved":false,"is_disabled":false,"rental_uris":{"android":"levelo://app?vid=3ba06c92-dbac-4f72-96ec-66589620d5e0","ios":"levelo://app?vid=3ba06c92-dbac-4f72-96ec-66589620d5e0"},"vehicle_type_id":"4","last_reported":1713542920,"current_range_meters":400,"station_id":"ce4bgvp2rcd13ifvqcu0","pricing_plan_id":"cebpf4jnsgd1na2vs0mg"},{"bike_id":"9226fe99-0951-4d0e-8070-1a650e856687","system_id":"levelo_inurba_marseille","lat":43.313291,"lon":5.396838,"is_reserved":false,"is_disabled":false,"rental_uris":{"android":"levelo://app?vid=9226fe99-0951-4d0e-8070-1a650e856687","ios":"levelo://app?vid=9226fe99-0951-4d0e-8070-1a650e856687"},"vehicle_type_id":"4","last_reported":1713542920,"current_range_meters":18400,"station_id":"ce4bgvp2rcd13ifvqcu0","pricing_plan_id":"cebpf4jnsgd1na2vs0mg"},{"bike_id":"2a7f4b4c-6a11-4b76-8d20-d1a550f5cfb9","system_id":"levelo_inurba_marseille","lat":43.309371,"lon":5.401449,"is_reserved":false,"is_disabled":false,"rental_uris":{"android":"levelo://app?vid=2a7f4b4c-6a11-4b76-8d20-d1a550f5cfb9","ios":"levelo://app?vid=2a7f4b4c-6a11-4b76-8d20-d1a550f5cfb9"},"vehicle_type_id":"4","last_reported":1713542920,"current_range_meters":0,"station_id":"ce4bgvp2rcd13ifvqct0","pricing_plan_id":"cebpf4jnsgd1na2vs0mg"},{"bike_id":"f024d32a-7244-4b92-a142-2c87efdc7846","system_id":"levelo_inurba_marseille","lat":43.313291,"lon":5.396838,"is_reserved":false,"is_disabled":false,"rental_uris":{"android":"levelo://app?vid=f024d32a-7244-4b92-a142-2c87efdc7846","ios":"levelo://app?vid=f024d32a-7244-4b92-a142-2c87efdc7846"},"vehicle_type_id":"4","last_reported":1713542920,"current_range_meters":18000,"station_id":"ce4bgvp2rcd13ifvqcu0","pricing_plan_id":"cebpf4jnsgd1na2vs0mg"},{"bike_id":"c8c262b1-28e7-4a03-a3f7-65c0e5740c2d","system_id":"levelo_inurba_marseille","lat":43.313291,"lon":5.396838,"is_reserved":false,"is_disabled":false,"rental_uris":{"android":"levelo://app?vid=c8c262b1-28e7-4a03-a3f7-65c0e5740c2d","ios":"levelo://app?vid=c8c262b1-28e7-4a03-a3f7-65c0e5740c2d"},"vehicle_type_id":"4","last_reported":1713542920,"current_range_meters":13600,"station_id":"ce4bgvp2rcd13ifvqcu0","pricing_plan_id":"cebpf4jnsgd1na2vs0mg"},{"bike_id":"307d9f1c-1f74-497e-a7ae-c771984fc732","system_id":"levelo_inurba_marseille","lat":43.295355,"lon":5.385375,"is_reserved":false,"is_disabled":false,"rental_uris":{"android":"levelo://app?vid=307d9f1c-1f74-497e-a7ae-c771984fc732","ios":"levelo://app?vid=307d9f1c-1f74-497e-a7ae-c771984fc732"},"vehicle_type_id":"4","last_reported":1713542920,"current_range_meters":0,"station_id":"","pricing_plan_id":"cebpf4jnsgd1na2vs0mg"},{"bike_id":"19a045b0-a58d-420e-980e-79aa373ce378","system_id":"levelo_inurba_marseille","lat":43.29529,"lon":5.385581,"is_reserved":false,"is_disabled":false,"rental_uris":{"android":"levelo://app?vid=19a045b0-a58d-420e-980e-79aa373ce378","ios":"levelo://app?vid=19a045b0-a58d-420e-980e-79aa373ce378"},"vehicle_type_id":"4","last_reported":1713542920,"current_range_meters":14000,"station_id":"ce4bgih2rcd13ifvqba0","pricing_plan_id":"cebpf4jnsgd1na2vs0mg"},{"bike_id":"c708d04a-8881-491f-8d50-400e5ad961a6","system_id":"levelo_inurba_marseille","lat":43.30873,"lon":5.39676,"is_reserved":false,"is_disabled":false,"rental_uris":{"android":"levelo://app?vid=c708d04a-8881-491f-8d50-400e5ad961a6","ios":"levelo://app?vid=c708d04a-8881-491f-8d50-400e5ad961a6"},"vehicle_type_id":"4","last_reported":1713542920,"current_range_meters":18000,"station_id":"ce4bhbp2rcd13ifvqerg","pricing_plan_id":"cebpf4jnsgd1na2vs0mg"},{"bike_id":"134b3045-b307-40fc-88ff-783660fea4f1","system_id":"levelo_inurba_marseille","lat":43.290779,"lon":5.371482,"is_reserved":false,"is_disabled":false,"rental_uris":{"android":"levelo://app?vid=134b3045-b307-40fc-88ff-783660fea4f1","ios":"levelo://app?vid=134b3045-b307-40fc-88ff-783660fea4f1"},"vehicle_type_id":"4","last_reported":1713542920,"current_range_meters":7600,"station_id":"ce4bh5p2rcd13ifvqe4g","pricing_plan_id":"cebpf4jnsgd1na2vs0mg"},{"bike_id":"bca26723-a69b-4473-b09f-0904de181fbc","system_id":"levelo_inurba_marseille","lat":43.290779,"lon":5.371482,"is_reserved":false,"is_disabled":false,"rental_uris":{"android":"levelo://app?vid=bca26723-a69b-4473-b09f-0904de181fbc","ios":"levelo://app?vid=bca26723-a69b-4473-b09f-0904de181fbc"},"vehicle_type_id":"4","last_reported":1713542920,"current_range_meters":20800,"station_id":"ce4bh5p2rcd13ifvqe4g","pricing_plan_id":"cebpf4jnsgd1na2vs0mg"},{"bike_id":"03898c33-f868-4276-b53a-998e52519196","system_id":"levelo_inurba_marseille","lat":43.32705,"lon":5.39043,"is_reserved":false,"is_disabled":false,"rental_uris":{"android":"levelo://app?vid=03898c33-f868-4276-b53a-998e52519196","ios":"levelo://app?vid=03898c33-f868-4276-b53a-998e52519196"},"vehicle_type_id":"4","last_reported":1713542920,"current_range_meters":26000,"station_id":"","pricing_plan_id":"cebpf4jnsgd1na2vs0mg"},{"bike_id":"cfde0106-b9e6-4c89-83dd-58074b55d267","system_id":"levelo_inurba_marseille","lat":43.302008,"lon":5.394694,"is_reserved":false,"is_disabled":false,"rental_uris":{"android":"levelo://app?vid=cfde0106-b9e6-4c89-83dd-58074b55d267","ios":"levelo://app?vid=cfde0106-b9e6-4c89-83dd-58074b55d267"},"vehicle_type_id":"4","last_reported":1713542920,"current_range_meters":6800,"station_id":"ce4bh0p2rcd13ifvqd70","pricing_plan_id":"cebpf4jnsgd1na2vs0mg"},{"bike_id":"2cbbc2e8-ff18-4193-8b61-ba39eb7153ed","system_id":"levelo_inurba_marseille","lat":43.302008,"lon":5.394694,"is_reserved":false,"is_disabled":false,"rental_uris":{"android":"levelo://app?vid=2cbbc2e8-ff18-4193-8b61-ba39eb7153ed","ios":"levelo://app?vid=2cbbc2e8-ff18-4193-8b61-ba39eb7153ed"},"vehicle_type_id":"4","last_reported":1713542920,"current_range_meters":22400,"station_id":"ce4bh0p2rcd13ifvqd70","pricing_plan_id":"cebpf4jnsgd1na2vs0mg"},{"bike_id":"d76d079a-f3f2-4f48-9585-b612d947b5a4","system_id":"levelo_inurba_marseille","lat":43.30214,"lon":5.39466,"is_reserved":false,"is_disabled":false,"rental_uris":{"android":"levelo://app?vid=d76d079a-f3f2-4f48-9585-b612d947b5a4","ios":"levelo://app?vid=d76d079a-f3f2-4f48-9585-b612d947b5a4"},"vehicle_type_id":"4","last_reported":1713542920,"current_range_meters":0,"station_id":"ce4bh0p2rcd13ifvqd70","pricing_plan_id":"cebpf4jnsgd1na2vs0mg"},{"bike_id":"58fe6d56-ac10-4996-9c90-1eda32d29300","system_id":"levelo_inurba_marseille","lat":43.294153,"lon":5.386305,"is_reserved":false,"is_disabled":false,"rental_uris":{"android":"levelo://app?vid=58fe6d56-ac10-4996-9c90-1eda32d29300","ios":"levelo://app?vid=58fe6d56-ac10-4996-9c90-1eda32d29300"},"vehicle_type_id":"4","last_reported":1713542920,"current_range_meters":19600,"station_id":"ce4bh2h2rcd13ifvqdh0","pricing_plan_id":"cebpf4jnsgd1na2vs0mg"},{"bike_id":"2c2d07ab-c3a2-4376-97b4-030baf6fb3d5","system_id":"levelo_inurba_marseille","lat":43.289184,"lon":5.366408,"is_reserved":false,"is_disabled":false,"rental_uris":{"android":"levelo://app?vid=2c2d07ab-c3a2-4376-97b4-030baf6fb3d5","ios":"levelo://app?vid=2c2d07ab-c3a2-4376-97b4-030baf6fb3d5"},"vehicle_type_id":"4","last_reported":1713542920,"current_range_meters":400,"station_id":"ce4bhap2rcd13ifvqek0","pricing_plan_id":"cebpf4jnsgd1na2vs0mg"},{"bike_id":"8d8286a0-db26-40f3-bd4d-28a990dbe454","system_id":"levelo_inurba_marseille","lat":43.290631,"lon":5.359244,"is_reserved":false,"is_disabled":false,"rental_uris":{"android":"levelo://app?vid=8d8286a0-db26-40f3-bd4d-28a990dbe454","ios":"levelo://app?vid=8d8286a0-db26-40f3-bd4d-28a990dbe454"},"vehicle_type_id":"4","last_reported":1713542920,"current_range_meters":26800,"station_id":"ce4bha92rcd13ifvqeg0","pricing_plan_id":"cebpf4jnsgd1na2vs0mg"},{"bike_id":"7ba36e1e-6f6d-482c-815e-ebfbcb7c753d","system_id":"levelo_inurba_marseille","lat":43.29426,"lon":5.38617,"is_reserved":false,"is_disabled":false,"rental_uris":{"android":"levelo://app?vid=7ba36e1e-6f6d-482c-815e-ebfbcb7c753d","ios":"levelo://app?vid=7ba36e1e-6f6d-482c-815e-ebfbcb7c753d"},"vehicle_type_id":"4","last_reported":1713542920,"current_range_meters":3200,"station_id":"ce4bh2h2rcd13ifvqdh0","pricing_plan_id":"cebpf4jnsgd1na2vs0mg"},{"bike_id":"6a492c66-6802-47c0-a938-56a36bb3aea9","system_id":"levelo_inurba_marseille","lat":43.294153,"lon":5.386305,"is_reserved":false,"is_disabled":false,"rental_uris":{"android":"levelo://app?vid=6a492c66-6802-47c0-a938-56a36bb3aea9","ios":"levelo://app?vid=6a492c66-6802-47c0-a938-56a36bb3aea9"},"vehicle_type_id":"4","last_reported":1713542920,"current_range_meters":6800,"station_id":"ce4bh2h2rcd13ifvqdh0","pricing_plan_id":"cebpf4jnsgd1na2vs0mg"},{"bike_id":"ba49b61d-f369-42db-bcdf-c10a4c3689cf","system_id":"levelo_inurba_marseille","lat":43.294162,"lon":5.386292,"is_reserved":false,"is_disabled":false,"rental_uris":{"android":"levelo://app?vid=ba49b61d-f369-42db-bcdf-c10a4c3689cf","ios":"levelo://app?vid=ba49b61d-f369-42db-bcdf-c10a4c3689cf"},"vehicle_type_id":"4","last_reported":1713542920,"current_range_meters":26800,"station_id":"ce4bh2h2rcd13ifvqdh0","pricing_plan_id":"cebpf4jnsgd1na2vs0mg"},{"bike_id":"cbe6d62b-eb79-447f-a526-8b71c7169777","system_id":"levelo_inurba_marseille","lat":43.294153,"lon":5.386305,"is_reserved":false,"is_disabled":false,"rental_uris":{"android":"levelo://app?vid=cbe6d62b-eb79-447f-a526-8b71c7169777","ios":"levelo://app?vid=cbe6d62b-eb79-447f-a526-8b71c7169777"},"vehicle_type_id":"4","last_reported":1713542920,"current_range_meters":800,"station_id":"ce4bh2h2rcd13ifvqdh0","pricing_plan_id":"cebpf4jnsgd1na2vs0mg"},{"bike_id":"7e628a6b-105e-440f-af65-261b4077baf9","system_id":"levelo_inurba_marseille","lat":43.294162,"lon":5.386292,"is_reserved":false,"is_disabled":false,"rental_uris":{"android":"levelo://app?vid=7e628a6b-105e-440f-af65-261b4077baf9","ios":"levelo://app?vid=7e628a6b-105e-440f-af65-261b4077baf9"},"vehicle_type_id":"4","last_reported":1713542920,"current_range_meters":28800,"station_id":"ce4bh2h2rcd13ifvqdh0","pricing_plan_id":"cebpf4jnsgd1na2vs0mg"},{"bike_id":"c5272a1e-1b0a-4ee6-ba00-dbf3bea350ce","system_id":"levelo_inurba_marseille","lat":43.290319,"lon":5.375732,"is_reserved":false,"is_disabled":false,"rental_uris":{"android":"levelo://app?vid=c5272a1e-1b0a-4ee6-ba00-dbf3bea350ce","ios":"levelo://app?vid=c5272a1e-1b0a-4ee6-ba00-dbf3bea350ce"},"vehicle_type_id":"4","last_reported":1713542920,"current_range_meters":28800,"station_id":"ce4bh692rcd13ifvqe90","pricing_plan_id":"cebpf4jnsgd1na2vs0mg"},{"bike_id":"61480f51-67e7-42ed-8ccb-8927715da270","system_id":"levelo_inurba_marseille","lat":43.29421,"lon":5.38622,"is_reserved":false,"is_disabled":false,"rental_uris":{"android":"levelo://app?vid=61480f51-67e7-42ed-8ccb-8927715da270","ios":"levelo://app?vid=61480f51-67e7-42ed-8ccb-8927715da270"},"vehicle_type_id":"4","last_reported":1713542920,"current_range_meters":18800,"station_id":"ce4bh2h2rcd13ifvqdh0","pricing_plan_id":"cebpf4jnsgd1na2vs0mg"},{"bike_id":"84052364-5722-4c2f-b1f8-3d7d479f19f2","system_id":"levelo_inurba_marseille","lat":43.294162,"lon":5.386292,"is_reserved":false,"is_disabled":false,"rental_uris":{"android":"levelo://app?vid=84052364-5722-4c2f-b1f8-3d7d479f19f2","ios":"levelo://app?vid=84052364-5722-4c2f-b1f8-3d7d479f19f2"},"vehicle_type_id":"4","last_reported":1713542920,"current_range_meters":2000,"station_id":"ce4bh2h2rcd13ifvqdh0","pricing_plan_id":"cebpf4jnsgd1na2vs0mg"},{"bike_id":"9fa01b0c-aa5a-4178-a122-285ad2d779e7","system_id":"levelo_inurba_marseille","lat":43.289184,"lon":5.366408,"is_reserved":false,"is_disabled":false,"rental_uris":{"android":"levelo://app?vid=9fa01b0c-aa5a-4178-a122-285ad2d779e7","ios":"levelo://app?vid=9fa01b0c-aa5a-4178-a122-285ad2d779e7"},"vehicle_type_id":"4","last_reported":1713542920,"current_range_meters":0,"station_id":"ce4bhap2rcd13ifvqek0","pricing_plan_id":"cebpf4jnsgd1na2vs0mg"},{"bike_id":"f59d9b1a-3639-49c5-b51e-df58bc300c21","system_id":"levelo_inurba_marseille","lat":43.29419,"lon":5.38621,"is_reserved":false,"is_disabled":false,"rental_uris":{"android":"levelo://app?vid=f59d9b1a-3639-49c5-b51e-df58bc300c21","ios":"levelo://app?vid=f59d9b1a-3639-49c5-b51e-df58bc300c21"},"vehicle_type_id":"4","last_reported":1713542920,"current_range_meters":4800,"station_id":"ce4bh2h2rcd13ifvqdh0","pricing_plan_id":"cebpf4jnsgd1na2vs0mg"},{"bike_id":"8f031d27-c2ed-4e09-832c-535d4732952b","system_id":"levelo_inurba_marseille","lat":43.289468,"lon":5.363719,"is_reserved":false,"is_disabled":false,"rental_uris":{"android":"levelo://app?vid=8f031d27-c2ed-4e09-832c-535d4732952b","ios":"levelo://app?vid=8f031d27-c2ed-4e09-832c-535d4732952b"},"vehicle_type_id":"4","last_reported":1713542920,"current_range_meters":12400,"station_id":"ce4bhc92rcd13ifvqetg","pricing_plan_id":"cebpf4jnsgd1na2vs0mg"},{"bike_id":"d77d5585-2550-4658-a994-4898cf5f9c17","system_id":"levelo_inurba_marseille","lat":43.294162,"lon":5.386292,"is_reserved":false,"is_disabled":false,"rental_uris":{"android":"levelo://app?vid=d77d5585-2550-4658-a994-4898cf5f9c17","ios":"levelo://app?vid=d77d5585-2550-4658-a994-4898cf5f9c17"},"vehicle_type_id":"4","last_reported":1713542920,"current_range_meters":13600,"station_id":"ce4bh2h2rcd13ifvqdh0","pricing_plan_id":"cebpf4jnsgd1na2vs0mg"},{"bike_id":"f6228829-2ae2-4ac7-aa86-8ac7caaa69b2","system_id":"levelo_inurba_marseille","lat":43.289468,"lon":5.363719,"is_reserved":false,"is_disabled":false,"rental_uris":{"android":"levelo://app?vid=f6228829-2ae2-4ac7-aa86-8ac7caaa69b2","ios":"levelo://app?vid=f6228829-2ae2-4ac7-aa86-8ac7caaa69b2"},"vehicle_type_id":"4","last_reported":1713542920,"current_range_meters":7200,"station_id":"ce4bhc92rcd13ifvqetg","pricing_plan_id":"cebpf4jnsgd1na2vs0mg"},{"bike_id":"00ec404f-1efd-447d-ab64-389da0da82e3","system_id":"levelo_inurba_marseille","lat":43.292644,"lon":5.384257,"is_reserved":false,"is_disabled":false,"rental_uris":{"android":"levelo://app?vid=00ec404f-1efd-447d-ab64-389da0da82e3","ios":"levelo://app?vid=00ec404f-1efd-447d-ab64-389da0da82e3"},"vehicle_type_id":"4","last_reported":1713542920,"current_range_meters":4000,"station_id":"ce4bh692rcd13ifvqea0","pricing_plan_id":"cebpf4jnsgd1na2vs0mg"},{"bike_id":"224d76d4-ea66-46bf-9c65-3f9798bfacdb","system_id":"levelo_inurba_marseille","lat":43.292644,"lon":5.384257,"is_reserved":false,"is_disabled":false,"rental_uris":{"android":"levelo://app?vid=224d76d4-ea66-46bf-9c65-3f9798bfacdb","ios":"levelo://app?vid=224d76d4-ea66-46bf-9c65-3f9798bfacdb"},"vehicle_type_id":"4","last_reported":1713542920,"current_range_meters":4400,"station_id":"ce4bh692rcd13ifvqea0","pricing_plan_id":"cebpf4jnsgd1na2vs0mg"},{"bike_id":"f76c93b3-f8e8-4101-a1f9-f7afeea526bd","system_id":"levelo_inurba_marseille","lat":43.292644,"lon":5.384257,"is_reserved":false,"is_disabled":false,"rental_uris":{"android":"levelo://app?vid=f76c93b3-f8e8-4101-a1f9-f7afeea526bd","ios":"levelo://app?vid=f76c93b3-f8e8-4101-a1f9-f7afeea526bd"},"vehicle_type_id":"4","last_reported":1713542920,"current_range_meters":6000,"station_id":"ce4bh692rcd13ifvqea0","pricing_plan_id":"cebpf4jnsgd1na2vs0mg"},{"bike_id":"e3ec40aa-ed37-4ceb-97c7-dbc9af45c34d","system_id":"levelo_inurba_marseille","lat":43.292644,"lon":5.384257,"is_reserved":false,"is_disabled":false,"rental_uris":{"android":"levelo://app?vid=e3ec40aa-ed37-4ceb-97c7-dbc9af45c34d","ios":"levelo://app?vid=e3ec40aa-ed37-4ceb-97c7-dbc9af45c34d"},"vehicle_type_id":"4","last_reported":1713542920,"current_range_meters":14800,"station_id":"ce4bh692rcd13ifvqea0","pricing_plan_id":"cebpf4jnsgd1na2vs0mg"},{"bike_id":"ea30fc25-16e6-4d1e-b1e9-68c7a9e48776","system_id":"levelo_inurba_marseille","lat":43.292644,"lon":5.384257,"is_reserved":false,"is_disabled":false,"rental_uris":{"android":"levelo://app?vid=ea30fc25-16e6-4d1e-b1e9-68c7a9e48776","ios":"levelo://app?vid=ea30fc25-16e6-4d1e-b1e9-68c7a9e48776"},"vehicle_type_id":"4","last_reported":1713542920,"current_range_meters":20400,"station_id":"ce4bh692rcd13ifvqea0","pricing_plan_id":"cebpf4jnsgd1na2vs0mg"},{"bike_id":"22fcae69-f94e-4419-8bb8-adbe478e1812","system_id":"levelo_inurba_marseille","lat":43.292644,"lon":5.384257,"is_reserved":false,"is_disabled":false,"rental_uris":{"android":"levelo://app?vid=22fcae69-f94e-4419-8bb8-adbe478e1812","ios":"levelo://app?vid=22fcae69-f94e-4419-8bb8-adbe478e1812"},"vehicle_type_id":"4","last_reported":1713542920,"current_range_meters":0,"station_id":"ce4bh692rcd13ifvqea0","pricing_plan_id":"cebpf4jnsgd1na2vs0mg"},{"bike_id":"d468c8c0-1d64-4ed3-8130-5d272b63e860","system_id":"levelo_inurba_marseille","lat":43.292644,"lon":5.384257,"is_reserved":false,"is_disabled":false,"rental_uris":{"android":"levelo://app?vid=d468c8c0-1d64-4ed3-8130-5d272b63e860","ios":"levelo://app?vid=d468c8c0-1d64-4ed3-8130-5d272b63e860"},"vehicle_type_id":"4","last_reported":1713542920,"current_range_meters":0,"station_id":"ce4bh692rcd13ifvqea0","pricing_plan_id":"cebpf4jnsgd1na2vs0mg"},{"bike_id":"ca5bddce-689c-4183-8241-776f1d0318ef","system_id":"levelo_inurba_marseille","lat":43.292644,"lon":5.384257,"is_reserved":false,"is_disabled":false,"rental_uris":{"android":"levelo://app?vid=ca5bddce-689c-4183-8241-776f1d0318ef","ios":"levelo://app?vid=ca5bddce-689c-4183-8241-776f1d0318ef"},"vehicle_type_id":"4","last_reported":1713542920,"current_range_meters":21200,"station_id":"ce4bh692rcd13ifvqea0","pricing_plan_id":"cebpf4jnsgd1na2vs0mg"},{"bike_id":"d94abfbb-d5ae-463e-b843-a0fb15cf8df1","system_id":"levelo_inurba_marseille","lat":43.290103,"lon":5.356114,"is_reserved":false,"is_disabled":false,"rental_uris":{"android":"levelo://app?vid=d94abfbb-d5ae-463e-b843-a0fb15cf8df1","ios":"levelo://app?vid=d94abfbb-d5ae-463e-b843-a0fb15cf8df1"},"vehicle_type_id":"4","last_reported":1713542920,"current_range_meters":1200,"station_id":"ce4bhb92rcd13ifvqen0","pricing_plan_id":"cebpf4jnsgd1na2vs0mg"},{"bike_id":"57dbc058-40b3-40b2-840c-a0de945adc33","system_id":"levelo_inurba_marseille","lat":43.289468,"lon":5.363719,"is_reserved":false,"is_disabled":false,"rental_uris":{"android":"levelo://app?vid=57dbc058-40b3-40b2-840c-a0de945adc33","ios":"levelo://app?vid=57dbc058-40b3-40b2-840c-a0de945adc33"},"vehicle_type_id":"4","last_reported":1713542920,"current_range_meters":0,"station_id":"ce4bhc92rcd13ifvqetg","pricing_plan_id":"cebpf4jnsgd1na2vs0mg"},{"bike_id":"a388f23c-bbca-4020-98a9-5ba81f79758b","system_id":"levelo_inurba_marseille","lat":43.290995,"lon":5.381361,"is_reserved":false,"is_disabled":false,"rental_uris":{"android":"levelo://app?vid=a388f23c-bbca-4020-98a9-5ba81f79758b","ios":"levelo://app?vid=a388f23c-bbca-4020-98a9-5ba81f79758b"},"vehicle_type_id":"4","last_reported":1713542920,"current_range_meters":0,"station_id":"ce4bh512rcd13ifvqe2g","pricing_plan_id":"cebpf4jnsgd1na2vs0mg"},{"bike_id":"f0b6c5c0-446a-4ea1-b94f-3e4b5884a2d4","system_id":"levelo_inurba_marseille","lat":43.299028,"lon":5.381509,"is_reserved":false,"is_disabled":false,"rental_uris":{"android":"levelo://app?vid=f0b6c5c0-446a-4ea1-b94f-3e4b5884a2d4","ios":"levelo://app?vid=f0b6c5c0-446a-4ea1-b94f-3e4b5884a2d4"},"vehicle_type_id":"4","last_reported":1713542920,"current_range_meters":29200,"station_id":"ce4bgj12rcd13ifvqbc0","pricing_plan_id":"cebpf4jnsgd1na2vs0mg"},{"bike_id":"e1b66801-e16a-42d1-891d-da1a4097db89","system_id":"levelo_inurba_marseille","lat":43.290995,"lon":5.381361,"is_reserved":false,"is_disabled":false,"rental_uris":{"android":"levelo://app?vid=e1b66801-e16a-42d1-891d-da1a4097db89","ios":"levelo://app?vid=e1b66801-e16a-42d1-891d-da1a4097db89"},"vehicle_type_id":"4","last_reported":1713542920,"current_range_meters":27600,"station_id":"ce4bh512rcd13ifvqe2g","pricing_plan_id":"cebpf4jnsgd1na2vs0mg"},{"bike_id":"d998f76d-717b-4f45-8e6d-85d9f88ae482","system_id":"levelo_inurba_marseille","lat":43.290995,"lon":5.381361,"is_reserved":false,"is_disabled":false,"rental_uris":{"android":"levelo://app?vid=d998f76d-717b-4f45-8e6d-85d9f88ae482","ios":"levelo://app?vid=d998f76d-717b-4f45-8e6d-85d9f88ae482"},"vehicle_type_id":"4","last_reported":1713542920,"current_range_meters":11600,"station_id":"ce4bh512rcd13ifvqe2g","pricing_plan_id":"cebpf4jnsgd1na2vs0mg"},{"bike_id":"cc5da1ab-f889-45d9-a34a-47434a7035d9","system_id":"levelo_inurba_marseille","lat":43.29787,"lon":5.39336,"is_reserved":false,"is_disabled":false,"rental_uris":{"android":"levelo://app?vid=cc5da1ab-f889-45d9-a34a-47434a7035d9","ios":"levelo://app?vid=cc5da1ab-f889-45d9-a34a-47434a7035d9"},"vehicle_type_id":"4","last_reported":1713542920,"current_range_meters":13600,"station_id":"chh1huq6cuj3fo74tm60","pricing_plan_id":"cebpf4jnsgd1na2vs0mg"},{"bike_id":"5b510551-c918-4630-9deb-d07a45662680","system_id":"levelo_inurba_marseille","lat":43.29776,"lon":5.39333,"is_reserved":false,"is_disabled":false,"rental_uris":{"android":"levelo://app?vid=5b510551-c918-4630-9deb-d07a45662680","ios":"levelo://app?vid=5b510551-c918-4630-9deb-d07a45662680"},"vehicle_type_id":"4","last_reported":1713542920,"current_range_meters":5600,"station_id":"chh1huq6cuj3fo74tm60","pricing_plan_id":"cebpf4jnsgd1na2vs0mg"},{"bike_id":"1dd7a8f2-120c-48e6-93b3-316610a73fb6","system_id":"levelo_inurba_marseille","lat":43.297815,"lon":5.393548,"is_reserved":false,"is_disabled":false,"rental_uris":{"android":"levelo://app?vid=1dd7a8f2-120c-48e6-93b3-316610a73fb6","ios":"levelo://app?vid=1dd7a8f2-120c-48e6-93b3-316610a73fb6"},"vehicle_type_id":"4","last_reported":1713542920,"current_range_meters":2000,"station_id":"chh1huq6cuj3fo74tm60","pricing_plan_id":"cebpf4jnsgd1na2vs0mg"},{"bike_id":"98b97c61-f7bc-46a7-a021-42b61fb824b8","system_id":"levelo_inurba_marseille","lat":43.295169,"lon":5.390426,"is_reserved":false,"is_disabled":false,"rental_uris":{"android":"levelo://app?vid=98b97c61-f7bc-46a7-a021-42b61fb824b8","ios":"levelo://app?vid=98b97c61-f7bc-46a7-a021-42b61fb824b8"},"vehicle_type_id":"4","last_reported":1713542920,"current_range_meters":21200,"station_id":"ce4bh3p2rcd13ifvqdp0","pricing_plan_id":"cebpf4jnsgd1na2vs0mg"},{"bike_id":"1b0d50b3-2869-489a-9727-8ea159f39ae3","system_id":"levelo_inurba_marseille","lat":43.289784,"lon":5.378401,"is_reserved":false,"is_disabled":false,"rental_uris":{"android":"levelo://app?vid=1b0d50b3-2869-489a-9727-8ea159f39ae3","ios":"levelo://app?vid=1b0d50b3-2869-489a-9727-8ea159f39ae3"},"vehicle_type_id":"4","last_reported":1713542920,"current_range_meters":0,"station_id":"ce4bh9p2rcd13ifvqed0","pricing_plan_id":"cebpf4jnsgd1na2vs0mg"},{"bike_id":"4e3d59ca-1c22-45b1-974c-0d681c1cb92a","system_id":"levelo_inurba_marseille","lat":43.295169,"lon":5.390426,"is_reserved":false,"is_disabled":false,"rental_uris":{"android":"levelo://app?vid=4e3d59ca-1c22-45b1-974c-0d681c1cb92a","ios":"levelo://app?vid=4e3d59ca-1c22-45b1-974c-0d681c1cb92a"},"vehicle_type_id":"4","last_reported":1713542920,"current_range_meters":2400,"station_id":"ce4bh3p2rcd13ifvqdp0","pricing_plan_id":"cebpf4jnsgd1na2vs0mg"},{"bike_id":"0d234b13-050c-4fbf-acb2-7e5c4ad462cc","system_id":"levelo_inurba_marseille","lat":43.28856,"lon":5.358371,"is_reserved":false,"is_disabled":false,"rental_uris":{"android":"levelo://app?vid=0d234b13-050c-4fbf-acb2-7e5c4ad462cc","ios":"levelo://app?vid=0d234b13-050c-4fbf-acb2-7e5c4ad462cc"},"vehicle_type_id":"4","last_reported":1713542920,"current_range_meters":0,"station_id":"ce4bhb12rcd13ifvqem0","pricing_plan_id":"cebpf4jnsgd1na2vs0mg"},{"bike_id":"82e3dfe2-9b1f-4065-a675-2b13939785fe","system_id":"levelo_inurba_marseille","lat":43.28856,"lon":5.358371,"is_reserved":false,"is_disabled":false,"rental_uris":{"android":"levelo://app?vid=82e3dfe2-9b1f-4065-a675-2b13939785fe","ios":"levelo://app?vid=82e3dfe2-9b1f-4065-a675-2b13939785fe"},"vehicle_type_id":"4","last_reported":1713542920,"current_range_meters":11200,"station_id":"ce4bhb12rcd13ifvqem0","pricing_plan_id":"cebpf4jnsgd1na2vs0mg"},{"bike_id":"312cf78d-df27-414b-aacd-77c571c627ad","system_id":"levelo_inurba_marseille","lat":43.28856,"lon":5.358523,"is_reserved":false,"is_disabled":false,"rental_uris":{"android":"levelo://app?vid=312cf78d-df27-414b-aacd-77c571c627ad","ios":"levelo://app?vid=312cf78d-df27-414b-aacd-77c571c627ad"},"vehicle_type_id":"4","last_reported":1713542920,"current_range_meters":0,"station_id":"ce4bhb12rcd13ifvqem0","pricing_plan_id":"cebpf4jnsgd1na2vs0mg"},{"bike_id":"28cdc332-5f6e-4cd8-b595-f6262b22e80e","system_id":"levelo_inurba_marseille","lat":43.28856,"lon":5.358371,"is_reserved":false,"is_disabled":false,"rental_uris":{"android":"levelo://app?vid=28cdc332-5f6e-4cd8-b595-f6262b22e80e","ios":"levelo://app?vid=28cdc332-5f6e-4cd8-b595-f6262b22e80e"},"vehicle_type_id":"4","last_reported":1713542920,"current_range_meters":8400,"station_id":"ce4bhb12rcd13ifvqem0","pricing_plan_id":"cebpf4jnsgd1na2vs0mg"},{"bike_id":"96b96a08-4153-48a4-9dcb-e449e9e13267","system_id":"levelo_inurba_marseille","lat":43.312609,"lon":5.401662,"is_reserved":false,"is_disabled":false,"rental_uris":{"android":"levelo://app?vid=96b96a08-4153-48a4-9dcb-e449e9e13267","ios":"levelo://app?vid=96b96a08-4153-48a4-9dcb-e449e9e13267"},"vehicle_type_id":"4","last_reported":1713542920,"current_range_meters":12800,"station_id":"ce4bh092rcd13ifvqd30","pricing_plan_id":"cebpf4jnsgd1na2vs0mg"},{"bike_id":"dbe50fa1-81d4-46c8-afd9-fd5b0de4c97a","system_id":"levelo_inurba_marseille","lat":43.31276,"lon":5.40169,"is_reserved":false,"is_disabled":false,"rental_uris":{"android":"levelo://app?vid=dbe50fa1-81d4-46c8-afd9-fd5b0de4c97a","ios":"levelo://app?vid=dbe50fa1-81d4-46c8-afd9-fd5b0de4c97a"},"vehicle_type_id":"4","last_reported":1713542920,"current_range_meters":400,"station_id":"ce4bh092rcd13ifvqd30","pricing_plan_id":"cebpf4jnsgd1na2vs0mg"},{"bike_id":"4e03fccd-dbbf-4dbc-9ccc-03e8f48f99e2","system_id":"levelo_inurba_marseille","lat":43.337523,"lon":5.374584,"is_reserved":false,"is_disabled":false,"rental_uris":{"android":"levelo://app?vid=4e03fccd-dbbf-4dbc-9ccc-03e8f48f99e2","ios":"levelo://app?vid=4e03fccd-dbbf-4dbc-9ccc-03e8f48f99e2"},"vehicle_type_id":"4","last_reported":1713542920,"current_range_meters":27600,"station_id":"","pricing_plan_id":"cebpf4jnsgd1na2vs0mg"},{"bike_id":"0fed2848-e162-4bd0-8e8f-d18a2ad76d03","system_id":"levelo_inurba_marseille","lat":43.337491,"lon":5.374778,"is_reserved":false,"is_disabled":false,"rental_uris":{"android":"levelo://app?vid=0fed2848-e162-4bd0-8e8f-d18a2ad76d03","ios":"levelo://app?vid=0fed2848-e162-4bd0-8e8f-d18a2ad76d03"},"vehicle_type_id":"4","last_reported":1713542920,"current_range_meters":13600,"station_id":"","pricing_plan_id":"cebpf4jnsgd1na2vs0mg"},{"bike_id":"6ecc9ba7-ecb0-4b79-a999-4623f5aa9fe0","system_id":"levelo_inurba_marseille","lat":43.337576,"lon":5.374546,"is_reserved":false,"is_disabled":false,"rental_uris":{"android":"levelo://app?vid=6ecc9ba7-ecb0-4b79-a999-4623f5aa9fe0","ios":"levelo://app?vid=6ecc9ba7-ecb0-4b79-a999-4623f5aa9fe0"},"vehicle_type_id":"4","last_reported":1713542920,"current_range_meters":10000,"station_id":"","pricing_plan_id":"cebpf4jnsgd1na2vs0mg"},{"bike_id":"4e1ca4d5-5ee6-4b78-bdcc-f8742034e158","system_id":"levelo_inurba_marseille","lat":43.33764,"lon":5.37426,"is_reserved":false,"is_disabled":false,"rental_uris":{"android":"levelo://app?vid=4e1ca4d5-5ee6-4b78-bdcc-f8742034e158","ios":"levelo://app?vid=4e1ca4d5-5ee6-4b78-bdcc-f8742034e158"},"vehicle_type_id":"4","last_reported":1713542920,"current_range_meters":30400,"station_id":"","pricing_plan_id":"cebpf4jnsgd1na2vs0mg"},{"bike_id":"bf652570-141f-4c43-aae3-e735a95d16fa","system_id":"levelo_inurba_marseille","lat":43.30642,"lon":5.401031,"is_reserved":false,"is_disabled":false,"rental_uris":{"android":"levelo://app?vid=bf652570-141f-4c43-aae3-e735a95d16fa","ios":"levelo://app?vid=bf652570-141f-4c43-aae3-e735a95d16fa"},