{"last_updated":1731157943,"ttl":60,"version":"2.2","data":{"bikes":[{"bike_id":"7d4b1cd1-80a3-43c2-9122-e99cfedaa7c6","system_id":"levelo_inurba_marseille","lat":43.27493,"lon":5.42449,"is_reserved":false,"is_disabled":false,"rental_uris":{"android":"levelo://app?vid=7d4b1cd1-80a3-43c2-9122-e99cfedaa7c6","ios":"levelo://app?vid=7d4b1cd1-80a3-43c2-9122-e99cfedaa7c6"},"vehicle_type_id":"4","last_reported":1731157943,"current_range_meters":32400,"station_id":"ce4bhn92rcd13ifvqgrg","pricing_plan_id":"cebpf4jnsgd1na2vs0mg"},{"bike_id":"e94e2327-9eaf-4d26-bd7f-903afa708be6","system_id":"levelo_inurba_marseille","lat":43.33708,"lon":5.39224,"is_reserved":false,"is_disabled":false,"rental_uris":{"android":"levelo://app?vid=e94e2327-9eaf-4d26-bd7f-903afa708be6","ios":"levelo://app?vid=e94e2327-9eaf-4d26-bd7f-903afa708be6"},"vehicle_type_id":"4","last_reported":1731157943,"current_range_meters":18800,"station_id":"ce4bhr92rcd13ifvqhsg","pricing_plan_id":"cebpf4jnsgd1na2vs0mg"},{"bike_id":"37b18ebd-4aa0-4ca2-bfbb-ac9479701cc7","system_id":"levelo_inurba_marseille","lat":43.2809,"lon":5.396,"is_reserved":false,"is_disabled":false,"rental_uris":{"android":"levelo://app?vid=37b18ebd-4aa0-4ca2-bfbb-ac9479701cc7","ios":"levelo://app?vid=37b18ebd-4aa0-4ca2-bfbb-ac9479701cc7"},"vehicle_type_id":"4","last_reported":1731157943,"current_range_meters":39200,"station_id":"ce4bho12rcd13ifvqh2g","pricing_plan_id":"cebpf4jnsgd1na2vs0mg"},{"bike_id":"40264e19-23cd-4c0a-ac5d-f1ce734a4566","system_id":"levelo_inurba_marseille","lat":43.30142,"lon":5.37419,"is_reserved":false,"is_disabled":false,"rental_uris":{"android":"levelo://app?vid=40264e19-23cd-4c0a-ac5d-f1ce734a4566","ios":"levelo://app?vid=40264e19-23cd-4c0a-ac5d-f1ce734a4566"},"vehicle_type_id":"4","last_reported":1731157943,"current_range_meters":27200,"station_id":"ce4bgs92rcd13ifvqcc0","pricing_plan_id":"cebpf4jnsgd1na2vs0mg"},{"bike_id":"68bb9078-c705-4e4c-81de-7ae7c7d86c43","system_id":"levelo_inurba_marseille","lat":43.31647,"lon":5.37797,"is_reserved":false,"is_disabled":false,"rental_uris":{"android":"levelo://app?vid=68bb9078-c705-4e4c-81de-7ae7c7d86c43","ios":"levelo://app?vid=68bb9078-c705-4e4c-81de-7ae7c7d86c43"},"vehicle_type_id":"4","last_reported":1731157943,"current_range_meters":28400,"station_id":"ce4bgth2rcd13ifvqch0","pricing_plan_id":"cebpf4jnsgd1na2vs0mg"},{"bike_id":"18102e7a-e3fe-41d8-a668-6d364c73f3e8","system_id":"levelo_inurba_marseille","lat":43.29268,"lon":5.3685,"is_reserved":false,"is_disabled":false,"rental_uris":{"android":"levelo://app?vid=18102e7a-e3fe-41d8-a668-6d364c73f3e8","ios":"levelo://app?vid=18102e7a-e3fe-41d8-a668-6d364c73f3e8"},"vehicle_type_id":"4","last_reported":1731157943,"current_range_meters":36000,"station_id":"ce4bhbp2rcd13ifvqesg","pricing_plan_id":"cebpf4jnsgd1na2vs0mg"},{"bike_id":"df2e79d1-efe6-4a83-b831-8409f5b4006e","system_id":"levelo_inurba_marseille","lat":43.26202,"lon":5.37936,"is_reserved":false,"is_disabled":false,"rental_uris":{"android":"levelo://app?vid=df2e79d1-efe6-4a83-b831-8409f5b4006e","ios":"levelo://app?vid=df2e79d1-efe6-4a83-b831-8409f5b4006e"},"vehicle_type_id":"4","last_reported":1731157943,"current_range_meters":38800,"station_id":"ce4bhjp2rcd13ifvqg90","pricing_plan_id":"cebpf4jnsgd1na2vs0mg"},{"bike_id":"023a736f-59f8-4fd5-8b07-e29c66fc70c7","system_id":"levelo_inurba_marseille","lat":43.26556,"lon":5.37298,"is_reserved":false,"is_disabled":false,"rental_uris":{"android":"levelo://app?vid=023a736f-59f8-4fd5-8b07-e29c66fc70c7","ios":"levelo://app?vid=023a736f-59f8-4fd5-8b07-e29c66fc70c7"},"vehicle_type_id":"4","last_reported":1731157943,"current_range_meters":11200,"station_id":"ce4bhg12rcd13ifvqf70","pricing_plan_id":"cebpf4jnsgd1na2vs0mg"},{"bike_id":"b3e7e04f-7aca-4b2f-abea-93cd3b95af12","system_id":"levelo_inurba_marseille","lat":43.29024,"lon":5.38129,"is_reserved":false,"is_disabled":false,"rental_uris":{"android":"levelo://app?vid=b3e7e04f-7aca-4b2f-abea-93cd3b95af12","ios":"levelo://app?vid=b3e7e04f-7aca-4b2f-abea-93cd3b95af12"},"vehicle_type_id":"4","last_reported":1731157943,"current_range_meters":27600,"station_id":"ce4bh4p2rcd13ifvqe1g","pricing_plan_id":"cebpf4jnsgd1na2vs0mg"},{"bike_id":"ba9a9a11-5e23-4510-a682-d7deeaad11e8","system_id":"levelo_inurba_marseille","lat":43.29575,"lon":5.37512,"is_reserved":false,"is_disabled":false,"rental_uris":{"android":"levelo://app?vid=ba9a9a11-5e23-4510-a682-d7deeaad11e8","ios":"levelo://app?vid=ba9a9a11-5e23-4510-a682-d7deeaad11e8"},"vehicle_type_id":"4","last_reported":1731157943,"current_range_meters":36400,"station_id":"ce4bgh92rcd13ifvqb50","pricing_plan_id":"cebpf4jnsgd1na2vs0mg"},{"bike_id":"5009b8e0-956f-4e8e-8344-fc96452b79a3","system_id":"levelo_inurba_marseille","lat":43.27992,"lon":5.40007,"is_reserved":false,"is_disabled":false,"rental_uris":{"android":"levelo://app?vid=5009b8e0-956f-4e8e-8344-fc96452b79a3","ios":"levelo://app?vid=5009b8e0-956f-4e8e-8344-fc96452b79a3"},"vehicle_type_id":"4","last_reported":1731157943,"current_range_meters":12000,"station_id":"ce4bho92rcd13ifvqh4g","pricing_plan_id":"cebpf4jnsgd1na2vs0mg"},{"bike_id":"53824d1d-99fc-4ab2-b9eb-e2fdbf8b3710","system_id":"levelo_inurba_marseille","lat":43.29714,"lon":5.37345,"is_reserved":false,"is_disabled":false,"rental_uris":{"android":"levelo://app?vid=53824d1d-99fc-4ab2-b9eb-e2fdbf8b3710","ios":"levelo://app?vid=53824d1d-99fc-4ab2-b9eb-e2fdbf8b3710"},"vehicle_type_id":"4","last_reported":1731157943,"current_range_meters":24000,"station_id":"ce4bgh92rcd13ifvqb50","pricing_plan_id":"cebpf4jnsgd1na2vs0mg"},{"bike_id":"b881e5ff-acca-436f-bf2f-53f0fafeb00d","system_id":"levelo_inurba_marseille","lat":43.28274,"lon":5.3507,"is_reserved":false,"is_disabled":false,"rental_uris":{"android":"levelo://app?vid=b881e5ff-acca-436f-bf2f-53f0fafeb00d","ios":"levelo://app?vid=b881e5ff-acca-436f-bf2f-53f0fafeb00d"},"vehicle_type_id":"4","last_reported":1731157943,"current_range_meters":26800,"station_id":"ce4bhbp2rcd13ifvqerg","pricing_plan_id":"cebpf4jnsgd1na2vs0mg"},{"bike_id":"01bcc230-3b3a-4550-b79b-d7c533e34c40","system_id":"levelo_inurba_marseille","lat":43.272937,"lon":5.390481,"is_reserved":false,"is_disabled":false,"rental_uris":{"android":"levelo://app?vid=01bcc230-3b3a-4550-b79b-d7c533e34c40","ios":"levelo://app?vid=01bcc230-3b3a-4550-b79b-d7c533e34c40"},"vehicle_type_id":"4","last_reported":1731157943,"current_range_meters":17200,"station_id":"ce4bhgp2rcd13ifvqfe0","pricing_plan_id":"cebpf4jnsgd1na2vs0mg"},{"bike_id":"4e43ca38-c416-43ad-94c9-3030308746d9","system_id":"levelo_inurba_marseille","lat":43.24387,"lon":5.37061,"is_reserved":false,"is_disabled":false,"rental_uris":{"android":"levelo://app?vid=4e43ca38-c416-43ad-94c9-3030308746d9","ios":"levelo://app?vid=4e43ca38-c416-43ad-94c9-3030308746d9"},"vehicle_type_id":"4","last_reported":1731157943,"current_range_meters":30000,"station_id":"ce4bhhh2rcd13ifvqfk0","pricing_plan_id":"cebpf4jnsgd1na2vs0mg"},{"bike_id":"240c1814-e8bb-42e2-8d51-5583fb1ee90c","system_id":"levelo_inurba_marseille","lat":43.30158,"lon":5.38086,"is_reserved":false,"is_disabled":false,"rental_uris":{"android":"levelo://app?vid=240c1814-e8bb-42e2-8d51-5583fb1ee90c","ios":"levelo://app?vid=240c1814-e8bb-42e2-8d51-5583fb1ee90c"},"vehicle_type_id":"4","last_reported":1731157943,"current_range_meters":38000,"station_id":"ce4bgjp2rcd13ifvqbh0","pricing_plan_id":"cebpf4jnsgd1na2vs0mg"},{"bike_id":"2fd6dc22-dc4f-436f-8f09-ea747d8c2aa2","system_id":"levelo_inurba_marseille","lat":43.23961,"lon":5.36627,"is_reserved":false,"is_disabled":false,"rental_uris":{"android":"levelo://app?vid=2fd6dc22-dc4f-436f-8f09-ea747d8c2aa2","ios":"levelo://app?vid=2fd6dc22-dc4f-436f-8f09-ea747d8c2aa2"},"vehicle_type_id":"4","last_reported":1731157943,"current_range_meters":38800,"station_id":"ce4bhi12rcd13ifvqfp0","pricing_plan_id":"cebpf4jnsgd1na2vs0mg"},{"bike_id":"a330715b-0cf7-4a88-8d3a-2e5f518f6d57","system_id":"levelo_inurba_marseille","lat":43.28711,"lon":5.37394,"is_reserved":false,"is_disabled":false,"rental_uris":{"android":"levelo://app?vid=a330715b-0cf7-4a88-8d3a-2e5f518f6d57","ios":"levelo://app?vid=a330715b-0cf7-4a88-8d3a-2e5f518f6d57"},"vehicle_type_id":"4","last_reported":1731157943,"current_range_meters":8000,"station_id":"ce4bh3p2rcd13ifvqdq0","pricing_plan_id":"cebpf4jnsgd1na2vs0mg"},{"bike_id":"96df1ccc-d4ef-486d-810e-b3fe5a15a4be","system_id":"levelo_inurba_marseille","lat":43.28149,"lon":5.42637,"is_reserved":false,"is_disabled":false,"rental_uris":{"android":"levelo://app?vid=96df1ccc-d4ef-486d-810e-b3fe5a15a4be","ios":"levelo://app?vid=96df1ccc-d4ef-486d-810e-b3fe5a15a4be"},"vehicle_type_id":"4","last_reported":1731157943,"current_range_meters":20000,"station_id":"ce4bhnh2rcd13ifvqgug","pricing_plan_id":"cebpf4jnsgd1na2vs0mg"},{"bike_id":"4ba9f3d3-0784-46fb-9d88-16effc8a771c","system_id":"levelo_inurba_marseille","lat":43.29038,"lon":5.39962,"is_reserved":false,"is_disabled":false,"rental_uris":{"android":"levelo://app?vid=4ba9f3d3-0784-46fb-9d88-16effc8a771c","ios":"levelo://app?vid=4ba9f3d3-0784-46fb-9d88-16effc8a771c"},"vehicle_type_id":"4","last_reported":1731157943,"current_range_meters":38400,"station_id":"ce4bh392rcd13ifvqdm0","pricing_plan_id":"cebpf4jnsgd1na2vs0mg"},{"bike_id":"b9059161-bc2a-4853-8231-de961bd5f1e7","system_id":"levelo_inurba_marseille","lat":43.33718,"lon":5.39169,"is_reserved":false,"is_disabled":false,"rental_uris":{"android":"levelo://app?vid=b9059161-bc2a-4853-8231-de961bd5f1e7","ios":"levelo://app?vid=b9059161-bc2a-4853-8231-de961bd5f1e7"},"vehicle_type_id":"4","last_reported":1731157943,"current_range_meters":22800,"station_id":"ce4bhr92rcd13ifvqhsg","pricing_plan_id":"cebpf4jnsgd1na2vs0mg"},{"bike_id":"3f58d95e-a7bb-43d9-9f97-02fe58ff2bc8","system_id":"levelo_inurba_marseille","lat":43.2721,"lon":5.39183,"is_reserved":false,"is_disabled":false,"rental_uris":{"android":"levelo://app?vid=3f58d95e-a7bb-43d9-9f97-02fe58ff2bc8","ios":"levelo://app?vid=3f58d95e-a7bb-43d9-9f97-02fe58ff2bc8"},"vehicle_type_id":"4","last_reported":1731157943,"current_range_meters":24800,"station_id":"ce4bhhp2rcd13ifvqfm0","pricing_plan_id":"cebpf4jnsgd1na2vs0mg"},{"bike_id":"4fd3b6aa-0ab1-4f31-bb21-142b6a420bc2","system_id":"levelo_inurba_marseille","lat":43.29306,"lon":5.3745,"is_reserved":false,"is_disabled":false,"rental_uris":{"android":"levelo://app?vid=4fd3b6aa-0ab1-4f31-bb21-142b6a420bc2","ios":"levelo://app?vid=4fd3b6aa-0ab1-4f31-bb21-142b6a420bc2"},"vehicle_type_id":"4","last_reported":1731157943,"current_range_meters":27600,"station_id":"ce4bgi12rcd13ifvqb70","pricing_plan_id":"cebpf4jnsgd1na2vs0mg"},{"bike_id":"52bd5c68-9bba-4cce-97fb-3e3cdb518c1b","system_id":"levelo_inurba_marseille","lat":43.30543,"lon":5.36533,"is_reserved":false,"is_disabled":false,"rental_uris":{"android":"levelo://app?vid=52bd5c68-9bba-4cce-97fb-3e3cdb518c1b","ios":"levelo://app?vid=52bd5c68-9bba-4cce-97fb-3e3cdb518c1b"},"vehicle_type_id":"4","last_reported":1731157943,"current_range_meters":36000,"station_id":"ce4bgs12rcd13ifvqcag","pricing_plan_id":"cebpf4jnsgd1na2vs0mg"},{"bike_id":"9d060b47-c978-4432-b622-c8056cdba2bd","system_id":"levelo_inurba_marseille","lat":43.27072,"lon":5.42286,"is_reserved":false,"is_disabled":false,"rental_uris":{"android":"levelo://app?vid=9d060b47-c978-4432-b622-c8056cdba2bd","ios":"levelo://app?vid=9d060b47-c978-4432-b622-c8056cdba2bd"},"vehicle_type_id":"4","last_reported":1731157943,"current_range_meters":20000,"station_id":"ce4bhk92rcd13ifvqgb0","pricing_plan_id":"cebpf4jnsgd1na2vs0mg"},{"bike_id":"c1c131cf-f240-4dee-975b-00ca9d6346d1","system_id":"levelo_inurba_marseille","lat":43.30139,"lon":5.38065,"is_reserved":false,"is_disabled":false,"rental_uris":{"android":"levelo://app?vid=c1c131cf-f240-4dee-975b-00ca9d6346d1","ios":"levelo://app?vid=c1c131cf-f240-4dee-975b-00ca9d6346d1"},"vehicle_type_id":"4","last_reported":1731157943,"current_range_meters":4400,"station_id":"ce4bgjp2rcd13ifvqbh0","pricing_plan_id":"cebpf4jnsgd1na2vs0mg"},{"bike_id":"28206046-6ce9-4c2a-9511-7911b452fc33","system_id":"levelo_inurba_marseille","lat":43.28564,"lon":5.39497,"is_reserved":false,"is_disabled":false,"rental_uris":{"android":"levelo://app?vid=28206046-6ce9-4c2a-9511-7911b452fc33","ios":"levelo://app?vid=28206046-6ce9-4c2a-9511-7911b452fc33"},"vehicle_type_id":"4","last_reported":1731157943,"current_range_meters":38800,"station_id":"ce4bh292rcd13ifvqdg0","pricing_plan_id":"cebpf4jnsgd1na2vs0mg"},{"bike_id":"8471e6a6-b401-4dba-9c75-b98f4a22bd90","system_id":"levelo_inurba_marseille","lat":43.28369,"lon":5.3863,"is_reserved":false,"is_disabled":false,"rental_uris":{"android":"levelo://app?vid=8471e6a6-b401-4dba-9c75-b98f4a22bd90","ios":"levelo://app?vid=8471e6a6-b401-4dba-9c75-b98f4a22bd90"},"vehicle_type_id":"4","last_reported":1731157943,"current_range_meters":16800,"station_id":"ce4bh492rcd13ifvqdvg","pricing_plan_id":"cebpf4jnsgd1na2vs0mg"},{"bike_id":"f4ef053d-e709-4411-bdd9-de1d0f41e46f","system_id":"levelo_inurba_marseille","lat":43.22931,"lon":5.35374,"is_reserved":false,"is_disabled":false,"rental_uris":{"android":"levelo://app?vid=f4ef053d-e709-4411-bdd9-de1d0f41e46f","ios":"levelo://app?vid=f4ef053d-e709-4411-bdd9-de1d0f41e46f"},"vehicle_type_id":"4","last_reported":1731157943,"current_range_meters":38800,"station_id":"cpo3532slgdg3j2ikp40","pricing_plan_id":"cebpf4jnsgd1na2vs0mg"},{"bike_id":"172e363e-8646-4239-a696-a1b13433c416","system_id":"levelo_inurba_marseille","lat":43.27314,"lon":5.39103,"is_reserved":false,"is_disabled":false,"rental_uris":{"android":"levelo://app?vid=172e363e-8646-4239-a696-a1b13433c416","ios":"levelo://app?vid=172e363e-8646-4239-a696-a1b13433c416"},"vehicle_type_id":"4","last_reported":1731157943,"current_range_meters":28400,"station_id":"ce4bhgp2rcd13ifvqfe0","pricing_plan_id":"cebpf4jnsgd1na2vs0mg"},{"bike_id":"94c1a05b-4b06-46ae-a5e4-c6962d31b703","system_id":"levelo_inurba_marseille","lat":43.29277,"lon":5.36854,"is_reserved":false,"is_disabled":false,"rental_uris":{"android":"levelo://app?vid=94c1a05b-4b06-46ae-a5e4-c6962d31b703","ios":"levelo://app?vid=94c1a05b-4b06-46ae-a5e4-c6962d31b703"},"vehicle_type_id":"4","last_reported":1731157943,"current_range_meters":28800,"station_id":"ce4bhbp2rcd13ifvqesg","pricing_plan_id":"cebpf4jnsgd1na2vs0mg"},{"bike_id":"fb2ba5fc-38b8-4ef8-b396-18efcbc7f65f","system_id":"levelo_inurba_marseille","lat":43.29628,"lon":5.3772,"is_reserved":false,"is_disabled":false,"rental_uris":{"android":"levelo://app?vid=fb2ba5fc-38b8-4ef8-b396-18efcbc7f65f","ios":"levelo://app?vid=fb2ba5fc-38b8-4ef8-b396-18efcbc7f65f"},"vehicle_type_id":"4","last_reported":1731157943,"current_range_meters":38800,"station_id":"ce4bgi92rcd13ifvqb90","pricing_plan_id":"cebpf4jnsgd1na2vs0mg"},{"bike_id":"ac59b398-a03f-4409-8d13-c4e12f526cfa","system_id":"levelo_inurba_marseille","lat":43.28423,"lon":5.34994,"is_reserved":false,"is_disabled":false,"rental_uris":{"android":"levelo://app?vid=ac59b398-a03f-4409-8d13-c4e12f526cfa","ios":"levelo://app?vid=ac59b398-a03f-4409-8d13-c4e12f526cfa"},"vehicle_type_id":"4","last_reported":1731157943,"current_range_meters":17600,"station_id":"ce4bhbh2rcd13ifvqepg","pricing_plan_id":"cebpf4jnsgd1na2vs0mg"},{"bike_id":"828a5fed-bfbb-4fb7-ac2d-ffaed39a8507","system_id":"levelo_inurba_marseille","lat":43.30481,"lon":5.37897,"is_reserved":false,"is_disabled":false,"rental_uris":{"android":"levelo://app?vid=828a5fed-bfbb-4fb7-ac2d-ffaed39a8507","ios":"levelo://app?vid=828a5fed-bfbb-4fb7-ac2d-ffaed39a8507"},"vehicle_type_id":"4","last_reported":1731157943,"current_range_meters":39200,"station_id":"ce4bgup2rcd13ifvqcn0","pricing_plan_id":"cebpf4jnsgd1na2vs0mg"},{"bike_id":"7243fcc8-e91d-49aa-a78b-3d82c9cf3c65","system_id":"levelo_inurba_marseille","lat":43.285871,"lon":5.350751,"is_reserved":false,"is_disabled":false,"rental_uris":{"android":"levelo://app?vid=7243fcc8-e91d-49aa-a78b-3d82c9cf3c65","ios":"levelo://app?vid=7243fcc8-e91d-49aa-a78b-3d82c9cf3c65"},"vehicle_type_id":"4","last_reported":1731157943,"current_range_meters":35200,"station_id":"ce4bhch2rcd13ifvqeug","pricing_plan_id":"cebpf4jnsgd1na2vs0mg"},{"bike_id":"d6d4c029-2e60-4927-b790-1f893e4656b7","system_id":"levelo_inurba_marseille","lat":43.29622,"lon":5.3717,"is_reserved":false,"is_disabled":false,"rental_uris":{"android":"levelo://app?vid=d6d4c029-2e60-4927-b790-1f893e4656b7","ios":"levelo://app?vid=d6d4c029-2e60-4927-b790-1f893e4656b7"},"vehicle_type_id":"4","last_reported":1731157943,"current_range_meters":35200,"station_id":"ce4bgnh2rcd13ifvqc0g","pricing_plan_id":"cebpf4jnsgd1na2vs0mg"},{"bike_id":"da1c60ad-1bf1-474c-a450-a10a858410cc","system_id":"levelo_inurba_marseille","lat":43.29803,"lon":5.38085,"is_reserved":false,"is_disabled":false,"rental_uris":{"android":"levelo://app?vid=da1c60ad-1bf1-474c-a450-a10a858410cc","ios":"levelo://app?vid=da1c60ad-1bf1-474c-a450-a10a858410cc"},"vehicle_type_id":"4","last_reported":1731157943,"current_range_meters":38800,"station_id":"ce4bgip2rcd13ifvqbb0","pricing_plan_id":"cebpf4jnsgd1na2vs0mg"},{"bike_id":"71bb50a1-6cdb-4a6f-b24c-1cbd7c603ad3","system_id":"levelo_inurba_marseille","lat":43.31429,"lon":5.37398,"is_reserved":false,"is_disabled":false,"rental_uris":{"android":"levelo://app?vid=71bb50a1-6cdb-4a6f-b24c-1cbd7c603ad3","ios":"levelo://app?vid=71bb50a1-6cdb-4a6f-b24c-1cbd7c603ad3"},"vehicle_type_id":"4","last_reported":1731157943,"current_range_meters":27600,"station_id":"","pricing_plan_id":"cebpf4jnsgd1na2vs0mg"},{"bike_id":"1db89292-1bf8-4fe3-acec-307556b75c50","system_id":"levelo_inurba_marseille","lat":43.28976,"lon":5.37855,"is_reserved":false,"is_disabled":false,"rental_uris":{"android":"levelo://app?vid=1db89292-1bf8-4fe3-acec-307556b75c50","ios":"levelo://app?vid=1db89292-1bf8-4fe3-acec-307556b75c50"},"vehicle_type_id":"4","last_reported":1731157943,"current_range_meters":35200,"station_id":"ce4bh9p2rcd13ifvqed0","pricing_plan_id":"cebpf4jnsgd1na2vs0mg"},{"bike_id":"b8fdd341-0697-41ca-82c9-e4253415f4e6","system_id":"levelo_inurba_marseille","lat":43.23063,"lon":5.3548,"is_reserved":false,"is_disabled":false,"rental_uris":{"android":"levelo://app?vid=b8fdd341-0697-41ca-82c9-e4253415f4e6","ios":"levelo://app?vid=b8fdd341-0697-41ca-82c9-e4253415f4e6"},"vehicle_type_id":"4","last_reported":1731157943,"current_range_meters":32400,"station_id":"cpo3342slgdg3j2ifvpg","pricing_plan_id":"cebpf4jnsgd1na2vs0mg"},{"bike_id":"24e1ee3e-01db-4bdf-886f-32f03bd65ffe","system_id":"levelo_inurba_marseille","lat":43.30887,"lon":5.39633,"is_reserved":false,"is_disabled":false,"rental_uris":{"android":"levelo://app?vid=24e1ee3e-01db-4bdf-886f-32f03bd65ffe","ios":"levelo://app?vid=24e1ee3e-01db-4bdf-886f-32f03bd65ffe"},"vehicle_type_id":"4","last_reported":1731157943,"current_range_meters":32400,"station_id":"ce4bh012rcd13ifvqcv0","pricing_plan_id":"cebpf4jnsgd1na2vs0mg"},{"bike_id":"6e2d14fd-eb01-49b5-bd29-aaa82bfcdea8","system_id":"levelo_inurba_marseille","lat":43.30353,"lon":5.41874,"is_reserved":false,"is_disabled":false,"rental_uris":{"android":"levelo://app?vid=6e2d14fd-eb01-49b5-bd29-aaa82bfcdea8","ios":"levelo://app?vid=6e2d14fd-eb01-49b5-bd29-aaa82bfcdea8"},"vehicle_type_id":"4","last_reported":1731157943,"current_range_meters":25200,"station_id":"ce4bhop2rcd13ifvqh7g","pricing_plan_id":"cebpf4jnsgd1na2vs0mg"},{"bike_id":"52b9e4f1-f078-4114-aa60-3a3facd08793","system_id":"levelo_inurba_marseille","lat":43.2957,"lon":5.37513,"is_reserved":false,"is_disabled":false,"rental_uris":{"android":"levelo://app?vid=52b9e4f1-f078-4114-aa60-3a3facd08793","ios":"levelo://app?vid=52b9e4f1-f078-4114-aa60-3a3facd08793"},"vehicle_type_id":"4","last_reported":1731157943,"current_range_meters":40000,"station_id":"ce4bgh92rcd13ifvqb50","pricing_plan_id":"cebpf4jnsgd1na2vs0mg"},{"bike_id":"88f0550c-9883-4ceb-b89f-67f5f5b9b8b5","system_id":"levelo_inurba_marseille","lat":43.29002,"lon":5.35581,"is_reserved":false,"is_disabled":false,"rental_uris":{"android":"levelo://app?vid=88f0550c-9883-4ceb-b89f-67f5f5b9b8b5","ios":"levelo://app?vid=88f0550c-9883-4ceb-b89f-67f5f5b9b8b5"},"vehicle_type_id":"4","last_reported":1731157943,"current_range_meters":37600,"station_id":"ce4bhb92rcd13ifvqen0","pricing_plan_id":"cebpf4jnsgd1na2vs0mg"},{"bike_id":"b1f89a08-0f9d-483f-ac4d-f2f90b504067","system_id":"levelo_inurba_marseille","lat":43.26051,"lon":5.37513,"is_reserved":false,"is_disabled":false,"rental_uris":{"android":"levelo://app?vid=b1f89a08-0f9d-483f-ac4d-f2f90b504067","ios":"levelo://app?vid=b1f89a08-0f9d-483f-ac4d-f2f90b504067"},"vehicle_type_id":"4","last_reported":1731157943,"current_range_meters":27600,"station_id":"ce4bhgh2rcd13ifvqfa0","pricing_plan_id":"cebpf4jnsgd1na2vs0mg"},{"bike_id":"cc5d9a39-285d-43c9-845d-e46196db0907","system_id":"levelo_inurba_marseille","lat":43.26206,"lon":5.37926,"is_reserved":false,"is_disabled":false,"rental_uris":{"android":"levelo://app?vid=cc5d9a39-285d-43c9-845d-e46196db0907","ios":"levelo://app?vid=cc5d9a39-285d-43c9-845d-e46196db0907"},"vehicle_type_id":"4","last_reported":1731157943,"current_range_meters":24000,"station_id":"ce4bhjp2rcd13ifvqg90","pricing_plan_id":"cebpf4jnsgd1na2vs0mg"},{"bike_id":"b9d0bc02-8b8d-46ee-bb6e-da3b365f1431","system_id":"levelo_inurba_marseille","lat":43.30156,"lon":5.38088,"is_reserved":false,"is_disabled":false,"rental_uris":{"android":"levelo://app?vid=b9d0bc02-8b8d-46ee-bb6e-da3b365f1431","ios":"levelo://app?vid=b9d0bc02-8b8d-46ee-bb6e-da3b365f1431"},"vehicle_type_id":"4","last_reported":1731157943,"current_range_meters":9200,"station_id":"ce4bgjp2rcd13ifvqbh0","pricing_plan_id":"cebpf4jnsgd1na2vs0mg"},{"bike_id":"e291e3c2-7fca-4dfa-8863-fcc24bae6682","system_id":"levelo_inurba_marseille","lat":43.28723,"lon":5.37938,"is_reserved":false,"is_disabled":false,"rental_uris":{"android":"levelo://app?vid=e291e3c2-7fca-4dfa-8863-fcc24bae6682","ios":"levelo://app?vid=e291e3c2-7fca-4dfa-8863-fcc24bae6682"},"vehicle_type_id":"4","last_reported":1731157943,"current_range_meters":32800,"station_id":"ce4bh9p2rcd13ifvqec0","pricing_plan_id":"cebpf4jnsgd1na2vs0mg"},{"bike_id":"8137f581-2393-41d8-a932-f12bb5e1d13d","system_id":"levelo_inurba_marseille","lat":43.29223,"lon":5.36058,"is_reserved":false,"is_disabled":false,"rental_uris":{"android":"levelo://app?vid=8137f581-2393-41d8-a932-f12bb5e1d13d","ios":"levelo://app?vid=8137f581-2393-41d8-a932-f12bb5e1d13d"},"vehicle_type_id":"4","last_reported":1731157943,"current_range_meters":34000,"station_id":"ce4bhbh2rcd13ifvqeqg","pricing_plan_id":"cebpf4jnsgd1na2vs0mg"},{"bike_id":"72ddd36d-a63e-4053-a34f-ce01a1912e77","system_id":"levelo_inurba_marseille","lat":43.30541,"lon":5.36559,"is_reserved":false,"is_disabled":false,"rental_uris":{"android":"levelo://app?vid=72ddd36d-a63e-4053-a34f-ce01a1912e77","ios":"levelo://app?vid=72ddd36d-a63e-4053-a34f-ce01a1912e77"},"vehicle_type_id":"4","last_reported":1731157943,"current_range_meters":25600,"station_id":"ce4bgs12rcd13ifvqcag","pricing_plan_id":"cebpf4jnsgd1na2vs0mg"},{"bike_id":"818293fa-7bab-4548-8e6d-ceefdd2acfe4","system_id":"levelo_inurba_marseille","lat":43.30651,"lon":5.4007,"is_reserved":false,"is_disabled":false,"rental_uris":{"android":"levelo://app?vid=818293fa-7bab-4548-8e6d-ceefdd2acfe4","ios":"levelo://app?vid=818293fa-7bab-4548-8e6d-ceefdd2acfe4"},"vehicle_type_id":"4","last_reported":1731157943,"current_range_meters":17200,"station_id":"ce4bh112rcd13ifvqda0","pricing_plan_id":"cebpf4jnsgd1na2vs0mg"},{"bike_id":"8c906c48-9985-4f43-aa93-0ad70d2f4a83","system_id":"levelo_inurba_marseille","lat":43.30406,"lon":5.41269,"is_reserved":false,"is_disabled":false,"rental_uris":{"android":"levelo://app?vid=8c906c48-9985-4f43-aa93-0ad70d2f4a83","ios":"levelo://app?vid=8c906c48-9985-4f43-aa93-0ad70d2f4a83"},"vehicle_type_id":"4","last_reported":1731157943,"current_range_meters":30400,"station_id":"ce4bhop2rcd13ifvqh8g","pricing_plan_id":"cebpf4jnsgd1na2vs0mg"},{"bike_id":"05633e69-1486-4628-87e9-5e2d97c9c989","system_id":"levelo_inurba_marseille","lat":43.26567,"lon":5.39009,"is_reserved":false,"is_disabled":false,"rental_uris":{"android":"levelo://app?vid=05633e69-1486-4628-87e9-5e2d97c9c989","ios":"levelo://app?vid=05633e69-1486-4628-87e9-5e2d97c9c989"},"vehicle_type_id":"4","last_reported":1731157943,"current_range_meters":20000,"station_id":"ce4bhe12rcd13ifvqf30","pricing_plan_id":"cebpf4jnsgd1na2vs0mg"},{"bike_id":"b46ef96e-d2a2-4c07-a8e9-661445b1de2c","system_id":"levelo_inurba_marseille","lat":43.29918,"lon":5.38162,"is_reserved":false,"is_disabled":false,"rental_uris":{"android":"levelo://app?vid=b46ef96e-d2a2-4c07-a8e9-661445b1de2c","ios":"levelo://app?vid=b46ef96e-d2a2-4c07-a8e9-661445b1de2c"},"vehicle_type_id":"4","last_reported":1731157943,"current_range_meters":14000,"station_id":"ce4bgj12rcd13ifvqbc0","pricing_plan_id":"cebpf4jnsgd1na2vs0mg"},{"bike_id":"c3fc079f-642d-44dc-87af-d82d8de5ed7e","system_id":"levelo_inurba_marseille","lat":43.29797,"lon":5.38108,"is_reserved":false,"is_disabled":false,"rental_uris":{"android":"levelo://app?vid=c3fc079f-642d-44dc-87af-d82d8de5ed7e","ios":"levelo://app?vid=c3fc079f-642d-44dc-87af-d82d8de5ed7e"},"vehicle_type_id":"4","last_reported":1731157943,"current_range_meters":35600,"station_id":"ce4bgip2rcd13ifvqbb0","pricing_plan_id":"cebpf4jnsgd1na2vs0mg"},{"bike_id":"3164e0e4-9c24-48e4-a179-3cac940f2c32","system_id":"levelo_inurba_marseille","lat":43.28151,"lon":5.42649,"is_reserved":false,"is_disabled":false,"rental_uris":{"android":"levelo://app?vid=3164e0e4-9c24-48e4-a179-3cac940f2c32","ios":"levelo://app?vid=3164e0e4-9c24-48e4-a179-3cac940f2c32"},"vehicle_type_id":"4","last_reported":1731157943,"current_range_meters":16000,"station_id":"ce4bhnh2rcd13ifvqgug","pricing_plan_id":"cebpf4jnsgd1na2vs0mg"},{"bike_id":"46eef23f-12d9-472d-bbc8-38bbf585ff1a","system_id":"levelo_inurba_marseille","lat":43.29271,"lon":5.36853,"is_reserved":false,"is_disabled":false,"rental_uris":{"android":"levelo://app?vid=46eef23f-12d9-472d-bbc8-38bbf585ff1a","ios":"levelo://app?vid=46eef23f-12d9-472d-bbc8-38bbf585ff1a"},"vehicle_type_id":"4","last_reported":1731157943,"current_range_meters":18000,"station_id":"ce4bhbp2rcd13ifvqesg","pricing_plan_id":"cebpf4jnsgd1na2vs0mg"},{"bike_id":"92fdc141-c4e3-47a5-8ecd-36853455e986","system_id":"levelo_inurba_marseille","lat":43.29314,"lon":5.3745,"is_reserved":false,"is_disabled":false,"rental_uris":{"android":"levelo://app?vid=92fdc141-c4e3-47a5-8ecd-36853455e986","ios":"levelo://app?vid=92fdc141-c4e3-47a5-8ecd-36853455e986"},"vehicle_type_id":"4","last_reported":1731157943,"current_range_meters":14800,"station_id":"ce4bgi12rcd13ifvqb70","pricing_plan_id":"cebpf4jnsgd1na2vs0mg"},{"bike_id":"b04721b2-bb72-4877-b800-27e1ccf6e803","system_id":"levelo_inurba_marseille","lat":43.28423,"lon":5.34992,"is_reserved":false,"is_disabled":false,"rental_uris":{"android":"levelo://app?vid=b04721b2-bb72-4877-b800-27e1ccf6e803","ios":"levelo://app?vid=b04721b2-bb72-4877-b800-27e1ccf6e803"},"vehicle_type_id":"4","last_reported":1731157943,"current_range_meters":27200,"station_id":"ce4bhbh2rcd13ifvqepg","pricing_plan_id":"cebpf4jnsgd1na2vs0mg"},{"bike_id":"0dc18e88-cb7f-46f4-acb2-33f024b5e8a2","system_id":"levelo_inurba_marseille","lat":43.28844,"lon":5.35849,"is_reserved":false,"is_disabled":false,"rental_uris":{"android":"levelo://app?vid=0dc18e88-cb7f-46f4-acb2-33f024b5e8a2","ios":"levelo://app?vid=0dc18e88-cb7f-46f4-acb2-33f024b5e8a2"},"vehicle_type_id":"4","last_reported":1731157943,"current_range_meters":12800,"station_id":"ce4bhb12rcd13ifvqem0","pricing_plan_id":"cebpf4jnsgd1na2vs0mg"},{"bike_id":"bf8e3b96-7fc0-4a2e-8482-9a1dc52dda32","system_id":"levelo_inurba_marseille","lat":43.30471,"lon":5.37904,"is_reserved":false,"is_disabled":false,"rental_uris":{"android":"levelo://app?vid=bf8e3b96-7fc0-4a2e-8482-9a1dc52dda32","ios":"levelo://app?vid=bf8e3b96-7fc0-4a2e-8482-9a1dc52dda32"},"vehicle_type_id":"4","last_reported":1731157943,"current_range_meters":15200,"station_id":"ce4bgup2rcd13ifvqcn0","pricing_plan_id":"cebpf4jnsgd1na2vs0mg"},{"bike_id":"29e7eea2-318e-4349-bb6c-695542e730c7","system_id":"levelo_inurba_marseille","lat":43.30886,"lon":5.37184,"is_reserved":false,"is_disabled":false,"rental_uris":{"android":"levelo://app?vid=29e7eea2-318e-4349-bb6c-695542e730c7","ios":"levelo://app?vid=29e7eea2-318e-4349-bb6c-695542e730c7"},"vehicle_type_id":"4","last_reported":1731157943,"current_range_meters":38400,"station_id":"ce4bguh2rcd13ifvqckg","pricing_plan_id":"cebpf4jnsgd1na2vs0mg"},{"bike_id":"63dc0968-353b-4e34-9942-c2935ce05c98","system_id":"levelo_inurba_marseille","lat":43.305494,"lon":5.365635,"is_reserved":false,"is_disabled":false,"rental_uris":{"android":"levelo://app?vid=63dc0968-353b-4e34-9942-c2935ce05c98","ios":"levelo://app?vid=63dc0968-353b-4e34-9942-c2935ce05c98"},"vehicle_type_id":"4","last_reported":1731157943,"current_range_meters":12800,"station_id":"ce4bgs12rcd13ifvqcag","pricing_plan_id":"cebpf4jnsgd1na2vs0mg"},{"bike_id":"8ae42063-413b-4c62-b6e0-317a3937a2ec","system_id":"levelo_inurba_marseille","lat":43.24394,"lon":5.37054,"is_reserved":false,"is_disabled":false,"rental_uris":{"android":"levelo://app?vid=8ae42063-413b-4c62-b6e0-317a3937a2ec","ios":"levelo://app?vid=8ae42063-413b-4c62-b6e0-317a3937a2ec"},"vehicle_type_id":"4","last_reported":1731157943,"current_range_meters":26800,"station_id":"ce4bhhh2rcd13ifvqfk0","pricing_plan_id":"cebpf4jnsgd1na2vs0mg"},{"bike_id":"09a7281d-4189-41e7-8cad-19913b173622","system_id":"levelo_inurba_marseille","lat":43.29371,"lon":5.37851,"is_reserved":false,"is_disabled":false,"rental_uris":{"android":"levelo://app?vid=09a7281d-4189-41e7-8cad-19913b173622","ios":"levelo://app?vid=09a7281d-4189-41e7-8cad-19913b173622"},"vehicle_type_id":"4","last_reported":1731157943,"current_range_meters":32400,"station_id":"ce4bgjh2rcd13ifvqbf0","pricing_plan_id":"cebpf4jnsgd1na2vs0mg"},{"bike_id":"e18c8643-afe3-4871-b950-09c873a84276","system_id":"levelo_inurba_marseille","lat":43.31159,"lon":5.3872,"is_reserved":false,"is_disabled":false,"rental_uris":{"android":"levelo://app?vid=e18c8643-afe3-4871-b950-09c873a84276","ios":"levelo://app?vid=e18c8643-afe3-4871-b950-09c873a84276"},"vehicle_type_id":"4","last_reported":1731157943,"current_range_meters":33200,"station_id":"ce4bgv12rcd13ifvqcp0","pricing_plan_id":"cebpf4jnsgd1na2vs0mg"},{"bike_id":"39f17349-ada4-4402-b2d4-f4683db56d2d","system_id":"levelo_inurba_marseille","lat":43.275,"lon":5.42456,"is_reserved":false,"is_disabled":false,"rental_uris":{"android":"levelo://app?vid=39f17349-ada4-4402-b2d4-f4683db56d2d","ios":"levelo://app?vid=39f17349-ada4-4402-b2d4-f4683db56d2d"},"vehicle_type_id":"4","last_reported":1731157943,"current_range_meters":38800,"station_id":"ce4bhn92rcd13ifvqgrg","pricing_plan_id":"cebpf4jnsgd1na2vs0mg"},{"bike_id":"acca6862-2512-438a-9918-2f9b21a3d14b","system_id":"levelo_inurba_marseille","lat":43.29735,"lon":5.37687,"is_reserved":false,"is_disabled":false,"rental_uris":{"android":"levelo://app?vid=acca6862-2512-438a-9918-2f9b21a3d14b","ios":"levelo://app?vid=acca6862-2512-438a-9918-2f9b21a3d14b"},"vehicle_type_id":"4","last_reported":1731157943,"current_range_meters":30000,"station_id":"ce4bgkh2rcd13ifvqbl0","pricing_plan_id":"cebpf4jnsgd1na2vs0mg"},{"bike_id":"b9478b1d-79e3-44c9-ae60-496dd5151f62","system_id":"levelo_inurba_marseille","lat":43.29167,"lon":5.37153,"is_reserved":false,"is_disabled":false,"rental_uris":{"android":"levelo://app?vid=b9478b1d-79e3-44c9-ae60-496dd5151f62","ios":"levelo://app?vid=b9478b1d-79e3-44c9-ae60-496dd5151f62"},"vehicle_type_id":"4","last_reported":1731157943,"current_range_meters":36800,"station_id":"ce4bha92rcd13ifvqeh0","pricing_plan_id":"cebpf4jnsgd1na2vs0mg"},{"bike_id":"259ac6b3-c948-4c62-b167-931ed2a7069d","system_id":"levelo_inurba_marseille","lat":43.29271,"lon":5.36848,"is_reserved":false,"is_disabled":false,"rental_uris":{"android":"levelo://app?vid=259ac6b3-c948-4c62-b167-931ed2a7069d","ios":"levelo://app?vid=259ac6b3-c948-4c62-b167-931ed2a7069d"},"vehicle_type_id":"4","last_reported":1731157943,"current_range_meters":30400,"station_id":"ce4bhbp2rcd13ifvqesg","pricing_plan_id":"cebpf4jnsgd1na2vs0mg"},{"bike_id":"4204c697-9142-4d6f-a64b-20f319f8c9a7","system_id":"levelo_inurba_marseille","lat":43.2707,"lon":5.42274,"is_reserved":false,"is_disabled":false,"rental_uris":{"android":"levelo://app?vid=4204c697-9142-4d6f-a64b-20f319f8c9a7","ios":"levelo://app?vid=4204c697-9142-4d6f-a64b-20f319f8c9a7"},"vehicle_type_id":"4","last_reported":1731157943,"current_range_meters":15200,"station_id":"ce4bhk92rcd13ifvqgb0","pricing_plan_id":"cebpf4jnsgd1na2vs0mg"},{"bike_id":"4d1e9cb0-905b-45bf-bc6d-0d9440da37f3","system_id":"levelo_inurba_marseille","lat":43.302399,"lon":5.395635,"is_reserved":false,"is_disabled":false,"rental_uris":{"android":"levelo://app?vid=4d1e9cb0-905b-45bf-bc6d-0d9440da37f3","ios":"levelo://app?vid=4d1e9cb0-905b-45bf-bc6d-0d9440da37f3"},"vehicle_type_id":"4","last_reported":1731157943,"current_range_meters":20400,"station_id":"ce4bh0p2rcd13ifvqd80","pricing_plan_id":"cebpf4jnsgd1na2vs0mg"},{"bike_id":"018945c9-3bb3-43ae-8fe7-cd816bba1ee4","system_id":"levelo_inurba_marseille","lat":43.24807,"lon":5.37457,"is_reserved":false,"is_disabled":false,"rental_uris":{"android":"levelo://app?vid=018945c9-3bb3-43ae-8fe7-cd816bba1ee4","ios":"levelo://app?vid=018945c9-3bb3-43ae-8fe7-cd816bba1ee4"},"vehicle_type_id":"4","last_reported":1731157943,"current_range_meters":6000,"station_id":"ce4bhgh2rcd13ifvqfb0","pricing_plan_id":"cebpf4jnsgd1na2vs0mg"},{"bike_id":"de15f00a-25b1-4b9b-a102-3b4e4c3a83ba","system_id":"levelo_inurba_marseille","lat":43.30159,"lon":5.38082,"is_reserved":false,"is_disabled":false,"rental_uris":{"android":"levelo://app?vid=de15f00a-25b1-4b9b-a102-3b4e4c3a83ba","ios":"levelo://app?vid=de15f00a-25b1-4b9b-a102-3b4e4c3a83ba"},"vehicle_type_id":"4","last_reported":1731157943,"current_range_meters":30400,"station_id":"ce4bgjp2rcd13ifvqbh0","pricing_plan_id":"cebpf4jnsgd1na2vs0mg"},{"bike_id":"7e62f93d-a467-42f3-8231-822581c9a902","system_id":"levelo_inurba_marseille","lat":43.29168,"lon":5.37167,"is_reserved":false,"is_disabled":false,"rental_uris":{"android":"levelo://app?vid=7e62f93d-a467-42f3-8231-822581c9a902","ios":"levelo://app?vid=7e62f93d-a467-42f3-8231-822581c9a902"},"vehicle_type_id":"4","last_reported":1731157943,"current_range_meters":36800,"station_id":"ce4bha92rcd13ifvqeh0","pricing_plan_id":"cebpf4jnsgd1na2vs0mg"},{"bike_id":"cbaca5ef-4ee1-400c-9eea-df23c74b13dc","system_id":"levelo_inurba_marseille","lat":43.31486,"lon":5.37309,"is_reserved":false,"is_disabled":false,"rental_uris":{"android":"levelo://app?vid=cbaca5ef-4ee1-400c-9eea-df23c74b13dc","ios":"levelo://app?vid=cbaca5ef-4ee1-400c-9eea-df23c74b13dc"},"vehicle_type_id":"4","last_reported":1731157943,"current_range_meters":30800,"station_id":"ce4bgt12rcd13ifvqcd0","pricing_plan_id":"cebpf4jnsgd1na2vs0mg"},{"bike_id":"80f79e5b-00cc-42d8-85c5-f1d3ff2cd291","system_id":"levelo_inurba_marseille","lat":43.29792,"lon":5.38117,"is_reserved":false,"is_disabled":false,"rental_uris":{"android":"levelo://app?vid=80f79e5b-00cc-42d8-85c5-f1d3ff2cd291","ios":"levelo://app?vid=80f79e5b-00cc-42d8-85c5-f1d3ff2cd291"},"vehicle_type_id":"4","last_reported":1731157943,"current_range_meters":23200,"station_id":"ce4bgip2rcd13ifvqbb0","pricing_plan_id":"cebpf4jnsgd1na2vs0mg"},{"bike_id":"5fccc6cf-2929-483f-94f7-e8d1f26a72c8","system_id":"levelo_inurba_marseille","lat":43.30541,"lon":5.3843,"is_reserved":false,"is_disabled":false,"rental_uris":{"android":"levelo://app?vid=5fccc6cf-2929-483f-94f7-e8d1f26a72c8","ios":"levelo://app?vid=5fccc6cf-2929-483f-94f7-e8d1f26a72c8"},"vehicle_type_id":"4","last_reported":1731157943,"current_range_meters":38800,"station_id":"ce4bgg92rcd13ifvqb30","pricing_plan_id":"cebpf4jnsgd1na2vs0mg"},{"bike_id":"b4de7b9a-6515-49e3-b4f0-3d8149400129","system_id":"levelo_inurba_marseille","lat":43.301537,"lon":5.380875,"is_reserved":false,"is_disabled":false,"rental_uris":{"android":"levelo://app?vid=b4de7b9a-6515-49e3-b4f0-3d8149400129","ios":"levelo://app?vid=b4de7b9a-6515-49e3-b4f0-3d8149400129"},"vehicle_type_id":"4","last_reported":1731157943,"current_range_meters":36400,"station_id":"ce4bgjp2rcd13ifvqbh0","pricing_plan_id":"cebpf4jnsgd1na2vs0mg"},{"bike_id":"05482a76-e46c-4a66-a47c-5c924d295680","system_id":"levelo_inurba_marseille","lat":43.27567,"lon":5.38435,"is_reserved":false,"is_disabled":false,"rental_uris":{"android":"levelo://app?vid=05482a76-e46c-4a66-a47c-5c924d295680","ios":"levelo://app?vid=05482a76-e46c-4a66-a47c-5c924d295680"},"vehicle_type_id":"4","last_reported":1731157943,"current_range_meters":38800,"station_id":"ce4bhh92rcd13ifvqfi0","pricing_plan_id":"cebpf4jnsgd1na2vs0mg"},{"bike_id":"eccb9bf1-4a0c-4df5-8229-bf46f21c4329","system_id":"levelo_inurba_marseille","lat":43.31722,"lon":5.42398,"is_reserved":false,"is_disabled":false,"rental_uris":{"android":"levelo://app?vid=eccb9bf1-4a0c-4df5-8229-bf46f21c4329","ios":"levelo://app?vid=eccb9bf1-4a0c-4df5-8229-bf46f21c4329"},"vehicle_type_id":"4","last_reported":1731157943,"current_range_meters":33200,"station_id":"ce4bhp92rcd13ifvqhbg","pricing_plan_id":"cebpf4jnsgd1na2vs0mg"},{"bike_id":"ef288286-229d-4b9a-a189-8d61840dcffb","system_id":"levelo_inurba_marseille","lat":43.23192,"lon":5.35557,"is_reserved":false,"is_disabled":false,"rental_uris":{"android":"levelo://app?vid=ef288286-229d-4b9a-a189-8d61840dcffb","ios":"levelo://app?vid=ef288286-229d-4b9a-a189-8d61840dcffb"},"vehicle_type_id":"4","last_reported":1731157943,"current_range_meters":33600,"station_id":"ce4bhu92rcd13ifvqi70","pricing_plan_id":"cebpf4jnsgd1na2vs0mg"},{"bike_id":"e5e0f828-6513-4493-bcd2-8c14c11b4d4c","system_id":"levelo_inurba_marseille","lat":43.33599,"lon":5.41035,"is_reserved":false,"is_disabled":false,"rental_uris":{"android":"levelo://app?vid=e5e0f828-6513-4493-bcd2-8c14c11b4d4c","ios":"levelo://app?vid=e5e0f828-6513-4493-bcd2-8c14c11b4d4c"},"vehicle_type_id":"4","last_reported":1731157943,"current_range_meters":38800,"station_id":"ce4bhqh2rcd13ifvqhmg","pricing_plan_id":"cebpf4jnsgd1na2vs0mg"},{"bike_id":"177603a3-0d30-4ffd-8368-c26ca768b2af","system_id":"levelo_inurba_marseille","lat":43.329805,"lon":5.410294,"is_reserved":false,"is_disabled":false,"rental_uris":{"android":"levelo://app?vid=177603a3-0d30-4ffd-8368-c26ca768b2af","ios":"levelo://app?vid=177603a3-0d30-4ffd-8368-c26ca768b2af"},"vehicle_type_id":"4","last_reported":1731157943,"current_range_meters":14000,"station_id":"ce4bh0h2rcd13ifvqd60","pricing_plan_id":"cebpf4jnsgd1na2vs0mg"},{"bike_id":"43dbcf2e-3b20-4e0f-ac09-64b0f1ef49b7","system_id":"levelo_inurba_marseille","lat":43.25726,"lon":5.41114,"is_reserved":false,"is_disabled":false,"rental_uris":{"android":"levelo://app?vid=43dbcf2e-3b20-4e0f-ac09-64b0f1ef49b7","ios":"levelo://app?vid=43dbcf2e-3b20-4e0f-ac09-64b0f1ef49b7"},"vehicle_type_id":"4","last_reported":1731157943,"current_range_meters":38800,"station_id":"ce4bhkp2rcd13ifvqgd0","pricing_plan_id":"cebpf4jnsgd1na2vs0mg"},{"bike_id":"1b273681-a149-4b44-af0d-27ca962351bc","system_id":"levelo_inurba_marseille","lat":43.29961,"lon":5.4133,"is_reserved":false,"is_disabled":false,"rental_uris":{"android":"levelo://app?vid=1b273681-a149-4b44-af0d-27ca962351bc","ios":"levelo://app?vid=1b273681-a149-4b44-af0d-27ca962351bc"},"vehicle_type_id":"4","last_reported":1731157943,"current_range_meters":36000,"station_id":"ce4bhp12rcd13ifvqh9g","pricing_plan_id":"cebpf4jnsgd1na2vs0mg"},{"bike_id":"3ed67fa7-7588-4d15-a08c-0c6e59a87c16","system_id":"levelo_inurba_marseille","lat":43.27323,"lon":5.39089,"is_reserved":false,"is_disabled":false,"rental_uris":{"android":"levelo://app?vid=3ed67fa7-7588-4d15-a08c-0c6e59a87c16","ios":"levelo://app?vid=3ed67fa7-7588-4d15-a08c-0c6e59a87c16"},"vehicle_type_id":"4","last_reported":1731157943,"current_range_meters":27200,"station_id":"ce4bhgp2rcd13ifvqfe0","pricing_plan_id":"cebpf4jnsgd1na2vs0mg"},{"bike_id":"409fce05-1481-4019-8256-b90cec12f96f","system_id":"levelo_inurba_marseille","lat":43.27464,"lon":5.40964,"is_reserved":false,"is_disabled":false,"rental_uris":{"android":"levelo://app?vid=409fce05-1481-4019-8256-b90cec12f96f","ios":"levelo://app?vid=409fce05-1481-4019-8256-b90cec12f96f"},"vehicle_type_id":"4","last_reported":1731157943,"current_range_meters":19200,"station_id":"","pricing_plan_id":"cebpf4jnsgd1na2vs0mg"},{"bike_id":"2fcc5e1a-933e-4794-969d-323eca2ba9cd","system_id":"levelo_inurba_marseille","lat":43.29273,"lon":5.36838,"is_reserved":false,"is_disabled":false,"rental_uris":{"android":"levelo://app?vid=2fcc5e1a-933e-4794-969d-323eca2ba9cd","ios":"levelo://app?vid=2fcc5e1a-933e-4794-969d-323eca2ba9cd"},"vehicle_type_id":"4","last_reported":1731157943,"current_range_meters":29600,"station_id":"ce4bhbp2rcd13ifvqesg","pricing_plan_id":"cebpf4jnsgd1na2vs0mg"},{"bike_id":"f8e7993e-8534-4d6f-b4ba-6d5d4371e823","system_id":"levelo_inurba_marseille","lat":43.28718,"lon":5.37942,"is_reserved":false,"is_disabled":false,"rental_uris":{"android":"levelo://app?vid=f8e7993e-8534-4d6f-b4ba-6d5d4371e823","ios":"levelo://app?vid=f8e7993e-8534-4d6f-b4ba-6d5d4371e823"},"vehicle_type_id":"4","last_reported":1731157943,"current_range_meters":32000,"station_id":"ce4bh9p2rcd13ifvqec0","pricing_plan_id":"cebpf4jnsgd1na2vs0mg"},{"bike_id":"9ae20148-7f84-4ca9-881f-f3cdc365c4d8","system_id":"levelo_inurba_marseille","lat":43.281126,"lon":5.378324,"is_reserved":false,"is_disabled":false,"rental_uris":{"android":"levelo://app?vid=9ae20148-7f84-4ca9-881f-f3cdc365c4d8","ios":"levelo://app?vid=9ae20148-7f84-4ca9-881f-f3cdc365c4d8"},"vehicle_type_id":"4","last_reported":1731157943,"current_range_meters":30000,"station_id":"ce4bha12rcd13ifvqee0","pricing_plan_id":"cebpf4jnsgd1na2vs0mg"},{"bike_id":"7dea2a02-2426-4d47-8b85-2b224882242e","system_id":"levelo_inurba_marseille","lat":43.28085,"lon":5.396577,"is_reserved":false,"is_disabled":false,"rental_uris":{"android":"levelo://app?vid=7dea2a02-2426-4d47-8b85-2b224882242e","ios":"levelo://app?vid=7dea2a02-2426-4d47-8b85-2b224882242e"},"vehicle_type_id":"4","last_reported":1731157943,"current_range_meters":35200,"station_id":"ce4bho12rcd13ifvqh2g","pricing_plan_id":"cebpf4jnsgd1na2vs0mg"},{"bike_id":"983b2b81-daed-45d3-b857-e8ee7dfe6c54","system_id":"levelo_inurba_marseille","lat":43.30248,"lon":5.40067,"is_reserved":false,"is_disabled":false,"rental_uris":{"android":"levelo://app?vid=983b2b81-daed-45d3-b857-e8ee7dfe6c54","ios":"levelo://app?vid=983b2b81-daed-45d3-b857-e8ee7dfe6c54"},"vehicle_type_id":"4","last_reported":1731157943,"current_range_meters":28400,"station_id":"ce4bgvh2rcd13ifvqcs0","pricing_plan_id":"cebpf4jnsgd1na2vs0mg"},{"bike_id":"f4ce63c6-7fab-4b8c-827d-56c1860fdcd9","system_id":"levelo_inurba_marseille","lat":43.30147,"lon":5.38085,"is_reserved":false,"is_disabled":false,"rental_uris":{"android":"levelo://app?vid=f4ce63c6-7fab-4b8c-827d-56c1860fdcd9","ios":"levelo://app?vid=f4ce63c6-7fab-4b8c-827d-56c1860fdcd9"},"vehicle_type_id":"4","last_reported":1731157943,"current_range_meters":24800,"station_id":"ce4bgjp2rcd13ifvqbh0","pricing_plan_id":"cebpf4jnsgd1na2vs0mg"},{"bike_id":"2287456b-3bda-4e56-b211-9a70d4437e24","system_id":"levelo_inurba_marseille","lat":43.30599,"lon":5.37248,"is_reserved":false,"is_disabled":false,"rental_uris":{"android":"levelo://app?vid=2287456b-3bda-4e56-b211-9a70d4437e24","ios":"levelo://app?vid=2287456b-3bda-4e56-b211-9a70d4437e24"},"vehicle_type_id":"4","last_reported":1731157943,"current_range_meters":26000,"station_id":"ce4bgqh2rcd13ifvqc4g","pricing_plan_id":"cebpf4jnsgd1na2vs0mg"},{"bike_id":"fbbe362b-7b29-4c8f-b506-484f07761f02","system_id":"levelo_inurba_marseille","lat":43.29915,"lon":5.37461,"is_reserved":false,"is_disabled":false,"rental_uris":{"android":"levelo://app?vid=fbbe362b-7b29-4c8f-b506-484f07761f02","ios":"levelo://app?vid=fbbe362b-7b29-4c8f-b506-484f07761f02"},"vehicle_type_id":"4","last_reported":1731157943,"current_range_meters":38000,"station_id":"ce4bgjh2rcd13ifvqbg0","pricing_plan_id":"cebpf4jnsgd1na2vs0mg"},{"bike_id":"253d4972-885a-4089-ba18-720027ab1cd8","system_id":"levelo_inurba_marseille","lat":43.25718,"lon":5.41115,"is_reserved":false,"is_disabled":false,"rental_uris":{"android":"levelo://app?vid=253d4972-885a-4089-ba18-720027ab1cd8","ios":"levelo://app?vid=253d4972-885a-4089-ba18-720027ab1cd8"},"vehicle_type_id":"4","last_reported":1731157943,"current_range_meters":10800,"station_id":"ce4bhkp2rcd13ifvqgd0","pricing_plan_id":"cebpf4jnsgd1na2vs0mg"},{"bike_id":"272dceaa-f641-4314-a4dc-c4e34b6fe0a4","system_id":"levelo_inurba_marseille","lat":43.293011,"lon":5.374621,"is_reserved":false,"is_disabled":false,"rental_uris":{"android":"levelo://app?vid=272dceaa-f641-4314-a4dc-c4e34b6fe0a4","ios":"levelo://app?vid=272dceaa-f641-4314-a4dc-c4e34b6fe0a4"},"vehicle_type_id":"4","last_reported":1731157943,"current_range_meters":19200,"station_id":"ce4bgi12rcd13ifvqb70","pricing_plan_id":"cebpf4jnsgd1na2vs0mg"},{"bike_id":"6463664d-8d71-4282-8618-f2c0c195f781","system_id":"levelo_inurba_marseille","lat":43.30085,"lon":5.38161,"is_reserved":false,"is_disabled":false,"rental_uris":{"android":"levelo://app?vid=6463664d-8d71-4282-8618-f2c0c195f781","ios":"levelo://app?vid=6463664d-8d71-4282-8618-f2c0c195f781"},"vehicle_type_id":"4","last_reported":1731157943,"current_range_meters":28000,"station_id":"ce4bgjp2rcd13ifvqbh0","pricing_plan_id":"cebpf4jnsgd1na2vs0mg"},{"bike_id":"3424df2c-a0ae-4e23-b518-86ea552de7c2","system_id":"levelo_inurba_marseille","lat":43.29222,"lon":5.36058,"is_reserved":false,"is_disabled":false,"rental_uris":{"android":"levelo://app?vid=3424df2c-a0ae-4e23-b518-86ea552de7c2","ios":"levelo://app?vid=3424df2c-a0ae-4e23-b518-86ea552de7c2"},"vehicle_type_id":"4","last_reported":1731157943,"current_range_meters":35200,"station_id":"ce4bhbh2rcd13ifvqeqg","pricing_plan_id":"cebpf4jnsgd1na2vs0mg"},{"bike_id":"1bf79194-f1db-4b9b-84e1-ebd4bde00abe","system_id":"levelo_inurba_marseille","lat":43.29313,"lon":5.37465,"is_reserved":false,"is_disabled":false,"rental_uris":{"android":"levelo://app?vid=1bf79194-f1db-4b9b-84e1-ebd4bde00abe","ios":"levelo://app?vid=1bf79194-f1db-4b9b-84e1-ebd4bde00abe"},"vehicle_type_id":"4","last_reported":1731157943,"current_range_meters":36400,"station_id":"ce4bgi12rcd13ifvqb70","pricing_plan_id":"cebpf4jnsgd1na2vs0mg"},{"bike_id":"ba4e9b3f-2a8e-4431-b57f-f6a1ee8edd37","system_id":"levelo_inurba_marseille","lat":43.30156,"lon":5.38089,"is_reserved":false,"is_disabled":false,"rental_uris":{"android":"levelo://app?vid=ba4e9b3f-2a8e-4431-b57f-f6a1ee8edd37","ios":"levelo://app?vid=ba4e9b3f-2a8e-4431-b57f-f6a1ee8edd37"},"vehicle_type_id":"4","last_reported":1731157943,"current_range_meters":20000,"station_id":"ce4bgjp2rcd13ifvqbh0","pricing_plan_id":"cebpf4jnsgd1na2vs0mg"},{"bike_id":"eb8ae82e-b5af-4e43-8b69-b135e11d1ed6","system_id":"levelo_inurba_marseille","lat":43.29894,"lon":5.43668,"is_reserved":false,"is_disabled":false,"rental_uris":{"android":"levelo://app?vid=eb8ae82e-b5af-4e43-8b69-b135e11d1ed6","ios":"levelo://app?vid=eb8ae82e-b5af-4e43-8b69-b135e11d1ed6"},"vehicle_type_id":"4","last_reported":1731157943,"current_range_meters":8000,"station_id":"ce4bhpp2rcd13ifvqhfg","pricing_plan_id":"cebpf4jnsgd1na2vs0mg"},{"bike_id":"9cc62d70-9e20-4588-85cb-b01230f91ba6","system_id":"levelo_inurba_marseille","lat":43.23194,"lon":5.43703,"is_reserved":false,"is_disabled":false,"rental_uris":{"android":"levelo://app?vid=9cc62d70-9e20-4588-85cb-b01230f91ba6","ios":"levelo://app?vid=9cc62d70-9e20-4588-85cb-b01230f91ba6"},"vehicle_type_id":"4","last_reported":1731157943,"current_range_meters":9200,"station_id":"ce4bhmp2rcd13ifvqgog","pricing_plan_id":"cebpf4jnsgd1na2vs0mg"},{"bike_id":"6a33dce0-73c3-415c-8e7f-3e4dead523b5","system_id":"levelo_inurba_marseille","lat":43.32112,"lon":5.36771,"is_reserved":false,"is_disabled":false,"rental_uris":{"android":"levelo://app?vid=6a33dce0-73c3-415c-8e7f-3e4dead523b5","ios":"levelo://app?vid=6a33dce0-73c3-415c-8e7f-3e4dead523b5"},"vehicle_type_id":"4","last_reported":1731157943,"current_range_meters":32800,"station_id":"ce4bhrh2rcd13ifvqhug","pricing_plan_id":"cebpf4jnsgd1na2vs0mg"},{"bike_id":"8c4b9845-6613-46ef-8dff-cb8a9eb8119d","system_id":"levelo_inurba_marseille","lat":43.27839,"lon":5.39213,"is_reserved":false,"is_disabled":false,"rental_uris":{"android":"levelo://app?vid=8c4b9845-6613-46ef-8dff-cb8a9eb8119d","ios":"levelo://app?vid=8c4b9845-6613-46ef-8dff-cb8a9eb8119d"},"vehicle_type_id":"4","last_reported":1731157943,"current_range_meters":10800,"station_id":"ce4bhjp2rcd13ifvqga0","pricing_plan_id":"cebpf4jnsgd1na2vs0mg"},{"bike_id":"d6fdae69-642e-4d84-a8fd-edeb75ed0ef4","system_id":"levelo_inurba_marseille","lat":43.22932,"lon":5.35376,"is_reserved":false,"is_disabled":false,"rental_uris":{"android":"levelo://app?vid=d6fdae69-642e-4d84-a8fd-edeb75ed0ef4","ios":"levelo://app?vid=d6fdae69-642e-4d84-a8fd-edeb75ed0ef4"},"vehicle_type_id":"4","last_reported":1731157943,"current_range_meters":38800,"station_id":"cpo3532slgdg3j2ikp40","pricing_plan_id":"cebpf4jnsgd1na2vs0mg"},{"bike_id":"a79a3074-af69-4b3f-b288-bb8e1d4bef95","system_id":"levelo_inurba_marseille","lat":43.29917,"lon":5.37468,"is_reserved":false,"is_disabled":false,"rental_uris":{"android":"levelo://app?vid=a79a3074-af69-4b3f-b288-bb8e1d4bef95","ios":"levelo://app?vid=a79a3074-af69-4b3f-b288-bb8e1d4bef95"},"vehicle_type_id":"4","last_reported":1731157943,"current_range_meters":34800,"station_id":"ce4bgjh2rcd13ifvqbg0","pricing_plan_id":"cebpf4jnsgd1na2vs0mg"},{"bike_id":"fa6a0987-224a-4bc2-940a-f29ee1722da6","system_id":"levelo_inurba_marseille","lat":43.28613,"lon":5.35102,"is_reserved":false,"is_disabled":false,"rental_uris":{"android":"levelo://app?vid=fa6a0987-224a-4bc2-940a-f29ee1722da6","ios":"levelo://app?vid=fa6a0987-224a-4bc2-940a-f29ee1722da6"},"vehicle_type_id":"4","last_reported":1731157943,"current_range_meters":38800,"station_id":"ce4bhch2rcd13ifvqeug","pricing_plan_id":"cebpf4jnsgd1na2vs0mg"},{"bike_id":"9f285834-2950-40f2-97f5-d02e66aec9bd","system_id":"levelo_inurba_marseille","lat":43.24395,"lon":5.37057,"is_reserved":false,"is_disabled":false,"rental_uris":{"android":"levelo://app?vid=9f285834-2950-40f2-97f5-d02e66aec9bd","ios":"levelo://app?vid=9f285834-2950-40f2-97f5-d02e66aec9bd"},"vehicle_type_id":"4","last_reported":1731157943,"current_range_meters":38800,"station_id":"ce4bhhh2rcd13ifvqfk0","pricing_plan_id":"cebpf4jnsgd1na2vs0mg"},{"bike_id":"5bb18370-3789-41dc-89e1-bf29c8daab53","system_id":"levelo_inurba_marseille","lat":43.29537,"lon":5.37508,"is_reserved":false,"is_disabled":false,"rental_uris":{"android":"levelo://app?vid=5bb18370-3789-41dc-89e1-bf29c8daab53","ios":"levelo://app?vid=5bb18370-3789-41dc-89e1-bf29c8daab53"},"vehicle_type_id":"4","last_reported":1731157943,"current_range_meters":23200,"station_id":"ce4bgkp2rcd13ifvqbmg","pricing_plan_id":"cebpf4jnsgd1na2vs0mg"},{"bike_id":"fd761a8e-463e-4bc3-8ebd-c81a059d1456","system_id":"levelo_inurba_marseille","lat":43.2917,"lon":5.37168,"is_reserved":false,"is_disabled":false,"rental_uris":{"android":"levelo://app?vid=fd761a8e-463e-4bc3-8ebd-c81a059d1456","ios":"levelo://app?vid=fd761a8e-463e-4bc3-8ebd-c81a059d1456"},"vehicle_type_id":"4","last_reported":1731157943,"current_range_meters":10000,"station_id":"ce4bha92rcd13ifvqeh0","pricing_plan_id":"cebpf4jnsgd1na2vs0mg"},{"bike_id":"ad744cad-4614-45b4-8c04-60e57c0b745d","system_id":"levelo_inurba_marseille","lat":43.27211,"lon":5.39189,"is_reserved":false,"is_disabled":false,"rental_uris":{"android":"levelo://app?vid=ad744cad-4614-45b4-8c04-60e57c0b745d","ios":"levelo://app?vid=ad744cad-4614-45b4-8c04-60e57c0b745d"},"vehicle_type_id":"4","last_reported":1731157943,"current_range_meters":18800,"station_id":"ce4bhhp2rcd13ifvqfm0","pricing_plan_id":"cebpf4jnsgd1na2vs0mg"},{"bike_id":"448d3bf9-78cb-439a-a23b-0e48f1b89013","system_id":"levelo_inurba_marseille","lat":43.32356,"lon":5.38898,"is_reserved":false,"is_disabled":false,"rental_uris":{"android":"levelo://app?vid=448d3bf9-78cb-439a-a23b-0e48f1b89013","ios":"levelo://app?vid=448d3bf9-78cb-439a-a23b-0e48f1b89013"},"vehicle_type_id":"4","last_reported":1731157943,"current_range_meters":11600,"station_id":"ce4bhqp2rcd13ifvqhog","pricing_plan_id":"cebpf4jnsgd1na2vs0mg"},{"bike_id":"08c87c74-8ce5-4912-ab68-fb06a199a47b","system_id":"levelo_inurba_marseille","lat":43.23192,"lon":5.39985,"is_reserved":false,"is_disabled":false,"rental_uris":{"android":"levelo://app?vid=08c87c74-8ce5-4912-ab68-fb06a199a47b","ios":"levelo://app?vid=08c87c74-8ce5-4912-ab68-fb06a199a47b"},"vehicle_type_id":"4","last_reported":1731157943,"current_range_meters":38800,"station_id":"ce4bhn12rcd13ifvqgqg","pricing_plan_id":"cebpf4jnsgd1na2vs0mg"},{"bike_id":"ed041fb6-af35-4b06-8c0a-964d1a6674b3","system_id":"levelo_inurba_marseille","lat":43.30655,"lon":5.40086,"is_reserved":false,"is_disabled":false,"rental_uris":{"android":"levelo://app?vid=ed041fb6-af35-4b06-8c0a-964d1a6674b3","ios":"levelo://app?vid=ed041fb6-af35-4b06-8c0a-964d1a6674b3"},"vehicle_type_id":"4","last_reported":1731157943,"current_range_meters":35600,"station_id":"ce4bh112rcd13ifvqda0","pricing_plan_id":"cebpf4jnsgd1na2vs0mg"},{"bike_id":"d4e2615a-83f7-44f4-94b2-ee4cf6b17fb3","system_id":"levelo_inurba_marseille","lat":43.25088,"lon":5.39511,"is_reserved":false,"is_disabled":false,"rental_uris":{"android":"levelo://app?vid=d4e2615a-83f7-44f4-94b2-ee4cf6b17fb3","ios":"levelo://app?vid=d4e2615a-83f7-44f4-94b2-ee4cf6b17fb3"},"vehicle_type_id":"4","last_reported":1731157943,"current_range_meters":18000,"station_id":"ce4bhm12rcd13ifvqgkg","pricing_plan_id":"cebpf4jnsgd1na2vs0mg"},{"bike_id":"565435fb-bbd7-4531-8a45-68a96e5f45b3","system_id":"levelo_inurba_marseille","lat":43.31759,"lon":5.39016,"is_reserved":false,"is_disabled":false,"rental_uris":{"android":"levelo://app?vid=565435fb-bbd7-4531-8a45-68a96e5f45b3","ios":"levelo://app?vid=565435fb-bbd7-4531-8a45-68a96e5f45b3"},"vehicle_type_id":"4","last_reported":1731157943,"current_range_meters":30000,"station_id":"ce4bhqp2rcd13ifvqhng","pricing_plan_id":"cebpf4jnsgd1na2vs0mg"},{"bike_id":"6fe0b6ea-fed3-4e1b-92d0-a5f3f71ac920","system_id":"levelo_inurba_marseille","lat":43.29522,"lon":5.37505,"is_reserved":false,"is_disabled":false,"rental_uris":{"android":"levelo://app?vid=6fe0b6ea-fed3-4e1b-92d0-a5f3f71ac920","ios":"levelo://app?vid=6fe0b6ea-fed3-4e1b-92d0-a5f3f71ac920"},"vehicle_type_id":"4","last_reported":1731157943,"current_range_meters":38800,"station_id":"ce4bgkp2rcd13ifvqbmg","pricing_plan_id":"cebpf4jnsgd1na2vs0mg"},{"bike_id":"a8d6c4ab-40b8-4cdf-9134-b9616f1ce96b","system_id":"levelo_inurba_marseille","lat":43.27327,"lon":5.3909,"is_reserved":false,"is_disabled":false,"rental_uris":{"android":"levelo://app?vid=a8d6c4ab-40b8-4cdf-9134-b9616f1ce96b","ios":"levelo://app?vid=a8d6c4ab-40b8-4cdf-9134-b9616f1ce96b"},"vehicle_type_id":"4","last_reported":1731157943,"current_range_meters":16000,"station_id":"ce4bhgp2rcd13ifvqfe0","pricing_plan_id":"cebpf4jnsgd1na2vs0mg"},{"bike_id":"a1212e73-b50e-4dda-bd8b-7911a3d27742","system_id":"levelo_inurba_marseille","lat":43.29531,"lon":5.37502,"is_reserved":false,"is_disabled":false,"rental_uris":{"android":"levelo://app?vid=a1212e73-b50e-4dda-bd8b-7911a3d27742","ios":"levelo://app?vid=a1212e73-b50e-4dda-bd8b-7911a3d27742"},"vehicle_type_id":"4","last_reported":1731157943,"current_range_meters":30000,"station_id":"ce4bgkp2rcd13ifvqbmg","pricing_plan_id":"cebpf4jnsgd1na2vs0mg"},{"bike_id":"31029f1f-6cfc-419d-a9af-b9ef9f8935bf","system_id":"levelo_inurba_marseille","lat":43.29933,"lon":5.37476,"is_reserved":false,"is_disabled":false,"rental_uris":{"android":"levelo://app?vid=31029f1f-6cfc-419d-a9af-b9ef9f8935bf","ios":"levelo://app?vid=31029f1f-6cfc-419d-a9af-b9ef9f8935bf"},"vehicle_type_id":"4","last_reported":1731157943,"current_range_meters":39200,"station_id":"ce4bgjh2rcd13ifvqbg0","pricing_plan_id":"cebpf4jnsgd1na2vs0mg"},{"bike_id":"181fa628-fd06-4339-88f4-5d411c857699","system_id":"levelo_inurba_marseille","lat":43.27069,"lon":5.4228,"is_reserved":false,"is_disabled":false,"rental_uris":{"android":"levelo://app?vid=181fa628-fd06-4339-88f4-5d411c857699","ios":"levelo://app?vid=181fa628-fd06-4339-88f4-5d411c857699"},"vehicle_type_id":"4","last_reported":1731157943,"current_range_meters":15200,"station_id":"ce4bhk92rcd13ifvqgb0","pricing_plan_id":"cebpf4jnsgd1na2vs0mg"},{"bike_id":"db2000b3-6ab3-4057-b1a0-6082264d6390","system_id":"levelo_inurba_marseille","lat":43.29041,"lon":5.3757,"is_reserved":false,"is_disabled":false,"rental_uris":{"android":"levelo://app?vid=db2000b3-6ab3-4057-b1a0-6082264d6390","ios":"levelo://app?vid=db2000b3-6ab3-4057-b1a0-6082264d6390"},"vehicle_type_id":"4","last_reported":1731157943,"current_range_meters":38000,"station_id":"ce4bh692rcd13ifvqe90","pricing_plan_id":"cebpf4jnsgd1na2vs0mg"},{"bike_id":"29b6655d-5b20-4871-9475-2f988961f2f2","system_id":"levelo_inurba_marseille","lat":43.25871,"lon":5.39924,"is_reserved":false,"is_disabled":false,"rental_uris":{"android":"levelo://app?vid=29b6655d-5b20-4871-9475-2f988961f2f2","ios":"levelo://app?vid=29b6655d-5b20-4871-9475-2f988961f2f2"},"vehicle_type_id":"4","last_reported":1731157943,"current_range_meters":28400,"station_id":"ce4bhl92rcd13ifvqghg","pricing_plan_id":"cebpf4jnsgd1na2vs0mg"},{"bike_id":"5c288d69-bb8b-42a4-9e82-338525b33ce7","system_id":"levelo_inurba_marseille","lat":43.29617,"lon":5.37732,"is_reserved":false,"is_disabled":false,"rental_uris":{"android":"levelo://app?vid=5c288d69-bb8b-42a4-9e82-338525b33ce7","ios":"levelo://app?vid=5c288d69-bb8b-42a4-9e82-338525b33ce7"},"vehicle_type_id":"4","last_reported":1731157943,"current_range_meters":28800,"station_id":"ce4bgi92rcd13ifvqb90","pricing_plan_id":"cebpf4jnsgd1na2vs0mg"},{"bike_id":"b65dfbeb-c9b8-49fc-a289-688707d5ba25","system_id":"levelo_inurba_marseille","lat":43.30144,"lon":5.37741,"is_reserved":false,"is_disabled":false,"rental_uris":{"android":"levelo://app?vid=b65dfbeb-c9b8-49fc-a289-688707d5ba25","ios":"levelo://app?vid=b65dfbeb-c9b8-49fc-a289-688707d5ba25"},"vehicle_type_id":"4","last_reported":1731157943,"current_range_meters":32000,"station_id":"","pricing_plan_id":"cebpf4jnsgd1na2vs0mg"},{"bike_id":"764ab749-70ca-4b73-a35f-c0abe15547f3","system_id":"levelo_inurba_marseille","lat":43.30161,"lon":5.38084,"is_reserved":false,"is_disabled":false,"rental_uris":{"android":"levelo://app?vid=764ab749-70ca-4b73-a35f-c0abe15547f3","ios":"levelo://app?vid=764ab749-70ca-4b73-a35f-c0abe15547f3"},"vehicle_type_id":"4","last_reported":1731157943,"current_range_meters":35200,"station_id":"ce4bgjp2rcd13ifvqbh0","pricing_plan_id":"cebpf4jnsgd1na2vs0mg"},{"bike_id":"dd02dda1-0cf5-4e23-8f9a-88ca5953c398","system_id":"levelo_inurba_marseille","lat":43.25002,"lon":5.38934,"is_reserved":false,"is_disabled":false,"rental_uris":{"android":"levelo://app?vid=dd02dda1-0cf5-4e23-8f9a-88ca5953c398","ios":"levelo://app?vid=dd02dda1-0cf5-4e23-8f9a-88ca5953c398"},"vehicle_type_id":"4","last_reported":1731157943,"current_range_meters":12400,"station_id":"ce4bhgp2rcd13ifvqfd0","pricing_plan_id":"cebpf4jnsgd1na2vs0mg"},{"bike_id":"27e15419-d9b0-4647-890e-e21a7149b1cd","system_id":"levelo_inurba_marseille","lat":43.27071,"lon":5.42284,"is_reserved":false,"is_disabled":false,"rental_uris":{"android":"levelo://app?vid=27e15419-d9b0-4647-890e-e21a7149b1cd","ios":"levelo://app?vid=27e15419-d9b0-4647-890e-e21a7149b1cd"},"vehicle_type_id":"4","last_reported":1731157943,"current_range_meters":18800,"station_id":"ce4bhk92rcd13ifvqgb0","pricing_plan_id":"cebpf4jnsgd1na2vs0mg"},{"bike_id":"e0352fab-c635-4c7a-87d9-f615c078509d","system_id":"levelo_inurba_marseille","lat":43.32479,"lon":5.36568,"is_reserved":false,"is_disabled":false,"rental_uris":{"android":"levelo://app?vid=e0352fab-c635-4c7a-87d9-f615c078509d","ios":"levelo://app?vid=e0352fab-c635-4c7a-87d9-f615c078509d"},"vehicle_type_id":"4","last_reported":1731157943,"current_range_meters":38800,"station_id":"ce4bhs12rcd13ifvqhvg","pricing_plan_id":"cebpf4jnsgd1na2vs0mg"},{"bike_id":"c11f357c-d79a-45d0-936f-94a77be858bd","system_id":"levelo_inurba_marseille","lat":43.30471,"lon":5.37894,"is_reserved":false,"is_disabled":false,"rental_uris":{"android":"levelo://app?vid=c11f357c-d79a-45d0-936f-94a77be858bd","ios":"levelo://app?vid=c11f357c-d79a-45d0-936f-94a77be858bd"},"vehicle_type_id":"4","last_reported":1731157943,"current_range_meters":27600,"station_id":"ce4bgup2rcd13ifvqcn0","pricing_plan_id":"cebpf4jnsgd1na2vs0mg"},{"bike_id":"ab273fd7-da4a-40bb-b463-432fec7011cf","system_id":"levelo_inurba_marseille","lat":43.290214,"lon":5.381291,"is_reserved":false,"is_disabled":false,"rental_uris":{"android":"levelo://app?vid=ab273fd7-da4a-40bb-b463-432fec7011cf","ios":"levelo://app?vid=ab273fd7-da4a-40bb-b463-432fec7011cf"},"vehicle_type_id":"4","last_reported":1731157943,"current_range_meters":18000,"station_id":"ce4bh4p2rcd13ifvqe1g","pricing_plan_id":"cebpf4jnsgd1na2vs0mg"},{"bike_id":"2ca61654-9c49-4664-a59c-2f161d44cbb0","system_id":"levelo_inurba_marseille","lat":43.2508,"lon":5.39528,"is_reserved":false,"is_disabled":false,"rental_uris":{"android":"levelo://app?vid=2ca61654-9c49-4664-a59c-2f161d44cbb0","ios":"levelo://app?vid=2ca61654-9c49-4664-a59c-2f161d44cbb0"},"vehicle_type_id":"4","last_reported":1731157943,"current_range_meters":27200,"station_id":"ce4bhm12rcd13ifvqgkg","pricing_plan_id":"cebpf4jnsgd1na2vs0mg"},{"bike_id":"85c204c1-37d6-4b73-b6e0-dc44c53e6048","system_id":"levelo_inurba_marseille","lat":43.25498,"lon":5.37648,"is_reserved":false,"is_disabled":false,"rental_uris":{"android":"levelo://app?vid=85c204c1-37d6-4b73-b6e0-dc44c53e6048","ios":"levelo://app?vid=85c204c1-37d6-4b73-b6e0-dc44c53e6048"},"vehicle_type_id":"4","last_reported":1731157943,"current_range_meters":8400,"station_id":"ce4bhh12rcd13ifvqff0","pricing_plan_id":"cebpf4jnsgd1na2vs0mg"},{"bike_id":"4ea1f59a-f752-4316-9237-327a023fdf10","system_id":"levelo_inurba_marseille","lat":43.29042,"lon":5.39964,"is_reserved":false,"is_disabled":false,"rental_uris":{"android":"levelo://app?vid=4ea1f59a-f752-4316-9237-327a023fdf10","ios":"levelo://app?vid=4ea1f59a-f752-4316-9237-327a023fdf10"},"vehicle_type_id":"4","last_reported":1731157943,"current_range_meters":4000,"station_id":"ce4bh392rcd13ifvqdm0","pricing_plan_id":"cebpf4jnsgd1na2vs0mg"},{"bike_id":"2827cc9f-82f6-4e78-a38b-f277d2d99766","system_id":"levelo_inurba_marseille","lat":43.26556,"lon":5.37287,"is_reserved":false,"is_disabled":false,"rental_uris":{"android":"levelo://app?vid=2827cc9f-82f6-4e78-a38b-f277d2d99766","ios":"levelo://app?vid=2827cc9f-82f6-4e78-a38b-f277d2d99766"},"vehicle_type_id":"4","last_reported":1731157943,"current_range_meters":9600,"station_id":"ce4bhg12rcd13ifvqf70","pricing_plan_id":"cebpf4jnsgd1na2vs0mg"},{"bike_id":"c9335aa3-3a30-474d-be51-297d1ffdd594","system_id":"levelo_inurba_marseille","lat":43.29762,"lon":5.37105,"is_reserved":false,"is_disabled":false,"rental_uris":{"android":"levelo://app?vid=c9335aa3-3a30-474d-be51-297d1ffdd594","ios":"levelo://app?vid=c9335aa3-3a30-474d-be51-297d1ffdd594"},"vehicle_type_id":"4","last_reported":1731157943,"current_range_meters":22400,"station_id":"ce4bgop2rcd13ifvqc1g","pricing_plan_id":"cebpf4jnsgd1na2vs0mg"},{"bike_id":"acb02c07-d226-4660-9314-2d3c25bab19a","system_id":"levelo_inurba_marseille","lat":43.27982,"lon":5.4002,"is_reserved":false,"is_disabled":false,"rental_uris":{"android":"levelo://app?vid=acb02c07-d226-4660-9314-2d3c25bab19a","ios":"levelo://app?vid=acb02c07-d226-4660-9314-2d3c25bab19a"},"vehicle_type_id":"4","last_reported":1731157943,"current_range_meters":38800,"station_id":"ce4bho92rcd13ifvqh4g","pricing_plan_id":"cebpf4jnsgd1na2vs0mg"},{"bike_id":"16f0f65c-0669-48c2-8b88-c14a9f2b1043","system_id":"levelo_inurba_marseille","lat":43.292969,"lon":5.374507,"is_reserved":false,"is_disabled":false,"rental_uris":{"android":"levelo://app?vid=16f0f65c-0669-48c2-8b88-c14a9f2b1043","ios":"levelo://app?vid=16f0f65c-0669-48c2-8b88-c14a9f2b1043"},"vehicle_type_id":"4","last_reported":1731157943,"current_range_meters":35200,"station_id":"ce4bgi12rcd13ifvqb70","pricing_plan_id":"cebpf4jnsgd1na2vs0mg"},{"bike_id":"384cb49b-2903-4060-ba45-053ad32bcb68","system_id":"levelo_inurba_marseille","lat":43.29581,"lon":5.37506,"is_reserved":false,"is_disabled":false,"rental_uris":{"android":"levelo://app?vid=384cb49b-2903-4060-ba45-053ad32bcb68","ios":"levelo://app?vid=384cb49b-2903-4060-ba45-053ad32bcb68"},"vehicle_type_id":"4","last_reported":1731157943,"current_range_meters":18800,"station_id":"ce4bgh92rcd13ifvqb50","pricing_plan_id":"cebpf4jnsgd1na2vs0mg"},{"bike_id":"4adc051b-cab2-444f-a4c6-933d4708baf0","system_id":"levelo_inurba_marseille","lat":43.31723,"lon":5.4239,"is_reserved":false,"is_disabled":false,"rental_uris":{"android":"levelo://app?vid=4adc051b-cab2-444f-a4c6-933d4708baf0","ios":"levelo://app?vid=4adc051b-cab2-444f-a4c6-933d4708baf0"},"vehicle_type_id":"4","last_reported":1731157943,"current_range_meters":8800,"station_id":"ce4bhp92rcd13ifvqhbg","pricing_plan_id":"cebpf4jnsgd1na2vs0mg"},{"bike_id":"04e62d6c-5b6e-4399-8ba1-716c69d1f8fd","system_id":"levelo_inurba_marseille","lat":43.32019,"lon":5.414804,"is_reserved":false,"is_disabled":false,"rental_uris":{"android":"levelo://app?vid=04e62d6c-5b6e-4399-8ba1-716c69d1f8fd","ios":"levelo://app?vid=04e62d6c-5b6e-4399-8ba1-716c69d1f8fd"},"vehicle_type_id":"4","last_reported":1731157943,"current_range_meters":16800,"station_id":"ce4bhq92rcd13ifvqhkg","pricing_plan_id":"cebpf4jnsgd1na2vs0mg"},{"bike_id":"54f46eca-231b-4d4c-b044-5bfe4abbbaba","system_id":"levelo_inurba_marseille","lat":43.30482,"lon":5.37906,"is_reserved":false,"is_disabled":false,"rental_uris":{"android":"levelo://app?vid=54f46eca-231b-4d4c-b044-5bfe4abbbaba","ios":"levelo://app?vid=54f46eca-231b-4d4c-b044-5bfe4abbbaba"},"vehicle_type_id":"4","last_reported":1731157943,"current_range_meters":38800,"station_id":"ce4bgup2rcd13ifvqcn0","pricing_plan_id":"cebpf4jnsgd1na2vs0mg"},{"bike_id":"a61dfdc8-8032-4e2b-8bea-d0f6a2b05b1f","system_id":"levelo_inurba_marseille","lat":43.2396,"lon":5.3663,"is_reserved":false,"is_disabled":false,"rental_uris":{"android":"levelo://app?vid=a61dfdc8-8032-4e2b-8bea-d0f6a2b05b1f","ios":"levelo://app?vid=a61dfdc8-8032-4e2b-8bea-d0f6a2b05b1f"},"vehicle_type_id":"4","last_reported":1731157943,"current_range_meters":36400,"station_id":"ce4bhi12rcd13ifvqfp0","pricing_plan_id":"cebpf4jnsgd1na2vs0mg"},{"bike_id":"6b54858c-bc5b-496f-8214-24ed8c6674ec","system_id":"levelo_inurba_marseille","lat":43.28356,"lon":5.38621,"is_reserved":false,"is_disabled":false,"rental_uris":{"android":"levelo://app?vid=6b54858c-bc5b-496f-8214-24ed8c6674ec","ios":"levelo://app?vid=6b54858c-bc5b-496f-8214-24ed8c6674ec"},"vehicle_type_id":"4","last_reported":1731157943,"current_range_meters":39200,"station_id":"ce4bh492rcd13ifvqdvg","pricing_plan_id":"cebpf4jnsgd1na2vs0mg"},{"bike_id":"b7429e32-b8e0-4c3e-8242-1715408bee39","system_id":"levelo_inurba_marseille","lat":43.29801,"lon":5.38101,"is_reserved":false,"is_disabled":false,"rental_uris":{"android":"levelo://app?vid=b7429e32-b8e0-4c3e-8242-1715408bee39","ios":"levelo://app?vid=b7429e32-b8e0-4c3e-8242-1715408bee39"},"vehicle_type_id":"4","last_reported":1731157943,"current_range_meters":24400,"station_id":"ce4bgip2rcd13ifvqbb0","pricing_plan_id":"cebpf4jnsgd1na2vs0mg"},{"bike_id":"94cde044-789b-4897-959f-4a1e6d2027ca","system_id":"levelo_inurba_marseille","lat":43.31714,"lon":5.3776,"is_reserved":false,"is_disabled":false,"rental_uris":{"android":"levelo://app?vid=94cde044-789b-4897-959f-4a1e6d2027ca","ios":"levelo://app?vid=94cde044-789b-4897-959f-4a1e6d2027ca"},"vehicle_type_id":"4","last_reported":1731157943,"current_range_meters":38000,"station_id":"ce4bgth2rcd13ifvqch0","pricing_plan_id":"cebpf4jnsgd1na2vs0mg"},{"bike_id":"f52e1dc5-9e0a-4918-a85e-0347dc29de69","system_id":"levelo_inurba_marseille","lat":43.239631,"lon":5.366368,"is_reserved":false,"is_disabled":false,"rental_uris":{"android":"levelo://app?vid=f52e1dc5-9e0a-4918-a85e-0347dc29de69","ios":"levelo://app?vid=f52e1dc5-9e0a-4918-a85e-0347dc29de69"},"vehicle_type_id":"4","last_reported":1731157943,"current_range_meters":8000,"station_id":"ce4bhi12rcd13ifvqfp0","pricing_plan_id":"cebpf4jnsgd1na2vs0mg"},{"bike_id":"79b39923-b687-4420-a58b-1f85feafef16","system_id":"levelo_inurba_marseille","lat":43.29916,"lon":5.37469,"is_reserved":false,"is_disabled":false,"rental_uris":{"android":"levelo://app?vid=79b39923-b687-4420-a58b-1f85feafef16","ios":"levelo://app?vid=79b39923-b687-4420-a58b-1f85feafef16"},"vehicle_type_id":"4","last_reported":1731157943,"current_range_meters":39200,"station_id":"ce4bgjh2rcd13ifvqbg0","pricing_plan_id":"cebpf4jnsgd1na2vs0mg"},{"bike_id":"0f6dc062-e1e0-4046-9d08-d1bd72184d73","system_id":"levelo_inurba_marseille","lat":43.27842,"lon":5.39206,"is_reserved":false,"is_disabled":false,"rental_uris":{"android":"levelo://app?vid=0f6dc062-e1e0-4046-9d08-d1bd72184d73","ios":"levelo://app?vid=0f6dc062-e1e0-4046-9d08-d1bd72184d73"},"vehicle_type_id":"4","last_reported":1731157943,"current_range_meters":32000,"station_id":"ce4bhjp2rcd13ifvqga0","pricing_plan_id":"cebpf4jnsgd1na2vs0mg"},{"bike_id":"f17fb204-5529-4b65-acf9-98fe27fc52eb","system_id":"levelo_inurba_marseille","lat":43.286604,"lon":5.363602,"is_reserved":false,"is_disabled":false,"rental_uris":{"android":"levelo://app?vid=f17fb204-5529-4b65-acf9-98fe27fc52eb","ios":"levelo://app?vid=f17fb204-5529-4b65-acf9-98fe27fc52eb"},"vehicle_type_id":"4","last_reported":1731157943,"current_range_meters":37600,"station_id":"ce4bhah2rcd13ifvqej0","pricing_plan_id":"cebpf4jnsgd1na2vs0mg"},{"bike_id":"a3cc3458-b498-4eb7-8c2b-cf0b3c762eb9","system_id":"levelo_inurba_marseille","lat":43.27496,"lon":5.42456,"is_reserved":false,"is_disabled":false,"rental_uris":{"android":"levelo://app?vid=a3cc3458-b498-4eb7-8c2b-cf0b3c762eb9","ios":"levelo://app?vid=a3cc3458-b498-4eb7-8c2b-cf0b3c762eb9"},"vehicle_type_id":"4","last_reported":1731157943,"current_range_meters":17200,"station_id":"ce4bhn92rcd13ifvqgrg","pricing_plan_id":"cebpf4jnsgd1na2vs0mg"},{"bike_id":"0b74ce83-e6b1-4485-8ca6-3897f29a426e","system_id":"levelo_inurba_marseille","lat":43.23952,"lon":5.36624,"is_reserved":false,"is_disabled":false,"rental_uris":{"android":"levelo://app?vid=0b74ce83-e6b1-4485-8ca6-3897f29a426e","ios":"levelo://app?vid=0b74ce83-e6b1-4485-8ca6-3897f29a426e"},"vehicle_type_id":"4","last_reported":1731157943,"current_range_meters":16400,"station_id":"ce4bhi12rcd13ifvqfp0","pricing_plan_id":"cebpf4jnsgd1na2vs0mg"},{"bike_id":"1c833cb6-08de-4ab9-9196-1dfec70c7a8f","system_id":"levelo_inurba_marseille","lat":43.29083,"lon":5.37165,"is_reserved":false,"is_disabled":false,"rental_uris":{"android":"levelo://app?vid=1c833cb6-08de-4ab9-9196-1dfec70c7a8f","ios":"levelo://app?vid=1c833cb6-08de-4ab9-9196-1dfec70c7a8f"},"vehicle_type_id":"4","last_reported":1731157943,"current_range_meters":16800,"station_id":"ce4bh5p2rcd13ifvqe4g","pricing_plan_id":"cebpf4jnsgd1na2vs0mg"},{"bike_id":"b93674d7-a44c-4497-ae83-ecb2986d7d6a","system_id":"levelo_inurba_marseille","lat":43.29198,"lon":5.35802,"is_reserved":false,"is_disabled":false,"rental_uris":{"android":"levelo://app?vid=b93674d7-a44c-4497-ae83-ecb2986d7d6a","ios":"levelo://app?vid=b93674d7-a44c-4497-ae83-ecb2986d7d6a"},"vehicle_type_id":"4","last_reported":1731157943,"current_range_meters":22800,"station_id":"ce4bhb12rcd13ifvqel0","pricing_plan_id":"cebpf4jnsgd1na2vs0mg"},{"bike_id":"f94bdcbe-9a46-4c5f-879c-d5fc8c43084c","system_id":"levelo_inurba_marseille","lat":43.33019,"lon":5.39032,"is_reserved":false,"is_disabled":false,"rental_uris":{"android":"levelo://app?vid=f94bdcbe-9a46-4c5f-879c-d5fc8c43084c","ios":"levelo://app?vid=f94bdcbe-9a46-4c5f-879c-d5fc8c43084c"},"vehicle_type_id":"4","last_reported":1731157943,"current_range_meters":38800,"station_id":"ce4bhr92rcd13ifvqhrg","pricing_plan_id":"cebpf4jnsgd1na2vs0mg"},{"bike_id":"524de9a9-3b78-4a0a-a1fb-e79c8f18206b","system_id":"levelo_inurba_marseille","lat":43.26486,"lon":5.39553,"is_reserved":false,"is_disabled":false,"rental_uris":{"android":"levelo://app?vid=524de9a9-3b78-4a0a-a1fb-e79c8f18206b","ios":"levelo://app?vid=524de9a9-3b78-4a0a-a1fb-e79c8f18206b"},"vehicle_type_id":"4","last_reported":1731157943,"current_range_meters":20400,"station_id":"ce4bhi12rcd13ifvqfq0","pricing_plan_id":"cebpf4jnsgd1na2vs0mg"},{"bike_id":"737e318d-f108-4c95-991e-c706599395c0","system_id":"levelo_inurba_marseille","lat":43.30159,"lon":5.38083,"is_reserved":false,"is_disabled":false,"rental_uris":{"android":"levelo://app?vid=737e318d-f108-4c95-991e-c706599395c0","ios":"levelo://app?vid=737e318d-f108-4c95-991e-c706599395c0"},"vehicle_type_id":"4","last_reported":1731157943,"current_range_meters":34000,"station_id":"ce4bgjp2rcd13ifvqbh0","pricing_plan_id":"cebpf4jnsgd1na2vs0mg"},{"bike_id":"48381820-feac-4dad-b5f8-2a28183cfbb4","system_id":"levelo_inurba_marseille","lat":43.29291,"lon":5.37444,"is_reserved":false,"is_disabled":false,"rental_uris":{"android":"levelo://app?vid=48381820-feac-4dad-b5f8-2a28183cfbb4","ios":"levelo://app?vid=48381820-feac-4dad-b5f8-2a28183cfbb4"},"vehicle_type_id":"4","last_reported":1731157943,"current_range_meters":36800,"station_id":"ce4bgi12rcd13ifvqb70","pricing_plan_id":"cebpf4jnsgd1na2vs0mg"},{"bike_id":"3db43e91-a260-4c6c-ab05-9f642fd605d2","system_id":"levelo_inurba_marseille","lat":43.31495,"lon":5.37311,"is_reserved":false,"is_disabled":false,"rental_uris":{"android":"levelo://app?vid=3db43e91-a260-4c6c-ab05-9f642fd605d2","ios":"levelo://app?vid=3db43e91-a260-4c6c-ab05-9f642fd605d2"},"vehicle_type_id":"4","last_reported":1731157943,"current_range_meters":39200,"station_id":"ce4bgt12rcd13ifvqcd0","pricing_plan_id":"cebpf4jnsgd1na2vs0mg"},{"bike_id":"71684031-bf95-4fd4-bc38-0f4a696a2564","system_id":"levelo_inurba_marseille","lat":43.28418,"lon":5.3499,"is_reserved":false,"is_disabled":false,"rental_uris":{"android":"levelo://app?vid=71684031-bf95-4fd4-bc38-0f4a696a2564","ios":"levelo://app?vid=71684031-bf95-4fd4-bc38-0f4a696a2564"},"vehicle_type_id":"4","last_reported":1731157943,"current_range_meters":37600,"station_id":"ce4bhbh2rcd13ifvqepg","pricing_plan_id":"cebpf4jnsgd1na2vs0mg"},{"bike_id":"54c2dec2-48c7-432d-aa18-2348428c9daf","system_id":"levelo_inurba_marseille","lat":43.28148,"lon":5.42632,"is_reserved":false,"is_disabled":false,"rental_uris":{"android":"levelo://app?vid=54c2dec2-48c7-432d-aa18-2348428c9daf","ios":"levelo://app?vid=54c2dec2-48c7-432d-aa18-2348428c9daf"},"vehicle_type_id":"4","last_reported":1731157943,"current_range_meters":19600,"station_id":"ce4bhnh2rcd13ifvqgug","pricing_plan_id":"cebpf4jnsgd1na2vs0mg"},{"bike_id":"46ddf686-5e6f-4aa1-b9b3-9c4d3c94ab6b","system_id":"levelo_inurba_marseille","lat":43.294193,"lon":5.386208,"is_reserved":false,"is_disabled":false,"rental_uris":{"android":"levelo://app?vid=46ddf686-5e6f-4aa1-b9b3-9c4d3c94ab6b","ios":"levelo://app?vid=46ddf686-5e6f-4aa1-b9b3-9c4d3c94ab6b"},"vehicle_type_id":"4","last_reported":1731157943,"current_range_meters":8400,"station_id":"ce4bh2h2rcd13ifvqdh0","pricing_plan_id":"cebpf4jnsgd1na2vs0mg"},{"bike_id":"c4ac4c63-a5eb-4aaf-9c56-c345e5d69305","system_id":"levelo_inurba_marseille","lat":43.32488,"lon":5.36566,"is_reserved":false,"is_disabled":false,"rental_uris":{"android":"levelo://app?vid=c4ac4c63-a5eb-4aaf-9c56-c345e5d69305","ios":"levelo://app?vid=c4ac4c63-a5eb-4aaf-9c56-c345e5d69305"},"vehicle_type_id":"4","last_reported":1731157943,"current_range_meters":37600,"station_id":"ce4bhs12rcd13ifvqhvg","pricing_plan_id":"cebpf4jnsgd1na2vs0mg"},{"bike_id":"e25587c6-877f-4f52-8c15-cc2c600702de","system_id":"levelo_inurba_marseille","lat":43.25085,"lon":5.39523,"is_reserved":false,"is_disabled":false,"rental_uris":{"android":"levelo://app?vid=e25587c6-877f-4f52-8c15-cc2c600702de","ios":"levelo://app?vid=e25587c6-877f-4f52-8c15-cc2c600702de"},"vehicle_type_id":"4","last_reported":1731157943,"current_range_meters":30000,"station_id":"ce4bhm12rcd13ifvqgkg","pricing_plan_id":"cebpf4jnsgd1na2vs0mg"},{"bike_id":"9f811e9e-1098-4e75-8487-f783e1d11f51","system_id":"levelo_inurba_marseille","lat":43.2957,"lon":5.37512,"is_reserved":false,"is_disabled":false,"rental_uris":{"android":"levelo://app?vid=9f811e9e-1098-4e75-8487-f783e1d11f51","ios":"levelo://app?vid=9f811e9e-1098-4e75-8487-f783e1d11f51"},"vehicle_type_id":"4","last_reported":1731157943,"current_range_meters":33600,"station_id":"ce4bgh92rcd13ifvqb50","pricing_plan_id":"cebpf4jnsgd1na2vs0mg"},{"bike_id":"bd83e085-f7d9-4ba2-8431-0af70559cf55","system_id":"levelo_inurba_marseille","lat":43.25583,"lon":5.38239,"is_reserved":false,"is_disabled":false,"rental_uris":{"android":"levelo://app?vid=bd83e085-f7d9-4ba2-8431-0af70559cf55","ios":"levelo://app?vid=bd83e085-f7d9-4ba2-8431-0af70559cf55"},"vehicle_type_id":"4","last_reported":1731157943,"current_range_meters":38800,"station_id":"ce4bhih2rcd13ifvqfs0","pricing_plan_id":"cebpf4jnsgd1na2vs0mg"},{"bike_id":"d02b68f3-b750-4589-b9b1-f3bc7cf6b1d6","system_id":"levelo_inurba_marseille","lat":43.32487,"lon":5.3655,"is_reserved":false,"is_disabled":false,"rental_uris":{"android":"levelo://app?vid=d02b68f3-b750-4589-b9b1-f3bc7cf6b1d6","ios":"levelo://app?vid=d02b68f3-b750-4589-b9b1-f3bc7cf6b1d6"},"vehicle_type_id":"4","last_reported":1731157943,"current_range_meters":38800,"station_id":"ce4bhs12rcd13ifvqhvg","pricing_plan_id":"cebpf4jnsgd1na2vs0mg"},{"bike_id":"69d38419-f915-4ada-a460-f28c05bf4ad2","system_id":"levelo_inurba_marseille","lat":43.27069,"lon":5.42277,"is_reserved":false,"is_disabled":false,"rental_uris":{"android":"levelo://app?vid=69d38419-f915-4ada-a460-f28c05bf4ad2","ios":"levelo://app?vid=69d38419-f915-4ada-a460-f28c05bf4ad2"},"vehicle_type_id":"4","last_reported":1731157943,"current_range_meters":38800,"station_id":"ce4bhk92rcd13ifvqgb0","pricing_plan_id":"cebpf4jnsgd1na2vs0mg"},{"bike_id":"27bb3e92-fd46-45c8-91f8-4d07a645875d","system_id":"levelo_inurba_marseille","lat":43.261993,"lon":5.37444,"is_reserved":false,"is_disabled":false,"rental_uris":{"android":"levelo://app?vid=27bb3e92-fd46-45c8-91f8-4d07a645875d","ios":"levelo://app?vid=27bb3e92-fd46-45c8-91f8-4d07a645875d"},"vehicle_type_id":"4","last_reported":1731157943,"current_range_meters":29600,"station_id":"ce4bhih2rcd13ifvqfs0","pricing_plan_id":"cebpf4jnsgd1na2vs0mg"},{"bike_id":"7643d5f6-1000-4e84-ae3f-2ac4dc6b4fcd","system_id":"levelo_inurba_marseille","lat":43.24071,"lon":5.37754,"is_reserved":false,"is_disabled":false,"rental_uris":{"android":"levelo://app?vid=7643d5f6-1000-4e84-ae3f-2ac4dc6b4fcd","ios":"levelo://app?vid=7643d5f6-1000-4e84-ae3f-2ac4dc6b4fcd"},"vehicle_type_id":"4","last_reported":1731157943,"current_range_meters":20000,"station_id":"ce4bhnp2rcd13ifvqgvg","pricing_plan_id":"cebpf4jnsgd1na2vs0mg"},{"bike_id":"92c1c28d-c1db-45c9-9a43-64b04c4125bb","system_id":"levelo_inurba_marseille","lat":43.27565,"lon":5.38426,"is_reserved":false,"is_disabled":false,"rental_uris":{"android":"levelo://app?vid=92c1c28d-c1db-45c9-9a43-64b04c4125bb","ios":"levelo://app?vid=92c1c28d-c1db-45c9-9a43-64b04c4125bb"},"vehicle_type_id":"4","last_reported":1731157943,"current_range_meters":38400,"station_id":"ce4bhh92rcd13ifvqfi0","pricing_plan_id":"cebpf4jnsgd1na2vs0mg"},{"bike_id":"be94c940-c56d-4132-af66-fedb762b3e0f","system_id":"levelo_inurba_marseille","lat":43.23191,"lon":5.35562,"is_reserved":false,"is_disabled":false,"rental_uris":{"android":"levelo://app?vid=be94c940-c56d-4132-af66-fedb762b3e0f","ios":"levelo://app?vid=be94c940-c56d-4132-af66-fedb762b3e0f"},"vehicle_type_id":"4","last_reported":1731157943,"current_range_meters":37600,"station_id":"ce4bhu92rcd13ifvqi70","pricing_plan_id":"cebpf4jnsgd1na2vs0mg"},{"bike_id":"0cea8565-ae31-47df-82c7-9b4610846520","system_id":"levelo_inurba_marseille","lat":43.29983,"lon":5.37184,"is_reserved":false,"is_disabled":false,"rental_uris":{"android":"levelo://app?vid=0cea8565-ae31-47df-82c7-9b4610846520","ios":"levelo://app?vid=0cea8565-ae31-47df-82c7-9b4610846520"},"vehicle_type_id":"4","last_reported":1731157943,"current_range_meters":39200,"station_id":"ce4bgr92rcd13ifvqc7g","pricing_plan_id":"cebpf4jnsgd1na2vs0mg"},{"bike_id":"ffc639e0-ab74-412e-9ba0-dd9807811e48","system_id":"levelo_inurba_marseille","lat":43.2908,"lon":5.37178,"is_reserved":false,"is_disabled":false,"rental_uris":{"android":"levelo://app?vid=ffc639e0-ab74-412e-9ba0-dd9807811e48","ios":"levelo://app?vid=ffc639e0-ab74-412e-9ba0-dd9807811e48"},"vehicle_type_id":"4","last_reported":1731157943,"current_range_meters":17600,"station_id":"ce4bh5p2rcd13ifvqe4g","pricing_plan_id":"cebpf4jnsgd1na2vs0mg"},{"bike_id":"ae255d2b-6bc0-411a-bb67-99424e13ba8e","system_id":"levelo_inurba_marseille","lat":43.24392,"lon":5.37053,"is_reserved":false,"is_disabled":false,"rental_uris":{"android":"levelo://app?vid=ae255d2b-6bc0-411a-bb67-99424e13ba8e","ios":"levelo://app?vid=ae255d2b-6bc0-411a-bb67-99424e13ba8e"},"vehicle_type_id":"4","last_reported":1731157943,"current_range_meters":16400,"station_id":"ce4bhhh2rcd13ifvqfk0","pricing_plan_id":"cebpf4jnsgd1na2vs0mg"},{"bike_id":"2e446222-4ce8-40fc-a3a2-8b448957a322","system_id":"levelo_inurba_marseille","lat":43.30538,"lon":5.36531,"is_reserved":false,"is_disabled":false,"rental_uris":{"android":"levelo://app?vid=2e446222-4ce8-40fc-a3a2-8b448957a322","ios":"levelo://app?vid=2e446222-4ce8-40fc-a3a2-8b448957a322"},"vehicle_type_id":"4","last_reported":1731157943,"current_range_meters":20800,"station_id":"ce4bgs12rcd13ifvqcag","pricing_plan_id":"cebpf4jnsgd1na2vs0mg"},{"bike_id":"fd348b13-706e-4ff3-8500-3919757641a0","system_id":"levelo_inurba_marseille","lat":43.2961,"lon":5.38112,"is_reserved":false,"is_disabled":false,"rental_uris":{"android":"levelo://app?vid=fd348b13-706e-4ff3-8500-3919757641a0","ios":"levelo://app?vid=fd348b13-706e-4ff3-8500-3919757641a0"},"vehicle_type_id":"4","last_reported":1731157943,"current_range_meters":24800,"station_id":"ce4bgl12rcd13ifvqbo0","pricing_plan_id":"cebpf4jnsgd1na2vs0mg"},{"bike_id":"2b40c41f-9dd1-49d3-8b9c-bb05ff010543","system_id":"levelo_inurba_marseille","lat":43.27209,"lon":5.39188,"is_reserved":false,"is_disabled":false,"rental_uris":{"android":"levelo://app?vid=2b40c41f-9dd1-49d3-8b9c-bb05ff010543","ios":"levelo://app?vid=2b40c41f-9dd1-49d3-8b9c-bb05ff010543"},"vehicle_type_id":"4","last_reported":1731157943,"current_range_meters":38800,"station_id":"ce4bhhp2rcd13ifvqfm0","pricing_plan_id":"cebpf4jnsgd1na2vs0mg"},{"bike_id":"84135bcf-918d-4b03-9327-a561e78a6d1f","system_id":"levelo_inurba_marseille","lat":43.29043,"lon":5.37559,"is_reserved":false,"is_disabled":false,"rental_uris":{"android":"levelo://app?vid=84135bcf-918d-4b03-9327-a561e78a6d1f","ios":"levelo://app?vid=84135bcf-918d-4b03-9327-a561e78a6d1f"},"vehicle_type_id":"4","last_reported":1731157943,"current_range_meters":20400,"station_id":"ce4bh692rcd13ifvqe90","pricing_plan_id":"cebpf4jnsgd1na2vs0mg"},{"bike_id":"42911603-79cc-4bdc-b1af-c2f11553c796","system_id":"levelo_inurba_marseille","lat":43.29727,"lon":5.3769,"is_reserved":false,"is_disabled":false,"rental_uris":{"android":"levelo://app?vid=42911603-79cc-4bdc-b1af-c2f11553c796","ios":"levelo://app?vid=42911603-79cc-4bdc-b1af-c2f11553c796"},"vehicle_type_id":"4","last_reported":1731157943,"current_range_meters":39200,"station_id":"ce4bgkh2rcd13ifvqbl0","pricing_plan_id":"cebpf4jnsgd1na2vs0mg"},{"bike_id":"b78fdf6a-a499-4b95-b8b1-2036284631f4","system_id":"levelo_inurba_marseille","lat":43.25938,"lon":5.40905,"is_reserved":false,"is_disabled":false,"rental_uris":{"android":"levelo://app?vid=b78fdf6a-a499-4b95-b8b1-2036284631f4","ios":"levelo://app?vid=b78fdf6a-a499-4b95-b8b1-2036284631f4"},"vehicle_type_id":"4","last_reported":1731157943,"current_range_meters":28800,"station_id":"ce4bhm92rcd13ifvqglg","pricing_plan_id":"cebpf4jnsgd1na2vs0mg"},{"bike_id":"595004d4-9615-4ec1-a531-98b8c87e1bbb","system_id":"levelo_inurba_marseille","lat":43.231824,"lon":5.399917,"is_reserved":false,"is_disabled":false,"rental_uris":{"android":"levelo://app?vid=595004d4-9615-4ec1-a531-98b8c87e1bbb","ios":"levelo://app?vid=595004d4-9615-4ec1-a531-98b8c87e1bbb"},"vehicle_type_id":"4","last_reported":1731157943,"current_range_meters":32000,"station_id":"ce4bhn12rcd13ifvqgqg","pricing_plan_id":"cebpf4jnsgd1na2vs0mg"},{"bike_id":"4c20c7a4-504a-4b1b-b962-0625708c5f1c","system_id":"levelo_inurba_marseille","lat":43.29904,"lon":5.37463,"is_reserved":false,"is_disabled":false,"rental_uris":{"android":"levelo://app?vid=4c20c7a4-504a-4b1b-b962-0625708c5f1c","ios":"levelo://app?vid=4c20c7a4-504a-4b1b-b962-0625708c5f1c"},"vehicle_type_id":"4","last_reported":1731157943,"current_range_meters":38800,"station_id":"ce4bgjh2rcd13ifvqbg0","pricing_plan_id":"cebpf4jnsgd1na2vs0mg"},{"bike_id":"6314cb35-e978-482c-8cb5-771eefad03f4","system_id":"levelo_inurba_marseille","lat":43.269492,"lon":5.386511,"is_reserved":false,"is_disabled":false,"rental_uris":{"android":"levelo://app?vid=6314cb35-e978-482c-8cb5-771eefad03f4","ios":"levelo://app?vid=6314cb35-e978-482c-8cb5-771eefad03f4"},"vehicle_type_id":"4","last_reported":1731157943,"current_range_meters":26000,"station_id":"ce4bhh92rcd13ifvqfh0","pricing_plan_id":"cebpf4jnsgd1na2vs0mg"},{"bike_id":"be3cd0a1-c8ad-4e86-abf4-0abf1d2a3756","system_id":"levelo_inurba_marseille","lat":43.29726,"lon":5.37712,"is_reserved":false,"is_disabled":false,"rental_uris":{"android":"levelo://app?vid=be3cd0a1-c8ad-4e86-abf4-0abf1d2a3756","ios":"levelo://app?vid=be3cd0a1-c8ad-4e86-abf4-0abf1d2a3756"},"vehicle_type_id":"4","last_reported":1731157943,"current_range_meters":37600,"station_id":"ce4bgkh2rcd13ifvqbl0","pricing_plan_id":"cebpf4jnsgd1na2vs0mg"},{"bike_id":"1836ff23-dbf9-4cf8-a5fb-1cd14815cd9d","system_id":"levelo_inurba_marseille","lat":43.29989,"lon":5.38483,"is_reserved":false,"is_disabled":false,"rental_uris":{"android":"levelo://app?vid=1836ff23-dbf9-4cf8-a5fb-1cd14815cd9d","ios":"levelo://app?vid=1836ff23-dbf9-4cf8-a5fb-1cd14815cd9d"},"vehicle_type_id":"4","last_reported":1731157943,"current_range_meters":8400,"station_id":"ce4bgj92rcd13ifvqbd0","pricing_plan_id":"cebpf4jnsgd1na2vs0mg"},{"bike_id":"0e9a4ada-34ed-411c-8043-39471e2fa118","system_id":"levelo_inurba_marseille","lat":43.24392,"lon":5.37052,"is_reserved":false,"is_disabled":false,"rental_uris":{"android":"levelo://app?vid=0e9a4ada-34ed-411c-8043-39471e2fa118","ios":"levelo://app?vid=0e9a4ada-34ed-411c-8043-39471e2fa118"},"vehicle_type_id":"4","last_reported":1731157943,"current_range_meters":26800,"station_id":"ce4bhhh2rcd13ifvqfk0","pricing_plan_id":"cebpf4jnsgd1na2vs0mg"},{"bike_id":"02f3bd69-c440-439f-96d2-1f56246cbb70","system_id":"levelo_inurba_marseille","lat":43.2306,"lon":5.35489,"is_reserved":false,"is_disabled":false,"rental_uris":{"android":"levelo://app?vid=02f3bd69-c440-439f-96d2-1f56246cbb70","ios":"levelo://app?vid=02f3bd69-c440-439f-96d2-1f56246cbb70"},"vehicle_type_id":"4","last_reported":1731157943,"current_range_meters":27600,"station_id":"cpo3342slgdg3j2ifvpg","pricing_plan_id":"cebpf4jnsgd1na2vs0mg"},{"bike_id":"7be60112-f079-4813-8267-7edf586b1d7d","system_id":"levelo_inurba_marseille","lat":43.2938,"lon":5.37853,"is_reserved":false,"is_disabled":false,"rental_uris":{"android":"levelo://app?vid=7be60112-f079-4813-8267-7edf586b1d7d","ios":"levelo://app?vid=7be60112-f079-4813-8267-7edf586b1d7d"},"vehicle_type_id":"4","last_reported":1731157943,"current_range_meters":36800,"station_id":"ce4bgjh2rcd13ifvqbf0","pricing_plan_id":"cebpf4jnsgd1na2vs0mg"},{"bike_id":"a4e75600-1855-4ea2-b151-089cab3b6b2f","system_id":"levelo_inurba_marseille","lat":43.30554,"lon":5.38434,"is_reserved":false,"is_disabled":false,"rental_uris":{"android":"levelo://app?vid=a4e75600-1855-4ea2-b151-089cab3b6b2f","ios":"levelo://app?vid=a4e75600-1855-4ea2-b151-089cab3b6b2f"},"vehicle_type_id":"4","last_reported":1731157943,"current_range_meters":36000,"station_id":"ce4bgg92rcd13ifvqb30","pricing_plan_id":"cebpf4jnsgd1na2vs0mg"},{"bike_id":"2ccec235-6efd-44ae-9903-53780dc8064c","system_id":"levelo_inurba_marseille","lat":43.27951,"lon":5.41052,"is_reserved":false,"is_disabled":false,"rental_uris":{"android":"levelo://app?vid=2ccec235-6efd-44ae-9903-53780dc8064c","ios":"levelo://app?vid=2ccec235-6efd-44ae-9903-53780dc8064c"},"vehicle_type_id":"4","last_reported":1731157943,"current_range_meters":38800,"station_id":"ce4bhnp2rcd13ifvqh0g","pricing_plan_id":"cebpf4jnsgd1na2vs0mg"},{"bike_id":"ad1afd53-6634-44c3-a38b-ff5f0ea66a50","system_id":"levelo_inurba_marseille","lat":43.309465,"lon":5.390449,"is_reserved":false,"is_disabled":false,"rental_uris":{"android":"levelo://app?vid=ad1afd53-6634-44c3-a38b-ff5f0ea66a50","ios":"levelo://app?vid=ad1afd53-6634-44c3-a38b-ff5f0ea66a50"},"vehicle_type_id":"4","last_reported":1731157943,"current_range_meters":6800,"station_id":"ce4bgup2rcd13ifvqco0","pricing_plan_id":"cebpf4jnsgd1na2vs0mg"},{"bike_id":"408df442-c90e-42d3-a0cf-f5c8f090bfe6","system_id":"levelo_inurba_marseille","lat":43.30535,"lon":5.3655,"is_reserved":false,"is_disabled":false,"rental_uris":{"android":"levelo://app?vid=408df442-c90e-42d3-a0cf-f5c8f090bfe6","ios":"levelo://app?vid=408df442-c90e-42d3-a0cf-f5c8f090bfe6"},"vehicle_type_id":"4","last_reported":1731157943,"current_range_meters":25200,"station_id":"ce4bgs12rcd13ifvqcag","pricing_plan_id":"cebpf4jnsgd1na2vs0mg"},{"bike_id":"0c54f8f2-c35b-41c0-8c23-b2c877f1e3cb","system_id":"levelo_inurba_marseille","lat":43.290346,"lon":5.399665,"is_reserved":false,"is_disabled":false,"rental_uris":{"android":"levelo://app?vid=0c54f8f2-c35b-41c0-8c23-b2c877f1e3cb","ios":"levelo://app?vid=0c54f8f2-c35b-41c0-8c23-b2c877f1e3cb"},"vehicle_type_id":"4","last_reported":1731157943,"current_range_meters":19600,"station_id":"ce4bh392rcd13ifvqdm0","pricing_plan_id":"cebpf4jnsgd1na2vs0mg"},{"bike_id":"c3cae747-1840-4e85-b0e3-f2a4aea40a4a","system_id":"levelo_inurba_marseille","lat":43.31354,"lon":5.39152,"is_reserved":false,"is_disabled":false,"rental_uris":{"android":"levelo://app?vid=c3cae747-1840-4e85-b0e3-f2a4aea40a4a","ios":"levelo://app?vid=c3cae747-1840-4e85-b0e3-f2a4aea40a4a"},"vehicle_type_id":"4","last_reported":1731157943,"current_range_meters":3600,"station_id":"","pricing_plan_id":"cebpf4jnsgd1na2vs0mg"},{"bike_id":"1fa8b915-fc35-459c-ba23-8165fbe83a3e","system_id":"levelo_inurba_marseille","lat":43.29264,"lon":5.40911,"is_reserved":false,"is_disabled":false,"rental_uris":{"android":"levelo://app?vid=1fa8b915-fc35-459c-ba23-8165fbe83a3e","ios":"levelo://app?vid=1fa8b915-fc35-459c-ba23-8165fbe83a3e"},"vehicle_type_id":"4","last_reported":1731157943,"current_range_meters":33600,"station_id":"ce4bh192rcd13ifvqdc0","pricing_plan_id":"cebpf4jnsgd1na2vs0mg"},{"bike_id":"a30775bb-33e3-4425-a80c-7fba1d330054","system_id":"levelo_inurba_marseille","lat":43.29851,"lon":5.36285,"is_reserved":false,"is_disabled":false,"rental_uris":{"android":"levelo://app?vid=a30775bb-33e3-4425-a80c-7fba1d330054","ios":"levelo://app?vid=a30775bb-33e3-4425-a80c-7fba1d330054"},"vehicle_type_id":"4","last_reported":1731157943,"current_range_meters":30400,"station_id":"ce4bgpp2rcd13ifvqc3g","pricing_plan_id":"cebpf4jnsgd1na2vs0mg"},{"bike_id":"b8d522c5-95d0-4c18-be9f-2dac6b3e8804","system_id":"levelo_inurba_marseille","lat":43.29536,"lon":5.3751,"is_reserved":false,"is_disabled":false,"rental_uris":{"android":"levelo://app?vid=b8d522c5-95d0-4c18-be9f-2dac6b3e8804","ios":"levelo://app?vid=b8d522c5-95d0-4c18-be9f-2dac6b3e8804"},"vehicle_type_id":"4","last_reported":1731157943,"current_range_meters":37600,"station_id":"ce4bgkp2rcd13ifvqbmg","pricing_plan_id":"cebpf4jnsgd1na2vs0mg"},{"bike_id":"d2fab2fc-0dfc-4285-8324-8b3977915fe9","system_id":"levelo_inurba_marseille","lat":43.23973,"lon":5.36634,"is_reserved":false,"is_disabled":false,"rental_uris":{"android":"levelo://app?vid=d2fab2fc-0dfc-4285-8324-8b3977915fe9","ios":"levelo://app?vid=d2fab2fc-0dfc-4285-8324-8b3977915fe9"},"vehicle_type_id":"4","last_reported":1731157943,"current_range_meters":20000,"station_id":"ce4bhi12rcd13ifvqfp0","pricing_plan_id":"cebpf4jnsgd1na2vs0mg"},{"bike_id":"62f2307e-109a-477e-94c3-db0e5158fbfd","system_id":"levelo_inurba_marseille","lat":43.30548,"lon":5.38432,"is_reserved":false,"is_disabled":false,"rental_uris":{"android":"levelo://app?vid=62f2307e-109a-477e-94c3-db0e5158fbfd","ios":"levelo://app?vid=62f2307e-109a-477e-94c3-db0e5158fbfd"},"vehicle_type_id":"4","last_reported":1731157943,"current_range_meters":34800,"station_id":"ce4bgg92rcd13ifvqb30","pricing_plan_id":"cebpf4jnsgd1na2vs0mg"},{"bike_id":"aa9c5834-9a5b-484f-afba-7141737a876b","system_id":"levelo_inurba_marseille","lat":43.24392,"lon":5.37063,"is_reserved":false,"is_disabled":false,"rental_uris":{"android":"levelo://app?vid=aa9c5834-9a5b-484f-afba-7141737a876b","ios":"levelo://app?vid=aa9c5834-9a5b-484f-afba-7141737a876b"},"vehicle_type_id":"4","last_reported":1731157943,"current_range_meters":38800,"station_id":"ce4bhhh2rcd13ifvqfk0","pricing_plan_id":"cebpf4jnsgd1na2vs0mg"},{"bike_id":"63bc1315-8e2f-4c8e-be66-9054a5945e47","system_id":"levelo_inurba_marseille","lat":43.32039,"lon":5.41573,"is_reserved":false,"is_disabled":false,"rental_uris":{"android":"levelo://app?vid=63bc1315-8e2f-4c8e-be66-9054a5945e47","ios":"levelo://app?vid=63bc1315-8e2f-4c8e-be66-9054a5945e47"},"vehicle_type_id":"4","last_reported":1731157943,"current_range_meters":6400,"station_id":"ce4bhq92rcd13ifvqhkg","pricing_plan_id":"cebpf4jnsgd1na2vs0mg"},{"bike_id":"fa2a5e5c-6495-412b-a165-472e0f27db6f","system_id":"levelo_inurba_marseille","lat":43.25501,"lon":5.3765,"is_reserved":false,"is_disabled":false,"rental_uris":{"android":"levelo://app?vid=fa2a5e5c-6495-412b-a165-472e0f27db6f","ios":"levelo://app?vid=fa2a5e5c-6495-412b-a165-472e0f27db6f"},"vehicle_type_id":"4","last_reported":1731157943,"current_range_meters":22400,"station_id":"ce4bhh12rcd13ifvqff0","pricing_plan_id":"cebpf4jnsgd1na2vs0mg"},{"bike_id":"ff88e31e-6c4d-48c0-aadf-0b6b9c81568e","system_id":"levelo_inurba_marseille","lat":43.33772,"lon":5.3744,"is_reserved":false,"is_disabled":false,"rental_uris":{"android":"levelo://app?vid=ff88e31e-6c4d-48c0-aadf-0b6b9c81568e","ios":"levelo://app?vid=ff88e31e-6c4d-48c0-aadf-0b6b9c81568e"},"vehicle_type_id":"4","last_reported":1731157943,"current_range_meters":37600,"station_id":"","pricing_plan_id":"cebpf4jnsgd1na2vs0mg"},{"bike_id":"72102d18-76ae-4446-bfc3-54adf7b0e920","system_id":"levelo_inurba_marseille","lat":43.30924,"lon":5.40148,"is_reserved":false,"is_disabled":false,"rental_uris":{"android":"levelo://app?vid=72102d18-76ae-4446-bfc3-54adf7b0e920","ios":"levelo://app?vid=72102d18-76ae-4446-bfc3-54adf7b0e920"},"vehicle_type_id":"4","last_reported":1731157943,"current_range_meters":6400,"station_id":"ce4bgvp2rcd13ifvqct0","pricing_plan_id":"cebpf4jnsgd1na2vs0mg"},{"bike_id":"b3f7bf53-2770-4f0b-836b-ce2a121fa3f7","system_id":"levelo_inurba_marseille","lat":43.23958,"lon":5.36622,"is_reserved":false,"is_disabled":false,"rental_uris":{"android":"levelo://app?vid=b3f7bf53-2770-4f0b-836b-ce2a121fa3f7","ios":"levelo://app?vid=b3f7bf53-2770-4f0b-836b-ce2a121fa3f7"},"vehicle_type_id":"4","last_reported":1731157943,"current_range_meters":24800,"station_id":"ce4bhi12rcd13ifvqfp0","pricing_plan_id":"cebpf4jnsgd1na2vs0mg"},{"bike_id":"0d07bfa0-3498-4a0e-9428-ea8e98b6db91","system_id":"levelo_inurba_marseille","lat":43.293064,"lon":5.371714,"is_reserved":false,"is_disabled":false,"rental_uris":{"android":"levelo://app?vid=0d07bfa0-3498-4a0e-9428-ea8e98b6db91","ios":"levelo://app?vid=0d07bfa0-3498-4a0e-9428-ea8e98b6db91"},"vehicle_type_id":"4","last_reported":1731157943,"current_range_meters":20000,"station_id":"ce4bgh92rcd13ifvqb40","pricing_plan_id":"cebpf4jnsgd1na2vs0mg"},{"bike_id":"fae23e63-a0dd-4c84-a137-063689159d4e","system_id":"levelo_inurba_marseille","lat":43.29301,"lon":5.3718,"is_reserved":false,"is_disabled":false,"rental_uris":{"android":"levelo://app?vid=fae23e63-a0dd-4c84-a137-063689159d4e","ios":"levelo://app?vid=fae23e63-a0dd-4c84-a137-063689159d4e"},"vehicle_type_id":"4","last_reported":1731157943,"current_range_meters":36000,"station_id":"ce4bgh92rcd13ifvqb40","pricing_plan_id":"cebpf4jnsgd1na2vs0mg"},{"bike_id":"c0a52d17-cbb9-4fc8-81d7-31b6a7874899","system_id":"levelo_inurba_marseille","lat":43.23965,"lon":5.3662,"is_reserved":false,"is_disabled":false,"rental_uris":{"android":"levelo://app?vid=c0a52d17-cbb9-4fc8-81d7-31b6a7874899","ios":"levelo://app?vid=c0a52d17-cbb9-4fc8-81d7-31b6a7874899"},"vehicle_type_id":"4","last_reported":1731157943,"current_range_meters":36400,"station_id":"ce4bhi12rcd13ifvqfp0","pricing_plan_id":"cebpf4jnsgd1na2vs0mg"},{"bike_id":"3ff95cd9-421a-47ca-af0d-0da6f36df39c","system_id":"levelo_inurba_marseille","lat":43.29907,"lon":5.38127,"is_reserved":false,"is_disabled":false,"rental_uris":{"android":"levelo://app?vid=3ff95cd9-421a-47ca-af0d-0da6f36df39c","ios":"levelo://app?vid=3ff95cd9-421a-47ca-af0d-0da6f36df39c"},"vehicle_type_id":"4","last_reported":1731157943,"current_range_meters":32000,"station_id":"ce4bgj12rcd13ifvqbc0","pricing_plan_id":"cebpf4jnsgd1na2vs0mg"},{"bike_id":"b21b9445-5082-4915-b8e8-55b503d70d74","system_id":"levelo_inurba_marseille","lat":43.28673,"lon":5.38658,"is_reserved":false,"is_disabled":false,"rental_uris":{"android":"levelo://app?vid=b21b9445-5082-4915-b8e8-55b503d70d74","ios":"levelo://app?vid=b21b9445-5082-4915-b8e8-55b503d70d74"},"vehicle_type_id":"4","last_reported":1731157943,"current_range_meters":27600,"station_id":"ce4bgkh2rcd13ifvqbl0","pricing_plan_id":"cebpf4jnsgd1na2vs0mg"},{"bike_id":"4c07837e-0d50-4e06-b253-03141c23a37b","system_id":"levelo_inurba_marseille","lat":43.32483,"lon":5.3656,"is_reserved":false,"is_disabled":false,"rental_uris":{"android":"levelo://app?vid=4c07837e-0d50-4e06-b253-03141c23a37b","ios":"levelo://app?vid=4c07837e-0d50-4e06-b253-03141c23a37b"},"vehicle_type_id":"4","last_reported":1731157943,"current_range_meters":39200,"station_id":"ce4bhs12rcd13ifvqhvg","pricing_plan_id":"cebpf4jnsgd1na2vs0mg"},{"bike_id":"dcaf98d6-0e1a-4240-a220-b0ff2fcb567a","system_id":"levelo_inurba_marseille","lat":43.33783,"lon":5.37419,"is_reserved":false,"is_disabled":false,"rental_uris":{"android":"levelo://app?vid=dcaf98d6-0e1a-4240-a220-b0ff2fcb567a","ios":"levelo://app?vid=dcaf98d6-0e1a-4240-a220-b0ff2fcb567a"},"vehicle_type_id":"4","last_reported":1731157943,"current_range_meters":38800,"station_id":"","pricing_plan_id":"cebpf4jnsgd1na2vs0mg"},{"bike_id":"c5052c44-fbe0-4a10-9c16-1bfdaa553452","system_id":"levelo_inurba_marseille","lat":43.26354,"lon":5.37517,"is_reserved":false,"is_disabled":false,"rental_uris":{"android":"levelo://app?vid=c5052c44-fbe0-4a10-9c16-1bfdaa553452","ios":"levelo://app?vid=c5052c44-fbe0-4a10-9c16-1bfdaa553452"},"vehicle_type_id":"4","last_reported":1731157943,"current_range_meters":24800,"station_id":"","pricing_plan_id":"cebpf4jnsgd1na2vs0mg"},{"bike_id":"aface075-8aad-44db-aa85-d812a3eed96b","system_id":"levelo_inurba_marseille","lat":43.2911,"lon":5.38143,"is_reserved":false,"is_disabled":false,"rental_uris":{"android":"levelo://app?vid=aface075-8aad-44db-aa85-d812a3eed96b","ios":"levelo://app?vid=aface075-8aad-44db-aa85-d812a3eed96b"},"vehicle_type_id":"4","last_reported":1731157943,"current_range_meters":24800,"station_id":"ce4bh512rcd13ifvqe2g","pricing_plan_id":"cebpf4jnsgd1na2vs0mg"},{"bike_id":"683608f0-97cb-4e5c-85b7-72460c490508","system_id":"levelo_inurba_marseille","lat":43.2956,"lon":5.37527,"is_reserved":false,"is_disabled":false,"rental_uris":{"android":"levelo://app?vid=683608f0-97cb-4e5c-85b7-72460c490508","ios":"levelo://app?vid=683608f0-97cb-4e5c-85b7-72460c490508"},"vehicle_type_id":"4","last_reported":1731157943,"current_range_meters":38400,"station_id":"ce4bgh92rcd13ifvqb50","pricing_plan_id":"cebpf4jnsgd1na2vs0mg"},{"bike_id":"02f897a2-4e8e-4cc9-be77-4bb88624111e","system_id":"levelo_inurba_marseille","lat":43.30048,"lon":5.37572,"is_reserved":false,"is_disabled":false,"rental_uris":{"android":"levelo://app?vid=02f897a2-4e8e-4cc9-be77-4bb88624111e","ios":"levelo://app?vid=02f897a2-4e8e-4cc9-be77-4bb88624111e"},"vehicle_type_id":"4","last_reported":1731157943,"current_range_meters":24400,"station_id":"","pricing_plan_id":"cebpf4jnsgd1na2vs0mg"},