{"last_updated":1778967484,"ttl":60,"version":"2.2","data":{"bikes":[{"bike_id":"6c1fd2f0-5f1e-475c-8d2e-adc5a11b3c97","system_id":"levelo_inurba_marseille","lat":43.294024,"lon":5.373619,"is_reserved":false,"is_disabled":false,"rental_uris":{"android":"levelo://app?vid=6c1fd2f0-5f1e-475c-8d2e-adc5a11b3c97","ios":"levelo://app?vid=6c1fd2f0-5f1e-475c-8d2e-adc5a11b3c97"},"vehicle_type_id":"4","last_reported":1778967485,"current_range_meters":2800,"station_id":"ce4bhb92rcd13ifvqen0","pricing_plan_id":"cebpf4jnsgd1na2vs0mg"},{"bike_id":"b3d03aaf-fdb7-42c0-adb2-be319ec0a3a7","system_id":"levelo_inurba_marseille","lat":43.262105,"lon":5.374414,"is_reserved":false,"is_disabled":false,"rental_uris":{"android":"levelo://app?vid=b3d03aaf-fdb7-42c0-adb2-be319ec0a3a7","ios":"levelo://app?vid=b3d03aaf-fdb7-42c0-adb2-be319ec0a3a7"},"vehicle_type_id":"4","last_reported":1778967485,"current_range_meters":2800,"station_id":"ce4bhgp2rcd13ifvqfc0","pricing_plan_id":"cebpf4jnsgd1na2vs0mg"},{"bike_id":"4c1456b4-c5f4-49ed-bd33-6f63525d7c4f","system_id":"levelo_inurba_marseille","lat":43.27977,"lon":5.3874,"is_reserved":false,"is_disabled":true,"rental_uris":{"android":"levelo://app?vid=4c1456b4-c5f4-49ed-bd33-6f63525d7c4f","ios":"levelo://app?vid=4c1456b4-c5f4-49ed-bd33-6f63525d7c4f"},"vehicle_type_id":"4","last_reported":1778967485,"current_range_meters":2800,"station_id":"ce4bhg12rcd13ifvqf80","pricing_plan_id":"cebpf4jnsgd1na2vs0mg"},{"bike_id":"f70a14e6-18ba-464f-9238-f7379fc601b8","system_id":"levelo_inurba_marseille","lat":43.303074,"lon":5.368933,"is_reserved":false,"is_disabled":false,"rental_uris":{"android":"levelo://app?vid=f70a14e6-18ba-464f-9238-f7379fc601b8","ios":"levelo://app?vid=f70a14e6-18ba-464f-9238-f7379fc601b8"},"vehicle_type_id":"4","last_reported":1778967485,"current_range_meters":2800,"station_id":"ce4bgqh2rcd13ifvqc5g","pricing_plan_id":"cebpf4jnsgd1na2vs0mg"},{"bike_id":"7b64bf60-0aa5-4402-b524-02a2dc55ea99","system_id":"levelo_inurba_marseille","lat":43.25574,"lon":5.38215,"is_reserved":false,"is_disabled":true,"rental_uris":{"android":"levelo://app?vid=7b64bf60-0aa5-4402-b524-02a2dc55ea99","ios":"levelo://app?vid=7b64bf60-0aa5-4402-b524-02a2dc55ea99"},"vehicle_type_id":"4","last_reported":1778967485,"current_range_meters":2800,"station_id":"ce4bhih2rcd13ifvqfs0","pricing_plan_id":"cebpf4jnsgd1na2vs0mg"},{"bike_id":"f71c41f4-75b7-46bd-9428-5d62097684bc","system_id":"levelo_inurba_marseille","lat":43.24661,"lon":5.38164,"is_reserved":false,"is_disabled":false,"rental_uris":{"android":"levelo://app?vid=f71c41f4-75b7-46bd-9428-5d62097684bc","ios":"levelo://app?vid=f71c41f4-75b7-46bd-9428-5d62097684bc"},"vehicle_type_id":"4","last_reported":1778967485,"current_range_meters":2800,"station_id":"ce4bhih2rcd13ifvqfr0","pricing_plan_id":"cebpf4jnsgd1na2vs0mg"},{"bike_id":"e5548365-1a4d-4417-a375-d0d3c226770b","system_id":"levelo_inurba_marseille","lat":43.2948,"lon":5.38595,"is_reserved":false,"is_disabled":false,"rental_uris":{"android":"levelo://app?vid=e5548365-1a4d-4417-a375-d0d3c226770b","ios":"levelo://app?vid=e5548365-1a4d-4417-a375-d0d3c226770b"},"vehicle_type_id":"4","last_reported":1778967485,"current_range_meters":3200,"station_id":"","pricing_plan_id":"cebpf4jnsgd1na2vs0mg"},{"bike_id":"305f8012-853c-4e5c-b4a3-badea1215a44","system_id":"levelo_inurba_marseille","lat":43.33754,"lon":5.37506,"is_reserved":false,"is_disabled":false,"rental_uris":{"android":"levelo://app?vid=305f8012-853c-4e5c-b4a3-badea1215a44","ios":"levelo://app?vid=305f8012-853c-4e5c-b4a3-badea1215a44"},"vehicle_type_id":"4","last_reported":1778967485,"current_range_meters":3200,"station_id":"","pricing_plan_id":"cebpf4jnsgd1na2vs0mg"},{"bike_id":"9683986e-4314-40de-86a1-59846036f2cb","system_id":"levelo_inurba_marseille","lat":43.29035,"lon":5.37557,"is_reserved":false,"is_disabled":false,"rental_uris":{"android":"levelo://app?vid=9683986e-4314-40de-86a1-59846036f2cb","ios":"levelo://app?vid=9683986e-4314-40de-86a1-59846036f2cb"},"vehicle_type_id":"4","last_reported":1778967485,"current_range_meters":3200,"station_id":"ce4bh692rcd13ifvqe90","pricing_plan_id":"cebpf4jnsgd1na2vs0mg"},{"bike_id":"80632495-c7ff-4cba-9183-eebaa8aaede2","system_id":"levelo_inurba_marseille","lat":43.29034,"lon":5.37566,"is_reserved":false,"is_disabled":false,"rental_uris":{"android":"levelo://app?vid=80632495-c7ff-4cba-9183-eebaa8aaede2","ios":"levelo://app?vid=80632495-c7ff-4cba-9183-eebaa8aaede2"},"vehicle_type_id":"4","last_reported":1778967485,"current_range_meters":3200,"station_id":"ce4bh692rcd13ifvqe90","pricing_plan_id":"cebpf4jnsgd1na2vs0mg"},{"bike_id":"0e85c2f5-b071-40b7-97c5-b8a041db4668","system_id":"levelo_inurba_marseille","lat":43.29497,"lon":5.37396,"is_reserved":false,"is_disabled":false,"rental_uris":{"android":"levelo://app?vid=0e85c2f5-b071-40b7-97c5-b8a041db4668","ios":"levelo://app?vid=0e85c2f5-b071-40b7-97c5-b8a041db4668"},"vehicle_type_id":"4","last_reported":1778967485,"current_range_meters":3200,"station_id":"","pricing_plan_id":"cebpf4jnsgd1na2vs0mg"},{"bike_id":"af291f23-0964-4b6f-b635-d8b7e4293ab0","system_id":"levelo_inurba_marseille","lat":43.2724,"lon":5.39078,"is_reserved":false,"is_disabled":false,"rental_uris":{"android":"levelo://app?vid=af291f23-0964-4b6f-b635-d8b7e4293ab0","ios":"levelo://app?vid=af291f23-0964-4b6f-b635-d8b7e4293ab0"},"vehicle_type_id":"4","last_reported":1778967485,"current_range_meters":3200,"station_id":"","pricing_plan_id":"cebpf4jnsgd1na2vs0mg"},{"bike_id":"f1537fc7-0354-440d-ac1f-b8db587aa955","system_id":"levelo_inurba_marseille","lat":43.31897,"lon":5.36803,"is_reserved":false,"is_disabled":false,"rental_uris":{"android":"levelo://app?vid=f1537fc7-0354-440d-ac1f-b8db587aa955","ios":"levelo://app?vid=f1537fc7-0354-440d-ac1f-b8db587aa955"},"vehicle_type_id":"4","last_reported":1778967485,"current_range_meters":3200,"station_id":"st_d6o2h0d0559c73evc1b0","pricing_plan_id":"cebpf4jnsgd1na2vs0mg"},{"bike_id":"52fb7434-896e-4c97-817e-ac9657918ab4","system_id":"levelo_inurba_marseille","lat":43.33543,"lon":5.37475,"is_reserved":false,"is_disabled":false,"rental_uris":{"android":"levelo://app?vid=52fb7434-896e-4c97-817e-ac9657918ab4","ios":"levelo://app?vid=52fb7434-896e-4c97-817e-ac9657918ab4"},"vehicle_type_id":"4","last_reported":1778967485,"current_range_meters":3200,"station_id":"st_d46tts09ee8s73dlu43g","pricing_plan_id":"cebpf4jnsgd1na2vs0mg"},{"bike_id":"268127ec-00a1-4240-80a2-8f7cf143fca3","system_id":"levelo_inurba_marseille","lat":43.31715,"lon":5.43709,"is_reserved":false,"is_disabled":false,"rental_uris":{"android":"levelo://app?vid=268127ec-00a1-4240-80a2-8f7cf143fca3","ios":"levelo://app?vid=268127ec-00a1-4240-80a2-8f7cf143fca3"},"vehicle_type_id":"4","last_reported":1778967485,"current_range_meters":3200,"station_id":"ce4bhp92rcd13ifvqhcg","pricing_plan_id":"cebpf4jnsgd1na2vs0mg"},{"bike_id":"c66e49a7-8e9a-4b1b-a1f9-8e7e886dbf72","system_id":"levelo_inurba_marseille","lat":43.32509,"lon":5.41451,"is_reserved":false,"is_disabled":false,"rental_uris":{"android":"levelo://app?vid=c66e49a7-8e9a-4b1b-a1f9-8e7e886dbf72","ios":"levelo://app?vid=c66e49a7-8e9a-4b1b-a1f9-8e7e886dbf72"},"vehicle_type_id":"4","last_reported":1778967485,"current_range_meters":3600,"station_id":"ce4bhq12rcd13ifvqhhg","pricing_plan_id":"cebpf4jnsgd1na2vs0mg"},{"bike_id":"7565bcfc-6bf5-4c3a-9886-447c96a84a36","system_id":"levelo_inurba_marseille","lat":43.2951,"lon":5.37502,"is_reserved":false,"is_disabled":false,"rental_uris":{"android":"levelo://app?vid=7565bcfc-6bf5-4c3a-9886-447c96a84a36","ios":"levelo://app?vid=7565bcfc-6bf5-4c3a-9886-447c96a84a36"},"vehicle_type_id":"4","last_reported":1778967485,"current_range_meters":3600,"station_id":"ce4bgkp2rcd13ifvqbmg","pricing_plan_id":"cebpf4jnsgd1na2vs0mg"},{"bike_id":"4fdf485c-8461-406f-8152-f602e1a5bbca","system_id":"levelo_inurba_marseille","lat":43.28487,"lon":5.38531,"is_reserved":false,"is_disabled":true,"rental_uris":{"android":"levelo://app?vid=4fdf485c-8461-406f-8152-f602e1a5bbca","ios":"levelo://app?vid=4fdf485c-8461-406f-8152-f602e1a5bbca"},"vehicle_type_id":"4","last_reported":1778967485,"current_range_meters":3600,"station_id":"ce4bh8p2rcd13ifvqeb0","pricing_plan_id":"cebpf4jnsgd1na2vs0mg"},{"bike_id":"f009459e-8bcb-4afa-9fb0-c977c93700f9","system_id":"levelo_inurba_marseille","lat":43.31707,"lon":5.42399,"is_reserved":false,"is_disabled":false,"rental_uris":{"android":"levelo://app?vid=f009459e-8bcb-4afa-9fb0-c977c93700f9","ios":"levelo://app?vid=f009459e-8bcb-4afa-9fb0-c977c93700f9"},"vehicle_type_id":"4","last_reported":1778967485,"current_range_meters":3600,"station_id":"ce4bhp92rcd13ifvqhbg","pricing_plan_id":"cebpf4jnsgd1na2vs0mg"},{"bike_id":"ff5af636-5e8f-4fe0-a7d9-70a25d86e069","system_id":"levelo_inurba_marseille","lat":43.21181,"lon":5.35068,"is_reserved":false,"is_disabled":false,"rental_uris":{"android":"levelo://app?vid=ff5af636-5e8f-4fe0-a7d9-70a25d86e069","ios":"levelo://app?vid=ff5af636-5e8f-4fe0-a7d9-70a25d86e069"},"vehicle_type_id":"4","last_reported":1778967485,"current_range_meters":3600,"station_id":"st_cvj6sg6p6f1abm77japg","pricing_plan_id":"cebpf4jnsgd1na2vs0mg"},{"bike_id":"db5ef7bc-1934-45c3-8160-80ea71746812","system_id":"levelo_inurba_marseille","lat":43.26218,"lon":5.40441,"is_reserved":false,"is_disabled":false,"rental_uris":{"android":"levelo://app?vid=db5ef7bc-1934-45c3-8160-80ea71746812","ios":"levelo://app?vid=db5ef7bc-1934-45c3-8160-80ea71746812"},"vehicle_type_id":"4","last_reported":1778967485,"current_range_meters":3600,"station_id":"ce4bhmh2rcd13ifvqgmg","pricing_plan_id":"cebpf4jnsgd1na2vs0mg"},{"bike_id":"1f27b9c7-f593-4ee3-b394-7ce199ed2756","system_id":"levelo_inurba_marseille","lat":43.309018,"lon":5.37188,"is_reserved":false,"is_disabled":false,"rental_uris":{"android":"levelo://app?vid=1f27b9c7-f593-4ee3-b394-7ce199ed2756","ios":"levelo://app?vid=1f27b9c7-f593-4ee3-b394-7ce199ed2756"},"vehicle_type_id":"4","last_reported":1778967485,"current_range_meters":3600,"station_id":"","pricing_plan_id":"cebpf4jnsgd1na2vs0mg"},{"bike_id":"79f1a2e3-a0b4-477e-a86b-1762c094e108","system_id":"levelo_inurba_marseille","lat":43.28683,"lon":5.3865,"is_reserved":false,"is_disabled":false,"rental_uris":{"android":"levelo://app?vid=79f1a2e3-a0b4-477e-a86b-1762c094e108","ios":"levelo://app?vid=79f1a2e3-a0b4-477e-a86b-1762c094e108"},"vehicle_type_id":"4","last_reported":1778967485,"current_range_meters":3600,"station_id":"ce4bh492rcd13ifvqdug","pricing_plan_id":"cebpf4jnsgd1na2vs0mg"},{"bike_id":"90f0a7c2-f56e-4010-971c-b48f86757b94","system_id":"levelo_inurba_marseille","lat":43.292611,"lon":5.38428,"is_reserved":false,"is_disabled":false,"rental_uris":{"android":"levelo://app?vid=90f0a7c2-f56e-4010-971c-b48f86757b94","ios":"levelo://app?vid=90f0a7c2-f56e-4010-971c-b48f86757b94"},"vehicle_type_id":"4","last_reported":1778967485,"current_range_meters":3600,"station_id":"ce4bh692rcd13ifvqea0","pricing_plan_id":"cebpf4jnsgd1na2vs0mg"},{"bike_id":"7cd25448-c9ce-4131-97a8-6ea51f0f8cb1","system_id":"levelo_inurba_marseille","lat":43.287202,"lon":5.360593,"is_reserved":false,"is_disabled":false,"rental_uris":{"android":"levelo://app?vid=7cd25448-c9ce-4131-97a8-6ea51f0f8cb1","ios":"levelo://app?vid=7cd25448-c9ce-4131-97a8-6ea51f0f8cb1"},"vehicle_type_id":"4","last_reported":1778967485,"current_range_meters":3600,"station_id":"cki0cbj6b192h4jlfktg","pricing_plan_id":"cebpf4jnsgd1na2vs0mg"},{"bike_id":"ca01c33c-99c8-4ff8-a274-d065c7262a1a","system_id":"levelo_inurba_marseille","lat":43.26403,"lon":5.38843,"is_reserved":false,"is_disabled":false,"rental_uris":{"android":"levelo://app?vid=ca01c33c-99c8-4ff8-a274-d065c7262a1a","ios":"levelo://app?vid=ca01c33c-99c8-4ff8-a274-d065c7262a1a"},"vehicle_type_id":"4","last_reported":1778967485,"current_range_meters":3600,"station_id":"","pricing_plan_id":"cebpf4jnsgd1na2vs0mg"},{"bike_id":"9a878fe0-11de-472c-84a4-6e8712d29c9e","system_id":"levelo_inurba_marseille","lat":43.29613,"lon":5.37757,"is_reserved":false,"is_disabled":false,"rental_uris":{"android":"levelo://app?vid=9a878fe0-11de-472c-84a4-6e8712d29c9e","ios":"levelo://app?vid=9a878fe0-11de-472c-84a4-6e8712d29c9e"},"vehicle_type_id":"4","last_reported":1778967485,"current_range_meters":3600,"station_id":"ce4bgi92rcd13ifvqb90","pricing_plan_id":"cebpf4jnsgd1na2vs0mg"},{"bike_id":"ea5b6bbe-5fae-4e98-86f1-2282d47bb14a","system_id":"levelo_inurba_marseille","lat":43.279459,"lon":5.410582,"is_reserved":false,"is_disabled":false,"rental_uris":{"android":"levelo://app?vid=ea5b6bbe-5fae-4e98-86f1-2282d47bb14a","ios":"levelo://app?vid=ea5b6bbe-5fae-4e98-86f1-2282d47bb14a"},"vehicle_type_id":"4","last_reported":1778967485,"current_range_meters":3600,"station_id":"ce4bhnp2rcd13ifvqh0g","pricing_plan_id":"cebpf4jnsgd1na2vs0mg"},{"bike_id":"b7b5b41d-5b26-4c2b-8da2-b1e7cd5f3624","system_id":"levelo_inurba_marseille","lat":43.25344,"lon":5.42166,"is_reserved":false,"is_disabled":false,"rental_uris":{"android":"levelo://app?vid=b7b5b41d-5b26-4c2b-8da2-b1e7cd5f3624","ios":"levelo://app?vid=b7b5b41d-5b26-4c2b-8da2-b1e7cd5f3624"},"vehicle_type_id":"4","last_reported":1778967485,"current_range_meters":3600,"station_id":"st_d2m65c5bi1j21697t3ng","pricing_plan_id":"cebpf4jnsgd1na2vs0mg"},{"bike_id":"90f6e610-3da8-406b-8c73-6721d712c0bb","system_id":"levelo_inurba_marseille","lat":43.29036,"lon":5.39939,"is_reserved":false,"is_disabled":false,"rental_uris":{"android":"levelo://app?vid=90f6e610-3da8-406b-8c73-6721d712c0bb","ios":"levelo://app?vid=90f6e610-3da8-406b-8c73-6721d712c0bb"},"vehicle_type_id":"4","last_reported":1778967485,"current_range_meters":3600,"station_id":"ce4bh392rcd13ifvqdm0","pricing_plan_id":"cebpf4jnsgd1na2vs0mg"},{"bike_id":"403fe424-514d-4d77-b62f-7902b2a48751","system_id":"levelo_inurba_marseille","lat":43.29263,"lon":5.38438,"is_reserved":false,"is_disabled":false,"rental_uris":{"android":"levelo://app?vid=403fe424-514d-4d77-b62f-7902b2a48751","ios":"levelo://app?vid=403fe424-514d-4d77-b62f-7902b2a48751"},"vehicle_type_id":"4","last_reported":1778967485,"current_range_meters":4000,"station_id":"ce4bh692rcd13ifvqea0","pricing_plan_id":"cebpf4jnsgd1na2vs0mg"},{"bike_id":"bfb785d9-997f-42c9-aa94-998d781d83ff","system_id":"levelo_inurba_marseille","lat":43.298647,"lon":5.397369,"is_reserved":false,"is_disabled":false,"rental_uris":{"android":"levelo://app?vid=bfb785d9-997f-42c9-aa94-998d781d83ff","ios":"levelo://app?vid=bfb785d9-997f-42c9-aa94-998d781d83ff"},"vehicle_type_id":"4","last_reported":1778967485,"current_range_meters":4000,"station_id":"ce4bh0h2rcd13ifvqd50","pricing_plan_id":"cebpf4jnsgd1na2vs0mg"},{"bike_id":"310313f9-4c8b-458d-834b-81e71f22dc3f","system_id":"levelo_inurba_marseille","lat":43.27913,"lon":5.39591,"is_reserved":false,"is_disabled":true,"rental_uris":{"android":"levelo://app?vid=310313f9-4c8b-458d-834b-81e71f22dc3f","ios":"levelo://app?vid=310313f9-4c8b-458d-834b-81e71f22dc3f"},"vehicle_type_id":"4","last_reported":1778967485,"current_range_meters":4000,"station_id":"ce4bhf92rcd13ifvqf40","pricing_plan_id":"cebpf4jnsgd1na2vs0mg"},{"bike_id":"ab0a65f4-6c36-4bcb-8328-0e0271f53a2d","system_id":"levelo_inurba_marseille","lat":43.28604,"lon":5.37065,"is_reserved":false,"is_disabled":false,"rental_uris":{"android":"levelo://app?vid=ab0a65f4-6c36-4bcb-8328-0e0271f53a2d","ios":"levelo://app?vid=ab0a65f4-6c36-4bcb-8328-0e0271f53a2d"},"vehicle_type_id":"4","last_reported":1778967485,"current_range_meters":4000,"station_id":"ce4bht12rcd13ifvqi60","pricing_plan_id":"cebpf4jnsgd1na2vs0mg"},{"bike_id":"fe51d235-289e-443a-8eab-faa4747a6bf1","system_id":"levelo_inurba_marseille","lat":43.27565,"lon":5.38397,"is_reserved":false,"is_disabled":false,"rental_uris":{"android":"levelo://app?vid=fe51d235-289e-443a-8eab-faa4747a6bf1","ios":"levelo://app?vid=fe51d235-289e-443a-8eab-faa4747a6bf1"},"vehicle_type_id":"4","last_reported":1778967485,"current_range_meters":4000,"station_id":"ce4bhh92rcd13ifvqfi0","pricing_plan_id":"cebpf4jnsgd1na2vs0mg"},{"bike_id":"1c155cb8-50aa-4ad8-95d4-a32cca5f7a07","system_id":"levelo_inurba_marseille","lat":43.24464,"lon":5.42521,"is_reserved":false,"is_disabled":false,"rental_uris":{"android":"levelo://app?vid=1c155cb8-50aa-4ad8-95d4-a32cca5f7a07","ios":"levelo://app?vid=1c155cb8-50aa-4ad8-95d4-a32cca5f7a07"},"vehicle_type_id":"4","last_reported":1778967485,"current_range_meters":4000,"station_id":"st_d4a3vfp97mjs738cd8kg","pricing_plan_id":"cebpf4jnsgd1na2vs0mg"},{"bike_id":"b99255d8-2cb4-4c40-80a8-f34ddf79c7aa","system_id":"levelo_inurba_marseille","lat":43.33559,"lon":5.37513,"is_reserved":false,"is_disabled":false,"rental_uris":{"android":"levelo://app?vid=b99255d8-2cb4-4c40-80a8-f34ddf79c7aa","ios":"levelo://app?vid=b99255d8-2cb4-4c40-80a8-f34ddf79c7aa"},"vehicle_type_id":"4","last_reported":1778967485,"current_range_meters":4000,"station_id":"st_d46tts09ee8s73dlu43g","pricing_plan_id":"cebpf4jnsgd1na2vs0mg"},{"bike_id":"2f3352f6-4e3e-43dc-a44d-5c0c2456237e","system_id":"levelo_inurba_marseille","lat":43.308478,"lon":5.37207,"is_reserved":false,"is_disabled":false,"rental_uris":{"android":"levelo://app?vid=2f3352f6-4e3e-43dc-a44d-5c0c2456237e","ios":"levelo://app?vid=2f3352f6-4e3e-43dc-a44d-5c0c2456237e"},"vehicle_type_id":"4","last_reported":1778967485,"current_range_meters":4000,"station_id":"ce4bguh2rcd13ifvqckg","pricing_plan_id":"cebpf4jnsgd1na2vs0mg"},{"bike_id":"d68b029d-5819-4477-bfbc-0fd6ebf04e79","system_id":"levelo_inurba_marseille","lat":43.29539,"lon":5.39156,"is_reserved":false,"is_disabled":false,"rental_uris":{"android":"levelo://app?vid=d68b029d-5819-4477-bfbc-0fd6ebf04e79","ios":"levelo://app?vid=d68b029d-5819-4477-bfbc-0fd6ebf04e79"},"vehicle_type_id":"4","last_reported":1778967485,"current_range_meters":4000,"station_id":"","pricing_plan_id":"cebpf4jnsgd1na2vs0mg"},{"bike_id":"8555689c-e2b4-44bb-a2cf-3cf014b18cfb","system_id":"levelo_inurba_marseille","lat":43.2904,"lon":5.39946,"is_reserved":false,"is_disabled":false,"rental_uris":{"android":"levelo://app?vid=8555689c-e2b4-44bb-a2cf-3cf014b18cfb","ios":"levelo://app?vid=8555689c-e2b4-44bb-a2cf-3cf014b18cfb"},"vehicle_type_id":"4","last_reported":1778967485,"current_range_meters":4400,"station_id":"ce4bh392rcd13ifvqdm0","pricing_plan_id":"cebpf4jnsgd1na2vs0mg"},{"bike_id":"6d2d2071-4bc6-495e-b87d-7ab50dd459e0","system_id":"levelo_inurba_marseille","lat":43.28675,"lon":5.38656,"is_reserved":false,"is_disabled":false,"rental_uris":{"android":"levelo://app?vid=6d2d2071-4bc6-495e-b87d-7ab50dd459e0","ios":"levelo://app?vid=6d2d2071-4bc6-495e-b87d-7ab50dd459e0"},"vehicle_type_id":"4","last_reported":1778967485,"current_range_meters":4400,"station_id":"ce4bh492rcd13ifvqdug","pricing_plan_id":"cebpf4jnsgd1na2vs0mg"},{"bike_id":"e191454c-916c-4e6d-bb9a-b71fe6d913bf","system_id":"levelo_inurba_marseille","lat":43.23203,"lon":5.35582,"is_reserved":false,"is_disabled":false,"rental_uris":{"android":"levelo://app?vid=e191454c-916c-4e6d-bb9a-b71fe6d913bf","ios":"levelo://app?vid=e191454c-916c-4e6d-bb9a-b71fe6d913bf"},"vehicle_type_id":"4","last_reported":1778967485,"current_range_meters":4400,"station_id":"ce4bhu92rcd13ifvqi70","pricing_plan_id":"cebpf4jnsgd1na2vs0mg"},{"bike_id":"23ecd78c-cd67-4d96-a473-8acd3218fef4","system_id":"levelo_inurba_marseille","lat":43.29184,"lon":5.35796,"is_reserved":false,"is_disabled":true,"rental_uris":{"android":"levelo://app?vid=23ecd78c-cd67-4d96-a473-8acd3218fef4","ios":"levelo://app?vid=23ecd78c-cd67-4d96-a473-8acd3218fef4"},"vehicle_type_id":"4","last_reported":1778967485,"current_range_meters":4400,"station_id":"ce4bhb12rcd13ifvqel0","pricing_plan_id":"cebpf4jnsgd1na2vs0mg"},{"bike_id":"1f2ef142-0059-4ee6-9c3b-bbdf112f236b","system_id":"levelo_inurba_marseille","lat":43.30578,"lon":5.36691,"is_reserved":false,"is_disabled":false,"rental_uris":{"android":"levelo://app?vid=1f2ef142-0059-4ee6-9c3b-bbdf112f236b","ios":"levelo://app?vid=1f2ef142-0059-4ee6-9c3b-bbdf112f236b"},"vehicle_type_id":"4","last_reported":1778967485,"current_range_meters":4400,"station_id":"","pricing_plan_id":"cebpf4jnsgd1na2vs0mg"},{"bike_id":"6ed28fa0-f20b-450d-a789-f0b565e64f1b","system_id":"levelo_inurba_marseille","lat":43.29819,"lon":5.38275,"is_reserved":false,"is_disabled":false,"rental_uris":{"android":"levelo://app?vid=6ed28fa0-f20b-450d-a789-f0b565e64f1b","ios":"levelo://app?vid=6ed28fa0-f20b-450d-a789-f0b565e64f1b"},"vehicle_type_id":"4","last_reported":1778967485,"current_range_meters":4400,"station_id":"","pricing_plan_id":"cebpf4jnsgd1na2vs0mg"},{"bike_id":"40d52630-dac1-4e9c-ba9e-de16ed28d9c3","system_id":"levelo_inurba_marseille","lat":43.24811,"lon":5.37455,"is_reserved":false,"is_disabled":false,"rental_uris":{"android":"levelo://app?vid=40d52630-dac1-4e9c-ba9e-de16ed28d9c3","ios":"levelo://app?vid=40d52630-dac1-4e9c-ba9e-de16ed28d9c3"},"vehicle_type_id":"4","last_reported":1778967485,"current_range_meters":4400,"station_id":"ce4bhgh2rcd13ifvqfb0","pricing_plan_id":"cebpf4jnsgd1na2vs0mg"},{"bike_id":"04ea3f89-d526-46df-8866-3a77acf0c254","system_id":"levelo_inurba_marseille","lat":43.28273,"lon":5.35077,"is_reserved":false,"is_disabled":true,"rental_uris":{"android":"levelo://app?vid=04ea3f89-d526-46df-8866-3a77acf0c254","ios":"levelo://app?vid=04ea3f89-d526-46df-8866-3a77acf0c254"},"vehicle_type_id":"4","last_reported":1778967485,"current_range_meters":4400,"station_id":"ce4bhbp2rcd13ifvqerg","pricing_plan_id":"cebpf4jnsgd1na2vs0mg"},{"bike_id":"5c14e11b-96a9-46c6-bc27-bc85e56768f5","system_id":"levelo_inurba_marseille","lat":43.23166,"lon":5.39979,"is_reserved":false,"is_disabled":false,"rental_uris":{"android":"levelo://app?vid=5c14e11b-96a9-46c6-bc27-bc85e56768f5","ios":"levelo://app?vid=5c14e11b-96a9-46c6-bc27-bc85e56768f5"},"vehicle_type_id":"4","last_reported":1778967485,"current_range_meters":4400,"station_id":"ce4bhn12rcd13ifvqgqg","pricing_plan_id":"cebpf4jnsgd1na2vs0mg"},{"bike_id":"2c4e2c80-7a7f-49e7-8a11-230c3e37ee87","system_id":"levelo_inurba_marseille","lat":43.22578,"lon":5.4162,"is_reserved":false,"is_disabled":false,"rental_uris":{"android":"levelo://app?vid=2c4e2c80-7a7f-49e7-8a11-230c3e37ee87","ios":"levelo://app?vid=2c4e2c80-7a7f-49e7-8a11-230c3e37ee87"},"vehicle_type_id":"4","last_reported":1778967485,"current_range_meters":4800,"station_id":"st_d2o4gvlbi1j2169b742g","pricing_plan_id":"cebpf4jnsgd1na2vs0mg"},{"bike_id":"a56a8a0c-3ab9-465a-bdae-f5897ec1f98a","system_id":"levelo_inurba_marseille","lat":43.24166,"lon":5.36399,"is_reserved":false,"is_disabled":false,"rental_uris":{"android":"levelo://app?vid=a56a8a0c-3ab9-465a-bdae-f5897ec1f98a","ios":"levelo://app?vid=a56a8a0c-3ab9-465a-bdae-f5897ec1f98a"},"vehicle_type_id":"4","last_reported":1778967485,"current_range_meters":4800,"station_id":"cpo36qri1sfpv3e86is0","pricing_plan_id":"cebpf4jnsgd1na2vs0mg"},{"bike_id":"015aad6e-f7c0-4598-9ad7-38c4d3fee62c","system_id":"levelo_inurba_marseille","lat":43.28623,"lon":5.35093,"is_reserved":false,"is_disabled":false,"rental_uris":{"android":"levelo://app?vid=015aad6e-f7c0-4598-9ad7-38c4d3fee62c","ios":"levelo://app?vid=015aad6e-f7c0-4598-9ad7-38c4d3fee62c"},"vehicle_type_id":"4","last_reported":1778967485,"current_range_meters":4800,"station_id":"ce4bhch2rcd13ifvqeug","pricing_plan_id":"cebpf4jnsgd1na2vs0mg"},{"bike_id":"df59be64-5cdb-4f85-abbc-ab731e671da0","system_id":"levelo_inurba_marseille","lat":43.24163,"lon":5.36392,"is_reserved":false,"is_disabled":false,"rental_uris":{"android":"levelo://app?vid=df59be64-5cdb-4f85-abbc-ab731e671da0","ios":"levelo://app?vid=df59be64-5cdb-4f85-abbc-ab731e671da0"},"vehicle_type_id":"4","last_reported":1778967485,"current_range_meters":4800,"station_id":"cpo36qri1sfpv3e86is0","pricing_plan_id":"cebpf4jnsgd1na2vs0mg"},{"bike_id":"592c4497-6c1b-40b1-a29c-df0895ea920f","system_id":"levelo_inurba_marseille","lat":43.30522,"lon":5.38408,"is_reserved":false,"is_disabled":false,"rental_uris":{"android":"levelo://app?vid=592c4497-6c1b-40b1-a29c-df0895ea920f","ios":"levelo://app?vid=592c4497-6c1b-40b1-a29c-df0895ea920f"},"vehicle_type_id":"4","last_reported":1778967485,"current_range_meters":4800,"station_id":"ce4bgg92rcd13ifvqb30","pricing_plan_id":"cebpf4jnsgd1na2vs0mg"},{"bike_id":"fdacafe5-c916-488b-b87c-f84be7c88524","system_id":"levelo_inurba_marseille","lat":43.28345,"lon":5.3811,"is_reserved":false,"is_disabled":false,"rental_uris":{"android":"levelo://app?vid=fdacafe5-c916-488b-b87c-f84be7c88524","ios":"levelo://app?vid=fdacafe5-c916-488b-b87c-f84be7c88524"},"vehicle_type_id":"4","last_reported":1778967485,"current_range_meters":4800,"station_id":"ce4bh412rcd13ifvqdr0","pricing_plan_id":"cebpf4jnsgd1na2vs0mg"},{"bike_id":"91566bbe-873a-4da9-86c2-41b6291fcfe2","system_id":"levelo_inurba_marseille","lat":43.21753,"lon":5.34585,"is_reserved":false,"is_disabled":false,"rental_uris":{"android":"levelo://app?vid=91566bbe-873a-4da9-86c2-41b6291fcfe2","ios":"levelo://app?vid=91566bbe-873a-4da9-86c2-41b6291fcfe2"},"vehicle_type_id":"4","last_reported":1778967485,"current_range_meters":4800,"station_id":"st_cvj6r9ubvosntc0bgbag","pricing_plan_id":"cebpf4jnsgd1na2vs0mg"},{"bike_id":"255a8db9-6ac5-445d-8da2-584280160595","system_id":"levelo_inurba_marseille","lat":43.29972,"lon":5.36747,"is_reserved":false,"is_disabled":false,"rental_uris":{"android":"levelo://app?vid=255a8db9-6ac5-445d-8da2-584280160595","ios":"levelo://app?vid=255a8db9-6ac5-445d-8da2-584280160595"},"vehicle_type_id":"4","last_reported":1778967485,"current_range_meters":4800,"station_id":"","pricing_plan_id":"cebpf4jnsgd1na2vs0mg"},{"bike_id":"a138f308-9702-4f03-aafd-186c8acd82cd","system_id":"levelo_inurba_marseille","lat":43.2894,"lon":5.36621,"is_reserved":false,"is_disabled":false,"rental_uris":{"android":"levelo://app?vid=a138f308-9702-4f03-aafd-186c8acd82cd","ios":"levelo://app?vid=a138f308-9702-4f03-aafd-186c8acd82cd"},"vehicle_type_id":"4","last_reported":1778967485,"current_range_meters":4800,"station_id":"ce4bhap2rcd13ifvqek0","pricing_plan_id":"cebpf4jnsgd1na2vs0mg"},{"bike_id":"8c6e71ab-d6f2-4401-b36d-da7a375e2edf","system_id":"levelo_inurba_marseille","lat":43.24558,"lon":5.39524,"is_reserved":false,"is_disabled":false,"rental_uris":{"android":"levelo://app?vid=8c6e71ab-d6f2-4401-b36d-da7a375e2edf","ios":"levelo://app?vid=8c6e71ab-d6f2-4401-b36d-da7a375e2edf"},"vehicle_type_id":"4","last_reported":1778967485,"current_range_meters":4800,"station_id":"ce4bhlp2rcd13ifvqgjg","pricing_plan_id":"cebpf4jnsgd1na2vs0mg"},{"bike_id":"9aa5d403-a39e-4454-ac35-6655bb3b594f","system_id":"levelo_inurba_marseille","lat":43.28349,"lon":5.38094,"is_reserved":false,"is_disabled":false,"rental_uris":{"android":"levelo://app?vid=9aa5d403-a39e-4454-ac35-6655bb3b594f","ios":"levelo://app?vid=9aa5d403-a39e-4454-ac35-6655bb3b594f"},"vehicle_type_id":"4","last_reported":1778967485,"current_range_meters":4800,"station_id":"ce4bh412rcd13ifvqdr0","pricing_plan_id":"cebpf4jnsgd1na2vs0mg"},{"bike_id":"da89a0d6-e72d-4c11-a2a2-2575402b5625","system_id":"levelo_inurba_marseille","lat":43.31983,"lon":5.38156,"is_reserved":false,"is_disabled":false,"rental_uris":{"android":"levelo://app?vid=da89a0d6-e72d-4c11-a2a2-2575402b5625","ios":"levelo://app?vid=da89a0d6-e72d-4c11-a2a2-2575402b5625"},"vehicle_type_id":"4","last_reported":1778967485,"current_range_meters":4800,"station_id":"ce4bhr12rcd13ifvqhpg","pricing_plan_id":"cebpf4jnsgd1na2vs0mg"},{"bike_id":"c60e5f42-27e6-4dfb-911a-3f1d717c08e4","system_id":"levelo_inurba_marseille","lat":43.2962,"lon":5.37113,"is_reserved":false,"is_disabled":false,"rental_uris":{"android":"levelo://app?vid=c60e5f42-27e6-4dfb-911a-3f1d717c08e4","ios":"levelo://app?vid=c60e5f42-27e6-4dfb-911a-3f1d717c08e4"},"vehicle_type_id":"4","last_reported":1778967485,"current_range_meters":5600,"station_id":"ce4bgnh2rcd13ifvqc0g","pricing_plan_id":"cebpf4jnsgd1na2vs0mg"},{"bike_id":"afff82b4-b246-459c-90a3-f27175078fba","system_id":"levelo_inurba_marseille","lat":43.28568,"lon":5.39486,"is_reserved":false,"is_disabled":false,"rental_uris":{"android":"levelo://app?vid=afff82b4-b246-459c-90a3-f27175078fba","ios":"levelo://app?vid=afff82b4-b246-459c-90a3-f27175078fba"},"vehicle_type_id":"4","last_reported":1778967485,"current_range_meters":5600,"station_id":"ce4bh292rcd13ifvqdg0","pricing_plan_id":"cebpf4jnsgd1na2vs0mg"},{"bike_id":"dbf94776-63a1-426f-85ae-41abd5903310","system_id":"levelo_inurba_marseille","lat":43.3095,"lon":5.37599,"is_reserved":false,"is_disabled":false,"rental_uris":{"android":"levelo://app?vid=dbf94776-63a1-426f-85ae-41abd5903310","ios":"levelo://app?vid=dbf94776-63a1-426f-85ae-41abd5903310"},"vehicle_type_id":"4","last_reported":1778967485,"current_range_meters":5600,"station_id":"","pricing_plan_id":"cebpf4jnsgd1na2vs0mg"},{"bike_id":"74f12a6d-7a94-4ce3-8725-e3fbbe23ae70","system_id":"levelo_inurba_marseille","lat":43.33562,"lon":5.37461,"is_reserved":false,"is_disabled":false,"rental_uris":{"android":"levelo://app?vid=74f12a6d-7a94-4ce3-8725-e3fbbe23ae70","ios":"levelo://app?vid=74f12a6d-7a94-4ce3-8725-e3fbbe23ae70"},"vehicle_type_id":"4","last_reported":1778967485,"current_range_meters":5600,"station_id":"st_d46tts09ee8s73dlu43g","pricing_plan_id":"cebpf4jnsgd1na2vs0mg"},{"bike_id":"9d9da9b1-62c5-4232-8888-7d36c96bb153","system_id":"levelo_inurba_marseille","lat":43.27479,"lon":5.4159,"is_reserved":false,"is_disabled":false,"rental_uris":{"android":"levelo://app?vid=9d9da9b1-62c5-4232-8888-7d36c96bb153","ios":"levelo://app?vid=9d9da9b1-62c5-4232-8888-7d36c96bb153"},"vehicle_type_id":"4","last_reported":1778967485,"current_range_meters":5600,"station_id":"st_d6im8g6chgec73a5pndg","pricing_plan_id":"cebpf4jnsgd1na2vs0mg"},{"bike_id":"9328df09-7c77-4ef9-a326-cd1cda9dd29d","system_id":"levelo_inurba_marseille","lat":43.30784,"lon":5.38494,"is_reserved":false,"is_disabled":false,"rental_uris":{"android":"levelo://app?vid=9328df09-7c77-4ef9-a326-cd1cda9dd29d","ios":"levelo://app?vid=9328df09-7c77-4ef9-a326-cd1cda9dd29d"},"vehicle_type_id":"4","last_reported":1778967485,"current_range_meters":5600,"station_id":"","pricing_plan_id":"cebpf4jnsgd1na2vs0mg"},{"bike_id":"4d31ed6e-13e0-4959-aa6c-cce6ffc3f7ff","system_id":"levelo_inurba_marseille","lat":43.27488,"lon":5.41596,"is_reserved":false,"is_disabled":false,"rental_uris":{"android":"levelo://app?vid=4d31ed6e-13e0-4959-aa6c-cce6ffc3f7ff","ios":"levelo://app?vid=4d31ed6e-13e0-4959-aa6c-cce6ffc3f7ff"},"vehicle_type_id":"4","last_reported":1778967485,"current_range_meters":5600,"station_id":"st_d6im8g6chgec73a5pndg","pricing_plan_id":"cebpf4jnsgd1na2vs0mg"},{"bike_id":"eb4b2d73-f382-4d69-a5ec-bafbb4107d23","system_id":"levelo_inurba_marseille","lat":43.28341,"lon":5.38093,"is_reserved":false,"is_disabled":false,"rental_uris":{"android":"levelo://app?vid=eb4b2d73-f382-4d69-a5ec-bafbb4107d23","ios":"levelo://app?vid=eb4b2d73-f382-4d69-a5ec-bafbb4107d23"},"vehicle_type_id":"4","last_reported":1778967485,"current_range_meters":5600,"station_id":"ce4bh412rcd13ifvqdr0","pricing_plan_id":"cebpf4jnsgd1na2vs0mg"},{"bike_id":"880f95a2-7348-4be7-8d56-b10ad9a3aea4","system_id":"levelo_inurba_marseille","lat":43.30937,"lon":5.40145,"is_reserved":false,"is_disabled":false,"rental_uris":{"android":"levelo://app?vid=880f95a2-7348-4be7-8d56-b10ad9a3aea4","ios":"levelo://app?vid=880f95a2-7348-4be7-8d56-b10ad9a3aea4"},"vehicle_type_id":"4","last_reported":1778967485,"current_range_meters":5600,"station_id":"ce4bgvp2rcd13ifvqct0","pricing_plan_id":"cebpf4jnsgd1na2vs0mg"},{"bike_id":"8e9e3a50-d8b1-4ff9-876a-6fdf349604d8","system_id":"levelo_inurba_marseille","lat":43.24792,"lon":5.37447,"is_reserved":false,"is_disabled":false,"rental_uris":{"android":"levelo://app?vid=8e9e3a50-d8b1-4ff9-876a-6fdf349604d8","ios":"levelo://app?vid=8e9e3a50-d8b1-4ff9-876a-6fdf349604d8"},"vehicle_type_id":"4","last_reported":1778967485,"current_range_meters":5600,"station_id":"ce4bhgh2rcd13ifvqfb0","pricing_plan_id":"cebpf4jnsgd1na2vs0mg"},{"bike_id":"2943fbe3-a159-4981-a389-c56caa3b261f","system_id":"levelo_inurba_marseille","lat":43.24813,"lon":5.37458,"is_reserved":false,"is_disabled":false,"rental_uris":{"android":"levelo://app?vid=2943fbe3-a159-4981-a389-c56caa3b261f","ios":"levelo://app?vid=2943fbe3-a159-4981-a389-c56caa3b261f"},"vehicle_type_id":"4","last_reported":1778967485,"current_range_meters":5600,"station_id":"ce4bhgh2rcd13ifvqfb0","pricing_plan_id":"cebpf4jnsgd1na2vs0mg"},{"bike_id":"a98e71a8-bf35-4001-aa3b-1c5f8094ed12","system_id":"levelo_inurba_marseille","lat":43.23959,"lon":5.36627,"is_reserved":false,"is_disabled":false,"rental_uris":{"android":"levelo://app?vid=a98e71a8-bf35-4001-aa3b-1c5f8094ed12","ios":"levelo://app?vid=a98e71a8-bf35-4001-aa3b-1c5f8094ed12"},"vehicle_type_id":"4","last_reported":1778967485,"current_range_meters":5600,"station_id":"ce4bhi12rcd13ifvqfp0","pricing_plan_id":"cebpf4jnsgd1na2vs0mg"},{"bike_id":"fdfdb9ab-066d-482f-85ac-8662421ce155","system_id":"levelo_inurba_marseille","lat":43.24952,"lon":5.40493,"is_reserved":false,"is_disabled":false,"rental_uris":{"android":"levelo://app?vid=fdfdb9ab-066d-482f-85ac-8662421ce155","ios":"levelo://app?vid=fdfdb9ab-066d-482f-85ac-8662421ce155"},"vehicle_type_id":"4","last_reported":1778967485,"current_range_meters":5600,"station_id":"st_d2ngiaodas8pm72gd1h0","pricing_plan_id":"cebpf4jnsgd1na2vs0mg"},{"bike_id":"8e5fa8eb-0ac8-4a67-966c-22d5ecb68caf","system_id":"levelo_inurba_marseille","lat":43.29535,"lon":5.39055,"is_reserved":false,"is_disabled":false,"rental_uris":{"android":"levelo://app?vid=8e5fa8eb-0ac8-4a67-966c-22d5ecb68caf","ios":"levelo://app?vid=8e5fa8eb-0ac8-4a67-966c-22d5ecb68caf"},"vehicle_type_id":"4","last_reported":1778967485,"current_range_meters":5600,"station_id":"ce4bh3p2rcd13ifvqdp0","pricing_plan_id":"cebpf4jnsgd1na2vs0mg"},{"bike_id":"5b61ad3d-c4b3-4bf0-9170-da55ed29dbbb","system_id":"levelo_inurba_marseille","lat":43.30774,"lon":5.39335,"is_reserved":false,"is_disabled":false,"rental_uris":{"android":"levelo://app?vid=5b61ad3d-c4b3-4bf0-9170-da55ed29dbbb","ios":"levelo://app?vid=5b61ad3d-c4b3-4bf0-9170-da55ed29dbbb"},"vehicle_type_id":"4","last_reported":1778967485,"current_range_meters":5600,"station_id":"","pricing_plan_id":"cebpf4jnsgd1na2vs0mg"},{"bike_id":"b645593d-f67c-4f1b-b9f9-f8e1b08f24ee","system_id":"levelo_inurba_marseille","lat":43.25087,"lon":5.41338,"is_reserved":false,"is_disabled":false,"rental_uris":{"android":"levelo://app?vid=b645593d-f67c-4f1b-b9f9-f8e1b08f24ee","ios":"levelo://app?vid=b645593d-f67c-4f1b-b9f9-f8e1b08f24ee"},"vehicle_type_id":"4","last_reported":1778967485,"current_range_meters":5600,"station_id":"","pricing_plan_id":"cebpf4jnsgd1na2vs0mg"},{"bike_id":"594cb93a-5d1d-4e33-94d4-76143e0bd10b","system_id":"levelo_inurba_marseille","lat":43.21194,"lon":5.35091,"is_reserved":false,"is_disabled":false,"rental_uris":{"android":"levelo://app?vid=594cb93a-5d1d-4e33-94d4-76143e0bd10b","ios":"levelo://app?vid=594cb93a-5d1d-4e33-94d4-76143e0bd10b"},"vehicle_type_id":"4","last_reported":1778967485,"current_range_meters":5600,"station_id":"st_cvj6sg6p6f1abm77japg","pricing_plan_id":"cebpf4jnsgd1na2vs0mg"},{"bike_id":"dc437964-578c-4f7a-be1e-9a5b7abec9f5","system_id":"levelo_inurba_marseille","lat":43.24526,"lon":5.37596,"is_reserved":false,"is_disabled":false,"rental_uris":{"android":"levelo://app?vid=dc437964-578c-4f7a-be1e-9a5b7abec9f5","ios":"levelo://app?vid=dc437964-578c-4f7a-be1e-9a5b7abec9f5"},"vehicle_type_id":"4","last_reported":1778967485,"current_range_meters":5600,"station_id":"","pricing_plan_id":"cebpf4jnsgd1na2vs0mg"},{"bike_id":"3bc3e170-b70d-464e-a0fc-26e24f8aea12","system_id":"levelo_inurba_marseille","lat":43.23971,"lon":5.36628,"is_reserved":false,"is_disabled":false,"rental_uris":{"android":"levelo://app?vid=3bc3e170-b70d-464e-a0fc-26e24f8aea12","ios":"levelo://app?vid=3bc3e170-b70d-464e-a0fc-26e24f8aea12"},"vehicle_type_id":"4","last_reported":1778967485,"current_range_meters":5600,"station_id":"ce4bhi12rcd13ifvqfp0","pricing_plan_id":"cebpf4jnsgd1na2vs0mg"},{"bike_id":"489a1706-c3ea-4b0e-8e98-c2ee70717ba8","system_id":"levelo_inurba_marseille","lat":43.22557,"lon":5.41621,"is_reserved":false,"is_disabled":false,"rental_uris":{"android":"levelo://app?vid=489a1706-c3ea-4b0e-8e98-c2ee70717ba8","ios":"levelo://app?vid=489a1706-c3ea-4b0e-8e98-c2ee70717ba8"},"vehicle_type_id":"4","last_reported":1778967485,"current_range_meters":5600,"station_id":"st_d2o4gvlbi1j2169b742g","pricing_plan_id":"cebpf4jnsgd1na2vs0mg"},{"bike_id":"f7543221-24ce-49d7-9e9a-813368b633f9","system_id":"levelo_inurba_marseille","lat":43.24651,"lon":5.38149,"is_reserved":false,"is_disabled":false,"rental_uris":{"android":"levelo://app?vid=f7543221-24ce-49d7-9e9a-813368b633f9","ios":"levelo://app?vid=f7543221-24ce-49d7-9e9a-813368b633f9"},"vehicle_type_id":"4","last_reported":1778967485,"current_range_meters":5600,"station_id":"ce4bhih2rcd13ifvqfr0","pricing_plan_id":"cebpf4jnsgd1na2vs0mg"},{"bike_id":"e6c047b4-71f7-452e-a1e6-79760ef39919","system_id":"levelo_inurba_marseille","lat":43.2378,"lon":5.36639,"is_reserved":false,"is_disabled":false,"rental_uris":{"android":"levelo://app?vid=e6c047b4-71f7-452e-a1e6-79760ef39919","ios":"levelo://app?vid=e6c047b4-71f7-452e-a1e6-79760ef39919"},"vehicle_type_id":"4","last_reported":1778967485,"current_range_meters":5600,"station_id":"st_d3nk18o9ro0c73en2l3g","pricing_plan_id":"cebpf4jnsgd1na2vs0mg"},{"bike_id":"efe6cb83-0f80-4dc2-a01f-254b26e82c4a","system_id":"levelo_inurba_marseille","lat":43.29533,"lon":5.38532,"is_reserved":false,"is_disabled":false,"rental_uris":{"android":"levelo://app?vid=efe6cb83-0f80-4dc2-a01f-254b26e82c4a","ios":"levelo://app?vid=efe6cb83-0f80-4dc2-a01f-254b26e82c4a"},"vehicle_type_id":"4","last_reported":1778967485,"current_range_meters":5600,"station_id":"ce4bgih2rcd13ifvqba0","pricing_plan_id":"cebpf4jnsgd1na2vs0mg"},{"bike_id":"b78a5007-a3f9-4d4f-b4e5-799aa180d7f8","system_id":"levelo_inurba_marseille","lat":43.32027,"lon":5.41583,"is_reserved":false,"is_disabled":true,"rental_uris":{"android":"levelo://app?vid=b78a5007-a3f9-4d4f-b4e5-799aa180d7f8","ios":"levelo://app?vid=b78a5007-a3f9-4d4f-b4e5-799aa180d7f8"},"vehicle_type_id":"4","last_reported":1778967485,"current_range_meters":5600,"station_id":"ce4bhq92rcd13ifvqhkg","pricing_plan_id":"cebpf4jnsgd1na2vs0mg"},{"bike_id":"f98117e9-b769-4ca7-beca-05992d4956a4","system_id":"levelo_inurba_marseille","lat":43.286629,"lon":5.363538,"is_reserved":false,"is_disabled":false,"rental_uris":{"android":"levelo://app?vid=f98117e9-b769-4ca7-beca-05992d4956a4","ios":"levelo://app?vid=f98117e9-b769-4ca7-beca-05992d4956a4"},"vehicle_type_id":"4","last_reported":1778967485,"current_range_meters":5600,"station_id":"ce4bhah2rcd13ifvqej0","pricing_plan_id":"cebpf4jnsgd1na2vs0mg"},{"bike_id":"11cfcfb7-7cef-4ca3-94fd-d649299b0219","system_id":"levelo_inurba_marseille","lat":43.31723,"lon":5.42372,"is_reserved":false,"is_disabled":false,"rental_uris":{"android":"levelo://app?vid=11cfcfb7-7cef-4ca3-94fd-d649299b0219","ios":"levelo://app?vid=11cfcfb7-7cef-4ca3-94fd-d649299b0219"},"vehicle_type_id":"4","last_reported":1778967485,"current_range_meters":5600,"station_id":"ce4bhp92rcd13ifvqhbg","pricing_plan_id":"cebpf4jnsgd1na2vs0mg"},{"bike_id":"e9a4ebb9-be7e-4678-81af-9605f0f16c8a","system_id":"levelo_inurba_marseille","lat":43.28858,"lon":5.39296,"is_reserved":false,"is_disabled":true,"rental_uris":{"android":"levelo://app?vid=e9a4ebb9-be7e-4678-81af-9605f0f16c8a","ios":"levelo://app?vid=e9a4ebb9-be7e-4678-81af-9605f0f16c8a"},"vehicle_type_id":"4","last_reported":1778967485,"current_range_meters":5600,"station_id":"ce4bh2p2rcd13ifvqdi0","pricing_plan_id":"cebpf4jnsgd1na2vs0mg"},{"bike_id":"6b5f5f89-ab34-448a-b2c7-ae8a3e9a30f4","system_id":"levelo_inurba_marseille","lat":43.31884,"lon":5.40733,"is_reserved":false,"is_disabled":true,"rental_uris":{"android":"levelo://app?vid=6b5f5f89-ab34-448a-b2c7-ae8a3e9a30f4","ios":"levelo://app?vid=6b5f5f89-ab34-448a-b2c7-ae8a3e9a30f4"},"vehicle_type_id":"4","last_reported":1778967485,"current_range_meters":5600,"station_id":"ce4bhq12rcd13ifvqhig","pricing_plan_id":"cebpf4jnsgd1na2vs0mg"},{"bike_id":"7a8ce789-4ca4-430b-8774-383664b586e6","system_id":"levelo_inurba_marseille","lat":43.309274,"lon":5.368654,"is_reserved":false,"is_disabled":false,"rental_uris":{"android":"levelo://app?vid=7a8ce789-4ca4-430b-8774-383664b586e6","ios":"levelo://app?vid=7a8ce789-4ca4-430b-8774-383664b586e6"},"vehicle_type_id":"4","last_reported":1778967485,"current_range_meters":6000,"station_id":"ce4bgn92rcd13ifvqbvg","pricing_plan_id":"cebpf4jnsgd1na2vs0mg"},{"bike_id":"b9fc383d-7675-4ac1-96a8-b14863e064c9","system_id":"levelo_inurba_marseille","lat":43.31309,"lon":5.37264,"is_reserved":false,"is_disabled":false,"rental_uris":{"android":"levelo://app?vid=b9fc383d-7675-4ac1-96a8-b14863e064c9","ios":"levelo://app?vid=b9fc383d-7675-4ac1-96a8-b14863e064c9"},"vehicle_type_id":"4","last_reported":1778967485,"current_range_meters":6000,"station_id":"","pricing_plan_id":"cebpf4jnsgd1na2vs0mg"},{"bike_id":"0a1a4c59-4b6a-489e-bbfd-da6c7c74b0f7","system_id":"levelo_inurba_marseille","lat":43.284446,"lon":5.39209,"is_reserved":false,"is_disabled":false,"rental_uris":{"android":"levelo://app?vid=0a1a4c59-4b6a-489e-bbfd-da6c7c74b0f7","ios":"levelo://app?vid=0a1a4c59-4b6a-489e-bbfd-da6c7c74b0f7"},"vehicle_type_id":"4","last_reported":1778967485,"current_range_meters":6000,"station_id":"ce4bhoh2rcd13ifvqh5g","pricing_plan_id":"cebpf4jnsgd1na2vs0mg"},{"bike_id":"dca08c5c-65aa-4be5-b882-b94870c8a90e","system_id":"levelo_inurba_marseille","lat":43.30442,"lon":5.41359,"is_reserved":false,"is_disabled":true,"rental_uris":{"android":"levelo://app?vid=dca08c5c-65aa-4be5-b882-b94870c8a90e","ios":"levelo://app?vid=dca08c5c-65aa-4be5-b882-b94870c8a90e"},"vehicle_type_id":"4","last_reported":1778967485,"current_range_meters":6000,"station_id":"ce4bhop2rcd13ifvqh8g","pricing_plan_id":"cebpf4jnsgd1na2vs0mg"},{"bike_id":"810ef53a-5aff-49f3-99db-34213da1b1cf","system_id":"levelo_inurba_marseille","lat":43.28701,"lon":5.46675,"is_reserved":false,"is_disabled":false,"rental_uris":{"android":"levelo://app?vid=810ef53a-5aff-49f3-99db-34213da1b1cf","ios":"levelo://app?vid=810ef53a-5aff-49f3-99db-34213da1b1cf"},"vehicle_type_id":"4","last_reported":1778967485,"current_range_meters":6000,"station_id":"st_d6tc3vkotcvc738tfjhg","pricing_plan_id":"cebpf4jnsgd1na2vs0mg"},{"bike_id":"ec218d25-e51c-4ca9-a8c9-80136c734899","system_id":"levelo_inurba_marseille","lat":43.24407,"lon":5.37086,"is_reserved":false,"is_disabled":false,"rental_uris":{"android":"levelo://app?vid=ec218d25-e51c-4ca9-a8c9-80136c734899","ios":"levelo://app?vid=ec218d25-e51c-4ca9-a8c9-80136c734899"},"vehicle_type_id":"4","last_reported":1778967485,"current_range_meters":6000,"station_id":"ce4bhhh2rcd13ifvqfk0","pricing_plan_id":"cebpf4jnsgd1na2vs0mg"},{"bike_id":"f8d77e38-a4e7-4bd8-98aa-ae06da5242fc","system_id":"levelo_inurba_marseille","lat":43.25502,"lon":5.37654,"is_reserved":false,"is_disabled":false,"rental_uris":{"android":"levelo://app?vid=f8d77e38-a4e7-4bd8-98aa-ae06da5242fc","ios":"levelo://app?vid=f8d77e38-a4e7-4bd8-98aa-ae06da5242fc"},"vehicle_type_id":"4","last_reported":1778967485,"current_range_meters":6000,"station_id":"ce4bhh12rcd13ifvqff0","pricing_plan_id":"cebpf4jnsgd1na2vs0mg"},{"bike_id":"1f851116-6940-4a58-9585-668f78b17239","system_id":"levelo_inurba_marseille","lat":43.28229,"lon":5.39064,"is_reserved":false,"is_disabled":false,"rental_uris":{"android":"levelo://app?vid=1f851116-6940-4a58-9585-668f78b17239","ios":"levelo://app?vid=1f851116-6940-4a58-9585-668f78b17239"},"vehicle_type_id":"4","last_reported":1778967485,"current_range_meters":6000,"station_id":"ce4bhn92rcd13ifvqgsg","pricing_plan_id":"cebpf4jnsgd1na2vs0mg"},{"bike_id":"f6dc361b-946f-437e-815d-7feeaa1256af","system_id":"levelo_inurba_marseille","lat":43.25337,"lon":5.4218,"is_reserved":false,"is_disabled":false,"rental_uris":{"android":"levelo://app?vid=f6dc361b-946f-437e-815d-7feeaa1256af","ios":"levelo://app?vid=f6dc361b-946f-437e-815d-7feeaa1256af"},"vehicle_type_id":"4","last_reported":1778967485,"current_range_meters":6000,"station_id":"st_d2m65c5bi1j21697t3ng","pricing_plan_id":"cebpf4jnsgd1na2vs0mg"},{"bike_id":"e8c117cf-5bbe-48e0-b306-e04e191ed0d4","system_id":"levelo_inurba_marseille","lat":43.30791,"lon":5.37653,"is_reserved":false,"is_disabled":false,"rental_uris":{"android":"levelo://app?vid=e8c117cf-5bbe-48e0-b306-e04e191ed0d4","ios":"levelo://app?vid=e8c117cf-5bbe-48e0-b306-e04e191ed0d4"},"vehicle_type_id":"4","last_reported":1778967485,"current_range_meters":6000,"station_id":"ce4bgv92rcd13ifvqcq0","pricing_plan_id":"cebpf4jnsgd1na2vs0mg"},{"bike_id":"7fd7c1bb-0ed2-4eb7-959c-daab2eec52f3","system_id":"levelo_inurba_marseille","lat":43.24546,"lon":5.3952,"is_reserved":false,"is_disabled":false,"rental_uris":{"android":"levelo://app?vid=7fd7c1bb-0ed2-4eb7-959c-daab2eec52f3","ios":"levelo://app?vid=7fd7c1bb-0ed2-4eb7-959c-daab2eec52f3"},"vehicle_type_id":"4","last_reported":1778967485,"current_range_meters":6400,"station_id":"ce4bhlp2rcd13ifvqgjg","pricing_plan_id":"cebpf4jnsgd1na2vs0mg"},{"bike_id":"b3d3f46d-8b61-4048-a49d-46db42a99359","system_id":"levelo_inurba_marseille","lat":43.24806,"lon":5.37437,"is_reserved":false,"is_disabled":false,"rental_uris":{"android":"levelo://app?vid=b3d3f46d-8b61-4048-a49d-46db42a99359","ios":"levelo://app?vid=b3d3f46d-8b61-4048-a49d-46db42a99359"},"vehicle_type_id":"4","last_reported":1778967485,"current_range_meters":6400,"station_id":"ce4bhgh2rcd13ifvqfb0","pricing_plan_id":"cebpf4jnsgd1na2vs0mg"},{"bike_id":"3e7c9db3-7780-4c32-83eb-5d17b151f1e1","system_id":"levelo_inurba_marseille","lat":43.24951,"lon":5.40491,"is_reserved":false,"is_disabled":false,"rental_uris":{"android":"levelo://app?vid=3e7c9db3-7780-4c32-83eb-5d17b151f1e1","ios":"levelo://app?vid=3e7c9db3-7780-4c32-83eb-5d17b151f1e1"},"vehicle_type_id":"4","last_reported":1778967485,"current_range_meters":6400,"station_id":"st_d2ngiaodas8pm72gd1h0","pricing_plan_id":"cebpf4jnsgd1na2vs0mg"},{"bike_id":"3fc3c44e-8e86-4a32-a94c-dffc19e84835","system_id":"levelo_inurba_marseille","lat":43.30554,"lon":5.36585,"is_reserved":false,"is_disabled":false,"rental_uris":{"android":"levelo://app?vid=3fc3c44e-8e86-4a32-a94c-dffc19e84835","ios":"levelo://app?vid=3fc3c44e-8e86-4a32-a94c-dffc19e84835"},"vehicle_type_id":"4","last_reported":1778967485,"current_range_meters":6400,"station_id":"ce4bgs12rcd13ifvqcag","pricing_plan_id":"cebpf4jnsgd1na2vs0mg"},{"bike_id":"73b1154b-5b41-475e-9e09-73a9a766d8c0","system_id":"levelo_inurba_marseille","lat":43.29884,"lon":5.38906,"is_reserved":false,"is_disabled":false,"rental_uris":{"android":"levelo://app?vid=73b1154b-5b41-475e-9e09-73a9a766d8c0","ios":"levelo://app?vid=73b1154b-5b41-475e-9e09-73a9a766d8c0"},"vehicle_type_id":"4","last_reported":1778967485,"current_range_meters":6400,"station_id":"ce4bh392rcd13ifvqdl0","pricing_plan_id":"cebpf4jnsgd1na2vs0mg"},{"bike_id":"2bdacfe0-a2ed-4386-b888-adc7f1278d7f","system_id":"levelo_inurba_marseille","lat":43.27675,"lon":5.3889,"is_reserved":false,"is_disabled":false,"rental_uris":{"android":"levelo://app?vid=2bdacfe0-a2ed-4386-b888-adc7f1278d7f","ios":"levelo://app?vid=2bdacfe0-a2ed-4386-b888-adc7f1278d7f"},"vehicle_type_id":"4","last_reported":1778967485,"current_range_meters":6400,"station_id":"ce4bhi12rcd13ifvqfo0","pricing_plan_id":"cebpf4jnsgd1na2vs0mg"},{"bike_id":"67e9a8c6-e1b8-4dfa-8d9b-5631a1503dbe","system_id":"levelo_inurba_marseille","lat":43.337444,"lon":5.374475,"is_reserved":false,"is_disabled":false,"rental_uris":{"android":"levelo://app?vid=67e9a8c6-e1b8-4dfa-8d9b-5631a1503dbe","ios":"levelo://app?vid=67e9a8c6-e1b8-4dfa-8d9b-5631a1503dbe"},"vehicle_type_id":"4","last_reported":1778967485,"current_range_meters":6400,"station_id":"","pricing_plan_id":"cebpf4jnsgd1na2vs0mg"},{"bike_id":"3aeaf366-4ca9-4814-af02-fac214f541d4","system_id":"levelo_inurba_marseille","lat":43.31127,"lon":5.37763,"is_reserved":false,"is_disabled":false,"rental_uris":{"android":"levelo://app?vid=3aeaf366-4ca9-4814-af02-fac214f541d4","ios":"levelo://app?vid=3aeaf366-4ca9-4814-af02-fac214f541d4"},"vehicle_type_id":"4","last_reported":1778967485,"current_range_meters":6400,"station_id":"ce4bgt92rcd13ifvqcg0","pricing_plan_id":"cebpf4jnsgd1na2vs0mg"},{"bike_id":"b5700011-a486-4e56-b8fb-207aaf85d4db","system_id":"levelo_inurba_marseille","lat":43.31906,"lon":5.36829,"is_reserved":false,"is_disabled":false,"rental_uris":{"android":"levelo://app?vid=b5700011-a486-4e56-b8fb-207aaf85d4db","ios":"levelo://app?vid=b5700011-a486-4e56-b8fb-207aaf85d4db"},"vehicle_type_id":"4","last_reported":1778967485,"current_range_meters":6400,"station_id":"st_d6o2h0d0559c73evc1b0","pricing_plan_id":"cebpf4jnsgd1na2vs0mg"},{"bike_id":"d1f3b13b-a61c-41fc-b986-79acc9b16fe8","system_id":"levelo_inurba_marseille","lat":43.28533,"lon":5.44094,"is_reserved":false,"is_disabled":false,"rental_uris":{"android":"levelo://app?vid=d1f3b13b-a61c-41fc-b986-79acc9b16fe8","ios":"levelo://app?vid=d1f3b13b-a61c-41fc-b986-79acc9b16fe8"},"vehicle_type_id":"4","last_reported":1778967485,"current_range_meters":6400,"station_id":"st_d3j3df2ikq2c7380ej80","pricing_plan_id":"cebpf4jnsgd1na2vs0mg"},{"bike_id":"18947c84-5235-4bd5-9ce6-23fdc3005741","system_id":"levelo_inurba_marseille","lat":43.28412,"lon":5.37492,"is_reserved":false,"is_disabled":false,"rental_uris":{"android":"levelo://app?vid=18947c84-5235-4bd5-9ce6-23fdc3005741","ios":"levelo://app?vid=18947c84-5235-4bd5-9ce6-23fdc3005741"},"vehicle_type_id":"4","last_reported":1778967485,"current_range_meters":6400,"station_id":"ce4bh412rcd13ifvqds0","pricing_plan_id":"cebpf4jnsgd1na2vs0mg"},{"bike_id":"ee15264c-c5fd-4c69-a06f-329fd6fb9d0d","system_id":"levelo_inurba_marseille","lat":43.30129,"lon":5.43118,"is_reserved":false,"is_disabled":false,"rental_uris":{"android":"levelo://app?vid=ee15264c-c5fd-4c69-a06f-329fd6fb9d0d","ios":"levelo://app?vid=ee15264c-c5fd-4c69-a06f-329fd6fb9d0d"},"vehicle_type_id":"4","last_reported":1778967485,"current_range_meters":6400,"station_id":"st_d3js3co5814s73ftftug","pricing_plan_id":"cebpf4jnsgd1na2vs0mg"},{"bike_id":"f03022b2-f17c-4f72-ba67-cd412d6610d0","system_id":"levelo_inurba_marseille","lat":43.24996,"lon":5.38939,"is_reserved":false,"is_disabled":false,"rental_uris":{"android":"levelo://app?vid=f03022b2-f17c-4f72-ba67-cd412d6610d0","ios":"levelo://app?vid=f03022b2-f17c-4f72-ba67-cd412d6610d0"},"vehicle_type_id":"4","last_reported":1778967485,"current_range_meters":6400,"station_id":"ce4bhgp2rcd13ifvqfd0","pricing_plan_id":"cebpf4jnsgd1na2vs0mg"},{"bike_id":"00480880-79e5-4a67-b696-233f0844d881","system_id":"levelo_inurba_marseille","lat":43.2999,"lon":5.37169,"is_reserved":false,"is_disabled":true,"rental_uris":{"android":"levelo://app?vid=00480880-79e5-4a67-b696-233f0844d881","ios":"levelo://app?vid=00480880-79e5-4a67-b696-233f0844d881"},"vehicle_type_id":"4","last_reported":1778967485,"current_range_meters":6400,"station_id":"ce4bgr92rcd13ifvqc7g","pricing_plan_id":"cebpf4jnsgd1na2vs0mg"},{"bike_id":"10537d83-7308-4519-8bf3-ad7abb836cf5","system_id":"levelo_inurba_marseille","lat":43.29233,"lon":5.36082,"is_reserved":false,"is_disabled":false,"rental_uris":{"android":"levelo://app?vid=10537d83-7308-4519-8bf3-ad7abb836cf5","ios":"levelo://app?vid=10537d83-7308-4519-8bf3-ad7abb836cf5"},"vehicle_type_id":"4","last_reported":1778967485,"current_range_meters":6800,"station_id":"ce4bhbh2rcd13ifvqeqg","pricing_plan_id":"cebpf4jnsgd1na2vs0mg"},{"bike_id":"2a3ac7f8-64fc-4afa-850e-4502c0fce337","system_id":"levelo_inurba_marseille","lat":43.22574,"lon":5.41638,"is_reserved":false,"is_disabled":false,"rental_uris":{"android":"levelo://app?vid=2a3ac7f8-64fc-4afa-850e-4502c0fce337","ios":"levelo://app?vid=2a3ac7f8-64fc-4afa-850e-4502c0fce337"},"vehicle_type_id":"4","last_reported":1778967485,"current_range_meters":6800,"station_id":"st_d2o4gvlbi1j2169b742g","pricing_plan_id":"cebpf4jnsgd1na2vs0mg"},{"bike_id":"5f81ec45-e811-49b3-81b7-3971621e9736","system_id":"levelo_inurba_marseille","lat":43.2926,"lon":5.3843,"is_reserved":false,"is_disabled":false,"rental_uris":{"android":"levelo://app?vid=5f81ec45-e811-49b3-81b7-3971621e9736","ios":"levelo://app?vid=5f81ec45-e811-49b3-81b7-3971621e9736"},"vehicle_type_id":"4","last_reported":1778967485,"current_range_meters":6800,"station_id":"ce4bh692rcd13ifvqea0","pricing_plan_id":"cebpf4jnsgd1na2vs0mg"},{"bike_id":"614528d5-0976-4229-bef8-a4abb36ca88d","system_id":"levelo_inurba_marseille","lat":43.29235,"lon":5.36052,"is_reserved":false,"is_disabled":false,"rental_uris":{"android":"levelo://app?vid=614528d5-0976-4229-bef8-a4abb36ca88d","ios":"levelo://app?vid=614528d5-0976-4229-bef8-a4abb36ca88d"},"vehicle_type_id":"4","last_reported":1778967485,"current_range_meters":6800,"station_id":"ce4bhbh2rcd13ifvqeqg","pricing_plan_id":"cebpf4jnsgd1na2vs0mg"},{"bike_id":"616353f1-4754-4f57-9465-e46d49d24354","system_id":"levelo_inurba_marseille","lat":43.33639,"lon":5.36306,"is_reserved":false,"is_disabled":false,"rental_uris":{"android":"levelo://app?vid=616353f1-4754-4f57-9465-e46d49d24354","ios":"levelo://app?vid=616353f1-4754-4f57-9465-e46d49d24354"},"vehicle_type_id":"4","last_reported":1778967485,"current_range_meters":6800,"station_id":"","pricing_plan_id":"cebpf4jnsgd1na2vs0mg"},{"bike_id":"4b22f082-7087-497e-a55a-c049ceb5380b","system_id":"levelo_inurba_marseille","lat":43.29302,"lon":5.37141,"is_reserved":false,"is_disabled":false,"rental_uris":{"android":"levelo://app?vid=4b22f082-7087-497e-a55a-c049ceb5380b","ios":"levelo://app?vid=4b22f082-7087-497e-a55a-c049ceb5380b"},"vehicle_type_id":"4","last_reported":1778967485,"current_range_meters":6800,"station_id":"ce4bgh92rcd13ifvqb40","pricing_plan_id":"cebpf4jnsgd1na2vs0mg"},{"bike_id":"0d193018-0254-4f96-b88b-a21a7585d4b9","system_id":"levelo_inurba_marseille","lat":43.29015,"lon":5.3862,"is_reserved":false,"is_disabled":false,"rental_uris":{"android":"levelo://app?vid=0d193018-0254-4f96-b88b-a21a7585d4b9","ios":"levelo://app?vid=0d193018-0254-4f96-b88b-a21a7585d4b9"},"vehicle_type_id":"4","last_reported":1778967485,"current_range_meters":6800,"station_id":"ce4bh4p2rcd13ifvqe0g","pricing_plan_id":"cebpf4jnsgd1na2vs0mg"},{"bike_id":"9af6fe0c-8929-4ad0-aec8-aa13b9c3d6ee","system_id":"levelo_inurba_marseille","lat":43.28918,"lon":5.36571,"is_reserved":false,"is_disabled":false,"rental_uris":{"android":"levelo://app?vid=9af6fe0c-8929-4ad0-aec8-aa13b9c3d6ee","ios":"levelo://app?vid=9af6fe0c-8929-4ad0-aec8-aa13b9c3d6ee"},"vehicle_type_id":"4","last_reported":1778967485,"current_range_meters":6800,"station_id":"","pricing_plan_id":"cebpf4jnsgd1na2vs0mg"},{"bike_id":"1124e8ed-181a-445d-9220-36e963831e6c","system_id":"levelo_inurba_marseille","lat":43.23899,"lon":5.37446,"is_reserved":false,"is_disabled":true,"rental_uris":{"android":"levelo://app?vid=1124e8ed-181a-445d-9220-36e963831e6c","ios":"levelo://app?vid=1124e8ed-181a-445d-9220-36e963831e6c"},"vehicle_type_id":"4","last_reported":1778967485,"current_range_meters":6800,"station_id":"st_d6sm7csbq4hs73f8fpjg","pricing_plan_id":"cebpf4jnsgd1na2vs0mg"},{"bike_id":"654c1863-cd9c-43ef-bfd4-ea2dd2f77909","system_id":"levelo_inurba_marseille","lat":43.29057,"lon":5.35914,"is_reserved":false,"is_disabled":false,"rental_uris":{"android":"levelo://app?vid=654c1863-cd9c-43ef-bfd4-ea2dd2f77909","ios":"levelo://app?vid=654c1863-cd9c-43ef-bfd4-ea2dd2f77909"},"vehicle_type_id":"4","last_reported":1778967485,"current_range_meters":6800,"station_id":"ce4bha92rcd13ifvqeg0","pricing_plan_id":"cebpf4jnsgd1na2vs0mg"},{"bike_id":"a41e1d79-ab44-49a3-9e92-e9b24f4030d5","system_id":"levelo_inurba_marseille","lat":43.30436,"lon":5.38882,"is_reserved":false,"is_disabled":false,"rental_uris":{"android":"levelo://app?vid=a41e1d79-ab44-49a3-9e92-e9b24f4030d5","ios":"levelo://app?vid=a41e1d79-ab44-49a3-9e92-e9b24f4030d5"},"vehicle_type_id":"4","last_reported":1778967485,"current_range_meters":6800,"station_id":"ce4bgk12rcd13ifvqbi0","pricing_plan_id":"cebpf4jnsgd1na2vs0mg"},{"bike_id":"4ee69d41-30d6-469e-829a-74d2ce79aff4","system_id":"levelo_inurba_marseille","lat":43.33551,"lon":5.37445,"is_reserved":false,"is_disabled":false,"rental_uris":{"android":"levelo://app?vid=4ee69d41-30d6-469e-829a-74d2ce79aff4","ios":"levelo://app?vid=4ee69d41-30d6-469e-829a-74d2ce79aff4"},"vehicle_type_id":"4","last_reported":1778967485,"current_range_meters":6800,"station_id":"st_d46tts09ee8s73dlu43g","pricing_plan_id":"cebpf4jnsgd1na2vs0mg"},{"bike_id":"c83b10ba-3d1b-4a9d-91eb-88d3d34af951","system_id":"levelo_inurba_marseille","lat":43.23767,"lon":5.36569,"is_reserved":false,"is_disabled":false,"rental_uris":{"android":"levelo://app?vid=c83b10ba-3d1b-4a9d-91eb-88d3d34af951","ios":"levelo://app?vid=c83b10ba-3d1b-4a9d-91eb-88d3d34af951"},"vehicle_type_id":"4","last_reported":1778967485,"current_range_meters":6800,"station_id":"","pricing_plan_id":"cebpf4jnsgd1na2vs0mg"},{"bike_id":"edd5c786-8d24-46bc-bdcd-f0f00a11c1c1","system_id":"levelo_inurba_marseille","lat":43.25512,"lon":5.37654,"is_reserved":false,"is_disabled":true,"rental_uris":{"android":"levelo://app?vid=edd5c786-8d24-46bc-bdcd-f0f00a11c1c1","ios":"levelo://app?vid=edd5c786-8d24-46bc-bdcd-f0f00a11c1c1"},"vehicle_type_id":"4","last_reported":1778967485,"current_range_meters":6800,"station_id":"ce4bhh12rcd13ifvqff0","pricing_plan_id":"cebpf4jnsgd1na2vs0mg"},{"bike_id":"ef0a6768-e29f-4356-973d-0bb0f71028c5","system_id":"levelo_inurba_marseille","lat":43.28946,"lon":5.36637,"is_reserved":false,"is_disabled":false,"rental_uris":{"android":"levelo://app?vid=ef0a6768-e29f-4356-973d-0bb0f71028c5","ios":"levelo://app?vid=ef0a6768-e29f-4356-973d-0bb0f71028c5"},"vehicle_type_id":"4","last_reported":1778967485,"current_range_meters":6800,"station_id":"ce4bhap2rcd13ifvqek0","pricing_plan_id":"cebpf4jnsgd1na2vs0mg"},{"bike_id":"4a139587-4dd8-47fc-9a14-cc9e233d8ec9","system_id":"levelo_inurba_marseille","lat":43.32292,"lon":5.38281,"is_reserved":false,"is_disabled":false,"rental_uris":{"android":"levelo://app?vid=4a139587-4dd8-47fc-9a14-cc9e233d8ec9","ios":"levelo://app?vid=4a139587-4dd8-47fc-9a14-cc9e233d8ec9"},"vehicle_type_id":"4","last_reported":1778967485,"current_range_meters":6800,"station_id":"ce4bhr12rcd13ifvqhqg","pricing_plan_id":"cebpf4jnsgd1na2vs0mg"},{"bike_id":"944172d9-a966-48e0-831d-55982dfbfa52","system_id":"levelo_inurba_marseille","lat":43.24468,"lon":5.42526,"is_reserved":false,"is_disabled":false,"rental_uris":{"android":"levelo://app?vid=944172d9-a966-48e0-831d-55982dfbfa52","ios":"levelo://app?vid=944172d9-a966-48e0-831d-55982dfbfa52"},"vehicle_type_id":"4","last_reported":1778967485,"current_range_meters":6800,"station_id":"st_d4a3vfp97mjs738cd8kg","pricing_plan_id":"cebpf4jnsgd1na2vs0mg"},{"bike_id":"476ec896-6aed-448d-84e8-cbea548b3e3b","system_id":"levelo_inurba_marseille","lat":43.24469,"lon":5.42526,"is_reserved":false,"is_disabled":false,"rental_uris":{"android":"levelo://app?vid=476ec896-6aed-448d-84e8-cbea548b3e3b","ios":"levelo://app?vid=476ec896-6aed-448d-84e8-cbea548b3e3b"},"vehicle_type_id":"4","last_reported":1778967485,"current_range_meters":6800,"station_id":"st_d4a3vfp97mjs738cd8kg","pricing_plan_id":"cebpf4jnsgd1na2vs0mg"},{"bike_id":"97a62986-9365-4ea0-b0c6-9da7bdc97eda","system_id":"levelo_inurba_marseille","lat":43.24174,"lon":5.3639,"is_reserved":false,"is_disabled":false,"rental_uris":{"android":"levelo://app?vid=97a62986-9365-4ea0-b0c6-9da7bdc97eda","ios":"levelo://app?vid=97a62986-9365-4ea0-b0c6-9da7bdc97eda"},"vehicle_type_id":"4","last_reported":1778967485,"current_range_meters":6800,"station_id":"cpo36qri1sfpv3e86is0","pricing_plan_id":"cebpf4jnsgd1na2vs0mg"},{"bike_id":"0947af6c-8824-468d-a879-edc374c8222c","system_id":"levelo_inurba_marseille","lat":43.23188,"lon":5.39995,"is_reserved":false,"is_disabled":false,"rental_uris":{"android":"levelo://app?vid=0947af6c-8824-468d-a879-edc374c8222c","ios":"levelo://app?vid=0947af6c-8824-468d-a879-edc374c8222c"},"vehicle_type_id":"4","last_reported":1778967485,"current_range_meters":6800,"station_id":"ce4bhn12rcd13ifvqgqg","pricing_plan_id":"cebpf4jnsgd1na2vs0mg"},{"bike_id":"e5c11033-faa3-40fe-864a-2e41f9ec2427","system_id":"levelo_inurba_marseille","lat":43.231837,"lon":5.399883,"is_reserved":false,"is_disabled":false,"rental_uris":{"android":"levelo://app?vid=e5c11033-faa3-40fe-864a-2e41f9ec2427","ios":"levelo://app?vid=e5c11033-faa3-40fe-864a-2e41f9ec2427"},"vehicle_type_id":"4","last_reported":1778967485,"current_range_meters":6800,"station_id":"ce4bhn12rcd13ifvqgqg","pricing_plan_id":"cebpf4jnsgd1na2vs0mg"},{"bike_id":"b467cf52-e84d-42b9-ad71-bed97235ec79","system_id":"levelo_inurba_marseille","lat":43.29721,"lon":5.3764,"is_reserved":false,"is_disabled":false,"rental_uris":{"android":"levelo://app?vid=b467cf52-e84d-42b9-ad71-bed97235ec79","ios":"levelo://app?vid=b467cf52-e84d-42b9-ad71-bed97235ec79"},"vehicle_type_id":"4","last_reported":1778967485,"current_range_meters":7200,"station_id":"ce4bgkh2rcd13ifvqbl0","pricing_plan_id":"cebpf4jnsgd1na2vs0mg"},{"bike_id":"e8e04d3e-ea6f-4734-a6e9-288aabff112e","system_id":"levelo_inurba_marseille","lat":43.29268,"lon":5.38439,"is_reserved":false,"is_disabled":false,"rental_uris":{"android":"levelo://app?vid=e8e04d3e-ea6f-4734-a6e9-288aabff112e","ios":"levelo://app?vid=e8e04d3e-ea6f-4734-a6e9-288aabff112e"},"vehicle_type_id":"4","last_reported":1778967485,"current_range_meters":7200,"station_id":"ce4bh692rcd13ifvqea0","pricing_plan_id":"cebpf4jnsgd1na2vs0mg"},{"bike_id":"c091a819-21d8-46ac-8161-23f60b78cf02","system_id":"levelo_inurba_marseille","lat":43.27621,"lon":5.36098,"is_reserved":false,"is_disabled":true,"rental_uris":{"android":"levelo://app?vid=c091a819-21d8-46ac-8161-23f60b78cf02","ios":"levelo://app?vid=c091a819-21d8-46ac-8161-23f60b78cf02"},"vehicle_type_id":"4","last_reported":1778967485,"current_range_meters":7200,"station_id":"ce4bgj92rcd13ifvqbe0","pricing_plan_id":"cebpf4jnsgd1na2vs0mg"},{"bike_id":"df3b4c65-b594-43d2-9619-bf34b1560986","system_id":"levelo_inurba_marseille","lat":43.33569,"lon":5.37487,"is_reserved":false,"is_disabled":false,"rental_uris":{"android":"levelo://app?vid=df3b4c65-b594-43d2-9619-bf34b1560986","ios":"levelo://app?vid=df3b4c65-b594-43d2-9619-bf34b1560986"},"vehicle_type_id":"4","last_reported":1778967485,"current_range_meters":7200,"station_id":"st_d46tts09ee8s73dlu43g","pricing_plan_id":"cebpf4jnsgd1na2vs0mg"},{"bike_id":"1dd7d753-327a-4a0e-96a8-c35b8f67f696","system_id":"levelo_inurba_marseille","lat":43.23961,"lon":5.36622,"is_reserved":false,"is_disabled":false,"rental_uris":{"android":"levelo://app?vid=1dd7d753-327a-4a0e-96a8-c35b8f67f696","ios":"levelo://app?vid=1dd7d753-327a-4a0e-96a8-c35b8f67f696"},"vehicle_type_id":"4","last_reported":1778967485,"current_range_meters":7200,"station_id":"ce4bhi12rcd13ifvqfp0","pricing_plan_id":"cebpf4jnsgd1na2vs0mg"},{"bike_id":"378770a7-1a4e-4a1d-b694-214d3bfb3be7","system_id":"levelo_inurba_marseille","lat":43.2841,"lon":5.37502,"is_reserved":false,"is_disabled":false,"rental_uris":{"android":"levelo://app?vid=378770a7-1a4e-4a1d-b694-214d3bfb3be7","ios":"levelo://app?vid=378770a7-1a4e-4a1d-b694-214d3bfb3be7"},"vehicle_type_id":"4","last_reported":1778967485,"current_range_meters":7200,"station_id":"ce4bh412rcd13ifvqds0","pricing_plan_id":"cebpf4jnsgd1na2vs0mg"},{"bike_id":"ef20a65f-19f4-4491-8360-61efaea0f2fe","system_id":"levelo_inurba_marseille","lat":43.27686,"lon":5.41352,"is_reserved":false,"is_disabled":false,"rental_uris":{"android":"levelo://app?vid=ef20a65f-19f4-4491-8360-61efaea0f2fe","ios":"levelo://app?vid=ef20a65f-19f4-4491-8360-61efaea0f2fe"},"vehicle_type_id":"4","last_reported":1778967485,"current_range_meters":7200,"station_id":"","pricing_plan_id":"cebpf4jnsgd1na2vs0mg"},{"bike_id":"7c9517e3-38cb-4a87-948b-926583eebece","system_id":"levelo_inurba_marseille","lat":43.21201,"lon":5.35077,"is_reserved":false,"is_disabled":false,"rental_uris":{"android":"levelo://app?vid=7c9517e3-38cb-4a87-948b-926583eebece","ios":"levelo://app?vid=7c9517e3-38cb-4a87-948b-926583eebece"},"vehicle_type_id":"4","last_reported":1778967485,"current_range_meters":7200,"station_id":"st_cvj6sg6p6f1abm77japg","pricing_plan_id":"cebpf4jnsgd1na2vs0mg"},{"bike_id":"6c13a47f-e762-4886-bb77-554ff6bba405","system_id":"levelo_inurba_marseille","lat":43.29293,"lon":5.37462,"is_reserved":false,"is_disabled":false,"rental_uris":{"android":"levelo://app?vid=6c13a47f-e762-4886-bb77-554ff6bba405","ios":"levelo://app?vid=6c13a47f-e762-4886-bb77-554ff6bba405"},"vehicle_type_id":"4","last_reported":1778967485,"current_range_meters":7200,"station_id":"ce4bgi12rcd13ifvqb70","pricing_plan_id":"cebpf4jnsgd1na2vs0mg"},{"bike_id":"ab8f2737-eeae-4c6e-a081-d8e15664aa23","system_id":"levelo_inurba_marseille","lat":43.30423,"lon":5.3973,"is_reserved":false,"is_disabled":false,"rental_uris":{"android":"levelo://app?vid=ab8f2737-eeae-4c6e-a081-d8e15664aa23","ios":"levelo://app?vid=ab8f2737-eeae-4c6e-a081-d8e15664aa23"},"vehicle_type_id":"4","last_reported":1778967485,"current_range_meters":7200,"station_id":"ce4bh092rcd13ifvqd20","pricing_plan_id":"cebpf4jnsgd1na2vs0mg"},{"bike_id":"ce966e10-f17a-44aa-ae2b-74fe2919cd80","system_id":"levelo_inurba_marseille","lat":43.29564,"lon":5.39975,"is_reserved":false,"is_disabled":false,"rental_uris":{"android":"levelo://app?vid=ce966e10-f17a-44aa-ae2b-74fe2919cd80","ios":"levelo://app?vid=ce966e10-f17a-44aa-ae2b-74fe2919cd80"},"vehicle_type_id":"4","last_reported":1778967485,"current_range_meters":7200,"station_id":"ce4bh312rcd13ifvqdj0","pricing_plan_id":"cebpf4jnsgd1na2vs0mg"},{"bike_id":"838dedee-4cbd-4997-9d32-b652b1084416","system_id":"levelo_inurba_marseille","lat":43.28619,"lon":5.35112,"is_reserved":false,"is_disabled":false,"rental_uris":{"android":"levelo://app?vid=838dedee-4cbd-4997-9d32-b652b1084416","ios":"levelo://app?vid=838dedee-4cbd-4997-9d32-b652b1084416"},"vehicle_type_id":"4","last_reported":1778967485,"current_range_meters":7200,"station_id":"ce4bhch2rcd13ifvqeug","pricing_plan_id":"cebpf4jnsgd1na2vs0mg"},{"bike_id":"395f4cd3-8b3f-4172-b1a4-d1e74804c2ee","system_id":"levelo_inurba_marseille","lat":43.30472,"lon":5.38854,"is_reserved":false,"is_disabled":false,"rental_uris":{"android":"levelo://app?vid=395f4cd3-8b3f-4172-b1a4-d1e74804c2ee","ios":"levelo://app?vid=395f4cd3-8b3f-4172-b1a4-d1e74804c2ee"},"vehicle_type_id":"4","last_reported":1778967485,"current_range_meters":7200,"station_id":"ce4bgk12rcd13ifvqbi0","pricing_plan_id":"cebpf4jnsgd1na2vs0mg"},{"bike_id":"428ef16f-9295-44fd-acd3-62b9ad5721e8","system_id":"levelo_inurba_marseille","lat":43.29778,"lon":5.37111,"is_reserved":false,"is_disabled":false,"rental_uris":{"android":"levelo://app?vid=428ef16f-9295-44fd-acd3-62b9ad5721e8","ios":"levelo://app?vid=428ef16f-9295-44fd-acd3-62b9ad5721e8"},"vehicle_type_id":"4","last_reported":1778967485,"current_range_meters":7200,"station_id":"ce4bgop2rcd13ifvqc1g","pricing_plan_id":"cebpf4jnsgd1na2vs0mg"},{"bike_id":"35d75035-1dfa-48a0-a617-9fb4819f6e44","system_id":"levelo_inurba_marseille","lat":43.29278,"lon":5.36846,"is_reserved":false,"is_disabled":false,"rental_uris":{"android":"levelo://app?vid=35d75035-1dfa-48a0-a617-9fb4819f6e44","ios":"levelo://app?vid=35d75035-1dfa-48a0-a617-9fb4819f6e44"},"vehicle_type_id":"4","last_reported":1778967485,"current_range_meters":7200,"station_id":"ce4bhbp2rcd13ifvqesg","pricing_plan_id":"cebpf4jnsgd1na2vs0mg"},{"bike_id":"1be47044-a515-4b7f-9fb0-44745bcacda2","system_id":"levelo_inurba_marseille","lat":43.22559,"lon":5.41633,"is_reserved":false,"is_disabled":false,"rental_uris":{"android":"levelo://app?vid=1be47044-a515-4b7f-9fb0-44745bcacda2","ios":"levelo://app?vid=1be47044-a515-4b7f-9fb0-44745bcacda2"},"vehicle_type_id":"4","last_reported":1778967485,"current_range_meters":7200,"station_id":"st_d2o4gvlbi1j2169b742g","pricing_plan_id":"cebpf4jnsgd1na2vs0mg"},{"bike_id":"183ecbf2-1487-4e31-a0b0-97fce68bdb3c","system_id":"levelo_inurba_marseille","lat":43.3136,"lon":5.38512,"is_reserved":false,"is_disabled":false,"rental_uris":{"android":"levelo://app?vid=183ecbf2-1487-4e31-a0b0-97fce68bdb3c","ios":"levelo://app?vid=183ecbf2-1487-4e31-a0b0-97fce68bdb3c"},"vehicle_type_id":"4","last_reported":1778967485,"current_range_meters":7200,"station_id":"ce4bgt92rcd13ifvqcf0","pricing_plan_id":"cebpf4jnsgd1na2vs0mg"},{"bike_id":"3ee01a3f-9bb3-4d07-acc6-bd03f8a764ca","system_id":"levelo_inurba_marseille","lat":43.29253,"lon":5.38435,"is_reserved":false,"is_disabled":false,"rental_uris":{"android":"levelo://app?vid=3ee01a3f-9bb3-4d07-acc6-bd03f8a764ca","ios":"levelo://app?vid=3ee01a3f-9bb3-4d07-acc6-bd03f8a764ca"},"vehicle_type_id":"4","last_reported":1778967485,"current_range_meters":7200,"station_id":"ce4bh692rcd13ifvqea0","pricing_plan_id":"cebpf4jnsgd1na2vs0mg"},{"bike_id":"e6de9889-d490-4a2a-86a6-518caa757cec","system_id":"levelo_inurba_marseille","lat":43.25086,"lon":5.3952,"is_reserved":false,"is_disabled":false,"rental_uris":{"android":"levelo://app?vid=e6de9889-d490-4a2a-86a6-518caa757cec","ios":"levelo://app?vid=e6de9889-d490-4a2a-86a6-518caa757cec"},"vehicle_type_id":"4","last_reported":1778967485,"current_range_meters":7200,"station_id":"ce4bhm12rcd13ifvqgkg","pricing_plan_id":"cebpf4jnsgd1na2vs0mg"},{"bike_id":"dace259d-e3eb-491e-95dc-863daa176674","system_id":"levelo_inurba_marseille","lat":43.24177,"lon":5.36394,"is_reserved":false,"is_disabled":false,"rental_uris":{"android":"levelo://app?vid=dace259d-e3eb-491e-95dc-863daa176674","ios":"levelo://app?vid=dace259d-e3eb-491e-95dc-863daa176674"},"vehicle_type_id":"4","last_reported":1778967485,"current_range_meters":7200,"station_id":"cpo36qri1sfpv3e86is0","pricing_plan_id":"cebpf4jnsgd1na2vs0mg"},{"bike_id":"72ffcce3-98f7-4d69-8e98-22fece3ee328","system_id":"levelo_inurba_marseille","lat":43.23192,"lon":5.35507,"is_reserved":false,"is_disabled":false,"rental_uris":{"android":"levelo://app?vid=72ffcce3-98f7-4d69-8e98-22fece3ee328","ios":"levelo://app?vid=72ffcce3-98f7-4d69-8e98-22fece3ee328"},"vehicle_type_id":"4","last_reported":1778967485,"current_range_meters":7200,"station_id":"ce4bhu92rcd13ifvqi70","pricing_plan_id":"cebpf4jnsgd1na2vs0mg"},{"bike_id":"969da377-84a6-4131-9461-3d657ad337b4","system_id":"levelo_inurba_marseille","lat":43.28106,"lon":5.3783,"is_reserved":false,"is_disabled":false,"rental_uris":{"android":"levelo://app?vid=969da377-84a6-4131-9461-3d657ad337b4","ios":"levelo://app?vid=969da377-84a6-4131-9461-3d657ad337b4"},"vehicle_type_id":"4","last_reported":1778967485,"current_range_meters":7200,"station_id":"ce4bha12rcd13ifvqee0","pricing_plan_id":"cebpf4jnsgd1na2vs0mg"},{"bike_id":"12e80f94-f959-4315-996c-14a6a84050b0","system_id":"levelo_inurba_marseille","lat":43.28667,"lon":5.38661,"is_reserved":false,"is_disabled":false,"rental_uris":{"android":"levelo://app?vid=12e80f94-f959-4315-996c-14a6a84050b0","ios":"levelo://app?vid=12e80f94-f959-4315-996c-14a6a84050b0"},"vehicle_type_id":"4","last_reported":1778967485,"current_range_meters":7200,"station_id":"ce4bh492rcd13ifvqdug","pricing_plan_id":"cebpf4jnsgd1na2vs0mg"},{"bike_id":"a1ab8acd-1c84-48bf-8978-ba485dde4889","system_id":"levelo_inurba_marseille","lat":43.26223,"lon":5.37442,"is_reserved":false,"is_disabled":false,"rental_uris":{"android":"levelo://app?vid=a1ab8acd-1c84-48bf-8978-ba485dde4889","ios":"levelo://app?vid=a1ab8acd-1c84-48bf-8978-ba485dde4889"},"vehicle_type_id":"4","last_reported":1778967485,"current_range_meters":7200,"station_id":"","pricing_plan_id":"cebpf4jnsgd1na2vs0mg"},{"bike_id":"22c4c69d-488e-4448-acb3-5d74f167c677","system_id":"levelo_inurba_marseille","lat":43.27952,"lon":5.41028,"is_reserved":false,"is_disabled":false,"rental_uris":{"android":"levelo://app?vid=22c4c69d-488e-4448-acb3-5d74f167c677","ios":"levelo://app?vid=22c4c69d-488e-4448-acb3-5d74f167c677"},"vehicle_type_id":"4","last_reported":1778967485,"current_range_meters":7200,"station_id":"ce4bhnp2rcd13ifvqh0g","pricing_plan_id":"cebpf4jnsgd1na2vs0mg"},{"bike_id":"98e7b7fe-6647-4a9e-8605-fac04f87e942","system_id":"levelo_inurba_marseille","lat":43.29623,"lon":5.37712,"is_reserved":false,"is_disabled":false,"rental_uris":{"android":"levelo://app?vid=98e7b7fe-6647-4a9e-8605-fac04f87e942","ios":"levelo://app?vid=98e7b7fe-6647-4a9e-8605-fac04f87e942"},"vehicle_type_id":"4","last_reported":1778967485,"current_range_meters":8000,"station_id":"ce4bgi92rcd13ifvqb90","pricing_plan_id":"cebpf4jnsgd1na2vs0mg"},{"bike_id":"d2e9e508-7d37-4da5-aa69-479dffead3b5","system_id":"levelo_inurba_marseille","lat":43.29523,"lon":5.38544,"is_reserved":false,"is_disabled":false,"rental_uris":{"android":"levelo://app?vid=d2e9e508-7d37-4da5-aa69-479dffead3b5","ios":"levelo://app?vid=d2e9e508-7d37-4da5-aa69-479dffead3b5"},"vehicle_type_id":"4","last_reported":1778967485,"current_range_meters":8000,"station_id":"ce4bgih2rcd13ifvqba0","pricing_plan_id":"cebpf4jnsgd1na2vs0mg"},{"bike_id":"a773650a-7c22-432a-a05a-af2b3f7af6fb","system_id":"levelo_inurba_marseille","lat":43.29573,"lon":5.37501,"is_reserved":false,"is_disabled":true,"rental_uris":{"android":"levelo://app?vid=a773650a-7c22-432a-a05a-af2b3f7af6fb","ios":"levelo://app?vid=a773650a-7c22-432a-a05a-af2b3f7af6fb"},"vehicle_type_id":"4","last_reported":1778967485,"current_range_meters":8000,"station_id":"ce4bgh92rcd13ifvqb50","pricing_plan_id":"cebpf4jnsgd1na2vs0mg"},{"bike_id":"ed8b9caf-da29-4c6c-b8b8-2bb3a2494930","system_id":"levelo_inurba_marseille","lat":43.22571,"lon":5.41629,"is_reserved":false,"is_disabled":false,"rental_uris":{"android":"levelo://app?vid=ed8b9caf-da29-4c6c-b8b8-2bb3a2494930","ios":"levelo://app?vid=ed8b9caf-da29-4c6c-b8b8-2bb3a2494930"},"vehicle_type_id":"4","last_reported":1778967485,"current_range_meters":8000,"station_id":"st_d2o4gvlbi1j2169b742g","pricing_plan_id":"cebpf4jnsgd1na2vs0mg"},{"bike_id":"abc99932-c216-422a-aab0-a9df05a5d1ea","system_id":"levelo_inurba_marseille","lat":43.30951,"lon":5.39042,"is_reserved":false,"is_disabled":true,"rental_uris":{"android":"levelo://app?vid=abc99932-c216-422a-aab0-a9df05a5d1ea","ios":"levelo://app?vid=abc99932-c216-422a-aab0-a9df05a5d1ea"},"vehicle_type_id":"4","last_reported":1778967485,"current_range_meters":8000,"station_id":"ce4bgup2rcd13ifvqco0","pricing_plan_id":"cebpf4jnsgd1na2vs0mg"},{"bike_id":"31377f31-2715-44bc-b730-1af1ece20a20","system_id":"levelo_inurba_marseille","lat":43.25081,"lon":5.39515,"is_reserved":false,"is_disabled":false,"rental_uris":{"android":"levelo://app?vid=31377f31-2715-44bc-b730-1af1ece20a20","ios":"levelo://app?vid=31377f31-2715-44bc-b730-1af1ece20a20"},"vehicle_type_id":"4","last_reported":1778967485,"current_range_meters":8000,"station_id":"ce4bhm12rcd13ifvqgkg","pricing_plan_id":"cebpf4jnsgd1na2vs0mg"},{"bike_id":"59ebfeaf-288c-4113-86b3-96065d458976","system_id":"levelo_inurba_marseille","lat":43.33159,"lon":5.37684,"is_reserved":false,"is_disabled":false,"rental_uris":{"android":"levelo://app?vid=59ebfeaf-288c-4113-86b3-96065d458976","ios":"levelo://app?vid=59ebfeaf-288c-4113-86b3-96065d458976"},"vehicle_type_id":"4","last_reported":1778967485,"current_range_meters":8000,"station_id":"st_d46cu089ee8s73dldbu0","pricing_plan_id":"cebpf4jnsgd1na2vs0mg"},{"bike_id":"31810c35-18ad-4ea3-9c10-af8cc483949c","system_id":"levelo_inurba_marseille","lat":43.25572,"lon":5.38234,"is_reserved":false,"is_disabled":false,"rental_uris":{"android":"levelo://app?vid=31810c35-18ad-4ea3-9c10-af8cc483949c","ios":"levelo://app?vid=31810c35-18ad-4ea3-9c10-af8cc483949c"},"vehicle_type_id":"4","last_reported":1778967485,"current_range_meters":8000,"station_id":"ce4bhih2rcd13ifvqfs0","pricing_plan_id":"cebpf4jnsgd1na2vs0mg"},{"bike_id":"74e662af-45d3-428d-910d-8fcda874c8bd","system_id":"levelo_inurba_marseille","lat":43.23963,"lon":5.36629,"is_reserved":false,"is_disabled":false,"rental_uris":{"android":"levelo://app?vid=74e662af-45d3-428d-910d-8fcda874c8bd","ios":"levelo://app?vid=74e662af-45d3-428d-910d-8fcda874c8bd"},"vehicle_type_id":"4","last_reported":1778967485,"current_range_meters":8000,"station_id":"ce4bhi12rcd13ifvqfp0","pricing_plan_id":"cebpf4jnsgd1na2vs0mg"},{"bike_id":"046b7506-82fe-4d87-823a-3d7d55ff0981","system_id":"levelo_inurba_marseille","lat":43.28832,"lon":5.35834,"is_reserved":false,"is_disabled":false,"rental_uris":{"android":"levelo://app?vid=046b7506-82fe-4d87-823a-3d7d55ff0981","ios":"levelo://app?vid=046b7506-82fe-4d87-823a-3d7d55ff0981"},"vehicle_type_id":"4","last_reported":1778967485,"current_range_meters":8000,"station_id":"ce4bhb12rcd13ifvqem0","pricing_plan_id":"cebpf4jnsgd1na2vs0mg"},{"bike_id":"0d50daf1-0ebe-4070-a3f4-50a2aaf9e668","system_id":"levelo_inurba_marseille","lat":43.24549,"lon":5.39527,"is_reserved":false,"is_disabled":true,"rental_uris":{"android":"levelo://app?vid=0d50daf1-0ebe-4070-a3f4-50a2aaf9e668","ios":"levelo://app?vid=0d50daf1-0ebe-4070-a3f4-50a2aaf9e668"},"vehicle_type_id":"4","last_reported":1778967485,"current_range_meters":8000,"station_id":"ce4bhlp2rcd13ifvqgjg","pricing_plan_id":"cebpf4jnsgd1na2vs0mg"},{"bike_id":"37ca5b86-b3d0-4bc0-80e9-3ce47d4dd8d3","system_id":"levelo_inurba_marseille","lat":43.23904,"lon":5.37454,"is_reserved":false,"is_disabled":false,"rental_uris":{"android":"levelo://app?vid=37ca5b86-b3d0-4bc0-80e9-3ce47d4dd8d3","ios":"levelo://app?vid=37ca5b86-b3d0-4bc0-80e9-3ce47d4dd8d3"},"vehicle_type_id":"4","last_reported":1778967485,"current_range_meters":8000,"station_id":"st_d6sm7csbq4hs73f8fpjg","pricing_plan_id":"cebpf4jnsgd1na2vs0mg"},{"bike_id":"39f5e5e3-bdaa-431e-ab82-46a06c8cb2ae","system_id":"levelo_inurba_marseille","lat":43.24463,"lon":5.42535,"is_reserved":false,"is_disabled":false,"rental_uris":{"android":"levelo://app?vid=39f5e5e3-bdaa-431e-ab82-46a06c8cb2ae","ios":"levelo://app?vid=39f5e5e3-bdaa-431e-ab82-46a06c8cb2ae"},"vehicle_type_id":"4","last_reported":1778967485,"current_range_meters":8000,"station_id":"st_d4a3vfp97mjs738cd8kg","pricing_plan_id":"cebpf4jnsgd1na2vs0mg"},{"bike_id":"1f255333-0dee-46a8-8f6a-ce22f3ff59bd","system_id":"levelo_inurba_marseille","lat":43.22532,"lon":5.34833,"is_reserved":false,"is_disabled":true,"rental_uris":{"android":"levelo://app?vid=1f255333-0dee-46a8-8f6a-ce22f3ff59bd","ios":"levelo://app?vid=1f255333-0dee-46a8-8f6a-ce22f3ff59bd"},"vehicle_type_id":"4","last_reported":1778967485,"current_range_meters":8000,"station_id":"st_cvj5dfep6f1abm77gieg","pricing_plan_id":"cebpf4jnsgd1na2vs0mg"},{"bike_id":"ee51b083-ba62-43a1-8a0a-7eff9e26d1d2","system_id":"levelo_inurba_marseille","lat":43.2467,"lon":5.38145,"is_reserved":false,"is_disabled":false,"rental_uris":{"android":"levelo://app?vid=ee51b083-ba62-43a1-8a0a-7eff9e26d1d2","ios":"levelo://app?vid=ee51b083-ba62-43a1-8a0a-7eff9e26d1d2"},"vehicle_type_id":"4","last_reported":1778967485,"current_range_meters":8000,"station_id":"ce4bhih2rcd13ifvqfr0","pricing_plan_id":"cebpf4jnsgd1na2vs0mg"},{"bike_id":"41ed03a9-ce21-4903-a810-ca307a88c332","system_id":"levelo_inurba_marseille","lat":43.26219,"lon":5.40427,"is_reserved":false,"is_disabled":false,"rental_uris":{"android":"levelo://app?vid=41ed03a9-ce21-4903-a810-ca307a88c332","ios":"levelo://app?vid=41ed03a9-ce21-4903-a810-ca307a88c332"},"vehicle_type_id":"4","last_reported":1778967485,"current_range_meters":8000,"station_id":"ce4bhmh2rcd13ifvqgmg","pricing_plan_id":"cebpf4jnsgd1na2vs0mg"},{"bike_id":"264be224-53e3-492e-a159-efc4fcfb6de9","system_id":"levelo_inurba_marseille","lat":43.286156,"lon":5.351041,"is_reserved":false,"is_disabled":false,"rental_uris":{"android":"levelo://app?vid=264be224-53e3-492e-a159-efc4fcfb6de9","ios":"levelo://app?vid=264be224-53e3-492e-a159-efc4fcfb6de9"},"vehicle_type_id":"4","last_reported":1778967485,"current_range_meters":8000,"station_id":"ce4bhch2rcd13ifvqeug","pricing_plan_id":"cebpf4jnsgd1na2vs0mg"},{"bike_id":"8a3e36e3-f591-4fd5-81b4-a13926826957","system_id":"levelo_inurba_marseille","lat":43.2904,"lon":5.39953,"is_reserved":false,"is_disabled":false,"rental_uris":{"android":"levelo://app?vid=8a3e36e3-f591-4fd5-81b4-a13926826957","ios":"levelo://app?vid=8a3e36e3-f591-4fd5-81b4-a13926826957"},"vehicle_type_id":"4","last_reported":1778967485,"current_range_meters":8000,"station_id":"ce4bh392rcd13ifvqdm0","pricing_plan_id":"cebpf4jnsgd1na2vs0mg"},{"bike_id":"f0908256-e45c-4db8-a608-0c759cabd932","system_id":"levelo_inurba_marseille","lat":43.2834,"lon":5.38108,"is_reserved":false,"is_disabled":false,"rental_uris":{"android":"levelo://app?vid=f0908256-e45c-4db8-a608-0c759cabd932","ios":"levelo://app?vid=f0908256-e45c-4db8-a608-0c759cabd932"},"vehicle_type_id":"4","last_reported":1778967485,"current_range_meters":8000,"station_id":"ce4bh412rcd13ifvqdr0","pricing_plan_id":"cebpf4jnsgd1na2vs0mg"},{"bike_id":"9ff57922-59f8-44bb-8618-6ddadf8235bc","system_id":"levelo_inurba_marseille","lat":43.30144,"lon":5.37411,"is_reserved":false,"is_disabled":false,"rental_uris":{"android":"levelo://app?vid=9ff57922-59f8-44bb-8618-6ddadf8235bc","ios":"levelo://app?vid=9ff57922-59f8-44bb-8618-6ddadf8235bc"},"vehicle_type_id":"4","last_reported":1778967485,"current_range_meters":8000,"station_id":"ce4bgs92rcd13ifvqcc0","pricing_plan_id":"cebpf4jnsgd1na2vs0mg"},{"bike_id":"3f13317f-6999-4b32-ae2b-cfe8d2d29934","system_id":"levelo_inurba_marseille","lat":43.286713,"lon":5.363464,"is_reserved":false,"is_disabled":false,"rental_uris":{"android":"levelo://app?vid=3f13317f-6999-4b32-ae2b-cfe8d2d29934","ios":"levelo://app?vid=3f13317f-6999-4b32-ae2b-cfe8d2d29934"},"vehicle_type_id":"4","last_reported":1778967485,"current_range_meters":8000,"station_id":"ce4bhah2rcd13ifvqej0","pricing_plan_id":"cebpf4jnsgd1na2vs0mg"},{"bike_id":"a9c4cf58-eff3-46f4-8aa3-83491b171b4a","system_id":"levelo_inurba_marseille","lat":43.27372,"lon":5.36249,"is_reserved":false,"is_disabled":false,"rental_uris":{"android":"levelo://app?vid=a9c4cf58-eff3-46f4-8aa3-83491b171b4a","ios":"levelo://app?vid=a9c4cf58-eff3-46f4-8aa3-83491b171b4a"},"vehicle_type_id":"4","last_reported":1778967485,"current_range_meters":8000,"station_id":"ce4bhbh2rcd13ifvqeo0","pricing_plan_id":"cebpf4jnsgd1na2vs0mg"},{"bike_id":"cf3366df-323a-45c1-8338-287ff431cd10","system_id":"levelo_inurba_marseille","lat":43.29569,"lon":5.39971,"is_reserved":false,"is_disabled":false,"rental_uris":{"android":"levelo://app?vid=cf3366df-323a-45c1-8338-287ff431cd10","ios":"levelo://app?vid=cf3366df-323a-45c1-8338-287ff431cd10"},"vehicle_type_id":"4","last_reported":1778967485,"current_range_meters":8000,"station_id":"ce4bh312rcd13ifvqdj0","pricing_plan_id":"cebpf4jnsgd1na2vs0mg"},{"bike_id":"a7463222-df63-4645-9c39-b075d7248d06","system_id":"levelo_inurba_marseille","lat":43.25514,"lon":5.37655,"is_reserved":false,"is_disabled":false,"rental_uris":{"android":"levelo://app?vid=a7463222-df63-4645-9c39-b075d7248d06","ios":"levelo://app?vid=a7463222-df63-4645-9c39-b075d7248d06"},"vehicle_type_id":"4","last_reported":1778967485,"current_range_meters":8000,"station_id":"ce4bhh12rcd13ifvqff0","pricing_plan_id":"cebpf4jnsgd1na2vs0mg"},{"bike_id":"7832fec0-1dc2-4d6b-9ef2-2a4667eb7e9a","system_id":"levelo_inurba_marseille","lat":43.30329,"lon":5.40417,"is_reserved":false,"is_disabled":false,"rental_uris":{"android":"levelo://app?vid=7832fec0-1dc2-4d6b-9ef2-2a4667eb7e9a","ios":"levelo://app?vid=7832fec0-1dc2-4d6b-9ef2-2a4667eb7e9a"},"vehicle_type_id":"4","last_reported":1778967485,"current_range_meters":8000,"station_id":"ce4bh012rcd13ifvqd10","pricing_plan_id":"cebpf4jnsgd1na2vs0mg"},{"bike_id":"0ffdfa76-348b-4766-a53b-889a0cc53c17","system_id":"levelo_inurba_marseille","lat":43.32497,"lon":5.36544,"is_reserved":false,"is_disabled":false,"rental_uris":{"android":"levelo://app?vid=0ffdfa76-348b-4766-a53b-889a0cc53c17","ios":"levelo://app?vid=0ffdfa76-348b-4766-a53b-889a0cc53c17"},"vehicle_type_id":"4","last_reported":1778967485,"current_range_meters":8000,"station_id":"ce4bhs12rcd13ifvqhvg","pricing_plan_id":"cebpf4jnsgd1na2vs0mg"},{"bike_id":"88ebba12-c7cd-486b-9975-61421df69630","system_id":"levelo_inurba_marseille","lat":43.29974,"lon":5.3849,"is_reserved":false,"is_disabled":false,"rental_uris":{"android":"levelo://app?vid=88ebba12-c7cd-486b-9975-61421df69630","ios":"levelo://app?vid=88ebba12-c7cd-486b-9975-61421df69630"},"vehicle_type_id":"4","last_reported":1778967485,"current_range_meters":8400,"station_id":"ce4bgj92rcd13ifvqbd0","pricing_plan_id":"cebpf4jnsgd1na2vs0mg"},{"bike_id":"032fbbce-f9a4-4bef-952a-0977318b2380","system_id":"levelo_inurba_marseille","lat":43.24811,"lon":5.3747,"is_reserved":false,"is_disabled":false,"rental_uris":{"android":"levelo://app?vid=032fbbce-f9a4-4bef-952a-0977318b2380","ios":"levelo://app?vid=032fbbce-f9a4-4bef-952a-0977318b2380"},"vehicle_type_id":"4","last_reported":1778967485,"current_range_meters":8400,"station_id":"ce4bhgh2rcd13ifvqfb0","pricing_plan_id":"cebpf4jnsgd1na2vs0mg"},{"bike_id":"4e5bd537-c85f-4cfa-a272-100a01edb9bf","system_id":"levelo_inurba_marseille","lat":43.31705,"lon":5.40469,"is_reserved":false,"is_disabled":false,"rental_uris":{"android":"levelo://app?vid=4e5bd537-c85f-4cfa-a272-100a01edb9bf","ios":"levelo://app?vid=4e5bd537-c85f-4cfa-a272-100a01edb9bf"},"vehicle_type_id":"4","last_reported":1778967485,"current_range_meters":8400,"station_id":"ce4bh012rcd13ifvqd00","pricing_plan_id":"cebpf4jnsgd1na2vs0mg"},{"bike_id":"8382078d-0cc4-47c7-8405-b42fc5263512","system_id":"levelo_inurba_marseille","lat":43.27212,"lon":5.39168,"is_reserved":false,"is_disabled":false,"rental_uris":{"android":"levelo://app?vid=8382078d-0cc4-47c7-8405-b42fc5263512","ios":"levelo://app?vid=8382078d-0cc4-47c7-8405-b42fc5263512"},"vehicle_type_id":"4","last_reported":1778967485,"current_range_meters":8400,"station_id":"ce4bhhp2rcd13ifvqfm0","pricing_plan_id":"cebpf4jnsgd1na2vs0mg"},{"bike_id":"d2b2c17a-ea55-4d09-b1b4-c2cd5226f326","system_id":"levelo_inurba_marseille","lat":43.2737,"lon":5.36232,"is_reserved":false,"is_disabled":false,"rental_uris":{"android":"levelo://app?vid=d2b2c17a-ea55-4d09-b1b4-c2cd5226f326","ios":"levelo://app?vid=d2b2c17a-ea55-4d09-b1b4-c2cd5226f326"},"vehicle_type_id":"4","last_reported":1778967485,"current_range_meters":8400,"station_id":"ce4bhbh2rcd13ifvqeo0","pricing_plan_id":"cebpf4jnsgd1na2vs0mg"},{"bike_id":"6ae37ded-3636-4422-8022-f551e8962de8","system_id":"levelo_inurba_marseille","lat":43.29736,"lon":5.37695,"is_reserved":false,"is_disabled":false,"rental_uris":{"android":"levelo://app?vid=6ae37ded-3636-4422-8022-f551e8962de8","ios":"levelo://app?vid=6ae37ded-3636-4422-8022-f551e8962de8"},"vehicle_type_id":"4","last_reported":1778967485,"current_range_meters":8400,"station_id":"ce4bgkh2rcd13ifvqbl0","pricing_plan_id":"cebpf4jnsgd1na2vs0mg"},{"bike_id":"d2fc694b-e0d5-4195-b207-b0d4ef2af5f6","system_id":"levelo_inurba_marseille","lat":43.29723,"lon":5.37692,"is_reserved":false,"is_disabled":false,"rental_uris":{"android":"levelo://app?vid=d2fc694b-e0d5-4195-b207-b0d4ef2af5f6","ios":"levelo://app?vid=d2fc694b-e0d5-4195-b207-b0d4ef2af5f6"},"vehicle_type_id":"4","last_reported":1778967485,"current_range_meters":8400,"station_id":"","pricing_plan_id":"cebpf4jnsgd1na2vs0mg"},{"bike_id":"03b692ed-27df-4348-8e38-0c47a75d5d57","system_id":"levelo_inurba_marseille","lat":43.29543,"lon":5.3854,"is_reserved":false,"is_disabled":false,"rental_uris":{"android":"levelo://app?vid=03b692ed-27df-4348-8e38-0c47a75d5d57","ios":"levelo://app?vid=03b692ed-27df-4348-8e38-0c47a75d5d57"},"vehicle_type_id":"4","last_reported":1778967485,"current_range_meters":8400,"station_id":"ce4bgih2rcd13ifvqba0","pricing_plan_id":"cebpf4jnsgd1na2vs0mg"},{"bike_id":"0cef6cc5-83fc-4ee5-8562-a133645f0f0d","system_id":"levelo_inurba_marseille","lat":43.29038,"lon":5.39985,"is_reserved":false,"is_disabled":false,"rental_uris":{"android":"levelo://app?vid=0cef6cc5-83fc-4ee5-8562-a133645f0f0d","ios":"levelo://app?vid=0cef6cc5-83fc-4ee5-8562-a133645f0f0d"},"vehicle_type_id":"4","last_reported":1778967485,"current_range_meters":8400,"station_id":"ce4bh392rcd13ifvqdm0","pricing_plan_id":"cebpf4jnsgd1na2vs0mg"},{"bike_id":"3a6301d2-f528-4f87-8f03-0794042ea7a2","system_id":"levelo_inurba_marseille","lat":43.30644,"lon":5.40093,"is_reserved":false,"is_disabled":false,"rental_uris":{"android":"levelo://app?vid=3a6301d2-f528-4f87-8f03-0794042ea7a2","ios":"levelo://app?vid=3a6301d2-f528-4f87-8f03-0794042ea7a2"},"vehicle_type_id":"4","last_reported":1778967485,"current_range_meters":8400,"station_id":"ce4bh112rcd13ifvqda0","pricing_plan_id":"cebpf4jnsgd1na2vs0mg"},{"bike_id":"898ea1b1-38c7-4a45-9b94-20d8ecc43cb6","system_id":"levelo_inurba_marseille","lat":43.24813,"lon":5.37458,"is_reserved":false,"is_disabled":false,"rental_uris":{"android":"levelo://app?vid=898ea1b1-38c7-4a45-9b94-20d8ecc43cb6","ios":"levelo://app?vid=898ea1b1-38c7-4a45-9b94-20d8ecc43cb6"},"vehicle_type_id":"4","last_reported":1778967485,"current_range_meters":8400,"station_id":"ce4bhgh2rcd13ifvqfb0","pricing_plan_id":"cebpf4jnsgd1na2vs0mg"},{"bike_id":"cde832f5-61c9-4423-ac99-7113bd3c4dd5","system_id":"levelo_inurba_marseille","lat":43.2552,"lon":5.37655,"is_reserved":false,"is_disabled":false,"rental_uris":{"android":"levelo://app?vid=cde832f5-61c9-4423-ac99-7113bd3c4dd5","ios":"levelo://app?vid=cde832f5-61c9-4423-ac99-7113bd3c4dd5"},"vehicle_type_id":"4","last_reported":1778967485,"current_range_meters":8400,"station_id":"ce4bhh12rcd13ifvqff0","pricing_plan_id":"cebpf4jnsgd1na2vs0mg"},{"bike_id":"a8222677-82b2-4472-800a-515258994e8a","system_id":"levelo_inurba_marseille","lat":43.23963,"lon":5.36622,"is_reserved":false,"is_disabled":false,"rental_uris":{"android":"levelo://app?vid=a8222677-82b2-4472-800a-515258994e8a","ios":"levelo://app?vid=a8222677-82b2-4472-800a-515258994e8a"},"vehicle_type_id":"4","last_reported":1778967485,"current_range_meters":8400,"station_id":"ce4bhi12rcd13ifvqfp0","pricing_plan_id":"cebpf4jnsgd1na2vs0mg"},{"bike_id":"67ccb857-92da-48d4-97af-9df5ebe29c07","system_id":"levelo_inurba_marseille","lat":43.32499,"lon":5.383,"is_reserved":false,"is_disabled":false,"rental_uris":{"android":"levelo://app?vid=67ccb857-92da-48d4-97af-9df5ebe29c07","ios":"levelo://app?vid=67ccb857-92da-48d4-97af-9df5ebe29c07"},"vehicle_type_id":"4","last_reported":1778967485,"current_range_meters":8400,"station_id":"st_d4asgbiv49dc73anf9m0","pricing_plan_id":"cebpf4jnsgd1na2vs0mg"},{"bike_id":"3a2e28eb-e93c-416d-a00d-2c67cd7c153b","system_id":"levelo_inurba_marseille","lat":43.29978,"lon":5.38475,"is_reserved":false,"is_disabled":false,"rental_uris":{"android":"levelo://app?vid=3a2e28eb-e93c-416d-a00d-2c67cd7c153b","ios":"levelo://app?vid=3a2e28eb-e93c-416d-a00d-2c67cd7c153b"},"vehicle_type_id":"4","last_reported":1778967485,"current_range_meters":8400,"station_id":"ce4bgj92rcd13ifvqbd0","pricing_plan_id":"cebpf4jnsgd1na2vs0mg"},{"bike_id":"782b6311-0066-4551-8800-4d0328bb5b61","system_id":"levelo_inurba_marseille","lat":43.29277,"lon":5.37461,"is_reserved":false,"is_disabled":false,"rental_uris":{"android":"levelo://app?vid=782b6311-0066-4551-8800-4d0328bb5b61","ios":"levelo://app?vid=782b6311-0066-4551-8800-4d0328bb5b61"},"vehicle_type_id":"4","last_reported":1778967485,"current_range_meters":8400,"station_id":"ce4bgi12rcd13ifvqb70","pricing_plan_id":"cebpf4jnsgd1na2vs0mg"},{"bike_id":"5aa74e7b-44b0-4035-8c97-4bcc3a0ce86f","system_id":"levelo_inurba_marseille","lat":43.27063,"lon":5.38312,"is_reserved":false,"is_disabled":false,"rental_uris":{"android":"levelo://app?vid=5aa74e7b-44b0-4035-8c97-4bcc3a0ce86f","ios":"levelo://app?vid=5aa74e7b-44b0-4035-8c97-4bcc3a0ce86f"},"vehicle_type_id":"4","last_reported":1778967485,"current_range_meters":8400,"station_id":"st_d3n2fo6cfp8s73cte1j0","pricing_plan_id":"cebpf4jnsgd1na2vs0mg"},{"bike_id":"018964d7-3586-4845-8635-3a0e76181faf","system_id":"levelo_inurba_marseille","lat":43.33244,"lon":5.40579,"is_reserved":false,"is_disabled":false,"rental_uris":{"android":"levelo://app?vid=018964d7-3586-4845-8635-3a0e76181faf","ios":"levelo://app?vid=018964d7-3586-4845-8635-3a0e76181faf"},"vehicle_type_id":"4","last_reported":1778967485,"current_range_meters":8400,"station_id":"","pricing_plan_id":"cebpf4jnsgd1na2vs0mg"},{"bike_id":"5f8b7df0-80c2-43ec-9b7b-67e3fb849d44","system_id":"levelo_inurba_marseille","lat":43.2481,"lon":5.37446,"is_reserved":false,"is_disabled":false,"rental_uris":{"android":"levelo://app?vid=5f8b7df0-80c2-43ec-9b7b-67e3fb849d44","ios":"levelo://app?vid=5f8b7df0-80c2-43ec-9b7b-67e3fb849d44"},"vehicle_type_id":"4","last_reported":1778967485,"current_range_meters":8400,"station_id":"ce4bhgh2rcd13ifvqfb0","pricing_plan_id":"cebpf4jnsgd1na2vs0mg"},{"bike_id":"ad1f6fd4-c9ff-4829-9d36-b7cf41ff39ba","system_id":"levelo_inurba_marseille","lat":43.2787,"lon":5.38783,"is_reserved":false,"is_disabled":true,"rental_uris":{"android":"levelo://app?vid=ad1f6fd4-c9ff-4829-9d36-b7cf41ff39ba","ios":"levelo://app?vid=ad1f6fd4-c9ff-4829-9d36-b7cf41ff39ba"},"vehicle_type_id":"4","last_reported":1778967485,"current_range_meters":8400,"station_id":"ce4bhg12rcd13ifvqf80","pricing_plan_id":"cebpf4jnsgd1na2vs0mg"},{"bike_id":"1aebc2f9-0b8f-4aef-b8a6-8f194d72f694","system_id":"levelo_inurba_marseille","lat":43.27841,"lon":5.38662,"is_reserved":false,"is_disabled":false,"rental_uris":{"android":"levelo://app?vid=1aebc2f9-0b8f-4aef-b8a6-8f194d72f694","ios":"levelo://app?vid=1aebc2f9-0b8f-4aef-b8a6-8f194d72f694"},"vehicle_type_id":"4","last_reported":1778967485,"current_range_meters":8400,"station_id":"","pricing_plan_id":"cebpf4jnsgd1na2vs0mg"},{"bike_id":"d31b52c9-1df3-42e9-8196-d29dd13f7b1c","system_id":"levelo_inurba_marseille","lat":43.29973,"lon":5.41315,"is_reserved":false,"is_disabled":false,"rental_uris":{"android":"levelo://app?vid=d31b52c9-1df3-42e9-8196-d29dd13f7b1c","ios":"levelo://app?vid=d31b52c9-1df3-42e9-8196-d29dd13f7b1c"},"vehicle_type_id":"4","last_reported":1778967485,"current_range_meters":8400,"station_id":"ce4bhp12rcd13ifvqh9g","pricing_plan_id":"cebpf4jnsgd1na2vs0mg"},{"bike_id":"0e178fb5-1964-444a-9525-a9e67b1d64d0","system_id":"levelo_inurba_marseille","lat":43.27215,"lon":5.39176,"is_reserved":false,"is_disabled":false,"rental_uris":{"android":"levelo://app?vid=0e178fb5-1964-444a-9525-a9e67b1d64d0","ios":"levelo://app?vid=0e178fb5-1964-444a-9525-a9e67b1d64d0"},"vehicle_type_id":"4","last_reported":1778967485,"current_range_meters":8400,"station_id":"ce4bhhp2rcd13ifvqfm0","pricing_plan_id":"cebpf4jnsgd1na2vs0mg"},{"bike_id":"9cecd4d8-0f9e-457f-a6d7-55e763b57795","system_id":"levelo_inurba_marseille","lat":43.23178,"lon":5.3998,"is_reserved":false,"is_disabled":false,"rental_uris":{"android":"levelo://app?vid=9cecd4d8-0f9e-457f-a6d7-55e763b57795","ios":"levelo://app?vid=9cecd4d8-0f9e-457f-a6d7-55e763b57795"},"vehicle_type_id":"4","last_reported":1778967485,"current_range_meters":8400,"station_id":"ce4bhn12rcd13ifvqgqg","pricing_plan_id":"cebpf4jnsgd1na2vs0mg"},{"bike_id":"d3f8cb08-f3cd-416b-953a-eae8db0a255e","system_id":"levelo_inurba_marseille","lat":43.26812,"lon":5.40822,"is_reserved":false,"is_disabled":false,"rental_uris":{"android":"levelo://app?vid=d3f8cb08-f3cd-416b-953a-eae8db0a255e","ios":"levelo://app?vid=d3f8cb08-f3cd-416b-953a-eae8db0a255e"},"vehicle_type_id":"4","last_reported":1778967485,"current_range_meters":8400,"station_id":"","pricing_plan_id":"cebpf4jnsgd1na2vs0mg"},{"bike_id":"61319f9a-9086-45db-b1ad-337000e7cb01","system_id":"levelo_inurba_marseille","lat":43.2842,"lon":5.39135,"is_reserved":false,"is_disabled":false,"rental_uris":{"android":"levelo://app?vid=61319f9a-9086-45db-b1ad-337000e7cb01","ios":"levelo://app?vid=61319f9a-9086-45db-b1ad-337000e7cb01"},"vehicle_type_id":"4","last_reported":1778967485,"current_range_meters":8400,"station_id":"ce4bhoh2rcd13ifvqh5g","pricing_plan_id":"cebpf4jnsgd1na2vs0mg"},{"bike_id":"23c89db2-3379-4954-bc52-79e3a03adb59","system_id":"levelo_inurba_marseille","lat":43.27381,"lon":5.36265,"is_reserved":false,"is_disabled":false,"rental_uris":{"android":"levelo://app?vid=23c89db2-3379-4954-bc52-79e3a03adb59","ios":"levelo://app?vid=23c89db2-3379-4954-bc52-79e3a03adb59"},"vehicle_type_id":"4","last_reported":1778967485,"current_range_meters":8400,"station_id":"ce4bhbh2rcd13ifvqeo0","pricing_plan_id":"cebpf4jnsgd1na2vs0mg"},{"bike_id":"60e91d52-408f-41b9-86d8-fcefe5d5a260","system_id":"levelo_inurba_marseille","lat":43.28696,"lon":5.46675,"is_reserved":false,"is_disabled":false,"rental_uris":{"android":"levelo://app?vid=60e91d52-408f-41b9-86d8-fcefe5d5a260","ios":"levelo://app?vid=60e91d52-408f-41b9-86d8-fcefe5d5a260"},"vehicle_type_id":"4","last_reported":1778967485,"current_range_meters":8400,"station_id":"st_d6tc3vkotcvc738tfjhg","pricing_plan_id":"cebpf4jnsgd1na2vs0mg"},{"bike_id":"9ccd8764-f4f7-427f-b0e9-e792e66a6e5d","system_id":"levelo_inurba_marseille","lat":43.30455,"lon":5.388938,"is_reserved":false,"is_disabled":false,"rental_uris":{"android":"levelo://app?vid=9ccd8764-f4f7-427f-b0e9-e792e66a6e5d","ios":"levelo://app?vid=9ccd8764-f4f7-427f-b0e9-e792e66a6e5d"},"vehicle_type_id":"4","last_reported":1778967485,"current_range_meters":8400,"station_id":"ce4bgk12rcd13ifvqbi0","pricing_plan_id":"cebpf4jnsgd1na2vs0mg"},{"bike_id":"6c1823c0-8df3-46a7-941e-d2079e6cfbe0","system_id":"levelo_inurba_marseille","lat":43.28616,"lon":5.35099,"is_reserved":false,"is_disabled":false,"rental_uris":{"android":"levelo://app?vid=6c1823c0-8df3-46a7-941e-d2079e6cfbe0","ios":"levelo://app?vid=6c1823c0-8df3-46a7-941e-d2079e6cfbe0"},"vehicle_type_id":"4","last_reported":1778967485,"current_range_meters":8400,"station_id":"ce4bhch2rcd13ifvqeug","pricing_plan_id":"cebpf4jnsgd1na2vs0mg"},{"bike_id":"fb2b447a-0030-4ddc-8822-f704c5a47e0f","system_id":"levelo_inurba_marseille","lat":43.30324,"lon":5.40428,"is_reserved":false,"is_disabled":false,"rental_uris":{"android":"levelo://app?vid=fb2b447a-0030-4ddc-8822-f704c5a47e0f","ios":"levelo://app?vid=fb2b447a-0030-4ddc-8822-f704c5a47e0f"},"vehicle_type_id":"4","last_reported":1778967485,"current_range_meters":8800,"station_id":"ce4bh012rcd13ifvqd10","pricing_plan_id":"cebpf4jnsgd1na2vs0mg"},{"bike_id":"4205fef4-5bd1-439a-b6c6-88b1921fd314","system_id":"levelo_inurba_marseille","lat":43.22586,"lon":5.41661,"is_reserved":false,"is_disabled":false,"rental_uris":{"android":"levelo://app?vid=4205fef4-5bd1-439a-b6c6-88b1921fd314","ios":"levelo://app?vid=4205fef4-5bd1-439a-b6c6-88b1921fd314"},"vehicle_type_id":"4","last_reported":1778967485,"current_range_meters":8800,"station_id":"st_d2o4gvlbi1j2169b742g","pricing_plan_id":"cebpf4jnsgd1na2vs0mg"},{"bike_id":"fb111f7b-b356-43a1-adea-9de7c624eee1","system_id":"levelo_inurba_marseille","lat":43.24667,"lon":5.38155,"is_reserved":false,"is_disabled":false,"rental_uris":{"android":"levelo://app?vid=fb111f7b-b356-43a1-adea-9de7c624eee1","ios":"levelo://app?vid=fb111f7b-b356-43a1-adea-9de7c624eee1"},"vehicle_type_id":"4","last_reported":1778967485,"current_range_meters":8800,"station_id":"ce4bhih2rcd13ifvqfr0","pricing_plan_id":"cebpf4jnsgd1na2vs0mg"},{"bike_id":"9bbe4f9c-34c1-48ec-b38e-5e66bad41c8b","system_id":"levelo_inurba_marseille","lat":43.23894,"lon":5.37453,"is_reserved":false,"is_disabled":false,"rental_uris":{"android":"levelo://app?vid=9bbe4f9c-34c1-48ec-b38e-5e66bad41c8b","ios":"levelo://app?vid=9bbe4f9c-34c1-48ec-b38e-5e66bad41c8b"},"vehicle_type_id":"4","last_reported":1778967485,"current_range_meters":8800,"station_id":"st_d6sm7csbq4hs73f8fpjg","pricing_plan_id":"cebpf4jnsgd1na2vs0mg"},{"bike_id":"6309bb83-16de-49b5-b945-ff87fed43bc6","system_id":"levelo_inurba_marseille","lat":43.21195,"lon":5.35072,"is_reserved":false,"is_disabled":false,"rental_uris":{"android":"levelo://app?vid=6309bb83-16de-49b5-b945-ff87fed43bc6","ios":"levelo://app?vid=6309bb83-16de-49b5-b945-ff87fed43bc6"},"vehicle_type_id":"4","last_reported":1778967485,"current_range_meters":8800,"station_id":"st_cvj6sg6p6f1abm77japg","pricing_plan_id":"cebpf4jnsgd1na2vs0mg"},{"bike_id":"e6bbcb34-20bf-4ce5-b5b7-6243a17e2e8d","system_id":"levelo_inurba_marseille","lat":43.21195,"lon":5.35065,"is_reserved":false,"is_disabled":false,"rental_uris":{"android":"levelo://app?vid=e6bbcb34-20bf-4ce5-b5b7-6243a17e2e8d","ios":"levelo://app?vid=e6bbcb34-20bf-4ce5-b5b7-6243a17e2e8d"},"vehicle_type_id":"4","last_reported":1778967485,"current_range_meters":8800,"station_id":"st_cvj6sg6p6f1abm77japg","pricing_plan_id":"cebpf4jnsgd1na2vs0mg"},