{"last_updated":1728663067,"ttl":60,"version":"2.2","data":{"bikes":[{"bike_id":"0174c4fd-9787-4fd5-8185-59a54e87dfd3","system_id":"levelo_inurba_marseille","lat":43.28412,"lon":5.34983,"is_reserved":false,"is_disabled":false,"rental_uris":{"android":"levelo://app?vid=0174c4fd-9787-4fd5-8185-59a54e87dfd3","ios":"levelo://app?vid=0174c4fd-9787-4fd5-8185-59a54e87dfd3"},"vehicle_type_id":"4","last_reported":1728663067,"current_range_meters":28800,"station_id":"ce4bhbh2rcd13ifvqepg","pricing_plan_id":"cebpf4jnsgd1na2vs0mg"},{"bike_id":"51dd5005-a195-4642-bd5f-8cbea71cb3b3","system_id":"levelo_inurba_marseille","lat":43.2293,"lon":5.35372,"is_reserved":false,"is_disabled":false,"rental_uris":{"android":"levelo://app?vid=51dd5005-a195-4642-bd5f-8cbea71cb3b3","ios":"levelo://app?vid=51dd5005-a195-4642-bd5f-8cbea71cb3b3"},"vehicle_type_id":"4","last_reported":1728663067,"current_range_meters":38800,"station_id":"cpo3532slgdg3j2ikp40","pricing_plan_id":"cebpf4jnsgd1na2vs0mg"},{"bike_id":"78e7f0ed-5029-4ecc-b3c3-1c4586c10166","system_id":"levelo_inurba_marseille","lat":43.296221,"lon":5.371694,"is_reserved":false,"is_disabled":false,"rental_uris":{"android":"levelo://app?vid=78e7f0ed-5029-4ecc-b3c3-1c4586c10166","ios":"levelo://app?vid=78e7f0ed-5029-4ecc-b3c3-1c4586c10166"},"vehicle_type_id":"4","last_reported":1728663067,"current_range_meters":7200,"station_id":"ce4bgnh2rcd13ifvqc0g","pricing_plan_id":"cebpf4jnsgd1na2vs0mg"},{"bike_id":"71e27aa6-e063-40ee-8b07-3b88d9538515","system_id":"levelo_inurba_marseille","lat":43.313599,"lon":5.384951,"is_reserved":false,"is_disabled":false,"rental_uris":{"android":"levelo://app?vid=71e27aa6-e063-40ee-8b07-3b88d9538515","ios":"levelo://app?vid=71e27aa6-e063-40ee-8b07-3b88d9538515"},"vehicle_type_id":"4","last_reported":1728663067,"current_range_meters":9200,"station_id":"ce4bgt92rcd13ifvqcf0","pricing_plan_id":"cebpf4jnsgd1na2vs0mg"},{"bike_id":"a4ad7706-dae2-444e-82e9-6b9c9e4555ae","system_id":"levelo_inurba_marseille","lat":43.33724,"lon":5.39187,"is_reserved":false,"is_disabled":false,"rental_uris":{"android":"levelo://app?vid=a4ad7706-dae2-444e-82e9-6b9c9e4555ae","ios":"levelo://app?vid=a4ad7706-dae2-444e-82e9-6b9c9e4555ae"},"vehicle_type_id":"4","last_reported":1728663067,"current_range_meters":38800,"station_id":"ce4bhr92rcd13ifvqhsg","pricing_plan_id":"cebpf4jnsgd1na2vs0mg"},{"bike_id":"3a561f0f-dc9b-420b-b299-898e0477cc62","system_id":"levelo_inurba_marseille","lat":43.31324,"lon":5.39689,"is_reserved":false,"is_disabled":false,"rental_uris":{"android":"levelo://app?vid=3a561f0f-dc9b-420b-b299-898e0477cc62","ios":"levelo://app?vid=3a561f0f-dc9b-420b-b299-898e0477cc62"},"vehicle_type_id":"4","last_reported":1728663067,"current_range_meters":17600,"station_id":"ce4bgvp2rcd13ifvqcu0","pricing_plan_id":"cebpf4jnsgd1na2vs0mg"},{"bike_id":"4f1ac9db-36fd-4126-b3cc-b859636a6a29","system_id":"levelo_inurba_marseille","lat":43.22931,"lon":5.35376,"is_reserved":false,"is_disabled":false,"rental_uris":{"android":"levelo://app?vid=4f1ac9db-36fd-4126-b3cc-b859636a6a29","ios":"levelo://app?vid=4f1ac9db-36fd-4126-b3cc-b859636a6a29"},"vehicle_type_id":"4","last_reported":1728663067,"current_range_meters":38800,"station_id":"cpo3532slgdg3j2ikp40","pricing_plan_id":"cebpf4jnsgd1na2vs0mg"},{"bike_id":"00051161-fa61-4c4d-a107-65a06da9e71e","system_id":"levelo_inurba_marseille","lat":43.29251,"lon":5.40883,"is_reserved":false,"is_disabled":false,"rental_uris":{"android":"levelo://app?vid=00051161-fa61-4c4d-a107-65a06da9e71e","ios":"levelo://app?vid=00051161-fa61-4c4d-a107-65a06da9e71e"},"vehicle_type_id":"4","last_reported":1728663067,"current_range_meters":4800,"station_id":"ce4bh0h2rcd13ifvqd50","pricing_plan_id":"cebpf4jnsgd1na2vs0mg"},{"bike_id":"5b0f1d7a-ed9d-453a-9d1b-6cf1154932ff","system_id":"levelo_inurba_marseille","lat":43.24166,"lon":5.36394,"is_reserved":false,"is_disabled":false,"rental_uris":{"android":"levelo://app?vid=5b0f1d7a-ed9d-453a-9d1b-6cf1154932ff","ios":"levelo://app?vid=5b0f1d7a-ed9d-453a-9d1b-6cf1154932ff"},"vehicle_type_id":"4","last_reported":1728663067,"current_range_meters":9200,"station_id":"cpo36qri1sfpv3e86is0","pricing_plan_id":"cebpf4jnsgd1na2vs0mg"},{"bike_id":"874a2177-caf2-4244-812d-70689edcd139","system_id":"levelo_inurba_marseille","lat":43.26207,"lon":5.37925,"is_reserved":false,"is_disabled":false,"rental_uris":{"android":"levelo://app?vid=874a2177-caf2-4244-812d-70689edcd139","ios":"levelo://app?vid=874a2177-caf2-4244-812d-70689edcd139"},"vehicle_type_id":"4","last_reported":1728663067,"current_range_meters":6400,"station_id":"ce4bhjp2rcd13ifvqg90","pricing_plan_id":"cebpf4jnsgd1na2vs0mg"},{"bike_id":"6cb2fd54-0aca-4f7d-aadb-bc057dc4fb59","system_id":"levelo_inurba_marseille","lat":43.23067,"lon":5.35487,"is_reserved":false,"is_disabled":false,"rental_uris":{"android":"levelo://app?vid=6cb2fd54-0aca-4f7d-aadb-bc057dc4fb59","ios":"levelo://app?vid=6cb2fd54-0aca-4f7d-aadb-bc057dc4fb59"},"vehicle_type_id":"4","last_reported":1728663067,"current_range_meters":27600,"station_id":"cpo3342slgdg3j2ifvpg","pricing_plan_id":"cebpf4jnsgd1na2vs0mg"},{"bike_id":"e83aa38c-3fdd-4c2d-a39a-70c5c1d234e7","system_id":"levelo_inurba_marseille","lat":43.29418,"lon":5.38606,"is_reserved":false,"is_disabled":false,"rental_uris":{"android":"levelo://app?vid=e83aa38c-3fdd-4c2d-a39a-70c5c1d234e7","ios":"levelo://app?vid=e83aa38c-3fdd-4c2d-a39a-70c5c1d234e7"},"vehicle_type_id":"4","last_reported":1728663067,"current_range_meters":38800,"station_id":"ce4bh2h2rcd13ifvqdh0","pricing_plan_id":"cebpf4jnsgd1na2vs0mg"},{"bike_id":"4d066c51-dd8c-41d9-be6d-7e628a1a6d3b","system_id":"levelo_inurba_marseille","lat":43.23186,"lon":5.39985,"is_reserved":false,"is_disabled":false,"rental_uris":{"android":"levelo://app?vid=4d066c51-dd8c-41d9-be6d-7e628a1a6d3b","ios":"levelo://app?vid=4d066c51-dd8c-41d9-be6d-7e628a1a6d3b"},"vehicle_type_id":"4","last_reported":1728663067,"current_range_meters":2800,"station_id":"ce4bhn12rcd13ifvqgqg","pricing_plan_id":"cebpf4jnsgd1na2vs0mg"},{"bike_id":"fe24e37f-8145-4068-9023-cbdfc97524b0","system_id":"levelo_inurba_marseille","lat":43.24662,"lon":5.38162,"is_reserved":false,"is_disabled":false,"rental_uris":{"android":"levelo://app?vid=fe24e37f-8145-4068-9023-cbdfc97524b0","ios":"levelo://app?vid=fe24e37f-8145-4068-9023-cbdfc97524b0"},"vehicle_type_id":"4","last_reported":1728663067,"current_range_meters":30000,"station_id":"ce4bhih2rcd13ifvqfr0","pricing_plan_id":"cebpf4jnsgd1na2vs0mg"},{"bike_id":"631afeb3-ff24-4869-b570-0bf0c9ce47b0","system_id":"levelo_inurba_marseille","lat":43.32421,"lon":5.39131,"is_reserved":false,"is_disabled":false,"rental_uris":{"android":"levelo://app?vid=631afeb3-ff24-4869-b570-0bf0c9ce47b0","ios":"levelo://app?vid=631afeb3-ff24-4869-b570-0bf0c9ce47b0"},"vehicle_type_id":"4","last_reported":1728663067,"current_range_meters":20000,"station_id":"","pricing_plan_id":"cebpf4jnsgd1na2vs0mg"},{"bike_id":"ac3353d8-8842-4773-8381-ed324cb45c47","system_id":"levelo_inurba_marseille","lat":43.23067,"lon":5.35492,"is_reserved":false,"is_disabled":false,"rental_uris":{"android":"levelo://app?vid=ac3353d8-8842-4773-8381-ed324cb45c47","ios":"levelo://app?vid=ac3353d8-8842-4773-8381-ed324cb45c47"},"vehicle_type_id":"4","last_reported":1728663067,"current_range_meters":38800,"station_id":"cpo3342slgdg3j2ifvpg","pricing_plan_id":"cebpf4jnsgd1na2vs0mg"},{"bike_id":"2d655485-5005-46cf-955c-66af5e8f7c3f","system_id":"levelo_inurba_marseille","lat":43.30781,"lon":5.38145,"is_reserved":false,"is_disabled":false,"rental_uris":{"android":"levelo://app?vid=2d655485-5005-46cf-955c-66af5e8f7c3f","ios":"levelo://app?vid=2d655485-5005-46cf-955c-66af5e8f7c3f"},"vehicle_type_id":"4","last_reported":1728663067,"current_range_meters":38800,"station_id":"ce4bgt12rcd13ifvqce0","pricing_plan_id":"cebpf4jnsgd1na2vs0mg"},{"bike_id":"78c8bbba-caf6-4ee4-a166-f0b7f11636fe","system_id":"levelo_inurba_marseille","lat":43.28438,"lon":5.39197,"is_reserved":false,"is_disabled":false,"rental_uris":{"android":"levelo://app?vid=78c8bbba-caf6-4ee4-a166-f0b7f11636fe","ios":"levelo://app?vid=78c8bbba-caf6-4ee4-a166-f0b7f11636fe"},"vehicle_type_id":"4","last_reported":1728663067,"current_range_meters":16400,"station_id":"ce4bhoh2rcd13ifvqh5g","pricing_plan_id":"cebpf4jnsgd1na2vs0mg"},{"bike_id":"a208ba51-2eec-4aad-9345-e74baa65f8a0","system_id":"levelo_inurba_marseille","lat":43.27618,"lon":5.36106,"is_reserved":false,"is_disabled":false,"rental_uris":{"android":"levelo://app?vid=a208ba51-2eec-4aad-9345-e74baa65f8a0","ios":"levelo://app?vid=a208ba51-2eec-4aad-9345-e74baa65f8a0"},"vehicle_type_id":"4","last_reported":1728663067,"current_range_meters":25600,"station_id":"ce4bgj92rcd13ifvqbe0","pricing_plan_id":"cebpf4jnsgd1na2vs0mg"},{"bike_id":"70a039a9-3f43-4ee9-a33f-4bf4fd555d2f","system_id":"levelo_inurba_marseille","lat":43.285889,"lon":5.379811,"is_reserved":false,"is_disabled":false,"rental_uris":{"android":"levelo://app?vid=70a039a9-3f43-4ee9-a33f-4bf4fd555d2f","ios":"levelo://app?vid=70a039a9-3f43-4ee9-a33f-4bf4fd555d2f"},"vehicle_type_id":"4","last_reported":1728663067,"current_range_meters":26800,"station_id":"ce4bgj92rcd13ifvqbe0","pricing_plan_id":"cebpf4jnsgd1na2vs0mg"},{"bike_id":"e05e04f4-e651-424c-a6aa-8f864e46be12","system_id":"levelo_inurba_marseille","lat":43.28421,"lon":5.34983,"is_reserved":false,"is_disabled":false,"rental_uris":{"android":"levelo://app?vid=e05e04f4-e651-424c-a6aa-8f864e46be12","ios":"levelo://app?vid=e05e04f4-e651-424c-a6aa-8f864e46be12"},"vehicle_type_id":"4","last_reported":1728663067,"current_range_meters":38800,"station_id":"ce4bhbh2rcd13ifvqepg","pricing_plan_id":"cebpf4jnsgd1na2vs0mg"},{"bike_id":"3420b41c-a01c-488a-b378-1af19e639e7e","system_id":"levelo_inurba_marseille","lat":43.24448,"lon":5.37182,"is_reserved":false,"is_disabled":false,"rental_uris":{"android":"levelo://app?vid=3420b41c-a01c-488a-b378-1af19e639e7e","ios":"levelo://app?vid=3420b41c-a01c-488a-b378-1af19e639e7e"},"vehicle_type_id":"4","last_reported":1728663067,"current_range_meters":16800,"station_id":"","pricing_plan_id":"cebpf4jnsgd1na2vs0mg"},{"bike_id":"58f6264f-4b5e-4694-b355-8e8b8671e18e","system_id":"levelo_inurba_marseille","lat":43.31502,"lon":5.37292,"is_reserved":false,"is_disabled":false,"rental_uris":{"android":"levelo://app?vid=58f6264f-4b5e-4694-b355-8e8b8671e18e","ios":"levelo://app?vid=58f6264f-4b5e-4694-b355-8e8b8671e18e"},"vehicle_type_id":"4","last_reported":1728663067,"current_range_meters":16800,"station_id":"ce4bgt12rcd13ifvqcd0","pricing_plan_id":"cebpf4jnsgd1na2vs0mg"},{"bike_id":"c8de08e8-fdd4-4a0e-91a5-f5956cb05de1","system_id":"levelo_inurba_marseille","lat":43.30798,"lon":5.37993,"is_reserved":false,"is_disabled":false,"rental_uris":{"android":"levelo://app?vid=c8de08e8-fdd4-4a0e-91a5-f5956cb05de1","ios":"levelo://app?vid=c8de08e8-fdd4-4a0e-91a5-f5956cb05de1"},"vehicle_type_id":"4","last_reported":1728663067,"current_range_meters":30000,"station_id":"","pricing_plan_id":"cebpf4jnsgd1na2vs0mg"},{"bike_id":"38ac445e-09d6-4020-a1a0-e74c80be91d0","system_id":"levelo_inurba_marseille","lat":43.30887,"lon":5.37192,"is_reserved":false,"is_disabled":false,"rental_uris":{"android":"levelo://app?vid=38ac445e-09d6-4020-a1a0-e74c80be91d0","ios":"levelo://app?vid=38ac445e-09d6-4020-a1a0-e74c80be91d0"},"vehicle_type_id":"4","last_reported":1728663067,"current_range_meters":28800,"station_id":"ce4bgqh2rcd13ifvqc4g","pricing_plan_id":"cebpf4jnsgd1na2vs0mg"},{"bike_id":"ef45b165-2c2b-4bf5-b417-cc338c1ff735","system_id":"levelo_inurba_marseille","lat":43.2843,"lon":5.34996,"is_reserved":false,"is_disabled":false,"rental_uris":{"android":"levelo://app?vid=ef45b165-2c2b-4bf5-b417-cc338c1ff735","ios":"levelo://app?vid=ef45b165-2c2b-4bf5-b417-cc338c1ff735"},"vehicle_type_id":"4","last_reported":1728663067,"current_range_meters":39200,"station_id":"ce4bhbh2rcd13ifvqepg","pricing_plan_id":"cebpf4jnsgd1na2vs0mg"},{"bike_id":"c2709d8c-182c-4c66-9678-32143d413767","system_id":"levelo_inurba_marseille","lat":43.2293,"lon":5.35377,"is_reserved":false,"is_disabled":false,"rental_uris":{"android":"levelo://app?vid=c2709d8c-182c-4c66-9678-32143d413767","ios":"levelo://app?vid=c2709d8c-182c-4c66-9678-32143d413767"},"vehicle_type_id":"4","last_reported":1728663067,"current_range_meters":30400,"station_id":"cpo3532slgdg3j2ikp40","pricing_plan_id":"cebpf4jnsgd1na2vs0mg"},{"bike_id":"dd066c02-636c-4ec4-8d6d-f70fac9508b6","system_id":"levelo_inurba_marseille","lat":43.2895,"lon":5.36637,"is_reserved":false,"is_disabled":false,"rental_uris":{"android":"levelo://app?vid=dd066c02-636c-4ec4-8d6d-f70fac9508b6","ios":"levelo://app?vid=dd066c02-636c-4ec4-8d6d-f70fac9508b6"},"vehicle_type_id":"4","last_reported":1728663067,"current_range_meters":40000,"station_id":"ce4bhap2rcd13ifvqek0","pricing_plan_id":"cebpf4jnsgd1na2vs0mg"},{"bike_id":"8b467296-4f66-4888-bded-1c9b9a656fba","system_id":"levelo_inurba_marseille","lat":43.23193,"lon":5.35556,"is_reserved":false,"is_disabled":false,"rental_uris":{"android":"levelo://app?vid=8b467296-4f66-4888-bded-1c9b9a656fba","ios":"levelo://app?vid=8b467296-4f66-4888-bded-1c9b9a656fba"},"vehicle_type_id":"4","last_reported":1728663067,"current_range_meters":39200,"station_id":"ce4bhu92rcd13ifvqi70","pricing_plan_id":"cebpf4jnsgd1na2vs0mg"},{"bike_id":"d7b1a499-9f70-4256-a6ed-8f5723bc9a8b","system_id":"levelo_inurba_marseille","lat":43.28108,"lon":5.37843,"is_reserved":false,"is_disabled":false,"rental_uris":{"android":"levelo://app?vid=d7b1a499-9f70-4256-a6ed-8f5723bc9a8b","ios":"levelo://app?vid=d7b1a499-9f70-4256-a6ed-8f5723bc9a8b"},"vehicle_type_id":"4","last_reported":1728663067,"current_range_meters":11600,"station_id":"ce4bha12rcd13ifvqee0","pricing_plan_id":"cebpf4jnsgd1na2vs0mg"},{"bike_id":"6f9d1111-5f43-42bb-924a-a55c99994cbe","system_id":"levelo_inurba_marseille","lat":43.29168,"lon":5.37147,"is_reserved":false,"is_disabled":false,"rental_uris":{"android":"levelo://app?vid=6f9d1111-5f43-42bb-924a-a55c99994cbe","ios":"levelo://app?vid=6f9d1111-5f43-42bb-924a-a55c99994cbe"},"vehicle_type_id":"4","last_reported":1728663067,"current_range_meters":24400,"station_id":"ce4bha92rcd13ifvqeh0","pricing_plan_id":"cebpf4jnsgd1na2vs0mg"},{"bike_id":"0f149c14-ce53-481f-9473-d147ef728a25","system_id":"levelo_inurba_marseille","lat":43.3303,"lon":5.39046,"is_reserved":false,"is_disabled":false,"rental_uris":{"android":"levelo://app?vid=0f149c14-ce53-481f-9473-d147ef728a25","ios":"levelo://app?vid=0f149c14-ce53-481f-9473-d147ef728a25"},"vehicle_type_id":"4","last_reported":1728663067,"current_range_meters":17600,"station_id":"ce4bhr92rcd13ifvqhrg","pricing_plan_id":"cebpf4jnsgd1na2vs0mg"},{"bike_id":"fb8884ee-9cd5-4d61-bac5-72439cc3a6c2","system_id":"levelo_inurba_marseille","lat":43.25609,"lon":5.40507,"is_reserved":false,"is_disabled":false,"rental_uris":{"android":"levelo://app?vid=fb8884ee-9cd5-4d61-bac5-72439cc3a6c2","ios":"levelo://app?vid=fb8884ee-9cd5-4d61-bac5-72439cc3a6c2"},"vehicle_type_id":"4","last_reported":1728663067,"current_range_meters":16800,"station_id":"","pricing_plan_id":"cebpf4jnsgd1na2vs0mg"},{"bike_id":"f2521895-b7b7-4e2b-b7c3-2a621eda10f2","system_id":"levelo_inurba_marseille","lat":43.30947,"lon":5.3902,"is_reserved":false,"is_disabled":false,"rental_uris":{"android":"levelo://app?vid=f2521895-b7b7-4e2b-b7c3-2a621eda10f2","ios":"levelo://app?vid=f2521895-b7b7-4e2b-b7c3-2a621eda10f2"},"vehicle_type_id":"4","last_reported":1728663067,"current_range_meters":38800,"station_id":"ce4bgup2rcd13ifvqco0","pricing_plan_id":"cebpf4jnsgd1na2vs0mg"},{"bike_id":"fa3d1a81-dcfc-4dd6-b6c7-47dd84b76d28","system_id":"levelo_inurba_marseille","lat":43.2718,"lon":5.40988,"is_reserved":false,"is_disabled":false,"rental_uris":{"android":"levelo://app?vid=fa3d1a81-dcfc-4dd6-b6c7-47dd84b76d28","ios":"levelo://app?vid=fa3d1a81-dcfc-4dd6-b6c7-47dd84b76d28"},"vehicle_type_id":"4","last_reported":1728663067,"current_range_meters":27200,"station_id":"ce4bhl12rcd13ifvqgf0","pricing_plan_id":"cebpf4jnsgd1na2vs0mg"},{"bike_id":"4f820453-e862-491e-9605-aab590f5ccbd","system_id":"levelo_inurba_marseille","lat":43.293982,"lon":5.374001,"is_reserved":false,"is_disabled":false,"rental_uris":{"android":"levelo://app?vid=4f820453-e862-491e-9605-aab590f5ccbd","ios":"levelo://app?vid=4f820453-e862-491e-9605-aab590f5ccbd"},"vehicle_type_id":"4","last_reported":1728663067,"current_range_meters":32400,"station_id":"ce4bhl92rcd13ifvqghg","pricing_plan_id":"cebpf4jnsgd1na2vs0mg"},{"bike_id":"eee18a44-71b1-4c28-8ff2-72b1fbcb0b4b","system_id":"levelo_inurba_marseille","lat":43.22927,"lon":5.35375,"is_reserved":false,"is_disabled":false,"rental_uris":{"android":"levelo://app?vid=eee18a44-71b1-4c28-8ff2-72b1fbcb0b4b","ios":"levelo://app?vid=eee18a44-71b1-4c28-8ff2-72b1fbcb0b4b"},"vehicle_type_id":"4","last_reported":1728663067,"current_range_meters":6400,"station_id":"cpo3532slgdg3j2ikp40","pricing_plan_id":"cebpf4jnsgd1na2vs0mg"},{"bike_id":"a68d831c-c23e-4544-a216-2a00c68f2229","system_id":"levelo_inurba_marseille","lat":43.29179,"lon":5.39281,"is_reserved":false,"is_disabled":false,"rental_uris":{"android":"levelo://app?vid=a68d831c-c23e-4544-a216-2a00c68f2229","ios":"levelo://app?vid=a68d831c-c23e-4544-a216-2a00c68f2229"},"vehicle_type_id":"4","last_reported":1728663067,"current_range_meters":38800,"station_id":"ce4bh192rcd13ifvqdd0","pricing_plan_id":"cebpf4jnsgd1na2vs0mg"},{"bike_id":"c39eafe5-eb8f-4514-bbf5-cc2965afd387","system_id":"levelo_inurba_marseille","lat":43.2962,"lon":5.37149,"is_reserved":false,"is_disabled":false,"rental_uris":{"android":"levelo://app?vid=c39eafe5-eb8f-4514-bbf5-cc2965afd387","ios":"levelo://app?vid=c39eafe5-eb8f-4514-bbf5-cc2965afd387"},"vehicle_type_id":"4","last_reported":1728663067,"current_range_meters":26000,"station_id":"ce4bgnh2rcd13ifvqc0g","pricing_plan_id":"cebpf4jnsgd1na2vs0mg"},{"bike_id":"567b95db-9441-4bf9-819b-b290ef2a1dc6","system_id":"levelo_inurba_marseille","lat":43.2903,"lon":5.37569,"is_reserved":false,"is_disabled":false,"rental_uris":{"android":"levelo://app?vid=567b95db-9441-4bf9-819b-b290ef2a1dc6","ios":"levelo://app?vid=567b95db-9441-4bf9-819b-b290ef2a1dc6"},"vehicle_type_id":"4","last_reported":1728663067,"current_range_meters":24000,"station_id":"ce4bh692rcd13ifvqe90","pricing_plan_id":"cebpf4jnsgd1na2vs0mg"},{"bike_id":"a3f01d41-96e0-42c3-8c25-c7f2f365c879","system_id":"levelo_inurba_marseille","lat":43.30522,"lon":5.36714,"is_reserved":false,"is_disabled":false,"rental_uris":{"android":"levelo://app?vid=a3f01d41-96e0-42c3-8c25-c7f2f365c879","ios":"levelo://app?vid=a3f01d41-96e0-42c3-8c25-c7f2f365c879"},"vehicle_type_id":"4","last_reported":1728663067,"current_range_meters":22800,"station_id":"ce4bgrp2rcd13ifvqc9g","pricing_plan_id":"cebpf4jnsgd1na2vs0mg"},{"bike_id":"1729fd79-083a-4016-a2b9-11b78a90ab78","system_id":"levelo_inurba_marseille","lat":43.293393,"lon":5.377099,"is_reserved":false,"is_disabled":false,"rental_uris":{"android":"levelo://app?vid=1729fd79-083a-4016-a2b9-11b78a90ab78","ios":"levelo://app?vid=1729fd79-083a-4016-a2b9-11b78a90ab78"},"vehicle_type_id":"4","last_reported":1728663067,"current_range_meters":8400,"station_id":"ce4bgjh2rcd13ifvqbf0","pricing_plan_id":"cebpf4jnsgd1na2vs0mg"},{"bike_id":"f43cd11c-e00a-46ec-b65f-108711e37e9a","system_id":"levelo_inurba_marseille","lat":43.27372,"lon":5.36254,"is_reserved":false,"is_disabled":false,"rental_uris":{"android":"levelo://app?vid=f43cd11c-e00a-46ec-b65f-108711e37e9a","ios":"levelo://app?vid=f43cd11c-e00a-46ec-b65f-108711e37e9a"},"vehicle_type_id":"4","last_reported":1728663067,"current_range_meters":38800,"station_id":"ce4bhbh2rcd13ifvqeo0","pricing_plan_id":"cebpf4jnsgd1na2vs0mg"},{"bike_id":"ff68b789-7173-415f-860f-fb58c1b9d01d","system_id":"levelo_inurba_marseille","lat":43.22929,"lon":5.3538,"is_reserved":false,"is_disabled":false,"rental_uris":{"android":"levelo://app?vid=ff68b789-7173-415f-860f-fb58c1b9d01d","ios":"levelo://app?vid=ff68b789-7173-415f-860f-fb58c1b9d01d"},"vehicle_type_id":"4","last_reported":1728663067,"current_range_meters":30400,"station_id":"cpo3532slgdg3j2ikp40","pricing_plan_id":"cebpf4jnsgd1na2vs0mg"},{"bike_id":"0d208745-7f6f-4754-936d-3db80742b45a","system_id":"levelo_inurba_marseille","lat":43.24386,"lon":5.37054,"is_reserved":false,"is_disabled":false,"rental_uris":{"android":"levelo://app?vid=0d208745-7f6f-4754-936d-3db80742b45a","ios":"levelo://app?vid=0d208745-7f6f-4754-936d-3db80742b45a"},"vehicle_type_id":"4","last_reported":1728663067,"current_range_meters":8800,"station_id":"ce4bhhh2rcd13ifvqfk0","pricing_plan_id":"cebpf4jnsgd1na2vs0mg"},{"bike_id":"11ed2bc4-99e4-42ab-8911-f3374fcced68","system_id":"levelo_inurba_marseille","lat":43.27178,"lon":5.40989,"is_reserved":false,"is_disabled":false,"rental_uris":{"android":"levelo://app?vid=11ed2bc4-99e4-42ab-8911-f3374fcced68","ios":"levelo://app?vid=11ed2bc4-99e4-42ab-8911-f3374fcced68"},"vehicle_type_id":"4","last_reported":1728663067,"current_range_meters":36400,"station_id":"ce4bhl12rcd13ifvqgf0","pricing_plan_id":"cebpf4jnsgd1na2vs0mg"},{"bike_id":"15074734-7bdf-40a9-b666-f602f0597e05","system_id":"levelo_inurba_marseille","lat":43.28613,"lon":5.35103,"is_reserved":false,"is_disabled":false,"rental_uris":{"android":"levelo://app?vid=15074734-7bdf-40a9-b666-f602f0597e05","ios":"levelo://app?vid=15074734-7bdf-40a9-b666-f602f0597e05"},"vehicle_type_id":"4","last_reported":1728663067,"current_range_meters":8800,"station_id":"ce4bhch2rcd13ifvqeug","pricing_plan_id":"cebpf4jnsgd1na2vs0mg"},{"bike_id":"6cb5b02c-2401-484a-8b7d-b4d2106d6b08","system_id":"levelo_inurba_marseille","lat":43.23199,"lon":5.35556,"is_reserved":false,"is_disabled":false,"rental_uris":{"android":"levelo://app?vid=6cb5b02c-2401-484a-8b7d-b4d2106d6b08","ios":"levelo://app?vid=6cb5b02c-2401-484a-8b7d-b4d2106d6b08"},"vehicle_type_id":"4","last_reported":1728663067,"current_range_meters":36000,"station_id":"ce4bhu92rcd13ifvqi70","pricing_plan_id":"cebpf4jnsgd1na2vs0mg"},{"bike_id":"9dfe3fd2-bf86-432a-a05f-40d8b4a7a921","system_id":"levelo_inurba_marseille","lat":43.33023,"lon":5.39043,"is_reserved":false,"is_disabled":false,"rental_uris":{"android":"levelo://app?vid=9dfe3fd2-bf86-432a-a05f-40d8b4a7a921","ios":"levelo://app?vid=9dfe3fd2-bf86-432a-a05f-40d8b4a7a921"},"vehicle_type_id":"4","last_reported":1728663067,"current_range_meters":28400,"station_id":"ce4bhr92rcd13ifvqhrg","pricing_plan_id":"cebpf4jnsgd1na2vs0mg"},{"bike_id":"2acf3038-05ef-4483-888e-f13eff7e1cf5","system_id":"levelo_inurba_marseille","lat":43.30884,"lon":5.39647,"is_reserved":false,"is_disabled":false,"rental_uris":{"android":"levelo://app?vid=2acf3038-05ef-4483-888e-f13eff7e1cf5","ios":"levelo://app?vid=2acf3038-05ef-4483-888e-f13eff7e1cf5"},"vehicle_type_id":"4","last_reported":1728663067,"current_range_meters":38800,"station_id":"ce4bh012rcd13ifvqcv0","pricing_plan_id":"cebpf4jnsgd1na2vs0mg"},{"bike_id":"7ac7e627-06e3-49fc-b1d7-b6203dd7d747","system_id":"levelo_inurba_marseille","lat":43.31752,"lon":5.39015,"is_reserved":false,"is_disabled":false,"rental_uris":{"android":"levelo://app?vid=7ac7e627-06e3-49fc-b1d7-b6203dd7d747","ios":"levelo://app?vid=7ac7e627-06e3-49fc-b1d7-b6203dd7d747"},"vehicle_type_id":"4","last_reported":1728663067,"current_range_meters":8400,"station_id":"ce4bhqp2rcd13ifvqhng","pricing_plan_id":"cebpf4jnsgd1na2vs0mg"},{"bike_id":"348240ff-63f6-4333-bd93-ec22217ef8fa","system_id":"levelo_inurba_marseille","lat":43.30932,"lon":5.40145,"is_reserved":false,"is_disabled":false,"rental_uris":{"android":"levelo://app?vid=348240ff-63f6-4333-bd93-ec22217ef8fa","ios":"levelo://app?vid=348240ff-63f6-4333-bd93-ec22217ef8fa"},"vehicle_type_id":"4","last_reported":1728663067,"current_range_meters":39200,"station_id":"ce4bgvp2rcd13ifvqct0","pricing_plan_id":"cebpf4jnsgd1na2vs0mg"},{"bike_id":"9008e651-9921-430d-bd5c-721538a242a2","system_id":"levelo_inurba_marseille","lat":43.28718,"lon":5.3794,"is_reserved":false,"is_disabled":false,"rental_uris":{"android":"levelo://app?vid=9008e651-9921-430d-bd5c-721538a242a2","ios":"levelo://app?vid=9008e651-9921-430d-bd5c-721538a242a2"},"vehicle_type_id":"4","last_reported":1728663067,"current_range_meters":6800,"station_id":"ce4bh9p2rcd13ifvqec0","pricing_plan_id":"cebpf4jnsgd1na2vs0mg"},{"bike_id":"7d296bc6-e3d0-4990-85d6-e1aeec521714","system_id":"levelo_inurba_marseille","lat":43.24549,"lon":5.39522,"is_reserved":false,"is_disabled":false,"rental_uris":{"android":"levelo://app?vid=7d296bc6-e3d0-4990-85d6-e1aeec521714","ios":"levelo://app?vid=7d296bc6-e3d0-4990-85d6-e1aeec521714"},"vehicle_type_id":"4","last_reported":1728663067,"current_range_meters":26000,"station_id":"ce4bhlp2rcd13ifvqgjg","pricing_plan_id":"cebpf4jnsgd1na2vs0mg"},{"bike_id":"560a86fc-b17c-4cb2-bc49-8ad20f64ac57","system_id":"levelo_inurba_marseille","lat":43.28702,"lon":5.39983,"is_reserved":false,"is_disabled":false,"rental_uris":{"android":"levelo://app?vid=560a86fc-b17c-4cb2-bc49-8ad20f64ac57","ios":"levelo://app?vid=560a86fc-b17c-4cb2-bc49-8ad20f64ac57"},"vehicle_type_id":"4","last_reported":1728663067,"current_range_meters":8000,"station_id":"ce4bho92rcd13ifvqh3g","pricing_plan_id":"cebpf4jnsgd1na2vs0mg"},{"bike_id":"2449dcb4-82c2-49e1-86db-ab020b5a5d64","system_id":"levelo_inurba_marseille","lat":43.30331,"lon":5.40436,"is_reserved":false,"is_disabled":false,"rental_uris":{"android":"levelo://app?vid=2449dcb4-82c2-49e1-86db-ab020b5a5d64","ios":"levelo://app?vid=2449dcb4-82c2-49e1-86db-ab020b5a5d64"},"vehicle_type_id":"4","last_reported":1728663067,"current_range_meters":28000,"station_id":"ce4bh012rcd13ifvqd10","pricing_plan_id":"cebpf4jnsgd1na2vs0mg"},{"bike_id":"0218be81-a023-4135-a21e-30236bb4a4a4","system_id":"levelo_inurba_marseille","lat":43.32107,"lon":5.36761,"is_reserved":false,"is_disabled":false,"rental_uris":{"android":"levelo://app?vid=0218be81-a023-4135-a21e-30236bb4a4a4","ios":"levelo://app?vid=0218be81-a023-4135-a21e-30236bb4a4a4"},"vehicle_type_id":"4","last_reported":1728663067,"current_range_meters":38000,"station_id":"ce4bhrh2rcd13ifvqhug","pricing_plan_id":"cebpf4jnsgd1na2vs0mg"},{"bike_id":"f80c2e75-b47f-4161-9783-8454957aba75","system_id":"levelo_inurba_marseille","lat":43.321,"lon":5.36775,"is_reserved":false,"is_disabled":false,"rental_uris":{"android":"levelo://app?vid=f80c2e75-b47f-4161-9783-8454957aba75","ios":"levelo://app?vid=f80c2e75-b47f-4161-9783-8454957aba75"},"vehicle_type_id":"4","last_reported":1728663067,"current_range_meters":38800,"station_id":"ce4bhrh2rcd13ifvqhug","pricing_plan_id":"cebpf4jnsgd1na2vs0mg"},{"bike_id":"c30ed77f-4d7d-41e7-89a5-f6d4db2802f5","system_id":"levelo_inurba_marseille","lat":43.23189,"lon":5.39982,"is_reserved":false,"is_disabled":false,"rental_uris":{"android":"levelo://app?vid=c30ed77f-4d7d-41e7-89a5-f6d4db2802f5","ios":"levelo://app?vid=c30ed77f-4d7d-41e7-89a5-f6d4db2802f5"},"vehicle_type_id":"4","last_reported":1728663067,"current_range_meters":25600,"station_id":"ce4bhn12rcd13ifvqgqg","pricing_plan_id":"cebpf4jnsgd1na2vs0mg"},{"bike_id":"40f58892-6b08-4cea-a2ad-0738cd10dad4","system_id":"levelo_inurba_marseille","lat":43.25087,"lon":5.39521,"is_reserved":false,"is_disabled":false,"rental_uris":{"android":"levelo://app?vid=40f58892-6b08-4cea-a2ad-0738cd10dad4","ios":"levelo://app?vid=40f58892-6b08-4cea-a2ad-0738cd10dad4"},"vehicle_type_id":"4","last_reported":1728663067,"current_range_meters":38400,"station_id":"ce4bhm12rcd13ifvqgkg","pricing_plan_id":"cebpf4jnsgd1na2vs0mg"},{"bike_id":"a490a95e-8fe4-4df5-ac3c-e2641706aa9f","system_id":"levelo_inurba_marseille","lat":43.28424,"lon":5.34995,"is_reserved":false,"is_disabled":false,"rental_uris":{"android":"levelo://app?vid=a490a95e-8fe4-4df5-ac3c-e2641706aa9f","ios":"levelo://app?vid=a490a95e-8fe4-4df5-ac3c-e2641706aa9f"},"vehicle_type_id":"4","last_reported":1728663067,"current_range_meters":8400,"station_id":"ce4bhbh2rcd13ifvqepg","pricing_plan_id":"cebpf4jnsgd1na2vs0mg"},{"bike_id":"e3806266-2ccf-4264-9b9d-10ba6d953cfe","system_id":"levelo_inurba_marseille","lat":43.29092,"lon":5.38126,"is_reserved":false,"is_disabled":false,"rental_uris":{"android":"levelo://app?vid=e3806266-2ccf-4264-9b9d-10ba6d953cfe","ios":"levelo://app?vid=e3806266-2ccf-4264-9b9d-10ba6d953cfe"},"vehicle_type_id":"4","last_reported":1728663067,"current_range_meters":12800,"station_id":"ce4bh512rcd13ifvqe2g","pricing_plan_id":"cebpf4jnsgd1na2vs0mg"},{"bike_id":"df6a53fa-18f0-4fb3-b654-ab01820b77c4","system_id":"levelo_inurba_marseille","lat":43.23192,"lon":5.35546,"is_reserved":false,"is_disabled":false,"rental_uris":{"android":"levelo://app?vid=df6a53fa-18f0-4fb3-b654-ab01820b77c4","ios":"levelo://app?vid=df6a53fa-18f0-4fb3-b654-ab01820b77c4"},"vehicle_type_id":"4","last_reported":1728663067,"current_range_meters":8000,"station_id":"ce4bhu92rcd13ifvqi70","pricing_plan_id":"cebpf4jnsgd1na2vs0mg"},{"bike_id":"b933402b-d1ca-49a8-bbf7-fb19281d941c","system_id":"levelo_inurba_marseille","lat":43.23191,"lon":5.35552,"is_reserved":false,"is_disabled":false,"rental_uris":{"android":"levelo://app?vid=b933402b-d1ca-49a8-bbf7-fb19281d941c","ios":"levelo://app?vid=b933402b-d1ca-49a8-bbf7-fb19281d941c"},"vehicle_type_id":"4","last_reported":1728663067,"current_range_meters":26000,"station_id":"ce4bhu92rcd13ifvqi70","pricing_plan_id":"cebpf4jnsgd1na2vs0mg"},{"bike_id":"1ae85927-2ee2-4860-ba4b-a2ecf3ee0120","system_id":"levelo_inurba_marseille","lat":43.29415,"lon":5.3861,"is_reserved":false,"is_disabled":false,"rental_uris":{"android":"levelo://app?vid=1ae85927-2ee2-4860-ba4b-a2ecf3ee0120","ios":"levelo://app?vid=1ae85927-2ee2-4860-ba4b-a2ecf3ee0120"},"vehicle_type_id":"4","last_reported":1728663067,"current_range_meters":6000,"station_id":"ce4bh2h2rcd13ifvqdh0","pricing_plan_id":"cebpf4jnsgd1na2vs0mg"},{"bike_id":"d31f813a-26b5-416b-8518-5b92d621f539","system_id":"levelo_inurba_marseille","lat":43.28102,"lon":5.36891,"is_reserved":false,"is_disabled":false,"rental_uris":{"android":"levelo://app?vid=d31f813a-26b5-416b-8518-5b92d621f539","ios":"levelo://app?vid=d31f813a-26b5-416b-8518-5b92d621f539"},"vehicle_type_id":"4","last_reported":1728663067,"current_range_meters":17600,"station_id":"ce4bha12rcd13ifvqef0","pricing_plan_id":"cebpf4jnsgd1na2vs0mg"},{"bike_id":"368b6755-c303-4606-aa59-9d0188283157","system_id":"levelo_inurba_marseille","lat":43.24075,"lon":5.37756,"is_reserved":false,"is_disabled":false,"rental_uris":{"android":"levelo://app?vid=368b6755-c303-4606-aa59-9d0188283157","ios":"levelo://app?vid=368b6755-c303-4606-aa59-9d0188283157"},"vehicle_type_id":"4","last_reported":1728663067,"current_range_meters":18000,"station_id":"ce4bhnp2rcd13ifvqgvg","pricing_plan_id":"cebpf4jnsgd1na2vs0mg"},{"bike_id":"8d83432c-82fc-4dd8-96b0-8446783edded","system_id":"levelo_inurba_marseille","lat":43.26026,"lon":5.37549,"is_reserved":false,"is_disabled":false,"rental_uris":{"android":"levelo://app?vid=8d83432c-82fc-4dd8-96b0-8446783edded","ios":"levelo://app?vid=8d83432c-82fc-4dd8-96b0-8446783edded"},"vehicle_type_id":"4","last_reported":1728663067,"current_range_meters":38000,"station_id":"ce4bhgh2rcd13ifvqfa0","pricing_plan_id":"cebpf4jnsgd1na2vs0mg"},{"bike_id":"a033193c-f2d9-449d-8b10-1a6fb16d8651","system_id":"levelo_inurba_marseille","lat":43.28464,"lon":5.38291,"is_reserved":false,"is_disabled":false,"rental_uris":{"android":"levelo://app?vid=a033193c-f2d9-449d-8b10-1a6fb16d8651","ios":"levelo://app?vid=a033193c-f2d9-449d-8b10-1a6fb16d8651"},"vehicle_type_id":"4","last_reported":1728663067,"current_range_meters":5600,"station_id":"ce4bh512rcd13ifvqe3g","pricing_plan_id":"cebpf4jnsgd1na2vs0mg"},{"bike_id":"1acbc604-0b9b-4531-b348-e0e19ffa2630","system_id":"levelo_inurba_marseille","lat":43.24162,"lon":5.36394,"is_reserved":false,"is_disabled":false,"rental_uris":{"android":"levelo://app?vid=1acbc604-0b9b-4531-b348-e0e19ffa2630","ios":"levelo://app?vid=1acbc604-0b9b-4531-b348-e0e19ffa2630"},"vehicle_type_id":"4","last_reported":1728663067,"current_range_meters":38800,"station_id":"cpo36qri1sfpv3e86is0","pricing_plan_id":"cebpf4jnsgd1na2vs0mg"},{"bike_id":"484a4c63-4ef1-4433-b27a-9a9ca5ad2f9a","system_id":"levelo_inurba_marseille","lat":43.22926,"lon":5.35381,"is_reserved":false,"is_disabled":false,"rental_uris":{"android":"levelo://app?vid=484a4c63-4ef1-4433-b27a-9a9ca5ad2f9a","ios":"levelo://app?vid=484a4c63-4ef1-4433-b27a-9a9ca5ad2f9a"},"vehicle_type_id":"4","last_reported":1728663067,"current_range_meters":16000,"station_id":"cpo3532slgdg3j2ikp40","pricing_plan_id":"cebpf4jnsgd1na2vs0mg"},{"bike_id":"ef668147-07aa-4e0a-ab96-b46a7c166a06","system_id":"levelo_inurba_marseille","lat":43.29554,"lon":5.4229,"is_reserved":false,"is_disabled":false,"rental_uris":{"android":"levelo://app?vid=ef668147-07aa-4e0a-ab96-b46a7c166a06","ios":"levelo://app?vid=ef668147-07aa-4e0a-ab96-b46a7c166a06"},"vehicle_type_id":"4","last_reported":1728663067,"current_range_meters":30400,"station_id":"ce4bhph2rcd13ifvqhdg","pricing_plan_id":"cebpf4jnsgd1na2vs0mg"},{"bike_id":"0aa24993-1a87-461e-8030-58863bc41de1","system_id":"levelo_inurba_marseille","lat":43.33719,"lon":5.39187,"is_reserved":false,"is_disabled":false,"rental_uris":{"android":"levelo://app?vid=0aa24993-1a87-461e-8030-58863bc41de1","ios":"levelo://app?vid=0aa24993-1a87-461e-8030-58863bc41de1"},"vehicle_type_id":"4","last_reported":1728663067,"current_range_meters":32000,"station_id":"ce4bhr92rcd13ifvqhsg","pricing_plan_id":"cebpf4jnsgd1na2vs0mg"},{"bike_id":"39bb093e-1fb0-4fe9-a7de-f970ccf3512f","system_id":"levelo_inurba_marseille","lat":43.22932,"lon":5.35378,"is_reserved":false,"is_disabled":false,"rental_uris":{"android":"levelo://app?vid=39bb093e-1fb0-4fe9-a7de-f970ccf3512f","ios":"levelo://app?vid=39bb093e-1fb0-4fe9-a7de-f970ccf3512f"},"vehicle_type_id":"4","last_reported":1728663067,"current_range_meters":24800,"station_id":"cpo3532slgdg3j2ikp40","pricing_plan_id":"cebpf4jnsgd1na2vs0mg"},{"bike_id":"2e18eb27-1bd0-46ef-997d-9b82b5907c4f","system_id":"levelo_inurba_marseille","lat":43.29569,"lon":5.39979,"is_reserved":false,"is_disabled":false,"rental_uris":{"android":"levelo://app?vid=2e18eb27-1bd0-46ef-997d-9b82b5907c4f","ios":"levelo://app?vid=2e18eb27-1bd0-46ef-997d-9b82b5907c4f"},"vehicle_type_id":"4","last_reported":1728663067,"current_range_meters":22400,"station_id":"ce4bh312rcd13ifvqdj0","pricing_plan_id":"cebpf4jnsgd1na2vs0mg"},{"bike_id":"0623ede9-0e35-450d-bee2-ddac13bb5a71","system_id":"levelo_inurba_marseille","lat":43.29901,"lon":5.37445,"is_reserved":false,"is_disabled":false,"rental_uris":{"android":"levelo://app?vid=0623ede9-0e35-450d-bee2-ddac13bb5a71","ios":"levelo://app?vid=0623ede9-0e35-450d-bee2-ddac13bb5a71"},"vehicle_type_id":"4","last_reported":1728663067,"current_range_meters":4000,"station_id":"ce4bgjh2rcd13ifvqbg0","pricing_plan_id":"cebpf4jnsgd1na2vs0mg"},{"bike_id":"134d3346-a736-4563-b586-31784d854e15","system_id":"levelo_inurba_marseille","lat":43.28485,"lon":5.38561,"is_reserved":false,"is_disabled":false,"rental_uris":{"android":"levelo://app?vid=134d3346-a736-4563-b586-31784d854e15","ios":"levelo://app?vid=134d3346-a736-4563-b586-31784d854e15"},"vehicle_type_id":"4","last_reported":1728663067,"current_range_meters":4400,"station_id":"ce4bh8p2rcd13ifvqeb0","pricing_plan_id":"cebpf4jnsgd1na2vs0mg"},{"bike_id":"4d415a41-5908-4312-8f35-7f8aa8bb70f4","system_id":"levelo_inurba_marseille","lat":43.29842,"lon":5.36285,"is_reserved":false,"is_disabled":false,"rental_uris":{"android":"levelo://app?vid=4d415a41-5908-4312-8f35-7f8aa8bb70f4","ios":"levelo://app?vid=4d415a41-5908-4312-8f35-7f8aa8bb70f4"},"vehicle_type_id":"4","last_reported":1728663067,"current_range_meters":38800,"station_id":"ce4bgpp2rcd13ifvqc3g","pricing_plan_id":"cebpf4jnsgd1na2vs0mg"},{"bike_id":"3799f984-cd5a-486b-994e-ff0af7f7874e","system_id":"levelo_inurba_marseille","lat":43.34136,"lon":5.40896,"is_reserved":false,"is_disabled":false,"rental_uris":{"android":"levelo://app?vid=3799f984-cd5a-486b-994e-ff0af7f7874e","ios":"levelo://app?vid=3799f984-cd5a-486b-994e-ff0af7f7874e"},"vehicle_type_id":"4","last_reported":1728663067,"current_range_meters":28000,"station_id":"ce4bhqh2rcd13ifvqhlg","pricing_plan_id":"cebpf4jnsgd1na2vs0mg"},{"bike_id":"9420c6dc-b19d-4421-8c0c-72e39b809c6b","system_id":"levelo_inurba_marseille","lat":43.22929,"lon":5.35376,"is_reserved":false,"is_disabled":false,"rental_uris":{"android":"levelo://app?vid=9420c6dc-b19d-4421-8c0c-72e39b809c6b","ios":"levelo://app?vid=9420c6dc-b19d-4421-8c0c-72e39b809c6b"},"vehicle_type_id":"4","last_reported":1728663067,"current_range_meters":38800,"station_id":"cpo3532slgdg3j2ikp40","pricing_plan_id":"cebpf4jnsgd1na2vs0mg"},{"bike_id":"5a5649e8-a9bc-4d0f-be41-ed6fc56a9baf","system_id":"levelo_inurba_marseille","lat":43.22925,"lon":5.35379,"is_reserved":false,"is_disabled":false,"rental_uris":{"android":"levelo://app?vid=5a5649e8-a9bc-4d0f-be41-ed6fc56a9baf","ios":"levelo://app?vid=5a5649e8-a9bc-4d0f-be41-ed6fc56a9baf"},"vehicle_type_id":"4","last_reported":1728663067,"current_range_meters":36400,"station_id":"cpo3532slgdg3j2ikp40","pricing_plan_id":"cebpf4jnsgd1na2vs0mg"},{"bike_id":"0bba2dc4-238b-44ea-ab14-73a0e37aacff","system_id":"levelo_inurba_marseille","lat":43.29955,"lon":5.41318,"is_reserved":false,"is_disabled":false,"rental_uris":{"android":"levelo://app?vid=0bba2dc4-238b-44ea-ab14-73a0e37aacff","ios":"levelo://app?vid=0bba2dc4-238b-44ea-ab14-73a0e37aacff"},"vehicle_type_id":"4","last_reported":1728663067,"current_range_meters":25200,"station_id":"ce4bhp12rcd13ifvqh9g","pricing_plan_id":"cebpf4jnsgd1na2vs0mg"},{"bike_id":"02dcf37a-35af-4363-ac6c-97ee53504cc1","system_id":"levelo_inurba_marseille","lat":43.28447,"lon":5.39202,"is_reserved":false,"is_disabled":false,"rental_uris":{"android":"levelo://app?vid=02dcf37a-35af-4363-ac6c-97ee53504cc1","ios":"levelo://app?vid=02dcf37a-35af-4363-ac6c-97ee53504cc1"},"vehicle_type_id":"4","last_reported":1728663067,"current_range_meters":13600,"station_id":"ce4bhoh2rcd13ifvqh5g","pricing_plan_id":"cebpf4jnsgd1na2vs0mg"},{"bike_id":"556f14a2-762a-4e17-9ba9-5db389d53c1a","system_id":"levelo_inurba_marseille","lat":43.326324,"lon":5.375845,"is_reserved":false,"is_disabled":false,"rental_uris":{"android":"levelo://app?vid=556f14a2-762a-4e17-9ba9-5db389d53c1a","ios":"levelo://app?vid=556f14a2-762a-4e17-9ba9-5db389d53c1a"},"vehicle_type_id":"4","last_reported":1728663067,"current_range_meters":9200,"station_id":"ce4bhr12rcd13ifvqhpg","pricing_plan_id":"cebpf4jnsgd1na2vs0mg"},{"bike_id":"8fb2b431-bcb9-46ba-80fb-e26e84592fc5","system_id":"levelo_inurba_marseille","lat":43.231904,"lon":5.355571,"is_reserved":false,"is_disabled":false,"rental_uris":{"android":"levelo://app?vid=8fb2b431-bcb9-46ba-80fb-e26e84592fc5","ios":"levelo://app?vid=8fb2b431-bcb9-46ba-80fb-e26e84592fc5"},"vehicle_type_id":"4","last_reported":1728663067,"current_range_meters":36400,"station_id":"ce4bhu92rcd13ifvqi70","pricing_plan_id":"cebpf4jnsgd1na2vs0mg"},{"bike_id":"ecb32b62-cbf7-445e-b3f5-e018770e916d","system_id":"levelo_inurba_marseille","lat":43.33715,"lon":5.39186,"is_reserved":false,"is_disabled":false,"rental_uris":{"android":"levelo://app?vid=ecb32b62-cbf7-445e-b3f5-e018770e916d","ios":"levelo://app?vid=ecb32b62-cbf7-445e-b3f5-e018770e916d"},"vehicle_type_id":"4","last_reported":1728663067,"current_range_meters":13600,"station_id":"ce4bhr92rcd13ifvqhsg","pricing_plan_id":"cebpf4jnsgd1na2vs0mg"},{"bike_id":"3c9ca17f-8acf-4d94-a0e3-4a4cb06ebd70","system_id":"levelo_inurba_marseille","lat":43.27815,"lon":5.4071,"is_reserved":false,"is_disabled":false,"rental_uris":{"android":"levelo://app?vid=3c9ca17f-8acf-4d94-a0e3-4a4cb06ebd70","ios":"levelo://app?vid=3c9ca17f-8acf-4d94-a0e3-4a4cb06ebd70"},"vehicle_type_id":"4","last_reported":1728663067,"current_range_meters":18000,"station_id":"ce4bhnh2rcd13ifvqgtg","pricing_plan_id":"cebpf4jnsgd1na2vs0mg"},{"bike_id":"da1dc309-5b90-4af8-a59c-d0a1ee9ad15a","system_id":"levelo_inurba_marseille","lat":43.29026,"lon":5.38137,"is_reserved":false,"is_disabled":false,"rental_uris":{"android":"levelo://app?vid=da1dc309-5b90-4af8-a59c-d0a1ee9ad15a","ios":"levelo://app?vid=da1dc309-5b90-4af8-a59c-d0a1ee9ad15a"},"vehicle_type_id":"4","last_reported":1728663067,"current_range_meters":19200,"station_id":"ce4bh4p2rcd13ifvqe1g","pricing_plan_id":"cebpf4jnsgd1na2vs0mg"},{"bike_id":"ec2b168e-766e-4394-aa4b-40ba903b3f58","system_id":"levelo_inurba_marseille","lat":43.31753,"lon":5.39013,"is_reserved":false,"is_disabled":false,"rental_uris":{"android":"levelo://app?vid=ec2b168e-766e-4394-aa4b-40ba903b3f58","ios":"levelo://app?vid=ec2b168e-766e-4394-aa4b-40ba903b3f58"},"vehicle_type_id":"4","last_reported":1728663067,"current_range_meters":22400,"station_id":"ce4bhqp2rcd13ifvqhng","pricing_plan_id":"cebpf4jnsgd1na2vs0mg"},{"bike_id":"f39920a1-9a9b-4238-9ab3-d927205355a5","system_id":"levelo_inurba_marseille","lat":43.30212,"lon":5.39465,"is_reserved":false,"is_disabled":false,"rental_uris":{"android":"levelo://app?vid=f39920a1-9a9b-4238-9ab3-d927205355a5","ios":"levelo://app?vid=f39920a1-9a9b-4238-9ab3-d927205355a5"},"vehicle_type_id":"4","last_reported":1728663067,"current_range_meters":27600,"station_id":"ce4bh0p2rcd13ifvqd70","pricing_plan_id":"cebpf4jnsgd1na2vs0mg"},{"bike_id":"a27554a6-a50a-485f-8f1f-4487a4aa2e01","system_id":"levelo_inurba_marseille","lat":43.30591,"lon":5.38065,"is_reserved":false,"is_disabled":false,"rental_uris":{"android":"levelo://app?vid=a27554a6-a50a-485f-8f1f-4487a4aa2e01","ios":"levelo://app?vid=a27554a6-a50a-485f-8f1f-4487a4aa2e01"},"vehicle_type_id":"4","last_reported":1728663067,"current_range_meters":30800,"station_id":"","pricing_plan_id":"cebpf4jnsgd1na2vs0mg"},{"bike_id":"e48a0e42-c279-4188-8162-e83b20e253d8","system_id":"levelo_inurba_marseille","lat":43.28457,"lon":5.35884,"is_reserved":false,"is_disabled":false,"rental_uris":{"android":"levelo://app?vid=e48a0e42-c279-4188-8162-e83b20e253d8","ios":"levelo://app?vid=e48a0e42-c279-4188-8162-e83b20e253d8"},"vehicle_type_id":"4","last_reported":1728663067,"current_range_meters":38800,"station_id":"ce4bhah2rcd13ifvqei0","pricing_plan_id":"cebpf4jnsgd1na2vs0mg"},{"bike_id":"bd73b0f9-1a76-4127-8d3e-2a3115db9314","system_id":"levelo_inurba_marseille","lat":43.289154,"lon":5.384087,"is_reserved":false,"is_disabled":false,"rental_uris":{"android":"levelo://app?vid=bd73b0f9-1a76-4127-8d3e-2a3115db9314","ios":"levelo://app?vid=bd73b0f9-1a76-4127-8d3e-2a3115db9314"},"vehicle_type_id":"4","last_reported":1728663067,"current_range_meters":4400,"station_id":"ce4bh612rcd13ifvqe6g","pricing_plan_id":"cebpf4jnsgd1na2vs0mg"},{"bike_id":"039f5b19-afaf-4980-8d7b-7ed9613007b5","system_id":"levelo_inurba_marseille","lat":43.30917,"lon":5.378777,"is_reserved":false,"is_disabled":false,"rental_uris":{"android":"levelo://app?vid=039f5b19-afaf-4980-8d7b-7ed9613007b5","ios":"levelo://app?vid=039f5b19-afaf-4980-8d7b-7ed9613007b5"},"vehicle_type_id":"4","last_reported":1728663067,"current_range_meters":4400,"station_id":"ce4bhr12rcd13ifvqhqg","pricing_plan_id":"cebpf4jnsgd1na2vs0mg"},{"bike_id":"aa75c41c-1391-4d5a-b0ad-fb29c317877d","system_id":"levelo_inurba_marseille","lat":43.23063,"lon":5.35493,"is_reserved":false,"is_disabled":false,"rental_uris":{"android":"levelo://app?vid=aa75c41c-1391-4d5a-b0ad-fb29c317877d","ios":"levelo://app?vid=aa75c41c-1391-4d5a-b0ad-fb29c317877d"},"vehicle_type_id":"4","last_reported":1728663067,"current_range_meters":38800,"station_id":"cpo3342slgdg3j2ifvpg","pricing_plan_id":"cebpf4jnsgd1na2vs0mg"},{"bike_id":"99de0cce-e3ef-444a-8065-d30063fe2374","system_id":"levelo_inurba_marseille","lat":43.30953,"lon":5.3903,"is_reserved":false,"is_disabled":false,"rental_uris":{"android":"levelo://app?vid=99de0cce-e3ef-444a-8065-d30063fe2374","ios":"levelo://app?vid=99de0cce-e3ef-444a-8065-d30063fe2374"},"vehicle_type_id":"4","last_reported":1728663067,"current_range_meters":4000,"station_id":"ce4bgup2rcd13ifvqco0","pricing_plan_id":"cebpf4jnsgd1na2vs0mg"},{"bike_id":"1a0f090a-d6e7-4a1e-bfe5-0c2a632b851c","system_id":"levelo_inurba_marseille","lat":43.27175,"lon":5.40994,"is_reserved":false,"is_disabled":false,"rental_uris":{"android":"levelo://app?vid=1a0f090a-d6e7-4a1e-bfe5-0c2a632b851c","ios":"levelo://app?vid=1a0f090a-d6e7-4a1e-bfe5-0c2a632b851c"},"vehicle_type_id":"4","last_reported":1728663067,"current_range_meters":39200,"station_id":"ce4bhl12rcd13ifvqgf0","pricing_plan_id":"cebpf4jnsgd1na2vs0mg"},{"bike_id":"d87a4f8b-fa99-47e8-8d8f-5b7b84275d93","system_id":"levelo_inurba_marseille","lat":43.266564,"lon":5.382096,"is_reserved":false,"is_disabled":false,"rental_uris":{"android":"levelo://app?vid=d87a4f8b-fa99-47e8-8d8f-5b7b84275d93","ios":"levelo://app?vid=d87a4f8b-fa99-47e8-8d8f-5b7b84275d93"},"vehicle_type_id":"4","last_reported":1728663067,"current_range_meters":36400,"station_id":"ce4bhg92rcd13ifvqf90","pricing_plan_id":"cebpf4jnsgd1na2vs0mg"},{"bike_id":"b03cb309-d7bd-4b69-bc55-30e1ce71fb3d","system_id":"levelo_inurba_marseille","lat":43.298645,"lon":5.397324,"is_reserved":false,"is_disabled":false,"rental_uris":{"android":"levelo://app?vid=b03cb309-d7bd-4b69-bc55-30e1ce71fb3d","ios":"levelo://app?vid=b03cb309-d7bd-4b69-bc55-30e1ce71fb3d"},"vehicle_type_id":"4","last_reported":1728663067,"current_range_meters":36400,"station_id":"ce4bh0h2rcd13ifvqd50","pricing_plan_id":"cebpf4jnsgd1na2vs0mg"},{"bike_id":"b1009450-6152-462c-a724-90df51eeb6db","system_id":"levelo_inurba_marseille","lat":43.32382,"lon":5.38917,"is_reserved":false,"is_disabled":false,"rental_uris":{"android":"levelo://app?vid=b1009450-6152-462c-a724-90df51eeb6db","ios":"levelo://app?vid=b1009450-6152-462c-a724-90df51eeb6db"},"vehicle_type_id":"4","last_reported":1728663067,"current_range_meters":4800,"station_id":"ce4bhqp2rcd13ifvqhog","pricing_plan_id":"cebpf4jnsgd1na2vs0mg"},{"bike_id":"07017bf6-b5fd-43be-94b6-345993cd564d","system_id":"levelo_inurba_marseille","lat":43.23193,"lon":5.35551,"is_reserved":false,"is_disabled":false,"rental_uris":{"android":"levelo://app?vid=07017bf6-b5fd-43be-94b6-345993cd564d","ios":"levelo://app?vid=07017bf6-b5fd-43be-94b6-345993cd564d"},"vehicle_type_id":"4","last_reported":1728663067,"current_range_meters":36000,"station_id":"ce4bhu92rcd13ifvqi70","pricing_plan_id":"cebpf4jnsgd1na2vs0mg"},{"bike_id":"ff95b055-8c82-4e9d-a2f5-a9a30a8460bd","system_id":"levelo_inurba_marseille","lat":43.297028,"lon":5.366,"is_reserved":false,"is_disabled":false,"rental_uris":{"android":"levelo://app?vid=ff95b055-8c82-4e9d-a2f5-a9a30a8460bd","ios":"levelo://app?vid=ff95b055-8c82-4e9d-a2f5-a9a30a8460bd"},"vehicle_type_id":"4","last_reported":1728663067,"current_range_meters":6400,"station_id":"ce4bgn12rcd13ifvqbt0","pricing_plan_id":"cebpf4jnsgd1na2vs0mg"},{"bike_id":"dc9b850d-501b-49ad-9ee8-9e7af43c937e","system_id":"levelo_inurba_marseille","lat":43.33023,"lon":5.39037,"is_reserved":false,"is_disabled":false,"rental_uris":{"android":"levelo://app?vid=dc9b850d-501b-49ad-9ee8-9e7af43c937e","ios":"levelo://app?vid=dc9b850d-501b-49ad-9ee8-9e7af43c937e"},"vehicle_type_id":"4","last_reported":1728663067,"current_range_meters":9200,"station_id":"ce4bhr92rcd13ifvqhrg","pricing_plan_id":"cebpf4jnsgd1na2vs0mg"},{"bike_id":"f151639c-b4c4-4b0b-9101-d975c9de594f","system_id":"levelo_inurba_marseille","lat":43.294097,"lon":5.381374,"is_reserved":false,"is_disabled":false,"rental_uris":{"android":"levelo://app?vid=f151639c-b4c4-4b0b-9101-d975c9de594f","ios":"levelo://app?vid=f151639c-b4c4-4b0b-9101-d975c9de594f"},"vehicle_type_id":"4","last_reported":1728663067,"current_range_meters":16000,"station_id":"ce4bgjh2rcd13ifvqbf0","pricing_plan_id":"cebpf4jnsgd1na2vs0mg"},{"bike_id":"0540e61f-fa6d-40b6-a13e-2152141b9555","system_id":"levelo_inurba_marseille","lat":43.27143,"lon":5.38923,"is_reserved":false,"is_disabled":false,"rental_uris":{"android":"levelo://app?vid=0540e61f-fa6d-40b6-a13e-2152141b9555","ios":"levelo://app?vid=0540e61f-fa6d-40b6-a13e-2152141b9555"},"vehicle_type_id":"4","last_reported":1728663067,"current_range_meters":6800,"station_id":"","pricing_plan_id":"cebpf4jnsgd1na2vs0mg"},{"bike_id":"c11a763a-5130-474f-8c3c-a7001385b1e0","system_id":"levelo_inurba_marseille","lat":43.30956,"lon":5.39022,"is_reserved":false,"is_disabled":false,"rental_uris":{"android":"levelo://app?vid=c11a763a-5130-474f-8c3c-a7001385b1e0","ios":"levelo://app?vid=c11a763a-5130-474f-8c3c-a7001385b1e0"},"vehicle_type_id":"4","last_reported":1728663067,"current_range_meters":8000,"station_id":"ce4bgup2rcd13ifvqco0","pricing_plan_id":"cebpf4jnsgd1na2vs0mg"},{"bike_id":"60a5893f-9ab1-44c2-8c67-7ba8c2391ee8","system_id":"levelo_inurba_marseille","lat":43.28059,"lon":5.36891,"is_reserved":false,"is_disabled":false,"rental_uris":{"android":"levelo://app?vid=60a5893f-9ab1-44c2-8c67-7ba8c2391ee8","ios":"levelo://app?vid=60a5893f-9ab1-44c2-8c67-7ba8c2391ee8"},"vehicle_type_id":"4","last_reported":1728663067,"current_range_meters":19200,"station_id":"ce4bha12rcd13ifvqef0","pricing_plan_id":"cebpf4jnsgd1na2vs0mg"},{"bike_id":"2d1a79aa-0c0a-46d3-aa06-2e320f73360a","system_id":"levelo_inurba_marseille","lat":43.2621,"lon":5.37443,"is_reserved":false,"is_disabled":false,"rental_uris":{"android":"levelo://app?vid=2d1a79aa-0c0a-46d3-aa06-2e320f73360a","ios":"levelo://app?vid=2d1a79aa-0c0a-46d3-aa06-2e320f73360a"},"vehicle_type_id":"4","last_reported":1728663067,"current_range_meters":8000,"station_id":"ce4bhgp2rcd13ifvqfc0","pricing_plan_id":"cebpf4jnsgd1na2vs0mg"},{"bike_id":"0ac3f76c-98cc-4a01-aa08-8190dc02c643","system_id":"levelo_inurba_marseille","lat":43.28612,"lon":5.35108,"is_reserved":false,"is_disabled":false,"rental_uris":{"android":"levelo://app?vid=0ac3f76c-98cc-4a01-aa08-8190dc02c643","ios":"levelo://app?vid=0ac3f76c-98cc-4a01-aa08-8190dc02c643"},"vehicle_type_id":"4","last_reported":1728663067,"current_range_meters":16000,"station_id":"ce4bhch2rcd13ifvqeug","pricing_plan_id":"cebpf4jnsgd1na2vs0mg"},{"bike_id":"8c9a5779-48c6-4a49-b87c-4b9241d4f44b","system_id":"levelo_inurba_marseille","lat":43.337444,"lon":5.374475,"is_reserved":false,"is_disabled":false,"rental_uris":{"android":"levelo://app?vid=8c9a5779-48c6-4a49-b87c-4b9241d4f44b","ios":"levelo://app?vid=8c9a5779-48c6-4a49-b87c-4b9241d4f44b"},"vehicle_type_id":"4","last_reported":1728663067,"current_range_meters":10800,"station_id":"","pricing_plan_id":"cebpf4jnsgd1na2vs0mg"},{"bike_id":"81065468-d9a9-4abd-8ed5-6ee07c180978","system_id":"levelo_inurba_marseille","lat":43.31715,"lon":5.42404,"is_reserved":false,"is_disabled":false,"rental_uris":{"android":"levelo://app?vid=81065468-d9a9-4abd-8ed5-6ee07c180978","ios":"levelo://app?vid=81065468-d9a9-4abd-8ed5-6ee07c180978"},"vehicle_type_id":"4","last_reported":1728663067,"current_range_meters":22000,"station_id":"ce4bhp92rcd13ifvqhbg","pricing_plan_id":"cebpf4jnsgd1na2vs0mg"},{"bike_id":"fe8bfe5f-6b56-4544-a987-9773c5b6594d","system_id":"levelo_inurba_marseille","lat":43.337444,"lon":5.374475,"is_reserved":false,"is_disabled":false,"rental_uris":{"android":"levelo://app?vid=fe8bfe5f-6b56-4544-a987-9773c5b6594d","ios":"levelo://app?vid=fe8bfe5f-6b56-4544-a987-9773c5b6594d"},"vehicle_type_id":"4","last_reported":1728663067,"current_range_meters":35600,"station_id":"","pricing_plan_id":"cebpf4jnsgd1na2vs0mg"},{"bike_id":"516b9182-5518-407c-a669-e37ecdd727b0","system_id":"levelo_inurba_marseille","lat":43.28273,"lon":5.35084,"is_reserved":false,"is_disabled":false,"rental_uris":{"android":"levelo://app?vid=516b9182-5518-407c-a669-e37ecdd727b0","ios":"levelo://app?vid=516b9182-5518-407c-a669-e37ecdd727b0"},"vehicle_type_id":"4","last_reported":1728663067,"current_range_meters":7200,"station_id":"ce4bhbp2rcd13ifvqerg","pricing_plan_id":"cebpf4jnsgd1na2vs0mg"},{"bike_id":"ff5d6487-9bff-4afd-8f60-b71467ec75b4","system_id":"levelo_inurba_marseille","lat":43.25825,"lon":5.39435,"is_reserved":false,"is_disabled":false,"rental_uris":{"android":"levelo://app?vid=ff5d6487-9bff-4afd-8f60-b71467ec75b4","ios":"levelo://app?vid=ff5d6487-9bff-4afd-8f60-b71467ec75b4"},"vehicle_type_id":"4","last_reported":1728663067,"current_range_meters":23200,"station_id":"ce4bhip2rcd13ifvqft0","pricing_plan_id":"cebpf4jnsgd1na2vs0mg"},{"bike_id":"a0b87371-7717-46f0-9e86-1314afdfd781","system_id":"levelo_inurba_marseille","lat":43.28471,"lon":5.38409,"is_reserved":false,"is_disabled":false,"rental_uris":{"android":"levelo://app?vid=a0b87371-7717-46f0-9e86-1314afdfd781","ios":"levelo://app?vid=a0b87371-7717-46f0-9e86-1314afdfd781"},"vehicle_type_id":"4","last_reported":1728663067,"current_range_meters":28800,"station_id":"ce4bh512rcd13ifvqe3g","pricing_plan_id":"cebpf4jnsgd1na2vs0mg"},{"bike_id":"384f7998-c20a-48f5-9a4b-f8228082c4e6","system_id":"levelo_inurba_marseille","lat":43.27174,"lon":5.40989,"is_reserved":false,"is_disabled":false,"rental_uris":{"android":"levelo://app?vid=384f7998-c20a-48f5-9a4b-f8228082c4e6","ios":"levelo://app?vid=384f7998-c20a-48f5-9a4b-f8228082c4e6"},"vehicle_type_id":"4","last_reported":1728663067,"current_range_meters":28000,"station_id":"ce4bhl12rcd13ifvqgf0","pricing_plan_id":"cebpf4jnsgd1na2vs0mg"},{"bike_id":"58d6631e-0418-4d35-94d1-c140427ddd40","system_id":"levelo_inurba_marseille","lat":43.2892,"lon":5.38397,"is_reserved":false,"is_disabled":false,"rental_uris":{"android":"levelo://app?vid=58d6631e-0418-4d35-94d1-c140427ddd40","ios":"levelo://app?vid=58d6631e-0418-4d35-94d1-c140427ddd40"},"vehicle_type_id":"4","last_reported":1728663067,"current_range_meters":20400,"station_id":"ce4bh612rcd13ifvqe6g","pricing_plan_id":"cebpf4jnsgd1na2vs0mg"},{"bike_id":"aa93c18e-6055-4fad-ad2c-dd5209f2ac45","system_id":"levelo_inurba_marseille","lat":43.24809,"lon":5.37457,"is_reserved":false,"is_disabled":false,"rental_uris":{"android":"levelo://app?vid=aa93c18e-6055-4fad-ad2c-dd5209f2ac45","ios":"levelo://app?vid=aa93c18e-6055-4fad-ad2c-dd5209f2ac45"},"vehicle_type_id":"4","last_reported":1728663067,"current_range_meters":38800,"station_id":"ce4bhgh2rcd13ifvqfb0","pricing_plan_id":"cebpf4jnsgd1na2vs0mg"},{"bike_id":"47a9a6ef-04bf-4ed1-98e4-b81631a6628d","system_id":"levelo_inurba_marseille","lat":43.31755,"lon":5.39013,"is_reserved":false,"is_disabled":false,"rental_uris":{"android":"levelo://app?vid=47a9a6ef-04bf-4ed1-98e4-b81631a6628d","ios":"levelo://app?vid=47a9a6ef-04bf-4ed1-98e4-b81631a6628d"},"vehicle_type_id":"4","last_reported":1728663067,"current_range_meters":14400,"station_id":"ce4bhqp2rcd13ifvqhng","pricing_plan_id":"cebpf4jnsgd1na2vs0mg"},{"bike_id":"62f977b5-0152-47a6-8220-2d12c4656743","system_id":"levelo_inurba_marseille","lat":43.28472,"lon":5.38419,"is_reserved":false,"is_disabled":false,"rental_uris":{"android":"levelo://app?vid=62f977b5-0152-47a6-8220-2d12c4656743","ios":"levelo://app?vid=62f977b5-0152-47a6-8220-2d12c4656743"},"vehicle_type_id":"4","last_reported":1728663067,"current_range_meters":36800,"station_id":"ce4bh512rcd13ifvqe3g","pricing_plan_id":"cebpf4jnsgd1na2vs0mg"},{"bike_id":"ba329a88-d68a-45eb-a036-6b41efaec17e","system_id":"levelo_inurba_marseille","lat":43.26063,"lon":5.39396,"is_reserved":false,"is_disabled":false,"rental_uris":{"android":"levelo://app?vid=ba329a88-d68a-45eb-a036-6b41efaec17e","ios":"levelo://app?vid=ba329a88-d68a-45eb-a036-6b41efaec17e"},"vehicle_type_id":"4","last_reported":1728663067,"current_range_meters":27600,"station_id":"ce4bhh92rcd13ifvqfj0","pricing_plan_id":"cebpf4jnsgd1na2vs0mg"},{"bike_id":"8d757e06-83cc-4f58-8fbf-a3d3a7320029","system_id":"levelo_inurba_marseille","lat":43.28607,"lon":5.35102,"is_reserved":false,"is_disabled":false,"rental_uris":{"android":"levelo://app?vid=8d757e06-83cc-4f58-8fbf-a3d3a7320029","ios":"levelo://app?vid=8d757e06-83cc-4f58-8fbf-a3d3a7320029"},"vehicle_type_id":"4","last_reported":1728663067,"current_range_meters":26800,"station_id":"ce4bhch2rcd13ifvqeug","pricing_plan_id":"cebpf4jnsgd1na2vs0mg"},{"bike_id":"d0bcf234-798b-4c72-885f-7da24c2fef9e","system_id":"levelo_inurba_marseille","lat":43.32502,"lon":5.38944,"is_reserved":false,"is_disabled":false,"rental_uris":{"android":"levelo://app?vid=d0bcf234-798b-4c72-885f-7da24c2fef9e","ios":"levelo://app?vid=d0bcf234-798b-4c72-885f-7da24c2fef9e"},"vehicle_type_id":"4","last_reported":1728663067,"current_range_meters":38800,"station_id":"","pricing_plan_id":"cebpf4jnsgd1na2vs0mg"},{"bike_id":"1fdd0b51-8b1c-452b-996e-d880b73c3d2d","system_id":"levelo_inurba_marseille","lat":43.250778,"lon":5.403233,"is_reserved":false,"is_disabled":false,"rental_uris":{"android":"levelo://app?vid=1fdd0b51-8b1c-452b-996e-d880b73c3d2d","ios":"levelo://app?vid=1fdd0b51-8b1c-452b-996e-d880b73c3d2d"},"vehicle_type_id":"4","last_reported":1728663067,"current_range_meters":12800,"station_id":"ce4bhlh2rcd13ifvqgig","pricing_plan_id":"cebpf4jnsgd1na2vs0mg"},{"bike_id":"9f21766f-0837-4bcb-a575-e8ce2df39312","system_id":"levelo_inurba_marseille","lat":43.33029,"lon":5.39037,"is_reserved":false,"is_disabled":false,"rental_uris":{"android":"levelo://app?vid=9f21766f-0837-4bcb-a575-e8ce2df39312","ios":"levelo://app?vid=9f21766f-0837-4bcb-a575-e8ce2df39312"},"vehicle_type_id":"4","last_reported":1728663067,"current_range_meters":38800,"station_id":"ce4bhr92rcd13ifvqhrg","pricing_plan_id":"cebpf4jnsgd1na2vs0mg"},{"bike_id":"93f00a35-b043-4ce7-b4fd-bce8ff11159d","system_id":"levelo_inurba_marseille","lat":43.279388,"lon":5.410423,"is_reserved":false,"is_disabled":false,"rental_uris":{"android":"levelo://app?vid=93f00a35-b043-4ce7-b4fd-bce8ff11159d","ios":"levelo://app?vid=93f00a35-b043-4ce7-b4fd-bce8ff11159d"},"vehicle_type_id":"4","last_reported":1728663067,"current_range_meters":17200,"station_id":"ce4bhnp2rcd13ifvqh0g","pricing_plan_id":"cebpf4jnsgd1na2vs0mg"},{"bike_id":"b4b4c8d8-abcb-47ce-9972-e04f83364853","system_id":"levelo_inurba_marseille","lat":43.30536,"lon":5.36538,"is_reserved":false,"is_disabled":false,"rental_uris":{"android":"levelo://app?vid=b4b4c8d8-abcb-47ce-9972-e04f83364853","ios":"levelo://app?vid=b4b4c8d8-abcb-47ce-9972-e04f83364853"},"vehicle_type_id":"4","last_reported":1728663067,"current_range_meters":8400,"station_id":"ce4bgs12rcd13ifvqcag","pricing_plan_id":"cebpf4jnsgd1na2vs0mg"},{"bike_id":"2cec717a-f132-462b-913c-08171378f2e1","system_id":"levelo_inurba_marseille","lat":43.28508,"lon":5.38523,"is_reserved":false,"is_disabled":false,"rental_uris":{"android":"levelo://app?vid=2cec717a-f132-462b-913c-08171378f2e1","ios":"levelo://app?vid=2cec717a-f132-462b-913c-08171378f2e1"},"vehicle_type_id":"4","last_reported":1728663067,"current_range_meters":37600,"station_id":"ce4bh8p2rcd13ifvqeb0","pricing_plan_id":"cebpf4jnsgd1na2vs0mg"},{"bike_id":"930df0d0-a7d0-4c57-9cb8-60affbbb68dc","system_id":"levelo_inurba_marseille","lat":43.310651,"lon":5.400555,"is_reserved":false,"is_disabled":false,"rental_uris":{"android":"levelo://app?vid=930df0d0-a7d0-4c57-9cb8-60affbbb68dc","ios":"levelo://app?vid=930df0d0-a7d0-4c57-9cb8-60affbbb68dc"},"vehicle_type_id":"4","last_reported":1728663067,"current_range_meters":38800,"station_id":"","pricing_plan_id":"cebpf4jnsgd1na2vs0mg"},{"bike_id":"b100417b-8d9e-4bc6-9076-d96ee5f77477","system_id":"levelo_inurba_marseille","lat":43.259552,"lon":5.375799,"is_reserved":false,"is_disabled":false,"rental_uris":{"android":"levelo://app?vid=b100417b-8d9e-4bc6-9076-d96ee5f77477","ios":"levelo://app?vid=b100417b-8d9e-4bc6-9076-d96ee5f77477"},"vehicle_type_id":"4","last_reported":1728663067,"current_range_meters":9600,"station_id":"ce4bhc92rcd13ifvqetg","pricing_plan_id":"cebpf4jnsgd1na2vs0mg"},{"bike_id":"69f36be8-ef25-4c29-95d2-4c12b3c732ad","system_id":"levelo_inurba_marseille","lat":43.28037,"lon":5.36939,"is_reserved":false,"is_disabled":false,"rental_uris":{"android":"levelo://app?vid=69f36be8-ef25-4c29-95d2-4c12b3c732ad","ios":"levelo://app?vid=69f36be8-ef25-4c29-95d2-4c12b3c732ad"},"vehicle_type_id":"4","last_reported":1728663067,"current_range_meters":22400,"station_id":"ce4bha12rcd13ifvqef0","pricing_plan_id":"cebpf4jnsgd1na2vs0mg"},{"bike_id":"8bbf8e30-7a80-4bd4-bcfa-d99a44c1f2e9","system_id":"levelo_inurba_marseille","lat":43.31756,"lon":5.3901,"is_reserved":false,"is_disabled":false,"rental_uris":{"android":"levelo://app?vid=8bbf8e30-7a80-4bd4-bcfa-d99a44c1f2e9","ios":"levelo://app?vid=8bbf8e30-7a80-4bd4-bcfa-d99a44c1f2e9"},"vehicle_type_id":"4","last_reported":1728663067,"current_range_meters":17200,"station_id":"ce4bhqp2rcd13ifvqhng","pricing_plan_id":"cebpf4jnsgd1na2vs0mg"},{"bike_id":"f98a4a1c-5971-42d3-83a4-fc4492dbfc63","system_id":"levelo_inurba_marseille","lat":43.31162,"lon":5.38713,"is_reserved":false,"is_disabled":false,"rental_uris":{"android":"levelo://app?vid=f98a4a1c-5971-42d3-83a4-fc4492dbfc63","ios":"levelo://app?vid=f98a4a1c-5971-42d3-83a4-fc4492dbfc63"},"vehicle_type_id":"4","last_reported":1728663067,"current_range_meters":10800,"station_id":"ce4bgv12rcd13ifvqcp0","pricing_plan_id":"cebpf4jnsgd1na2vs0mg"},{"bike_id":"6122b747-a113-47f7-9cdd-8809677787ee","system_id":"levelo_inurba_marseille","lat":43.31755,"lon":5.3901,"is_reserved":false,"is_disabled":false,"rental_uris":{"android":"levelo://app?vid=6122b747-a113-47f7-9cdd-8809677787ee","ios":"levelo://app?vid=6122b747-a113-47f7-9cdd-8809677787ee"},"vehicle_type_id":"4","last_reported":1728663067,"current_range_meters":24800,"station_id":"ce4bhqp2rcd13ifvqhng","pricing_plan_id":"cebpf4jnsgd1na2vs0mg"},{"bike_id":"c462ac31-e294-4267-bc1b-a4f664716350","system_id":"levelo_inurba_marseille","lat":43.23191,"lon":5.35544,"is_reserved":false,"is_disabled":false,"rental_uris":{"android":"levelo://app?vid=c462ac31-e294-4267-bc1b-a4f664716350","ios":"levelo://app?vid=c462ac31-e294-4267-bc1b-a4f664716350"},"vehicle_type_id":"4","last_reported":1728663067,"current_range_meters":26800,"station_id":"ce4bhu92rcd13ifvqi70","pricing_plan_id":"cebpf4jnsgd1na2vs0mg"},{"bike_id":"52b1125a-5821-42ca-b212-63aac46a0191","system_id":"levelo_inurba_marseille","lat":43.31711,"lon":5.43707,"is_reserved":false,"is_disabled":false,"rental_uris":{"android":"levelo://app?vid=52b1125a-5821-42ca-b212-63aac46a0191","ios":"levelo://app?vid=52b1125a-5821-42ca-b212-63aac46a0191"},"vehicle_type_id":"4","last_reported":1728663067,"current_range_meters":23200,"station_id":"ce4bhp92rcd13ifvqhcg","pricing_plan_id":"cebpf4jnsgd1na2vs0mg"},{"bike_id":"1c9a48ad-1a33-4247-aa77-b8edc9d2520f","system_id":"levelo_inurba_marseille","lat":43.24805,"lon":5.37443,"is_reserved":false,"is_disabled":false,"rental_uris":{"android":"levelo://app?vid=1c9a48ad-1a33-4247-aa77-b8edc9d2520f","ios":"levelo://app?vid=1c9a48ad-1a33-4247-aa77-b8edc9d2520f"},"vehicle_type_id":"4","last_reported":1728663067,"current_range_meters":8400,"station_id":"ce4bhgh2rcd13ifvqfb0","pricing_plan_id":"cebpf4jnsgd1na2vs0mg"},{"bike_id":"28bbe269-a192-4b43-acb6-1f8c8c449727","system_id":"levelo_inurba_marseille","lat":43.29024,"lon":5.35912,"is_reserved":false,"is_disabled":false,"rental_uris":{"android":"levelo://app?vid=28bbe269-a192-4b43-acb6-1f8c8c449727","ios":"levelo://app?vid=28bbe269-a192-4b43-acb6-1f8c8c449727"},"vehicle_type_id":"4","last_reported":1728663067,"current_range_meters":14400,"station_id":"ce4bha92rcd13ifvqeg0","pricing_plan_id":"cebpf4jnsgd1na2vs0mg"},{"bike_id":"3e78beba-7400-4fdf-9a2b-79c571b9437b","system_id":"levelo_inurba_marseille","lat":43.30789,"lon":5.38149,"is_reserved":false,"is_disabled":false,"rental_uris":{"android":"levelo://app?vid=3e78beba-7400-4fdf-9a2b-79c571b9437b","ios":"levelo://app?vid=3e78beba-7400-4fdf-9a2b-79c571b9437b"},"vehicle_type_id":"4","last_reported":1728663067,"current_range_meters":4000,"station_id":"ce4bgt12rcd13ifvqce0","pricing_plan_id":"cebpf4jnsgd1na2vs0mg"},{"bike_id":"3cd1e88a-696e-4134-9692-fcd54b06a422","system_id":"levelo_inurba_marseille","lat":43.28666,"lon":5.38663,"is_reserved":false,"is_disabled":false,"rental_uris":{"android":"levelo://app?vid=3cd1e88a-696e-4134-9692-fcd54b06a422","ios":"levelo://app?vid=3cd1e88a-696e-4134-9692-fcd54b06a422"},"vehicle_type_id":"4","last_reported":1728663067,"current_range_meters":18000,"station_id":"ce4bh492rcd13ifvqdug","pricing_plan_id":"cebpf4jnsgd1na2vs0mg"},{"bike_id":"600a6ea5-5c70-4f25-9b57-c621b8210681","system_id":"levelo_inurba_marseille","lat":43.32659,"lon":5.40987,"is_reserved":false,"is_disabled":false,"rental_uris":{"android":"levelo://app?vid=600a6ea5-5c70-4f25-9b57-c621b8210681","ios":"levelo://app?vid=600a6ea5-5c70-4f25-9b57-c621b8210681"},"vehicle_type_id":"4","last_reported":1728663067,"current_range_meters":37600,"station_id":"ce4bhpp2rcd13ifvqhgg","pricing_plan_id":"cebpf4jnsgd1na2vs0mg"},{"bike_id":"d0cd22cd-6c34-4766-ad37-11ce30ff4b69","system_id":"levelo_inurba_marseille","lat":43.26978,"lon":5.39874,"is_reserved":false,"is_disabled":false,"rental_uris":{"android":"levelo://app?vid=d0cd22cd-6c34-4766-ad37-11ce30ff4b69","ios":"levelo://app?vid=d0cd22cd-6c34-4766-ad37-11ce30ff4b69"},"vehicle_type_id":"4","last_reported":1728663067,"current_range_meters":17600,"station_id":"","pricing_plan_id":"cebpf4jnsgd1na2vs0mg"},{"bike_id":"9cf3db70-1431-4372-b452-2d0770d0c15d","system_id":"levelo_inurba_marseille","lat":43.23194,"lon":5.35553,"is_reserved":false,"is_disabled":false,"rental_uris":{"android":"levelo://app?vid=9cf3db70-1431-4372-b452-2d0770d0c15d","ios":"levelo://app?vid=9cf3db70-1431-4372-b452-2d0770d0c15d"},"vehicle_type_id":"4","last_reported":1728663067,"current_range_meters":39200,"station_id":"ce4bhu92rcd13ifvqi70","pricing_plan_id":"cebpf4jnsgd1na2vs0mg"},{"bike_id":"a8d99df0-90aa-4e7f-9ab4-159591f5ea76","system_id":"levelo_inurba_marseille","lat":43.28028,"lon":5.36957,"is_reserved":false,"is_disabled":false,"rental_uris":{"android":"levelo://app?vid=a8d99df0-90aa-4e7f-9ab4-159591f5ea76","ios":"levelo://app?vid=a8d99df0-90aa-4e7f-9ab4-159591f5ea76"},"vehicle_type_id":"4","last_reported":1728663067,"current_range_meters":18800,"station_id":"ce4bha12rcd13ifvqef0","pricing_plan_id":"cebpf4jnsgd1na2vs0mg"},{"bike_id":"a09ab9f5-95fe-4ac6-aa5a-f804012c9973","system_id":"levelo_inurba_marseille","lat":43.31165,"lon":5.38718,"is_reserved":false,"is_disabled":false,"rental_uris":{"android":"levelo://app?vid=a09ab9f5-95fe-4ac6-aa5a-f804012c9973","ios":"levelo://app?vid=a09ab9f5-95fe-4ac6-aa5a-f804012c9973"},"vehicle_type_id":"4","last_reported":1728663067,"current_range_meters":6400,"station_id":"ce4bgv12rcd13ifvqcp0","pricing_plan_id":"cebpf4jnsgd1na2vs0mg"},{"bike_id":"7b6baa85-f647-4dbc-bee4-af88f44a8bf2","system_id":"levelo_inurba_marseille","lat":43.22924,"lon":5.35377,"is_reserved":false,"is_disabled":false,"rental_uris":{"android":"levelo://app?vid=7b6baa85-f647-4dbc-bee4-af88f44a8bf2","ios":"levelo://app?vid=7b6baa85-f647-4dbc-bee4-af88f44a8bf2"},"vehicle_type_id":"4","last_reported":1728663067,"current_range_meters":24000,"station_id":"cpo3532slgdg3j2ikp40","pricing_plan_id":"cebpf4jnsgd1na2vs0mg"},{"bike_id":"a2f6b2a0-20f4-4664-8a6c-0a3daccc288e","system_id":"levelo_inurba_marseille","lat":43.30791,"lon":5.376492,"is_reserved":false,"is_disabled":false,"rental_uris":{"android":"levelo://app?vid=a2f6b2a0-20f4-4664-8a6c-0a3daccc288e","ios":"levelo://app?vid=a2f6b2a0-20f4-4664-8a6c-0a3daccc288e"},"vehicle_type_id":"4","last_reported":1728663067,"current_range_meters":14800,"station_id":"ce4bgv92rcd13ifvqcq0","pricing_plan_id":"cebpf4jnsgd1na2vs0mg"},{"bike_id":"cbb2caa8-b732-4aa0-a1b1-cc73cfaba4f6","system_id":"levelo_inurba_marseille","lat":43.27562,"lon":5.38425,"is_reserved":false,"is_disabled":false,"rental_uris":{"android":"levelo://app?vid=cbb2caa8-b732-4aa0-a1b1-cc73cfaba4f6","ios":"levelo://app?vid=cbb2caa8-b732-4aa0-a1b1-cc73cfaba4f6"},"vehicle_type_id":"4","last_reported":1728663067,"current_range_meters":25600,"station_id":"ce4bhh92rcd13ifvqfi0","pricing_plan_id":"cebpf4jnsgd1na2vs0mg"},{"bike_id":"3c25dded-f8d5-4193-a336-9fad641c4aac","system_id":"levelo_inurba_marseille","lat":43.33766,"lon":5.37447,"is_reserved":false,"is_disabled":false,"rental_uris":{"android":"levelo://app?vid=3c25dded-f8d5-4193-a336-9fad641c4aac","ios":"levelo://app?vid=3c25dded-f8d5-4193-a336-9fad641c4aac"},"vehicle_type_id":"4","last_reported":1728663067,"current_range_meters":11600,"station_id":"","pricing_plan_id":"cebpf4jnsgd1na2vs0mg"},{"bike_id":"e5971838-2555-4fb4-abcd-47bbab18960e","system_id":"levelo_inurba_marseille","lat":43.30673,"lon":5.38141,"is_reserved":false,"is_disabled":false,"rental_uris":{"android":"levelo://app?vid=e5971838-2555-4fb4-abcd-47bbab18960e","ios":"levelo://app?vid=e5971838-2555-4fb4-abcd-47bbab18960e"},"vehicle_type_id":"4","last_reported":1728663067,"current_range_meters":6000,"station_id":"","pricing_plan_id":"cebpf4jnsgd1na2vs0mg"},{"bike_id":"4abdbbc7-facb-47b7-8f92-ec268e73003e","system_id":"levelo_inurba_marseille","lat":43.22929,"lon":5.35378,"is_reserved":false,"is_disabled":false,"rental_uris":{"android":"levelo://app?vid=4abdbbc7-facb-47b7-8f92-ec268e73003e","ios":"levelo://app?vid=4abdbbc7-facb-47b7-8f92-ec268e73003e"},"vehicle_type_id":"4","last_reported":1728663067,"current_range_meters":7200,"station_id":"cpo3532slgdg3j2ikp40","pricing_plan_id":"cebpf4jnsgd1na2vs0mg"},{"bike_id":"7975faaf-f260-41c7-87cd-147b9a3b3ebf","system_id":"levelo_inurba_marseille","lat":43.23057,"lon":5.35488,"is_reserved":false,"is_disabled":false,"rental_uris":{"android":"levelo://app?vid=7975faaf-f260-41c7-87cd-147b9a3b3ebf","ios":"levelo://app?vid=7975faaf-f260-41c7-87cd-147b9a3b3ebf"},"vehicle_type_id":"4","last_reported":1728663067,"current_range_meters":12800,"station_id":"cpo3342slgdg3j2ifvpg","pricing_plan_id":"cebpf4jnsgd1na2vs0mg"},{"bike_id":"9e6b5928-a6b2-4030-bfda-ac055d9961fb","system_id":"levelo_inurba_marseille","lat":43.30551,"lon":5.367,"is_reserved":false,"is_disabled":false,"rental_uris":{"android":"levelo://app?vid=9e6b5928-a6b2-4030-bfda-ac055d9961fb","ios":"levelo://app?vid=9e6b5928-a6b2-4030-bfda-ac055d9961fb"},"vehicle_type_id":"4","last_reported":1728663067,"current_range_meters":27600,"station_id":"ce4bgrp2rcd13ifvqc9g","pricing_plan_id":"cebpf4jnsgd1na2vs0mg"},{"bike_id":"703d5faf-e8f5-42e8-a15c-36acb1ae64d2","system_id":"levelo_inurba_marseille","lat":43.22934,"lon":5.35382,"is_reserved":false,"is_disabled":false,"rental_uris":{"android":"levelo://app?vid=703d5faf-e8f5-42e8-a15c-36acb1ae64d2","ios":"levelo://app?vid=703d5faf-e8f5-42e8-a15c-36acb1ae64d2"},"vehicle_type_id":"4","last_reported":1728663067,"current_range_meters":38800,"station_id":"cpo3532slgdg3j2ikp40","pricing_plan_id":"cebpf4jnsgd1na2vs0mg"},{"bike_id":"b8dcb907-8b9b-400e-b166-96706b00b5e8","system_id":"levelo_inurba_marseille","lat":43.3303,"lon":5.39038,"is_reserved":false,"is_disabled":false,"rental_uris":{"android":"levelo://app?vid=b8dcb907-8b9b-400e-b166-96706b00b5e8","ios":"levelo://app?vid=b8dcb907-8b9b-400e-b166-96706b00b5e8"},"vehicle_type_id":"4","last_reported":1728663067,"current_range_meters":33600,"station_id":"ce4bhr92rcd13ifvqhrg","pricing_plan_id":"cebpf4jnsgd1na2vs0mg"},{"bike_id":"813cb73c-c273-490f-ab14-76009a9929b6","system_id":"levelo_inurba_marseille","lat":43.29555,"lon":5.42292,"is_reserved":false,"is_disabled":false,"rental_uris":{"android":"levelo://app?vid=813cb73c-c273-490f-ab14-76009a9929b6","ios":"levelo://app?vid=813cb73c-c273-490f-ab14-76009a9929b6"},"vehicle_type_id":"4","last_reported":1728663067,"current_range_meters":16400,"station_id":"ce4bhph2rcd13ifvqhdg","pricing_plan_id":"cebpf4jnsgd1na2vs0mg"},{"bike_id":"76a61bdb-f3eb-4a96-bc6c-c3e63e67ceed","system_id":"levelo_inurba_marseille","lat":43.28459,"lon":5.35885,"is_reserved":false,"is_disabled":false,"rental_uris":{"android":"levelo://app?vid=76a61bdb-f3eb-4a96-bc6c-c3e63e67ceed","ios":"levelo://app?vid=76a61bdb-f3eb-4a96-bc6c-c3e63e67ceed"},"vehicle_type_id":"4","last_reported":1728663067,"current_range_meters":2800,"station_id":"ce4bhah2rcd13ifvqei0","pricing_plan_id":"cebpf4jnsgd1na2vs0mg"},{"bike_id":"0230b24e-4eb9-4ae3-a5da-c517dad2e8e5","system_id":"levelo_inurba_marseille","lat":43.23963,"lon":5.36625,"is_reserved":false,"is_disabled":false,"rental_uris":{"android":"levelo://app?vid=0230b24e-4eb9-4ae3-a5da-c517dad2e8e5","ios":"levelo://app?vid=0230b24e-4eb9-4ae3-a5da-c517dad2e8e5"},"vehicle_type_id":"4","last_reported":1728663067,"current_range_meters":6000,"station_id":"ce4bhi12rcd13ifvqfp0","pricing_plan_id":"cebpf4jnsgd1na2vs0mg"},{"bike_id":"0affb511-11e4-4062-b2b6-78c70f605970","system_id":"levelo_inurba_marseille","lat":43.23851,"lon":5.36565,"is_reserved":false,"is_disabled":false,"rental_uris":{"android":"levelo://app?vid=0affb511-11e4-4062-b2b6-78c70f605970","ios":"levelo://app?vid=0affb511-11e4-4062-b2b6-78c70f605970"},"vehicle_type_id":"4","last_reported":1728663067,"current_range_meters":7200,"station_id":"","pricing_plan_id":"cebpf4jnsgd1na2vs0mg"},{"bike_id":"554299f5-7e77-40d1-bd7a-4640ef2cd0c4","system_id":"levelo_inurba_marseille","lat":43.27846,"lon":5.39207,"is_reserved":false,"is_disabled":false,"rental_uris":{"android":"levelo://app?vid=554299f5-7e77-40d1-bd7a-4640ef2cd0c4","ios":"levelo://app?vid=554299f5-7e77-40d1-bd7a-4640ef2cd0c4"},"vehicle_type_id":"4","last_reported":1728663067,"current_range_meters":38800,"station_id":"ce4bhjp2rcd13ifvqga0","pricing_plan_id":"cebpf4jnsgd1na2vs0mg"},{"bike_id":"9fc4da1b-22ff-4cc6-bca5-7381d075a806","system_id":"levelo_inurba_marseille","lat":43.27373,"lon":5.36251,"is_reserved":false,"is_disabled":false,"rental_uris":{"android":"levelo://app?vid=9fc4da1b-22ff-4cc6-bca5-7381d075a806","ios":"levelo://app?vid=9fc4da1b-22ff-4cc6-bca5-7381d075a806"},"vehicle_type_id":"4","last_reported":1728663067,"current_range_meters":8000,"station_id":"ce4bhbh2rcd13ifvqeo0","pricing_plan_id":"cebpf4jnsgd1na2vs0mg"},{"bike_id":"5a0930d1-5a29-4ff2-8a57-4e5fff4b0777","system_id":"levelo_inurba_marseille","lat":43.287169,"lon":5.379334,"is_reserved":false,"is_disabled":false,"rental_uris":{"android":"levelo://app?vid=5a0930d1-5a29-4ff2-8a57-4e5fff4b0777","ios":"levelo://app?vid=5a0930d1-5a29-4ff2-8a57-4e5fff4b0777"},"vehicle_type_id":"4","last_reported":1728663067,"current_range_meters":3600,"station_id":"ce4bh9p2rcd13ifvqec0","pricing_plan_id":"cebpf4jnsgd1na2vs0mg"},{"bike_id":"450796b6-ee46-43ae-88f0-8031169b73ec","system_id":"levelo_inurba_marseille","lat":43.29378,"lon":5.40075,"is_reserved":false,"is_disabled":false,"rental_uris":{"android":"levelo://app?vid=450796b6-ee46-43ae-88f0-8031169b73ec","ios":"levelo://app?vid=450796b6-ee46-43ae-88f0-8031169b73ec"},"vehicle_type_id":"4","last_reported":1728663067,"current_range_meters":2800,"station_id":"","pricing_plan_id":"cebpf4jnsgd1na2vs0mg"},{"bike_id":"b562318f-e980-4c9a-a961-e0cfcd5f5d8d","system_id":"levelo_inurba_marseille","lat":43.244849,"lon":5.384228,"is_reserved":false,"is_disabled":false,"rental_uris":{"android":"levelo://app?vid=b562318f-e980-4c9a-a961-e0cfcd5f5d8d","ios":"levelo://app?vid=b562318f-e980-4c9a-a961-e0cfcd5f5d8d"},"vehicle_type_id":"4","last_reported":1728663067,"current_range_meters":38800,"station_id":"ce4bhhh2rcd13ifvqfk0","pricing_plan_id":"cebpf4jnsgd1na2vs0mg"},{"bike_id":"93597776-aa4b-4556-b902-f43005559dd1","system_id":"levelo_inurba_marseille","lat":43.27808,"lon":5.40713,"is_reserved":false,"is_disabled":false,"rental_uris":{"android":"levelo://app?vid=93597776-aa4b-4556-b902-f43005559dd1","ios":"levelo://app?vid=93597776-aa4b-4556-b902-f43005559dd1"},"vehicle_type_id":"4","last_reported":1728663067,"current_range_meters":8000,"station_id":"ce4bhnh2rcd13ifvqgtg","pricing_plan_id":"cebpf4jnsgd1na2vs0mg"},{"bike_id":"a04e3c15-660a-4846-8af6-3fc88993b108","system_id":"levelo_inurba_marseille","lat":43.29594,"lon":5.38098,"is_reserved":false,"is_disabled":false,"rental_uris":{"android":"levelo://app?vid=a04e3c15-660a-4846-8af6-3fc88993b108","ios":"levelo://app?vid=a04e3c15-660a-4846-8af6-3fc88993b108"},"vehicle_type_id":"4","last_reported":1728663067,"current_range_meters":24400,"station_id":"ce4bgl12rcd13ifvqbo0","pricing_plan_id":"cebpf4jnsgd1na2vs0mg"},{"bike_id":"d0af47d5-71a2-4e6e-a4f7-a2d225b8e53a","system_id":"levelo_inurba_marseille","lat":43.23056,"lon":5.35492,"is_reserved":false,"is_disabled":false,"rental_uris":{"android":"levelo://app?vid=d0af47d5-71a2-4e6e-a4f7-a2d225b8e53a","ios":"levelo://app?vid=d0af47d5-71a2-4e6e-a4f7-a2d225b8e53a"},"vehicle_type_id":"4","last_reported":1728663067,"current_range_meters":14800,"station_id":"cpo3342slgdg3j2ifvpg","pricing_plan_id":"cebpf4jnsgd1na2vs0mg"},{"bike_id":"e4455817-2e9c-42ac-801a-25b2be33b612","system_id":"levelo_inurba_marseille","lat":43.23178,"lon":5.39989,"is_reserved":false,"is_disabled":false,"rental_uris":{"android":"levelo://app?vid=e4455817-2e9c-42ac-801a-25b2be33b612","ios":"levelo://app?vid=e4455817-2e9c-42ac-801a-25b2be33b612"},"vehicle_type_id":"4","last_reported":1728663067,"current_range_meters":8800,"station_id":"ce4bhn12rcd13ifvqgqg","pricing_plan_id":"cebpf4jnsgd1na2vs0mg"},{"bike_id":"c4893e11-6484-457c-8a64-6dfc68609024","system_id":"levelo_inurba_marseille","lat":43.2417,"lon":5.36399,"is_reserved":false,"is_disabled":false,"rental_uris":{"android":"levelo://app?vid=c4893e11-6484-457c-8a64-6dfc68609024","ios":"levelo://app?vid=c4893e11-6484-457c-8a64-6dfc68609024"},"vehicle_type_id":"4","last_reported":1728663067,"current_range_meters":38800,"station_id":"cpo36qri1sfpv3e86is0","pricing_plan_id":"cebpf4jnsgd1na2vs0mg"},{"bike_id":"044f49bc-5723-4815-924e-f0cbc224e583","system_id":"levelo_inurba_marseille","lat":43.27945,"lon":5.41048,"is_reserved":false,"is_disabled":false,"rental_uris":{"android":"levelo://app?vid=044f49bc-5723-4815-924e-f0cbc224e583","ios":"levelo://app?vid=044f49bc-5723-4815-924e-f0cbc224e583"},"vehicle_type_id":"4","last_reported":1728663067,"current_range_meters":16800,"station_id":"ce4bhnp2rcd13ifvqh0g","pricing_plan_id":"cebpf4jnsgd1na2vs0mg"},{"bike_id":"451c2df3-c910-4a93-b2c5-57f4fa7e06ea","system_id":"levelo_inurba_marseille","lat":43.31167,"lon":5.38725,"is_reserved":false,"is_disabled":false,"rental_uris":{"android":"levelo://app?vid=451c2df3-c910-4a93-b2c5-57f4fa7e06ea","ios":"levelo://app?vid=451c2df3-c910-4a93-b2c5-57f4fa7e06ea"},"vehicle_type_id":"4","last_reported":1728663067,"current_range_meters":37600,"station_id":"ce4bgv12rcd13ifvqcp0","pricing_plan_id":"cebpf4jnsgd1na2vs0mg"},{"bike_id":"91db935d-8eab-4f2f-b94e-078c9dba552d","system_id":"levelo_inurba_marseille","lat":43.28657,"lon":5.38669,"is_reserved":false,"is_disabled":false,"rental_uris":{"android":"levelo://app?vid=91db935d-8eab-4f2f-b94e-078c9dba552d","ios":"levelo://app?vid=91db935d-8eab-4f2f-b94e-078c9dba552d"},"vehicle_type_id":"4","last_reported":1728663067,"current_range_meters":3600,"station_id":"ce4bh492rcd13ifvqdug","pricing_plan_id":"cebpf4jnsgd1na2vs0mg"},{"bike_id":"f2f16e30-e62f-4a43-8de1-f64b7b7e68df","system_id":"levelo_inurba_marseille","lat":43.27374,"lon":5.36256,"is_reserved":false,"is_disabled":false,"rental_uris":{"android":"levelo://app?vid=f2f16e30-e62f-4a43-8de1-f64b7b7e68df","ios":"levelo://app?vid=f2f16e30-e62f-4a43-8de1-f64b7b7e68df"},"vehicle_type_id":"4","last_reported":1728663067,"current_range_meters":27200,"station_id":"ce4bhbh2rcd13ifvqeo0","pricing_plan_id":"cebpf4jnsgd1na2vs0mg"},{"bike_id":"1d25d367-66bd-41c8-a5af-727921e81bdf","system_id":"levelo_inurba_marseille","lat":43.25867,"lon":5.3989,"is_reserved":false,"is_disabled":false,"rental_uris":{"android":"levelo://app?vid=1d25d367-66bd-41c8-a5af-727921e81bdf","ios":"levelo://app?vid=1d25d367-66bd-41c8-a5af-727921e81bdf"},"vehicle_type_id":"4","last_reported":1728663067,"current_range_meters":10000,"station_id":"ce4bhl92rcd13ifvqghg","pricing_plan_id":"cebpf4jnsgd1na2vs0mg"},{"bike_id":"e9fe2a5e-f52a-45a0-832a-3766e925df39","system_id":"levelo_inurba_marseille","lat":43.309077,"lon":5.371917,"is_reserved":false,"is_disabled":false,"rental_uris":{"android":"levelo://app?vid=e9fe2a5e-f52a-45a0-832a-3766e925df39","ios":"levelo://app?vid=e9fe2a5e-f52a-45a0-832a-3766e925df39"},"vehicle_type_id":"4","last_reported":1728663067,"current_range_meters":35600,"station_id":"ce4bguh2rcd13ifvqckg","pricing_plan_id":"cebpf4jnsgd1na2vs0mg"},{"bike_id":"65fd6c2d-276c-4975-ba6f-15caf10c1bdd","system_id":"levelo_inurba_marseille","lat":43.337444,"lon":5.374475,"is_reserved":false,"is_disabled":false,"rental_uris":{"android":"levelo://app?vid=65fd6c2d-276c-4975-ba6f-15caf10c1bdd","ios":"levelo://app?vid=65fd6c2d-276c-4975-ba6f-15caf10c1bdd"},"vehicle_type_id":"4","last_reported":1728663067,"current_range_meters":14800,"station_id":"","pricing_plan_id":"cebpf4jnsgd1na2vs0mg"},{"bike_id":"bb89a692-d97b-4629-b3ea-68c85961978f","system_id":"levelo_inurba_marseille","lat":43.27997,"lon":5.40004,"is_reserved":false,"is_disabled":false,"rental_uris":{"android":"levelo://app?vid=bb89a692-d97b-4629-b3ea-68c85961978f","ios":"levelo://app?vid=bb89a692-d97b-4629-b3ea-68c85961978f"},"vehicle_type_id":"4","last_reported":1728663067,"current_range_meters":26800,"station_id":"ce4bho92rcd13ifvqh4g","pricing_plan_id":"cebpf4jnsgd1na2vs0mg"},{"bike_id":"44f30245-85b5-4468-8481-7232ba43a394","system_id":"levelo_inurba_marseille","lat":43.28468,"lon":5.35893,"is_reserved":false,"is_disabled":false,"rental_uris":{"android":"levelo://app?vid=44f30245-85b5-4468-8481-7232ba43a394","ios":"levelo://app?vid=44f30245-85b5-4468-8481-7232ba43a394"},"vehicle_type_id":"4","last_reported":1728663067,"current_range_meters":38800,"station_id":"ce4bhah2rcd13ifvqei0","pricing_plan_id":"cebpf4jnsgd1na2vs0mg"},{"bike_id":"efe54b44-30c5-45f8-bbef-3b9b1e4384e6","system_id":"levelo_inurba_marseille","lat":43.27369,"lon":5.36263,"is_reserved":false,"is_disabled":false,"rental_uris":{"android":"levelo://app?vid=efe54b44-30c5-45f8-bbef-3b9b1e4384e6","ios":"levelo://app?vid=efe54b44-30c5-45f8-bbef-3b9b1e4384e6"},"vehicle_type_id":"4","last_reported":1728663067,"current_range_meters":39200,"station_id":"ce4bhbh2rcd13ifvqeo0","pricing_plan_id":"cebpf4jnsgd1na2vs0mg"},{"bike_id":"9119bfed-6fe0-44c1-92af-8f9f407caeeb","system_id":"levelo_inurba_marseille","lat":43.22931,"lon":5.35381,"is_reserved":false,"is_disabled":false,"rental_uris":{"android":"levelo://app?vid=9119bfed-6fe0-44c1-92af-8f9f407caeeb","ios":"levelo://app?vid=9119bfed-6fe0-44c1-92af-8f9f407caeeb"},"vehicle_type_id":"4","last_reported":1728663067,"current_range_meters":30800,"station_id":"cpo3532slgdg3j2ikp40","pricing_plan_id":"cebpf4jnsgd1na2vs0mg"},{"bike_id":"169b2a20-3636-4e62-82e1-3ab942e6b8f0","system_id":"levelo_inurba_marseille","lat":43.23187,"lon":5.39992,"is_reserved":false,"is_disabled":false,"rental_uris":{"android":"levelo://app?vid=169b2a20-3636-4e62-82e1-3ab942e6b8f0","ios":"levelo://app?vid=169b2a20-3636-4e62-82e1-3ab942e6b8f0"},"vehicle_type_id":"4","last_reported":1728663067,"current_range_meters":23200,"station_id":"ce4bhn12rcd13ifvqgqg","pricing_plan_id":"cebpf4jnsgd1na2vs0mg"},{"bike_id":"f7af729a-2797-44aa-a40f-5a0c762b7bdd","system_id":"levelo_inurba_marseille","lat":43.28268,"lon":5.35073,"is_reserved":false,"is_disabled":false,"rental_uris":{"android":"levelo://app?vid=f7af729a-2797-44aa-a40f-5a0c762b7bdd","ios":"levelo://app?vid=f7af729a-2797-44aa-a40f-5a0c762b7bdd"},"vehicle_type_id":"4","last_reported":1728663067,"current_range_meters":3200,"station_id":"ce4bhbp2rcd13ifvqerg","pricing_plan_id":"cebpf4jnsgd1na2vs0mg"},{"bike_id":"e3536ce3-730e-4f25-a19c-97bc53e2a7ca","system_id":"levelo_inurba_marseille","lat":43.28425,"lon":5.34991,"is_reserved":false,"is_disabled":false,"rental_uris":{"android":"levelo://app?vid=e3536ce3-730e-4f25-a19c-97bc53e2a7ca","ios":"levelo://app?vid=e3536ce3-730e-4f25-a19c-97bc53e2a7ca"},"vehicle_type_id":"4","last_reported":1728663067,"current_range_meters":25200,"station_id":"ce4bhbh2rcd13ifvqepg","pricing_plan_id":"cebpf4jnsgd1na2vs0mg"},{"bike_id":"43aef565-67dd-4a1c-b214-c15b5f65742f","system_id":"levelo_inurba_marseille","lat":43.24807,"lon":5.37458,"is_reserved":false,"is_disabled":false,"rental_uris":{"android":"levelo://app?vid=43aef565-67dd-4a1c-b214-c15b5f65742f","ios":"levelo://app?vid=43aef565-67dd-4a1c-b214-c15b5f65742f"},"vehicle_type_id":"4","last_reported":1728663067,"current_range_meters":39200,"station_id":"ce4bhgh2rcd13ifvqfb0","pricing_plan_id":"cebpf4jnsgd1na2vs0mg"},{"bike_id":"733c93bb-25fe-4627-a703-a69099af8e2e","system_id":"levelo_inurba_marseille","lat":43.29809,"lon":5.41777,"is_reserved":false,"is_disabled":false,"rental_uris":{"android":"levelo://app?vid=733c93bb-25fe-4627-a703-a69099af8e2e","ios":"levelo://app?vid=733c93bb-25fe-4627-a703-a69099af8e2e"},"vehicle_type_id":"4","last_reported":1728663067,"current_range_meters":0,"station_id":"ce4bhp12rcd13ifvqh9g","pricing_plan_id":"cebpf4jnsgd1na2vs0mg"},{"bike_id":"0f4a77ad-73fa-4033-9b82-72ba6aa9921e","system_id":"levelo_inurba_marseille","lat":43.30545,"lon":5.3655,"is_reserved":false,"is_disabled":false,"rental_uris":{"android":"levelo://app?vid=0f4a77ad-73fa-4033-9b82-72ba6aa9921e","ios":"levelo://app?vid=0f4a77ad-73fa-4033-9b82-72ba6aa9921e"},"vehicle_type_id":"4","last_reported":1728663067,"current_range_meters":3200,"station_id":"ce4bgs12rcd13ifvqcag","pricing_plan_id":"cebpf4jnsgd1na2vs0mg"},{"bike_id":"a3223f13-ef47-4b88-a805-8887d487831f","system_id":"levelo_inurba_marseille","lat":43.27993,"lon":5.4166,"is_reserved":false,"is_disabled":false,"rental_uris":{"android":"levelo://app?vid=a3223f13-ef47-4b88-a805-8887d487831f","ios":"levelo://app?vid=a3223f13-ef47-4b88-a805-8887d487831f"},"vehicle_type_id":"4","last_reported":1728663067,"current_range_meters":2800,"station_id":"ce4bho12rcd13ifvqh1g","pricing_plan_id":"cebpf4jnsgd1na2vs0mg"},{"bike_id":"60af9571-4931-4d76-85d2-7035472b165c","system_id":"levelo_inurba_marseille","lat":43.27937,"lon":5.41039,"is_reserved":false,"is_disabled":false,"rental_uris":{"android":"levelo://app?vid=60af9571-4931-4d76-85d2-7035472b165c","ios":"levelo://app?vid=60af9571-4931-4d76-85d2-7035472b165c"},"vehicle_type_id":"4","last_reported":1728663067,"current_range_meters":6000,"station_id":"ce4bhnp2rcd13ifvqh0g","pricing_plan_id":"cebpf4jnsgd1na2vs0mg"},{"bike_id":"8384a218-2178-4204-9018-73988e0680c4","system_id":"levelo_inurba_marseille","lat":43.30351,"lon":5.41874,"is_reserved":false,"is_disabled":false,"rental_uris":{"android":"levelo://app?vid=8384a218-2178-4204-9018-73988e0680c4","ios":"levelo://app?vid=8384a218-2178-4204-9018-73988e0680c4"},"vehicle_type_id":"4","last_reported":1728663067,"current_range_meters":10800,"station_id":"ce4bhop2rcd13ifvqh7g","pricing_plan_id":"cebpf4jnsgd1na2vs0mg"},{"bike_id":"1ce66941-efcf-466b-8f32-cab4f7765022","system_id":"levelo_inurba_marseille","lat":43.31758,"lon":5.39016,"is_reserved":false,"is_disabled":false,"rental_uris":{"android":"levelo://app?vid=1ce66941-efcf-466b-8f32-cab4f7765022","ios":"levelo://app?vid=1ce66941-efcf-466b-8f32-cab4f7765022"},"vehicle_type_id":"4","last_reported":1728663067,"current_range_meters":20000,"station_id":"ce4bhqp2rcd13ifvqhng","pricing_plan_id":"cebpf4jnsgd1na2vs0mg"},{"bike_id":"454bcf82-447e-40b1-821f-400865de0235","system_id":"levelo_inurba_marseille","lat":43.27532,"lon":5.42392,"is_reserved":false,"is_disabled":false,"rental_uris":{"android":"levelo://app?vid=454bcf82-447e-40b1-821f-400865de0235","ios":"levelo://app?vid=454bcf82-447e-40b1-821f-400865de0235"},"vehicle_type_id":"4","last_reported":1728663067,"current_range_meters":20800,"station_id":"ce4bhn92rcd13ifvqgrg","pricing_plan_id":"cebpf4jnsgd1na2vs0mg"},{"bike_id":"faecf2d4-6bd4-4344-9aac-3ddc5aaf3cac","system_id":"levelo_inurba_marseille","lat":43.28573,"lon":5.38635,"is_reserved":false,"is_disabled":false,"rental_uris":{"android":"levelo://app?vid=faecf2d4-6bd4-4344-9aac-3ddc5aaf3cac","ios":"levelo://app?vid=faecf2d4-6bd4-4344-9aac-3ddc5aaf3cac"},"vehicle_type_id":"4","last_reported":1728663067,"current_range_meters":24800,"station_id":"ce4bh8p2rcd13ifvqeb0","pricing_plan_id":"cebpf4jnsgd1na2vs0mg"},{"bike_id":"bd431c74-9f63-4cf7-a12a-c3bc14678781","system_id":"levelo_inurba_marseille","lat":43.23052,"lon":5.35496,"is_reserved":false,"is_disabled":false,"rental_uris":{"android":"levelo://app?vid=bd431c74-9f63-4cf7-a12a-c3bc14678781","ios":"levelo://app?vid=bd431c74-9f63-4cf7-a12a-c3bc14678781"},"vehicle_type_id":"4","last_reported":1728663067,"current_range_meters":16000,"station_id":"cpo3342slgdg3j2ifvpg","pricing_plan_id":"cebpf4jnsgd1na2vs0mg"},{"bike_id":"4deef02f-6280-4ee6-9f02-9046098f4799","system_id":"levelo_inurba_marseille","lat":43.23184,"lon":5.39975,"is_reserved":false,"is_disabled":false,"rental_uris":{"android":"levelo://app?vid=4deef02f-6280-4ee6-9f02-9046098f4799","ios":"levelo://app?vid=4deef02f-6280-4ee6-9f02-9046098f4799"},"vehicle_type_id":"4","last_reported":1728663067,"current_range_meters":6800,"station_id":"ce4bhn12rcd13ifvqgqg","pricing_plan_id":"cebpf4jnsgd1na2vs0mg"},{"bike_id":"373e483a-ef95-488b-a189-0a0dbf8941eb","system_id":"levelo_inurba_marseille","lat":43.30194,"lon":5.36616,"is_reserved":false,"is_disabled":false,"rental_uris":{"android":"levelo://app?vid=373e483a-ef95-488b-a189-0a0dbf8941eb","ios":"levelo://app?vid=373e483a-ef95-488b-a189-0a0dbf8941eb"},"vehicle_type_id":"4","last_reported":1728663067,"current_range_meters":11200,"station_id":"ce4bgrh2rcd13ifvqc8g","pricing_plan_id":"cebpf4jnsgd1na2vs0mg"},{"bike_id":"bdee3219-57c1-49d1-a2d1-d02ddf7e4ac9","system_id":"levelo_inurba_marseille","lat":43.23058,"lon":5.35491,"is_reserved":false,"is_disabled":false,"rental_uris":{"android":"levelo://app?vid=bdee3219-57c1-49d1-a2d1-d02ddf7e4ac9","ios":"levelo://app?vid=bdee3219-57c1-49d1-a2d1-d02ddf7e4ac9"},"vehicle_type_id":"4","last_reported":1728663067,"current_range_meters":17200,"station_id":"cpo3342slgdg3j2ifvpg","pricing_plan_id":"cebpf4jnsgd1na2vs0mg"},{"bike_id":"3b8fe7c2-6dc6-47fc-8a77-c19c638e1ee8","system_id":"levelo_inurba_marseille","lat":43.30359,"lon":5.41876,"is_reserved":false,"is_disabled":false,"rental_uris":{"android":"levelo://app?vid=3b8fe7c2-6dc6-47fc-8a77-c19c638e1ee8","ios":"levelo://app?vid=3b8fe7c2-6dc6-47fc-8a77-c19c638e1ee8"},"vehicle_type_id":"4","last_reported":1728663067,"current_range_meters":4800,"station_id":"ce4bhop2rcd13ifvqh7g","pricing_plan_id":"cebpf4jnsgd1na2vs0mg"},{"bike_id":"02f69b75-3084-4630-90e0-cb9dc8d1f9a1","system_id":"levelo_inurba_marseille","lat":43.24806,"lon":5.37458,"is_reserved":false,"is_disabled":false,"rental_uris":{"android":"levelo://app?vid=02f69b75-3084-4630-90e0-cb9dc8d1f9a1","ios":"levelo://app?vid=02f69b75-3084-4630-90e0-cb9dc8d1f9a1"},"vehicle_type_id":"4","last_reported":1728663067,"current_range_meters":13600,"station_id":"ce4bhgh2rcd13ifvqfb0","pricing_plan_id":"cebpf4jnsgd1na2vs0mg"},{"bike_id":"22c6a6d5-b95e-46fb-8991-9f22cdde3244","system_id":"levelo_inurba_marseille","lat":43.2306,"lon":5.35494,"is_reserved":false,"is_disabled":false,"rental_uris":{"android":"levelo://app?vid=22c6a6d5-b95e-46fb-8991-9f22cdde3244","ios":"levelo://app?vid=22c6a6d5-b95e-46fb-8991-9f22cdde3244"},"vehicle_type_id":"4","last_reported":1728663067,"current_range_meters":38800,"station_id":"cpo3342slgdg3j2ifvpg","pricing_plan_id":"cebpf4jnsgd1na2vs0mg"},{"bike_id":"a8b54df0-17e8-43ec-8938-3faee6413d2b","system_id":"levelo_inurba_marseille","lat":43.28151,"lon":5.42642,"is_reserved":false,"is_disabled":false,"rental_uris":{"android":"levelo://app?vid=a8b54df0-17e8-43ec-8938-3faee6413d2b","ios":"levelo://app?vid=a8b54df0-17e8-43ec-8938-3faee6413d2b"},"vehicle_type_id":"4","last_reported":1728663067,"current_range_meters":3600,"station_id":"ce4bhnh2rcd13ifvqgug","pricing_plan_id":"cebpf4jnsgd1na2vs0mg"},{"bike_id":"a92f3bef-f7ae-4409-bf61-b4a898bbc079","system_id":"levelo_inurba_marseille","lat":43.29521,"lon":5.39048,"is_reserved":false,"is_disabled":false,"rental_uris":{"android":"levelo://app?vid=a92f3bef-f7ae-4409-bf61-b4a898bbc079","ios":"levelo://app?vid=a92f3bef-f7ae-4409-bf61-b4a898bbc079"},"vehicle_type_id":"4","last_reported":1728663067,"current_range_meters":6800,"station_id":"ce4bh3p2rcd13ifvqdp0","pricing_plan_id":"cebpf4jnsgd1na2vs0mg"},{"bike_id":"b21fa2f4-d26a-4e2e-92d7-f0118b07a1dd","system_id":"levelo_inurba_marseille","lat":43.28927,"lon":5.38401,"is_reserved":false,"is_disabled":false,"rental_uris":{"android":"levelo://app?vid=b21fa2f4-d26a-4e2e-92d7-f0118b07a1dd","ios":"levelo://app?vid=b21fa2f4-d26a-4e2e-92d7-f0118b07a1dd"},"vehicle_type_id":"4","last_reported":1728663067,"current_range_meters":24000,"station_id":"ce4bh612rcd13ifvqe6g","pricing_plan_id":"cebpf4jnsgd1na2vs0mg"},{"bike_id":"a562589d-ef23-4da1-8f06-8dd5c89e7ebf","system_id":"levelo_inurba_marseille","lat":43.302842,"lon":5.368567,"is_reserved":false,"is_disabled":false,"rental_uris":{"android":"levelo://app?vid=a562589d-ef23-4da1-8f06-8dd5c89e7ebf","ios":"levelo://app?vid=a562589d-ef23-4da1-8f06-8dd5c89e7ebf"},"vehicle_type_id":"4","last_reported":1728663067,"current_range_meters":10000,"station_id":"ce4bgqh2rcd13ifvqc5g","pricing_plan_id":"cebpf4jnsgd1na2vs0mg"},{"bike_id":"7c15d95d-ed76-4679-a2b4-dd2dcf1b1c62","system_id":"levelo_inurba_marseille","lat":43.276184,"lon":5.361066,"is_reserved":false,"is_disabled":false,"rental_uris":{"android":"levelo://app?vid=7c15d95d-ed76-4679-a2b4-dd2dcf1b1c62","ios":"levelo://app?vid=7c15d95d-ed76-4679-a2b4-dd2dcf1b1c62"},"vehicle_type_id":"4","last_reported":1728663067,"current_range_meters":38800,"station_id":"ce4bgj92rcd13ifvqbe0","pricing_plan_id":"cebpf4jnsgd1na2vs0mg"},{"bike_id":"7455af7f-9c52-431e-ac58-459939f8f950","system_id":"levelo_inurba_marseille","lat":43.28456,"lon":5.35895,"is_reserved":false,"is_disabled":false,"rental_uris":{"android":"levelo://app?vid=7455af7f-9c52-431e-ac58-459939f8f950","ios":"levelo://app?vid=7455af7f-9c52-431e-ac58-459939f8f950"},"vehicle_type_id":"4","last_reported":1728663067,"current_range_meters":14800,"station_id":"ce4bhah2rcd13ifvqei0","pricing_plan_id":"cebpf4jnsgd1na2vs0mg"},{"bike_id":"db2a0ae6-2092-4073-b8cb-5b90d58859d4","system_id":"levelo_inurba_marseille","lat":43.29549,"lon":5.40654,"is_reserved":false,"is_disabled":false,"rental_uris":{"android":"levelo://app?vid=db2a0ae6-2092-4073-b8cb-5b90d58859d4","ios":"levelo://app?vid=db2a0ae6-2092-4073-b8cb-5b90d58859d4"},"vehicle_type_id":"4","last_reported":1728663067,"current_range_meters":19600,"station_id":"ce4bgv12rcd13ifvqcp0","pricing_plan_id":"cebpf4jnsgd1na2vs0mg"},{"bike_id":"ef3f8fc1-34b7-4e45-9695-2f919b6ec835","system_id":"levelo_inurba_marseille","lat":43.28846,"lon":5.39314,"is_reserved":false,"is_disabled":false,"rental_uris":{"android":"levelo://app?vid=ef3f8fc1-34b7-4e45-9695-2f919b6ec835","ios":"levelo://app?vid=ef3f8fc1-34b7-4e45-9695-2f919b6ec835"},"vehicle_type_id":"4","last_reported":1728663067,"current_range_meters":6000,"station_id":"ce4bh2p2rcd13ifvqdi0","pricing_plan_id":"cebpf4jnsgd1na2vs0mg"},{"bike_id":"7e8692bd-339c-471f-805d-72f2ab0c4011","system_id":"levelo_inurba_marseille","lat":43.23057,"lon":5.35501,"is_reserved":false,"is_disabled":false,"rental_uris":{"android":"levelo://app?vid=7e8692bd-339c-471f-805d-72f2ab0c4011","ios":"levelo://app?vid=7e8692bd-339c-471f-805d-72f2ab0c4011"},"vehicle_type_id":"4","last_reported":1728663067,"current_range_meters":38800,"station_id":"cpo3342slgdg3j2ifvpg","pricing_plan_id":"cebpf4jnsgd1na2vs0mg"},{"bike_id":"f3622432-086d-4324-938c-65f68a9fde72","system_id":"levelo_inurba_marseille","lat":43.2679,"lon":5.39412,"is_reserved":false,"is_disabled":false,"rental_uris":{"android":"levelo://app?vid=f3622432-086d-4324-938c-65f68a9fde72","ios":"levelo://app?vid=f3622432-086d-4324-938c-65f68a9fde72"},"vehicle_type_id":"4","last_reported":1728663067,"current_range_meters":8800,"station_id":"ce4bhh12rcd13ifvqfg0","pricing_plan_id":"cebpf4jnsgd1na2vs0mg"},{"bike_id":"188b3ef1-9014-407f-83f7-6ce28d590853","system_id":"levelo_inurba_marseille","lat":43.3176,"lon":5.39022,"is_reserved":false,"is_disabled":false,"rental_uris":{"android":"levelo://app?vid=188b3ef1-9014-407f-83f7-6ce28d590853","ios":"levelo://app?vid=188b3ef1-9014-407f-83f7-6ce28d590853"},"vehicle_type_id":"4","last_reported":1728663067,"current_range_meters":22000,"station_id":"ce4bhqp2rcd13ifvqhng","pricing_plan_id":"cebpf4jnsgd1na2vs0mg"},{"bike_id":"3fe33009-551d-4292-9d86-a5d265deb4e8","system_id":"levelo_inurba_marseille","lat":43.26929,"lon":5.3892,"is_reserved":false,"is_disabled":false,"rental_uris":{"android":"levelo://app?vid=3fe33009-551d-4292-9d86-a5d265deb4e8","ios":"levelo://app?vid=3fe33009-551d-4292-9d86-a5d265deb4e8"},"vehicle_type_id":"4","last_reported":1728663067,"current_range_meters":3200,"station_id":"ce4bhhh2rcd13ifvqfl0","pricing_plan_id":"cebpf4jnsgd1na2vs0mg"},{"bike_id":"f0c513fb-cf0d-4c82-8809-1fcba08a7ddf","system_id":"levelo_inurba_marseille","lat":43.22931,"lon":5.35379,"is_reserved":false,"is_disabled":false,"rental_uris":{"android":"levelo://app?vid=f0c513fb-cf0d-4c82-8809-1fcba08a7ddf","ios":"levelo://app?vid=f0c513fb-cf0d-4c82-8809-1fcba08a7ddf"},"vehicle_type_id":"4","last_reported":1728663067,"current_range_meters":16800,"station_id":"cpo3532slgdg3j2ikp40","pricing_plan_id":"cebpf4jnsgd1na2vs0mg"},{"bike_id":"2b18f537-cc39-4153-bf83-259f7294bcad","system_id":"levelo_inurba_marseille","lat":43.319122,"lon":5.408134,"is_reserved":false,"is_disabled":false,"rental_uris":{"android":"levelo://app?vid=2b18f537-cc39-4153-bf83-259f7294bcad","ios":"levelo://app?vid=2b18f537-cc39-4153-bf83-259f7294bcad"},"vehicle_type_id":"4","last_reported":1728663067,"current_range_meters":6000,"station_id":"ce4bhq12rcd13ifvqhig","pricing_plan_id":"cebpf4jnsgd1na2vs0mg"},{"bike_id":"6c840ffd-290c-499b-8735-8baec2266b19","system_id":"levelo_inurba_marseille","lat":43.2466,"lon":5.38152,"is_reserved":false,"is_disabled":false,"rental_uris":{"android":"levelo://app?vid=6c840ffd-290c-499b-8735-8baec2266b19","ios":"levelo://app?vid=6c840ffd-290c-499b-8735-8baec2266b19"},"vehicle_type_id":"4","last_reported":1728663067,"current_range_meters":23200,"station_id":"ce4bhih2rcd13ifvqfr0","pricing_plan_id":"cebpf4jnsgd1na2vs0mg"},{"bike_id":"4c32b245-9f33-48b3-88b9-dd81238f6c48","system_id":"levelo_inurba_marseille","lat":43.31759,"lon":5.39021,"is_reserved":false,"is_disabled":false,"rental_uris":{"android":"levelo://app?vid=4c32b245-9f33-48b3-88b9-dd81238f6c48","ios":"levelo://app?vid=4c32b245-9f33-48b3-88b9-dd81238f6c48"},"vehicle_type_id":"4","last_reported":1728663067,"current_range_meters":30800,"station_id":"ce4bhqp2rcd13ifvqhng","pricing_plan_id":"cebpf4jnsgd1na2vs0mg"},{"bike_id":"e8fbc044-56b0-4a32-8cf2-bf123cb90e9b","system_id":"levelo_inurba_marseille","lat":43.24544,"lon":5.39524,"is_reserved":false,"is_disabled":false,"rental_uris":{"android":"levelo://app?vid=e8fbc044-56b0-4a32-8cf2-bf123cb90e9b","ios":"levelo://app?vid=e8fbc044-56b0-4a32-8cf2-bf123cb90e9b"},"vehicle_type_id":"4","last_reported":1728663067,"current_range_meters":6800,"station_id":"ce4bhlp2rcd13ifvqgjg","pricing_plan_id":"cebpf4jnsgd1na2vs0mg"},{"bike_id":"abdab906-f4b0-48f5-b99b-e59316b82e2e","system_id":"levelo_inurba_marseille","lat":43.29857,"lon":5.41337,"is_reserved":false,"is_disabled":false,"rental_uris":{"android":"levelo://app?vid=abdab906-f4b0-48f5-b99b-e59316b82e2e","ios":"levelo://app?vid=abdab906-f4b0-48f5-b99b-e59316b82e2e"},"vehicle_type_id":"4","last_reported":1728663067,"current_range_meters":19200,"station_id":"","pricing_plan_id":"cebpf4jnsgd1na2vs0mg"},{"bike_id":"f2aed75c-b571-4a98-80aa-d52b9dc28daf","system_id":"levelo_inurba_marseille","lat":43.23056,"lon":5.35493,"is_reserved":false,"is_disabled":false,"rental_uris":{"android":"levelo://app?vid=f2aed75c-b571-4a98-80aa-d52b9dc28daf","ios":"levelo://app?vid=f2aed75c-b571-4a98-80aa-d52b9dc28daf"},"vehicle_type_id":"4","last_reported":1728663067,"current_range_meters":17600,"station_id":"cpo3342slgdg3j2ifvpg","pricing_plan_id":"cebpf4jnsgd1na2vs0mg"},{"bike_id":"1b027e3b-7890-4897-9d24-623806d37013","system_id":"levelo_inurba_marseille","lat":43.32284,"lon":5.38279,"is_reserved":false,"is_disabled":false,"rental_uris":{"android":"levelo://app?vid=1b027e3b-7890-4897-9d24-623806d37013","ios":"levelo://app?vid=1b027e3b-7890-4897-9d24-623806d37013"},"vehicle_type_id":"4","last_reported":1728663067,"current_range_meters":36000,"station_id":"ce4bhr12rcd13ifvqhqg","pricing_plan_id":"cebpf4jnsgd1na2vs0mg"},