{"last_updated":1743613703,"ttl":60,"version":"2.2","data":{"bikes":[{"bike_id":"18da067a-1f5a-44b1-8563-c31002c0f4f5","system_id":"levelo_inurba_marseille","lat":43.30592,"lon":5.39344,"is_reserved":false,"is_disabled":false,"rental_uris":{"android":"levelo://app?vid=18da067a-1f5a-44b1-8563-c31002c0f4f5","ios":"levelo://app?vid=18da067a-1f5a-44b1-8563-c31002c0f4f5"},"vehicle_type_id":"4","last_reported":1743613703,"current_range_meters":2800,"station_id":"ce4bh0p2rcd13ifvqd80","pricing_plan_id":"cebpf4jnsgd1na2vs0mg"},{"bike_id":"41edfa05-f109-4443-9d85-9a9c07d3e1a5","system_id":"levelo_inurba_marseille","lat":43.29254,"lon":5.37618,"is_reserved":false,"is_disabled":false,"rental_uris":{"android":"levelo://app?vid=41edfa05-f109-4443-9d85-9a9c07d3e1a5","ios":"levelo://app?vid=41edfa05-f109-4443-9d85-9a9c07d3e1a5"},"vehicle_type_id":"4","last_reported":1743613703,"current_range_meters":2800,"station_id":"ce4bgi12rcd13ifvqb80","pricing_plan_id":"cebpf4jnsgd1na2vs0mg"},{"bike_id":"595b00c2-bb50-4520-bb54-d8c783e49ee0","system_id":"levelo_inurba_marseille","lat":43.29519,"lon":5.37501,"is_reserved":false,"is_disabled":false,"rental_uris":{"android":"levelo://app?vid=595b00c2-bb50-4520-bb54-d8c783e49ee0","ios":"levelo://app?vid=595b00c2-bb50-4520-bb54-d8c783e49ee0"},"vehicle_type_id":"4","last_reported":1743613703,"current_range_meters":2800,"station_id":"ce4bgkp2rcd13ifvqbmg","pricing_plan_id":"cebpf4jnsgd1na2vs0mg"},{"bike_id":"d662608d-504d-43ae-8d4a-6ba237d6c000","system_id":"levelo_inurba_marseille","lat":43.27855,"lon":5.38497,"is_reserved":false,"is_disabled":false,"rental_uris":{"android":"levelo://app?vid=d662608d-504d-43ae-8d4a-6ba237d6c000","ios":"levelo://app?vid=d662608d-504d-43ae-8d4a-6ba237d6c000"},"vehicle_type_id":"4","last_reported":1743613703,"current_range_meters":2800,"station_id":"","pricing_plan_id":"cebpf4jnsgd1na2vs0mg"},{"bike_id":"55e245e8-f095-41af-8129-4d9a2a20d850","system_id":"levelo_inurba_marseille","lat":43.283728,"lon":5.386302,"is_reserved":false,"is_disabled":false,"rental_uris":{"android":"levelo://app?vid=55e245e8-f095-41af-8129-4d9a2a20d850","ios":"levelo://app?vid=55e245e8-f095-41af-8129-4d9a2a20d850"},"vehicle_type_id":"4","last_reported":1743613703,"current_range_meters":3200,"station_id":"ce4bh492rcd13ifvqdvg","pricing_plan_id":"cebpf4jnsgd1na2vs0mg"},{"bike_id":"a985c005-ec11-4024-a10c-f057366826e5","system_id":"levelo_inurba_marseille","lat":43.27604,"lon":5.38989,"is_reserved":false,"is_disabled":false,"rental_uris":{"android":"levelo://app?vid=a985c005-ec11-4024-a10c-f057366826e5","ios":"levelo://app?vid=a985c005-ec11-4024-a10c-f057366826e5"},"vehicle_type_id":"4","last_reported":1743613703,"current_range_meters":3200,"station_id":"","pricing_plan_id":"cebpf4jnsgd1na2vs0mg"},{"bike_id":"5e6c3a84-834c-4d83-a2d3-580b827057a1","system_id":"levelo_inurba_marseille","lat":43.2318,"lon":5.43709,"is_reserved":false,"is_disabled":false,"rental_uris":{"android":"levelo://app?vid=5e6c3a84-834c-4d83-a2d3-580b827057a1","ios":"levelo://app?vid=5e6c3a84-834c-4d83-a2d3-580b827057a1"},"vehicle_type_id":"4","last_reported":1743613703,"current_range_meters":3200,"station_id":"ce4bhmp2rcd13ifvqgog","pricing_plan_id":"cebpf4jnsgd1na2vs0mg"},{"bike_id":"45baae8f-b202-455c-8ce2-457722e79e8c","system_id":"levelo_inurba_marseille","lat":43.27204,"lon":5.40976,"is_reserved":false,"is_disabled":false,"rental_uris":{"android":"levelo://app?vid=45baae8f-b202-455c-8ce2-457722e79e8c","ios":"levelo://app?vid=45baae8f-b202-455c-8ce2-457722e79e8c"},"vehicle_type_id":"4","last_reported":1743613703,"current_range_meters":3200,"station_id":"ce4bhl12rcd13ifvqgf0","pricing_plan_id":"cebpf4jnsgd1na2vs0mg"},{"bike_id":"2c1b962c-5437-417f-a06d-d90e67a40b65","system_id":"levelo_inurba_marseille","lat":43.31273,"lon":5.40169,"is_reserved":false,"is_disabled":false,"rental_uris":{"android":"levelo://app?vid=2c1b962c-5437-417f-a06d-d90e67a40b65","ios":"levelo://app?vid=2c1b962c-5437-417f-a06d-d90e67a40b65"},"vehicle_type_id":"4","last_reported":1743613703,"current_range_meters":3200,"station_id":"ce4bh092rcd13ifvqd30","pricing_plan_id":"cebpf4jnsgd1na2vs0mg"},{"bike_id":"581d3cad-3fbd-4905-8cc6-3f5beea40b93","system_id":"levelo_inurba_marseille","lat":43.28847,"lon":5.39335,"is_reserved":false,"is_disabled":false,"rental_uris":{"android":"levelo://app?vid=581d3cad-3fbd-4905-8cc6-3f5beea40b93","ios":"levelo://app?vid=581d3cad-3fbd-4905-8cc6-3f5beea40b93"},"vehicle_type_id":"4","last_reported":1743613703,"current_range_meters":4000,"station_id":"ce4bh2p2rcd13ifvqdi0","pricing_plan_id":"cebpf4jnsgd1na2vs0mg"},{"bike_id":"2cf3465c-acd1-4260-864c-b31bf02d1c80","system_id":"levelo_inurba_marseille","lat":43.27186,"lon":5.41,"is_reserved":false,"is_disabled":false,"rental_uris":{"android":"levelo://app?vid=2cf3465c-acd1-4260-864c-b31bf02d1c80","ios":"levelo://app?vid=2cf3465c-acd1-4260-864c-b31bf02d1c80"},"vehicle_type_id":"4","last_reported":1743613703,"current_range_meters":3600,"station_id":"ce4bhl12rcd13ifvqgf0","pricing_plan_id":"cebpf4jnsgd1na2vs0mg"},{"bike_id":"8e1ebb49-b508-4d45-b659-3546600f7a2c","system_id":"levelo_inurba_marseille","lat":43.26817,"lon":5.40215,"is_reserved":false,"is_disabled":false,"rental_uris":{"android":"levelo://app?vid=8e1ebb49-b508-4d45-b659-3546600f7a2c","ios":"levelo://app?vid=8e1ebb49-b508-4d45-b659-3546600f7a2c"},"vehicle_type_id":"4","last_reported":1743613703,"current_range_meters":3600,"station_id":"ce501612rcd8frsf0b60","pricing_plan_id":"cebpf4jnsgd1na2vs0mg"},{"bike_id":"26a6be4e-9c71-4305-8866-c10aa7a9595b","system_id":"levelo_inurba_marseille","lat":43.26751,"lon":5.38323,"is_reserved":false,"is_disabled":false,"rental_uris":{"android":"levelo://app?vid=26a6be4e-9c71-4305-8866-c10aa7a9595b","ios":"levelo://app?vid=26a6be4e-9c71-4305-8866-c10aa7a9595b"},"vehicle_type_id":"4","last_reported":1743613703,"current_range_meters":3600,"station_id":"","pricing_plan_id":"cebpf4jnsgd1na2vs0mg"},{"bike_id":"fa7876d0-e5b2-4ce6-9cbc-68f925a4f67e","system_id":"levelo_inurba_marseille","lat":43.28704,"lon":5.37392,"is_reserved":false,"is_disabled":false,"rental_uris":{"android":"levelo://app?vid=fa7876d0-e5b2-4ce6-9cbc-68f925a4f67e","ios":"levelo://app?vid=fa7876d0-e5b2-4ce6-9cbc-68f925a4f67e"},"vehicle_type_id":"4","last_reported":1743613703,"current_range_meters":4000,"station_id":"ce4bh3p2rcd13ifvqdq0","pricing_plan_id":"cebpf4jnsgd1na2vs0mg"},{"bike_id":"cde3a8f4-b016-4cac-8dfa-4e8b634a7faa","system_id":"levelo_inurba_marseille","lat":43.31356,"lon":5.3849,"is_reserved":false,"is_disabled":false,"rental_uris":{"android":"levelo://app?vid=cde3a8f4-b016-4cac-8dfa-4e8b634a7faa","ios":"levelo://app?vid=cde3a8f4-b016-4cac-8dfa-4e8b634a7faa"},"vehicle_type_id":"4","last_reported":1743613703,"current_range_meters":4000,"station_id":"ce4bgt92rcd13ifvqcf0","pricing_plan_id":"cebpf4jnsgd1na2vs0mg"},{"bike_id":"8d5b971e-28a3-40d2-975a-686cbf6dfadd","system_id":"levelo_inurba_marseille","lat":43.29498,"lon":5.423018,"is_reserved":false,"is_disabled":false,"rental_uris":{"android":"levelo://app?vid=8d5b971e-28a3-40d2-975a-686cbf6dfadd","ios":"levelo://app?vid=8d5b971e-28a3-40d2-975a-686cbf6dfadd"},"vehicle_type_id":"4","last_reported":1743613703,"current_range_meters":4000,"station_id":"","pricing_plan_id":"cebpf4jnsgd1na2vs0mg"},{"bike_id":"39fdfb58-0d2f-47d0-b5a9-755343ef659a","system_id":"levelo_inurba_marseille","lat":43.30601,"lon":5.37231,"is_reserved":false,"is_disabled":false,"rental_uris":{"android":"levelo://app?vid=39fdfb58-0d2f-47d0-b5a9-755343ef659a","ios":"levelo://app?vid=39fdfb58-0d2f-47d0-b5a9-755343ef659a"},"vehicle_type_id":"4","last_reported":1743613703,"current_range_meters":3600,"station_id":"ce4bgqh2rcd13ifvqc4g","pricing_plan_id":"cebpf4jnsgd1na2vs0mg"},{"bike_id":"cfe6d173-476a-4db5-94f2-713dde6981df","system_id":"levelo_inurba_marseille","lat":43.31541,"lon":5.38058,"is_reserved":false,"is_disabled":false,"rental_uris":{"android":"levelo://app?vid=cfe6d173-476a-4db5-94f2-713dde6981df","ios":"levelo://app?vid=cfe6d173-476a-4db5-94f2-713dde6981df"},"vehicle_type_id":"4","last_reported":1743613703,"current_range_meters":4000,"station_id":"ce4bhsp2rcd13ifvqi50","pricing_plan_id":"cebpf4jnsgd1na2vs0mg"},{"bike_id":"c6fd8b02-8246-4371-9113-d81814ee4ff2","system_id":"levelo_inurba_marseille","lat":43.26195,"lon":5.37446,"is_reserved":false,"is_disabled":true,"rental_uris":{"android":"levelo://app?vid=c6fd8b02-8246-4371-9113-d81814ee4ff2","ios":"levelo://app?vid=c6fd8b02-8246-4371-9113-d81814ee4ff2"},"vehicle_type_id":"4","last_reported":1743613703,"current_range_meters":4000,"station_id":"ce4bhgp2rcd13ifvqfc0","pricing_plan_id":"cebpf4jnsgd1na2vs0mg"},{"bike_id":"6293244a-a5ac-4bd3-abcc-130806d24645","system_id":"levelo_inurba_marseille","lat":43.26212,"lon":5.37441,"is_reserved":false,"is_disabled":false,"rental_uris":{"android":"levelo://app?vid=6293244a-a5ac-4bd3-abcc-130806d24645","ios":"levelo://app?vid=6293244a-a5ac-4bd3-abcc-130806d24645"},"vehicle_type_id":"4","last_reported":1743613703,"current_range_meters":4000,"station_id":"ce4bhgp2rcd13ifvqfc0","pricing_plan_id":"cebpf4jnsgd1na2vs0mg"},{"bike_id":"d84a751b-edb6-42e5-932c-2bba4c1eb347","system_id":"levelo_inurba_marseille","lat":43.30535,"lon":5.36553,"is_reserved":false,"is_disabled":false,"rental_uris":{"android":"levelo://app?vid=d84a751b-edb6-42e5-932c-2bba4c1eb347","ios":"levelo://app?vid=d84a751b-edb6-42e5-932c-2bba4c1eb347"},"vehicle_type_id":"4","last_reported":1743613703,"current_range_meters":4000,"station_id":"ce4bgs12rcd13ifvqcag","pricing_plan_id":"cebpf4jnsgd1na2vs0mg"},{"bike_id":"d10bd936-2fca-4607-82d0-6e154162cbfd","system_id":"levelo_inurba_marseille","lat":43.30888,"lon":5.39643,"is_reserved":false,"is_disabled":true,"rental_uris":{"android":"levelo://app?vid=d10bd936-2fca-4607-82d0-6e154162cbfd","ios":"levelo://app?vid=d10bd936-2fca-4607-82d0-6e154162cbfd"},"vehicle_type_id":"4","last_reported":1743613703,"current_range_meters":4400,"station_id":"ce4bh012rcd13ifvqcv0","pricing_plan_id":"cebpf4jnsgd1na2vs0mg"},{"bike_id":"d6a870ec-2377-4083-8ff6-09d3ac7a9363","system_id":"levelo_inurba_marseille","lat":43.28375,"lon":5.38628,"is_reserved":false,"is_disabled":false,"rental_uris":{"android":"levelo://app?vid=d6a870ec-2377-4083-8ff6-09d3ac7a9363","ios":"levelo://app?vid=d6a870ec-2377-4083-8ff6-09d3ac7a9363"},"vehicle_type_id":"4","last_reported":1743613703,"current_range_meters":4400,"station_id":"ce4bh492rcd13ifvqdvg","pricing_plan_id":"cebpf4jnsgd1na2vs0mg"},{"bike_id":"7549bd43-15b2-4001-a4c7-d590c7fffdef","system_id":"levelo_inurba_marseille","lat":43.321126,"lon":5.367728,"is_reserved":false,"is_disabled":false,"rental_uris":{"android":"levelo://app?vid=7549bd43-15b2-4001-a4c7-d590c7fffdef","ios":"levelo://app?vid=7549bd43-15b2-4001-a4c7-d590c7fffdef"},"vehicle_type_id":"4","last_reported":1743613703,"current_range_meters":4800,"station_id":"ce4bhrh2rcd13ifvqhug","pricing_plan_id":"cebpf4jnsgd1na2vs0mg"},{"bike_id":"513d6de6-278f-4528-bde4-dd96dcb77e11","system_id":"levelo_inurba_marseille","lat":43.25579,"lon":5.38224,"is_reserved":false,"is_disabled":false,"rental_uris":{"android":"levelo://app?vid=513d6de6-278f-4528-bde4-dd96dcb77e11","ios":"levelo://app?vid=513d6de6-278f-4528-bde4-dd96dcb77e11"},"vehicle_type_id":"4","last_reported":1743613703,"current_range_meters":4400,"station_id":"ce4bhih2rcd13ifvqfs0","pricing_plan_id":"cebpf4jnsgd1na2vs0mg"},{"bike_id":"aa4ed62e-4b67-4e07-a763-9a924c03da5a","system_id":"levelo_inurba_marseille","lat":43.29261,"lon":5.37628,"is_reserved":false,"is_disabled":false,"rental_uris":{"android":"levelo://app?vid=aa4ed62e-4b67-4e07-a763-9a924c03da5a","ios":"levelo://app?vid=aa4ed62e-4b67-4e07-a763-9a924c03da5a"},"vehicle_type_id":"4","last_reported":1743613703,"current_range_meters":4800,"station_id":"ce4bgi12rcd13ifvqb80","pricing_plan_id":"cebpf4jnsgd1na2vs0mg"},{"bike_id":"21055b09-befc-411a-8fb3-909ff3322786","system_id":"levelo_inurba_marseille","lat":43.257193,"lon":5.411118,"is_reserved":false,"is_disabled":true,"rental_uris":{"android":"levelo://app?vid=21055b09-befc-411a-8fb3-909ff3322786","ios":"levelo://app?vid=21055b09-befc-411a-8fb3-909ff3322786"},"vehicle_type_id":"4","last_reported":1743613703,"current_range_meters":4800,"station_id":"ce4bho12rcd13ifvqh1g","pricing_plan_id":"cebpf4jnsgd1na2vs0mg"},{"bike_id":"1167d76f-0701-42ca-9566-e6b8288b4501","system_id":"levelo_inurba_marseille","lat":43.28283,"lon":5.37883,"is_reserved":false,"is_disabled":false,"rental_uris":{"android":"levelo://app?vid=1167d76f-0701-42ca-9566-e6b8288b4501","ios":"levelo://app?vid=1167d76f-0701-42ca-9566-e6b8288b4501"},"vehicle_type_id":"4","last_reported":1743613703,"current_range_meters":4800,"station_id":"","pricing_plan_id":"cebpf4jnsgd1na2vs0mg"},{"bike_id":"e07f4f3f-1987-48e8-897e-a96711bfb035","system_id":"levelo_inurba_marseille","lat":43.27177,"lon":5.41,"is_reserved":false,"is_disabled":false,"rental_uris":{"android":"levelo://app?vid=e07f4f3f-1987-48e8-897e-a96711bfb035","ios":"levelo://app?vid=e07f4f3f-1987-48e8-897e-a96711bfb035"},"vehicle_type_id":"4","last_reported":1743613703,"current_range_meters":4800,"station_id":"ce4bhl12rcd13ifvqgf0","pricing_plan_id":"cebpf4jnsgd1na2vs0mg"},{"bike_id":"718de5db-e0ea-42e2-af01-d5e9f6c817a2","system_id":"levelo_inurba_marseille","lat":43.29896,"lon":5.43652,"is_reserved":false,"is_disabled":false,"rental_uris":{"android":"levelo://app?vid=718de5db-e0ea-42e2-af01-d5e9f6c817a2","ios":"levelo://app?vid=718de5db-e0ea-42e2-af01-d5e9f6c817a2"},"vehicle_type_id":"4","last_reported":1743613703,"current_range_meters":4800,"station_id":"ce4bhpp2rcd13ifvqhfg","pricing_plan_id":"cebpf4jnsgd1na2vs0mg"},{"bike_id":"dbc8d08e-68f7-4190-bb53-ac451439f37a","system_id":"levelo_inurba_marseille","lat":43.33027,"lon":5.39042,"is_reserved":false,"is_disabled":false,"rental_uris":{"android":"levelo://app?vid=dbc8d08e-68f7-4190-bb53-ac451439f37a","ios":"levelo://app?vid=dbc8d08e-68f7-4190-bb53-ac451439f37a"},"vehicle_type_id":"4","last_reported":1743613703,"current_range_meters":4800,"station_id":"ce4bhr92rcd13ifvqhrg","pricing_plan_id":"cebpf4jnsgd1na2vs0mg"},{"bike_id":"ebaa89eb-9cf3-4ffa-91a5-8e3eb8931bec","system_id":"levelo_inurba_marseille","lat":43.2468,"lon":5.38157,"is_reserved":false,"is_disabled":true,"rental_uris":{"android":"levelo://app?vid=ebaa89eb-9cf3-4ffa-91a5-8e3eb8931bec","ios":"levelo://app?vid=ebaa89eb-9cf3-4ffa-91a5-8e3eb8931bec"},"vehicle_type_id":"4","last_reported":1743613703,"current_range_meters":4800,"station_id":"ce4bhih2rcd13ifvqfr0","pricing_plan_id":"cebpf4jnsgd1na2vs0mg"},{"bike_id":"61af4e77-7db8-4258-bc74-255245b4d054","system_id":"levelo_inurba_marseille","lat":43.29423,"lon":5.38613,"is_reserved":false,"is_disabled":false,"rental_uris":{"android":"levelo://app?vid=61af4e77-7db8-4258-bc74-255245b4d054","ios":"levelo://app?vid=61af4e77-7db8-4258-bc74-255245b4d054"},"vehicle_type_id":"4","last_reported":1743613703,"current_range_meters":4800,"station_id":"ce4bh2h2rcd13ifvqdh0","pricing_plan_id":"cebpf4jnsgd1na2vs0mg"},{"bike_id":"c6c438e8-d3ab-4770-968b-7a1a93e8a8c6","system_id":"levelo_inurba_marseille","lat":43.28903,"lon":5.45877,"is_reserved":false,"is_disabled":false,"rental_uris":{"android":"levelo://app?vid=c6c438e8-d3ab-4770-968b-7a1a93e8a8c6","ios":"levelo://app?vid=c6c438e8-d3ab-4770-968b-7a1a93e8a8c6"},"vehicle_type_id":"4","last_reported":1743613703,"current_range_meters":5600,"station_id":"","pricing_plan_id":"cebpf4jnsgd1na2vs0mg"},{"bike_id":"a4c9ec7f-c1e0-490d-b666-9d21d7d30b6f","system_id":"levelo_inurba_marseille","lat":43.24807,"lon":5.37457,"is_reserved":false,"is_disabled":false,"rental_uris":{"android":"levelo://app?vid=a4c9ec7f-c1e0-490d-b666-9d21d7d30b6f","ios":"levelo://app?vid=a4c9ec7f-c1e0-490d-b666-9d21d7d30b6f"},"vehicle_type_id":"4","last_reported":1743613703,"current_range_meters":5600,"station_id":"ce4bhgh2rcd13ifvqfb0","pricing_plan_id":"cebpf4jnsgd1na2vs0mg"},{"bike_id":"92d93b1f-173b-4849-ba23-8cd8f7baea4b","system_id":"levelo_inurba_marseille","lat":43.30913,"lon":5.36854,"is_reserved":false,"is_disabled":false,"rental_uris":{"android":"levelo://app?vid=92d93b1f-173b-4849-ba23-8cd8f7baea4b","ios":"levelo://app?vid=92d93b1f-173b-4849-ba23-8cd8f7baea4b"},"vehicle_type_id":"4","last_reported":1743613703,"current_range_meters":5600,"station_id":"ce4bgn92rcd13ifvqbvg","pricing_plan_id":"cebpf4jnsgd1na2vs0mg"},{"bike_id":"4f1c00e5-a79d-4f0b-ab4e-3bd2b06e7d2e","system_id":"levelo_inurba_marseille","lat":43.2306,"lon":5.35489,"is_reserved":false,"is_disabled":false,"rental_uris":{"android":"levelo://app?vid=4f1c00e5-a79d-4f0b-ab4e-3bd2b06e7d2e","ios":"levelo://app?vid=4f1c00e5-a79d-4f0b-ab4e-3bd2b06e7d2e"},"vehicle_type_id":"4","last_reported":1743613703,"current_range_meters":5600,"station_id":"cpo3342slgdg3j2ifvpg","pricing_plan_id":"cebpf4jnsgd1na2vs0mg"},{"bike_id":"e84bef4c-cced-4cd0-b180-0053717ac75e","system_id":"levelo_inurba_marseille","lat":43.287125,"lon":5.399941,"is_reserved":false,"is_disabled":true,"rental_uris":{"android":"levelo://app?vid=e84bef4c-cced-4cd0-b180-0053717ac75e","ios":"levelo://app?vid=e84bef4c-cced-4cd0-b180-0053717ac75e"},"vehicle_type_id":"4","last_reported":1743613703,"current_range_meters":5600,"station_id":"ce4bho92rcd13ifvqh3g","pricing_plan_id":"cebpf4jnsgd1na2vs0mg"},{"bike_id":"16344a5d-f61e-4cab-812f-3c5ab6f57d45","system_id":"levelo_inurba_marseille","lat":43.24178,"lon":5.39725,"is_reserved":false,"is_disabled":false,"rental_uris":{"android":"levelo://app?vid=16344a5d-f61e-4cab-812f-3c5ab6f57d45","ios":"levelo://app?vid=16344a5d-f61e-4cab-812f-3c5ab6f57d45"},"vehicle_type_id":"4","last_reported":1743613703,"current_range_meters":6000,"station_id":"ce4bhn12rcd13ifvqgpg","pricing_plan_id":"cebpf4jnsgd1na2vs0mg"},{"bike_id":"589edfcb-8102-45e3-aa9f-38551b1ec7d4","system_id":"levelo_inurba_marseille","lat":43.27379,"lon":5.36255,"is_reserved":false,"is_disabled":false,"rental_uris":{"android":"levelo://app?vid=589edfcb-8102-45e3-aa9f-38551b1ec7d4","ios":"levelo://app?vid=589edfcb-8102-45e3-aa9f-38551b1ec7d4"},"vehicle_type_id":"4","last_reported":1743613703,"current_range_meters":6000,"station_id":"ce4bhbh2rcd13ifvqeo0","pricing_plan_id":"cebpf4jnsgd1na2vs0mg"},{"bike_id":"ec3b08fc-ea84-4eb9-a695-3b11912fae96","system_id":"levelo_inurba_marseille","lat":43.29502,"lon":5.3902,"is_reserved":false,"is_disabled":false,"rental_uris":{"android":"levelo://app?vid=ec3b08fc-ea84-4eb9-a695-3b11912fae96","ios":"levelo://app?vid=ec3b08fc-ea84-4eb9-a695-3b11912fae96"},"vehicle_type_id":"4","last_reported":1743613703,"current_range_meters":6000,"station_id":"ce4bh3p2rcd13ifvqdp0","pricing_plan_id":"cebpf4jnsgd1na2vs0mg"},{"bike_id":"665d1102-92b9-4c0c-ae54-18fca8c97c17","system_id":"levelo_inurba_marseille","lat":43.26781,"lon":5.39417,"is_reserved":false,"is_disabled":false,"rental_uris":{"android":"levelo://app?vid=665d1102-92b9-4c0c-ae54-18fca8c97c17","ios":"levelo://app?vid=665d1102-92b9-4c0c-ae54-18fca8c97c17"},"vehicle_type_id":"4","last_reported":1743613703,"current_range_meters":6400,"station_id":"ce4bhh12rcd13ifvqfg0","pricing_plan_id":"cebpf4jnsgd1na2vs0mg"},{"bike_id":"522f7707-7a77-42b3-878c-4d6c0c91f978","system_id":"levelo_inurba_marseille","lat":43.27828,"lon":5.39215,"is_reserved":false,"is_disabled":false,"rental_uris":{"android":"levelo://app?vid=522f7707-7a77-42b3-878c-4d6c0c91f978","ios":"levelo://app?vid=522f7707-7a77-42b3-878c-4d6c0c91f978"},"vehicle_type_id":"4","last_reported":1743613703,"current_range_meters":6000,"station_id":"ce4bhjp2rcd13ifvqga0","pricing_plan_id":"cebpf4jnsgd1na2vs0mg"},{"bike_id":"c1eb2e01-0cbf-43d3-a647-dd370e97826c","system_id":"levelo_inurba_marseille","lat":43.29189,"lon":5.35805,"is_reserved":false,"is_disabled":false,"rental_uris":{"android":"levelo://app?vid=c1eb2e01-0cbf-43d3-a647-dd370e97826c","ios":"levelo://app?vid=c1eb2e01-0cbf-43d3-a647-dd370e97826c"},"vehicle_type_id":"4","last_reported":1743613703,"current_range_meters":6000,"station_id":"ce4bhb12rcd13ifvqel0","pricing_plan_id":"cebpf4jnsgd1na2vs0mg"},{"bike_id":"a9ca026e-e800-4595-9e70-74689b4d128a","system_id":"levelo_inurba_marseille","lat":43.29257,"lon":5.409,"is_reserved":false,"is_disabled":false,"rental_uris":{"android":"levelo://app?vid=a9ca026e-e800-4595-9e70-74689b4d128a","ios":"levelo://app?vid=a9ca026e-e800-4595-9e70-74689b4d128a"},"vehicle_type_id":"4","last_reported":1743613703,"current_range_meters":6000,"station_id":"ce4bh192rcd13ifvqdc0","pricing_plan_id":"cebpf4jnsgd1na2vs0mg"},{"bike_id":"66a6759f-f104-404f-ba35-7dd5d87e6d0b","system_id":"levelo_inurba_marseille","lat":43.30155,"lon":5.37677,"is_reserved":false,"is_disabled":false,"rental_uris":{"android":"levelo://app?vid=66a6759f-f104-404f-ba35-7dd5d87e6d0b","ios":"levelo://app?vid=66a6759f-f104-404f-ba35-7dd5d87e6d0b"},"vehicle_type_id":"4","last_reported":1743613703,"current_range_meters":6000,"station_id":"","pricing_plan_id":"cebpf4jnsgd1na2vs0mg"},{"bike_id":"a1c3ea93-7522-4d72-9673-fc0cc8ef9000","system_id":"levelo_inurba_marseille","lat":43.30251,"lon":5.40078,"is_reserved":false,"is_disabled":false,"rental_uris":{"android":"levelo://app?vid=a1c3ea93-7522-4d72-9673-fc0cc8ef9000","ios":"levelo://app?vid=a1c3ea93-7522-4d72-9673-fc0cc8ef9000"},"vehicle_type_id":"4","last_reported":1743613703,"current_range_meters":6400,"station_id":"ce4bgvh2rcd13ifvqcs0","pricing_plan_id":"cebpf4jnsgd1na2vs0mg"},{"bike_id":"5ef6b633-cf2f-42de-995a-43dea0a55a29","system_id":"levelo_inurba_marseille","lat":43.32105,"lon":5.36829,"is_reserved":false,"is_disabled":false,"rental_uris":{"android":"levelo://app?vid=5ef6b633-cf2f-42de-995a-43dea0a55a29","ios":"levelo://app?vid=5ef6b633-cf2f-42de-995a-43dea0a55a29"},"vehicle_type_id":"4","last_reported":1743613703,"current_range_meters":6400,"station_id":"ce4bhrh2rcd13ifvqhug","pricing_plan_id":"cebpf4jnsgd1na2vs0mg"},{"bike_id":"cdd0e969-0fc5-4db0-aadf-0bad5c825ca9","system_id":"levelo_inurba_marseille","lat":43.29601,"lon":5.380977,"is_reserved":false,"is_disabled":false,"rental_uris":{"android":"levelo://app?vid=cdd0e969-0fc5-4db0-aadf-0bad5c825ca9","ios":"levelo://app?vid=cdd0e969-0fc5-4db0-aadf-0bad5c825ca9"},"vehicle_type_id":"4","last_reported":1743613703,"current_range_meters":6400,"station_id":"ce4bgl12rcd13ifvqbo0","pricing_plan_id":"cebpf4jnsgd1na2vs0mg"},{"bike_id":"ffb60d58-403e-49dc-ae69-cc03c3bbe080","system_id":"levelo_inurba_marseille","lat":43.30303,"lon":5.39207,"is_reserved":false,"is_disabled":false,"rental_uris":{"android":"levelo://app?vid=ffb60d58-403e-49dc-ae69-cc03c3bbe080","ios":"levelo://app?vid=ffb60d58-403e-49dc-ae69-cc03c3bbe080"},"vehicle_type_id":"4","last_reported":1743613703,"current_range_meters":6400,"station_id":"ce4bgkh2rcd13ifvqbk0","pricing_plan_id":"cebpf4jnsgd1na2vs0mg"},{"bike_id":"fdd74cea-2420-4f5e-97f2-a48b67190c4e","system_id":"levelo_inurba_marseille","lat":43.337444,"lon":5.374475,"is_reserved":false,"is_disabled":false,"rental_uris":{"android":"levelo://app?vid=fdd74cea-2420-4f5e-97f2-a48b67190c4e","ios":"levelo://app?vid=fdd74cea-2420-4f5e-97f2-a48b67190c4e"},"vehicle_type_id":"4","last_reported":1743613703,"current_range_meters":6400,"station_id":"","pricing_plan_id":"cebpf4jnsgd1na2vs0mg"},{"bike_id":"4d2ba230-ca46-4c59-b6f4-ec3c25652b9a","system_id":"levelo_inurba_marseille","lat":43.2925,"lon":5.409,"is_reserved":false,"is_disabled":false,"rental_uris":{"android":"levelo://app?vid=4d2ba230-ca46-4c59-b6f4-ec3c25652b9a","ios":"levelo://app?vid=4d2ba230-ca46-4c59-b6f4-ec3c25652b9a"},"vehicle_type_id":"4","last_reported":1743613703,"current_range_meters":6400,"station_id":"ce4bh192rcd13ifvqdc0","pricing_plan_id":"cebpf4jnsgd1na2vs0mg"},{"bike_id":"12f59c4d-118b-4ac0-af8d-32aadc21e2bf","system_id":"levelo_inurba_marseille","lat":43.26582,"lon":5.39051,"is_reserved":false,"is_disabled":false,"rental_uris":{"android":"levelo://app?vid=12f59c4d-118b-4ac0-af8d-32aadc21e2bf","ios":"levelo://app?vid=12f59c4d-118b-4ac0-af8d-32aadc21e2bf"},"vehicle_type_id":"4","last_reported":1743613703,"current_range_meters":6400,"station_id":"ce4bhe12rcd13ifvqf30","pricing_plan_id":"cebpf4jnsgd1na2vs0mg"},{"bike_id":"6822cee0-5ac6-4071-84e5-e4e600ad34a4","system_id":"levelo_inurba_marseille","lat":43.281126,"lon":5.378583,"is_reserved":false,"is_disabled":false,"rental_uris":{"android":"levelo://app?vid=6822cee0-5ac6-4071-84e5-e4e600ad34a4","ios":"levelo://app?vid=6822cee0-5ac6-4071-84e5-e4e600ad34a4"},"vehicle_type_id":"4","last_reported":1743613703,"current_range_meters":6400,"station_id":"ce4bha12rcd13ifvqee0","pricing_plan_id":"cebpf4jnsgd1na2vs0mg"},{"bike_id":"3ccded48-7a8d-48f4-ac06-05f0ab89b86a","system_id":"levelo_inurba_marseille","lat":43.28376,"lon":5.38639,"is_reserved":false,"is_disabled":false,"rental_uris":{"android":"levelo://app?vid=3ccded48-7a8d-48f4-ac06-05f0ab89b86a","ios":"levelo://app?vid=3ccded48-7a8d-48f4-ac06-05f0ab89b86a"},"vehicle_type_id":"4","last_reported":1743613703,"current_range_meters":6400,"station_id":"ce4bh492rcd13ifvqdvg","pricing_plan_id":"cebpf4jnsgd1na2vs0mg"},{"bike_id":"e47bc61d-df2d-41b3-b26b-dd94e6e5e301","system_id":"levelo_inurba_marseille","lat":43.26241,"lon":5.42152,"is_reserved":false,"is_disabled":false,"rental_uris":{"android":"levelo://app?vid=e47bc61d-df2d-41b3-b26b-dd94e6e5e301","ios":"levelo://app?vid=e47bc61d-df2d-41b3-b26b-dd94e6e5e301"},"vehicle_type_id":"4","last_reported":1743613703,"current_range_meters":6400,"station_id":"","pricing_plan_id":"cebpf4jnsgd1na2vs0mg"},{"bike_id":"608b3eb0-6661-4fa8-8b3b-08f483812ee6","system_id":"levelo_inurba_marseille","lat":43.295258,"lon":5.385379,"is_reserved":false,"is_disabled":false,"rental_uris":{"android":"levelo://app?vid=608b3eb0-6661-4fa8-8b3b-08f483812ee6","ios":"levelo://app?vid=608b3eb0-6661-4fa8-8b3b-08f483812ee6"},"vehicle_type_id":"4","last_reported":1743613703,"current_range_meters":6400,"station_id":"ce4bgih2rcd13ifvqba0","pricing_plan_id":"cebpf4jnsgd1na2vs0mg"},{"bike_id":"7bdf0d60-3026-4723-ac07-ebb25b9cf79f","system_id":"levelo_inurba_marseille","lat":43.287959,"lon":5.386755,"is_reserved":false,"is_disabled":false,"rental_uris":{"android":"levelo://app?vid=7bdf0d60-3026-4723-ac07-ebb25b9cf79f","ios":"levelo://app?vid=7bdf0d60-3026-4723-ac07-ebb25b9cf79f"},"vehicle_type_id":"4","last_reported":1743613703,"current_range_meters":6400,"station_id":"","pricing_plan_id":"cebpf4jnsgd1na2vs0mg"},{"bike_id":"30214c7b-651f-4503-af55-5f4c85b5cd00","system_id":"levelo_inurba_marseille","lat":43.26065,"lon":5.39386,"is_reserved":false,"is_disabled":false,"rental_uris":{"android":"levelo://app?vid=30214c7b-651f-4503-af55-5f4c85b5cd00","ios":"levelo://app?vid=30214c7b-651f-4503-af55-5f4c85b5cd00"},"vehicle_type_id":"4","last_reported":1743613703,"current_range_meters":6400,"station_id":"ce4bhh92rcd13ifvqfj0","pricing_plan_id":"cebpf4jnsgd1na2vs0mg"},{"bike_id":"d3b80fdb-d82b-49fb-8540-55c363b9bffd","system_id":"levelo_inurba_marseille","lat":43.27376,"lon":5.36262,"is_reserved":false,"is_disabled":false,"rental_uris":{"android":"levelo://app?vid=d3b80fdb-d82b-49fb-8540-55c363b9bffd","ios":"levelo://app?vid=d3b80fdb-d82b-49fb-8540-55c363b9bffd"},"vehicle_type_id":"4","last_reported":1743613703,"current_range_meters":6400,"station_id":"ce4bhbh2rcd13ifvqeo0","pricing_plan_id":"cebpf4jnsgd1na2vs0mg"},{"bike_id":"e18f031d-d90c-40f1-849e-7ddd897e4c25","system_id":"levelo_inurba_marseille","lat":43.2792,"lon":5.39581,"is_reserved":false,"is_disabled":false,"rental_uris":{"android":"levelo://app?vid=e18f031d-d90c-40f1-849e-7ddd897e4c25","ios":"levelo://app?vid=e18f031d-d90c-40f1-849e-7ddd897e4c25"},"vehicle_type_id":"4","last_reported":1743613703,"current_range_meters":6800,"station_id":"ce4bhf92rcd13ifvqf40","pricing_plan_id":"cebpf4jnsgd1na2vs0mg"},{"bike_id":"3f585ca3-3216-4c0a-afa4-b1dcc2e43138","system_id":"levelo_inurba_marseille","lat":43.30909,"lon":5.36851,"is_reserved":false,"is_disabled":false,"rental_uris":{"android":"levelo://app?vid=3f585ca3-3216-4c0a-afa4-b1dcc2e43138","ios":"levelo://app?vid=3f585ca3-3216-4c0a-afa4-b1dcc2e43138"},"vehicle_type_id":"4","last_reported":1743613703,"current_range_meters":6800,"station_id":"ce4bgn92rcd13ifvqbvg","pricing_plan_id":"cebpf4jnsgd1na2vs0mg"},{"bike_id":"70d6e06e-e3b9-4899-8671-7c58b7fe2fef","system_id":"levelo_inurba_marseille","lat":43.31754,"lon":5.39024,"is_reserved":false,"is_disabled":false,"rental_uris":{"android":"levelo://app?vid=70d6e06e-e3b9-4899-8671-7c58b7fe2fef","ios":"levelo://app?vid=70d6e06e-e3b9-4899-8671-7c58b7fe2fef"},"vehicle_type_id":"4","last_reported":1743613703,"current_range_meters":6400,"station_id":"ce4bhqp2rcd13ifvqhng","pricing_plan_id":"cebpf4jnsgd1na2vs0mg"},{"bike_id":"7c571a4c-0709-42ca-bc81-e09f11babb9f","system_id":"levelo_inurba_marseille","lat":43.30451,"lon":5.39829,"is_reserved":false,"is_disabled":false,"rental_uris":{"android":"levelo://app?vid=7c571a4c-0709-42ca-bc81-e09f11babb9f","ios":"levelo://app?vid=7c571a4c-0709-42ca-bc81-e09f11babb9f"},"vehicle_type_id":"4","last_reported":1743613703,"current_range_meters":6400,"station_id":"ce4bh092rcd13ifvqd20","pricing_plan_id":"cebpf4jnsgd1na2vs0mg"},{"bike_id":"d4a79d36-bcea-44b7-bf75-1ca1bbe236f7","system_id":"levelo_inurba_marseille","lat":43.32334,"lon":5.40629,"is_reserved":false,"is_disabled":false,"rental_uris":{"android":"levelo://app?vid=d4a79d36-bcea-44b7-bf75-1ca1bbe236f7","ios":"levelo://app?vid=d4a79d36-bcea-44b7-bf75-1ca1bbe236f7"},"vehicle_type_id":"4","last_reported":1743613703,"current_range_meters":6800,"station_id":"ce4bhq92rcd13ifvqhjg","pricing_plan_id":"cebpf4jnsgd1na2vs0mg"},{"bike_id":"4ca9fbd1-76bb-40f1-b933-7e6f7a9c364f","system_id":"levelo_inurba_marseille","lat":43.30788,"lon":5.38162,"is_reserved":false,"is_disabled":false,"rental_uris":{"android":"levelo://app?vid=4ca9fbd1-76bb-40f1-b933-7e6f7a9c364f","ios":"levelo://app?vid=4ca9fbd1-76bb-40f1-b933-7e6f7a9c364f"},"vehicle_type_id":"4","last_reported":1743613703,"current_range_meters":6800,"station_id":"ce4bgt12rcd13ifvqce0","pricing_plan_id":"cebpf4jnsgd1na2vs0mg"},{"bike_id":"31dece2b-4e1a-4c7b-9c88-13820d87e441","system_id":"levelo_inurba_marseille","lat":43.29533,"lon":5.38548,"is_reserved":false,"is_disabled":false,"rental_uris":{"android":"levelo://app?vid=31dece2b-4e1a-4c7b-9c88-13820d87e441","ios":"levelo://app?vid=31dece2b-4e1a-4c7b-9c88-13820d87e441"},"vehicle_type_id":"4","last_reported":1743613703,"current_range_meters":6800,"station_id":"ce4bgih2rcd13ifvqba0","pricing_plan_id":"cebpf4jnsgd1na2vs0mg"},{"bike_id":"4f1fb305-fdac-49af-98f8-e5ebaa4429a4","system_id":"levelo_inurba_marseille","lat":43.22934,"lon":5.35394,"is_reserved":false,"is_disabled":false,"rental_uris":{"android":"levelo://app?vid=4f1fb305-fdac-49af-98f8-e5ebaa4429a4","ios":"levelo://app?vid=4f1fb305-fdac-49af-98f8-e5ebaa4429a4"},"vehicle_type_id":"4","last_reported":1743613703,"current_range_meters":6800,"station_id":"cpo3532slgdg3j2ikp40","pricing_plan_id":"cebpf4jnsgd1na2vs0mg"},{"bike_id":"c2dcc987-2284-4278-be43-0e4641d1c67c","system_id":"levelo_inurba_marseille","lat":43.29036,"lon":5.35622,"is_reserved":false,"is_disabled":false,"rental_uris":{"android":"levelo://app?vid=c2dcc987-2284-4278-be43-0e4641d1c67c","ios":"levelo://app?vid=c2dcc987-2284-4278-be43-0e4641d1c67c"},"vehicle_type_id":"4","last_reported":1743613703,"current_range_meters":6800,"station_id":"ce4bhb92rcd13ifvqen0","pricing_plan_id":"cebpf4jnsgd1na2vs0mg"},{"bike_id":"4357bfc9-6900-4f6d-ad31-025c07ef838d","system_id":"levelo_inurba_marseille","lat":43.32541,"lon":5.41423,"is_reserved":false,"is_disabled":false,"rental_uris":{"android":"levelo://app?vid=4357bfc9-6900-4f6d-ad31-025c07ef838d","ios":"levelo://app?vid=4357bfc9-6900-4f6d-ad31-025c07ef838d"},"vehicle_type_id":"4","last_reported":1743613703,"current_range_meters":6800,"station_id":"ce4bhq12rcd13ifvqhhg","pricing_plan_id":"cebpf4jnsgd1na2vs0mg"},{"bike_id":"f06067fe-c409-49ce-b995-b28658dd37fb","system_id":"levelo_inurba_marseille","lat":43.28673,"lon":5.37371,"is_reserved":false,"is_disabled":true,"rental_uris":{"android":"levelo://app?vid=f06067fe-c409-49ce-b995-b28658dd37fb","ios":"levelo://app?vid=f06067fe-c409-49ce-b995-b28658dd37fb"},"vehicle_type_id":"4","last_reported":1743613703,"current_range_meters":7200,"station_id":"ce4bh3p2rcd13ifvqdq0","pricing_plan_id":"cebpf4jnsgd1na2vs0mg"},{"bike_id":"deb926b0-c98f-4967-8f46-b0f0df6efff2","system_id":"levelo_inurba_marseille","lat":43.24181,"lon":5.39722,"is_reserved":false,"is_disabled":false,"rental_uris":{"android":"levelo://app?vid=deb926b0-c98f-4967-8f46-b0f0df6efff2","ios":"levelo://app?vid=deb926b0-c98f-4967-8f46-b0f0df6efff2"},"vehicle_type_id":"4","last_reported":1743613703,"current_range_meters":7200,"station_id":"ce4bhn12rcd13ifvqgpg","pricing_plan_id":"cebpf4jnsgd1na2vs0mg"},{"bike_id":"27ec56d0-4cd6-4da7-9d94-2fa9cdf8224a","system_id":"levelo_inurba_marseille","lat":43.28363,"lon":5.38631,"is_reserved":false,"is_disabled":false,"rental_uris":{"android":"levelo://app?vid=27ec56d0-4cd6-4da7-9d94-2fa9cdf8224a","ios":"levelo://app?vid=27ec56d0-4cd6-4da7-9d94-2fa9cdf8224a"},"vehicle_type_id":"4","last_reported":1743613703,"current_range_meters":7200,"station_id":"ce4bh492rcd13ifvqdvg","pricing_plan_id":"cebpf4jnsgd1na2vs0mg"},{"bike_id":"567d8d4c-b869-4c98-af32-6a5a8fc84306","system_id":"levelo_inurba_marseille","lat":43.29025,"lon":5.38648,"is_reserved":false,"is_disabled":false,"rental_uris":{"android":"levelo://app?vid=567d8d4c-b869-4c98-af32-6a5a8fc84306","ios":"levelo://app?vid=567d8d4c-b869-4c98-af32-6a5a8fc84306"},"vehicle_type_id":"4","last_reported":1743613703,"current_range_meters":6800,"station_id":"ce4bh4p2rcd13ifvqe0g","pricing_plan_id":"cebpf4jnsgd1na2vs0mg"},{"bike_id":"44420503-3178-429a-a44d-e05eb7db67ef","system_id":"levelo_inurba_marseille","lat":43.292,"lon":5.39317,"is_reserved":false,"is_disabled":false,"rental_uris":{"android":"levelo://app?vid=44420503-3178-429a-a44d-e05eb7db67ef","ios":"levelo://app?vid=44420503-3178-429a-a44d-e05eb7db67ef"},"vehicle_type_id":"4","last_reported":1743613703,"current_range_meters":6800,"station_id":"ce4bh192rcd13ifvqdd0","pricing_plan_id":"cebpf4jnsgd1na2vs0mg"},{"bike_id":"5c42c75f-2eb9-4a2e-99bc-1f4da727f3d8","system_id":"levelo_inurba_marseille","lat":43.24075,"lon":5.3776,"is_reserved":false,"is_disabled":false,"rental_uris":{"android":"levelo://app?vid=5c42c75f-2eb9-4a2e-99bc-1f4da727f3d8","ios":"levelo://app?vid=5c42c75f-2eb9-4a2e-99bc-1f4da727f3d8"},"vehicle_type_id":"4","last_reported":1743613703,"current_range_meters":7200,"station_id":"ce4bhnp2rcd13ifvqgvg","pricing_plan_id":"cebpf4jnsgd1na2vs0mg"},{"bike_id":"9c6a3dc6-220d-4f60-89c9-f0c0ad18ed74","system_id":"levelo_inurba_marseille","lat":43.29248,"lon":5.38441,"is_reserved":false,"is_disabled":false,"rental_uris":{"android":"levelo://app?vid=9c6a3dc6-220d-4f60-89c9-f0c0ad18ed74","ios":"levelo://app?vid=9c6a3dc6-220d-4f60-89c9-f0c0ad18ed74"},"vehicle_type_id":"4","last_reported":1743613703,"current_range_meters":7200,"station_id":"ce4bh692rcd13ifvqea0","pricing_plan_id":"cebpf4jnsgd1na2vs0mg"},{"bike_id":"4e9f4117-03ab-4662-bf9c-dd5d710c240e","system_id":"levelo_inurba_marseille","lat":43.29193,"lon":5.35803,"is_reserved":false,"is_disabled":false,"rental_uris":{"android":"levelo://app?vid=4e9f4117-03ab-4662-bf9c-dd5d710c240e","ios":"levelo://app?vid=4e9f4117-03ab-4662-bf9c-dd5d710c240e"},"vehicle_type_id":"4","last_reported":1743613703,"current_range_meters":7200,"station_id":"ce4bhb12rcd13ifvqel0","pricing_plan_id":"cebpf4jnsgd1na2vs0mg"},{"bike_id":"06016aba-d17a-43f2-b397-c9dd3666e2f9","system_id":"levelo_inurba_marseille","lat":43.29099,"lon":5.38139,"is_reserved":false,"is_disabled":false,"rental_uris":{"android":"levelo://app?vid=06016aba-d17a-43f2-b397-c9dd3666e2f9","ios":"levelo://app?vid=06016aba-d17a-43f2-b397-c9dd3666e2f9"},"vehicle_type_id":"4","last_reported":1743613703,"current_range_meters":8000,"station_id":"ce4bh512rcd13ifvqe2g","pricing_plan_id":"cebpf4jnsgd1na2vs0mg"},{"bike_id":"6aac89d2-18c2-4358-b965-12be08b60b63","system_id":"levelo_inurba_marseille","lat":43.29291,"lon":5.37171,"is_reserved":false,"is_disabled":true,"rental_uris":{"android":"levelo://app?vid=6aac89d2-18c2-4358-b965-12be08b60b63","ios":"levelo://app?vid=6aac89d2-18c2-4358-b965-12be08b60b63"},"vehicle_type_id":"4","last_reported":1743613703,"current_range_meters":8000,"station_id":"ce4bgh92rcd13ifvqb40","pricing_plan_id":"cebpf4jnsgd1na2vs0mg"},{"bike_id":"e16f5083-76eb-46c8-9376-64ef8b158bd2","system_id":"levelo_inurba_marseille","lat":43.28849,"lon":5.3931,"is_reserved":false,"is_disabled":false,"rental_uris":{"android":"levelo://app?vid=e16f5083-76eb-46c8-9376-64ef8b158bd2","ios":"levelo://app?vid=e16f5083-76eb-46c8-9376-64ef8b158bd2"},"vehicle_type_id":"4","last_reported":1743613703,"current_range_meters":8000,"station_id":"ce4bh2p2rcd13ifvqdi0","pricing_plan_id":"cebpf4jnsgd1na2vs0mg"},{"bike_id":"f8dc6029-025c-47cd-8921-5ce023e19c20","system_id":"levelo_inurba_marseille","lat":43.31992,"lon":5.3816,"is_reserved":false,"is_disabled":false,"rental_uris":{"android":"levelo://app?vid=f8dc6029-025c-47cd-8921-5ce023e19c20","ios":"levelo://app?vid=f8dc6029-025c-47cd-8921-5ce023e19c20"},"vehicle_type_id":"4","last_reported":1743613703,"current_range_meters":8000,"station_id":"ce4bhr12rcd13ifvqhpg","pricing_plan_id":"cebpf4jnsgd1na2vs0mg"},{"bike_id":"1f1218d9-ebac-4975-84ee-2ba3e4d4bcb4","system_id":"levelo_inurba_marseille","lat":43.30871,"lon":5.37825,"is_reserved":false,"is_disabled":false,"rental_uris":{"android":"levelo://app?vid=1f1218d9-ebac-4975-84ee-2ba3e4d4bcb4","ios":"levelo://app?vid=1f1218d9-ebac-4975-84ee-2ba3e4d4bcb4"},"vehicle_type_id":"4","last_reported":1743613703,"current_range_meters":8000,"station_id":"","pricing_plan_id":"cebpf4jnsgd1na2vs0mg"},{"bike_id":"3e5329f3-c0cd-422c-afb1-2f46242590da","system_id":"levelo_inurba_marseille","lat":43.31922,"lon":5.37555,"is_reserved":false,"is_disabled":false,"rental_uris":{"android":"levelo://app?vid=3e5329f3-c0cd-422c-afb1-2f46242590da","ios":"levelo://app?vid=3e5329f3-c0cd-422c-afb1-2f46242590da"},"vehicle_type_id":"4","last_reported":1743613703,"current_range_meters":8000,"station_id":"","pricing_plan_id":"cebpf4jnsgd1na2vs0mg"},{"bike_id":"43c8b8c7-cd30-4ca6-a3ee-30ae8164c881","system_id":"levelo_inurba_marseille","lat":43.26062,"lon":5.39394,"is_reserved":false,"is_disabled":false,"rental_uris":{"android":"levelo://app?vid=43c8b8c7-cd30-4ca6-a3ee-30ae8164c881","ios":"levelo://app?vid=43c8b8c7-cd30-4ca6-a3ee-30ae8164c881"},"vehicle_type_id":"4","last_reported":1743613703,"current_range_meters":8000,"station_id":"ce4bhh92rcd13ifvqfj0","pricing_plan_id":"cebpf4jnsgd1na2vs0mg"},{"bike_id":"6df6107f-62f2-4c53-a7c6-bd3fa5d03f7d","system_id":"levelo_inurba_marseille","lat":43.30452,"lon":5.3893,"is_reserved":false,"is_disabled":false,"rental_uris":{"android":"levelo://app?vid=6df6107f-62f2-4c53-a7c6-bd3fa5d03f7d","ios":"levelo://app?vid=6df6107f-62f2-4c53-a7c6-bd3fa5d03f7d"},"vehicle_type_id":"4","last_reported":1743613703,"current_range_meters":8000,"station_id":"ce4bgk12rcd13ifvqbi0","pricing_plan_id":"cebpf4jnsgd1na2vs0mg"},{"bike_id":"f294df05-ec5a-4614-b8fa-e39f7ba41489","system_id":"levelo_inurba_marseille","lat":43.26207,"lon":5.37926,"is_reserved":false,"is_disabled":false,"rental_uris":{"android":"levelo://app?vid=f294df05-ec5a-4614-b8fa-e39f7ba41489","ios":"levelo://app?vid=f294df05-ec5a-4614-b8fa-e39f7ba41489"},"vehicle_type_id":"4","last_reported":1743613703,"current_range_meters":8000,"station_id":"ce4bhjp2rcd13ifvqg90","pricing_plan_id":"cebpf4jnsgd1na2vs0mg"},{"bike_id":"fd51c951-6d79-4b4f-b53f-e34ea97aea51","system_id":"levelo_inurba_marseille","lat":43.30248,"lon":5.40055,"is_reserved":false,"is_disabled":false,"rental_uris":{"android":"levelo://app?vid=fd51c951-6d79-4b4f-b53f-e34ea97aea51","ios":"levelo://app?vid=fd51c951-6d79-4b4f-b53f-e34ea97aea51"},"vehicle_type_id":"4","last_reported":1743613703,"current_range_meters":8000,"station_id":"ce4bgvh2rcd13ifvqcs0","pricing_plan_id":"cebpf4jnsgd1na2vs0mg"},{"bike_id":"5c4c42d6-3206-4431-badd-c7745ad799be","system_id":"levelo_inurba_marseille","lat":43.29434,"lon":5.39752,"is_reserved":false,"is_disabled":false,"rental_uris":{"android":"levelo://app?vid=5c4c42d6-3206-4431-badd-c7745ad799be","ios":"levelo://app?vid=5c4c42d6-3206-4431-badd-c7745ad799be"},"vehicle_type_id":"4","last_reported":1743613703,"current_range_meters":8000,"station_id":"ce4bh3h2rcd13ifvqdo0","pricing_plan_id":"cebpf4jnsgd1na2vs0mg"},{"bike_id":"8f56ea32-560b-4064-9861-a41cd4dd40fc","system_id":"levelo_inurba_marseille","lat":43.28108,"lon":5.37846,"is_reserved":false,"is_disabled":false,"rental_uris":{"android":"levelo://app?vid=8f56ea32-560b-4064-9861-a41cd4dd40fc","ios":"levelo://app?vid=8f56ea32-560b-4064-9861-a41cd4dd40fc"},"vehicle_type_id":"4","last_reported":1743613703,"current_range_meters":8400,"station_id":"ce4bha12rcd13ifvqee0","pricing_plan_id":"cebpf4jnsgd1na2vs0mg"},{"bike_id":"755f9927-da2c-4b64-8515-394f00fbb718","system_id":"levelo_inurba_marseille","lat":43.24072,"lon":5.37763,"is_reserved":false,"is_disabled":true,"rental_uris":{"android":"levelo://app?vid=755f9927-da2c-4b64-8515-394f00fbb718","ios":"levelo://app?vid=755f9927-da2c-4b64-8515-394f00fbb718"},"vehicle_type_id":"4","last_reported":1743613703,"current_range_meters":8000,"station_id":"ce4bhnp2rcd13ifvqgvg","pricing_plan_id":"cebpf4jnsgd1na2vs0mg"},{"bike_id":"2b75d387-2631-4fad-b03c-dac9c51a72a7","system_id":"levelo_inurba_marseille","lat":43.28932,"lon":5.36401,"is_reserved":false,"is_disabled":false,"rental_uris":{"android":"levelo://app?vid=2b75d387-2631-4fad-b03c-dac9c51a72a7","ios":"levelo://app?vid=2b75d387-2631-4fad-b03c-dac9c51a72a7"},"vehicle_type_id":"4","last_reported":1743613703,"current_range_meters":8000,"station_id":"ce4bhc92rcd13ifvqetg","pricing_plan_id":"cebpf4jnsgd1na2vs0mg"},{"bike_id":"566db4ec-525c-4fe2-9c24-1aa1f8dd4cac","system_id":"levelo_inurba_marseille","lat":43.30323,"lon":5.40433,"is_reserved":false,"is_disabled":false,"rental_uris":{"android":"levelo://app?vid=566db4ec-525c-4fe2-9c24-1aa1f8dd4cac","ios":"levelo://app?vid=566db4ec-525c-4fe2-9c24-1aa1f8dd4cac"},"vehicle_type_id":"4","last_reported":1743613703,"current_range_meters":8800,"station_id":"ce4bh012rcd13ifvqd10","pricing_plan_id":"cebpf4jnsgd1na2vs0mg"},{"bike_id":"cd22e8f6-4b63-4e00-b2fd-554ac28913f8","system_id":"levelo_inurba_marseille","lat":43.26789,"lon":5.42675,"is_reserved":false,"is_disabled":false,"rental_uris":{"android":"levelo://app?vid=cd22e8f6-4b63-4e00-b2fd-554ac28913f8","ios":"levelo://app?vid=cd22e8f6-4b63-4e00-b2fd-554ac28913f8"},"vehicle_type_id":"4","last_reported":1743613703,"current_range_meters":8400,"station_id":"","pricing_plan_id":"cebpf4jnsgd1na2vs0mg"},{"bike_id":"912bac15-c77c-4b30-a3b3-55fee766b9b7","system_id":"levelo_inurba_marseille","lat":43.28108,"lon":5.37838,"is_reserved":false,"is_disabled":false,"rental_uris":{"android":"levelo://app?vid=912bac15-c77c-4b30-a3b3-55fee766b9b7","ios":"levelo://app?vid=912bac15-c77c-4b30-a3b3-55fee766b9b7"},"vehicle_type_id":"4","last_reported":1743613703,"current_range_meters":8400,"station_id":"ce4bha12rcd13ifvqee0","pricing_plan_id":"cebpf4jnsgd1na2vs0mg"},{"bike_id":"1922d091-d80c-4d58-a854-efbad4fbbab2","system_id":"levelo_inurba_marseille","lat":43.32369,"lon":5.40602,"is_reserved":false,"is_disabled":false,"rental_uris":{"android":"levelo://app?vid=1922d091-d80c-4d58-a854-efbad4fbbab2","ios":"levelo://app?vid=1922d091-d80c-4d58-a854-efbad4fbbab2"},"vehicle_type_id":"4","last_reported":1743613703,"current_range_meters":8400,"station_id":"ce4bhq92rcd13ifvqhjg","pricing_plan_id":"cebpf4jnsgd1na2vs0mg"},{"bike_id":"eb483021-ac11-4f84-a62d-1d23ad07dbad","system_id":"levelo_inurba_marseille","lat":43.292518,"lon":5.409039,"is_reserved":false,"is_disabled":false,"rental_uris":{"android":"levelo://app?vid=eb483021-ac11-4f84-a62d-1d23ad07dbad","ios":"levelo://app?vid=eb483021-ac11-4f84-a62d-1d23ad07dbad"},"vehicle_type_id":"4","last_reported":1743613703,"current_range_meters":8400,"station_id":"ce4bh192rcd13ifvqdc0","pricing_plan_id":"cebpf4jnsgd1na2vs0mg"},{"bike_id":"d3345442-2654-4ddc-b869-fce22decea38","system_id":"levelo_inurba_marseille","lat":43.23063,"lon":5.35486,"is_reserved":false,"is_disabled":false,"rental_uris":{"android":"levelo://app?vid=d3345442-2654-4ddc-b869-fce22decea38","ios":"levelo://app?vid=d3345442-2654-4ddc-b869-fce22decea38"},"vehicle_type_id":"4","last_reported":1743613703,"current_range_meters":8400,"station_id":"cpo3342slgdg3j2ifvpg","pricing_plan_id":"cebpf4jnsgd1na2vs0mg"},{"bike_id":"c3fc5c58-f1ee-49ca-abe7-7a0bcf8e6a4a","system_id":"levelo_inurba_marseille","lat":43.32356,"lon":5.38903,"is_reserved":false,"is_disabled":false,"rental_uris":{"android":"levelo://app?vid=c3fc5c58-f1ee-49ca-abe7-7a0bcf8e6a4a","ios":"levelo://app?vid=c3fc5c58-f1ee-49ca-abe7-7a0bcf8e6a4a"},"vehicle_type_id":"4","last_reported":1743613703,"current_range_meters":8400,"station_id":"ce4bhqp2rcd13ifvqhog","pricing_plan_id":"cebpf4jnsgd1na2vs0mg"},{"bike_id":"3ba6ccff-1eda-46d4-acbd-01dbdd65bb76","system_id":"levelo_inurba_marseille","lat":43.29897,"lon":5.43661,"is_reserved":false,"is_disabled":false,"rental_uris":{"android":"levelo://app?vid=3ba6ccff-1eda-46d4-acbd-01dbdd65bb76","ios":"levelo://app?vid=3ba6ccff-1eda-46d4-acbd-01dbdd65bb76"},"vehicle_type_id":"4","last_reported":1743613703,"current_range_meters":8400,"station_id":"ce4bhpp2rcd13ifvqhfg","pricing_plan_id":"cebpf4jnsgd1na2vs0mg"},{"bike_id":"ac08ff63-882b-4e1c-b520-3891da777797","system_id":"levelo_inurba_marseille","lat":43.30914,"lon":5.36846,"is_reserved":false,"is_disabled":false,"rental_uris":{"android":"levelo://app?vid=ac08ff63-882b-4e1c-b520-3891da777797","ios":"levelo://app?vid=ac08ff63-882b-4e1c-b520-3891da777797"},"vehicle_type_id":"4","last_reported":1743613703,"current_range_meters":8400,"station_id":"ce4bgn92rcd13ifvqbvg","pricing_plan_id":"cebpf4jnsgd1na2vs0mg"},{"bike_id":"a8bd8e5b-b902-4487-925b-5e79c796662c","system_id":"levelo_inurba_marseille","lat":43.296264,"lon":5.377025,"is_reserved":false,"is_disabled":false,"rental_uris":{"android":"levelo://app?vid=a8bd8e5b-b902-4487-925b-5e79c796662c","ios":"levelo://app?vid=a8bd8e5b-b902-4487-925b-5e79c796662c"},"vehicle_type_id":"4","last_reported":1743613703,"current_range_meters":8400,"station_id":"ce4bgrh2rcd13ifvqc8g","pricing_plan_id":"cebpf4jnsgd1na2vs0mg"},{"bike_id":"7aa08c36-ee27-4e8e-996a-fcb4923ecbbb","system_id":"levelo_inurba_marseille","lat":43.28322,"lon":5.35068,"is_reserved":false,"is_disabled":true,"rental_uris":{"android":"levelo://app?vid=7aa08c36-ee27-4e8e-996a-fcb4923ecbbb","ios":"levelo://app?vid=7aa08c36-ee27-4e8e-996a-fcb4923ecbbb"},"vehicle_type_id":"4","last_reported":1743613703,"current_range_meters":8800,"station_id":"","pricing_plan_id":"cebpf4jnsgd1na2vs0mg"},{"bike_id":"a35c7689-1794-4710-b576-f0c2beff21fd","system_id":"levelo_inurba_marseille","lat":43.311096,"lon":5.377611,"is_reserved":false,"is_disabled":false,"rental_uris":{"android":"levelo://app?vid=a35c7689-1794-4710-b576-f0c2beff21fd","ios":"levelo://app?vid=a35c7689-1794-4710-b576-f0c2beff21fd"},"vehicle_type_id":"4","last_reported":1743613703,"current_range_meters":8800,"station_id":"ce4bgt92rcd13ifvqcg0","pricing_plan_id":"cebpf4jnsgd1na2vs0mg"},{"bike_id":"84379298-b4bc-45ce-a50b-9a9ebfc49b9f","system_id":"levelo_inurba_marseille","lat":43.26561,"lon":5.37283,"is_reserved":false,"is_disabled":false,"rental_uris":{"android":"levelo://app?vid=84379298-b4bc-45ce-a50b-9a9ebfc49b9f","ios":"levelo://app?vid=84379298-b4bc-45ce-a50b-9a9ebfc49b9f"},"vehicle_type_id":"4","last_reported":1743613703,"current_range_meters":8800,"station_id":"ce4bhg12rcd13ifvqf70","pricing_plan_id":"cebpf4jnsgd1na2vs0mg"},{"bike_id":"2ed9404d-458e-44d9-afcd-e53713075f99","system_id":"levelo_inurba_marseille","lat":43.22929,"lon":5.35383,"is_reserved":false,"is_disabled":false,"rental_uris":{"android":"levelo://app?vid=2ed9404d-458e-44d9-afcd-e53713075f99","ios":"levelo://app?vid=2ed9404d-458e-44d9-afcd-e53713075f99"},"vehicle_type_id":"4","last_reported":1743613703,"current_range_meters":8800,"station_id":"cpo3532slgdg3j2ikp40","pricing_plan_id":"cebpf4jnsgd1na2vs0mg"},{"bike_id":"edbb5026-7092-42e3-b160-e8af571ca967","system_id":"levelo_inurba_marseille","lat":43.28155,"lon":5.42647,"is_reserved":false,"is_disabled":false,"rental_uris":{"android":"levelo://app?vid=edbb5026-7092-42e3-b160-e8af571ca967","ios":"levelo://app?vid=edbb5026-7092-42e3-b160-e8af571ca967"},"vehicle_type_id":"4","last_reported":1743613703,"current_range_meters":8800,"station_id":"ce4bhnh2rcd13ifvqgug","pricing_plan_id":"cebpf4jnsgd1na2vs0mg"},{"bike_id":"fb9e0e7b-35f0-48b1-8dfb-91d2fd0ac2f0","system_id":"levelo_inurba_marseille","lat":43.25826,"lon":5.39437,"is_reserved":false,"is_disabled":false,"rental_uris":{"android":"levelo://app?vid=fb9e0e7b-35f0-48b1-8dfb-91d2fd0ac2f0","ios":"levelo://app?vid=fb9e0e7b-35f0-48b1-8dfb-91d2fd0ac2f0"},"vehicle_type_id":"4","last_reported":1743613703,"current_range_meters":8400,"station_id":"ce4bhip2rcd13ifvqft0","pricing_plan_id":"cebpf4jnsgd1na2vs0mg"},{"bike_id":"a0d61601-5868-4862-9cc7-feb22e24e97e","system_id":"levelo_inurba_marseille","lat":43.29019,"lon":5.35623,"is_reserved":false,"is_disabled":false,"rental_uris":{"android":"levelo://app?vid=a0d61601-5868-4862-9cc7-feb22e24e97e","ios":"levelo://app?vid=a0d61601-5868-4862-9cc7-feb22e24e97e"},"vehicle_type_id":"4","last_reported":1743613703,"current_range_meters":8800,"station_id":"ce4bhb92rcd13ifvqen0","pricing_plan_id":"cebpf4jnsgd1na2vs0mg"},{"bike_id":"1c725dd3-cbdb-4294-ac1f-cd7ca3b92b2d","system_id":"levelo_inurba_marseille","lat":43.30137,"lon":5.39844,"is_reserved":false,"is_disabled":false,"rental_uris":{"android":"levelo://app?vid=1c725dd3-cbdb-4294-ac1f-cd7ca3b92b2d","ios":"levelo://app?vid=1c725dd3-cbdb-4294-ac1f-cd7ca3b92b2d"},"vehicle_type_id":"4","last_reported":1743613703,"current_range_meters":8400,"station_id":"ce4bh0h2rcd13ifvqd40","pricing_plan_id":"cebpf4jnsgd1na2vs0mg"},{"bike_id":"e2f25362-451d-4212-bfbe-e3fa67581bc7","system_id":"levelo_inurba_marseille","lat":43.29259,"lon":5.38432,"is_reserved":false,"is_disabled":false,"rental_uris":{"android":"levelo://app?vid=e2f25362-451d-4212-bfbe-e3fa67581bc7","ios":"levelo://app?vid=e2f25362-451d-4212-bfbe-e3fa67581bc7"},"vehicle_type_id":"4","last_reported":1743613703,"current_range_meters":8800,"station_id":"ce4bh692rcd13ifvqea0","pricing_plan_id":"cebpf4jnsgd1na2vs0mg"},{"bike_id":"988a4b2a-1fca-4561-9342-57ad8b6adb1c","system_id":"levelo_inurba_marseille","lat":43.22926,"lon":5.35375,"is_reserved":false,"is_disabled":false,"rental_uris":{"android":"levelo://app?vid=988a4b2a-1fca-4561-9342-57ad8b6adb1c","ios":"levelo://app?vid=988a4b2a-1fca-4561-9342-57ad8b6adb1c"},"vehicle_type_id":"4","last_reported":1743613703,"current_range_meters":9200,"station_id":"cpo3532slgdg3j2ikp40","pricing_plan_id":"cebpf4jnsgd1na2vs0mg"},{"bike_id":"b80ee275-2592-4659-b2e9-175feb839700","system_id":"levelo_inurba_marseille","lat":43.23197,"lon":5.35549,"is_reserved":false,"is_disabled":false,"rental_uris":{"android":"levelo://app?vid=b80ee275-2592-4659-b2e9-175feb839700","ios":"levelo://app?vid=b80ee275-2592-4659-b2e9-175feb839700"},"vehicle_type_id":"4","last_reported":1743613703,"current_range_meters":9200,"station_id":"ce4bhu92rcd13ifvqi70","pricing_plan_id":"cebpf4jnsgd1na2vs0mg"},{"bike_id":"8d8b0c8d-6697-4743-9964-dfa8ce35a689","system_id":"levelo_inurba_marseille","lat":43.30778,"lon":5.37664,"is_reserved":false,"is_disabled":false,"rental_uris":{"android":"levelo://app?vid=8d8b0c8d-6697-4743-9964-dfa8ce35a689","ios":"levelo://app?vid=8d8b0c8d-6697-4743-9964-dfa8ce35a689"},"vehicle_type_id":"4","last_reported":1743613703,"current_range_meters":9200,"station_id":"ce4bgv92rcd13ifvqcq0","pricing_plan_id":"cebpf4jnsgd1na2vs0mg"},{"bike_id":"a37ba079-4ccc-43bf-b918-b876a550e8db","system_id":"levelo_inurba_marseille","lat":43.255847,"lon":5.382607,"is_reserved":false,"is_disabled":false,"rental_uris":{"android":"levelo://app?vid=a37ba079-4ccc-43bf-b918-b876a550e8db","ios":"levelo://app?vid=a37ba079-4ccc-43bf-b918-b876a550e8db"},"vehicle_type_id":"4","last_reported":1743613703,"current_range_meters":9200,"station_id":"ce4bhih2rcd13ifvqfs0","pricing_plan_id":"cebpf4jnsgd1na2vs0mg"},{"bike_id":"25c9da1a-b5c2-481b-a59e-5c1900e213f6","system_id":"levelo_inurba_marseille","lat":43.2558,"lon":5.38237,"is_reserved":false,"is_disabled":false,"rental_uris":{"android":"levelo://app?vid=25c9da1a-b5c2-481b-a59e-5c1900e213f6","ios":"levelo://app?vid=25c9da1a-b5c2-481b-a59e-5c1900e213f6"},"vehicle_type_id":"4","last_reported":1743613703,"current_range_meters":9200,"station_id":"ce4bhih2rcd13ifvqfs0","pricing_plan_id":"cebpf4jnsgd1na2vs0mg"},{"bike_id":"f55695a6-b65f-4a30-99ab-94b2bfa63268","system_id":"levelo_inurba_marseille","lat":43.23196,"lon":5.3555,"is_reserved":false,"is_disabled":false,"rental_uris":{"android":"levelo://app?vid=f55695a6-b65f-4a30-99ab-94b2bfa63268","ios":"levelo://app?vid=f55695a6-b65f-4a30-99ab-94b2bfa63268"},"vehicle_type_id":"4","last_reported":1743613703,"current_range_meters":9200,"station_id":"ce4bhu92rcd13ifvqi70","pricing_plan_id":"cebpf4jnsgd1na2vs0mg"},{"bike_id":"82be00d7-07cd-447f-a119-c8efb6be13a1","system_id":"levelo_inurba_marseille","lat":43.32367,"lon":5.38886,"is_reserved":false,"is_disabled":false,"rental_uris":{"android":"levelo://app?vid=82be00d7-07cd-447f-a119-c8efb6be13a1","ios":"levelo://app?vid=82be00d7-07cd-447f-a119-c8efb6be13a1"},"vehicle_type_id":"4","last_reported":1743613703,"current_range_meters":9200,"station_id":"ce4bhqp2rcd13ifvqhog","pricing_plan_id":"cebpf4jnsgd1na2vs0mg"},{"bike_id":"2e1d0491-8046-4a1c-910c-6d230f4ca468","system_id":"levelo_inurba_marseille","lat":43.30673,"lon":5.37341,"is_reserved":false,"is_disabled":false,"rental_uris":{"android":"levelo://app?vid=2e1d0491-8046-4a1c-910c-6d230f4ca468","ios":"levelo://app?vid=2e1d0491-8046-4a1c-910c-6d230f4ca468"},"vehicle_type_id":"4","last_reported":1743613703,"current_range_meters":9200,"station_id":"","pricing_plan_id":"cebpf4jnsgd1na2vs0mg"},{"bike_id":"2e64bb92-16c6-4ad9-9a3f-481c88bfc6e6","system_id":"levelo_inurba_marseille","lat":43.29518,"lon":5.39396,"is_reserved":false,"is_disabled":false,"rental_uris":{"android":"levelo://app?vid=2e64bb92-16c6-4ad9-9a3f-481c88bfc6e6","ios":"levelo://app?vid=2e64bb92-16c6-4ad9-9a3f-481c88bfc6e6"},"vehicle_type_id":"4","last_reported":1743613703,"current_range_meters":9600,"station_id":"ce4bh292rcd13ifvqdf0","pricing_plan_id":"cebpf4jnsgd1na2vs0mg"},{"bike_id":"7b869cea-1d61-42d2-b04b-29df5bd7497f","system_id":"levelo_inurba_marseille","lat":43.32105,"lon":5.36818,"is_reserved":false,"is_disabled":false,"rental_uris":{"android":"levelo://app?vid=7b869cea-1d61-42d2-b04b-29df5bd7497f","ios":"levelo://app?vid=7b869cea-1d61-42d2-b04b-29df5bd7497f"},"vehicle_type_id":"4","last_reported":1743613703,"current_range_meters":9600,"station_id":"ce4bhrh2rcd13ifvqhug","pricing_plan_id":"cebpf4jnsgd1na2vs0mg"},{"bike_id":"d157a8ac-f1ea-480a-a1ee-9ac00962bb01","system_id":"levelo_inurba_marseille","lat":43.29564,"lon":5.42325,"is_reserved":false,"is_disabled":false,"rental_uris":{"android":"levelo://app?vid=d157a8ac-f1ea-480a-a1ee-9ac00962bb01","ios":"levelo://app?vid=d157a8ac-f1ea-480a-a1ee-9ac00962bb01"},"vehicle_type_id":"4","last_reported":1743613703,"current_range_meters":9600,"station_id":"ce4bhph2rcd13ifvqhdg","pricing_plan_id":"cebpf4jnsgd1na2vs0mg"},{"bike_id":"f87e996c-206a-47d9-8697-84a2d463fdc3","system_id":"levelo_inurba_marseille","lat":43.2317,"lon":5.35584,"is_reserved":false,"is_disabled":false,"rental_uris":{"android":"levelo://app?vid=f87e996c-206a-47d9-8697-84a2d463fdc3","ios":"levelo://app?vid=f87e996c-206a-47d9-8697-84a2d463fdc3"},"vehicle_type_id":"4","last_reported":1743613703,"current_range_meters":9600,"station_id":"ce4bhu92rcd13ifvqi70","pricing_plan_id":"cebpf4jnsgd1na2vs0mg"},{"bike_id":"6e6a66e5-58ca-4db1-9695-b46ed5c28827","system_id":"levelo_inurba_marseille","lat":43.31809,"lon":5.36835,"is_reserved":false,"is_disabled":false,"rental_uris":{"android":"levelo://app?vid=6e6a66e5-58ca-4db1-9695-b46ed5c28827","ios":"levelo://app?vid=6e6a66e5-58ca-4db1-9695-b46ed5c28827"},"vehicle_type_id":"4","last_reported":1743613703,"current_range_meters":9600,"station_id":"","pricing_plan_id":"cebpf4jnsgd1na2vs0mg"},{"bike_id":"a112ce08-6f4e-41f2-873e-94895f2e1506","system_id":"levelo_inurba_marseille","lat":43.27672,"lon":5.3892,"is_reserved":false,"is_disabled":true,"rental_uris":{"android":"levelo://app?vid=a112ce08-6f4e-41f2-873e-94895f2e1506","ios":"levelo://app?vid=a112ce08-6f4e-41f2-873e-94895f2e1506"},"vehicle_type_id":"4","last_reported":1743613703,"current_range_meters":9600,"station_id":"ce4bhi12rcd13ifvqfo0","pricing_plan_id":"cebpf4jnsgd1na2vs0mg"},{"bike_id":"d044cc17-f95d-4c62-8d87-3de8e64b6fe1","system_id":"levelo_inurba_marseille","lat":43.29692,"lon":5.3661,"is_reserved":false,"is_disabled":false,"rental_uris":{"android":"levelo://app?vid=d044cc17-f95d-4c62-8d87-3de8e64b6fe1","ios":"levelo://app?vid=d044cc17-f95d-4c62-8d87-3de8e64b6fe1"},"vehicle_type_id":"4","last_reported":1743613703,"current_range_meters":9600,"station_id":"ce4bgn12rcd13ifvqbt0","pricing_plan_id":"cebpf4jnsgd1na2vs0mg"},{"bike_id":"fb690369-e867-4f65-b79e-7ca49d701b9b","system_id":"levelo_inurba_marseille","lat":43.30891,"lon":5.368495,"is_reserved":false,"is_disabled":false,"rental_uris":{"android":"levelo://app?vid=fb690369-e867-4f65-b79e-7ca49d701b9b","ios":"levelo://app?vid=fb690369-e867-4f65-b79e-7ca49d701b9b"},"vehicle_type_id":"4","last_reported":1743613703,"current_range_meters":9600,"station_id":"ce4bgjh2rcd13ifvqbf0","pricing_plan_id":"cebpf4jnsgd1na2vs0mg"},{"bike_id":"ba64993a-3bab-4ade-8d6f-b8e4534005fa","system_id":"levelo_inurba_marseille","lat":43.28422,"lon":5.34981,"is_reserved":false,"is_disabled":false,"rental_uris":{"android":"levelo://app?vid=ba64993a-3bab-4ade-8d6f-b8e4534005fa","ios":"levelo://app?vid=ba64993a-3bab-4ade-8d6f-b8e4534005fa"},"vehicle_type_id":"4","last_reported":1743613703,"current_range_meters":9600,"station_id":"ce4bhbh2rcd13ifvqepg","pricing_plan_id":"cebpf4jnsgd1na2vs0mg"},{"bike_id":"49428efe-bbd8-4963-9aaf-ed822fd5c61b","system_id":"levelo_inurba_marseille","lat":43.29197,"lon":5.44423,"is_reserved":false,"is_disabled":false,"rental_uris":{"android":"levelo://app?vid=49428efe-bbd8-4963-9aaf-ed822fd5c61b","ios":"levelo://app?vid=49428efe-bbd8-4963-9aaf-ed822fd5c61b"},"vehicle_type_id":"4","last_reported":1743613703,"current_range_meters":9600,"station_id":"","pricing_plan_id":"cebpf4jnsgd1na2vs0mg"},{"bike_id":"63972247-577b-46bc-bfb6-26ff9bd19702","system_id":"levelo_inurba_marseille","lat":43.25586,"lon":5.38254,"is_reserved":false,"is_disabled":false,"rental_uris":{"android":"levelo://app?vid=63972247-577b-46bc-bfb6-26ff9bd19702","ios":"levelo://app?vid=63972247-577b-46bc-bfb6-26ff9bd19702"},"vehicle_type_id":"4","last_reported":1743613703,"current_range_meters":9600,"station_id":"ce4bhih2rcd13ifvqfs0","pricing_plan_id":"cebpf4jnsgd1na2vs0mg"},{"bike_id":"04556df8-715f-45d8-b288-9c8fd51282f9","system_id":"levelo_inurba_marseille","lat":43.23195,"lon":5.35558,"is_reserved":false,"is_disabled":false,"rental_uris":{"android":"levelo://app?vid=04556df8-715f-45d8-b288-9c8fd51282f9","ios":"levelo://app?vid=04556df8-715f-45d8-b288-9c8fd51282f9"},"vehicle_type_id":"4","last_reported":1743613703,"current_range_meters":10000,"station_id":"ce4bhu92rcd13ifvqi70","pricing_plan_id":"cebpf4jnsgd1na2vs0mg"},{"bike_id":"8428940f-50f5-4ea8-8511-7c76e89e6043","system_id":"levelo_inurba_marseille","lat":43.23176,"lon":5.39988,"is_reserved":false,"is_disabled":false,"rental_uris":{"android":"levelo://app?vid=8428940f-50f5-4ea8-8511-7c76e89e6043","ios":"levelo://app?vid=8428940f-50f5-4ea8-8511-7c76e89e6043"},"vehicle_type_id":"4","last_reported":1743613703,"current_range_meters":10800,"station_id":"ce4bhn12rcd13ifvqgqg","pricing_plan_id":"cebpf4jnsgd1na2vs0mg"},{"bike_id":"b52eafbb-0fdc-487b-b3ce-3a3f8cf7e638","system_id":"levelo_inurba_marseille","lat":43.33126,"lon":5.39254,"is_reserved":false,"is_disabled":false,"rental_uris":{"android":"levelo://app?vid=b52eafbb-0fdc-487b-b3ce-3a3f8cf7e638","ios":"levelo://app?vid=b52eafbb-0fdc-487b-b3ce-3a3f8cf7e638"},"vehicle_type_id":"4","last_reported":1743613703,"current_range_meters":10000,"station_id":"","pricing_plan_id":"cebpf4jnsgd1na2vs0mg"},{"bike_id":"76b67fe4-e717-49cf-8b6e-69d1699ade8c","system_id":"levelo_inurba_marseille","lat":43.28081,"lon":5.3966,"is_reserved":false,"is_disabled":false,"rental_uris":{"android":"levelo://app?vid=76b67fe4-e717-49cf-8b6e-69d1699ade8c","ios":"levelo://app?vid=76b67fe4-e717-49cf-8b6e-69d1699ade8c"},"vehicle_type_id":"4","last_reported":1743613703,"current_range_meters":10000,"station_id":"ce4bho12rcd13ifvqh2g","pricing_plan_id":"cebpf4jnsgd1na2vs0mg"},{"bike_id":"b816175a-0094-4782-a489-39cbe7c244e2","system_id":"levelo_inurba_marseille","lat":43.29241,"lon":5.40946,"is_reserved":false,"is_disabled":false,"rental_uris":{"android":"levelo://app?vid=b816175a-0094-4782-a489-39cbe7c244e2","ios":"levelo://app?vid=b816175a-0094-4782-a489-39cbe7c244e2"},"vehicle_type_id":"4","last_reported":1743613703,"current_range_meters":9600,"station_id":"ce4bh192rcd13ifvqdc0","pricing_plan_id":"cebpf4jnsgd1na2vs0mg"},{"bike_id":"dd3db03f-0f43-4986-9ec8-2a76818fb28c","system_id":"levelo_inurba_marseille","lat":43.23211,"lon":5.35547,"is_reserved":false,"is_disabled":false,"rental_uris":{"android":"levelo://app?vid=dd3db03f-0f43-4986-9ec8-2a76818fb28c","ios":"levelo://app?vid=dd3db03f-0f43-4986-9ec8-2a76818fb28c"},"vehicle_type_id":"4","last_reported":1743613703,"current_range_meters":10000,"station_id":"ce4bhu92rcd13ifvqi70","pricing_plan_id":"cebpf4jnsgd1na2vs0mg"},{"bike_id":"54e1822f-6f50-4cd5-b53b-77eee6c86b23","system_id":"levelo_inurba_marseille","lat":43.28616,"lon":5.35104,"is_reserved":false,"is_disabled":false,"rental_uris":{"android":"levelo://app?vid=54e1822f-6f50-4cd5-b53b-77eee6c86b23","ios":"levelo://app?vid=54e1822f-6f50-4cd5-b53b-77eee6c86b23"},"vehicle_type_id":"4","last_reported":1743613703,"current_range_meters":10000,"station_id":"ce4bhch2rcd13ifvqeug","pricing_plan_id":"cebpf4jnsgd1na2vs0mg"},{"bike_id":"1cc56aae-45a2-4fff-b1a7-9e957e7043f2","system_id":"levelo_inurba_marseille","lat":43.28696,"lon":5.374,"is_reserved":false,"is_disabled":false,"rental_uris":{"android":"levelo://app?vid=1cc56aae-45a2-4fff-b1a7-9e957e7043f2","ios":"levelo://app?vid=1cc56aae-45a2-4fff-b1a7-9e957e7043f2"},"vehicle_type_id":"4","last_reported":1743613703,"current_range_meters":10000,"station_id":"ce4bh3p2rcd13ifvqdq0","pricing_plan_id":"cebpf4jnsgd1na2vs0mg"},{"bike_id":"e79d9265-b0ea-435c-a9f3-761bb969deb6","system_id":"levelo_inurba_marseille","lat":43.26061,"lon":5.39398,"is_reserved":false,"is_disabled":false,"rental_uris":{"android":"levelo://app?vid=e79d9265-b0ea-435c-a9f3-761bb969deb6","ios":"levelo://app?vid=e79d9265-b0ea-435c-a9f3-761bb969deb6"},"vehicle_type_id":"4","last_reported":1743613703,"current_range_meters":10000,"station_id":"ce4bhh92rcd13ifvqfj0","pricing_plan_id":"cebpf4jnsgd1na2vs0mg"},{"bike_id":"cac39d1b-62da-4f8b-be1f-825707cca184","system_id":"levelo_inurba_marseille","lat":43.276075,"lon":5.361057,"is_reserved":false,"is_disabled":false,"rental_uris":{"android":"levelo://app?vid=cac39d1b-62da-4f8b-be1f-825707cca184","ios":"levelo://app?vid=cac39d1b-62da-4f8b-be1f-825707cca184"},"vehicle_type_id":"4","last_reported":1743613703,"current_range_meters":10800,"station_id":"ce4bgj92rcd13ifvqbe0","pricing_plan_id":"cebpf4jnsgd1na2vs0mg"},{"bike_id":"75dae32f-059a-4b5b-a5e8-963c6eda2f66","system_id":"levelo_inurba_marseille","lat":43.27538,"lon":5.4099,"is_reserved":false,"is_disabled":false,"rental_uris":{"android":"levelo://app?vid=75dae32f-059a-4b5b-a5e8-963c6eda2f66","ios":"levelo://app?vid=75dae32f-059a-4b5b-a5e8-963c6eda2f66"},"vehicle_type_id":"4","last_reported":1743613703,"current_range_meters":10000,"station_id":"","pricing_plan_id":"cebpf4jnsgd1na2vs0mg"},{"bike_id":"1006235b-1c25-4d94-97c7-b9bd84d28baf","system_id":"levelo_inurba_marseille","lat":43.31182,"lon":5.38229,"is_reserved":false,"is_disabled":false,"rental_uris":{"android":"levelo://app?vid=1006235b-1c25-4d94-97c7-b9bd84d28baf","ios":"levelo://app?vid=1006235b-1c25-4d94-97c7-b9bd84d28baf"},"vehicle_type_id":"4","last_reported":1743613703,"current_range_meters":10800,"station_id":"","pricing_plan_id":"cebpf4jnsgd1na2vs0mg"},{"bike_id":"2d48cd09-9ee2-4630-8cab-be4140a04965","system_id":"levelo_inurba_marseille","lat":43.23246,"lon":5.35561,"is_reserved":false,"is_disabled":false,"rental_uris":{"android":"levelo://app?vid=2d48cd09-9ee2-4630-8cab-be4140a04965","ios":"levelo://app?vid=2d48cd09-9ee2-4630-8cab-be4140a04965"},"vehicle_type_id":"4","last_reported":1743613703,"current_range_meters":10800,"station_id":"","pricing_plan_id":"cebpf4jnsgd1na2vs0mg"},{"bike_id":"fc67d91c-6248-4f63-98fc-c535afa44a46","system_id":"levelo_inurba_marseille","lat":43.25867,"lon":5.39897,"is_reserved":false,"is_disabled":false,"rental_uris":{"android":"levelo://app?vid=fc67d91c-6248-4f63-98fc-c535afa44a46","ios":"levelo://app?vid=fc67d91c-6248-4f63-98fc-c535afa44a46"},"vehicle_type_id":"4","last_reported":1743613703,"current_range_meters":10800,"station_id":"ce4bhl92rcd13ifvqghg","pricing_plan_id":"cebpf4jnsgd1na2vs0mg"},{"bike_id":"464fcf7a-2f11-4ce8-9aac-31927804f387","system_id":"levelo_inurba_marseille","lat":43.29256,"lon":5.3762,"is_reserved":false,"is_disabled":false,"rental_uris":{"android":"levelo://app?vid=464fcf7a-2f11-4ce8-9aac-31927804f387","ios":"levelo://app?vid=464fcf7a-2f11-4ce8-9aac-31927804f387"},"vehicle_type_id":"4","last_reported":1743613703,"current_range_meters":10800,"station_id":"ce4bgi12rcd13ifvqb80","pricing_plan_id":"cebpf4jnsgd1na2vs0mg"},{"bike_id":"e6dbe135-fc60-4ca7-94e0-1a94a26ce2ba","system_id":"levelo_inurba_marseille","lat":43.22931,"lon":5.35374,"is_reserved":false,"is_disabled":false,"rental_uris":{"android":"levelo://app?vid=e6dbe135-fc60-4ca7-94e0-1a94a26ce2ba","ios":"levelo://app?vid=e6dbe135-fc60-4ca7-94e0-1a94a26ce2ba"},"vehicle_type_id":"4","last_reported":1743613703,"current_range_meters":10800,"station_id":"cpo3532slgdg3j2ikp40","pricing_plan_id":"cebpf4jnsgd1na2vs0mg"},{"bike_id":"ea464bc9-6baf-477f-8592-2d7142958a22","system_id":"levelo_inurba_marseille","lat":43.266873,"lon":5.382748,"is_reserved":false,"is_disabled":true,"rental_uris":{"android":"levelo://app?vid=ea464bc9-6baf-477f-8592-2d7142958a22","ios":"levelo://app?vid=ea464bc9-6baf-477f-8592-2d7142958a22"},"vehicle_type_id":"4","last_reported":1743613703,"current_range_meters":10800,"station_id":"ce4bhg92rcd13ifvqf90","pricing_plan_id":"cebpf4jnsgd1na2vs0mg"},{"bike_id":"75e22173-adb4-4664-b60d-16abfbca9621","system_id":"levelo_inurba_marseille","lat":43.29976,"lon":5.38489,"is_reserved":false,"is_disabled":false,"rental_uris":{"android":"levelo://app?vid=75e22173-adb4-4664-b60d-16abfbca9621","ios":"levelo://app?vid=75e22173-adb4-4664-b60d-16abfbca9621"},"vehicle_type_id":"4","last_reported":1743613703,"current_range_meters":10800,"station_id":"ce4bgj92rcd13ifvqbd0","pricing_plan_id":"cebpf4jnsgd1na2vs0mg"},{"bike_id":"194d4080-fa92-489f-9fdc-5eb78979fc96","system_id":"levelo_inurba_marseille","lat":43.24653,"lon":5.3889,"is_reserved":false,"is_disabled":false,"rental_uris":{"android":"levelo://app?vid=194d4080-fa92-489f-9fdc-5eb78979fc96","ios":"levelo://app?vid=194d4080-fa92-489f-9fdc-5eb78979fc96"},"vehicle_type_id":"4","last_reported":1743613703,"current_range_meters":10800,"station_id":"ce4bhg12rcd13ifvqf60","pricing_plan_id":"cebpf4jnsgd1na2vs0mg"},{"bike_id":"0a31eecc-c92f-4ab8-b420-ba13ab6a7d5a","system_id":"levelo_inurba_marseille","lat":43.29028,"lon":5.3813,"is_reserved":false,"is_disabled":false,"rental_uris":{"android":"levelo://app?vid=0a31eecc-c92f-4ab8-b420-ba13ab6a7d5a","ios":"levelo://app?vid=0a31eecc-c92f-4ab8-b420-ba13ab6a7d5a"},"vehicle_type_id":"4","last_reported":1743613703,"current_range_meters":11200,"station_id":"ce4bh4p2rcd13ifvqe1g","pricing_plan_id":"cebpf4jnsgd1na2vs0mg"},{"bike_id":"7ba67d0a-4dd2-434e-9233-c217be617343","system_id":"levelo_inurba_marseille","lat":43.33778,"lon":5.37449,"is_reserved":false,"is_disabled":false,"rental_uris":{"android":"levelo://app?vid=7ba67d0a-4dd2-434e-9233-c217be617343","ios":"levelo://app?vid=7ba67d0a-4dd2-434e-9233-c217be617343"},"vehicle_type_id":"4","last_reported":1743613703,"current_range_meters":11200,"station_id":"","pricing_plan_id":"cebpf4jnsgd1na2vs0mg"},{"bike_id":"7aec07e5-7161-46ad-b6b8-d5694d5efc5a","system_id":"levelo_inurba_marseille","lat":43.24066,"lon":5.37762,"is_reserved":false,"is_disabled":false,"rental_uris":{"android":"levelo://app?vid=7aec07e5-7161-46ad-b6b8-d5694d5efc5a","ios":"levelo://app?vid=7aec07e5-7161-46ad-b6b8-d5694d5efc5a"},"vehicle_type_id":"4","last_reported":1743613703,"current_range_meters":11200,"station_id":"ce4bhnp2rcd13ifvqgvg","pricing_plan_id":"cebpf4jnsgd1na2vs0mg"},{"bike_id":"916a69d9-9a18-44b3-8f64-921e342d8d7a","system_id":"levelo_inurba_marseille","lat":43.29792,"lon":5.39355,"is_reserved":false,"is_disabled":false,"rental_uris":{"android":"levelo://app?vid=916a69d9-9a18-44b3-8f64-921e342d8d7a","ios":"levelo://app?vid=916a69d9-9a18-44b3-8f64-921e342d8d7a"},"vehicle_type_id":"4","last_reported":1743613703,"current_range_meters":11200,"station_id":"chh1huq6cuj3fo74tm60","pricing_plan_id":"cebpf4jnsgd1na2vs0mg"},{"bike_id":"b6c83da9-b3c4-4843-9a1d-36871e12515b","system_id":"levelo_inurba_marseille","lat":43.26124,"lon":5.41468,"is_reserved":false,"is_disabled":false,"rental_uris":{"android":"levelo://app?vid=b6c83da9-b3c4-4843-9a1d-36871e12515b","ios":"levelo://app?vid=b6c83da9-b3c4-4843-9a1d-36871e12515b"},"vehicle_type_id":"4","last_reported":1743613703,"current_range_meters":11200,"station_id":"","pricing_plan_id":"cebpf4jnsgd1na2vs0mg"},{"bike_id":"1f6bc5dc-7054-4b95-bf7f-a9c705dff9da","system_id":"levelo_inurba_marseille","lat":43.2737,"lon":5.36258,"is_reserved":false,"is_disabled":false,"rental_uris":{"android":"levelo://app?vid=1f6bc5dc-7054-4b95-bf7f-a9c705dff9da","ios":"levelo://app?vid=1f6bc5dc-7054-4b95-bf7f-a9c705dff9da"},"vehicle_type_id":"4","last_reported":1743613703,"current_range_meters":11200,"station_id":"ce4bhbh2rcd13ifvqeo0","pricing_plan_id":"cebpf4jnsgd1na2vs0mg"},{"bike_id":"c2e6881a-04a3-4a38-9cc0-75cacf165e78","system_id":"levelo_inurba_marseille","lat":43.28832,"lon":5.364645,"is_reserved":false,"is_disabled":false,"rental_uris":{"android":"levelo://app?vid=c2e6881a-04a3-4a38-9cc0-75cacf165e78","ios":"levelo://app?vid=c2e6881a-04a3-4a38-9cc0-75cacf165e78"},"vehicle_type_id":"4","last_reported":1743613703,"current_range_meters":11600,"station_id":"","pricing_plan_id":"cebpf4jnsgd1na2vs0mg"},{"bike_id":"7e518bd1-a3c5-4718-b257-c0d50b977d20","system_id":"levelo_inurba_marseille","lat":43.258572,"lon":5.399052,"is_reserved":false,"is_disabled":true,"rental_uris":{"android":"levelo://app?vid=7e518bd1-a3c5-4718-b257-c0d50b977d20","ios":"levelo://app?vid=7e518bd1-a3c5-4718-b257-c0d50b977d20"},"vehicle_type_id":"4","last_reported":1743613703,"current_range_meters":11600,"station_id":"ce4bhl92rcd13ifvqghg","pricing_plan_id":"cebpf4jnsgd1na2vs0mg"},{"bike_id":"7ca7a6b3-8568-4bc3-a238-7fe4649fc2af","system_id":"levelo_inurba_marseille","lat":43.29263,"lon":5.38445,"is_reserved":false,"is_disabled":false,"rental_uris":{"android":"levelo://app?vid=7ca7a6b3-8568-4bc3-a238-7fe4649fc2af","ios":"levelo://app?vid=7ca7a6b3-8568-4bc3-a238-7fe4649fc2af"},"vehicle_type_id":"4","last_reported":1743613703,"current_range_meters":11600,"station_id":"ce4bh692rcd13ifvqea0","pricing_plan_id":"cebpf4jnsgd1na2vs0mg"},{"bike_id":"b5fa61b4-55c0-4d0f-b518-f0583e71aca3","system_id":"levelo_inurba_marseille","lat":43.22937,"lon":5.35388,"is_reserved":false,"is_disabled":false,"rental_uris":{"android":"levelo://app?vid=b5fa61b4-55c0-4d0f-b518-f0583e71aca3","ios":"levelo://app?vid=b5fa61b4-55c0-4d0f-b518-f0583e71aca3"},"vehicle_type_id":"4","last_reported":1743613703,"current_range_meters":11600,"station_id":"cpo3532slgdg3j2ikp40","pricing_plan_id":"cebpf4jnsgd1na2vs0mg"},{"bike_id":"b6c9f5f1-960a-4997-b012-8ab1bce425f2","system_id":"levelo_inurba_marseille","lat":43.27379,"lon":5.36268,"is_reserved":false,"is_disabled":false,"rental_uris":{"android":"levelo://app?vid=b6c9f5f1-960a-4997-b012-8ab1bce425f2","ios":"levelo://app?vid=b6c9f5f1-960a-4997-b012-8ab1bce425f2"},"vehicle_type_id":"4","last_reported":1743613703,"current_range_meters":11600,"station_id":"ce4bhbh2rcd13ifvqeo0","pricing_plan_id":"cebpf4jnsgd1na2vs0mg"},{"bike_id":"61c89c49-d1b9-410b-b70c-a4504c0c212d","system_id":"levelo_inurba_marseille","lat":43.28461,"lon":5.3589,"is_reserved":false,"is_disabled":false,"rental_uris":{"android":"levelo://app?vid=61c89c49-d1b9-410b-b70c-a4504c0c212d","ios":"levelo://app?vid=61c89c49-d1b9-410b-b70c-a4504c0c212d"},"vehicle_type_id":"4","last_reported":1743613703,"current_range_meters":11600,"station_id":"ce4bhah2rcd13ifvqei0","pricing_plan_id":"cebpf4jnsgd1na2vs0mg"},{"bike_id":"a6ad1b9c-2f2c-4c5a-ac79-a9ca6682e4e6","system_id":"levelo_inurba_marseille","lat":43.28932,"lon":5.36633,"is_reserved":false,"is_disabled":false,"rental_uris":{"android":"levelo://app?vid=a6ad1b9c-2f2c-4c5a-ac79-a9ca6682e4e6","ios":"levelo://app?vid=a6ad1b9c-2f2c-4c5a-ac79-a9ca6682e4e6"},"vehicle_type_id":"4","last_reported":1743613703,"current_range_meters":13600,"station_id":"ce4bhap2rcd13ifvqek0","pricing_plan_id":"cebpf4jnsgd1na2vs0mg"},{"bike_id":"6fd3d18f-c3b5-4d07-8160-12fc5c26448c","system_id":"levelo_inurba_marseille","lat":43.3236,"lon":5.38875,"is_reserved":false,"is_disabled":false,"rental_uris":{"android":"levelo://app?vid=6fd3d18f-c3b5-4d07-8160-12fc5c26448c","ios":"levelo://app?vid=6fd3d18f-c3b5-4d07-8160-12fc5c26448c"},"vehicle_type_id":"4","last_reported":1743613703,"current_range_meters":11600,"station_id":"ce4bhqp2rcd13ifvqhog","pricing_plan_id":"cebpf4jnsgd1na2vs0mg"},{"bike_id":"c89f14d9-c4ab-408e-ad23-e7b73656006e","system_id":"levelo_inurba_marseille","lat":43.30376,"lon":5.424877,"is_reserved":false,"is_disabled":false,"rental_uris":{"android":"levelo://app?vid=c89f14d9-c4ab-408e-ad23-e7b73656006e","ios":"levelo://app?vid=c89f14d9-c4ab-408e-ad23-e7b73656006e"},"vehicle_type_id":"4","last_reported":1743613703,"current_range_meters":11600,"station_id":"ce4bhoh2rcd13ifvqh6g","pricing_plan_id":"cebpf4jnsgd1na2vs0mg"},{"bike_id":"e1b03b21-5eb0-483c-b4ac-ea8a29304382","system_id":"levelo_inurba_marseille","lat":43.23055,"lon":5.3551,"is_reserved":false,"is_disabled":false,"rental_uris":{"android":"levelo://app?vid=e1b03b21-5eb0-483c-b4ac-ea8a29304382","ios":"levelo://app?vid=e1b03b21-5eb0-483c-b4ac-ea8a29304382"},"vehicle_type_id":"4","last_reported":1743613703,"current_range_meters":12000,"station_id":"cpo3342slgdg3j2ifvpg","pricing_plan_id":"cebpf4jnsgd1na2vs0mg"},{"bike_id":"a6aa686e-e720-4fab-8df8-87bcb103260f","system_id":"levelo_inurba_marseille","lat":43.28696,"lon":5.39978,"is_reserved":false,"is_disabled":false,"rental_uris":{"android":"levelo://app?vid=a6aa686e-e720-4fab-8df8-87bcb103260f","ios":"levelo://app?vid=a6aa686e-e720-4fab-8df8-87bcb103260f"},"vehicle_type_id":"4","last_reported":1743613703,"current_range_meters":12000,"station_id":"ce4bho92rcd13ifvqh3g","pricing_plan_id":"cebpf4jnsgd1na2vs0mg"},{"bike_id":"d164b012-632f-40b4-b3f9-adab480bb375","system_id":"levelo_inurba_marseille","lat":43.295845,"lon":5.375,"is_reserved":false,"is_disabled":false,"rental_uris":{"android":"levelo://app?vid=d164b012-632f-40b4-b3f9-adab480bb375","ios":"levelo://app?vid=d164b012-632f-40b4-b3f9-adab480bb375"},"vehicle_type_id":"4","last_reported":1743613703,"current_range_meters":12000,"station_id":"ce4bhqp2rcd13ifvqhng","pricing_plan_id":"cebpf4jnsgd1na2vs0mg"},{"bike_id":"7d49898d-4c6e-4131-9fdb-37de62f2c79c","system_id":"levelo_inurba_marseille","lat":43.28895,"lon":5.37136,"is_reserved":false,"is_disabled":false,"rental_uris":{"android":"levelo://app?vid=7d49898d-4c6e-4131-9fdb-37de62f2c79c","ios":"levelo://app?vid=7d49898d-4c6e-4131-9fdb-37de62f2c79c"},"vehicle_type_id":"4","last_reported":1743613703,"current_range_meters":12000,"station_id":"","pricing_plan_id":"cebpf4jnsgd1na2vs0mg"},{"bike_id":"054bd084-de56-414f-9ea4-2892c7a1f3f1","system_id":"levelo_inurba_marseille","lat":43.28161,"lon":5.42636,"is_reserved":false,"is_disabled":false,"rental_uris":{"android":"levelo://app?vid=054bd084-de56-414f-9ea4-2892c7a1f3f1","ios":"levelo://app?vid=054bd084-de56-414f-9ea4-2892c7a1f3f1"},"vehicle_type_id":"4","last_reported":1743613703,"current_range_meters":12000,"station_id":"ce4bhnh2rcd13ifvqgug","pricing_plan_id":"cebpf4jnsgd1na2vs0mg"},{"bike_id":"7226ba5d-e979-4fb1-88b9-1dd2cacb5644","system_id":"levelo_inurba_marseille","lat":43.2942,"lon":5.38627,"is_reserved":false,"is_disabled":false,"rental_uris":{"android":"levelo://app?vid=7226ba5d-e979-4fb1-88b9-1dd2cacb5644","ios":"levelo://app?vid=7226ba5d-e979-4fb1-88b9-1dd2cacb5644"},"vehicle_type_id":"4","last_reported":1743613703,"current_range_meters":12000,"station_id":"ce4bh2h2rcd13ifvqdh0","pricing_plan_id":"cebpf4jnsgd1na2vs0mg"},{"bike_id":"a9acc516-116a-4384-b8ac-97e0fa2fe987","system_id":"levelo_inurba_marseille","lat":43.27058,"lon":5.40265,"is_reserved":false,"is_disabled":false,"rental_uris":{"android":"levelo://app?vid=a9acc516-116a-4384-b8ac-97e0fa2fe987","ios":"levelo://app?vid=a9acc516-116a-4384-b8ac-97e0fa2fe987"},"vehicle_type_id":"4","last_reported":1743613703,"current_range_meters":12000,"station_id":"ce4bhk92rcd13ifvqgc0","pricing_plan_id":"cebpf4jnsgd1na2vs0mg"},{"bike_id":"e434e34d-64e0-4c52-a6a1-a74528b7e8f0","system_id":"levelo_inurba_marseille","lat":43.30956,"lon":5.39045,"is_reserved":false,"is_disabled":false,"rental_uris":{"android":"levelo://app?vid=e434e34d-64e0-4c52-a6a1-a74528b7e8f0","ios":"levelo://app?vid=e434e34d-64e0-4c52-a6a1-a74528b7e8f0"},"vehicle_type_id":"4","last_reported":1743613703,"current_range_meters":12400,"station_id":"ce4bgup2rcd13ifvqco0","pricing_plan_id":"cebpf4jnsgd1na2vs0mg"},{"bike_id":"8e6103ff-61c5-4f9e-a81b-13bc73faf977","system_id":"levelo_inurba_marseille","lat":43.31171,"lon":5.3871,"is_reserved":false,"is_disabled":false,"rental_uris":{"android":"levelo://app?vid=8e6103ff-61c5-4f9e-a81b-13bc73faf977","ios":"levelo://app?vid=8e6103ff-61c5-4f9e-a81b-13bc73faf977"},"vehicle_type_id":"4","last_reported":1743613703,"current_range_meters":12400,"station_id":"ce4bgv12rcd13ifvqcp0","pricing_plan_id":"cebpf4jnsgd1na2vs0mg"},{"bike_id":"0e4d5999-a7bb-4e6e-a0f2-98c9d254a7fd","system_id":"levelo_inurba_marseille","lat":43.29603,"lon":5.38097,"is_reserved":false,"is_disabled":false,"rental_uris":{"android":"levelo://app?vid=0e4d5999-a7bb-4e6e-a0f2-98c9d254a7fd","ios":"levelo://app?vid=0e4d5999-a7bb-4e6e-a0f2-98c9d254a7fd"},"vehicle_type_id":"4","last_reported":1743613703,"current_range_meters":12400,"station_id":"ce4bgl12rcd13ifvqbo0","pricing_plan_id":"cebpf4jnsgd1na2vs0mg"},{"bike_id":"878dd3c8-3cdb-41db-bf72-9463941aa382","system_id":"levelo_inurba_marseille","lat":43.29418,"lon":5.38621,"is_reserved":false,"is_disabled":false,"rental_uris":{"android":"levelo://app?vid=878dd3c8-3cdb-41db-bf72-9463941aa382","ios":"levelo://app?vid=878dd3c8-3cdb-41db-bf72-9463941aa382"},"vehicle_type_id":"4","last_reported":1743613703,"current_range_meters":12400,"station_id":"ce4bh2h2rcd13ifvqdh0","pricing_plan_id":"cebpf4jnsgd1na2vs0mg"},{"bike_id":"ddf4f7bc-b429-4ca6-98cc-3ac180d0ed5f","system_id":"levelo_inurba_marseille","lat":43.2319,"lon":5.35568,"is_reserved":false,"is_disabled":false,"rental_uris":{"android":"levelo://app?vid=ddf4f7bc-b429-4ca6-98cc-3ac180d0ed5f","ios":"levelo://app?vid=ddf4f7bc-b429-4ca6-98cc-3ac180d0ed5f"},"vehicle_type_id":"4","last_reported":1743613703,"current_range_meters":12400,"station_id":"ce4bhu92rcd13ifvqi70","pricing_plan_id":"cebpf4jnsgd1na2vs0mg"},{"bike_id":"b05b8880-44ca-4293-bf65-7b8671c8f465","system_id":"levelo_inurba_marseille","lat":43.31905,"lon":5.40732,"is_reserved":false,"is_disabled":false,"rental_uris":{"android":"levelo://app?vid=b05b8880-44ca-4293-bf65-7b8671c8f465","ios":"levelo://app?vid=b05b8880-44ca-4293-bf65-7b8671c8f465"},"vehicle_type_id":"4","last_reported":1743613703,"current_range_meters":12400,"station_id":"ce4bhq12rcd13ifvqhig","pricing_plan_id":"cebpf4jnsgd1na2vs0mg"},{"bike_id":"70e5b39f-29e3-4ea9-aa83-5a60a8eec6f8","system_id":"levelo_inurba_marseille","lat":43.25122,"lon":5.41734,"is_reserved":false,"is_disabled":false,"rental_uris":{"android":"levelo://app?vid=70e5b39f-29e3-4ea9-aa83-5a60a8eec6f8","ios":"levelo://app?vid=70e5b39f-29e3-4ea9-aa83-5a60a8eec6f8"},"vehicle_type_id":"4","last_reported":1743613703,"current_range_meters":12400,"station_id":"","pricing_plan_id":"cebpf4jnsgd1na2vs0mg"},{"bike_id":"18b33a43-8113-4d0f-b40c-6a7201a04dd5","system_id":"levelo_inurba_marseille","lat":43.32368,"lon":5.3676,"is_reserved":false,"is_disabled":false,"rental_uris":{"android":"levelo://app?vid=18b33a43-8113-4d0f-b40c-6a7201a04dd5","ios":"levelo://app?vid=18b33a43-8113-4d0f-b40c-6a7201a04dd5"},"vehicle_type_id":"4","last_reported":1743613703,"current_range_meters":12400,"station_id":"ce4bhsh2rcd13ifvqi2g","pricing_plan_id":"cebpf4jnsgd1na2vs0mg"},{"bike_id":"12cb60cf-9d88-49f1-a85d-1512cf71880c","system_id":"levelo_inurba_marseille","lat":43.297694,"lon":5.371988,"is_reserved":false,"is_disabled":false,"rental_uris":{"android":"levelo://app?vid=12cb60cf-9d88-49f1-a85d-1512cf71880c","ios":"levelo://app?vid=12cb60cf-9d88-49f1-a85d-1512cf71880c"},"vehicle_type_id":"4","last_reported":1743613703,"current_range_meters":12800,"station_id":"ce4bgop2rcd13ifvqc1g","pricing_plan_id":"cebpf4jnsgd1na2vs0mg"},{"bike_id":"75799d12-41d0-4775-9297-424244664a70","system_id":"levelo_inurba_marseille","lat":43.262022,"lon":5.379307,"is_reserved":false,"is_disabled":false,"rental_uris":{"android":"levelo://app?vid=75799d12-41d0-4775-9297-424244664a70","ios":"levelo://app?vid=75799d12-41d0-4775-9297-424244664a70"},"vehicle_type_id":"4","last_reported":1743613703,"current_range_meters":12400,"station_id":"ce4bhhp2rcd13ifvqfm0","pricing_plan_id":"cebpf4jnsgd1na2vs0mg"},{"bike_id":"cd83c8ac-ed09-4369-9279-b6f36f2bbd3c","system_id":"levelo_inurba_marseille","lat":43.308054,"lon":5.382483,"is_reserved":false,"is_disabled":false,"rental_uris":{"android":"levelo://app?vid=cd83c8ac-ed09-4369-9279-b6f36f2bbd3c","ios":"levelo://app?vid=cd83c8ac-ed09-4369-9279-b6f36f2bbd3c"},"vehicle_type_id":"4","last_reported":1743613703,"current_range_meters":12800,"station_id":"","pricing_plan_id":"cebpf4jnsgd1na2vs0mg"},{"bike_id":"c062c5b4-53da-4c35-b5dc-62fb649daeec","system_id":"levelo_inurba_marseille","lat":43.31279,"lon":5.40167,"is_reserved":false,"is_disabled":false,"rental_uris":{"android":"levelo://app?vid=c062c5b4-53da-4c35-b5dc-62fb649daeec","ios":"levelo://app?vid=c062c5b4-53da-4c35-b5dc-62fb649daeec"},"vehicle_type_id":"4","last_reported":1743613703,"current_range_meters":12400,"station_id":"ce4bh092rcd13ifvqd30","pricing_plan_id":"cebpf4jnsgd1na2vs0mg"},{"bike_id":"2a1862c8-8e69-49de-88ff-6e7d4cdbc4dd","system_id":"levelo_inurba_marseille","lat":43.30306,"lon":5.39206,"is_reserved":false,"is_disabled":false,"rental_uris":{"android":"levelo://app?vid=2a1862c8-8e69-49de-88ff-6e7d4cdbc4dd","ios":"levelo://app?vid=2a1862c8-8e69-49de-88ff-6e7d4cdbc4dd"},"vehicle_type_id":"4","last_reported":1743613703,"current_range_meters":12800,"station_id":"ce4bgkh2rcd13ifvqbk0","pricing_plan_id":"cebpf4jnsgd1na2vs0mg"},{"bike_id":"e111ace5-39c9-4488-9abf-b8ef3074cbfe","system_id":"levelo_inurba_marseille","lat":43.26583,"lon":5.37284,"is_reserved":false,"is_disabled":false,"rental_uris":{"android":"levelo://app?vid=e111ace5-39c9-4488-9abf-b8ef3074cbfe","ios":"levelo://app?vid=e111ace5-39c9-4488-9abf-b8ef3074cbfe"},"vehicle_type_id":"4","last_reported":1743613703,"current_range_meters":12800,"station_id":"ce4bhg12rcd13ifvqf70","pricing_plan_id":"cebpf4jnsgd1na2vs0mg"},{"bike_id":"1925d2eb-79cc-4495-ac55-0d86108c91ee","system_id":"levelo_inurba_marseille","lat":43.23784,"lon":5.39608,"is_reserved":false,"is_disabled":false,"rental_uris":{"android":"levelo://app?vid=1925d2eb-79cc-4495-ac55-0d86108c91ee","ios":"levelo://app?vid=1925d2eb-79cc-4495-ac55-0d86108c91ee"},"vehicle_type_id":"4","last_reported":1743613703,"current_range_meters":12800,"station_id":"","pricing_plan_id":"cebpf4jnsgd1na2vs0mg"},{"bike_id":"eca000f3-7adb-462c-b7ed-61fb5b2098fc","system_id":"levelo_inurba_marseille","lat":43.22932,"lon":5.35389,"is_reserved":false,"is_disabled":false,"rental_uris":{"android":"levelo://app?vid=eca000f3-7adb-462c-b7ed-61fb5b2098fc","ios":"levelo://app?vid=eca000f3-7adb-462c-b7ed-61fb5b2098fc"},"vehicle_type_id":"4","last_reported":1743613703,"current_range_meters":12800,"station_id":"cpo3532slgdg3j2ikp40","pricing_plan_id":"cebpf4jnsgd1na2vs0mg"},{"bike_id":"de9c20a8-75f2-42b8-a46d-838322bce76e","system_id":"levelo_inurba_marseille","lat":43.29196,"lon":5.39314,"is_reserved":false,"is_disabled":false,"rental_uris":{"android":"levelo://app?vid=de9c20a8-75f2-42b8-a46d-838322bce76e","ios":"levelo://app?vid=de9c20a8-75f2-42b8-a46d-838322bce76e"},"vehicle_type_id":"4","last_reported":1743613703,"current_range_meters":13600,"station_id":"ce4bh192rcd13ifvqdd0","pricing_plan_id":"cebpf4jnsgd1na2vs0mg"},{"bike_id":"6e05811e-06e7-4304-8ce9-6c25e6bc01dd","system_id":"levelo_inurba_marseille","lat":43.32104,"lon":5.36788,"is_reserved":false,"is_disabled":false,"rental_uris":{"android":"levelo://app?vid=6e05811e-06e7-4304-8ce9-6c25e6bc01dd","ios":"levelo://app?vid=6e05811e-06e7-4304-8ce9-6c25e6bc01dd"},"vehicle_type_id":"4","last_reported":1743613703,"current_range_meters":13600,"station_id":"ce4bhrh2rcd13ifvqhug","pricing_plan_id":"cebpf4jnsgd1na2vs0mg"},{"bike_id":"2add234d-7402-479c-977a-fa2fb6ba5cab","system_id":"levelo_inurba_marseille","lat":43.30788,"lon":5.37653,"is_reserved":false,"is_disabled":false,"rental_uris":{"android":"levelo://app?vid=2add234d-7402-479c-977a-fa2fb6ba5cab","ios":"levelo://app?vid=2add234d-7402-479c-977a-fa2fb6ba5cab"},"vehicle_type_id":"4","last_reported":1743613703,"current_range_meters":14000,"station_id":"ce4bgv92rcd13ifvqcq0","pricing_plan_id":"cebpf4jnsgd1na2vs0mg"},{"bike_id":"73b5fd83-f66c-44b6-b1b9-0a65108feead","system_id":"levelo_inurba_marseille","lat":43.28402,"lon":5.37515,"is_reserved":false,"is_disabled":false,"rental_uris":{"android":"levelo://app?vid=73b5fd83-f66c-44b6-b1b9-0a65108feead","ios":"levelo://app?vid=73b5fd83-f66c-44b6-b1b9-0a65108feead"},"vehicle_type_id":"4","last_reported":1743613703,"current_range_meters":13600,"station_id":"ce4bh412rcd13ifvqds0","pricing_plan_id":"cebpf4jnsgd1na2vs0mg"},{"bike_id":"4b29f8a3-1b56-4fb2-afdb-d95a0927605b","system_id":"levelo_inurba_marseille","lat":43.29538,"lon":5.39055,"is_reserved":false,"is_disabled":false,"rental_uris":{"android":"levelo://app?vid=4b29f8a3-1b56-4fb2-afdb-d95a0927605b","ios":"levelo://app?vid=4b29f8a3-1b56-4fb2-afdb-d95a0927605b"},"vehicle_type_id":"4","last_reported":1743613703,"current_range_meters":13600,"station_id":"ce4bh3p2rcd13ifvqdp0","pricing_plan_id":"cebpf4jnsgd1na2vs0mg"},{"bike_id":"9f62f29e-b083-4314-9e82-a49e79ecd17d","system_id":"levelo_inurba_marseille","lat":43.22936,"lon":5.3538,"is_reserved":false,"is_disabled":false,"rental_uris":{"android":"levelo://app?vid=9f62f29e-b083-4314-9e82-a49e79ecd17d","ios":"levelo://app?vid=9f62f29e-b083-4314-9e82-a49e79ecd17d"},"vehicle_type_id":"4","last_reported":1743613703,"current_range_meters":13600,"station_id":"cpo3532slgdg3j2ikp40","pricing_plan_id":"cebpf4jnsgd1na2vs0mg"},{"bike_id":"7234fd6a-6cbf-495e-92b2-b3fb338a3ced","system_id":"levelo_inurba_marseille","lat":43.29028,"lon":5.38133,"is_reserved":false,"is_disabled":false,"rental_uris":{"android":"levelo://app?vid=7234fd6a-6cbf-495e-92b2-b3fb338a3ced","ios":"levelo://app?vid=7234fd6a-6cbf-495e-92b2-b3fb338a3ced"},"vehicle_type_id":"4","last_reported":1743613703,"current_range_meters":14000,"station_id":"ce4bh4p2rcd13ifvqe1g","pricing_plan_id":"cebpf4jnsgd1na2vs0mg"},{"bike_id":"d8672eb3-a81e-4920-86ad-fe61b3cb8c5c","system_id":"levelo_inurba_marseille","lat":43.31281,"lon":5.40161,"is_reserved":false,"is_disabled":false,"rental_uris":{"android":"levelo://app?vid=d8672eb3-a81e-4920-86ad-fe61b3cb8c5c","ios":"levelo://app?vid=d8672eb3-a81e-4920-86ad-fe61b3cb8c5c"},"vehicle_type_id":"4","last_reported":1743613703,"current_range_meters":13600,"station_id":"ce4bh092rcd13ifvqd30","pricing_plan_id":"cebpf4jnsgd1na2vs0mg"},{"bike_id":"55fdb5ab-0651-420c-b988-7a9eeb0292d2","system_id":"levelo_inurba_marseille","lat":43.28929,"lon":5.38384,"is_reserved":false,"is_disabled":false,"rental_uris":{"android":"levelo://app?vid=55fdb5ab-0651-420c-b988-7a9eeb0292d2","ios":"levelo://app?vid=55fdb5ab-0651-420c-b988-7a9eeb0292d2"},"vehicle_type_id":"4","last_reported":1743613703,"current_range_meters":14400,"station_id":"ce4bh612rcd13ifvqe6g","pricing_plan_id":"cebpf4jnsgd1na2vs0mg"},{"bike_id":"e1795a93-3ad8-49e0-99c9-46fa00857d16","system_id":"levelo_inurba_marseille","lat":43.27815,"lon":5.4071,"is_reserved":false,"is_disabled":false,"rental_uris":{"android":"levelo://app?vid=e1795a93-3ad8-49e0-99c9-46fa00857d16","ios":"levelo://app?vid=e1795a93-3ad8-49e0-99c9-46fa00857d16"},"vehicle_type_id":"4","last_reported":1743613703,"current_range_meters":14400,"station_id":"ce4bhnh2rcd13ifvqgtg","pricing_plan_id":"cebpf4jnsgd1na2vs0mg"},{"bike_id":"b42a3554-6cf7-4ca6-a5f8-09a2b004ea30","system_id":"levelo_inurba_marseille","lat":43.30523,"lon":5.36545,"is_reserved":false,"is_disabled":false,"rental_uris":{"android":"levelo://app?vid=b42a3554-6cf7-4ca6-a5f8-09a2b004ea30","ios":"levelo://app?vid=b42a3554-6cf7-4ca6-a5f8-09a2b004ea30"},"vehicle_type_id":"4","last_reported":1743613703,"current_range_meters":14400,"station_id":"ce4bgs12rcd13ifvqcag","pricing_plan_id":"cebpf4jnsgd1na2vs0mg"},{"bike_id":"2b7563bf-72ce-4546-bdfe-0681f54925e9","system_id":"levelo_inurba_marseille","lat":43.29254,"lon":5.38432,"is_reserved":false,"is_disabled":true,"rental_uris":{"android":"levelo://app?vid=2b7563bf-72ce-4546-bdfe-0681f54925e9","ios":"levelo://app?vid=2b7563bf-72ce-4546-bdfe-0681f54925e9"},"vehicle_type_id":"4","last_reported":1743613703,"current_range_meters":14400,"station_id":"ce4bh692rcd13ifvqea0","pricing_plan_id":"cebpf4jnsgd1na2vs0mg"},{"bike_id":"b86b5b87-f029-48ac-aa00-3a50d7e2c1d2","system_id":"levelo_inurba_marseille","lat":43.3236,"lon":5.36759,"is_reserved":false,"is_disabled":true,"rental_uris":{"android":"levelo://app?vid=b86b5b87-f029-48ac-aa00-3a50d7e2c1d2","ios":"levelo://app?vid=b86b5b87-f029-48ac-aa00-3a50d7e2c1d2"},"vehicle_type_id":"4","last_reported":1743613703,"current_range_meters":14400,"station_id":"ce4bhsh2rcd13ifvqi2g","pricing_plan_id":"cebpf4jnsgd1na2vs0mg"},{"bike_id":"ddacc778-3175-4c50-94bf-bd4fcc0ef987","system_id":"levelo_inurba_marseille","lat":43.287,"lon":5.37385,"is_reserved":false,"is_disabled":false,"rental_uris":{"android":"levelo://app?vid=ddacc778-3175-4c50-94bf-bd4fcc0ef987","ios":"levelo://app?vid=ddacc778-3175-4c50-94bf-bd4fcc0ef987"},"vehicle_type_id":"4","last_reported":1743613703,"current_range_meters":14800,"station_id":"ce4bh3p2rcd13ifvqdq0","pricing_plan_id":"cebpf4jnsgd1na2vs0mg"},{"bike_id":"686058e3-e42a-4fae-9e9b-6399b7c6db7a","system_id":"levelo_inurba_marseille","lat":43.2903,"lon":5.37568,"is_reserved":false,"is_disabled":false,"rental_uris":{"android":"levelo://app?vid=686058e3-e42a-4fae-9e9b-6399b7c6db7a","ios":"levelo://app?vid=686058e3-e42a-4fae-9e9b-6399b7c6db7a"},"vehicle_type_id":"4","last_reported":1743613703,"current_range_meters":14800,"station_id":"ce4bh692rcd13ifvqe90","pricing_plan_id":"cebpf4jnsgd1na2vs0mg"},{"bike_id":"22d47046-8bb1-41ae-9bb4-96eb088b2e63","system_id":"levelo_inurba_marseille","lat":43.321174,"lon":5.367665,"is_reserved":false,"is_disabled":false,"rental_uris":{"android":"levelo://app?vid=22d47046-8bb1-41ae-9bb4-96eb088b2e63","ios":"levelo://app?vid=22d47046-8bb1-41ae-9bb4-96eb088b2e63"},"vehicle_type_id":"4","last_reported":1743613703,"current_range_meters":14800,"station_id":"ce4bhrh2rcd13ifvqhug","pricing_plan_id":"cebpf4jnsgd1na2vs0mg"},{"bike_id":"73760b39-f171-4af1-8e1e-a56b88ec6f05","system_id":"levelo_inurba_marseille","lat":43.25581,"lon":5.38228,"is_reserved":false,"is_disabled":false,"rental_uris":{"android":"levelo://app?vid=73760b39-f171-4af1-8e1e-a56b88ec6f05","ios":"levelo://app?vid=73760b39-f171-4af1-8e1e-a56b88ec6f05"},"vehicle_type_id":"4","last_reported":1743613703,"current_range_meters":14800,"station_id":"ce4bhih2rcd13ifvqfs0","pricing_plan_id":"cebpf4jnsgd1na2vs0mg"},{"bike_id":"97aa5e6f-e45b-4e21-a47e-52761ee9cdb1","system_id":"levelo_inurba_marseille","lat":43.32107,"lon":5.36823,"is_reserved":false,"is_disabled":false,"rental_uris":{"android":"levelo://app?vid=97aa5e6f-e45b-4e21-a47e-52761ee9cdb1","ios":"levelo://app?vid=97aa5e6f-e45b-4e21-a47e-52761ee9cdb1"},"vehicle_type_id":"4","last_reported":1743613703,"current_range_meters":14800,"station_id":"ce4bhrh2rcd13ifvqhug","pricing_plan_id":"cebpf4jnsgd1na2vs0mg"},{"bike_id":"e6f02e74-383c-4bae-b8c4-037430863270","system_id":"levelo_inurba_marseille","lat":43.23059,"lon":5.35478,"is_reserved":false,"is_disabled":false,"rental_uris":{"android":"levelo://app?vid=e6f02e74-383c-4bae-b8c4-037430863270","ios":"levelo://app?vid=e6f02e74-383c-4bae-b8c4-037430863270"},"vehicle_type_id":"4","last_reported":1743613703,"current_range_meters":15200,"station_id":"cpo3342slgdg3j2ifvpg","pricing_plan_id":"cebpf4jnsgd1na2vs0mg"},{"bike_id":"bb745ff7-e372-47cd-8e7a-5658e3435a0c","system_id":"levelo_inurba_marseille","lat":43.30261,"lon":5.400794,"is_reserved":false,"is_disabled":false,"rental_uris":{"android":"levelo://app?vid=bb745ff7-e372-47cd-8e7a-5658e3435a0c","ios":"levelo://app?vid=bb745ff7-e372-47cd-8e7a-5658e3435a0c"},"vehicle_type_id":"4","last_reported":1743613703,"current_range_meters":14800,"station_id":"","pricing_plan_id":"cebpf4jnsgd1na2vs0mg"},{"bike_id":"a255f843-8dac-47c9-8180-c08df1f32282","system_id":"levelo_inurba_marseille","lat":43.29784,"lon":5.39338,"is_reserved":false,"is_disabled":false,"rental_uris":{"android":"levelo://app?vid=a255f843-8dac-47c9-8180-c08df1f32282","ios":"levelo://app?vid=a255f843-8dac-47c9-8180-c08df1f32282"},"vehicle_type_id":"4","last_reported":1743613703,"current_range_meters":14400,"station_id":"chh1huq6cuj3fo74tm60","pricing_plan_id":"cebpf4jnsgd1na2vs0mg"},{"bike_id":"95019719-c74f-41a1-a986-f0fc3550d793","system_id":"levelo_inurba_marseille","lat":43.24999,"lon":5.38925,"is_reserved":false,"is_disabled":false,"rental_uris":{"android":"levelo://app?vid=95019719-c74f-41a1-a986-f0fc3550d793","ios":"levelo://app?vid=95019719-c74f-41a1-a986-f0fc3550d793"},"vehicle_type_id":"4","last_reported":1743613703,"current_range_meters":15200,"station_id":"ce4bhgp2rcd13ifvqfd0","pricing_plan_id":"cebpf4jnsgd1na2vs0mg"},{"bike_id":"e699a15f-114f-4b23-964a-04858d60934b","system_id":"levelo_inurba_marseille","lat":43.29261,"lon":5.38424,"is_reserved":false,"is_disabled":false,"rental_uris":{"android":"levelo://app?vid=e699a15f-114f-4b23-964a-04858d60934b","ios":"levelo://app?vid=e699a15f-114f-4b23-964a-04858d60934b"},"vehicle_type_id":"4","last_reported":1743613703,"current_range_meters":15200,"station_id":"ce4bh692rcd13ifvqea0","pricing_plan_id":"cebpf4jnsgd1na2vs0mg"},{"bike_id":"1a592dd4-05f6-451a-a281-45bcd19f68ca","system_id":"levelo_inurba_marseille","lat":43.23206,"lon":5.40026,"is_reserved":false,"is_disabled":false,"rental_uris":{"android":"levelo://app?vid=1a592dd4-05f6-451a-a281-45bcd19f68ca","ios":"levelo://app?vid=1a592dd4-05f6-451a-a281-45bcd19f68ca"},"vehicle_type_id":"4","last_reported":1743613703,"current_range_meters":15200,"station_id":"ce4bhn12rcd13ifvqgqg","pricing_plan_id":"cebpf4jnsgd1na2vs0mg"},{"bike_id":"6fd15896-5697-470b-8f07-45b11106795c","system_id":"levelo_inurba_marseille","lat":43.32082,"lon":5.36815,"is_reserved":false,"is_disabled":false,"rental_uris":{"android":"levelo://app?vid=6fd15896-5697-470b-8f07-45b11106795c","ios":"levelo://app?vid=6fd15896-5697-470b-8f07-45b11106795c"},"vehicle_type_id":"4","last_reported":1743613703,"current_range_meters":15200,"station_id":"ce4bhrh2rcd13ifvqhug","pricing_plan_id":"cebpf4jnsgd1na2vs0mg"},{"bike_id":"dbdeedbd-7d2e-47f2-8b98-21e3027ef22e","system_id":"levelo_inurba_marseille","lat":43.27178,"lon":5.40997,"is_reserved":false,"is_disabled":false,"rental_uris":{"android":"levelo://app?vid=dbdeedbd-7d2e-47f2-8b98-21e3027ef22e","ios":"levelo://app?vid=dbdeedbd-7d2e-47f2-8b98-21e3027ef22e"},"vehicle_type_id":"4","last_reported":1743613703,"current_range_meters":15200,"station_id":"ce4bhl12rcd13ifvqgf0","pricing_plan_id":"cebpf4jnsgd1na2vs0mg"},{"bike_id":"ae472ef5-d861-4be0-a3de-d46f779ff2a8","system_id":"levelo_inurba_marseille","lat":43.29417,"lon":5.38628,"is_reserved":false,"is_disabled":false,"rental_uris":{"android":"levelo://app?vid=ae472ef5-d861-4be0-a3de-d46f779ff2a8","ios":"levelo://app?vid=ae472ef5-d861-4be0-a3de-d46f779ff2a8"},"vehicle_type_id":"4","last_reported":1743613703,"current_range_meters":16000,"station_id":"ce4bh2h2rcd13ifvqdh0","pricing_plan_id":"cebpf4jnsgd1na2vs0mg"},{"bike_id":"7a072446-dc09-4bab-9f63-33beba95acd3","system_id":"levelo_inurba_marseille","lat":43.29011,"lon":5.381223,"is_reserved":false,"is_disabled":false,"rental_uris":{"android":"levelo://app?vid=7a072446-dc09-4bab-9f63-33beba95acd3","ios":"levelo://app?vid=7a072446-dc09-4bab-9f63-33beba95acd3"},"vehicle_type_id":"4","last_reported":1743613703,"current_range_meters":15200,"station_id":"ce4bhbp2rcd13ifvqerg","pricing_plan_id":"cebpf4jnsgd1na2vs0mg"},{"bike_id":"97c0eecc-8787-4395-b6d9-f622fd6dd4ee","system_id":"levelo_inurba_marseille","lat":43.26128,"lon":5.40991,"is_reserved":false,"is_disabled":true,"rental_uris":{"android":"levelo://app?vid=97c0eecc-8787-4395-b6d9-f622fd6dd4ee","ios":"levelo://app?vid=97c0eecc-8787-4395-b6d9-f622fd6dd4ee"},"vehicle_type_id":"4","last_reported":1743613703,"current_range_meters":16000,"station_id":"","pricing_plan_id":"cebpf4jnsgd1na2vs0mg"},{"bike_id":"e3a29d38-a611-4b12-87ef-2fb8a21c41d5","system_id":"levelo_inurba_marseille","lat":43.22926,"lon":5.3538,"is_reserved":false,"is_disabled":false,"rental_uris":{"android":"levelo://app?vid=e3a29d38-a611-4b12-87ef-2fb8a21c41d5","ios":"levelo://app?vid=e3a29d38-a611-4b12-87ef-2fb8a21c41d5"},"vehicle_type_id":"4","last_reported":1743613703,"current_range_meters":16000,"station_id":"cpo3532slgdg3j2ikp40","pricing_plan_id":"cebpf4jnsgd1na2vs0mg"},{"bike_id":"78ca934a-98c9-4dbc-b5b6-c2ca906050d2","system_id":"levelo_inurba_marseille","lat":43.29747,"lon":5.38948,"is_reserved":false,"is_disabled":false,"rental_uris":{"android":"levelo://app?vid=78ca934a-98c9-4dbc-b5b6-c2ca906050d2","ios":"levelo://app?vid=78ca934a-98c9-4dbc-b5b6-c2ca906050d2"},"vehicle_type_id":"4","last_reported":1743613703,"current_range_meters":16000,"station_id":"","pricing_plan_id":"cebpf4jnsgd1na2vs0mg"},{"bike_id":"3dbc3d46-7777-4ee1-abe2-41ae010c9497","system_id":"levelo_inurba_marseille","lat":43.29532,"lon":5.39023,"is_reserved":false,"is_disabled":true,"rental_uris":{"android":"levelo://app?vid=3dbc3d46-7777-4ee1-abe2-41ae010c9497","ios":"levelo://app?vid=3dbc3d46-7777-4ee1-abe2-41ae010c9497"},"vehicle_type_id":"4","last_reported":1743613703,"current_range_meters":16000,"station_id":"ce4bh3p2rcd13ifvqdp0","pricing_plan_id":"cebpf4jnsgd1na2vs0mg"},{"bike_id":"c1c63035-c83b-4419-8cbf-133778d95125","system_id":"levelo_inurba_marseille","lat":43.298,"lon":5.39362,"is_reserved":false,"is_disabled":true,"rental_uris":{"android":"levelo://app?vid=c1c63035-c83b-4419-8cbf-133778d95125","ios":"levelo://app?vid=c1c63035-c83b-4419-8cbf-133778d95125"},"vehicle_type_id":"4","last_reported":1743613703,"current_range_meters":16000,"station_id":"chh1huq6cuj3fo74tm60","pricing_plan_id":"cebpf4jnsgd1na2vs0mg"},