{"last_updated":1781371665,"ttl":60,"version":"2.2","data":{"bikes":[{"bike_id":"ec12d144-24c8-4071-abf6-197e520eae96","system_id":"levelo_inurba_marseille","lat":43.337444,"lon":5.374475,"is_reserved":false,"is_disabled":false,"rental_uris":{"android":"levelo://app?vid=ec12d144-24c8-4071-abf6-197e520eae96","ios":"levelo://app?vid=ec12d144-24c8-4071-abf6-197e520eae96"},"vehicle_type_id":"4","last_reported":1781371667,"current_range_meters":0,"station_id":"","pricing_plan_id":"cebpf4jnsgd1na2vs0mg"},{"bike_id":"4bbd9026-ac9b-4dc1-97ad-6610089734db","system_id":"levelo_inurba_marseille","lat":43.31563,"lon":5.38785,"is_reserved":false,"is_disabled":false,"rental_uris":{"android":"levelo://app?vid=4bbd9026-ac9b-4dc1-97ad-6610089734db","ios":"levelo://app?vid=4bbd9026-ac9b-4dc1-97ad-6610089734db"},"vehicle_type_id":"4","last_reported":1781371667,"current_range_meters":2800,"station_id":"","pricing_plan_id":"cebpf4jnsgd1na2vs0mg"},{"bike_id":"cba86c7c-a53f-467a-83d4-48517f813833","system_id":"levelo_inurba_marseille","lat":43.30548,"lon":5.36548,"is_reserved":false,"is_disabled":false,"rental_uris":{"android":"levelo://app?vid=cba86c7c-a53f-467a-83d4-48517f813833","ios":"levelo://app?vid=cba86c7c-a53f-467a-83d4-48517f813833"},"vehicle_type_id":"4","last_reported":1781371667,"current_range_meters":2800,"station_id":"ce4bgs12rcd13ifvqcag","pricing_plan_id":"cebpf4jnsgd1na2vs0mg"},{"bike_id":"d56f6290-5d40-4e64-a2eb-c247f7234035","system_id":"levelo_inurba_marseille","lat":43.31371,"lon":5.38491,"is_reserved":false,"is_disabled":false,"rental_uris":{"android":"levelo://app?vid=d56f6290-5d40-4e64-a2eb-c247f7234035","ios":"levelo://app?vid=d56f6290-5d40-4e64-a2eb-c247f7234035"},"vehicle_type_id":"4","last_reported":1781371667,"current_range_meters":2800,"station_id":"ce4bgt92rcd13ifvqcf0","pricing_plan_id":"cebpf4jnsgd1na2vs0mg"},{"bike_id":"04471959-a257-4ca2-a86a-b4f801254db8","system_id":"levelo_inurba_marseille","lat":43.26805,"lon":5.37543,"is_reserved":false,"is_disabled":false,"rental_uris":{"android":"levelo://app?vid=04471959-a257-4ca2-a86a-b4f801254db8","ios":"levelo://app?vid=04471959-a257-4ca2-a86a-b4f801254db8"},"vehicle_type_id":"4","last_reported":1781371667,"current_range_meters":2800,"station_id":"","pricing_plan_id":"cebpf4jnsgd1na2vs0mg"},{"bike_id":"94581546-6d02-4038-85cb-89bf62ad18bf","system_id":"levelo_inurba_marseille","lat":43.32656,"lon":5.40989,"is_reserved":false,"is_disabled":true,"rental_uris":{"android":"levelo://app?vid=94581546-6d02-4038-85cb-89bf62ad18bf","ios":"levelo://app?vid=94581546-6d02-4038-85cb-89bf62ad18bf"},"vehicle_type_id":"4","last_reported":1781371667,"current_range_meters":2800,"station_id":"ce4bhpp2rcd13ifvqhgg","pricing_plan_id":"cebpf4jnsgd1na2vs0mg"},{"bike_id":"9ca96dea-ecf9-4ee2-8d88-2eebb8941d47","system_id":"levelo_inurba_marseille","lat":43.30919,"lon":5.40158,"is_reserved":false,"is_disabled":false,"rental_uris":{"android":"levelo://app?vid=9ca96dea-ecf9-4ee2-8d88-2eebb8941d47","ios":"levelo://app?vid=9ca96dea-ecf9-4ee2-8d88-2eebb8941d47"},"vehicle_type_id":"4","last_reported":1781371667,"current_range_meters":2800,"station_id":"ce4bgvp2rcd13ifvqct0","pricing_plan_id":"cebpf4jnsgd1na2vs0mg"},{"bike_id":"d3efbfd3-28f5-4e45-b224-dd326d26e02e","system_id":"levelo_inurba_marseille","lat":43.263535,"lon":5.378157,"is_reserved":false,"is_disabled":false,"rental_uris":{"android":"levelo://app?vid=d3efbfd3-28f5-4e45-b224-dd326d26e02e","ios":"levelo://app?vid=d3efbfd3-28f5-4e45-b224-dd326d26e02e"},"vehicle_type_id":"4","last_reported":1781371667,"current_range_meters":2800,"station_id":"","pricing_plan_id":"cebpf4jnsgd1na2vs0mg"},{"bike_id":"2559ef47-1b59-4eb2-bde5-cf136b29728b","system_id":"levelo_inurba_marseille","lat":43.31111,"lon":5.377794,"is_reserved":false,"is_disabled":false,"rental_uris":{"android":"levelo://app?vid=2559ef47-1b59-4eb2-bde5-cf136b29728b","ios":"levelo://app?vid=2559ef47-1b59-4eb2-bde5-cf136b29728b"},"vehicle_type_id":"4","last_reported":1781371667,"current_range_meters":2800,"station_id":"ce4bgt92rcd13ifvqcg0","pricing_plan_id":"cebpf4jnsgd1na2vs0mg"},{"bike_id":"aff89a10-f72c-47b4-82fa-9621bec0c53f","system_id":"levelo_inurba_marseille","lat":43.24803,"lon":5.3744,"is_reserved":false,"is_disabled":false,"rental_uris":{"android":"levelo://app?vid=aff89a10-f72c-47b4-82fa-9621bec0c53f","ios":"levelo://app?vid=aff89a10-f72c-47b4-82fa-9621bec0c53f"},"vehicle_type_id":"4","last_reported":1781371667,"current_range_meters":2800,"station_id":"ce4bhgh2rcd13ifvqfb0","pricing_plan_id":"cebpf4jnsgd1na2vs0mg"},{"bike_id":"b4eee8dd-9aab-4977-a14f-d9c2d8af5d4e","system_id":"levelo_inurba_marseille","lat":43.21741,"lon":5.34601,"is_reserved":false,"is_disabled":false,"rental_uris":{"android":"levelo://app?vid=b4eee8dd-9aab-4977-a14f-d9c2d8af5d4e","ios":"levelo://app?vid=b4eee8dd-9aab-4977-a14f-d9c2d8af5d4e"},"vehicle_type_id":"4","last_reported":1781371667,"current_range_meters":2800,"station_id":"st_cvj6r9ubvosntc0bgbag","pricing_plan_id":"cebpf4jnsgd1na2vs0mg"},{"bike_id":"dc10ee19-8328-4168-838d-dae747eef5d1","system_id":"levelo_inurba_marseille","lat":43.29568,"lon":5.37507,"is_reserved":false,"is_disabled":false,"rental_uris":{"android":"levelo://app?vid=dc10ee19-8328-4168-838d-dae747eef5d1","ios":"levelo://app?vid=dc10ee19-8328-4168-838d-dae747eef5d1"},"vehicle_type_id":"4","last_reported":1781371667,"current_range_meters":2800,"station_id":"ce4bgh92rcd13ifvqb50","pricing_plan_id":"cebpf4jnsgd1na2vs0mg"},{"bike_id":"acb7cca6-e8b2-435d-b9f8-cf565e0248b9","system_id":"levelo_inurba_marseille","lat":43.29884,"lon":5.3892,"is_reserved":false,"is_disabled":false,"rental_uris":{"android":"levelo://app?vid=acb7cca6-e8b2-435d-b9f8-cf565e0248b9","ios":"levelo://app?vid=acb7cca6-e8b2-435d-b9f8-cf565e0248b9"},"vehicle_type_id":"4","last_reported":1781371667,"current_range_meters":2800,"station_id":"ce4bh392rcd13ifvqdl0","pricing_plan_id":"cebpf4jnsgd1na2vs0mg"},{"bike_id":"435ac776-4ab1-4b7b-82e8-fc1bb564999b","system_id":"levelo_inurba_marseille","lat":43.29208,"lon":5.36041,"is_reserved":false,"is_disabled":false,"rental_uris":{"android":"levelo://app?vid=435ac776-4ab1-4b7b-82e8-fc1bb564999b","ios":"levelo://app?vid=435ac776-4ab1-4b7b-82e8-fc1bb564999b"},"vehicle_type_id":"4","last_reported":1781371667,"current_range_meters":2800,"station_id":"ce4bhbh2rcd13ifvqeqg","pricing_plan_id":"cebpf4jnsgd1na2vs0mg"},{"bike_id":"e31d74fd-ceae-43c9-b8d5-3df8b00ebbde","system_id":"levelo_inurba_marseille","lat":43.28494,"lon":5.40647,"is_reserved":false,"is_disabled":false,"rental_uris":{"android":"levelo://app?vid=e31d74fd-ceae-43c9-b8d5-3df8b00ebbde","ios":"levelo://app?vid=e31d74fd-ceae-43c9-b8d5-3df8b00ebbde"},"vehicle_type_id":"4","last_reported":1781371667,"current_range_meters":2800,"station_id":"","pricing_plan_id":"cebpf4jnsgd1na2vs0mg"},{"bike_id":"24d8db46-86ad-4b98-b47f-ca25d7d8101e","system_id":"levelo_inurba_marseille","lat":43.29268,"lon":5.36859,"is_reserved":false,"is_disabled":false,"rental_uris":{"android":"levelo://app?vid=24d8db46-86ad-4b98-b47f-ca25d7d8101e","ios":"levelo://app?vid=24d8db46-86ad-4b98-b47f-ca25d7d8101e"},"vehicle_type_id":"4","last_reported":1781371667,"current_range_meters":2800,"station_id":"ce4bhbp2rcd13ifvqesg","pricing_plan_id":"cebpf4jnsgd1na2vs0mg"},{"bike_id":"e7e8b7e1-4062-4252-9e73-0cf793a2b50d","system_id":"levelo_inurba_marseille","lat":43.29601,"lon":5.38099,"is_reserved":false,"is_disabled":false,"rental_uris":{"android":"levelo://app?vid=e7e8b7e1-4062-4252-9e73-0cf793a2b50d","ios":"levelo://app?vid=e7e8b7e1-4062-4252-9e73-0cf793a2b50d"},"vehicle_type_id":"4","last_reported":1781371667,"current_range_meters":2800,"station_id":"ce4bgl12rcd13ifvqbo0","pricing_plan_id":"cebpf4jnsgd1na2vs0mg"},{"bike_id":"cfc1fd7a-86fe-4625-ad49-4f065273c26e","system_id":"levelo_inurba_marseille","lat":43.24554,"lon":5.39537,"is_reserved":false,"is_disabled":false,"rental_uris":{"android":"levelo://app?vid=cfc1fd7a-86fe-4625-ad49-4f065273c26e","ios":"levelo://app?vid=cfc1fd7a-86fe-4625-ad49-4f065273c26e"},"vehicle_type_id":"4","last_reported":1781371667,"current_range_meters":2800,"station_id":"ce4bhlp2rcd13ifvqgjg","pricing_plan_id":"cebpf4jnsgd1na2vs0mg"},{"bike_id":"c2a6ec36-8974-4fa4-8c4a-8f97ebfc3c56","system_id":"levelo_inurba_marseille","lat":43.28518,"lon":5.44052,"is_reserved":false,"is_disabled":false,"rental_uris":{"android":"levelo://app?vid=c2a6ec36-8974-4fa4-8c4a-8f97ebfc3c56","ios":"levelo://app?vid=c2a6ec36-8974-4fa4-8c4a-8f97ebfc3c56"},"vehicle_type_id":"4","last_reported":1781371667,"current_range_meters":2800,"station_id":"st_d3j3df2ikq2c7380ej80","pricing_plan_id":"cebpf4jnsgd1na2vs0mg"},{"bike_id":"e8eca6db-6b80-46e0-8869-c54e6be32dbe","system_id":"levelo_inurba_marseille","lat":43.27826,"lon":5.39216,"is_reserved":false,"is_disabled":false,"rental_uris":{"android":"levelo://app?vid=e8eca6db-6b80-46e0-8869-c54e6be32dbe","ios":"levelo://app?vid=e8eca6db-6b80-46e0-8869-c54e6be32dbe"},"vehicle_type_id":"4","last_reported":1781371667,"current_range_meters":2800,"station_id":"ce4bhjp2rcd13ifvqga0","pricing_plan_id":"cebpf4jnsgd1na2vs0mg"},{"bike_id":"eb1984c1-7fa1-4b11-82d3-e1cc83d1e1a0","system_id":"levelo_inurba_marseille","lat":43.255798,"lon":5.382219,"is_reserved":false,"is_disabled":false,"rental_uris":{"android":"levelo://app?vid=eb1984c1-7fa1-4b11-82d3-e1cc83d1e1a0","ios":"levelo://app?vid=eb1984c1-7fa1-4b11-82d3-e1cc83d1e1a0"},"vehicle_type_id":"4","last_reported":1781371667,"current_range_meters":2800,"station_id":"ce4bhih2rcd13ifvqfs0","pricing_plan_id":"cebpf4jnsgd1na2vs0mg"},{"bike_id":"f61f26f5-67eb-4357-adb0-ea588d32d84e","system_id":"levelo_inurba_marseille","lat":43.26549,"lon":5.37297,"is_reserved":false,"is_disabled":false,"rental_uris":{"android":"levelo://app?vid=f61f26f5-67eb-4357-adb0-ea588d32d84e","ios":"levelo://app?vid=f61f26f5-67eb-4357-adb0-ea588d32d84e"},"vehicle_type_id":"4","last_reported":1781371667,"current_range_meters":3200,"station_id":"ce4bhg12rcd13ifvqf70","pricing_plan_id":"cebpf4jnsgd1na2vs0mg"},{"bike_id":"8f361732-5d9e-4989-ab2a-14520c00e48c","system_id":"levelo_inurba_marseille","lat":43.26384,"lon":5.41092,"is_reserved":false,"is_disabled":false,"rental_uris":{"android":"levelo://app?vid=8f361732-5d9e-4989-ab2a-14520c00e48c","ios":"levelo://app?vid=8f361732-5d9e-4989-ab2a-14520c00e48c"},"vehicle_type_id":"4","last_reported":1781371667,"current_range_meters":3200,"station_id":"st_d4e5ca6na9uc73bfl5fg","pricing_plan_id":"cebpf4jnsgd1na2vs0mg"},{"bike_id":"44577758-9781-4e26-a98a-6f13509dbbf8","system_id":"levelo_inurba_marseille","lat":43.33713,"lon":5.39175,"is_reserved":false,"is_disabled":false,"rental_uris":{"android":"levelo://app?vid=44577758-9781-4e26-a98a-6f13509dbbf8","ios":"levelo://app?vid=44577758-9781-4e26-a98a-6f13509dbbf8"},"vehicle_type_id":"4","last_reported":1781371667,"current_range_meters":3200,"station_id":"ce4bhr92rcd13ifvqhsg","pricing_plan_id":"cebpf4jnsgd1na2vs0mg"},{"bike_id":"3e1a64f9-9ce6-438c-9d56-c1ab7f48750b","system_id":"levelo_inurba_marseille","lat":43.298,"lon":5.40396,"is_reserved":false,"is_disabled":false,"rental_uris":{"android":"levelo://app?vid=3e1a64f9-9ce6-438c-9d56-c1ab7f48750b","ios":"levelo://app?vid=3e1a64f9-9ce6-438c-9d56-c1ab7f48750b"},"vehicle_type_id":"4","last_reported":1781371667,"current_range_meters":3200,"station_id":"ce4bh112rcd13ifvqd90","pricing_plan_id":"cebpf4jnsgd1na2vs0mg"},{"bike_id":"d39db183-6bf7-420a-96f5-b25822544857","system_id":"levelo_inurba_marseille","lat":43.32358,"lon":5.36738,"is_reserved":false,"is_disabled":false,"rental_uris":{"android":"levelo://app?vid=d39db183-6bf7-420a-96f5-b25822544857","ios":"levelo://app?vid=d39db183-6bf7-420a-96f5-b25822544857"},"vehicle_type_id":"4","last_reported":1781371667,"current_range_meters":3200,"station_id":"ce4bhsh2rcd13ifvqi2g","pricing_plan_id":"cebpf4jnsgd1na2vs0mg"},{"bike_id":"a921a687-4f8b-4d1b-a254-2ddeeeaf8a37","system_id":"levelo_inurba_marseille","lat":43.24207,"lon":5.37097,"is_reserved":false,"is_disabled":false,"rental_uris":{"android":"levelo://app?vid=a921a687-4f8b-4d1b-a254-2ddeeeaf8a37","ios":"levelo://app?vid=a921a687-4f8b-4d1b-a254-2ddeeeaf8a37"},"vehicle_type_id":"4","last_reported":1781371667,"current_range_meters":3200,"station_id":"","pricing_plan_id":"cebpf4jnsgd1na2vs0mg"},{"bike_id":"95c0143a-5492-41c3-8c6f-e95b007f4cf7","system_id":"levelo_inurba_marseille","lat":43.21194,"lon":5.35074,"is_reserved":false,"is_disabled":false,"rental_uris":{"android":"levelo://app?vid=95c0143a-5492-41c3-8c6f-e95b007f4cf7","ios":"levelo://app?vid=95c0143a-5492-41c3-8c6f-e95b007f4cf7"},"vehicle_type_id":"4","last_reported":1781371667,"current_range_meters":3200,"station_id":"st_cvj6sg6p6f1abm77japg","pricing_plan_id":"cebpf4jnsgd1na2vs0mg"},{"bike_id":"a0d2ac5f-fff6-43f6-831d-dfa81e9c3981","system_id":"levelo_inurba_marseille","lat":43.29594,"lon":5.3643,"is_reserved":false,"is_disabled":false,"rental_uris":{"android":"levelo://app?vid=a0d2ac5f-fff6-43f6-831d-dfa81e9c3981","ios":"levelo://app?vid=a0d2ac5f-fff6-43f6-831d-dfa81e9c3981"},"vehicle_type_id":"4","last_reported":1781371667,"current_range_meters":3200,"station_id":"","pricing_plan_id":"cebpf4jnsgd1na2vs0mg"},{"bike_id":"83b6e5e8-ce21-46e9-a773-be96c37facd5","system_id":"levelo_inurba_marseille","lat":43.2827,"lon":5.35094,"is_reserved":false,"is_disabled":false,"rental_uris":{"android":"levelo://app?vid=83b6e5e8-ce21-46e9-a773-be96c37facd5","ios":"levelo://app?vid=83b6e5e8-ce21-46e9-a773-be96c37facd5"},"vehicle_type_id":"4","last_reported":1781371667,"current_range_meters":3200,"station_id":"ce4bhbp2rcd13ifvqerg","pricing_plan_id":"cebpf4jnsgd1na2vs0mg"},{"bike_id":"ad9fd30f-35be-4c10-94fc-08fe26c07676","system_id":"levelo_inurba_marseille","lat":43.262061,"lon":5.374433,"is_reserved":false,"is_disabled":false,"rental_uris":{"android":"levelo://app?vid=ad9fd30f-35be-4c10-94fc-08fe26c07676","ios":"levelo://app?vid=ad9fd30f-35be-4c10-94fc-08fe26c07676"},"vehicle_type_id":"4","last_reported":1781371667,"current_range_meters":3200,"station_id":"ce4bhgp2rcd13ifvqfc0","pricing_plan_id":"cebpf4jnsgd1na2vs0mg"},{"bike_id":"bc300ece-330e-47b8-8411-e5067fbe2ea9","system_id":"levelo_inurba_marseille","lat":43.24464,"lon":5.42533,"is_reserved":false,"is_disabled":false,"rental_uris":{"android":"levelo://app?vid=bc300ece-330e-47b8-8411-e5067fbe2ea9","ios":"levelo://app?vid=bc300ece-330e-47b8-8411-e5067fbe2ea9"},"vehicle_type_id":"4","last_reported":1781371667,"current_range_meters":3200,"station_id":"st_d4a3vfp97mjs738cd8kg","pricing_plan_id":"cebpf4jnsgd1na2vs0mg"},{"bike_id":"e6a05f18-e75c-47b6-8e84-506a85469b8f","system_id":"levelo_inurba_marseille","lat":43.263269,"lon":5.378292,"is_reserved":false,"is_disabled":false,"rental_uris":{"android":"levelo://app?vid=e6a05f18-e75c-47b6-8e84-506a85469b8f","ios":"levelo://app?vid=e6a05f18-e75c-47b6-8e84-506a85469b8f"},"vehicle_type_id":"4","last_reported":1781371667,"current_range_meters":3200,"station_id":"","pricing_plan_id":"cebpf4jnsgd1na2vs0mg"},{"bike_id":"8a9f3474-1ba5-4fc3-b4e6-1d2f8579f9d1","system_id":"levelo_inurba_marseille","lat":43.26592,"lon":5.3904,"is_reserved":false,"is_disabled":true,"rental_uris":{"android":"levelo://app?vid=8a9f3474-1ba5-4fc3-b4e6-1d2f8579f9d1","ios":"levelo://app?vid=8a9f3474-1ba5-4fc3-b4e6-1d2f8579f9d1"},"vehicle_type_id":"4","last_reported":1781371667,"current_range_meters":3200,"station_id":"ce4bhe12rcd13ifvqf30","pricing_plan_id":"cebpf4jnsgd1na2vs0mg"},{"bike_id":"fb2a1f7d-f7e9-4d12-bb3c-32e8cd55f82d","system_id":"levelo_inurba_marseille","lat":43.29068,"lon":5.4426,"is_reserved":false,"is_disabled":false,"rental_uris":{"android":"levelo://app?vid=fb2a1f7d-f7e9-4d12-bb3c-32e8cd55f82d","ios":"levelo://app?vid=fb2a1f7d-f7e9-4d12-bb3c-32e8cd55f82d"},"vehicle_type_id":"4","last_reported":1781371667,"current_range_meters":3200,"station_id":"","pricing_plan_id":"cebpf4jnsgd1na2vs0mg"},{"bike_id":"4701e8f0-c7c4-4ba6-89c3-b166c53bec52","system_id":"levelo_inurba_marseille","lat":43.29528,"lon":5.39023,"is_reserved":false,"is_disabled":false,"rental_uris":{"android":"levelo://app?vid=4701e8f0-c7c4-4ba6-89c3-b166c53bec52","ios":"levelo://app?vid=4701e8f0-c7c4-4ba6-89c3-b166c53bec52"},"vehicle_type_id":"4","last_reported":1781371667,"current_range_meters":3200,"station_id":"ce4bh3p2rcd13ifvqdp0","pricing_plan_id":"cebpf4jnsgd1na2vs0mg"},{"bike_id":"758fbec9-3eb6-4ccc-a455-db8475961b04","system_id":"levelo_inurba_marseille","lat":43.28466,"lon":5.35894,"is_reserved":false,"is_disabled":false,"rental_uris":{"android":"levelo://app?vid=758fbec9-3eb6-4ccc-a455-db8475961b04","ios":"levelo://app?vid=758fbec9-3eb6-4ccc-a455-db8475961b04"},"vehicle_type_id":"4","last_reported":1781371667,"current_range_meters":3200,"station_id":"ce4bhah2rcd13ifvqei0","pricing_plan_id":"cebpf4jnsgd1na2vs0mg"},{"bike_id":"ccc32958-168e-4c33-8a28-5da0464cfb12","system_id":"levelo_inurba_marseille","lat":43.23167,"lon":5.43706,"is_reserved":false,"is_disabled":false,"rental_uris":{"android":"levelo://app?vid=ccc32958-168e-4c33-8a28-5da0464cfb12","ios":"levelo://app?vid=ccc32958-168e-4c33-8a28-5da0464cfb12"},"vehicle_type_id":"4","last_reported":1781371667,"current_range_meters":3200,"station_id":"ce4bhmp2rcd13ifvqgog","pricing_plan_id":"cebpf4jnsgd1na2vs0mg"},{"bike_id":"8acd7999-529f-4383-a738-85442bba2534","system_id":"levelo_inurba_marseille","lat":43.263378,"lon":5.378187,"is_reserved":false,"is_disabled":false,"rental_uris":{"android":"levelo://app?vid=8acd7999-529f-4383-a738-85442bba2534","ios":"levelo://app?vid=8acd7999-529f-4383-a738-85442bba2534"},"vehicle_type_id":"4","last_reported":1781371667,"current_range_meters":3200,"station_id":"st_d163nis0mtpqnht9uue0","pricing_plan_id":"cebpf4jnsgd1na2vs0mg"},{"bike_id":"7e3551ae-763c-4f3e-bdae-247207a16c3a","system_id":"levelo_inurba_marseille","lat":43.30378,"lon":5.42488,"is_reserved":false,"is_disabled":false,"rental_uris":{"android":"levelo://app?vid=7e3551ae-763c-4f3e-bdae-247207a16c3a","ios":"levelo://app?vid=7e3551ae-763c-4f3e-bdae-247207a16c3a"},"vehicle_type_id":"4","last_reported":1781371667,"current_range_meters":3200,"station_id":"ce4bhoh2rcd13ifvqh6g","pricing_plan_id":"cebpf4jnsgd1na2vs0mg"},{"bike_id":"9baebc47-9a21-445a-b575-5e8cc4ed7549","system_id":"levelo_inurba_marseille","lat":43.28488,"lon":5.48412,"is_reserved":false,"is_disabled":false,"rental_uris":{"android":"levelo://app?vid=9baebc47-9a21-445a-b575-5e8cc4ed7549","ios":"levelo://app?vid=9baebc47-9a21-445a-b575-5e8cc4ed7549"},"vehicle_type_id":"4","last_reported":1781371667,"current_range_meters":3200,"station_id":"st_d3svhcjqgbts73a3dn0g","pricing_plan_id":"cebpf4jnsgd1na2vs0mg"},{"bike_id":"7717390a-9f55-4678-b2a5-ba0a73b8a548","system_id":"levelo_inurba_marseille","lat":43.31583,"lon":5.36977,"is_reserved":false,"is_disabled":false,"rental_uris":{"android":"levelo://app?vid=7717390a-9f55-4678-b2a5-ba0a73b8a548","ios":"levelo://app?vid=7717390a-9f55-4678-b2a5-ba0a73b8a548"},"vehicle_type_id":"4","last_reported":1781371667,"current_range_meters":3200,"station_id":"","pricing_plan_id":"cebpf4jnsgd1na2vs0mg"},{"bike_id":"2a9de7db-88b7-40ae-a2d6-f811130f7add","system_id":"levelo_inurba_marseille","lat":43.26236,"lon":5.3876,"is_reserved":false,"is_disabled":false,"rental_uris":{"android":"levelo://app?vid=2a9de7db-88b7-40ae-a2d6-f811130f7add","ios":"levelo://app?vid=2a9de7db-88b7-40ae-a2d6-f811130f7add"},"vehicle_type_id":"4","last_reported":1781371667,"current_range_meters":3200,"station_id":"st_d8gjfg747rts73coq3b0","pricing_plan_id":"cebpf4jnsgd1na2vs0mg"},{"bike_id":"b8abfc2e-1878-4b26-b890-1090e51bdbe1","system_id":"levelo_inurba_marseille","lat":43.28472,"lon":5.38423,"is_reserved":false,"is_disabled":false,"rental_uris":{"android":"levelo://app?vid=b8abfc2e-1878-4b26-b890-1090e51bdbe1","ios":"levelo://app?vid=b8abfc2e-1878-4b26-b890-1090e51bdbe1"},"vehicle_type_id":"4","last_reported":1781371667,"current_range_meters":3200,"station_id":"ce4bh512rcd13ifvqe3g","pricing_plan_id":"cebpf4jnsgd1na2vs0mg"},{"bike_id":"16e51c7f-da7c-4842-9cb3-29c06a00d7de","system_id":"levelo_inurba_marseille","lat":43.304176,"lon":5.412715,"is_reserved":false,"is_disabled":false,"rental_uris":{"android":"levelo://app?vid=16e51c7f-da7c-4842-9cb3-29c06a00d7de","ios":"levelo://app?vid=16e51c7f-da7c-4842-9cb3-29c06a00d7de"},"vehicle_type_id":"4","last_reported":1781371667,"current_range_meters":3200,"station_id":"ce4bhop2rcd13ifvqh8g","pricing_plan_id":"cebpf4jnsgd1na2vs0mg"},{"bike_id":"a594f701-a760-47ca-8acc-5e387723bf90","system_id":"levelo_inurba_marseille","lat":43.292638,"lon":5.384382,"is_reserved":false,"is_disabled":false,"rental_uris":{"android":"levelo://app?vid=a594f701-a760-47ca-8acc-5e387723bf90","ios":"levelo://app?vid=a594f701-a760-47ca-8acc-5e387723bf90"},"vehicle_type_id":"4","last_reported":1781371667,"current_range_meters":3200,"station_id":"ce4bh692rcd13ifvqea0","pricing_plan_id":"cebpf4jnsgd1na2vs0mg"},{"bike_id":"a0967682-704e-4097-9142-482a1f2d36c9","system_id":"levelo_inurba_marseille","lat":43.2119,"lon":5.35076,"is_reserved":false,"is_disabled":true,"rental_uris":{"android":"levelo://app?vid=a0967682-704e-4097-9142-482a1f2d36c9","ios":"levelo://app?vid=a0967682-704e-4097-9142-482a1f2d36c9"},"vehicle_type_id":"4","last_reported":1781371667,"current_range_meters":3200,"station_id":"st_cvj6sg6p6f1abm77japg","pricing_plan_id":"cebpf4jnsgd1na2vs0mg"},{"bike_id":"1f5802ef-cbce-44cf-bc9f-145934a6cdfb","system_id":"levelo_inurba_marseille","lat":43.255895,"lon":5.382254,"is_reserved":false,"is_disabled":false,"rental_uris":{"android":"levelo://app?vid=1f5802ef-cbce-44cf-bc9f-145934a6cdfb","ios":"levelo://app?vid=1f5802ef-cbce-44cf-bc9f-145934a6cdfb"},"vehicle_type_id":"4","last_reported":1781371667,"current_range_meters":3600,"station_id":"ce4bhih2rcd13ifvqfs0","pricing_plan_id":"cebpf4jnsgd1na2vs0mg"},{"bike_id":"a30229a5-c69f-4364-93a2-2d0acdde8fc5","system_id":"levelo_inurba_marseille","lat":43.29936,"lon":5.36547,"is_reserved":false,"is_disabled":false,"rental_uris":{"android":"levelo://app?vid=a30229a5-c69f-4364-93a2-2d0acdde8fc5","ios":"levelo://app?vid=a30229a5-c69f-4364-93a2-2d0acdde8fc5"},"vehicle_type_id":"4","last_reported":1781371667,"current_range_meters":3600,"station_id":"ce4bgm92rcd13ifvqbr0","pricing_plan_id":"cebpf4jnsgd1na2vs0mg"},{"bike_id":"7da948c9-dfba-42cd-a0e1-bcd071946ce5","system_id":"levelo_inurba_marseille","lat":43.29277,"lon":5.40917,"is_reserved":false,"is_disabled":false,"rental_uris":{"android":"levelo://app?vid=7da948c9-dfba-42cd-a0e1-bcd071946ce5","ios":"levelo://app?vid=7da948c9-dfba-42cd-a0e1-bcd071946ce5"},"vehicle_type_id":"4","last_reported":1781371667,"current_range_meters":3600,"station_id":"ce4bh192rcd13ifvqdc0","pricing_plan_id":"cebpf4jnsgd1na2vs0mg"},{"bike_id":"f312a474-3688-43e4-8515-a784a5c48528","system_id":"levelo_inurba_marseille","lat":43.21191,"lon":5.35074,"is_reserved":false,"is_disabled":true,"rental_uris":{"android":"levelo://app?vid=f312a474-3688-43e4-8515-a784a5c48528","ios":"levelo://app?vid=f312a474-3688-43e4-8515-a784a5c48528"},"vehicle_type_id":"4","last_reported":1781371667,"current_range_meters":3600,"station_id":"st_cvj6sg6p6f1abm77japg","pricing_plan_id":"cebpf4jnsgd1na2vs0mg"},{"bike_id":"28f39076-7526-492a-878d-2d7715437700","system_id":"levelo_inurba_marseille","lat":43.29305,"lon":5.37447,"is_reserved":false,"is_disabled":false,"rental_uris":{"android":"levelo://app?vid=28f39076-7526-492a-878d-2d7715437700","ios":"levelo://app?vid=28f39076-7526-492a-878d-2d7715437700"},"vehicle_type_id":"4","last_reported":1781371667,"current_range_meters":3600,"station_id":"ce4bgi12rcd13ifvqb70","pricing_plan_id":"cebpf4jnsgd1na2vs0mg"},{"bike_id":"b79f2b5c-8ea9-4694-a3bb-ed8f18b4879a","system_id":"levelo_inurba_marseille","lat":43.28084,"lon":5.39658,"is_reserved":false,"is_disabled":false,"rental_uris":{"android":"levelo://app?vid=b79f2b5c-8ea9-4694-a3bb-ed8f18b4879a","ios":"levelo://app?vid=b79f2b5c-8ea9-4694-a3bb-ed8f18b4879a"},"vehicle_type_id":"4","last_reported":1781371667,"current_range_meters":3600,"station_id":"ce4bho12rcd13ifvqh2g","pricing_plan_id":"cebpf4jnsgd1na2vs0mg"},{"bike_id":"e4336015-876c-4209-bbd1-53296bd7d3ed","system_id":"levelo_inurba_marseille","lat":43.241616,"lon":5.363886,"is_reserved":false,"is_disabled":false,"rental_uris":{"android":"levelo://app?vid=e4336015-876c-4209-bbd1-53296bd7d3ed","ios":"levelo://app?vid=e4336015-876c-4209-bbd1-53296bd7d3ed"},"vehicle_type_id":"4","last_reported":1781371667,"current_range_meters":3600,"station_id":"cpo36qri1sfpv3e86is0","pricing_plan_id":"cebpf4jnsgd1na2vs0mg"},{"bike_id":"dc29118a-ffcd-49c5-bc68-79d9f98b9829","system_id":"levelo_inurba_marseille","lat":43.28466,"lon":5.35889,"is_reserved":false,"is_disabled":false,"rental_uris":{"android":"levelo://app?vid=dc29118a-ffcd-49c5-bc68-79d9f98b9829","ios":"levelo://app?vid=dc29118a-ffcd-49c5-bc68-79d9f98b9829"},"vehicle_type_id":"4","last_reported":1781371667,"current_range_meters":3600,"station_id":"ce4bhah2rcd13ifvqei0","pricing_plan_id":"cebpf4jnsgd1na2vs0mg"},{"bike_id":"66c3c5a2-27d2-4e8b-983e-f88a29344913","system_id":"levelo_inurba_marseille","lat":43.29547,"lon":5.3853,"is_reserved":false,"is_disabled":false,"rental_uris":{"android":"levelo://app?vid=66c3c5a2-27d2-4e8b-983e-f88a29344913","ios":"levelo://app?vid=66c3c5a2-27d2-4e8b-983e-f88a29344913"},"vehicle_type_id":"4","last_reported":1781371667,"current_range_meters":3600,"station_id":"ce4bgih2rcd13ifvqba0","pricing_plan_id":"cebpf4jnsgd1na2vs0mg"},{"bike_id":"65519ba1-7d80-467e-a8db-1b3abb602885","system_id":"levelo_inurba_marseille","lat":43.26779,"lon":5.39419,"is_reserved":false,"is_disabled":false,"rental_uris":{"android":"levelo://app?vid=65519ba1-7d80-467e-a8db-1b3abb602885","ios":"levelo://app?vid=65519ba1-7d80-467e-a8db-1b3abb602885"},"vehicle_type_id":"4","last_reported":1781371667,"current_range_meters":3600,"station_id":"ce4bhh12rcd13ifvqfg0","pricing_plan_id":"cebpf4jnsgd1na2vs0mg"},{"bike_id":"1e588e65-50f2-4b9d-8528-26687b2d891e","system_id":"levelo_inurba_marseille","lat":43.26208,"lon":5.37442,"is_reserved":false,"is_disabled":false,"rental_uris":{"android":"levelo://app?vid=1e588e65-50f2-4b9d-8528-26687b2d891e","ios":"levelo://app?vid=1e588e65-50f2-4b9d-8528-26687b2d891e"},"vehicle_type_id":"4","last_reported":1781371667,"current_range_meters":3600,"station_id":"ce4bhgp2rcd13ifvqfc0","pricing_plan_id":"cebpf4jnsgd1na2vs0mg"},{"bike_id":"2882d32d-720c-4b6b-b52a-a70816ab5176","system_id":"levelo_inurba_marseille","lat":43.24671,"lon":5.43179,"is_reserved":false,"is_disabled":false,"rental_uris":{"android":"levelo://app?vid=2882d32d-720c-4b6b-b52a-a70816ab5176","ios":"levelo://app?vid=2882d32d-720c-4b6b-b52a-a70816ab5176"},"vehicle_type_id":"4","last_reported":1781371667,"current_range_meters":3600,"station_id":"st_d2m6c4gdas8pm72e190g","pricing_plan_id":"cebpf4jnsgd1na2vs0mg"},{"bike_id":"f7706536-2b3b-4ef9-9d79-aee87a7d7f28","system_id":"levelo_inurba_marseille","lat":43.23791,"lon":5.36633,"is_reserved":false,"is_disabled":false,"rental_uris":{"android":"levelo://app?vid=f7706536-2b3b-4ef9-9d79-aee87a7d7f28","ios":"levelo://app?vid=f7706536-2b3b-4ef9-9d79-aee87a7d7f28"},"vehicle_type_id":"4","last_reported":1781371667,"current_range_meters":3600,"station_id":"st_d3nk18o9ro0c73en2l3g","pricing_plan_id":"cebpf4jnsgd1na2vs0mg"},{"bike_id":"b3cc505a-4ae0-46d1-9df9-f27db1b97763","system_id":"levelo_inurba_marseille","lat":43.30192,"lon":5.36629,"is_reserved":false,"is_disabled":false,"rental_uris":{"android":"levelo://app?vid=b3cc505a-4ae0-46d1-9df9-f27db1b97763","ios":"levelo://app?vid=b3cc505a-4ae0-46d1-9df9-f27db1b97763"},"vehicle_type_id":"4","last_reported":1781371667,"current_range_meters":3600,"station_id":"ce4bgrh2rcd13ifvqc8g","pricing_plan_id":"cebpf4jnsgd1na2vs0mg"},{"bike_id":"77a3e5cd-10a1-4b18-bd77-e146c62f220c","system_id":"levelo_inurba_marseille","lat":43.28019,"lon":5.375,"is_reserved":false,"is_disabled":false,"rental_uris":{"android":"levelo://app?vid=77a3e5cd-10a1-4b18-bd77-e146c62f220c","ios":"levelo://app?vid=77a3e5cd-10a1-4b18-bd77-e146c62f220c"},"vehicle_type_id":"4","last_reported":1781371667,"current_range_meters":3600,"station_id":"","pricing_plan_id":"cebpf4jnsgd1na2vs0mg"},{"bike_id":"44b21b65-e688-48eb-aa2c-a08221b64cef","system_id":"levelo_inurba_marseille","lat":43.28468,"lon":5.35889,"is_reserved":false,"is_disabled":false,"rental_uris":{"android":"levelo://app?vid=44b21b65-e688-48eb-aa2c-a08221b64cef","ios":"levelo://app?vid=44b21b65-e688-48eb-aa2c-a08221b64cef"},"vehicle_type_id":"4","last_reported":1781371667,"current_range_meters":3600,"station_id":"ce4bhah2rcd13ifvqei0","pricing_plan_id":"cebpf4jnsgd1na2vs0mg"},{"bike_id":"789bb187-05f0-427e-a77f-6842144ea4ab","system_id":"levelo_inurba_marseille","lat":43.2463,"lon":5.43152,"is_reserved":false,"is_disabled":false,"rental_uris":{"android":"levelo://app?vid=789bb187-05f0-427e-a77f-6842144ea4ab","ios":"levelo://app?vid=789bb187-05f0-427e-a77f-6842144ea4ab"},"vehicle_type_id":"4","last_reported":1781371667,"current_range_meters":3600,"station_id":"st_d2m6c4gdas8pm72e190g","pricing_plan_id":"cebpf4jnsgd1na2vs0mg"},{"bike_id":"8c9669fa-ccdd-484b-9183-2daa2ca137e8","system_id":"levelo_inurba_marseille","lat":43.263437,"lon":5.378252,"is_reserved":false,"is_disabled":false,"rental_uris":{"android":"levelo://app?vid=8c9669fa-ccdd-484b-9183-2daa2ca137e8","ios":"levelo://app?vid=8c9669fa-ccdd-484b-9183-2daa2ca137e8"},"vehicle_type_id":"4","last_reported":1781371667,"current_range_meters":3600,"station_id":"st_d163nis0mtpqnht9uue0","pricing_plan_id":"cebpf4jnsgd1na2vs0mg"},{"bike_id":"589d39c3-c5d3-4771-9a3e-f5ca7e8ced1c","system_id":"levelo_inurba_marseille","lat":43.263413,"lon":5.378239,"is_reserved":false,"is_disabled":false,"rental_uris":{"android":"levelo://app?vid=589d39c3-c5d3-4771-9a3e-f5ca7e8ced1c","ios":"levelo://app?vid=589d39c3-c5d3-4771-9a3e-f5ca7e8ced1c"},"vehicle_type_id":"4","last_reported":1781371667,"current_range_meters":4000,"station_id":"st_d163nis0mtpqnht9uue0","pricing_plan_id":"cebpf4jnsgd1na2vs0mg"},{"bike_id":"d484de21-ca44-4b4e-b017-24074d2741d1","system_id":"levelo_inurba_marseille","lat":43.29311,"lon":5.3719,"is_reserved":false,"is_disabled":true,"rental_uris":{"android":"levelo://app?vid=d484de21-ca44-4b4e-b017-24074d2741d1","ios":"levelo://app?vid=d484de21-ca44-4b4e-b017-24074d2741d1"},"vehicle_type_id":"4","last_reported":1781371667,"current_range_meters":4000,"station_id":"ce4bgh92rcd13ifvqb40","pricing_plan_id":"cebpf4jnsgd1na2vs0mg"},{"bike_id":"01ddfe84-eba4-4bb2-a9f9-d24086f7c822","system_id":"levelo_inurba_marseille","lat":43.266781,"lon":5.382726,"is_reserved":false,"is_disabled":false,"rental_uris":{"android":"levelo://app?vid=01ddfe84-eba4-4bb2-a9f9-d24086f7c822","ios":"levelo://app?vid=01ddfe84-eba4-4bb2-a9f9-d24086f7c822"},"vehicle_type_id":"4","last_reported":1781371667,"current_range_meters":4000,"station_id":"ce4bhg92rcd13ifvqf90","pricing_plan_id":"cebpf4jnsgd1na2vs0mg"},{"bike_id":"6a27404a-fd45-46ef-b0c6-d19df52b0472","system_id":"levelo_inurba_marseille","lat":43.30101,"lon":5.37731,"is_reserved":false,"is_disabled":false,"rental_uris":{"android":"levelo://app?vid=6a27404a-fd45-46ef-b0c6-d19df52b0472","ios":"levelo://app?vid=6a27404a-fd45-46ef-b0c6-d19df52b0472"},"vehicle_type_id":"4","last_reported":1781371667,"current_range_meters":4000,"station_id":"","pricing_plan_id":"cebpf4jnsgd1na2vs0mg"},{"bike_id":"a88c18f7-a05b-424b-a2e6-87c48e40dd60","system_id":"levelo_inurba_marseille","lat":43.23902,"lon":5.37454,"is_reserved":false,"is_disabled":true,"rental_uris":{"android":"levelo://app?vid=a88c18f7-a05b-424b-a2e6-87c48e40dd60","ios":"levelo://app?vid=a88c18f7-a05b-424b-a2e6-87c48e40dd60"},"vehicle_type_id":"4","last_reported":1781371667,"current_range_meters":4000,"station_id":"st_d6sm7csbq4hs73f8fpjg","pricing_plan_id":"cebpf4jnsgd1na2vs0mg"},{"bike_id":"98c0a183-7ee6-4b0b-b809-46c8824508e7","system_id":"levelo_inurba_marseille","lat":43.29625,"lon":5.41935,"is_reserved":false,"is_disabled":false,"rental_uris":{"android":"levelo://app?vid=98c0a183-7ee6-4b0b-b809-46c8824508e7","ios":"levelo://app?vid=98c0a183-7ee6-4b0b-b809-46c8824508e7"},"vehicle_type_id":"4","last_reported":1781371667,"current_range_meters":4000,"station_id":"","pricing_plan_id":"cebpf4jnsgd1na2vs0mg"},{"bike_id":"b94500b0-c8e7-4697-a363-e6426899264d","system_id":"levelo_inurba_marseille","lat":43.26374,"lon":5.41086,"is_reserved":false,"is_disabled":false,"rental_uris":{"android":"levelo://app?vid=b94500b0-c8e7-4697-a363-e6426899264d","ios":"levelo://app?vid=b94500b0-c8e7-4697-a363-e6426899264d"},"vehicle_type_id":"4","last_reported":1781371667,"current_range_meters":4000,"station_id":"st_d4e5ca6na9uc73bfl5fg","pricing_plan_id":"cebpf4jnsgd1na2vs0mg"},{"bike_id":"41992955-b8a7-4106-ae3d-4fbd887417d2","system_id":"levelo_inurba_marseille","lat":43.295746,"lon":5.375104,"is_reserved":false,"is_disabled":true,"rental_uris":{"android":"levelo://app?vid=41992955-b8a7-4106-ae3d-4fbd887417d2","ios":"levelo://app?vid=41992955-b8a7-4106-ae3d-4fbd887417d2"},"vehicle_type_id":"4","last_reported":1781371667,"current_range_meters":4000,"station_id":"","pricing_plan_id":"cebpf4jnsgd1na2vs0mg"},{"bike_id":"61abc050-794c-43f3-96ae-15565612cd1b","system_id":"levelo_inurba_marseille","lat":43.28702,"lon":5.46666,"is_reserved":false,"is_disabled":false,"rental_uris":{"android":"levelo://app?vid=61abc050-794c-43f3-96ae-15565612cd1b","ios":"levelo://app?vid=61abc050-794c-43f3-96ae-15565612cd1b"},"vehicle_type_id":"4","last_reported":1781371667,"current_range_meters":4000,"station_id":"st_d6tc3vkotcvc738tfjhg","pricing_plan_id":"cebpf4jnsgd1na2vs0mg"},{"bike_id":"40331548-b44e-4f82-9abe-fed343e427de","system_id":"levelo_inurba_marseille","lat":43.26359,"lon":5.37828,"is_reserved":false,"is_disabled":false,"rental_uris":{"android":"levelo://app?vid=40331548-b44e-4f82-9abe-fed343e427de","ios":"levelo://app?vid=40331548-b44e-4f82-9abe-fed343e427de"},"vehicle_type_id":"4","last_reported":1781371667,"current_range_meters":4000,"station_id":"st_d163nis0mtpqnht9uue0","pricing_plan_id":"cebpf4jnsgd1na2vs0mg"},{"bike_id":"1f4cf7cf-98e2-40ce-8e0b-c74ae682295d","system_id":"levelo_inurba_marseille","lat":43.26232,"lon":5.38783,"is_reserved":false,"is_disabled":false,"rental_uris":{"android":"levelo://app?vid=1f4cf7cf-98e2-40ce-8e0b-c74ae682295d","ios":"levelo://app?vid=1f4cf7cf-98e2-40ce-8e0b-c74ae682295d"},"vehicle_type_id":"4","last_reported":1781371667,"current_range_meters":4000,"station_id":"st_d8gjfg747rts73coq3b0","pricing_plan_id":"cebpf4jnsgd1na2vs0mg"},{"bike_id":"e37613eb-2b80-45f6-8be7-6bbc2d17cf64","system_id":"levelo_inurba_marseille","lat":43.24809,"lon":5.37457,"is_reserved":false,"is_disabled":true,"rental_uris":{"android":"levelo://app?vid=e37613eb-2b80-45f6-8be7-6bbc2d17cf64","ios":"levelo://app?vid=e37613eb-2b80-45f6-8be7-6bbc2d17cf64"},"vehicle_type_id":"4","last_reported":1781371667,"current_range_meters":4000,"station_id":"ce4bhgh2rcd13ifvqfb0","pricing_plan_id":"cebpf4jnsgd1na2vs0mg"},{"bike_id":"22a3f062-9e7a-424e-a5d2-f79294adc5e8","system_id":"levelo_inurba_marseille","lat":43.286171,"lon":5.398698,"is_reserved":false,"is_disabled":false,"rental_uris":{"android":"levelo://app?vid=22a3f062-9e7a-424e-a5d2-f79294adc5e8","ios":"levelo://app?vid=22a3f062-9e7a-424e-a5d2-f79294adc5e8"},"vehicle_type_id":"4","last_reported":1781371667,"current_range_meters":4000,"station_id":"ce4bho92rcd13ifvqh3g","pricing_plan_id":"cebpf4jnsgd1na2vs0mg"},{"bike_id":"bd6fa762-e644-446a-abf7-290f25ca3f95","system_id":"levelo_inurba_marseille","lat":43.26213,"lon":5.37444,"is_reserved":false,"is_disabled":false,"rental_uris":{"android":"levelo://app?vid=bd6fa762-e644-446a-abf7-290f25ca3f95","ios":"levelo://app?vid=bd6fa762-e644-446a-abf7-290f25ca3f95"},"vehicle_type_id":"4","last_reported":1781371667,"current_range_meters":4000,"station_id":"ce4bhgp2rcd13ifvqfc0","pricing_plan_id":"cebpf4jnsgd1na2vs0mg"},{"bike_id":"eda98293-5c91-4dae-89c6-486a45b00f60","system_id":"levelo_inurba_marseille","lat":43.23271,"lon":5.40095,"is_reserved":false,"is_disabled":false,"rental_uris":{"android":"levelo://app?vid=eda98293-5c91-4dae-89c6-486a45b00f60","ios":"levelo://app?vid=eda98293-5c91-4dae-89c6-486a45b00f60"},"vehicle_type_id":"4","last_reported":1781371667,"current_range_meters":4000,"station_id":"","pricing_plan_id":"cebpf4jnsgd1na2vs0mg"},{"bike_id":"db8c5b68-a2ae-4ccd-8b82-df47b61ade41","system_id":"levelo_inurba_marseille","lat":43.24637,"lon":5.37968,"is_reserved":false,"is_disabled":false,"rental_uris":{"android":"levelo://app?vid=db8c5b68-a2ae-4ccd-8b82-df47b61ade41","ios":"levelo://app?vid=db8c5b68-a2ae-4ccd-8b82-df47b61ade41"},"vehicle_type_id":"4","last_reported":1781371667,"current_range_meters":4000,"station_id":"","pricing_plan_id":"cebpf4jnsgd1na2vs0mg"},{"bike_id":"fd926e41-6852-407b-9b44-16b295c0aef6","system_id":"levelo_inurba_marseille","lat":43.30948,"lon":5.39037,"is_reserved":false,"is_disabled":false,"rental_uris":{"android":"levelo://app?vid=fd926e41-6852-407b-9b44-16b295c0aef6","ios":"levelo://app?vid=fd926e41-6852-407b-9b44-16b295c0aef6"},"vehicle_type_id":"4","last_reported":1781371667,"current_range_meters":4000,"station_id":"ce4bgup2rcd13ifvqco0","pricing_plan_id":"cebpf4jnsgd1na2vs0mg"},{"bike_id":"83999cd8-2e62-4afc-8edc-07559d8f53bd","system_id":"levelo_inurba_marseille","lat":43.308887,"lon":5.396679,"is_reserved":false,"is_disabled":false,"rental_uris":{"android":"levelo://app?vid=83999cd8-2e62-4afc-8edc-07559d8f53bd","ios":"levelo://app?vid=83999cd8-2e62-4afc-8edc-07559d8f53bd"},"vehicle_type_id":"4","last_reported":1781371667,"current_range_meters":4000,"station_id":"ce4bh012rcd13ifvqcv0","pricing_plan_id":"cebpf4jnsgd1na2vs0mg"},{"bike_id":"2f5a2eb1-a60a-4fe8-a5aa-002259731410","system_id":"levelo_inurba_marseille","lat":43.31064,"lon":5.37187,"is_reserved":false,"is_disabled":true,"rental_uris":{"android":"levelo://app?vid=2f5a2eb1-a60a-4fe8-a5aa-002259731410","ios":"levelo://app?vid=2f5a2eb1-a60a-4fe8-a5aa-002259731410"},"vehicle_type_id":"4","last_reported":1781371667,"current_range_meters":4000,"station_id":"st_d4kl2rp97mjs73e7tdfg","pricing_plan_id":"cebpf4jnsgd1na2vs0mg"},{"bike_id":"3f285a3f-06ab-47f6-9808-0389c8895345","system_id":"levelo_inurba_marseille","lat":43.2887,"lon":5.35844,"is_reserved":false,"is_disabled":false,"rental_uris":{"android":"levelo://app?vid=3f285a3f-06ab-47f6-9808-0389c8895345","ios":"levelo://app?vid=3f285a3f-06ab-47f6-9808-0389c8895345"},"vehicle_type_id":"4","last_reported":1781371667,"current_range_meters":4000,"station_id":"ce4bhb12rcd13ifvqem0","pricing_plan_id":"cebpf4jnsgd1na2vs0mg"},{"bike_id":"84d02128-0eea-4c2a-9729-57e4c1b56031","system_id":"levelo_inurba_marseille","lat":43.30887,"lon":5.39656,"is_reserved":false,"is_disabled":false,"rental_uris":{"android":"levelo://app?vid=84d02128-0eea-4c2a-9729-57e4c1b56031","ios":"levelo://app?vid=84d02128-0eea-4c2a-9729-57e4c1b56031"},"vehicle_type_id":"4","last_reported":1781371667,"current_range_meters":4000,"station_id":"ce4bh012rcd13ifvqcv0","pricing_plan_id":"cebpf4jnsgd1na2vs0mg"},{"bike_id":"9f069751-295a-496b-b19c-281f4491a5fd","system_id":"levelo_inurba_marseille","lat":43.35076,"lon":5.35072,"is_reserved":false,"is_disabled":false,"rental_uris":{"android":"levelo://app?vid=9f069751-295a-496b-b19c-281f4491a5fd","ios":"levelo://app?vid=9f069751-295a-496b-b19c-281f4491a5fd"},"vehicle_type_id":"4","last_reported":1781371667,"current_range_meters":4400,"station_id":"","pricing_plan_id":"cebpf4jnsgd1na2vs0mg"},{"bike_id":"41ea6779-9979-4cd2-a1a1-bea99fc99dc3","system_id":"levelo_inurba_marseille","lat":43.30214,"lon":5.39467,"is_reserved":false,"is_disabled":true,"rental_uris":{"android":"levelo://app?vid=41ea6779-9979-4cd2-a1a1-bea99fc99dc3","ios":"levelo://app?vid=41ea6779-9979-4cd2-a1a1-bea99fc99dc3"},"vehicle_type_id":"4","last_reported":1781371667,"current_range_meters":4400,"station_id":"ce4bh0p2rcd13ifvqd70","pricing_plan_id":"cebpf4jnsgd1na2vs0mg"},{"bike_id":"76127c15-3f28-402a-a233-d95619b8c11f","system_id":"levelo_inurba_marseille","lat":43.27686,"lon":5.38864,"is_reserved":false,"is_disabled":false,"rental_uris":{"android":"levelo://app?vid=76127c15-3f28-402a-a233-d95619b8c11f","ios":"levelo://app?vid=76127c15-3f28-402a-a233-d95619b8c11f"},"vehicle_type_id":"4","last_reported":1781371667,"current_range_meters":4400,"station_id":"ce4bhi12rcd13ifvqfo0","pricing_plan_id":"cebpf4jnsgd1na2vs0mg"},{"bike_id":"56a4f637-a9b3-4088-b979-5add391871d0","system_id":"levelo_inurba_marseille","lat":43.282659,"lon":5.350528,"is_reserved":false,"is_disabled":false,"rental_uris":{"android":"levelo://app?vid=56a4f637-a9b3-4088-b979-5add391871d0","ios":"levelo://app?vid=56a4f637-a9b3-4088-b979-5add391871d0"},"vehicle_type_id":"4","last_reported":1781371667,"current_range_meters":4400,"station_id":"ce4bhbp2rcd13ifvqerg","pricing_plan_id":"cebpf4jnsgd1na2vs0mg"},{"bike_id":"e244c1c5-57c8-4a92-afce-764286f01e16","system_id":"levelo_inurba_marseille","lat":43.25581,"lon":5.38231,"is_reserved":false,"is_disabled":false,"rental_uris":{"android":"levelo://app?vid=e244c1c5-57c8-4a92-afce-764286f01e16","ios":"levelo://app?vid=e244c1c5-57c8-4a92-afce-764286f01e16"},"vehicle_type_id":"4","last_reported":1781371667,"current_range_meters":4400,"station_id":"ce4bhih2rcd13ifvqfs0","pricing_plan_id":"cebpf4jnsgd1na2vs0mg"},{"bike_id":"fae9e422-64fd-48b6-a83b-e62363853497","system_id":"levelo_inurba_marseille","lat":43.30097,"lon":5.38279,"is_reserved":false,"is_disabled":false,"rental_uris":{"android":"levelo://app?vid=fae9e422-64fd-48b6-a83b-e62363853497","ios":"levelo://app?vid=fae9e422-64fd-48b6-a83b-e62363853497"},"vehicle_type_id":"4","last_reported":1781371667,"current_range_meters":4400,"station_id":"","pricing_plan_id":"cebpf4jnsgd1na2vs0mg"},{"bike_id":"08d233d4-b9b2-422d-bac4-66b122c8337c","system_id":"levelo_inurba_marseille","lat":43.25121,"lon":5.4031,"is_reserved":false,"is_disabled":false,"rental_uris":{"android":"levelo://app?vid=08d233d4-b9b2-422d-bac4-66b122c8337c","ios":"levelo://app?vid=08d233d4-b9b2-422d-bac4-66b122c8337c"},"vehicle_type_id":"4","last_reported":1781371667,"current_range_meters":4400,"station_id":"ce4bhlh2rcd13ifvqgig","pricing_plan_id":"cebpf4jnsgd1na2vs0mg"},{"bike_id":"01974ce9-2ce7-4184-9698-03768bec9bb4","system_id":"levelo_inurba_marseille","lat":43.28678,"lon":5.4664,"is_reserved":false,"is_disabled":false,"rental_uris":{"android":"levelo://app?vid=01974ce9-2ce7-4184-9698-03768bec9bb4","ios":"levelo://app?vid=01974ce9-2ce7-4184-9698-03768bec9bb4"},"vehicle_type_id":"4","last_reported":1781371667,"current_range_meters":4400,"station_id":"st_d6tc3vkotcvc738tfjhg","pricing_plan_id":"cebpf4jnsgd1na2vs0mg"},{"bike_id":"960d68cb-472e-483d-974c-3b485764f425","system_id":"levelo_inurba_marseille","lat":43.31688,"lon":5.40465,"is_reserved":false,"is_disabled":false,"rental_uris":{"android":"levelo://app?vid=960d68cb-472e-483d-974c-3b485764f425","ios":"levelo://app?vid=960d68cb-472e-483d-974c-3b485764f425"},"vehicle_type_id":"4","last_reported":1781371667,"current_range_meters":4400,"station_id":"ce4bh012rcd13ifvqd00","pricing_plan_id":"cebpf4jnsgd1na2vs0mg"},{"bike_id":"292ba82b-0dab-46c1-b4a2-48a52268ff1c","system_id":"levelo_inurba_marseille","lat":43.26571,"lon":5.39005,"is_reserved":false,"is_disabled":true,"rental_uris":{"android":"levelo://app?vid=292ba82b-0dab-46c1-b4a2-48a52268ff1c","ios":"levelo://app?vid=292ba82b-0dab-46c1-b4a2-48a52268ff1c"},"vehicle_type_id":"4","last_reported":1781371667,"current_range_meters":4400,"station_id":"ce4bhe12rcd13ifvqf30","pricing_plan_id":"cebpf4jnsgd1na2vs0mg"},{"bike_id":"b84d86b9-dae2-4bd3-8192-45fb26520144","system_id":"levelo_inurba_marseille","lat":43.25872,"lon":5.39894,"is_reserved":false,"is_disabled":false,"rental_uris":{"android":"levelo://app?vid=b84d86b9-dae2-4bd3-8192-45fb26520144","ios":"levelo://app?vid=b84d86b9-dae2-4bd3-8192-45fb26520144"},"vehicle_type_id":"4","last_reported":1781371667,"current_range_meters":4400,"station_id":"ce4bhl92rcd13ifvqghg","pricing_plan_id":"cebpf4jnsgd1na2vs0mg"},{"bike_id":"2da49bc2-114e-4776-8539-fc7b31b58185","system_id":"levelo_inurba_marseille","lat":43.3121,"lon":5.36932,"is_reserved":false,"is_disabled":false,"rental_uris":{"android":"levelo://app?vid=2da49bc2-114e-4776-8539-fc7b31b58185","ios":"levelo://app?vid=2da49bc2-114e-4776-8539-fc7b31b58185"},"vehicle_type_id":"4","last_reported":1781371667,"current_range_meters":4400,"station_id":"","pricing_plan_id":"cebpf4jnsgd1na2vs0mg"},{"bike_id":"fdfd2d4a-9965-45b4-9bc6-c525eb58800a","system_id":"levelo_inurba_marseille","lat":43.29452,"lon":5.37436,"is_reserved":false,"is_disabled":false,"rental_uris":{"android":"levelo://app?vid=fdfd2d4a-9965-45b4-9bc6-c525eb58800a","ios":"levelo://app?vid=fdfd2d4a-9965-45b4-9bc6-c525eb58800a"},"vehicle_type_id":"4","last_reported":1781371667,"current_range_meters":4400,"station_id":"","pricing_plan_id":"cebpf4jnsgd1na2vs0mg"},{"bike_id":"048d91b9-db94-4e3e-b2c1-e3efd16067a0","system_id":"levelo_inurba_marseille","lat":43.29534,"lon":5.38536,"is_reserved":false,"is_disabled":false,"rental_uris":{"android":"levelo://app?vid=048d91b9-db94-4e3e-b2c1-e3efd16067a0","ios":"levelo://app?vid=048d91b9-db94-4e3e-b2c1-e3efd16067a0"},"vehicle_type_id":"4","last_reported":1781371667,"current_range_meters":4400,"station_id":"ce4bgih2rcd13ifvqba0","pricing_plan_id":"cebpf4jnsgd1na2vs0mg"},{"bike_id":"030aac59-0ad6-4b11-a8e7-59e3d4ea4af5","system_id":"levelo_inurba_marseille","lat":43.26575,"lon":5.39015,"is_reserved":false,"is_disabled":false,"rental_uris":{"android":"levelo://app?vid=030aac59-0ad6-4b11-a8e7-59e3d4ea4af5","ios":"levelo://app?vid=030aac59-0ad6-4b11-a8e7-59e3d4ea4af5"},"vehicle_type_id":"4","last_reported":1781371667,"current_range_meters":4400,"station_id":"ce4bhe12rcd13ifvqf30","pricing_plan_id":"cebpf4jnsgd1na2vs0mg"},{"bike_id":"ed1b8ea2-ecf3-46da-8352-26963074c835","system_id":"levelo_inurba_marseille","lat":43.24471,"lon":5.42542,"is_reserved":false,"is_disabled":false,"rental_uris":{"android":"levelo://app?vid=ed1b8ea2-ecf3-46da-8352-26963074c835","ios":"levelo://app?vid=ed1b8ea2-ecf3-46da-8352-26963074c835"},"vehicle_type_id":"4","last_reported":1781371667,"current_range_meters":4400,"station_id":"st_d4a3vfp97mjs738cd8kg","pricing_plan_id":"cebpf4jnsgd1na2vs0mg"},{"bike_id":"0633c0b2-cd61-4107-9084-a3953fc3765a","system_id":"levelo_inurba_marseille","lat":43.29197,"lon":5.37669,"is_reserved":false,"is_disabled":true,"rental_uris":{"android":"levelo://app?vid=0633c0b2-cd61-4107-9084-a3953fc3765a","ios":"levelo://app?vid=0633c0b2-cd61-4107-9084-a3953fc3765a"},"vehicle_type_id":"4","last_reported":1781371667,"current_range_meters":4800,"station_id":"","pricing_plan_id":"cebpf4jnsgd1na2vs0mg"},{"bike_id":"4b7005f8-fb45-44cf-9f6f-b69300b58ada","system_id":"levelo_inurba_marseille","lat":43.25575,"lon":5.3823,"is_reserved":false,"is_disabled":false,"rental_uris":{"android":"levelo://app?vid=4b7005f8-fb45-44cf-9f6f-b69300b58ada","ios":"levelo://app?vid=4b7005f8-fb45-44cf-9f6f-b69300b58ada"},"vehicle_type_id":"4","last_reported":1781371667,"current_range_meters":4800,"station_id":"ce4bhih2rcd13ifvqfs0","pricing_plan_id":"cebpf4jnsgd1na2vs0mg"},{"bike_id":"2f70ef4e-6af0-41d0-bdb7-405718b4158d","system_id":"levelo_inurba_marseille","lat":43.24515,"lon":5.372983,"is_reserved":false,"is_disabled":false,"rental_uris":{"android":"levelo://app?vid=2f70ef4e-6af0-41d0-bdb7-405718b4158d","ios":"levelo://app?vid=2f70ef4e-6af0-41d0-bdb7-405718b4158d"},"vehicle_type_id":"4","last_reported":1781371667,"current_range_meters":4800,"station_id":"st_cvj6r9ubvosntc0bgbag","pricing_plan_id":"cebpf4jnsgd1na2vs0mg"},{"bike_id":"6edf579f-78f6-4a80-8faa-35bdd39ec8f9","system_id":"levelo_inurba_marseille","lat":43.30533,"lon":5.36545,"is_reserved":false,"is_disabled":false,"rental_uris":{"android":"levelo://app?vid=6edf579f-78f6-4a80-8faa-35bdd39ec8f9","ios":"levelo://app?vid=6edf579f-78f6-4a80-8faa-35bdd39ec8f9"},"vehicle_type_id":"4","last_reported":1781371667,"current_range_meters":4800,"station_id":"ce4bgs12rcd13ifvqcag","pricing_plan_id":"cebpf4jnsgd1na2vs0mg"},{"bike_id":"66a38ceb-92f6-412c-adea-94633cc60cd0","system_id":"levelo_inurba_marseille","lat":43.29262,"lon":5.38444,"is_reserved":false,"is_disabled":false,"rental_uris":{"android":"levelo://app?vid=66a38ceb-92f6-412c-adea-94633cc60cd0","ios":"levelo://app?vid=66a38ceb-92f6-412c-adea-94633cc60cd0"},"vehicle_type_id":"4","last_reported":1781371667,"current_range_meters":4800,"station_id":"ce4bh692rcd13ifvqea0","pricing_plan_id":"cebpf4jnsgd1na2vs0mg"},{"bike_id":"2d8a047b-0411-40fc-a69f-3169f78c4ee9","system_id":"levelo_inurba_marseille","lat":43.32363,"lon":5.36744,"is_reserved":false,"is_disabled":false,"rental_uris":{"android":"levelo://app?vid=2d8a047b-0411-40fc-a69f-3169f78c4ee9","ios":"levelo://app?vid=2d8a047b-0411-40fc-a69f-3169f78c4ee9"},"vehicle_type_id":"4","last_reported":1781371667,"current_range_meters":4800,"station_id":"ce4bhsh2rcd13ifvqi2g","pricing_plan_id":"cebpf4jnsgd1na2vs0mg"},{"bike_id":"35565049-90de-4fb4-b35d-e9c548924e41","system_id":"levelo_inurba_marseille","lat":43.26774,"lon":5.39416,"is_reserved":false,"is_disabled":true,"rental_uris":{"android":"levelo://app?vid=35565049-90de-4fb4-b35d-e9c548924e41","ios":"levelo://app?vid=35565049-90de-4fb4-b35d-e9c548924e41"},"vehicle_type_id":"4","last_reported":1781371667,"current_range_meters":4800,"station_id":"ce4bhh12rcd13ifvqfg0","pricing_plan_id":"cebpf4jnsgd1na2vs0mg"},{"bike_id":"1625d25d-0aae-4e8f-bda7-815f82406869","system_id":"levelo_inurba_marseille","lat":43.299268,"lon":5.413193,"is_reserved":false,"is_disabled":true,"rental_uris":{"android":"levelo://app?vid=1625d25d-0aae-4e8f-bda7-815f82406869","ios":"levelo://app?vid=1625d25d-0aae-4e8f-bda7-815f82406869"},"vehicle_type_id":"4","last_reported":1781371667,"current_range_meters":4800,"station_id":"","pricing_plan_id":"cebpf4jnsgd1na2vs0mg"},{"bike_id":"831cb54d-09f2-487c-a053-eb98db2e520a","system_id":"levelo_inurba_marseille","lat":43.25119,"lon":5.40318,"is_reserved":false,"is_disabled":false,"rental_uris":{"android":"levelo://app?vid=831cb54d-09f2-487c-a053-eb98db2e520a","ios":"levelo://app?vid=831cb54d-09f2-487c-a053-eb98db2e520a"},"vehicle_type_id":"4","last_reported":1781371667,"current_range_meters":4800,"station_id":"ce4bhlh2rcd13ifvqgig","pricing_plan_id":"cebpf4jnsgd1na2vs0mg"},{"bike_id":"5f68454a-3f46-4716-98ea-a07b68026da7","system_id":"levelo_inurba_marseille","lat":43.30081,"lon":5.37728,"is_reserved":false,"is_disabled":false,"rental_uris":{"android":"levelo://app?vid=5f68454a-3f46-4716-98ea-a07b68026da7","ios":"levelo://app?vid=5f68454a-3f46-4716-98ea-a07b68026da7"},"vehicle_type_id":"4","last_reported":1781371667,"current_range_meters":4800,"station_id":"","pricing_plan_id":"cebpf4jnsgd1na2vs0mg"},{"bike_id":"497e449f-3470-46e3-9417-66bcca2b0b33","system_id":"levelo_inurba_marseille","lat":43.26954,"lon":5.386325,"is_reserved":false,"is_disabled":false,"rental_uris":{"android":"levelo://app?vid=497e449f-3470-46e3-9417-66bcca2b0b33","ios":"levelo://app?vid=497e449f-3470-46e3-9417-66bcca2b0b33"},"vehicle_type_id":"4","last_reported":1781371667,"current_range_meters":4800,"station_id":"ce4bhh92rcd13ifvqfh0","pricing_plan_id":"cebpf4jnsgd1na2vs0mg"},{"bike_id":"5f189998-b2b6-4e38-b849-68910c9a3d84","system_id":"levelo_inurba_marseille","lat":43.317514,"lon":5.39012,"is_reserved":false,"is_disabled":false,"rental_uris":{"android":"levelo://app?vid=5f189998-b2b6-4e38-b849-68910c9a3d84","ios":"levelo://app?vid=5f189998-b2b6-4e38-b849-68910c9a3d84"},"vehicle_type_id":"4","last_reported":1781371667,"current_range_meters":4800,"station_id":"","pricing_plan_id":"cebpf4jnsgd1na2vs0mg"},{"bike_id":"8c40fad3-7dad-42c5-803d-1c69bd2cb30d","system_id":"levelo_inurba_marseille","lat":43.30592,"lon":5.39358,"is_reserved":false,"is_disabled":false,"rental_uris":{"android":"levelo://app?vid=8c40fad3-7dad-42c5-803d-1c69bd2cb30d","ios":"levelo://app?vid=8c40fad3-7dad-42c5-803d-1c69bd2cb30d"},"vehicle_type_id":"4","last_reported":1781371667,"current_range_meters":4800,"station_id":"ce4bh0p2rcd13ifvqd80","pricing_plan_id":"cebpf4jnsgd1na2vs0mg"},{"bike_id":"4bd3559c-a575-48a2-bb55-b1bad56dd71a","system_id":"levelo_inurba_marseille","lat":43.292673,"lon":5.384379,"is_reserved":false,"is_disabled":false,"rental_uris":{"android":"levelo://app?vid=4bd3559c-a575-48a2-bb55-b1bad56dd71a","ios":"levelo://app?vid=4bd3559c-a575-48a2-bb55-b1bad56dd71a"},"vehicle_type_id":"4","last_reported":1781371667,"current_range_meters":4800,"station_id":"ce4bh692rcd13ifvqea0","pricing_plan_id":"cebpf4jnsgd1na2vs0mg"},{"bike_id":"437e3ba7-ea12-4e88-a20f-de0ed79ac149","system_id":"levelo_inurba_marseille","lat":43.24075,"lon":5.37759,"is_reserved":false,"is_disabled":true,"rental_uris":{"android":"levelo://app?vid=437e3ba7-ea12-4e88-a20f-de0ed79ac149","ios":"levelo://app?vid=437e3ba7-ea12-4e88-a20f-de0ed79ac149"},"vehicle_type_id":"4","last_reported":1781371667,"current_range_meters":4800,"station_id":"ce4bhnp2rcd13ifvqgvg","pricing_plan_id":"cebpf4jnsgd1na2vs0mg"},{"bike_id":"c0203d9b-4479-4564-986a-b4b7d673d8ba","system_id":"levelo_inurba_marseille","lat":43.25705,"lon":5.41104,"is_reserved":false,"is_disabled":false,"rental_uris":{"android":"levelo://app?vid=c0203d9b-4479-4564-986a-b4b7d673d8ba","ios":"levelo://app?vid=c0203d9b-4479-4564-986a-b4b7d673d8ba"},"vehicle_type_id":"4","last_reported":1781371667,"current_range_meters":4800,"station_id":"ce4bhkp2rcd13ifvqgd0","pricing_plan_id":"cebpf4jnsgd1na2vs0mg"},{"bike_id":"6f5ccf36-5055-49b1-9836-fce2d1b63fae","system_id":"levelo_inurba_marseille","lat":43.26586,"lon":5.39037,"is_reserved":false,"is_disabled":false,"rental_uris":{"android":"levelo://app?vid=6f5ccf36-5055-49b1-9836-fce2d1b63fae","ios":"levelo://app?vid=6f5ccf36-5055-49b1-9836-fce2d1b63fae"},"vehicle_type_id":"4","last_reported":1781371667,"current_range_meters":4800,"station_id":"ce4bhe12rcd13ifvqf30","pricing_plan_id":"cebpf4jnsgd1na2vs0mg"},{"bike_id":"96b2ab90-d8d2-49df-9035-0467b0e6c086","system_id":"levelo_inurba_marseille","lat":43.29819,"lon":5.44068,"is_reserved":false,"is_disabled":false,"rental_uris":{"android":"levelo://app?vid=96b2ab90-d8d2-49df-9035-0467b0e6c086","ios":"levelo://app?vid=96b2ab90-d8d2-49df-9035-0467b0e6c086"},"vehicle_type_id":"4","last_reported":1781371667,"current_range_meters":4800,"station_id":"st_d3jp68qikq2c7381ktn0","pricing_plan_id":"cebpf4jnsgd1na2vs0mg"},{"bike_id":"58520666-b1ab-4339-864b-8beac6863597","system_id":"levelo_inurba_marseille","lat":43.3081,"lon":5.38159,"is_reserved":false,"is_disabled":false,"rental_uris":{"android":"levelo://app?vid=58520666-b1ab-4339-864b-8beac6863597","ios":"levelo://app?vid=58520666-b1ab-4339-864b-8beac6863597"},"vehicle_type_id":"4","last_reported":1781371667,"current_range_meters":4800,"station_id":"ce4bgt12rcd13ifvqce0","pricing_plan_id":"cebpf4jnsgd1na2vs0mg"},{"bike_id":"6db0e189-20d1-4d92-ab9f-a2ad8e479225","system_id":"levelo_inurba_marseille","lat":43.29272,"lon":5.35588,"is_reserved":false,"is_disabled":false,"rental_uris":{"android":"levelo://app?vid=6db0e189-20d1-4d92-ab9f-a2ad8e479225","ios":"levelo://app?vid=6db0e189-20d1-4d92-ab9f-a2ad8e479225"},"vehicle_type_id":"4","last_reported":1781371667,"current_range_meters":4800,"station_id":"","pricing_plan_id":"cebpf4jnsgd1na2vs0mg"},{"bike_id":"3ea61c54-5ae4-4ec5-8d1e-95c813254f6e","system_id":"levelo_inurba_marseille","lat":43.24464,"lon":5.42527,"is_reserved":false,"is_disabled":false,"rental_uris":{"android":"levelo://app?vid=3ea61c54-5ae4-4ec5-8d1e-95c813254f6e","ios":"levelo://app?vid=3ea61c54-5ae4-4ec5-8d1e-95c813254f6e"},"vehicle_type_id":"4","last_reported":1781371667,"current_range_meters":4800,"station_id":"st_d4a3vfp97mjs738cd8kg","pricing_plan_id":"cebpf4jnsgd1na2vs0mg"},{"bike_id":"f220afa4-a264-4ed7-a210-eb575375dee5","system_id":"levelo_inurba_marseille","lat":43.30142,"lon":5.387744,"is_reserved":false,"is_disabled":false,"rental_uris":{"android":"levelo://app?vid=f220afa4-a264-4ed7-a210-eb575375dee5","ios":"levelo://app?vid=f220afa4-a264-4ed7-a210-eb575375dee5"},"vehicle_type_id":"4","last_reported":1781371667,"current_range_meters":5600,"station_id":"ce4bghh2rcd13ifvqb60","pricing_plan_id":"cebpf4jnsgd1na2vs0mg"},{"bike_id":"86b4821b-066f-4af7-9341-601c3120669c","system_id":"levelo_inurba_marseille","lat":43.26245,"lon":5.38753,"is_reserved":false,"is_disabled":false,"rental_uris":{"android":"levelo://app?vid=86b4821b-066f-4af7-9341-601c3120669c","ios":"levelo://app?vid=86b4821b-066f-4af7-9341-601c3120669c"},"vehicle_type_id":"4","last_reported":1781371667,"current_range_meters":5600,"station_id":"st_d8gjfg747rts73coq3b0","pricing_plan_id":"cebpf4jnsgd1na2vs0mg"},{"bike_id":"b9d1843a-d85f-480b-9e0d-ac8e9afe5d9f","system_id":"levelo_inurba_marseille","lat":43.337444,"lon":5.374475,"is_reserved":false,"is_disabled":false,"rental_uris":{"android":"levelo://app?vid=b9d1843a-d85f-480b-9e0d-ac8e9afe5d9f","ios":"levelo://app?vid=b9d1843a-d85f-480b-9e0d-ac8e9afe5d9f"},"vehicle_type_id":"4","last_reported":1781371667,"current_range_meters":5600,"station_id":"","pricing_plan_id":"cebpf4jnsgd1na2vs0mg"},{"bike_id":"75f2ac1b-0110-4a69-8e2b-928c67794bef","system_id":"levelo_inurba_marseille","lat":43.24451,"lon":5.42534,"is_reserved":false,"is_disabled":false,"rental_uris":{"android":"levelo://app?vid=75f2ac1b-0110-4a69-8e2b-928c67794bef","ios":"levelo://app?vid=75f2ac1b-0110-4a69-8e2b-928c67794bef"},"vehicle_type_id":"4","last_reported":1781371667,"current_range_meters":5600,"station_id":"st_d4a3vfp97mjs738cd8kg","pricing_plan_id":"cebpf4jnsgd1na2vs0mg"},{"bike_id":"14c6b8a9-d7f2-42c6-9176-ddd3504d4d0c","system_id":"levelo_inurba_marseille","lat":43.29016,"lon":5.36724,"is_reserved":false,"is_disabled":false,"rental_uris":{"android":"levelo://app?vid=14c6b8a9-d7f2-42c6-9176-ddd3504d4d0c","ios":"levelo://app?vid=14c6b8a9-d7f2-42c6-9176-ddd3504d4d0c"},"vehicle_type_id":"4","last_reported":1781371667,"current_range_meters":5600,"station_id":"","pricing_plan_id":"cebpf4jnsgd1na2vs0mg"},{"bike_id":"abb500d4-9db3-49c1-855d-09267fc106f9","system_id":"levelo_inurba_marseille","lat":43.248,"lon":5.37453,"is_reserved":false,"is_disabled":false,"rental_uris":{"android":"levelo://app?vid=abb500d4-9db3-49c1-855d-09267fc106f9","ios":"levelo://app?vid=abb500d4-9db3-49c1-855d-09267fc106f9"},"vehicle_type_id":"4","last_reported":1781371667,"current_range_meters":5600,"station_id":"ce4bhgh2rcd13ifvqfb0","pricing_plan_id":"cebpf4jnsgd1na2vs0mg"},{"bike_id":"d7e38f00-ec17-4f4a-8095-00ee7cd27fb9","system_id":"levelo_inurba_marseille","lat":43.29627,"lon":5.37729,"is_reserved":false,"is_disabled":false,"rental_uris":{"android":"levelo://app?vid=d7e38f00-ec17-4f4a-8095-00ee7cd27fb9","ios":"levelo://app?vid=d7e38f00-ec17-4f4a-8095-00ee7cd27fb9"},"vehicle_type_id":"4","last_reported":1781371667,"current_range_meters":5600,"station_id":"ce4bgi92rcd13ifvqb90","pricing_plan_id":"cebpf4jnsgd1na2vs0mg"},{"bike_id":"248e15f2-370c-44d7-95cf-188a441d6b03","system_id":"levelo_inurba_marseille","lat":43.28807,"lon":5.3838,"is_reserved":false,"is_disabled":false,"rental_uris":{"android":"levelo://app?vid=248e15f2-370c-44d7-95cf-188a441d6b03","ios":"levelo://app?vid=248e15f2-370c-44d7-95cf-188a441d6b03"},"vehicle_type_id":"4","last_reported":1781371667,"current_range_meters":5600,"station_id":"","pricing_plan_id":"cebpf4jnsgd1na2vs0mg"},{"bike_id":"b0e1c627-e366-414e-b921-4572a58307db","system_id":"levelo_inurba_marseille","lat":43.28614,"lon":5.35103,"is_reserved":false,"is_disabled":true,"rental_uris":{"android":"levelo://app?vid=b0e1c627-e366-414e-b921-4572a58307db","ios":"levelo://app?vid=b0e1c627-e366-414e-b921-4572a58307db"},"vehicle_type_id":"4","last_reported":1781371667,"current_range_meters":5600,"station_id":"ce4bhch2rcd13ifvqeug","pricing_plan_id":"cebpf4jnsgd1na2vs0mg"},{"bike_id":"33acdeaf-45e2-4ca8-8b1f-b7d8ab2d293c","system_id":"levelo_inurba_marseille","lat":43.2668,"lon":5.38281,"is_reserved":false,"is_disabled":false,"rental_uris":{"android":"levelo://app?vid=33acdeaf-45e2-4ca8-8b1f-b7d8ab2d293c","ios":"levelo://app?vid=33acdeaf-45e2-4ca8-8b1f-b7d8ab2d293c"},"vehicle_type_id":"4","last_reported":1781371667,"current_range_meters":5600,"station_id":"ce4bhg92rcd13ifvqf90","pricing_plan_id":"cebpf4jnsgd1na2vs0mg"},{"bike_id":"1e86ab00-3947-4c5e-ae19-de817e35e9f7","system_id":"levelo_inurba_marseille","lat":43.25505,"lon":5.37656,"is_reserved":false,"is_disabled":false,"rental_uris":{"android":"levelo://app?vid=1e86ab00-3947-4c5e-ae19-de817e35e9f7","ios":"levelo://app?vid=1e86ab00-3947-4c5e-ae19-de817e35e9f7"},"vehicle_type_id":"4","last_reported":1781371667,"current_range_meters":5600,"station_id":"ce4bhh12rcd13ifvqff0","pricing_plan_id":"cebpf4jnsgd1na2vs0mg"},{"bike_id":"bf740f93-dcae-45bd-8189-93f0bf5977b3","system_id":"levelo_inurba_marseille","lat":43.2257,"lon":5.41628,"is_reserved":false,"is_disabled":false,"rental_uris":{"android":"levelo://app?vid=bf740f93-dcae-45bd-8189-93f0bf5977b3","ios":"levelo://app?vid=bf740f93-dcae-45bd-8189-93f0bf5977b3"},"vehicle_type_id":"4","last_reported":1781371667,"current_range_meters":5600,"station_id":"st_d2o4gvlbi1j2169b742g","pricing_plan_id":"cebpf4jnsgd1na2vs0mg"},{"bike_id":"85c669e0-7f32-4596-873a-878e48055f74","system_id":"levelo_inurba_marseille","lat":43.24812,"lon":5.37434,"is_reserved":false,"is_disabled":false,"rental_uris":{"android":"levelo://app?vid=85c669e0-7f32-4596-873a-878e48055f74","ios":"levelo://app?vid=85c669e0-7f32-4596-873a-878e48055f74"},"vehicle_type_id":"4","last_reported":1781371667,"current_range_meters":5600,"station_id":"ce4bhgh2rcd13ifvqfb0","pricing_plan_id":"cebpf4jnsgd1na2vs0mg"},{"bike_id":"514ca461-1ef9-452d-90bb-837f0bf92baf","system_id":"levelo_inurba_marseille","lat":43.31741,"lon":5.40469,"is_reserved":false,"is_disabled":false,"rental_uris":{"android":"levelo://app?vid=514ca461-1ef9-452d-90bb-837f0bf92baf","ios":"levelo://app?vid=514ca461-1ef9-452d-90bb-837f0bf92baf"},"vehicle_type_id":"4","last_reported":1781371667,"current_range_meters":5600,"station_id":"","pricing_plan_id":"cebpf4jnsgd1na2vs0mg"},{"bike_id":"7c1dc013-e730-4979-8baf-3f97ecb7e3b8","system_id":"levelo_inurba_marseille","lat":43.29635,"lon":5.37157,"is_reserved":false,"is_disabled":false,"rental_uris":{"android":"levelo://app?vid=7c1dc013-e730-4979-8baf-3f97ecb7e3b8","ios":"levelo://app?vid=7c1dc013-e730-4979-8baf-3f97ecb7e3b8"},"vehicle_type_id":"4","last_reported":1781371667,"current_range_meters":5600,"station_id":"ce4bgnh2rcd13ifvqc0g","pricing_plan_id":"cebpf4jnsgd1na2vs0mg"},{"bike_id":"fe131b0b-1ef9-4416-9fb2-6e419e6feba9","system_id":"levelo_inurba_marseille","lat":43.24378,"lon":5.37079,"is_reserved":false,"is_disabled":true,"rental_uris":{"android":"levelo://app?vid=fe131b0b-1ef9-4416-9fb2-6e419e6feba9","ios":"levelo://app?vid=fe131b0b-1ef9-4416-9fb2-6e419e6feba9"},"vehicle_type_id":"4","last_reported":1781371667,"current_range_meters":5600,"station_id":"ce4bhhh2rcd13ifvqfk0","pricing_plan_id":"cebpf4jnsgd1na2vs0mg"},{"bike_id":"a4367c49-3ad9-4e5d-b890-d24a763f0a44","system_id":"levelo_inurba_marseille","lat":43.28814,"lon":5.42767,"is_reserved":false,"is_disabled":false,"rental_uris":{"android":"levelo://app?vid=a4367c49-3ad9-4e5d-b890-d24a763f0a44","ios":"levelo://app?vid=a4367c49-3ad9-4e5d-b890-d24a763f0a44"},"vehicle_type_id":"4","last_reported":1781371667,"current_range_meters":5600,"station_id":"","pricing_plan_id":"cebpf4jnsgd1na2vs0mg"},{"bike_id":"a34fdf6b-adef-427b-997b-ae3975a15c74","system_id":"levelo_inurba_marseille","lat":43.313599,"lon":5.384845,"is_reserved":false,"is_disabled":false,"rental_uris":{"android":"levelo://app?vid=a34fdf6b-adef-427b-997b-ae3975a15c74","ios":"levelo://app?vid=a34fdf6b-adef-427b-997b-ae3975a15c74"},"vehicle_type_id":"4","last_reported":1781371667,"current_range_meters":5600,"station_id":"ce4bgt92rcd13ifvqcf0","pricing_plan_id":"cebpf4jnsgd1na2vs0mg"},{"bike_id":"62b86990-4202-4b71-b4ef-b66f9b4ab487","system_id":"levelo_inurba_marseille","lat":43.272,"lon":5.40994,"is_reserved":false,"is_disabled":false,"rental_uris":{"android":"levelo://app?vid=62b86990-4202-4b71-b4ef-b66f9b4ab487","ios":"levelo://app?vid=62b86990-4202-4b71-b4ef-b66f9b4ab487"},"vehicle_type_id":"4","last_reported":1781371667,"current_range_meters":6000,"station_id":"ce4bhl12rcd13ifvqgf0","pricing_plan_id":"cebpf4jnsgd1na2vs0mg"},{"bike_id":"851a7463-6ba8-4990-9327-41ba405ea012","system_id":"levelo_inurba_marseille","lat":43.30546,"lon":5.36542,"is_reserved":false,"is_disabled":false,"rental_uris":{"android":"levelo://app?vid=851a7463-6ba8-4990-9327-41ba405ea012","ios":"levelo://app?vid=851a7463-6ba8-4990-9327-41ba405ea012"},"vehicle_type_id":"4","last_reported":1781371667,"current_range_meters":6000,"station_id":"ce4bgs12rcd13ifvqcag","pricing_plan_id":"cebpf4jnsgd1na2vs0mg"},{"bike_id":"c175211b-3da4-46cc-a60f-4967a28b1b76","system_id":"levelo_inurba_marseille","lat":43.32997,"lon":5.3751,"is_reserved":false,"is_disabled":false,"rental_uris":{"android":"levelo://app?vid=c175211b-3da4-46cc-a60f-4967a28b1b76","ios":"levelo://app?vid=c175211b-3da4-46cc-a60f-4967a28b1b76"},"vehicle_type_id":"4","last_reported":1781371667,"current_range_meters":6000,"station_id":"","pricing_plan_id":"cebpf4jnsgd1na2vs0mg"},{"bike_id":"e0a4acaa-b62c-4970-818b-fd1170d95561","system_id":"levelo_inurba_marseille","lat":43.26211,"lon":5.37431,"is_reserved":false,"is_disabled":false,"rental_uris":{"android":"levelo://app?vid=e0a4acaa-b62c-4970-818b-fd1170d95561","ios":"levelo://app?vid=e0a4acaa-b62c-4970-818b-fd1170d95561"},"vehicle_type_id":"4","last_reported":1781371667,"current_range_meters":6000,"station_id":"ce4bhgp2rcd13ifvqfc0","pricing_plan_id":"cebpf4jnsgd1na2vs0mg"},{"bike_id":"60ef35b5-2df4-436e-b925-da19a11c6328","system_id":"levelo_inurba_marseille","lat":43.32107,"lon":5.36767,"is_reserved":false,"is_disabled":false,"rental_uris":{"android":"levelo://app?vid=60ef35b5-2df4-436e-b925-da19a11c6328","ios":"levelo://app?vid=60ef35b5-2df4-436e-b925-da19a11c6328"},"vehicle_type_id":"4","last_reported":1781371667,"current_range_meters":6000,"station_id":"ce4bhrh2rcd13ifvqhug","pricing_plan_id":"cebpf4jnsgd1na2vs0mg"},{"bike_id":"de34cc43-9c18-41de-a3e9-5ab17a96e097","system_id":"levelo_inurba_marseille","lat":43.29803,"lon":5.38116,"is_reserved":false,"is_disabled":true,"rental_uris":{"android":"levelo://app?vid=de34cc43-9c18-41de-a3e9-5ab17a96e097","ios":"levelo://app?vid=de34cc43-9c18-41de-a3e9-5ab17a96e097"},"vehicle_type_id":"4","last_reported":1781371667,"current_range_meters":6000,"station_id":"ce4bgip2rcd13ifvqbb0","pricing_plan_id":"cebpf4jnsgd1na2vs0mg"},{"bike_id":"bf601120-2f22-4bcd-8556-91c5f1ccc8b1","system_id":"levelo_inurba_marseille","lat":43.31405,"lon":5.38113,"is_reserved":false,"is_disabled":false,"rental_uris":{"android":"levelo://app?vid=bf601120-2f22-4bcd-8556-91c5f1ccc8b1","ios":"levelo://app?vid=bf601120-2f22-4bcd-8556-91c5f1ccc8b1"},"vehicle_type_id":"4","last_reported":1781371667,"current_range_meters":6000,"station_id":"","pricing_plan_id":"cebpf4jnsgd1na2vs0mg"},{"bike_id":"ac3358ce-481e-4fda-9f9b-670be68b265e","system_id":"levelo_inurba_marseille","lat":43.31477,"lon":5.4021,"is_reserved":false,"is_disabled":false,"rental_uris":{"android":"levelo://app?vid=ac3358ce-481e-4fda-9f9b-670be68b265e","ios":"levelo://app?vid=ac3358ce-481e-4fda-9f9b-670be68b265e"},"vehicle_type_id":"4","last_reported":1781371667,"current_range_meters":6000,"station_id":"","pricing_plan_id":"cebpf4jnsgd1na2vs0mg"},{"bike_id":"5b5ea2fb-3ba8-4c10-841c-ca34891a615c","system_id":"levelo_inurba_marseille","lat":43.29361,"lon":5.36377,"is_reserved":false,"is_disabled":false,"rental_uris":{"android":"levelo://app?vid=5b5ea2fb-3ba8-4c10-841c-ca34891a615c","ios":"levelo://app?vid=5b5ea2fb-3ba8-4c10-841c-ca34891a615c"},"vehicle_type_id":"4","last_reported":1781371667,"current_range_meters":6000,"station_id":"","pricing_plan_id":"cebpf4jnsgd1na2vs0mg"},{"bike_id":"a303e4db-b9ba-4d63-9eff-f7e5a8e536c2","system_id":"levelo_inurba_marseille","lat":43.28026,"lon":5.40898,"is_reserved":false,"is_disabled":false,"rental_uris":{"android":"levelo://app?vid=a303e4db-b9ba-4d63-9eff-f7e5a8e536c2","ios":"levelo://app?vid=a303e4db-b9ba-4d63-9eff-f7e5a8e536c2"},"vehicle_type_id":"4","last_reported":1781371667,"current_range_meters":6000,"station_id":"","pricing_plan_id":"cebpf4jnsgd1na2vs0mg"},{"bike_id":"be004f60-661b-45b9-a00d-02d877da6c38","system_id":"levelo_inurba_marseille","lat":43.25379,"lon":5.42283,"is_reserved":false,"is_disabled":false,"rental_uris":{"android":"levelo://app?vid=be004f60-661b-45b9-a00d-02d877da6c38","ios":"levelo://app?vid=be004f60-661b-45b9-a00d-02d877da6c38"},"vehicle_type_id":"4","last_reported":1781371667,"current_range_meters":6000,"station_id":"","pricing_plan_id":"cebpf4jnsgd1na2vs0mg"},{"bike_id":"4b84cc20-93d9-4e85-811a-ba432f50bc38","system_id":"levelo_inurba_marseille","lat":43.2619,"lon":5.38075,"is_reserved":false,"is_disabled":false,"rental_uris":{"android":"levelo://app?vid=4b84cc20-93d9-4e85-811a-ba432f50bc38","ios":"levelo://app?vid=4b84cc20-93d9-4e85-811a-ba432f50bc38"},"vehicle_type_id":"4","last_reported":1781371667,"current_range_meters":6000,"station_id":"","pricing_plan_id":"cebpf4jnsgd1na2vs0mg"},{"bike_id":"70074e2a-94c4-4bb0-bbca-a24f4105eb9f","system_id":"levelo_inurba_marseille","lat":43.29094,"lon":5.38426,"is_reserved":false,"is_disabled":false,"rental_uris":{"android":"levelo://app?vid=70074e2a-94c4-4bb0-bbca-a24f4105eb9f","ios":"levelo://app?vid=70074e2a-94c4-4bb0-bbca-a24f4105eb9f"},"vehicle_type_id":"4","last_reported":1781371667,"current_range_meters":6000,"station_id":"","pricing_plan_id":"cebpf4jnsgd1na2vs0mg"},{"bike_id":"132661cb-9d8a-4df2-82e1-13b15034cf8f","system_id":"levelo_inurba_marseille","lat":43.29253,"lon":5.38444,"is_reserved":false,"is_disabled":true,"rental_uris":{"android":"levelo://app?vid=132661cb-9d8a-4df2-82e1-13b15034cf8f","ios":"levelo://app?vid=132661cb-9d8a-4df2-82e1-13b15034cf8f"},"vehicle_type_id":"4","last_reported":1781371667,"current_range_meters":6000,"station_id":"ce4bh692rcd13ifvqea0","pricing_plan_id":"cebpf4jnsgd1na2vs0mg"},{"bike_id":"4edee940-ec43-4825-84a8-8448d2933867","system_id":"levelo_inurba_marseille","lat":43.24545,"lon":5.39526,"is_reserved":false,"is_disabled":false,"rental_uris":{"android":"levelo://app?vid=4edee940-ec43-4825-84a8-8448d2933867","ios":"levelo://app?vid=4edee940-ec43-4825-84a8-8448d2933867"},"vehicle_type_id":"4","last_reported":1781371667,"current_range_meters":6000,"station_id":"ce4bhlp2rcd13ifvqgjg","pricing_plan_id":"cebpf4jnsgd1na2vs0mg"},{"bike_id":"9e2270ea-274a-42e3-b38e-1437e59764df","system_id":"levelo_inurba_marseille","lat":43.2669,"lon":5.38274,"is_reserved":false,"is_disabled":false,"rental_uris":{"android":"levelo://app?vid=9e2270ea-274a-42e3-b38e-1437e59764df","ios":"levelo://app?vid=9e2270ea-274a-42e3-b38e-1437e59764df"},"vehicle_type_id":"4","last_reported":1781371667,"current_range_meters":6000,"station_id":"ce4bhg92rcd13ifvqf90","pricing_plan_id":"cebpf4jnsgd1na2vs0mg"},{"bike_id":"8f5b297e-a101-4dac-9b10-8764ca019902","system_id":"levelo_inurba_marseille","lat":43.313634,"lon":5.38489,"is_reserved":false,"is_disabled":true,"rental_uris":{"android":"levelo://app?vid=8f5b297e-a101-4dac-9b10-8764ca019902","ios":"levelo://app?vid=8f5b297e-a101-4dac-9b10-8764ca019902"},"vehicle_type_id":"4","last_reported":1781371667,"current_range_meters":6000,"station_id":"","pricing_plan_id":"cebpf4jnsgd1na2vs0mg"},{"bike_id":"c6555d54-519a-459c-a7d8-0f5386f527ae","system_id":"levelo_inurba_marseille","lat":43.2972,"lon":5.37423,"is_reserved":false,"is_disabled":false,"rental_uris":{"android":"levelo://app?vid=c6555d54-519a-459c-a7d8-0f5386f527ae","ios":"levelo://app?vid=c6555d54-519a-459c-a7d8-0f5386f527ae"},"vehicle_type_id":"4","last_reported":1781371667,"current_range_meters":6000,"station_id":"","pricing_plan_id":"cebpf4jnsgd1na2vs0mg"},{"bike_id":"6fb07b35-b88f-45ae-9e9e-ceed1b219374","system_id":"levelo_inurba_marseille","lat":43.32471,"lon":5.36614,"is_reserved":false,"is_disabled":true,"rental_uris":{"android":"levelo://app?vid=6fb07b35-b88f-45ae-9e9e-ceed1b219374","ios":"levelo://app?vid=6fb07b35-b88f-45ae-9e9e-ceed1b219374"},"vehicle_type_id":"4","last_reported":1781371667,"current_range_meters":6000,"station_id":"ce4bhs12rcd13ifvqhvg","pricing_plan_id":"cebpf4jnsgd1na2vs0mg"},{"bike_id":"e85eacf2-df37-4560-92c7-59f7e311147c","system_id":"levelo_inurba_marseille","lat":43.255727,"lon":5.382232,"is_reserved":false,"is_disabled":false,"rental_uris":{"android":"levelo://app?vid=e85eacf2-df37-4560-92c7-59f7e311147c","ios":"levelo://app?vid=e85eacf2-df37-4560-92c7-59f7e311147c"},"vehicle_type_id":"4","last_reported":1781371667,"current_range_meters":6000,"station_id":"ce4bhih2rcd13ifvqfs0","pricing_plan_id":"cebpf4jnsgd1na2vs0mg"},{"bike_id":"1f107bcc-729e-4ca0-90a5-cdb85bb4b328","system_id":"levelo_inurba_marseille","lat":43.28291,"lon":5.39088,"is_reserved":false,"is_disabled":false,"rental_uris":{"android":"levelo://app?vid=1f107bcc-729e-4ca0-90a5-cdb85bb4b328","ios":"levelo://app?vid=1f107bcc-729e-4ca0-90a5-cdb85bb4b328"},"vehicle_type_id":"4","last_reported":1781371667,"current_range_meters":6000,"station_id":"","pricing_plan_id":"cebpf4jnsgd1na2vs0mg"},{"bike_id":"8e220ecf-bf2e-4209-bd0b-74b77f772687","system_id":"levelo_inurba_marseille","lat":43.299638,"lon":5.384925,"is_reserved":false,"is_disabled":true,"rental_uris":{"android":"levelo://app?vid=8e220ecf-bf2e-4209-bd0b-74b77f772687","ios":"levelo://app?vid=8e220ecf-bf2e-4209-bd0b-74b77f772687"},"vehicle_type_id":"4","last_reported":1781371667,"current_range_meters":6000,"station_id":"ce4bgj92rcd13ifvqbd0","pricing_plan_id":"cebpf4jnsgd1na2vs0mg"},{"bike_id":"48321f0f-7988-499a-b12f-84cd26bc8f8e","system_id":"levelo_inurba_marseille","lat":43.24085,"lon":5.37774,"is_reserved":false,"is_disabled":false,"rental_uris":{"android":"levelo://app?vid=48321f0f-7988-499a-b12f-84cd26bc8f8e","ios":"levelo://app?vid=48321f0f-7988-499a-b12f-84cd26bc8f8e"},"vehicle_type_id":"4","last_reported":1781371667,"current_range_meters":6000,"station_id":"ce4bhnp2rcd13ifvqgvg","pricing_plan_id":"cebpf4jnsgd1na2vs0mg"},{"bike_id":"45469403-b2c5-4518-9427-6181c2421365","system_id":"levelo_inurba_marseille","lat":43.22538,"lon":5.34829,"is_reserved":false,"is_disabled":false,"rental_uris":{"android":"levelo://app?vid=45469403-b2c5-4518-9427-6181c2421365","ios":"levelo://app?vid=45469403-b2c5-4518-9427-6181c2421365"},"vehicle_type_id":"4","last_reported":1781371667,"current_range_meters":6000,"station_id":"st_cvj5dfep6f1abm77gieg","pricing_plan_id":"cebpf4jnsgd1na2vs0mg"},{"bike_id":"78f96ec0-3651-40e0-9064-540398d155f5","system_id":"levelo_inurba_marseille","lat":43.24489,"lon":5.42523,"is_reserved":false,"is_disabled":false,"rental_uris":{"android":"levelo://app?vid=78f96ec0-3651-40e0-9064-540398d155f5","ios":"levelo://app?vid=78f96ec0-3651-40e0-9064-540398d155f5"},"vehicle_type_id":"4","last_reported":1781371667,"current_range_meters":6000,"station_id":"st_d4a3vfp97mjs738cd8kg","pricing_plan_id":"cebpf4jnsgd1na2vs0mg"},{"bike_id":"6e639ce9-199a-4916-bb3c-59a5e9a5a31f","system_id":"levelo_inurba_marseille","lat":43.24648,"lon":5.38145,"is_reserved":false,"is_disabled":false,"rental_uris":{"android":"levelo://app?vid=6e639ce9-199a-4916-bb3c-59a5e9a5a31f","ios":"levelo://app?vid=6e639ce9-199a-4916-bb3c-59a5e9a5a31f"},"vehicle_type_id":"4","last_reported":1781371667,"current_range_meters":6400,"station_id":"ce4bhih2rcd13ifvqfr0","pricing_plan_id":"cebpf4jnsgd1na2vs0mg"},{"bike_id":"ff144ad8-1853-42cb-ab9d-78b610e03f53","system_id":"levelo_inurba_marseille","lat":43.26156,"lon":5.37492,"is_reserved":false,"is_disabled":false,"rental_uris":{"android":"levelo://app?vid=ff144ad8-1853-42cb-ab9d-78b610e03f53","ios":"levelo://app?vid=ff144ad8-1853-42cb-ab9d-78b610e03f53"},"vehicle_type_id":"4","last_reported":1781371667,"current_range_meters":6400,"station_id":"ce4bhgp2rcd13ifvqfc0","pricing_plan_id":"cebpf4jnsgd1na2vs0mg"},{"bike_id":"2e296511-deb4-43a9-83f0-81592d7a3463","system_id":"levelo_inurba_marseille","lat":43.33196,"lon":5.37715,"is_reserved":false,"is_disabled":false,"rental_uris":{"android":"levelo://app?vid=2e296511-deb4-43a9-83f0-81592d7a3463","ios":"levelo://app?vid=2e296511-deb4-43a9-83f0-81592d7a3463"},"vehicle_type_id":"4","last_reported":1781371667,"current_range_meters":6400,"station_id":"","pricing_plan_id":"cebpf4jnsgd1na2vs0mg"},{"bike_id":"b75b860e-f642-4d57-ae10-a57f8b9673f2","system_id":"levelo_inurba_marseille","lat":43.26232,"lon":5.38779,"is_reserved":false,"is_disabled":false,"rental_uris":{"android":"levelo://app?vid=b75b860e-f642-4d57-ae10-a57f8b9673f2","ios":"levelo://app?vid=b75b860e-f642-4d57-ae10-a57f8b9673f2"},"vehicle_type_id":"4","last_reported":1781371667,"current_range_meters":6400,"station_id":"st_d8gjfg747rts73coq3b0","pricing_plan_id":"cebpf4jnsgd1na2vs0mg"},{"bike_id":"aa4d4832-791f-46b6-b904-76b96512b7a5","system_id":"levelo_inurba_marseille","lat":43.29595,"lon":5.43992,"is_reserved":false,"is_disabled":false,"rental_uris":{"android":"levelo://app?vid=aa4d4832-791f-46b6-b904-76b96512b7a5","ios":"levelo://app?vid=aa4d4832-791f-46b6-b904-76b96512b7a5"},"vehicle_type_id":"4","last_reported":1781371667,"current_range_meters":6400,"station_id":"","pricing_plan_id":"cebpf4jnsgd1na2vs0mg"},{"bike_id":"3d5e5ce1-6f9c-42a2-9f44-a3db55058476","system_id":"levelo_inurba_marseille","lat":43.23071,"lon":5.35481,"is_reserved":false,"is_disabled":false,"rental_uris":{"android":"levelo://app?vid=3d5e5ce1-6f9c-42a2-9f44-a3db55058476","ios":"levelo://app?vid=3d5e5ce1-6f9c-42a2-9f44-a3db55058476"},"vehicle_type_id":"4","last_reported":1781371667,"current_range_meters":6400,"station_id":"cpo3342slgdg3j2ifvpg","pricing_plan_id":"cebpf4jnsgd1na2vs0mg"},{"bike_id":"e946dae2-a9db-4a74-9c6e-805b3abf5a48","system_id":"levelo_inurba_marseille","lat":43.25746,"lon":5.3825,"is_reserved":false,"is_disabled":false,"rental_uris":{"android":"levelo://app?vid=e946dae2-a9db-4a74-9c6e-805b3abf5a48","ios":"levelo://app?vid=e946dae2-a9db-4a74-9c6e-805b3abf5a48"},"vehicle_type_id":"4","last_reported":1781371667,"current_range_meters":6400,"station_id":"","pricing_plan_id":"cebpf4jnsgd1na2vs0mg"},{"bike_id":"a93c336f-3c51-4f38-bb2d-471c66d3c0f1","system_id":"levelo_inurba_marseille","lat":43.25936,"lon":5.40904,"is_reserved":false,"is_disabled":false,"rental_uris":{"android":"levelo://app?vid=a93c336f-3c51-4f38-bb2d-471c66d3c0f1","ios":"levelo://app?vid=a93c336f-3c51-4f38-bb2d-471c66d3c0f1"},"vehicle_type_id":"4","last_reported":1781371667,"current_range_meters":6400,"station_id":"ce4bhm92rcd13ifvqglg","pricing_plan_id":"cebpf4jnsgd1na2vs0mg"},{"bike_id":"3431c704-991e-4545-8eec-fa15e92ea294","system_id":"levelo_inurba_marseille","lat":43.3145,"lon":5.37395,"is_reserved":false,"is_disabled":true,"rental_uris":{"android":"levelo://app?vid=3431c704-991e-4545-8eec-fa15e92ea294","ios":"levelo://app?vid=3431c704-991e-4545-8eec-fa15e92ea294"},"vehicle_type_id":"4","last_reported":1781371667,"current_range_meters":6400,"station_id":"","pricing_plan_id":"cebpf4jnsgd1na2vs0mg"},{"bike_id":"74f7660a-9096-4feb-beb3-160be45c0ab9","system_id":"levelo_inurba_marseille","lat":43.25441,"lon":5.4166,"is_reserved":false,"is_disabled":false,"rental_uris":{"android":"levelo://app?vid=74f7660a-9096-4feb-beb3-160be45c0ab9","ios":"levelo://app?vid=74f7660a-9096-4feb-beb3-160be45c0ab9"},"vehicle_type_id":"4","last_reported":1781371667,"current_range_meters":6400,"station_id":"","pricing_plan_id":"cebpf4jnsgd1na2vs0mg"},{"bike_id":"12326527-aa04-43ed-8122-fab62005bcac","system_id":"levelo_inurba_marseille","lat":43.2738,"lon":5.36244,"is_reserved":false,"is_disabled":true,"rental_uris":{"android":"levelo://app?vid=12326527-aa04-43ed-8122-fab62005bcac","ios":"levelo://app?vid=12326527-aa04-43ed-8122-fab62005bcac"},"vehicle_type_id":"4","last_reported":1781371667,"current_range_meters":6400,"station_id":"ce4bhbh2rcd13ifvqeo0","pricing_plan_id":"cebpf4jnsgd1na2vs0mg"},{"bike_id":"fdc2f588-e9f9-4d5d-92c3-be1d373f5b1f","system_id":"levelo_inurba_marseille","lat":43.29275,"lon":5.36845,"is_reserved":false,"is_disabled":true,"rental_uris":{"android":"levelo://app?vid=fdc2f588-e9f9-4d5d-92c3-be1d373f5b1f","ios":"levelo://app?vid=fdc2f588-e9f9-4d5d-92c3-be1d373f5b1f"},"vehicle_type_id":"4","last_reported":1781371667,"current_range_meters":6400,"station_id":"ce4bhbp2rcd13ifvqesg","pricing_plan_id":"cebpf4jnsgd1na2vs0mg"},{"bike_id":"dc3e3e35-560a-41ac-8b92-c31e5b3f3434","system_id":"levelo_inurba_marseille","lat":43.26695,"lon":5.39266,"is_reserved":false,"is_disabled":false,"rental_uris":{"android":"levelo://app?vid=dc3e3e35-560a-41ac-8b92-c31e5b3f3434","ios":"levelo://app?vid=dc3e3e35-560a-41ac-8b92-c31e5b3f3434"},"vehicle_type_id":"4","last_reported":1781371667,"current_range_meters":6400,"station_id":"","pricing_plan_id":"cebpf4jnsgd1na2vs0mg"},{"bike_id":"3203cca6-69a8-424a-bf02-b169bd2825a3","system_id":"levelo_inurba_marseille","lat":43.26688,"lon":5.38259,"is_reserved":false,"is_disabled":false,"rental_uris":{"android":"levelo://app?vid=3203cca6-69a8-424a-bf02-b169bd2825a3","ios":"levelo://app?vid=3203cca6-69a8-424a-bf02-b169bd2825a3"},"vehicle_type_id":"4","last_reported":1781371667,"current_range_meters":6400,"station_id":"ce4bhg92rcd13ifvqf90","pricing_plan_id":"cebpf4jnsgd1na2vs0mg"},{"bike_id":"760f0d33-a2f3-44bd-9433-b93a3c628067","system_id":"levelo_inurba_marseille","lat":43.225631,"lon":5.416244,"is_reserved":false,"is_disabled":false,"rental_uris":{"android":"levelo://app?vid=760f0d33-a2f3-44bd-9433-b93a3c628067","ios":"levelo://app?vid=760f0d33-a2f3-44bd-9433-b93a3c628067"},"vehicle_type_id":"4","last_reported":1781371667,"current_range_meters":6400,"station_id":"st_d2o4gvlbi1j2169b742g","pricing_plan_id":"cebpf4jnsgd1na2vs0mg"},{"bike_id":"e4d86a05-2db3-434f-a83e-222b4c27c368","system_id":"levelo_inurba_marseille","lat":43.24809,"lon":5.37452,"is_reserved":false,"is_disabled":false,"rental_uris":{"android":"levelo://app?vid=e4d86a05-2db3-434f-a83e-222b4c27c368","ios":"levelo://app?vid=e4d86a05-2db3-434f-a83e-222b4c27c368"},"vehicle_type_id":"4","last_reported":1781371667,"current_range_meters":6400,"station_id":"ce4bhgh2rcd13ifvqfb0","pricing_plan_id":"cebpf4jnsgd1na2vs0mg"},{"bike_id":"3ac38b3a-df68-4ddb-8be7-f5ce5af56eb3","system_id":"levelo_inurba_marseille","lat":43.29001,"lon":5.35621,"is_reserved":false,"is_disabled":true,"rental_uris":{"android":"levelo://app?vid=3ac38b3a-df68-4ddb-8be7-f5ce5af56eb3","ios":"levelo://app?vid=3ac38b3a-df68-4ddb-8be7-f5ce5af56eb3"},"vehicle_type_id":"4","last_reported":1781371667,"current_range_meters":6400,"station_id":"ce4bhb92rcd13ifvqen0","pricing_plan_id":"cebpf4jnsgd1na2vs0mg"},{"bike_id":"1b6a2b76-8e4c-45cf-97dc-6423eee85429","system_id":"levelo_inurba_marseille","lat":43.24955,"lon":5.40499,"is_reserved":false,"is_disabled":false,"rental_uris":{"android":"levelo://app?vid=1b6a2b76-8e4c-45cf-97dc-6423eee85429","ios":"levelo://app?vid=1b6a2b76-8e4c-45cf-97dc-6423eee85429"},"vehicle_type_id":"4","last_reported":1781371667,"current_range_meters":6400,"station_id":"st_d2ngiaodas8pm72gd1h0","pricing_plan_id":"cebpf4jnsgd1na2vs0mg"},{"bike_id":"58dd300a-d879-4fed-b12c-571949bb77f2","system_id":"levelo_inurba_marseille","lat":43.279234,"lon":5.395855,"is_reserved":false,"is_disabled":false,"rental_uris":{"android":"levelo://app?vid=58dd300a-d879-4fed-b12c-571949bb77f2","ios":"levelo://app?vid=58dd300a-d879-4fed-b12c-571949bb77f2"},"vehicle_type_id":"4","last_reported":1781371667,"current_range_meters":6400,"station_id":"ce4bhf92rcd13ifvqf40","pricing_plan_id":"cebpf4jnsgd1na2vs0mg"},{"bike_id":"436ce616-0016-4cf2-9806-f10d064782f0","system_id":"levelo_inurba_marseille","lat":43.290171,"lon":5.381286,"is_reserved":false,"is_disabled":false,"rental_uris":{"android":"levelo://app?vid=436ce616-0016-4cf2-9806-f10d064782f0","ios":"levelo://app?vid=436ce616-0016-4cf2-9806-f10d064782f0"},"vehicle_type_id":"4","last_reported":1781371667,"current_range_meters":6400,"station_id":"ce4bh4p2rcd13ifvqe1g","pricing_plan_id":"cebpf4jnsgd1na2vs0mg"},{"bike_id":"e5777fcd-75b6-4167-93ec-f3dfb9895090","system_id":"levelo_inurba_marseille","lat":43.2174,"lon":5.34611,"is_reserved":false,"is_disabled":false,"rental_uris":{"android":"levelo://app?vid=e5777fcd-75b6-4167-93ec-f3dfb9895090","ios":"levelo://app?vid=e5777fcd-75b6-4167-93ec-f3dfb9895090"},"vehicle_type_id":"4","last_reported":1781371667,"current_range_meters":6400,"station_id":"st_cvj6r9ubvosntc0bgbag","pricing_plan_id":"cebpf4jnsgd1na2vs0mg"},{"bike_id":"ef048e93-3c21-4aea-ad20-87c8427753a3","system_id":"levelo_inurba_marseille","lat":43.28888,"lon":5.4256,"is_reserved":false,"is_disabled":false,"rental_uris":{"android":"levelo://app?vid=ef048e93-3c21-4aea-ad20-87c8427753a3","ios":"levelo://app?vid=ef048e93-3c21-4aea-ad20-87c8427753a3"},"vehicle_type_id":"4","last_reported":1781371667,"current_range_meters":6400,"station_id":"st_d3b462108ojc7389ooeg","pricing_plan_id":"cebpf4jnsgd1na2vs0mg"},{"bike_id":"063e86ff-6ab9-4944-a932-bc538dd64429","system_id":"levelo_inurba_marseille","lat":43.26225,"lon":5.38766,"is_reserved":false,"is_disabled":false,"rental_uris":{"android":"levelo://app?vid=063e86ff-6ab9-4944-a932-bc538dd64429","ios":"levelo://app?vid=063e86ff-6ab9-4944-a932-bc538dd64429"},"vehicle_type_id":"4","last_reported":1781371667,"current_range_meters":6400,"station_id":"st_d8gjfg747rts73coq3b0","pricing_plan_id":"cebpf4jnsgd1na2vs0mg"},{"bike_id":"40cb0155-c556-484f-915b-b738bc0d2ea4","system_id":"levelo_inurba_marseille","lat":43.21207,"lon":5.35079,"is_reserved":false,"is_disabled":false,"rental_uris":{"android":"levelo://app?vid=40cb0155-c556-484f-915b-b738bc0d2ea4","ios":"levelo://app?vid=40cb0155-c556-484f-915b-b738bc0d2ea4"},"vehicle_type_id":"4","last_reported":1781371667,"current_range_meters":6400,"station_id":"st_cvj6sg6p6f1abm77japg","pricing_plan_id":"cebpf4jnsgd1na2vs0mg"},{"bike_id":"5bc53581-ac65-49e4-b56b-f1ece78f0664","system_id":"levelo_inurba_marseille","lat":43.26687,"lon":5.38259,"is_reserved":false,"is_disabled":true,"rental_uris":{"android":"levelo://app?vid=5bc53581-ac65-49e4-b56b-f1ece78f0664","ios":"levelo://app?vid=5bc53581-ac65-49e4-b56b-f1ece78f0664"},"vehicle_type_id":"4","last_reported":1781371667,"current_range_meters":6400,"station_id":"ce4bhg92rcd13ifvqf90","pricing_plan_id":"cebpf4jnsgd1na2vs0mg"},{"bike_id":"59abd848-b938-4706-8b9d-aa54cd5d850e","system_id":"levelo_inurba_marseille","lat":43.2827,"lon":5.35045,"is_reserved":false,"is_disabled":true,"rental_uris":{"android":"levelo://app?vid=59abd848-b938-4706-8b9d-aa54cd5d850e","ios":"levelo://app?vid=59abd848-b938-4706-8b9d-aa54cd5d850e"},"vehicle_type_id":"4","last_reported":1781371667,"current_range_meters":6400,"station_id":"ce4bhbp2rcd13ifvqerg","pricing_plan_id":"cebpf4jnsgd1na2vs0mg"},{"bike_id":"9f0be29b-c3fc-43d2-88d9-7ef79e23fe90","system_id":"levelo_inurba_marseille","lat":43.24547,"lon":5.39522,"is_reserved":false,"is_disabled":false,"rental_uris":{"android":"levelo://app?vid=9f0be29b-c3fc-43d2-88d9-7ef79e23fe90","ios":"levelo://app?vid=9f0be29b-c3fc-43d2-88d9-7ef79e23fe90"},"vehicle_type_id":"4","last_reported":1781371667,"current_range_meters":6800,"station_id":"ce4bhlp2rcd13ifvqgjg","pricing_plan_id":"cebpf4jnsgd1na2vs0mg"},{"bike_id":"cf0c68e9-108f-4cb2-8999-26e59936ff8c","system_id":"levelo_inurba_marseille","lat":43.23057,"lon":5.35483,"is_reserved":false,"is_disabled":false,"rental_uris":{"android":"levelo://app?vid=cf0c68e9-108f-4cb2-8999-26e59936ff8c","ios":"levelo://app?vid=cf0c68e9-108f-4cb2-8999-26e59936ff8c"},"vehicle_type_id":"4","last_reported":1781371667,"current_range_meters":6800,"station_id":"cpo3342slgdg3j2ifvpg","pricing_plan_id":"cebpf4jnsgd1na2vs0mg"},{"bike_id":"da49f8bf-ac47-4f75-a9fc-b5a0f8173bc6","system_id":"levelo_inurba_marseille","lat":43.28466,"lon":5.35868,"is_reserved":false,"is_disabled":true,"rental_uris":{"android":"levelo://app?vid=da49f8bf-ac47-4f75-a9fc-b5a0f8173bc6","ios":"levelo://app?vid=da49f8bf-ac47-4f75-a9fc-b5a0f8173bc6"},"vehicle_type_id":"4","last_reported":1781371667,"current_range_meters":6800,"station_id":"ce4bhah2rcd13ifvqei0","pricing_plan_id":"cebpf4jnsgd1na2vs0mg"},{"bike_id":"5215f856-46a9-476f-933a-7b736a4a324f","system_id":"levelo_inurba_marseille","lat":43.28236,"lon":5.37363,"is_reserved":false,"is_disabled":false,"rental_uris":{"android":"levelo://app?vid=5215f856-46a9-476f-933a-7b736a4a324f","ios":"levelo://app?vid=5215f856-46a9-476f-933a-7b736a4a324f"},"vehicle_type_id":"4","last_reported":1781371667,"current_range_meters":6800,"station_id":"","pricing_plan_id":"cebpf4jnsgd1na2vs0mg"},{"bike_id":"7750fed4-d122-41f8-ad9e-d930d3ad1cf1","system_id":"levelo_inurba_marseille","lat":43.27296,"lon":5.40068,"is_reserved":false,"is_disabled":false,"rental_uris":{"android":"levelo://app?vid=7750fed4-d122-41f8-ad9e-d930d3ad1cf1","ios":"levelo://app?vid=7750fed4-d122-41f8-ad9e-d930d3ad1cf1"},"vehicle_type_id":"4","last_reported":1781371667,"current_range_meters":6800,"station_id":"","pricing_plan_id":"cebpf4jnsgd1na2vs0mg"},{"bike_id":"1be84025-d267-4515-957c-91dae421ff6c","system_id":"levelo_inurba_marseille","lat":43.26683,"lon":5.38271,"is_reserved":false,"is_disabled":false,"rental_uris":{"android":"levelo://app?vid=1be84025-d267-4515-957c-91dae421ff6c","ios":"levelo://app?vid=1be84025-d267-4515-957c-91dae421ff6c"},"vehicle_type_id":"4","last_reported":1781371667,"current_range_meters":6800,"station_id":"ce4bhg92rcd13ifvqf90","pricing_plan_id":"cebpf4jnsgd1na2vs0mg"},{"bike_id":"3964cfec-2447-4c38-a9ab-5ebac4f72b6e","system_id":"levelo_inurba_marseille","lat":43.23177,"lon":5.35592,"is_reserved":false,"is_disabled":false,"rental_uris":{"android":"levelo://app?vid=3964cfec-2447-4c38-a9ab-5ebac4f72b6e","ios":"levelo://app?vid=3964cfec-2447-4c38-a9ab-5ebac4f72b6e"},"vehicle_type_id":"4","last_reported":1781371667,"current_range_meters":6800,"station_id":"ce4bhu92rcd13ifvqi70","pricing_plan_id":"cebpf4jnsgd1na2vs0mg"},{"bike_id":"3d4b7a5f-8b4b-46e8-a373-6ebdc85c0f15","system_id":"levelo_inurba_marseille","lat":43.29526,"lon":5.39032,"is_reserved":false,"is_disabled":false,"rental_uris":{"android":"levelo://app?vid=3d4b7a5f-8b4b-46e8-a373-6ebdc85c0f15","ios":"levelo://app?vid=3d4b7a5f-8b4b-46e8-a373-6ebdc85c0f15"},"vehicle_type_id":"4","last_reported":1781371667,"current_range_meters":6800,"station_id":"ce4bh3p2rcd13ifvqdp0","pricing_plan_id":"cebpf4jnsgd1na2vs0mg"},{"bike_id":"c43c92bc-16e7-4616-8292-b9ed941fbd42","system_id":"levelo_inurba_marseille","lat":43.22561,"lon":5.41625,"is_reserved":false,"is_disabled":false,"rental_uris":{"android":"levelo://app?vid=c43c92bc-16e7-4616-8292-b9ed941fbd42","ios":"levelo://app?vid=c43c92bc-16e7-4616-8292-b9ed941fbd42"},"vehicle_type_id":"4","last_reported":1781371667,"current_range_meters":6800,"station_id":"st_d2o4gvlbi1j2169b742g","pricing_plan_id":"cebpf4jnsgd1na2vs0mg"},{"bike_id":"b6dc1105-9702-4a93-839e-3cfb27965fe5","system_id":"levelo_inurba_marseille","lat":43.24647,"lon":5.38906,"is_reserved":false,"is_disabled":false,"rental_uris":{"android":"levelo://app?vid=b6dc1105-9702-4a93-839e-3cfb27965fe5","ios":"levelo://app?vid=b6dc1105-9702-4a93-839e-3cfb27965fe5"},"vehicle_type_id":"4","last_reported":1781371667,"current_range_meters":6800,"station_id":"ce4bhg12rcd13ifvqf60","pricing_plan_id":"cebpf4jnsgd1na2vs0mg"},{"bike_id":"5d0ddba9-b31e-4412-b2a4-24a01f8f5ce2","system_id":"levelo_inurba_marseille","lat":43.27429,"lon":5.39407,"is_reserved":false,"is_disabled":false,"rental_uris":{"android":"levelo://app?vid=5d0ddba9-b31e-4412-b2a4-24a01f8f5ce2","ios":"levelo://app?vid=5d0ddba9-b31e-4412-b2a4-24a01f8f5ce2"},"vehicle_type_id":"4","last_reported":1781371667,"current_range_meters":6800,"station_id":"ce4bhdp2rcd13ifvqf20","pricing_plan_id":"cebpf4jnsgd1na2vs0mg"},{"bike_id":"2b255b60-68d3-439e-93c1-53ccf2232ea6","system_id":"levelo_inurba_marseille","lat":43.21197,"lon":5.35084,"is_reserved":false,"is_disabled":false,"rental_uris":{"android":"levelo://app?vid=2b255b60-68d3-439e-93c1-53ccf2232ea6","ios":"levelo://app?vid=2b255b60-68d3-439e-93c1-53ccf2232ea6"},"vehicle_type_id":"4","last_reported":1781371667,"current_range_meters":6800,"station_id":"st_cvj6sg6p6f1abm77japg","pricing_plan_id":"cebpf4jnsgd1na2vs0mg"},{"bike_id":"a9b69819-2be5-4649-9c57-a6889a6f3d6e","system_id":"levelo_inurba_marseille","lat":43.23967,"lon":5.36624,"is_reserved":false,"is_disabled":false,"rental_uris":{"android":"levelo://app?vid=a9b69819-2be5-4649-9c57-a6889a6f3d6e","ios":"levelo://app?vid=a9b69819-2be5-4649-9c57-a6889a6f3d6e"},"vehicle_type_id":"4","last_reported":1781371667,"current_range_meters":6800,"station_id":"ce4bhi12rcd13ifvqfp0","pricing_plan_id":"cebpf4jnsgd1na2vs0mg"},{"bike_id":"5d2a8378-7c71-49e8-8de2-85c4a01368bb","system_id":"levelo_inurba_marseille","lat":43.26684,"lon":5.38251,"is_reserved":false,"is_disabled":false,"rental_uris":{"android":"levelo://app?vid=5d2a8378-7c71-49e8-8de2-85c4a01368bb","ios":"levelo://app?vid=5d2a8378-7c71-49e8-8de2-85c4a01368bb"},"vehicle_type_id":"4","last_reported":1781371667,"current_range_meters":6800,"station_id":"ce4bhg92rcd13ifvqf90","pricing_plan_id":"cebpf4jnsgd1na2vs0mg"},{"bike_id":"05d78716-0227-4878-8a0c-14979463d101","system_id":"levelo_inurba_marseille","lat":43.21736,"lon":5.34645,"is_reserved":false,"is_disabled":false,"rental_uris":{"android":"levelo://app?vid=05d78716-0227-4878-8a0c-14979463d101","ios":"levelo://app?vid=05d78716-0227-4878-8a0c-14979463d101"},"vehicle_type_id":"4","last_reported":1781371667,"current_range_meters":6800,"station_id":"st_cvj6r9ubvosntc0bgbag","pricing_plan_id":"cebpf4jnsgd1na2vs0mg"},{"bike_id":"eb38be04-731d-4131-a20f-2e4877b94f70","system_id":"levelo_inurba_marseille","lat":43.2983,"lon":5.36243,"is_reserved":false,"is_disabled":false,"rental_uris":{"android":"levelo://app?vid=eb38be04-731d-4131-a20f-2e4877b94f70","ios":"levelo://app?vid=eb38be04-731d-4131-a20f-2e4877b94f70"},"vehicle_type_id":"4","last_reported":1781371667,"current_range_meters":6800,"station_id":"ce4bgpp2rcd13ifvqc3g","pricing_plan_id":"cebpf4jnsgd1na2vs0mg"},{"bike_id":"991d3f6f-2157-4dc1-b92e-e4fa60ed4529","system_id":"levelo_inurba_marseille","lat":43.263456,"lon":5.378231,"is_reserved":false,"is_disabled":false,"rental_uris":{"android":"levelo://app?vid=991d3f6f-2157-4dc1-b92e-e4fa60ed4529","ios":"levelo://app?vid=991d3f6f-2157-4dc1-b92e-e4fa60ed4529"},"vehicle_type_id":"4","last_reported":1781371667,"current_range_meters":6800,"station_id":"","pricing_plan_id":"cebpf4jnsgd1na2vs0mg"},{"bike_id":"521c7f30-60cb-407d-9ca1-6a52dd359847","system_id":"levelo_inurba_marseille","lat":43.2439,"lon":5.37051,"is_reserved":false,"is_disabled":false,"rental_uris":{"android":"levelo://app?vid=521c7f30-60cb-407d-9ca1-6a52dd359847","ios":"levelo://app?vid=521c7f30-60cb-407d-9ca1-6a52dd359847"},"vehicle_type_id":"4","last_reported":1781371667,"current_range_meters":6800,"station_id":"ce4bhhh2rcd13ifvqfk0","pricing_plan_id":"cebpf4jnsgd1na2vs0mg"},{"bike_id":"1a2cc79c-436d-49cd-9df5-be89b503fb0d","system_id":"levelo_inurba_marseille","lat":43.255038,"lon":5.37651,"is_reserved":false,"is_disabled":false,"rental_uris":{"android":"levelo://app?vid=1a2cc79c-436d-49cd-9df5-be89b503fb0d","ios":"levelo://app?vid=1a2cc79c-436d-49cd-9df5-be89b503fb0d"},"vehicle_type_id":"4","last_reported":1781371667,"current_range_meters":6800,"station_id":"ce4bhh12rcd13ifvqff0","pricing_plan_id":"cebpf4jnsgd1na2vs0mg"},{"bike_id":"afb5d1d0-d6d3-4837-84c1-73b8786a322a","system_id":"levelo_inurba_marseille","lat":43.26686,"lon":5.38268,"is_reserved":false,"is_disabled":false,"rental_uris":{"android":"levelo://app?vid=afb5d1d0-d6d3-4837-84c1-73b8786a322a","ios":"levelo://app?vid=afb5d1d0-d6d3-4837-84c1-73b8786a322a"},"vehicle_type_id":"4","last_reported":1781371667,"current_range_meters":6800,"station_id":"ce4bhg92rcd13ifvqf90","pricing_plan_id":"cebpf4jnsgd1na2vs0mg"},{"bike_id":"61acdcff-76d7-4bb2-a256-e2ec611550e8","system_id":"levelo_inurba_marseille","lat":43.26555,"lon":5.39016,"is_reserved":false,"is_disabled":true,"rental_uris":{"android":"levelo://app?vid=61acdcff-76d7-4bb2-a256-e2ec611550e8","ios":"levelo://app?vid=61acdcff-76d7-4bb2-a256-e2ec611550e8"},"vehicle_type_id":"4","last_reported":1781371667,"current_range_meters":6800,"station_id":"ce4bhe12rcd13ifvqf30","pricing_plan_id":"cebpf4jnsgd1na2vs0mg"},{"bike_id":"c0783e21-bf15-4fc5-9c11-c5693c228b10","system_id":"levelo_inurba_marseille","lat":43.269258,"lon":5.38896,"is_reserved":false,"is_disabled":false,"rental_uris":{"android":"levelo://app?vid=c0783e21-bf15-4fc5-9c11-c5693c228b10","ios":"levelo://app?vid=c0783e21-bf15-4fc5-9c11-c5693c228b10"},"vehicle_type_id":"4","last_reported":1781371667,"current_range_meters":6800,"station_id":"ce4bhhh2rcd13ifvqfl0","pricing_plan_id":"cebpf4jnsgd1na2vs0mg"},{"bike_id":"c97fb99a-7c2e-4698-a401-a6886e4eb5f4","system_id":"levelo_inurba_marseille","lat":43.28799,"lon":5.42684,"is_reserved":false,"is_disabled":false,"rental_uris":{"android":"levelo://app?vid=c97fb99a-7c2e-4698-a401-a6886e4eb5f4","ios":"levelo://app?vid=c97fb99a-7c2e-4698-a401-a6886e4eb5f4"},"vehicle_type_id":"4","last_reported":1781371667,"current_range_meters":6800,"station_id":"","pricing_plan_id":"cebpf4jnsgd1na2vs0mg"},{"bike_id":"8ad216ec-35f6-4900-8280-c2eb88323540","system_id":"levelo_inurba_marseille","lat":43.26951,"lon":5.38647,"is_reserved":false,"is_disabled":false,"rental_uris":{"android":"levelo://app?vid=8ad216ec-35f6-4900-8280-c2eb88323540","ios":"levelo://app?vid=8ad216ec-35f6-4900-8280-c2eb88323540"},"vehicle_type_id":"4","last_reported":1781371667,"current_range_meters":6800,"station_id":"ce4bhh92rcd13ifvqfh0","pricing_plan_id":"cebpf4jnsgd1na2vs0mg"},{"bike_id":"798e31d9-ac3e-4866-85f6-1897f3106191","system_id":"levelo_inurba_marseille","lat":43.25588,"lon":5.38226,"is_reserved":false,"is_disabled":false,"rental_uris":{"android":"levelo://app?vid=798e31d9-ac3e-4866-85f6-1897f3106191","ios":"levelo://app?vid=798e31d9-ac3e-4866-85f6-1897f3106191"},"vehicle_type_id":"4","last_reported":1781371667,"current_range_meters":6800,"station_id":"ce4bhih2rcd13ifvqfs0","pricing_plan_id":"cebpf4jnsgd1na2vs0mg"},{"bike_id":"3f683387-f7ec-4b9f-9801-ff63896077b4","system_id":"levelo_inurba_marseille","lat":43.23949,"lon":5.36535,"is_reserved":false,"is_disabled":false,"rental_uris":{"android":"levelo://app?vid=3f683387-f7ec-4b9f-9801-ff63896077b4","ios":"levelo://app?vid=3f683387-f7ec-4b9f-9801-ff63896077b4"},"vehicle_type_id":"4","last_reported":1781371667,"current_range_meters":6800,"station_id":"","pricing_plan_id":"cebpf4jnsgd1na2vs0mg"},{"bike_id":"95fa7e89-477c-497d-868e-1ebd42d72e63","system_id":"levelo_inurba_marseille","lat":43.26343,"lon":5.37817,"is_reserved":false,"is_disabled":false,"rental_uris":{"android":"levelo://app?vid=95fa7e89-477c-497d-868e-1ebd42d72e63","ios":"levelo://app?vid=95fa7e89-477c-497d-868e-1ebd42d72e63"},"vehicle_type_id":"4","last_reported":1781371667,"current_range_meters":6800,"station_id":"","pricing_plan_id":"cebpf4jnsgd1na2vs0mg"},{"bike_id":"3b9d8ae6-81df-4178-a3ea-190d04eda226","system_id":"levelo_inurba_marseille","lat":43.26564,"lon":5.40324,"is_reserved":false,"is_disabled":false,"rental_uris":{"android":"levelo://app?vid=3b9d8ae6-81df-4178-a3ea-190d04eda226","ios":"levelo://app?vid=3b9d8ae6-81df-4178-a3ea-190d04eda226"},"vehicle_type_id":"4","last_reported":1781371667,"current_range_meters":7200,"station_id":"ce4bhmp2rcd13ifvqgng","pricing_plan_id":"cebpf4jnsgd1na2vs0mg"},{"bike_id":"ac8215c6-2071-4374-a344-183cdd71f32b","system_id":"levelo_inurba_marseille","lat":43.25003,"lon":5.38924,"is_reserved":false,"is_disabled":false,"rental_uris":{"android":"levelo://app?vid=ac8215c6-2071-4374-a344-183cdd71f32b","ios":"levelo://app?vid=ac8215c6-2071-4374-a344-183cdd71f32b"},"vehicle_type_id":"4","last_reported":1781371667,"current_range_meters":7200,"station_id":"ce4bhgp2rcd13ifvqfd0","pricing_plan_id":"cebpf4jnsgd1na2vs0mg"},