{"last_updated":1703919962,"ttl":30,"version":"2.2","data":{"bikes":[{"bike_id":"f88cea68-744d-4974-a6f3-e03a9d965a71","system_id":"levelo_inurba_marseille","lat":43.309076,"lon":5.368465,"is_reserved":false,"is_disabled":false,"rental_uris":{"android":"levelo://app?vid=f88cea68-744d-4974-a6f3-e03a9d965a71","ios":"levelo://app?vid=f88cea68-744d-4974-a6f3-e03a9d965a71"},"vehicle_type_id":"4","last_reported":1703919962,"current_range_meters":29600,"station_id":"ce4bgn92rcd13ifvqbvg","pricing_plan_id":"free"},{"bike_id":"6f90366c-6684-409f-9dec-8252d05876a9","system_id":"levelo_inurba_marseille","lat":43.314811,"lon":5.373103,"is_reserved":false,"is_disabled":false,"rental_uris":{"android":"levelo://app?vid=6f90366c-6684-409f-9dec-8252d05876a9","ios":"levelo://app?vid=6f90366c-6684-409f-9dec-8252d05876a9"},"vehicle_type_id":"4","last_reported":1703919962,"current_range_meters":26400,"station_id":"ce4bgt12rcd13ifvqcd0","pricing_plan_id":"free"},{"bike_id":"2f2fd234-a029-4df5-a477-102baf8f1ccc","system_id":"levelo_inurba_marseille","lat":43.314811,"lon":5.373103,"is_reserved":false,"is_disabled":false,"rental_uris":{"android":"levelo://app?vid=2f2fd234-a029-4df5-a477-102baf8f1ccc","ios":"levelo://app?vid=2f2fd234-a029-4df5-a477-102baf8f1ccc"},"vehicle_type_id":"4","last_reported":1703919962,"current_range_meters":31200,"station_id":"ce4bgt12rcd13ifvqcd0","pricing_plan_id":"free"},{"bike_id":"a69ae577-cb69-4b16-92f3-04b359773a34","system_id":"levelo_inurba_marseille","lat":43.314811,"lon":5.373104,"is_reserved":false,"is_disabled":false,"rental_uris":{"android":"levelo://app?vid=a69ae577-cb69-4b16-92f3-04b359773a34","ios":"levelo://app?vid=a69ae577-cb69-4b16-92f3-04b359773a34"},"vehicle_type_id":"4","last_reported":1703919962,"current_range_meters":30000,"station_id":"ce4bgt12rcd13ifvqcd0","pricing_plan_id":"free"},{"bike_id":"6d85e3df-9690-428d-8534-cca063e14399","system_id":"levelo_inurba_marseille","lat":43.309039,"lon":5.371797,"is_reserved":false,"is_disabled":false,"rental_uris":{"android":"levelo://app?vid=6d85e3df-9690-428d-8534-cca063e14399","ios":"levelo://app?vid=6d85e3df-9690-428d-8534-cca063e14399"},"vehicle_type_id":"4","last_reported":1703919962,"current_range_meters":30000,"station_id":"ce4bguh2rcd13ifvqckg","pricing_plan_id":"free"},{"bike_id":"82693216-4ed1-4609-a4e4-6a3a13381bcd","system_id":"levelo_inurba_marseille","lat":43.309039,"lon":5.371797,"is_reserved":false,"is_disabled":false,"rental_uris":{"android":"levelo://app?vid=82693216-4ed1-4609-a4e4-6a3a13381bcd","ios":"levelo://app?vid=82693216-4ed1-4609-a4e4-6a3a13381bcd"},"vehicle_type_id":"4","last_reported":1703919962,"current_range_meters":17600,"station_id":"ce4bguh2rcd13ifvqckg","pricing_plan_id":"free"},{"bike_id":"18b706b8-300a-40c6-aeb3-d67acf806b51","system_id":"levelo_inurba_marseille","lat":43.309039,"lon":5.371797,"is_reserved":false,"is_disabled":false,"rental_uris":{"android":"levelo://app?vid=18b706b8-300a-40c6-aeb3-d67acf806b51","ios":"levelo://app?vid=18b706b8-300a-40c6-aeb3-d67acf806b51"},"vehicle_type_id":"4","last_reported":1703919962,"current_range_meters":4000,"station_id":"ce4bguh2rcd13ifvqckg","pricing_plan_id":"free"},{"bike_id":"7453e6cc-a927-4aee-b545-5d027ed52344","system_id":"levelo_inurba_marseille","lat":43.30886,"lon":5.37191,"is_reserved":false,"is_disabled":false,"rental_uris":{"android":"levelo://app?vid=7453e6cc-a927-4aee-b545-5d027ed52344","ios":"levelo://app?vid=7453e6cc-a927-4aee-b545-5d027ed52344"},"vehicle_type_id":"4","last_reported":1703919962,"current_range_meters":29600,"station_id":"ce4bguh2rcd13ifvqckg","pricing_plan_id":"free"},{"bike_id":"2bf1159c-4b34-4bc3-a8b5-156be571c011","system_id":"levelo_inurba_marseille","lat":43.307843,"lon":5.373431,"is_reserved":false,"is_disabled":false,"rental_uris":{"android":"levelo://app?vid=2bf1159c-4b34-4bc3-a8b5-156be571c011","ios":"levelo://app?vid=2bf1159c-4b34-4bc3-a8b5-156be571c011"},"vehicle_type_id":"4","last_reported":1703919962,"current_range_meters":28800,"station_id":"","pricing_plan_id":"free"},{"bike_id":"a5aac7fd-33ca-46a3-98d8-21e6de83a247","system_id":"levelo_inurba_marseille","lat":43.318214,"lon":5.372915,"is_reserved":false,"is_disabled":false,"rental_uris":{"android":"levelo://app?vid=a5aac7fd-33ca-46a3-98d8-21e6de83a247","ios":"levelo://app?vid=a5aac7fd-33ca-46a3-98d8-21e6de83a247"},"vehicle_type_id":"4","last_reported":1703919962,"current_range_meters":18400,"station_id":"","pricing_plan_id":"free"},{"bike_id":"a3c8d623-a85c-45ca-8fac-8710ce7491da","system_id":"levelo_inurba_marseille","lat":43.30647,"lon":5.3719,"is_reserved":false,"is_disabled":false,"rental_uris":{"android":"levelo://app?vid=a3c8d623-a85c-45ca-8fac-8710ce7491da","ios":"levelo://app?vid=a3c8d623-a85c-45ca-8fac-8710ce7491da"},"vehicle_type_id":"4","last_reported":1703919962,"current_range_meters":10400,"station_id":"","pricing_plan_id":"free"},{"bike_id":"5f153282-83d7-4bd8-bff2-f5925d52f8b6","system_id":"levelo_inurba_marseille","lat":43.305706,"lon":5.365654,"is_reserved":false,"is_disabled":false,"rental_uris":{"android":"levelo://app?vid=5f153282-83d7-4bd8-bff2-f5925d52f8b6","ios":"levelo://app?vid=5f153282-83d7-4bd8-bff2-f5925d52f8b6"},"vehicle_type_id":"4","last_reported":1703919962,"current_range_meters":31600,"station_id":"ce4bgs12rcd13ifvqcag","pricing_plan_id":"free"},{"bike_id":"44f66588-8a33-478b-9a14-8e48582858fe","system_id":"levelo_inurba_marseille","lat":43.305706,"lon":5.365654,"is_reserved":false,"is_disabled":false,"rental_uris":{"android":"levelo://app?vid=44f66588-8a33-478b-9a14-8e48582858fe","ios":"levelo://app?vid=44f66588-8a33-478b-9a14-8e48582858fe"},"vehicle_type_id":"4","last_reported":1703919962,"current_range_meters":27200,"station_id":"ce4bgs12rcd13ifvqcag","pricing_plan_id":"free"},{"bike_id":"2c3676a2-bca6-469c-999c-2d24935c293a","system_id":"levelo_inurba_marseille","lat":43.305368,"lon":5.367343,"is_reserved":false,"is_disabled":false,"rental_uris":{"android":"levelo://app?vid=2c3676a2-bca6-469c-999c-2d24935c293a","ios":"levelo://app?vid=2c3676a2-bca6-469c-999c-2d24935c293a"},"vehicle_type_id":"4","last_reported":1703919962,"current_range_meters":30000,"station_id":"ce4bgrp2rcd13ifvqc9g","pricing_plan_id":"free"},{"bike_id":"e310f43b-3731-4ae1-8f8f-26cdffdadcf0","system_id":"levelo_inurba_marseille","lat":43.305706,"lon":5.365654,"is_reserved":false,"is_disabled":false,"rental_uris":{"android":"levelo://app?vid=e310f43b-3731-4ae1-8f8f-26cdffdadcf0","ios":"levelo://app?vid=e310f43b-3731-4ae1-8f8f-26cdffdadcf0"},"vehicle_type_id":"4","last_reported":1703919962,"current_range_meters":27600,"station_id":"ce4bgs12rcd13ifvqcag","pricing_plan_id":"free"},{"bike_id":"4fcc5159-db70-496e-84ec-25f1a5fa344e","system_id":"levelo_inurba_marseille","lat":43.311131,"lon":5.377651,"is_reserved":false,"is_disabled":false,"rental_uris":{"android":"levelo://app?vid=4fcc5159-db70-496e-84ec-25f1a5fa344e","ios":"levelo://app?vid=4fcc5159-db70-496e-84ec-25f1a5fa344e"},"vehicle_type_id":"4","last_reported":1703919962,"current_range_meters":16800,"station_id":"ce4bgt92rcd13ifvqcg0","pricing_plan_id":"free"},{"bike_id":"43a281ab-b130-4642-8382-83144d91836f","system_id":"levelo_inurba_marseille","lat":43.311131,"lon":5.377651,"is_reserved":false,"is_disabled":false,"rental_uris":{"android":"levelo://app?vid=43a281ab-b130-4642-8382-83144d91836f","ios":"levelo://app?vid=43a281ab-b130-4642-8382-83144d91836f"},"vehicle_type_id":"4","last_reported":1703919962,"current_range_meters":15200,"station_id":"ce4bgt92rcd13ifvqcg0","pricing_plan_id":"free"},{"bike_id":"abd19dee-d09a-44c3-95ac-017a372f18c8","system_id":"levelo_inurba_marseille","lat":43.311131,"lon":5.377651,"is_reserved":false,"is_disabled":false,"rental_uris":{"android":"levelo://app?vid=abd19dee-d09a-44c3-95ac-017a372f18c8","ios":"levelo://app?vid=abd19dee-d09a-44c3-95ac-017a372f18c8"},"vehicle_type_id":"4","last_reported":1703919962,"current_range_meters":28400,"station_id":"ce4bgt92rcd13ifvqcg0","pricing_plan_id":"free"},{"bike_id":"2843ae9d-5d9f-4d11-928b-2293daa16337","system_id":"levelo_inurba_marseille","lat":43.311131,"lon":5.377651,"is_reserved":false,"is_disabled":false,"rental_uris":{"android":"levelo://app?vid=2843ae9d-5d9f-4d11-928b-2293daa16337","ios":"levelo://app?vid=2843ae9d-5d9f-4d11-928b-2293daa16337"},"vehicle_type_id":"4","last_reported":1703919962,"current_range_meters":16400,"station_id":"ce4bgt92rcd13ifvqcg0","pricing_plan_id":"free"},{"bike_id":"5758c99b-bff4-43ed-99bd-0cdea1474b9a","system_id":"levelo_inurba_marseille","lat":43.311131,"lon":5.377651,"is_reserved":false,"is_disabled":false,"rental_uris":{"android":"levelo://app?vid=5758c99b-bff4-43ed-99bd-0cdea1474b9a","ios":"levelo://app?vid=5758c99b-bff4-43ed-99bd-0cdea1474b9a"},"vehicle_type_id":"4","last_reported":1703919962,"current_range_meters":24400,"station_id":"ce4bgt92rcd13ifvqcg0","pricing_plan_id":"free"},{"bike_id":"48336968-4802-4300-a48a-0f3ef9382ab1","system_id":"levelo_inurba_marseille","lat":43.311131,"lon":5.377651,"is_reserved":false,"is_disabled":false,"rental_uris":{"android":"levelo://app?vid=48336968-4802-4300-a48a-0f3ef9382ab1","ios":"levelo://app?vid=48336968-4802-4300-a48a-0f3ef9382ab1"},"vehicle_type_id":"4","last_reported":1703919962,"current_range_meters":22000,"station_id":"ce4bgt92rcd13ifvqcg0","pricing_plan_id":"free"},{"bike_id":"92fbe253-6083-4bdb-9125-022368fc9259","system_id":"levelo_inurba_marseille","lat":43.311131,"lon":5.377651,"is_reserved":false,"is_disabled":false,"rental_uris":{"android":"levelo://app?vid=92fbe253-6083-4bdb-9125-022368fc9259","ios":"levelo://app?vid=92fbe253-6083-4bdb-9125-022368fc9259"},"vehicle_type_id":"4","last_reported":1703919962,"current_range_meters":20400,"station_id":"ce4bgt92rcd13ifvqcg0","pricing_plan_id":"free"},{"bike_id":"46cff14c-0190-4d9b-8ec0-a1372d307bb6","system_id":"levelo_inurba_marseille","lat":43.307945,"lon":5.376487,"is_reserved":false,"is_disabled":false,"rental_uris":{"android":"levelo://app?vid=46cff14c-0190-4d9b-8ec0-a1372d307bb6","ios":"levelo://app?vid=46cff14c-0190-4d9b-8ec0-a1372d307bb6"},"vehicle_type_id":"4","last_reported":1703919962,"current_range_meters":22000,"station_id":"ce4bgv92rcd13ifvqcq0","pricing_plan_id":"free"},{"bike_id":"9854471c-3422-48c6-8a2e-00934c1e92ad","system_id":"levelo_inurba_marseille","lat":43.31681,"lon":5.37735,"is_reserved":false,"is_disabled":false,"rental_uris":{"android":"levelo://app?vid=9854471c-3422-48c6-8a2e-00934c1e92ad","ios":"levelo://app?vid=9854471c-3422-48c6-8a2e-00934c1e92ad"},"vehicle_type_id":"4","last_reported":1703919962,"current_range_meters":25600,"station_id":"ce4bgth2rcd13ifvqch0","pricing_plan_id":"free"},{"bike_id":"c276bf45-6dee-4336-8cd3-834f881851e6","system_id":"levelo_inurba_marseille","lat":43.317075,"lon":5.377367,"is_reserved":false,"is_disabled":false,"rental_uris":{"android":"levelo://app?vid=c276bf45-6dee-4336-8cd3-834f881851e6","ios":"levelo://app?vid=c276bf45-6dee-4336-8cd3-834f881851e6"},"vehicle_type_id":"4","last_reported":1703919962,"current_range_meters":28800,"station_id":"ce4bgth2rcd13ifvqch0","pricing_plan_id":"free"},{"bike_id":"2140d8d0-5138-4a58-8ee5-fd69158f7261","system_id":"levelo_inurba_marseille","lat":43.303046,"lon":5.368981,"is_reserved":false,"is_disabled":false,"rental_uris":{"android":"levelo://app?vid=2140d8d0-5138-4a58-8ee5-fd69158f7261","ios":"levelo://app?vid=2140d8d0-5138-4a58-8ee5-fd69158f7261"},"vehicle_type_id":"4","last_reported":1703919962,"current_range_meters":30000,"station_id":"ce4bgqh2rcd13ifvqc5g","pricing_plan_id":"free"},{"bike_id":"a6e16c00-d812-4061-8c2b-0c055240a339","system_id":"levelo_inurba_marseille","lat":43.315299,"lon":5.380299,"is_reserved":false,"is_disabled":false,"rental_uris":{"android":"levelo://app?vid=a6e16c00-d812-4061-8c2b-0c055240a339","ios":"levelo://app?vid=a6e16c00-d812-4061-8c2b-0c055240a339"},"vehicle_type_id":"4","last_reported":1703919962,"current_range_meters":23600,"station_id":"ce4bhsp2rcd13ifvqi50","pricing_plan_id":"free"},{"bike_id":"90db3963-6212-4aaf-8329-f77edccb687b","system_id":"levelo_inurba_marseille","lat":43.303045,"lon":5.372025,"is_reserved":false,"is_disabled":false,"rental_uris":{"android":"levelo://app?vid=90db3963-6212-4aaf-8329-f77edccb687b","ios":"levelo://app?vid=90db3963-6212-4aaf-8329-f77edccb687b"},"vehicle_type_id":"4","last_reported":1703919962,"current_range_meters":800,"station_id":"","pricing_plan_id":"free"},{"bike_id":"5a4567ba-ae44-4793-837e-956abccb70e7","system_id":"levelo_inurba_marseille","lat":43.301939,"lon":5.366286,"is_reserved":false,"is_disabled":false,"rental_uris":{"android":"levelo://app?vid=5a4567ba-ae44-4793-837e-956abccb70e7","ios":"levelo://app?vid=5a4567ba-ae44-4793-837e-956abccb70e7"},"vehicle_type_id":"4","last_reported":1703919962,"current_range_meters":26000,"station_id":"ce4bgrh2rcd13ifvqc8g","pricing_plan_id":"free"},{"bike_id":"6621a4ab-e25b-47de-8458-dd0c71540108","system_id":"levelo_inurba_marseille","lat":43.308012,"lon":5.381511,"is_reserved":false,"is_disabled":false,"rental_uris":{"android":"levelo://app?vid=6621a4ab-e25b-47de-8458-dd0c71540108","ios":"levelo://app?vid=6621a4ab-e25b-47de-8458-dd0c71540108"},"vehicle_type_id":"4","last_reported":1703919962,"current_range_meters":31200,"station_id":"ce4bgt12rcd13ifvqce0","pricing_plan_id":"free"},{"bike_id":"ccf7d49a-37ce-4605-a56f-fc2020bf99eb","system_id":"levelo_inurba_marseille","lat":43.308012,"lon":5.381511,"is_reserved":false,"is_disabled":false,"rental_uris":{"android":"levelo://app?vid=ccf7d49a-37ce-4605-a56f-fc2020bf99eb","ios":"levelo://app?vid=ccf7d49a-37ce-4605-a56f-fc2020bf99eb"},"vehicle_type_id":"4","last_reported":1703919962,"current_range_meters":31200,"station_id":"ce4bgt12rcd13ifvqce0","pricing_plan_id":"free"},{"bike_id":"e4dcb29d-6179-427e-822d-8621bcd08456","system_id":"levelo_inurba_marseille","lat":43.304708,"lon":5.379039,"is_reserved":false,"is_disabled":false,"rental_uris":{"android":"levelo://app?vid=e4dcb29d-6179-427e-822d-8621bcd08456","ios":"levelo://app?vid=e4dcb29d-6179-427e-822d-8621bcd08456"},"vehicle_type_id":"4","last_reported":1703919962,"current_range_meters":23600,"station_id":"","pricing_plan_id":"free"},{"bike_id":"dde25383-b807-4605-9423-14232ae6be24","system_id":"levelo_inurba_marseille","lat":43.304606,"lon":5.379026,"is_reserved":false,"is_disabled":false,"rental_uris":{"android":"levelo://app?vid=dde25383-b807-4605-9423-14232ae6be24","ios":"levelo://app?vid=dde25383-b807-4605-9423-14232ae6be24"},"vehicle_type_id":"4","last_reported":1703919962,"current_range_meters":26800,"station_id":"ce4bgup2rcd13ifvqcn0","pricing_plan_id":"free"},{"bike_id":"8bc27d26-94db-41ce-a454-73e18c8ac291","system_id":"levelo_inurba_marseille","lat":43.30458,"lon":5.37898,"is_reserved":false,"is_disabled":false,"rental_uris":{"android":"levelo://app?vid=8bc27d26-94db-41ce-a454-73e18c8ac291","ios":"levelo://app?vid=8bc27d26-94db-41ce-a454-73e18c8ac291"},"vehicle_type_id":"4","last_reported":1703919962,"current_range_meters":22800,"station_id":"ce4bgup2rcd13ifvqcn0","pricing_plan_id":"free"},{"bike_id":"59e3394c-5cae-4499-96f4-4a5efa3f5daa","system_id":"levelo_inurba_marseille","lat":43.304606,"lon":5.379026,"is_reserved":false,"is_disabled":false,"rental_uris":{"android":"levelo://app?vid=59e3394c-5cae-4499-96f4-4a5efa3f5daa","ios":"levelo://app?vid=59e3394c-5cae-4499-96f4-4a5efa3f5daa"},"vehicle_type_id":"4","last_reported":1703919962,"current_range_meters":27600,"station_id":"ce4bgup2rcd13ifvqcn0","pricing_plan_id":"free"},{"bike_id":"32bc8c21-d671-42e1-8c1a-ab864c70bdd5","system_id":"levelo_inurba_marseille","lat":43.304606,"lon":5.379026,"is_reserved":false,"is_disabled":false,"rental_uris":{"android":"levelo://app?vid=32bc8c21-d671-42e1-8c1a-ab864c70bdd5","ios":"levelo://app?vid=32bc8c21-d671-42e1-8c1a-ab864c70bdd5"},"vehicle_type_id":"4","last_reported":1703919962,"current_range_meters":29600,"station_id":"ce4bgup2rcd13ifvqcn0","pricing_plan_id":"free"},{"bike_id":"419c9b69-8a8f-4d81-a6af-bcd59d1a3cef","system_id":"levelo_inurba_marseille","lat":43.304606,"lon":5.379026,"is_reserved":false,"is_disabled":false,"rental_uris":{"android":"levelo://app?vid=419c9b69-8a8f-4d81-a6af-bcd59d1a3cef","ios":"levelo://app?vid=419c9b69-8a8f-4d81-a6af-bcd59d1a3cef"},"vehicle_type_id":"4","last_reported":1703919962,"current_range_meters":20800,"station_id":"ce4bgup2rcd13ifvqcn0","pricing_plan_id":"free"},{"bike_id":"16fe9b3d-3afa-443a-99fc-4117f6c8aa05","system_id":"levelo_inurba_marseille","lat":43.304606,"lon":5.379026,"is_reserved":false,"is_disabled":false,"rental_uris":{"android":"levelo://app?vid=16fe9b3d-3afa-443a-99fc-4117f6c8aa05","ios":"levelo://app?vid=16fe9b3d-3afa-443a-99fc-4117f6c8aa05"},"vehicle_type_id":"4","last_reported":1703919962,"current_range_meters":15600,"station_id":"ce4bgup2rcd13ifvqcn0","pricing_plan_id":"free"},{"bike_id":"ca341ae7-df28-456b-b1c2-455111f76789","system_id":"levelo_inurba_marseille","lat":43.324771,"lon":5.36557,"is_reserved":false,"is_disabled":false,"rental_uris":{"android":"levelo://app?vid=ca341ae7-df28-456b-b1c2-455111f76789","ios":"levelo://app?vid=ca341ae7-df28-456b-b1c2-455111f76789"},"vehicle_type_id":"4","last_reported":1703919962,"current_range_meters":23200,"station_id":"ce4bhs12rcd13ifvqhvg","pricing_plan_id":"free"},{"bike_id":"7d5a5fe5-0b70-43bb-9224-59cfb24cc454","system_id":"levelo_inurba_marseille","lat":43.324771,"lon":5.36557,"is_reserved":false,"is_disabled":false,"rental_uris":{"android":"levelo://app?vid=7d5a5fe5-0b70-43bb-9224-59cfb24cc454","ios":"levelo://app?vid=7d5a5fe5-0b70-43bb-9224-59cfb24cc454"},"vehicle_type_id":"4","last_reported":1703919962,"current_range_meters":12400,"station_id":"ce4bhs12rcd13ifvqhvg","pricing_plan_id":"free"},{"bike_id":"05f65469-8490-4007-b7f9-d40917be0817","system_id":"levelo_inurba_marseille","lat":43.302784,"lon":5.377158,"is_reserved":false,"is_disabled":false,"rental_uris":{"android":"levelo://app?vid=05f65469-8490-4007-b7f9-d40917be0817","ios":"levelo://app?vid=05f65469-8490-4007-b7f9-d40917be0817"},"vehicle_type_id":"4","last_reported":1703919962,"current_range_meters":31200,"station_id":"ce4bguh2rcd13ifvqcj0","pricing_plan_id":"free"},{"bike_id":"31237bac-c6ec-49b4-adbd-e44eab5db1c9","system_id":"levelo_inurba_marseille","lat":43.301429,"lon":5.37413,"is_reserved":false,"is_disabled":false,"rental_uris":{"android":"levelo://app?vid=31237bac-c6ec-49b4-adbd-e44eab5db1c9","ios":"levelo://app?vid=31237bac-c6ec-49b4-adbd-e44eab5db1c9"},"vehicle_type_id":"4","last_reported":1703919962,"current_range_meters":28800,"station_id":"ce4bgs92rcd13ifvqcc0","pricing_plan_id":"free"},{"bike_id":"eb75f652-373e-4726-9e33-c05a085e4a2d","system_id":"levelo_inurba_marseille","lat":43.301453,"lon":5.37416,"is_reserved":false,"is_disabled":false,"rental_uris":{"android":"levelo://app?vid=eb75f652-373e-4726-9e33-c05a085e4a2d","ios":"levelo://app?vid=eb75f652-373e-4726-9e33-c05a085e4a2d"},"vehicle_type_id":"4","last_reported":1703919962,"current_range_meters":0,"station_id":"","pricing_plan_id":"free"},{"bike_id":"b8264f28-fa30-46a6-bb02-f86db33ed134","system_id":"levelo_inurba_marseille","lat":43.319935,"lon":5.381699,"is_reserved":false,"is_disabled":false,"rental_uris":{"android":"levelo://app?vid=b8264f28-fa30-46a6-bb02-f86db33ed134","ios":"levelo://app?vid=b8264f28-fa30-46a6-bb02-f86db33ed134"},"vehicle_type_id":"4","last_reported":1703919962,"current_range_meters":8800,"station_id":"ce4bhr12rcd13ifvqhpg","pricing_plan_id":"free"},{"bike_id":"42fd2fdc-4d05-46bd-9c55-062febfc0e08","system_id":"levelo_inurba_marseille","lat":43.319935,"lon":5.381699,"is_reserved":false,"is_disabled":false,"rental_uris":{"android":"levelo://app?vid=42fd2fdc-4d05-46bd-9c55-062febfc0e08","ios":"levelo://app?vid=42fd2fdc-4d05-46bd-9c55-062febfc0e08"},"vehicle_type_id":"4","last_reported":1703919962,"current_range_meters":22400,"station_id":"ce4bhr12rcd13ifvqhpg","pricing_plan_id":"free"},{"bike_id":"a0d80e36-94b7-4220-b055-cf694b3eafdd","system_id":"levelo_inurba_marseille","lat":43.319935,"lon":5.381699,"is_reserved":false,"is_disabled":false,"rental_uris":{"android":"levelo://app?vid=a0d80e36-94b7-4220-b055-cf694b3eafdd","ios":"levelo://app?vid=a0d80e36-94b7-4220-b055-cf694b3eafdd"},"vehicle_type_id":"4","last_reported":1703919962,"current_range_meters":20000,"station_id":"ce4bhr12rcd13ifvqhpg","pricing_plan_id":"free"},{"bike_id":"b71042fb-e3a0-4497-acaa-53e53b57abe5","system_id":"levelo_inurba_marseille","lat":43.319935,"lon":5.381699,"is_reserved":false,"is_disabled":false,"rental_uris":{"android":"levelo://app?vid=b71042fb-e3a0-4497-acaa-53e53b57abe5","ios":"levelo://app?vid=b71042fb-e3a0-4497-acaa-53e53b57abe5"},"vehicle_type_id":"4","last_reported":1703919962,"current_range_meters":12800,"station_id":"ce4bhr12rcd13ifvqhpg","pricing_plan_id":"free"},{"bike_id":"3895431a-679b-40f5-a098-df7938c7e82f","system_id":"levelo_inurba_marseille","lat":43.319935,"lon":5.381699,"is_reserved":false,"is_disabled":false,"rental_uris":{"android":"levelo://app?vid=3895431a-679b-40f5-a098-df7938c7e82f","ios":"levelo://app?vid=3895431a-679b-40f5-a098-df7938c7e82f"},"vehicle_type_id":"4","last_reported":1703919962,"current_range_meters":30400,"station_id":"ce4bhr12rcd13ifvqhpg","pricing_plan_id":"free"},{"bike_id":"ecd41cba-cc39-4b4c-83d3-b3c1d4a8002d","system_id":"levelo_inurba_marseille","lat":43.299724,"lon":5.371829,"is_reserved":false,"is_disabled":false,"rental_uris":{"android":"levelo://app?vid=ecd41cba-cc39-4b4c-83d3-b3c1d4a8002d","ios":"levelo://app?vid=ecd41cba-cc39-4b4c-83d3-b3c1d4a8002d"},"vehicle_type_id":"4","last_reported":1703919962,"current_range_meters":31200,"station_id":"ce4bgr92rcd13ifvqc7g","pricing_plan_id":"free"},{"bike_id":"cabcfbda-342c-42c4-b95a-59258eae654a","system_id":"levelo_inurba_marseille","lat":43.299724,"lon":5.371829,"is_reserved":false,"is_disabled":false,"rental_uris":{"android":"levelo://app?vid=cabcfbda-342c-42c4-b95a-59258eae654a","ios":"levelo://app?vid=cabcfbda-342c-42c4-b95a-59258eae654a"},"vehicle_type_id":"4","last_reported":1703919962,"current_range_meters":25600,"station_id":"ce4bgr92rcd13ifvqc7g","pricing_plan_id":"free"},{"bike_id":"a5c4c6b1-93e6-4cef-884d-4579f166ffbe","system_id":"levelo_inurba_marseille","lat":43.299921,"lon":5.374371,"is_reserved":false,"is_disabled":false,"rental_uris":{"android":"levelo://app?vid=a5c4c6b1-93e6-4cef-884d-4579f166ffbe","ios":"levelo://app?vid=a5c4c6b1-93e6-4cef-884d-4579f166ffbe"},"vehicle_type_id":"4","last_reported":1703919962,"current_range_meters":22400,"station_id":"","pricing_plan_id":"free"},{"bike_id":"f49d6550-7264-4f9d-98e2-a4b80f761fb6","system_id":"levelo_inurba_marseille","lat":43.29852,"lon":5.362889,"is_reserved":false,"is_disabled":false,"rental_uris":{"android":"levelo://app?vid=f49d6550-7264-4f9d-98e2-a4b80f761fb6","ios":"levelo://app?vid=f49d6550-7264-4f9d-98e2-a4b80f761fb6"},"vehicle_type_id":"4","last_reported":1703919962,"current_range_meters":18400,"station_id":"ce4bgpp2rcd13ifvqc3g","pricing_plan_id":"free"},{"bike_id":"fc55bcdf-eefa-453c-8f91-c3adaeb16ae5","system_id":"levelo_inurba_marseille","lat":43.305364,"lon":5.384119,"is_reserved":false,"is_disabled":false,"rental_uris":{"android":"levelo://app?vid=fc55bcdf-eefa-453c-8f91-c3adaeb16ae5","ios":"levelo://app?vid=fc55bcdf-eefa-453c-8f91-c3adaeb16ae5"},"vehicle_type_id":"4","last_reported":1703919962,"current_range_meters":26800,"station_id":"ce4bgg92rcd13ifvqb30","pricing_plan_id":"free"},{"bike_id":"43693da7-a63b-4b88-8ecc-bf6ef6de1c19","system_id":"levelo_inurba_marseille","lat":43.305364,"lon":5.384119,"is_reserved":false,"is_disabled":false,"rental_uris":{"android":"levelo://app?vid=43693da7-a63b-4b88-8ecc-bf6ef6de1c19","ios":"levelo://app?vid=43693da7-a63b-4b88-8ecc-bf6ef6de1c19"},"vehicle_type_id":"4","last_reported":1703919962,"current_range_meters":30000,"station_id":"ce4bgg92rcd13ifvqb30","pricing_plan_id":"free"},{"bike_id":"badbb150-5f88-43f8-87fa-e98417c7f679","system_id":"levelo_inurba_marseille","lat":43.305364,"lon":5.384119,"is_reserved":false,"is_disabled":false,"rental_uris":{"android":"levelo://app?vid=badbb150-5f88-43f8-87fa-e98417c7f679","ios":"levelo://app?vid=badbb150-5f88-43f8-87fa-e98417c7f679"},"vehicle_type_id":"4","last_reported":1703919962,"current_range_meters":23200,"station_id":"ce4bgg92rcd13ifvqb30","pricing_plan_id":"free"},{"bike_id":"648ee1e3-78d1-4537-afc5-3121931e303f","system_id":"levelo_inurba_marseille","lat":43.298433,"lon":5.362774,"is_reserved":false,"is_disabled":false,"rental_uris":{"android":"levelo://app?vid=648ee1e3-78d1-4537-afc5-3121931e303f","ios":"levelo://app?vid=648ee1e3-78d1-4537-afc5-3121931e303f"},"vehicle_type_id":"4","last_reported":1703919962,"current_range_meters":27200,"station_id":"ce4bgpp2rcd13ifvqc3g","pricing_plan_id":"free"},{"bike_id":"584247a0-1d47-468e-b109-dc864d27e0ee","system_id":"levelo_inurba_marseille","lat":43.298433,"lon":5.362774,"is_reserved":false,"is_disabled":false,"rental_uris":{"android":"levelo://app?vid=584247a0-1d47-468e-b109-dc864d27e0ee","ios":"levelo://app?vid=584247a0-1d47-468e-b109-dc864d27e0ee"},"vehicle_type_id":"4","last_reported":1703919962,"current_range_meters":28400,"station_id":"ce4bgpp2rcd13ifvqc3g","pricing_plan_id":"free"},{"bike_id":"e3132121-4f16-43bf-8506-a50affb433b0","system_id":"levelo_inurba_marseille","lat":43.3021,"lon":5.38105,"is_reserved":false,"is_disabled":false,"rental_uris":{"android":"levelo://app?vid=e3132121-4f16-43bf-8506-a50affb433b0","ios":"levelo://app?vid=e3132121-4f16-43bf-8506-a50affb433b0"},"vehicle_type_id":"4","last_reported":1703919962,"current_range_meters":20000,"station_id":"","pricing_plan_id":"free"},{"bike_id":"c2afd1d2-edc9-4d0c-9539-78e5bb2cb3c5","system_id":"levelo_inurba_marseille","lat":43.311722,"lon":5.387247,"is_reserved":false,"is_disabled":false,"rental_uris":{"android":"levelo://app?vid=c2afd1d2-edc9-4d0c-9539-78e5bb2cb3c5","ios":"levelo://app?vid=c2afd1d2-edc9-4d0c-9539-78e5bb2cb3c5"},"vehicle_type_id":"4","last_reported":1703919962,"current_range_meters":28000,"station_id":"ce4bgv12rcd13ifvqcp0","pricing_plan_id":"free"},{"bike_id":"6f334256-45df-426f-a750-0cb609fb55ac","system_id":"levelo_inurba_marseille","lat":43.297794,"lon":5.370888,"is_reserved":false,"is_disabled":false,"rental_uris":{"android":"levelo://app?vid=6f334256-45df-426f-a750-0cb609fb55ac","ios":"levelo://app?vid=6f334256-45df-426f-a750-0cb609fb55ac"},"vehicle_type_id":"4","last_reported":1703919962,"current_range_meters":30000,"station_id":"ce4bgop2rcd13ifvqc1g","pricing_plan_id":"free"},{"bike_id":"8dad90dc-3f0b-42ea-ba61-480baa952fa2","system_id":"levelo_inurba_marseille","lat":43.297774,"lon":5.370875,"is_reserved":false,"is_disabled":false,"rental_uris":{"android":"levelo://app?vid=8dad90dc-3f0b-42ea-ba61-480baa952fa2","ios":"levelo://app?vid=8dad90dc-3f0b-42ea-ba61-480baa952fa2"},"vehicle_type_id":"4","last_reported":1703919962,"current_range_meters":27600,"station_id":"ce4bgop2rcd13ifvqc1g","pricing_plan_id":"free"},{"bike_id":"fdd6fcc6-8759-41c1-9c48-b71f8809fbf1","system_id":"levelo_inurba_marseille","lat":43.322872,"lon":5.382756,"is_reserved":false,"is_disabled":false,"rental_uris":{"android":"levelo://app?vid=fdd6fcc6-8759-41c1-9c48-b71f8809fbf1","ios":"levelo://app?vid=fdd6fcc6-8759-41c1-9c48-b71f8809fbf1"},"vehicle_type_id":"4","last_reported":1703919962,"current_range_meters":31200,"station_id":"ce4bhr12rcd13ifvqhqg","pricing_plan_id":"free"},{"bike_id":"accbbe6d-f8a2-4d0d-badc-393301aad27d","system_id":"levelo_inurba_marseille","lat":43.322872,"lon":5.382756,"is_reserved":false,"is_disabled":false,"rental_uris":{"android":"levelo://app?vid=accbbe6d-f8a2-4d0d-badc-393301aad27d","ios":"levelo://app?vid=accbbe6d-f8a2-4d0d-badc-393301aad27d"},"vehicle_type_id":"4","last_reported":1703919962,"current_range_meters":29600,"station_id":"ce4bhr12rcd13ifvqhqg","pricing_plan_id":"free"},{"bike_id":"e01fbfb3-2381-48f7-b845-a989b0e1d4d4","system_id":"levelo_inurba_marseille","lat":43.32286,"lon":5.38282,"is_reserved":false,"is_disabled":false,"rental_uris":{"android":"levelo://app?vid=e01fbfb3-2381-48f7-b845-a989b0e1d4d4","ios":"levelo://app?vid=e01fbfb3-2381-48f7-b845-a989b0e1d4d4"},"vehicle_type_id":"4","last_reported":1703919962,"current_range_meters":28800,"station_id":"ce4bhr12rcd13ifvqhqg","pricing_plan_id":"free"},{"bike_id":"5c89eee7-6e83-42b4-bd81-efdcf68f6666","system_id":"levelo_inurba_marseille","lat":43.328255,"lon":5.366778,"is_reserved":false,"is_disabled":false,"rental_uris":{"android":"levelo://app?vid=5c89eee7-6e83-42b4-bd81-efdcf68f6666","ios":"levelo://app?vid=5c89eee7-6e83-42b4-bd81-efdcf68f6666"},"vehicle_type_id":"4","last_reported":1703919962,"current_range_meters":28800,"station_id":"ce4bhs92rcd13ifvqi0g","pricing_plan_id":"free"},{"bike_id":"3406ac08-144e-419c-8a8c-9c89910b5b78","system_id":"levelo_inurba_marseille","lat":43.32826,"lon":5.36675,"is_reserved":false,"is_disabled":false,"rental_uris":{"android":"levelo://app?vid=3406ac08-144e-419c-8a8c-9c89910b5b78","ios":"levelo://app?vid=3406ac08-144e-419c-8a8c-9c89910b5b78"},"vehicle_type_id":"4","last_reported":1703919962,"current_range_meters":12000,"station_id":"ce4bhs92rcd13ifvqi0g","pricing_plan_id":"free"},{"bike_id":"b30b3d1b-ef61-4776-bd7b-61c34fd8cc81","system_id":"levelo_inurba_marseille","lat":43.328265,"lon":5.366668,"is_reserved":false,"is_disabled":false,"rental_uris":{"android":"levelo://app?vid=b30b3d1b-ef61-4776-bd7b-61c34fd8cc81","ios":"levelo://app?vid=b30b3d1b-ef61-4776-bd7b-61c34fd8cc81"},"vehicle_type_id":"4","last_reported":1703919962,"current_range_meters":8000,"station_id":"ce4bhs92rcd13ifvqi0g","pricing_plan_id":"free"},{"bike_id":"51714c4a-3132-4951-88ec-80e85fa125e8","system_id":"levelo_inurba_marseille","lat":43.328273,"lon":5.366766,"is_reserved":false,"is_disabled":false,"rental_uris":{"android":"levelo://app?vid=51714c4a-3132-4951-88ec-80e85fa125e8","ios":"levelo://app?vid=51714c4a-3132-4951-88ec-80e85fa125e8"},"vehicle_type_id":"4","last_reported":1703919962,"current_range_meters":11200,"station_id":"ce4bhs92rcd13ifvqi0g","pricing_plan_id":"free"},{"bike_id":"a677cd10-a09b-4b2e-bffd-45b05d2c9229","system_id":"levelo_inurba_marseille","lat":43.328273,"lon":5.366715,"is_reserved":false,"is_disabled":false,"rental_uris":{"android":"levelo://app?vid=a677cd10-a09b-4b2e-bffd-45b05d2c9229","ios":"levelo://app?vid=a677cd10-a09b-4b2e-bffd-45b05d2c9229"},"vehicle_type_id":"4","last_reported":1703919962,"current_range_meters":19200,"station_id":"ce4bhs92rcd13ifvqi0g","pricing_plan_id":"free"},{"bike_id":"7aa6a530-3ac6-4ec6-a447-a7bf4c489e07","system_id":"levelo_inurba_marseille","lat":43.32828,"lon":5.36675,"is_reserved":false,"is_disabled":false,"rental_uris":{"android":"levelo://app?vid=7aa6a530-3ac6-4ec6-a447-a7bf4c489e07","ios":"levelo://app?vid=7aa6a530-3ac6-4ec6-a447-a7bf4c489e07"},"vehicle_type_id":"4","last_reported":1703919962,"current_range_meters":21200,"station_id":"ce4bhs92rcd13ifvqi0g","pricing_plan_id":"free"},{"bike_id":"a448ca86-2b35-41e1-89c4-32a99bab0563","system_id":"levelo_inurba_marseille","lat":43.328371,"lon":5.366912,"is_reserved":false,"is_disabled":false,"rental_uris":{"android":"levelo://app?vid=a448ca86-2b35-41e1-89c4-32a99bab0563","ios":"levelo://app?vid=a448ca86-2b35-41e1-89c4-32a99bab0563"},"vehicle_type_id":"4","last_reported":1703919962,"current_range_meters":16400,"station_id":"ce4bhs92rcd13ifvqi0g","pricing_plan_id":"free"},{"bike_id":"74ff96ff-c851-4d57-8883-0d7347bd471f","system_id":"levelo_inurba_marseille","lat":43.328293,"lon":5.366719,"is_reserved":false,"is_disabled":false,"rental_uris":{"android":"levelo://app?vid=74ff96ff-c851-4d57-8883-0d7347bd471f","ios":"levelo://app?vid=74ff96ff-c851-4d57-8883-0d7347bd471f"},"vehicle_type_id":"4","last_reported":1703919962,"current_range_meters":31200,"station_id":"ce4bhs92rcd13ifvqi0g","pricing_plan_id":"free"},{"bike_id":"b88d5555-cc1b-4d13-b74a-65fa516b599f","system_id":"levelo_inurba_marseille","lat":43.3283,"lon":5.36665,"is_reserved":false,"is_disabled":false,"rental_uris":{"android":"levelo://app?vid=b88d5555-cc1b-4d13-b74a-65fa516b599f","ios":"levelo://app?vid=b88d5555-cc1b-4d13-b74a-65fa516b599f"},"vehicle_type_id":"4","last_reported":1703919962,"current_range_meters":14000,"station_id":"ce4bhs92rcd13ifvqi0g","pricing_plan_id":"free"},{"bike_id":"de708f00-7118-4d7c-9021-d7dcbd798473","system_id":"levelo_inurba_marseille","lat":43.328312,"lon":5.366753,"is_reserved":false,"is_disabled":false,"rental_uris":{"android":"levelo://app?vid=de708f00-7118-4d7c-9021-d7dcbd798473","ios":"levelo://app?vid=de708f00-7118-4d7c-9021-d7dcbd798473"},"vehicle_type_id":"4","last_reported":1703919962,"current_range_meters":30800,"station_id":"ce4bhs92rcd13ifvqi0g","pricing_plan_id":"free"},{"bike_id":"ea7074d7-b7c9-4941-82c2-dff391bae9cb","system_id":"levelo_inurba_marseille","lat":43.32832,"lon":5.36677,"is_reserved":false,"is_disabled":false,"rental_uris":{"android":"levelo://app?vid=ea7074d7-b7c9-4941-82c2-dff391bae9cb","ios":"levelo://app?vid=ea7074d7-b7c9-4941-82c2-dff391bae9cb"},"vehicle_type_id":"4","last_reported":1703919962,"current_range_meters":30000,"station_id":"ce4bhs92rcd13ifvqi0g","pricing_plan_id":"free"},{"bike_id":"bd88768f-f8eb-4e71-8e12-6588100a12df","system_id":"levelo_inurba_marseille","lat":43.297163,"lon":5.365866,"is_reserved":false,"is_disabled":false,"rental_uris":{"android":"levelo://app?vid=bd88768f-f8eb-4e71-8e12-6588100a12df","ios":"levelo://app?vid=bd88768f-f8eb-4e71-8e12-6588100a12df"},"vehicle_type_id":"4","last_reported":1703919962,"current_range_meters":29200,"station_id":"ce4bgn12rcd13ifvqbt0","pricing_plan_id":"free"},{"bike_id":"70017d6e-6f1a-4af6-baf6-320a119b5691","system_id":"levelo_inurba_marseille","lat":43.328324,"lon":5.366757,"is_reserved":false,"is_disabled":false,"rental_uris":{"android":"levelo://app?vid=70017d6e-6f1a-4af6-baf6-320a119b5691","ios":"levelo://app?vid=70017d6e-6f1a-4af6-baf6-320a119b5691"},"vehicle_type_id":"4","last_reported":1703919962,"current_range_meters":30000,"station_id":"ce4bhs92rcd13ifvqi0g","pricing_plan_id":"free"},{"bike_id":"c99c1421-6c70-45e1-a99f-19afba82ca69","system_id":"levelo_inurba_marseille","lat":43.32833,"lon":5.36674,"is_reserved":false,"is_disabled":false,"rental_uris":{"android":"levelo://app?vid=c99c1421-6c70-45e1-a99f-19afba82ca69","ios":"levelo://app?vid=c99c1421-6c70-45e1-a99f-19afba82ca69"},"vehicle_type_id":"4","last_reported":1703919962,"current_range_meters":27600,"station_id":"ce4bhs92rcd13ifvqi0g","pricing_plan_id":"free"},{"bike_id":"6eb75a18-acfd-4ffa-bf23-27c5e63a3c58","system_id":"levelo_inurba_marseille","lat":43.32833,"lon":5.36671,"is_reserved":false,"is_disabled":false,"rental_uris":{"android":"levelo://app?vid=6eb75a18-acfd-4ffa-bf23-27c5e63a3c58","ios":"levelo://app?vid=6eb75a18-acfd-4ffa-bf23-27c5e63a3c58"},"vehicle_type_id":"4","last_reported":1703919962,"current_range_meters":15600,"station_id":"ce4bhs92rcd13ifvqi0g","pricing_plan_id":"free"},{"bike_id":"904f83aa-e9ab-401d-84c1-9edfed82b884","system_id":"levelo_inurba_marseille","lat":43.328371,"lon":5.366912,"is_reserved":false,"is_disabled":false,"rental_uris":{"android":"levelo://app?vid=904f83aa-e9ab-401d-84c1-9edfed82b884","ios":"levelo://app?vid=904f83aa-e9ab-401d-84c1-9edfed82b884"},"vehicle_type_id":"4","last_reported":1703919962,"current_range_meters":27600,"station_id":"ce4bhs92rcd13ifvqi0g","pricing_plan_id":"free"},{"bike_id":"bbf48138-9d09-48e2-8b6a-60b8426de277","system_id":"levelo_inurba_marseille","lat":43.32834,"lon":5.36676,"is_reserved":false,"is_disabled":false,"rental_uris":{"android":"levelo://app?vid=bbf48138-9d09-48e2-8b6a-60b8426de277","ios":"levelo://app?vid=bbf48138-9d09-48e2-8b6a-60b8426de277"},"vehicle_type_id":"4","last_reported":1703919962,"current_range_meters":18400,"station_id":"ce4bhs92rcd13ifvqi0g","pricing_plan_id":"free"},{"bike_id":"69647a77-b113-4db4-ab4b-e8b674e33b26","system_id":"levelo_inurba_marseille","lat":43.297163,"lon":5.365866,"is_reserved":false,"is_disabled":false,"rental_uris":{"android":"levelo://app?vid=69647a77-b113-4db4-ab4b-e8b674e33b26","ios":"levelo://app?vid=69647a77-b113-4db4-ab4b-e8b674e33b26"},"vehicle_type_id":"4","last_reported":1703919962,"current_range_meters":25200,"station_id":"ce4bgn12rcd13ifvqbt0","pricing_plan_id":"free"},{"bike_id":"370cccf7-c9ba-46c2-819b-c8e8cacc4c21","system_id":"levelo_inurba_marseille","lat":43.3277,"lon":5.37458,"is_reserved":false,"is_disabled":false,"rental_uris":{"android":"levelo://app?vid=370cccf7-c9ba-46c2-819b-c8e8cacc4c21","ios":"levelo://app?vid=370cccf7-c9ba-46c2-819b-c8e8cacc4c21"},"vehicle_type_id":"4","last_reported":1703919962,"current_range_meters":15200,"station_id":"","pricing_plan_id":"free"},{"bike_id":"8e8ccc3e-50b5-44d7-8a38-e2d08254a826","system_id":"levelo_inurba_marseille","lat":43.2968,"lon":5.37291,"is_reserved":false,"is_disabled":false,"rental_uris":{"android":"levelo://app?vid=8e8ccc3e-50b5-44d7-8a38-e2d08254a826","ios":"levelo://app?vid=8e8ccc3e-50b5-44d7-8a38-e2d08254a826"},"vehicle_type_id":"4","last_reported":1703919962,"current_range_meters":30000,"station_id":"ce4bgk12rcd13ifvqbj0","pricing_plan_id":"free"},{"bike_id":"921b424d-ad0d-4c7a-9d74-66e3a49bfa19","system_id":"levelo_inurba_marseille","lat":43.32934,"lon":5.36612,"is_reserved":false,"is_disabled":false,"rental_uris":{"android":"levelo://app?vid=921b424d-ad0d-4c7a-9d74-66e3a49bfa19","ios":"levelo://app?vid=921b424d-ad0d-4c7a-9d74-66e3a49bfa19"},"vehicle_type_id":"4","last_reported":1703919962,"current_range_meters":6800,"station_id":"","pricing_plan_id":"free"},{"bike_id":"96112220-4d58-4ffe-ab53-f8ad9bdfaca6","system_id":"levelo_inurba_marseille","lat":43.296921,"lon":5.376579,"is_reserved":false,"is_disabled":false,"rental_uris":{"android":"levelo://app?vid=96112220-4d58-4ffe-ab53-f8ad9bdfaca6","ios":"levelo://app?vid=96112220-4d58-4ffe-ab53-f8ad9bdfaca6"},"vehicle_type_id":"4","last_reported":1703919962,"current_range_meters":26400,"station_id":"ce4bgkh2rcd13ifvqbl0","pricing_plan_id":"free"},{"bike_id":"4397328d-2311-4c1c-9fb6-25c095703e5c","system_id":"levelo_inurba_marseille","lat":43.296935,"lon":5.376544,"is_reserved":false,"is_disabled":false,"rental_uris":{"android":"levelo://app?vid=4397328d-2311-4c1c-9fb6-25c095703e5c","ios":"levelo://app?vid=4397328d-2311-4c1c-9fb6-25c095703e5c"},"vehicle_type_id":"4","last_reported":1703919962,"current_range_meters":23600,"station_id":"ce4bgkh2rcd13ifvqbl0","pricing_plan_id":"free"},{"bike_id":"b6b2e23c-a29d-4335-be62-67d06c80cdf0","system_id":"levelo_inurba_marseille","lat":43.299028,"lon":5.381509,"is_reserved":false,"is_disabled":false,"rental_uris":{"android":"levelo://app?vid=b6b2e23c-a29d-4335-be62-67d06c80cdf0","ios":"levelo://app?vid=b6b2e23c-a29d-4335-be62-67d06c80cdf0"},"vehicle_type_id":"4","last_reported":1703919962,"current_range_meters":27600,"station_id":"ce4bgj12rcd13ifvqbc0","pricing_plan_id":"free"},{"bike_id":"e7624854-641f-420a-9d22-c4772d16dfe7","system_id":"levelo_inurba_marseille","lat":43.299028,"lon":5.381509,"is_reserved":false,"is_disabled":false,"rental_uris":{"android":"levelo://app?vid=e7624854-641f-420a-9d22-c4772d16dfe7","ios":"levelo://app?vid=e7624854-641f-420a-9d22-c4772d16dfe7"},"vehicle_type_id":"4","last_reported":1703919962,"current_range_meters":25600,"station_id":"ce4bgj12rcd13ifvqbc0","pricing_plan_id":"free"},{"bike_id":"292d13bf-6cba-498e-923d-772c38c90367","system_id":"levelo_inurba_marseille","lat":43.309589,"lon":5.390258,"is_reserved":false,"is_disabled":false,"rental_uris":{"android":"levelo://app?vid=292d13bf-6cba-498e-923d-772c38c90367","ios":"levelo://app?vid=292d13bf-6cba-498e-923d-772c38c90367"},"vehicle_type_id":"4","last_reported":1703919962,"current_range_meters":29200,"station_id":"ce4bgup2rcd13ifvqco0","pricing_plan_id":"free"},{"bike_id":"9d17c57e-a1d1-4867-a936-d51f7f6c6272","system_id":"levelo_inurba_marseille","lat":43.317557,"lon":5.390173,"is_reserved":false,"is_disabled":false,"rental_uris":{"android":"levelo://app?vid=9d17c57e-a1d1-4867-a936-d51f7f6c6272","ios":"levelo://app?vid=9d17c57e-a1d1-4867-a936-d51f7f6c6272"},"vehicle_type_id":"4","last_reported":1703919962,"current_range_meters":29200,"station_id":"ce4bhqp2rcd13ifvqhng","pricing_plan_id":"free"},{"bike_id":"f76ba80c-df4f-46ed-b89a-665e66e76f66","system_id":"levelo_inurba_marseille","lat":43.317557,"lon":5.390173,"is_reserved":false,"is_disabled":false,"rental_uris":{"android":"levelo://app?vid=f76ba80c-df4f-46ed-b89a-665e66e76f66","ios":"levelo://app?vid=f76ba80c-df4f-46ed-b89a-665e66e76f66"},"vehicle_type_id":"4","last_reported":1703919962,"current_range_meters":31200,"station_id":"ce4bhqp2rcd13ifvqhng","pricing_plan_id":"free"},{"bike_id":"2815d3f1-26fb-41c8-af53-1de6eac3b19a","system_id":"levelo_inurba_marseille","lat":43.317557,"lon":5.390173,"is_reserved":false,"is_disabled":false,"rental_uris":{"android":"levelo://app?vid=2815d3f1-26fb-41c8-af53-1de6eac3b19a","ios":"levelo://app?vid=2815d3f1-26fb-41c8-af53-1de6eac3b19a"},"vehicle_type_id":"4","last_reported":1703919962,"current_range_meters":18400,"station_id":"ce4bhqp2rcd13ifvqhng","pricing_plan_id":"free"},{"bike_id":"d5d85613-58ba-4fd6-beea-170b87cbc9e9","system_id":"levelo_inurba_marseille","lat":43.317557,"lon":5.390173,"is_reserved":false,"is_disabled":false,"rental_uris":{"android":"levelo://app?vid=d5d85613-58ba-4fd6-beea-170b87cbc9e9","ios":"levelo://app?vid=d5d85613-58ba-4fd6-beea-170b87cbc9e9"},"vehicle_type_id":"4","last_reported":1703919962,"current_range_meters":31200,"station_id":"ce4bhqp2rcd13ifvqhng","pricing_plan_id":"free"},{"bike_id":"3e1848c3-d869-43c6-b4b1-4704dadf4192","system_id":"levelo_inurba_marseille","lat":43.317557,"lon":5.390173,"is_reserved":false,"is_disabled":false,"rental_uris":{"android":"levelo://app?vid=3e1848c3-d869-43c6-b4b1-4704dadf4192","ios":"levelo://app?vid=3e1848c3-d869-43c6-b4b1-4704dadf4192"},"vehicle_type_id":"4","last_reported":1703919962,"current_range_meters":31200,"station_id":"ce4bhqp2rcd13ifvqhng","pricing_plan_id":"free"},{"bike_id":"2c99368a-6983-4529-8804-af1780937bb3","system_id":"levelo_inurba_marseille","lat":43.317557,"lon":5.390173,"is_reserved":false,"is_disabled":false,"rental_uris":{"android":"levelo://app?vid=2c99368a-6983-4529-8804-af1780937bb3","ios":"levelo://app?vid=2c99368a-6983-4529-8804-af1780937bb3"},"vehicle_type_id":"4","last_reported":1703919962,"current_range_meters":28000,"station_id":"ce4bhqp2rcd13ifvqhng","pricing_plan_id":"free"},{"bike_id":"66405559-9dbe-4c6c-8bed-dfa79d11de75","system_id":"levelo_inurba_marseille","lat":43.317557,"lon":5.390173,"is_reserved":false,"is_disabled":false,"rental_uris":{"android":"levelo://app?vid=66405559-9dbe-4c6c-8bed-dfa79d11de75","ios":"levelo://app?vid=66405559-9dbe-4c6c-8bed-dfa79d11de75"},"vehicle_type_id":"4","last_reported":1703919962,"current_range_meters":27600,"station_id":"ce4bhqp2rcd13ifvqhng","pricing_plan_id":"free"},{"bike_id":"c0c5b6b7-e032-4a13-a67d-09abadac590c","system_id":"levelo_inurba_marseille","lat":43.298037,"lon":5.381066,"is_reserved":false,"is_disabled":false,"rental_uris":{"android":"levelo://app?vid=c0c5b6b7-e032-4a13-a67d-09abadac590c","ios":"levelo://app?vid=c0c5b6b7-e032-4a13-a67d-09abadac590c"},"vehicle_type_id":"4","last_reported":1703919962,"current_range_meters":28000,"station_id":"ce4bgip2rcd13ifvqbb0","pricing_plan_id":"free"},{"bike_id":"c61f2c81-b50e-4e3c-9ced-5533f346dbfd","system_id":"levelo_inurba_marseille","lat":43.298037,"lon":5.381066,"is_reserved":false,"is_disabled":false,"rental_uris":{"android":"levelo://app?vid=c61f2c81-b50e-4e3c-9ced-5533f346dbfd","ios":"levelo://app?vid=c61f2c81-b50e-4e3c-9ced-5533f346dbfd"},"vehicle_type_id":"4","last_reported":1703919962,"current_range_meters":27600,"station_id":"ce4bgip2rcd13ifvqbb0","pricing_plan_id":"free"},{"bike_id":"a15e9499-7685-4495-ac93-929534ce4177","system_id":"levelo_inurba_marseille","lat":43.296277,"lon":5.377108,"is_reserved":false,"is_disabled":false,"rental_uris":{"android":"levelo://app?vid=a15e9499-7685-4495-ac93-929534ce4177","ios":"levelo://app?vid=a15e9499-7685-4495-ac93-929534ce4177"},"vehicle_type_id":"4","last_reported":1703919962,"current_range_meters":0,"station_id":"ce4bgi92rcd13ifvqb90","pricing_plan_id":"free"},{"bike_id":"d60802d6-4f47-444a-b234-883690eec05b","system_id":"levelo_inurba_marseille","lat":43.33062,"lon":5.3627,"is_reserved":false,"is_disabled":false,"rental_uris":{"android":"levelo://app?vid=d60802d6-4f47-444a-b234-883690eec05b","ios":"levelo://app?vid=d60802d6-4f47-444a-b234-883690eec05b"},"vehicle_type_id":"4","last_reported":1703919962,"current_range_meters":28000,"station_id":"","pricing_plan_id":"free"},{"bike_id":"cb822238-e959-4674-833b-4eacd9be9877","system_id":"levelo_inurba_marseille","lat":43.296277,"lon":5.377108,"is_reserved":false,"is_disabled":false,"rental_uris":{"android":"levelo://app?vid=cb822238-e959-4674-833b-4eacd9be9877","ios":"levelo://app?vid=cb822238-e959-4674-833b-4eacd9be9877"},"vehicle_type_id":"4","last_reported":1703919962,"current_range_meters":28000,"station_id":"ce4bgi92rcd13ifvqb90","pricing_plan_id":"free"},{"bike_id":"7119845d-00aa-4d9f-be8c-fc97d41f1380","system_id":"levelo_inurba_marseille","lat":43.297594,"lon":5.381134,"is_reserved":false,"is_disabled":false,"rental_uris":{"android":"levelo://app?vid=7119845d-00aa-4d9f-be8c-fc97d41f1380","ios":"levelo://app?vid=7119845d-00aa-4d9f-be8c-fc97d41f1380"},"vehicle_type_id":"4","last_reported":1703919962,"current_range_meters":16800,"station_id":"ce4bgip2rcd13ifvqbb0","pricing_plan_id":"free"},{"bike_id":"cc957c45-7377-4a73-8274-15886c830a49","system_id":"levelo_inurba_marseille","lat":43.299707,"lon":5.384859,"is_reserved":false,"is_disabled":false,"rental_uris":{"android":"levelo://app?vid=cc957c45-7377-4a73-8274-15886c830a49","ios":"levelo://app?vid=cc957c45-7377-4a73-8274-15886c830a49"},"vehicle_type_id":"4","last_reported":1703919962,"current_range_meters":30400,"station_id":"ce4bgj92rcd13ifvqbd0","pricing_plan_id":"free"},{"bike_id":"6b670900-b7c0-4680-a6ab-0f324294d0a4","system_id":"levelo_inurba_marseille","lat":43.295279,"lon":5.375048,"is_reserved":false,"is_disabled":false,"rental_uris":{"android":"levelo://app?vid=6b670900-b7c0-4680-a6ab-0f324294d0a4","ios":"levelo://app?vid=6b670900-b7c0-4680-a6ab-0f324294d0a4"},"vehicle_type_id":"4","last_reported":1703919962,"current_range_meters":28400,"station_id":"ce4bgkp2rcd13ifvqbmg","pricing_plan_id":"free"},{"bike_id":"f552fd4e-626f-422e-a10e-6a4a81d44d52","system_id":"levelo_inurba_marseille","lat":43.299717,"lon":5.384845,"is_reserved":false,"is_disabled":false,"rental_uris":{"android":"levelo://app?vid=f552fd4e-626f-422e-a10e-6a4a81d44d52","ios":"levelo://app?vid=f552fd4e-626f-422e-a10e-6a4a81d44d52"},"vehicle_type_id":"4","last_reported":1703919962,"current_range_meters":18400,"station_id":"ce4bgj92rcd13ifvqbd0","pricing_plan_id":"free"},{"bike_id":"1b2c0aaf-efdf-4c67-a924-a8329bb1ed70","system_id":"levelo_inurba_marseille","lat":43.32367,"lon":5.388836,"is_reserved":false,"is_disabled":false,"rental_uris":{"android":"levelo://app?vid=1b2c0aaf-efdf-4c67-a924-a8329bb1ed70","ios":"levelo://app?vid=1b2c0aaf-efdf-4c67-a924-a8329bb1ed70"},"vehicle_type_id":"4","last_reported":1703919962,"current_range_meters":14400,"station_id":"ce4bhqp2rcd13ifvqhog","pricing_plan_id":"free"},{"bike_id":"2e951988-3e48-4a96-abae-01175e7bae0a","system_id":"levelo_inurba_marseille","lat":43.32367,"lon":5.388836,"is_reserved":false,"is_disabled":false,"rental_uris":{"android":"levelo://app?vid=2e951988-3e48-4a96-abae-01175e7bae0a","ios":"levelo://app?vid=2e951988-3e48-4a96-abae-01175e7bae0a"},"vehicle_type_id":"4","last_reported":1703919962,"current_range_meters":30800,"station_id":"ce4bhqp2rcd13ifvqhog","pricing_plan_id":"free"},{"bike_id":"cb8f7a59-4215-40f5-bde3-405de084039e","system_id":"levelo_inurba_marseille","lat":43.32367,"lon":5.388836,"is_reserved":false,"is_disabled":false,"rental_uris":{"android":"levelo://app?vid=cb8f7a59-4215-40f5-bde3-405de084039e","ios":"levelo://app?vid=cb8f7a59-4215-40f5-bde3-405de084039e"},"vehicle_type_id":"4","last_reported":1703919962,"current_range_meters":28400,"station_id":"ce4bhqp2rcd13ifvqhog","pricing_plan_id":"free"},{"bike_id":"6ca5bdc5-35f5-4860-b49d-31a089bf3712","system_id":"levelo_inurba_marseille","lat":43.32367,"lon":5.388836,"is_reserved":false,"is_disabled":false,"rental_uris":{"android":"levelo://app?vid=6ca5bdc5-35f5-4860-b49d-31a089bf3712","ios":"levelo://app?vid=6ca5bdc5-35f5-4860-b49d-31a089bf3712"},"vehicle_type_id":"4","last_reported":1703919962,"current_range_meters":12000,"station_id":"ce4bhqp2rcd13ifvqhog","pricing_plan_id":"free"},{"bike_id":"33b45e5e-f5e8-444a-9091-df07beb8c94b","system_id":"levelo_inurba_marseille","lat":43.314171,"lon":5.393736,"is_reserved":false,"is_disabled":false,"rental_uris":{"android":"levelo://app?vid=33b45e5e-f5e8-444a-9091-df07beb8c94b","ios":"levelo://app?vid=33b45e5e-f5e8-444a-9091-df07beb8c94b"},"vehicle_type_id":"4","last_reported":1703919962,"current_range_meters":17600,"station_id":"","pricing_plan_id":"free"},{"bike_id":"cbff0f7a-221b-4371-8340-bb6af79749d8","system_id":"levelo_inurba_marseille","lat":43.314235,"lon":5.393731,"is_reserved":false,"is_disabled":false,"rental_uris":{"android":"levelo://app?vid=cbff0f7a-221b-4371-8340-bb6af79749d8","ios":"levelo://app?vid=cbff0f7a-221b-4371-8340-bb6af79749d8"},"vehicle_type_id":"4","last_reported":1703919962,"current_range_meters":4800,"station_id":"","pricing_plan_id":"free"},{"bike_id":"966fca0d-a917-4942-926c-c98ab805eda3","system_id":"levelo_inurba_marseille","lat":43.30601,"lon":5.39358,"is_reserved":false,"is_disabled":false,"rental_uris":{"android":"levelo://app?vid=966fca0d-a917-4942-926c-c98ab805eda3","ios":"levelo://app?vid=966fca0d-a917-4942-926c-c98ab805eda3"},"vehicle_type_id":"4","last_reported":1703919962,"current_range_meters":800,"station_id":"ce4bh0p2rcd13ifvqd80","pricing_plan_id":"free"},{"bike_id":"d0eaffd1-73e4-4f89-933c-8e333ab3a20d","system_id":"levelo_inurba_marseille","lat":43.298723,"lon":5.389066,"is_reserved":false,"is_disabled":false,"rental_uris":{"android":"levelo://app?vid=d0eaffd1-73e4-4f89-933c-8e333ab3a20d","ios":"levelo://app?vid=d0eaffd1-73e4-4f89-933c-8e333ab3a20d"},"vehicle_type_id":"4","last_reported":1703919962,"current_range_meters":3200,"station_id":"","pricing_plan_id":"free"},{"bike_id":"f2908424-5af1-4ec0-9316-d0239a0b5e5a","system_id":"levelo_inurba_marseille","lat":43.298652,"lon":5.389055,"is_reserved":false,"is_disabled":false,"rental_uris":{"android":"levelo://app?vid=f2908424-5af1-4ec0-9316-d0239a0b5e5a","ios":"levelo://app?vid=f2908424-5af1-4ec0-9316-d0239a0b5e5a"},"vehicle_type_id":"4","last_reported":1703919962,"current_range_meters":0,"station_id":"","pricing_plan_id":"free"},{"bike_id":"733fab0a-f62b-4947-b0d5-49ed17ae5e6b","system_id":"levelo_inurba_marseille","lat":43.29865,"lon":5.38908,"is_reserved":false,"is_disabled":false,"rental_uris":{"android":"levelo://app?vid=733fab0a-f62b-4947-b0d5-49ed17ae5e6b","ios":"levelo://app?vid=733fab0a-f62b-4947-b0d5-49ed17ae5e6b"},"vehicle_type_id":"4","last_reported":1703919962,"current_range_meters":27600,"station_id":"","pricing_plan_id":"free"},{"bike_id":"b8c95eb7-7598-4d45-9b3b-d8b902a7e7f3","system_id":"levelo_inurba_marseille","lat":43.309047,"lon":5.396551,"is_reserved":false,"is_disabled":false,"rental_uris":{"android":"levelo://app?vid=b8c95eb7-7598-4d45-9b3b-d8b902a7e7f3","ios":"levelo://app?vid=b8c95eb7-7598-4d45-9b3b-d8b902a7e7f3"},"vehicle_type_id":"4","last_reported":1703919962,"current_range_meters":30000,"station_id":"ce4bh012rcd13ifvqcv0","pricing_plan_id":"free"},{"bike_id":"6ae7aa2c-a80a-4abc-9a0f-0c24f1967e7c","system_id":"levelo_inurba_marseille","lat":43.291994,"lon":5.357886,"is_reserved":false,"is_disabled":false,"rental_uris":{"android":"levelo://app?vid=6ae7aa2c-a80a-4abc-9a0f-0c24f1967e7c","ios":"levelo://app?vid=6ae7aa2c-a80a-4abc-9a0f-0c24f1967e7c"},"vehicle_type_id":"4","last_reported":1703919962,"current_range_meters":16800,"station_id":"ce4bhb12rcd13ifvqel0","pricing_plan_id":"free"},{"bike_id":"c10267ba-1f58-444f-bbce-79fcd0e0cc31","system_id":"levelo_inurba_marseille","lat":43.291994,"lon":5.357886,"is_reserved":false,"is_disabled":false,"rental_uris":{"android":"levelo://app?vid=c10267ba-1f58-444f-bbce-79fcd0e0cc31","ios":"levelo://app?vid=c10267ba-1f58-444f-bbce-79fcd0e0cc31"},"vehicle_type_id":"4","last_reported":1703919962,"current_range_meters":30400,"station_id":"ce4bhb12rcd13ifvqel0","pricing_plan_id":"free"},{"bike_id":"90d0418f-c6a4-4336-9cc5-ad020024e65b","system_id":"levelo_inurba_marseille","lat":43.291994,"lon":5.357886,"is_reserved":false,"is_disabled":false,"rental_uris":{"android":"levelo://app?vid=90d0418f-c6a4-4336-9cc5-ad020024e65b","ios":"levelo://app?vid=90d0418f-c6a4-4336-9cc5-ad020024e65b"},"vehicle_type_id":"4","last_reported":1703919962,"current_range_meters":20000,"station_id":"ce4bhb12rcd13ifvqel0","pricing_plan_id":"free"},{"bike_id":"72aba422-e39e-448d-b5fe-ba6756b3e68c","system_id":"levelo_inurba_marseille","lat":43.313291,"lon":5.396838,"is_reserved":false,"is_disabled":false,"rental_uris":{"android":"levelo://app?vid=72aba422-e39e-448d-b5fe-ba6756b3e68c","ios":"levelo://app?vid=72aba422-e39e-448d-b5fe-ba6756b3e68c"},"vehicle_type_id":"4","last_reported":1703919962,"current_range_meters":28400,"station_id":"ce4bgvp2rcd13ifvqcu0","pricing_plan_id":"free"},{"bike_id":"bf682b56-41c4-40a8-89a7-631ea025d47f","system_id":"levelo_inurba_marseille","lat":43.290631,"lon":5.359244,"is_reserved":false,"is_disabled":false,"rental_uris":{"android":"levelo://app?vid=bf682b56-41c4-40a8-89a7-631ea025d47f","ios":"levelo://app?vid=bf682b56-41c4-40a8-89a7-631ea025d47f"},"vehicle_type_id":"4","last_reported":1703919962,"current_range_meters":30800,"station_id":"ce4bha92rcd13ifvqeg0","pricing_plan_id":"free"},{"bike_id":"9ee68ea5-7e90-4e8c-ac35-45624e9d8b0d","system_id":"levelo_inurba_marseille","lat":43.290631,"lon":5.359244,"is_reserved":false,"is_disabled":false,"rental_uris":{"android":"levelo://app?vid=9ee68ea5-7e90-4e8c-ac35-45624e9d8b0d","ios":"levelo://app?vid=9ee68ea5-7e90-4e8c-ac35-45624e9d8b0d"},"vehicle_type_id":"4","last_reported":1703919962,"current_range_meters":31600,"station_id":"ce4bha92rcd13ifvqeg0","pricing_plan_id":"free"},{"bike_id":"63e5e591-5394-4763-8a5a-673a841ba624","system_id":"levelo_inurba_marseille","lat":43.290631,"lon":5.359244,"is_reserved":false,"is_disabled":false,"rental_uris":{"android":"levelo://app?vid=63e5e591-5394-4763-8a5a-673a841ba624","ios":"levelo://app?vid=63e5e591-5394-4763-8a5a-673a841ba624"},"vehicle_type_id":"4","last_reported":1703919962,"current_range_meters":18000,"station_id":"ce4bha92rcd13ifvqeg0","pricing_plan_id":"free"},{"bike_id":"6103dda0-3b79-46ef-ba28-9879638278b9","system_id":"levelo_inurba_marseille","lat":43.290631,"lon":5.359244,"is_reserved":false,"is_disabled":false,"rental_uris":{"android":"levelo://app?vid=6103dda0-3b79-46ef-ba28-9879638278b9","ios":"levelo://app?vid=6103dda0-3b79-46ef-ba28-9879638278b9"},"vehicle_type_id":"4","last_reported":1703919962,"current_range_meters":31600,"station_id":"ce4bha92rcd13ifvqeg0","pricing_plan_id":"free"},{"bike_id":"41d77940-3193-42ac-9b3c-f1ab89aacb17","system_id":"levelo_inurba_marseille","lat":43.290327,"lon":5.375711,"is_reserved":false,"is_disabled":false,"rental_uris":{"android":"levelo://app?vid=41d77940-3193-42ac-9b3c-f1ab89aacb17","ios":"levelo://app?vid=41d77940-3193-42ac-9b3c-f1ab89aacb17"},"vehicle_type_id":"4","last_reported":1703919962,"current_range_meters":28400,"station_id":"ce4bh692rcd13ifvqe90","pricing_plan_id":"free"},{"bike_id":"3a76420a-f8de-4902-82de-0e3cca142cd4","system_id":"levelo_inurba_marseille","lat":43.294153,"lon":5.386305,"is_reserved":false,"is_disabled":false,"rental_uris":{"android":"levelo://app?vid=3a76420a-f8de-4902-82de-0e3cca142cd4","ios":"levelo://app?vid=3a76420a-f8de-4902-82de-0e3cca142cd4"},"vehicle_type_id":"4","last_reported":1703919962,"current_range_meters":24800,"station_id":"ce4bh2h2rcd13ifvqdh0","pricing_plan_id":"free"},{"bike_id":"22abec97-f5f9-4446-bed8-d42b0e83197f","system_id":"levelo_inurba_marseille","lat":43.289184,"lon":5.366408,"is_reserved":false,"is_disabled":false,"rental_uris":{"android":"levelo://app?vid=22abec97-f5f9-4446-bed8-d42b0e83197f","ios":"levelo://app?vid=22abec97-f5f9-4446-bed8-d42b0e83197f"},"vehicle_type_id":"4","last_reported":1703919962,"current_range_meters":18400,"station_id":"ce4bhap2rcd13ifvqek0","pricing_plan_id":"free"},{"bike_id":"4bf64998-247a-439b-a072-cd1047c41911","system_id":"levelo_inurba_marseille","lat":43.289184,"lon":5.366408,"is_reserved":false,"is_disabled":false,"rental_uris":{"android":"levelo://app?vid=4bf64998-247a-439b-a072-cd1047c41911","ios":"levelo://app?vid=4bf64998-247a-439b-a072-cd1047c41911"},"vehicle_type_id":"4","last_reported":1703919962,"current_range_meters":4400,"station_id":"ce4bhap2rcd13ifvqek0","pricing_plan_id":"free"},{"bike_id":"8a700de3-b5f7-4bb1-a46c-dd2fa26e3cd7","system_id":"levelo_inurba_marseille","lat":43.289184,"lon":5.366408,"is_reserved":false,"is_disabled":false,"rental_uris":{"android":"levelo://app?vid=8a700de3-b5f7-4bb1-a46c-dd2fa26e3cd7","ios":"levelo://app?vid=8a700de3-b5f7-4bb1-a46c-dd2fa26e3cd7"},"vehicle_type_id":"4","last_reported":1703919962,"current_range_meters":31200,"station_id":"ce4bhap2rcd13ifvqek0","pricing_plan_id":"free"},{"bike_id":"f8968af4-e4ec-4b1e-842e-ecd05f00be5b","system_id":"levelo_inurba_marseille","lat":43.289184,"lon":5.366408,"is_reserved":false,"is_disabled":false,"rental_uris":{"android":"levelo://app?vid=f8968af4-e4ec-4b1e-842e-ecd05f00be5b","ios":"levelo://app?vid=f8968af4-e4ec-4b1e-842e-ecd05f00be5b"},"vehicle_type_id":"4","last_reported":1703919962,"current_range_meters":22400,"station_id":"ce4bhap2rcd13ifvqek0","pricing_plan_id":"free"},{"bike_id":"d1445d02-a5e3-41d4-b41e-8f9f9ef50028","system_id":"levelo_inurba_marseille","lat":43.304274,"lon":5.397513,"is_reserved":false,"is_disabled":false,"rental_uris":{"android":"levelo://app?vid=d1445d02-a5e3-41d4-b41e-8f9f9ef50028","ios":"levelo://app?vid=d1445d02-a5e3-41d4-b41e-8f9f9ef50028"},"vehicle_type_id":"4","last_reported":1703919962,"current_range_meters":14800,"station_id":"ce4bh092rcd13ifvqd20","pricing_plan_id":"free"},{"bike_id":"36aa9636-4863-413d-8598-d7351a274134","system_id":"levelo_inurba_marseille","lat":43.304296,"lon":5.397513,"is_reserved":false,"is_disabled":false,"rental_uris":{"android":"levelo://app?vid=36aa9636-4863-413d-8598-d7351a274134","ios":"levelo://app?vid=36aa9636-4863-413d-8598-d7351a274134"},"vehicle_type_id":"4","last_reported":1703919962,"current_range_meters":27600,"station_id":"ce4bh092rcd13ifvqd20","pricing_plan_id":"free"},{"bike_id":"d134cf0e-509a-4c1d-b636-7c6a249f048f","system_id":"levelo_inurba_marseille","lat":43.290103,"lon":5.356114,"is_reserved":false,"is_disabled":false,"rental_uris":{"android":"levelo://app?vid=d134cf0e-509a-4c1d-b636-7c6a249f048f","ios":"levelo://app?vid=d134cf0e-509a-4c1d-b636-7c6a249f048f"},"vehicle_type_id":"4","last_reported":1703919962,"current_range_meters":25600,"station_id":"ce4bhb92rcd13ifvqen0","pricing_plan_id":"free"},{"bike_id":"454922c9-2321-4096-b4e3-723557205dca","system_id":"levelo_inurba_marseille","lat":43.29792,"lon":5.39349,"is_reserved":false,"is_disabled":false,"rental_uris":{"android":"levelo://app?vid=454922c9-2321-4096-b4e3-723557205dca","ios":"levelo://app?vid=454922c9-2321-4096-b4e3-723557205dca"},"vehicle_type_id":"4","last_reported":1703919962,"current_range_meters":27200,"station_id":"chh1huq6cuj3fo74tm60","pricing_plan_id":"free"},{"bike_id":"f9371628-c6c3-42f4-bbd8-b7a5274fd4c0","system_id":"levelo_inurba_marseille","lat":43.289741,"lon":5.378306,"is_reserved":false,"is_disabled":false,"rental_uris":{"android":"levelo://app?vid=f9371628-c6c3-42f4-bbd8-b7a5274fd4c0","ios":"levelo://app?vid=f9371628-c6c3-42f4-bbd8-b7a5274fd4c0"},"vehicle_type_id":"4","last_reported":1703919962,"current_range_meters":29200,"station_id":"ce4bh9p2rcd13ifvqed0","pricing_plan_id":"free"},{"bike_id":"495faf64-a935-4c6e-b77f-2b296d14493a","system_id":"levelo_inurba_marseille","lat":43.331017,"lon":5.389194,"is_reserved":false,"is_disabled":false,"rental_uris":{"android":"levelo://app?vid=495faf64-a935-4c6e-b77f-2b296d14493a","ios":"levelo://app?vid=495faf64-a935-4c6e-b77f-2b296d14493a"},"vehicle_type_id":"4","last_reported":1703919962,"current_range_meters":4000,"station_id":"","pricing_plan_id":"free"},{"bike_id":"465d4590-c538-4614-8282-69415d3565df","system_id":"levelo_inurba_marseille","lat":43.295169,"lon":5.390426,"is_reserved":false,"is_disabled":false,"rental_uris":{"android":"levelo://app?vid=465d4590-c538-4614-8282-69415d3565df","ios":"levelo://app?vid=465d4590-c538-4614-8282-69415d3565df"},"vehicle_type_id":"4","last_reported":1703919962,"current_range_meters":27600,"station_id":"ce4bh3p2rcd13ifvqdp0","pricing_plan_id":"free"},{"bike_id":"b0952bfb-fbd6-4750-a4c2-1e62aff7273e","system_id":"levelo_inurba_marseille","lat":43.2901,"lon":5.381269,"is_reserved":false,"is_disabled":false,"rental_uris":{"android":"levelo://app?vid=b0952bfb-fbd6-4750-a4c2-1e62aff7273e","ios":"levelo://app?vid=b0952bfb-fbd6-4750-a4c2-1e62aff7273e"},"vehicle_type_id":"4","last_reported":1703919962,"current_range_meters":30000,"station_id":"ce4bh4p2rcd13ifvqe1g","pricing_plan_id":"free"},{"bike_id":"1e4030f4-3197-4e40-b0b9-952f7fc3b91b","system_id":"levelo_inurba_marseille","lat":43.319403,"lon":5.400159,"is_reserved":false,"is_disabled":false,"rental_uris":{"android":"levelo://app?vid=1e4030f4-3197-4e40-b0b9-952f7fc3b91b","ios":"levelo://app?vid=1e4030f4-3197-4e40-b0b9-952f7fc3b91b"},"vehicle_type_id":"4","last_reported":1703919962,"current_range_meters":6000,"station_id":"","pricing_plan_id":"free"},{"bike_id":"e83f706e-0781-4223-8172-3bf6a2e5cf3a","system_id":"levelo_inurba_marseille","lat":43.312609,"lon":5.401662,"is_reserved":false,"is_disabled":false,"rental_uris":{"android":"levelo://app?vid=e83f706e-0781-4223-8172-3bf6a2e5cf3a","ios":"levelo://app?vid=e83f706e-0781-4223-8172-3bf6a2e5cf3a"},"vehicle_type_id":"4","last_reported":1703919962,"current_range_meters":4400,"station_id":"ce4bh092rcd13ifvqd30","pricing_plan_id":"free"},{"bike_id":"6dcd66d6-b4ae-4a24-bec0-a2d36a66c2b2","system_id":"levelo_inurba_marseille","lat":43.309371,"lon":5.401449,"is_reserved":false,"is_disabled":false,"rental_uris":{"android":"levelo://app?vid=6dcd66d6-b4ae-4a24-bec0-a2d36a66c2b2","ios":"levelo://app?vid=6dcd66d6-b4ae-4a24-bec0-a2d36a66c2b2"},"vehicle_type_id":"4","last_reported":1703919962,"current_range_meters":18000,"station_id":"ce4bgvp2rcd13ifvqct0","pricing_plan_id":"free"},{"bike_id":"1cd5fdc2-6e16-4622-b9ec-26122935b04a","system_id":"levelo_inurba_marseille","lat":43.30931,"lon":5.4014,"is_reserved":false,"is_disabled":false,"rental_uris":{"android":"levelo://app?vid=1cd5fdc2-6e16-4622-b9ec-26122935b04a","ios":"levelo://app?vid=1cd5fdc2-6e16-4622-b9ec-26122935b04a"},"vehicle_type_id":"4","last_reported":1703919962,"current_range_meters":13600,"station_id":"ce4bgvp2rcd13ifvqct0","pricing_plan_id":"free"},{"bike_id":"d29f7a6c-6eff-46b1-9d51-bbf08faabfa1","system_id":"levelo_inurba_marseille","lat":43.337477,"lon":5.374431,"is_reserved":false,"is_disabled":false,"rental_uris":{"android":"levelo://app?vid=d29f7a6c-6eff-46b1-9d51-bbf08faabfa1","ios":"levelo://app?vid=d29f7a6c-6eff-46b1-9d51-bbf08faabfa1"},"vehicle_type_id":"4","last_reported":1703919962,"current_range_meters":800,"station_id":"","pricing_plan_id":"free"},{"bike_id":"2431a167-f608-4e5b-868a-80c7c2d71b36","system_id":"levelo_inurba_marseille","lat":43.309335,"lon":5.401459,"is_reserved":false,"is_disabled":false,"rental_uris":{"android":"levelo://app?vid=2431a167-f608-4e5b-868a-80c7c2d71b36","ios":"levelo://app?vid=2431a167-f608-4e5b-868a-80c7c2d71b36"},"vehicle_type_id":"4","last_reported":1703919962,"current_range_meters":6800,"station_id":"ce4bgvp2rcd13ifvqct0","pricing_plan_id":"free"},{"bike_id":"97b2cd39-0c72-45a0-8bc8-0a97f9207601","system_id":"levelo_inurba_marseille","lat":43.306412,"lon":5.401035,"is_reserved":false,"is_disabled":false,"rental_uris":{"android":"levelo://app?vid=97b2cd39-0c72-45a0-8bc8-0a97f9207601","ios":"levelo://app?vid=97b2cd39-0c72-45a0-8bc8-0a97f9207601"},"vehicle_type_id":"4","last_reported":1703919962,"current_range_meters":14800,"station_id":"ce4bh112rcd13ifvqda0","pricing_plan_id":"free"},{"bike_id":"78008f0a-0757-4ec7-869a-cdd392e37ce6","system_id":"levelo_inurba_marseille","lat":43.301117,"lon":5.398795,"is_reserved":false,"is_disabled":false,"rental_uris":{"android":"levelo://app?vid=78008f0a-0757-4ec7-869a-cdd392e37ce6","ios":"levelo://app?vid=78008f0a-0757-4ec7-869a-cdd392e37ce6"},"vehicle_type_id":"4","last_reported":1703919962,"current_range_meters":18000,"station_id":"ce4bh0h2rcd13ifvqd40","pricing_plan_id":"free"},{"bike_id":"1fb32a18-6b7f-4367-8b0c-2ec2e93d9056","system_id":"levelo_inurba_marseille","lat":43.301117,"lon":5.398795,"is_reserved":false,"is_disabled":false,"rental_uris":{"android":"levelo://app?vid=1fb32a18-6b7f-4367-8b0c-2ec2e93d9056","ios":"levelo://app?vid=1fb32a18-6b7f-4367-8b0c-2ec2e93d9056"},"vehicle_type_id":"4","last_reported":1703919962,"current_range_meters":31600,"station_id":"ce4bh0h2rcd13ifvqd40","pricing_plan_id":"free"},{"bike_id":"4e5248ae-7313-4898-880d-37906b976e1c","system_id":"levelo_inurba_marseille","lat":43.286961,"lon":5.373785,"is_reserved":false,"is_disabled":false,"rental_uris":{"android":"levelo://app?vid=4e5248ae-7313-4898-880d-37906b976e1c","ios":"levelo://app?vid=4e5248ae-7313-4898-880d-37906b976e1c"},"vehicle_type_id":"4","last_reported":1703919962,"current_range_meters":30000,"station_id":"ce4bh3p2rcd13ifvqdq0","pricing_plan_id":"free"},{"bike_id":"c44f3962-5ae0-465a-99cb-463e5ec26e15","system_id":"levelo_inurba_marseille","lat":43.286961,"lon":5.373785,"is_reserved":false,"is_disabled":false,"rental_uris":{"android":"levelo://app?vid=c44f3962-5ae0-465a-99cb-463e5ec26e15","ios":"levelo://app?vid=c44f3962-5ae0-465a-99cb-463e5ec26e15"},"vehicle_type_id":"4","last_reported":1703919962,"current_range_meters":28800,"station_id":"ce4bh3p2rcd13ifvqdq0","pricing_plan_id":"free"},{"bike_id":"ba6d0034-9d3d-4105-85d2-f91f13b0f603","system_id":"levelo_inurba_marseille","lat":43.286961,"lon":5.373785,"is_reserved":false,"is_disabled":false,"rental_uris":{"android":"levelo://app?vid=ba6d0034-9d3d-4105-85d2-f91f13b0f603","ios":"levelo://app?vid=ba6d0034-9d3d-4105-85d2-f91f13b0f603"},"vehicle_type_id":"4","last_reported":1703919962,"current_range_meters":25600,"station_id":"ce4bh3p2rcd13ifvqdq0","pricing_plan_id":"free"},{"bike_id":"8117e386-0a31-4c6a-9409-88607ca614e7","system_id":"levelo_inurba_marseille","lat":43.286591,"lon":5.363346,"is_reserved":false,"is_disabled":false,"rental_uris":{"android":"levelo://app?vid=8117e386-0a31-4c6a-9409-88607ca614e7","ios":"levelo://app?vid=8117e386-0a31-4c6a-9409-88607ca614e7"},"vehicle_type_id":"4","last_reported":1703919962,"current_range_meters":28000,"station_id":"ce4bhah2rcd13ifvqej0","pricing_plan_id":"free"},{"bike_id":"b181c940-592d-4916-b10f-a127b6d3ff3d","system_id":"levelo_inurba_marseille","lat":43.286591,"lon":5.363346,"is_reserved":false,"is_disabled":false,"rental_uris":{"android":"levelo://app?vid=b181c940-592d-4916-b10f-a127b6d3ff3d","ios":"levelo://app?vid=b181c940-592d-4916-b10f-a127b6d3ff3d"},"vehicle_type_id":"4","last_reported":1703919962,"current_range_meters":31200,"station_id":"ce4bhah2rcd13ifvqej0","pricing_plan_id":"free"},{"bike_id":"db605f6a-05ac-44b0-af6f-6c29ac6502f8","system_id":"levelo_inurba_marseille","lat":43.286591,"lon":5.363346,"is_reserved":false,"is_disabled":false,"rental_uris":{"android":"levelo://app?vid=db605f6a-05ac-44b0-af6f-6c29ac6502f8","ios":"levelo://app?vid=db605f6a-05ac-44b0-af6f-6c29ac6502f8"},"vehicle_type_id":"4","last_reported":1703919962,"current_range_meters":29200,"station_id":"ce4bhah2rcd13ifvqej0","pricing_plan_id":"free"},{"bike_id":"49a7407c-df64-4c85-af70-2a0c5165dff7","system_id":"levelo_inurba_marseille","lat":43.295194,"lon":5.39397,"is_reserved":false,"is_disabled":false,"rental_uris":{"android":"levelo://app?vid=49a7407c-df64-4c85-af70-2a0c5165dff7","ios":"levelo://app?vid=49a7407c-df64-4c85-af70-2a0c5165dff7"},"vehicle_type_id":"4","last_reported":1703919962,"current_range_meters":14800,"station_id":"ce4bh292rcd13ifvqdf0","pricing_plan_id":"free"},{"bike_id":"99be7caf-de18-4a78-97b3-8bd98b34af81","system_id":"levelo_inurba_marseille","lat":43.290345,"lon":5.38646,"is_reserved":false,"is_disabled":false,"rental_uris":{"android":"levelo://app?vid=99be7caf-de18-4a78-97b3-8bd98b34af81","ios":"levelo://app?vid=99be7caf-de18-4a78-97b3-8bd98b34af81"},"vehicle_type_id":"4","last_reported":1703919962,"current_range_meters":18000,"station_id":"ce4bh4p2rcd13ifvqe0g","pricing_plan_id":"free"},{"bike_id":"5895b403-34ca-4328-844f-701877478519","system_id":"levelo_inurba_marseille","lat":43.286039,"lon":5.370679,"is_reserved":false,"is_disabled":false,"rental_uris":{"android":"levelo://app?vid=5895b403-34ca-4328-844f-701877478519","ios":"levelo://app?vid=5895b403-34ca-4328-844f-701877478519"},"vehicle_type_id":"4","last_reported":1703919962,"current_range_meters":30400,"station_id":"ce4bht12rcd13ifvqi60","pricing_plan_id":"free"},{"bike_id":"59248968-dfec-4e7a-befd-ae68b54eb182","system_id":"levelo_inurba_marseille","lat":43.286039,"lon":5.370681,"is_reserved":false,"is_disabled":false,"rental_uris":{"android":"levelo://app?vid=59248968-dfec-4e7a-befd-ae68b54eb182","ios":"levelo://app?vid=59248968-dfec-4e7a-befd-ae68b54eb182"},"vehicle_type_id":"4","last_reported":1703919962,"current_range_meters":10800,"station_id":"ce4bht12rcd13ifvqi60","pricing_plan_id":"free"},{"bike_id":"e6626976-f95d-497c-a349-7f5dffafccd1","system_id":"levelo_inurba_marseille","lat":43.287184,"lon":5.37937,"is_reserved":false,"is_disabled":false,"rental_uris":{"android":"levelo://app?vid=e6626976-f95d-497c-a349-7f5dffafccd1","ios":"levelo://app?vid=e6626976-f95d-497c-a349-7f5dffafccd1"},"vehicle_type_id":"4","last_reported":1703919962,"current_range_meters":30400,"station_id":"ce4bh9p2rcd13ifvqec0","pricing_plan_id":"free"},{"bike_id":"aac00441-5e5c-4474-92e6-e699a3867bae","system_id":"levelo_inurba_marseille","lat":43.285831,"lon":5.360173,"is_reserved":false,"is_disabled":false,"rental_uris":{"android":"levelo://app?vid=aac00441-5e5c-4474-92e6-e699a3867bae","ios":"levelo://app?vid=aac00441-5e5c-4474-92e6-e699a3867bae"},"vehicle_type_id":"4","last_reported":1703919962,"current_range_meters":24000,"station_id":"","pricing_plan_id":"free"},{"bike_id":"b568fddb-5c59-4b99-8a03-b2d9cc9f0a9c","system_id":"levelo_inurba_marseille","lat":43.284534,"lon":5.358662,"is_reserved":false,"is_disabled":false,"rental_uris":{"android":"levelo://app?vid=b568fddb-5c59-4b99-8a03-b2d9cc9f0a9c","ios":"levelo://app?vid=b568fddb-5c59-4b99-8a03-b2d9cc9f0a9c"},"vehicle_type_id":"4","last_reported":1703919962,"current_range_meters":24000,"station_id":"ce4bhah2rcd13ifvqei0","pricing_plan_id":"free"},{"bike_id":"678227f5-e89e-4c64-bf95-472384ac65ad","system_id":"levelo_inurba_marseille","lat":43.284538,"lon":5.358657,"is_reserved":false,"is_disabled":false,"rental_uris":{"android":"levelo://app?vid=678227f5-e89e-4c64-bf95-472384ac65ad","ios":"levelo://app?vid=678227f5-e89e-4c64-bf95-472384ac65ad"},"vehicle_type_id":"4","last_reported":1703919962,"current_range_meters":31200,"station_id":"ce4bhah2rcd13ifvqei0","pricing_plan_id":"free"},{"bike_id":"29811fa5-eaa7-489f-89a7-34be8eacb3bc","system_id":"levelo_inurba_marseille","lat":43.284534,"lon":5.358662,"is_reserved":false,"is_disabled":false,"rental_uris":{"android":"levelo://app?vid=29811fa5-eaa7-489f-89a7-34be8eacb3bc","ios":"levelo://app?vid=29811fa5-eaa7-489f-89a7-34be8eacb3bc"},"vehicle_type_id":"4","last_reported":1703919962,"current_range_meters":21600,"station_id":"ce4bhah2rcd13ifvqei0","pricing_plan_id":"free"},{"bike_id":"e503fd9f-e092-4266-beb7-6a9c4cce5327","system_id":"levelo_inurba_marseille","lat":43.284538,"lon":5.358657,"is_reserved":false,"is_disabled":false,"rental_uris":{"android":"levelo://app?vid=e503fd9f-e092-4266-beb7-6a9c4cce5327","ios":"levelo://app?vid=e503fd9f-e092-4266-beb7-6a9c4cce5327"},"vehicle_type_id":"4","last_reported":1703919962,"current_range_meters":31200,"station_id":"ce4bhah2rcd13ifvqei0","pricing_plan_id":"free"},{"bike_id":"9e19dba8-337e-43bc-b54c-a65103167539","system_id":"levelo_inurba_marseille","lat":43.28612,"lon":5.35102,"is_reserved":false,"is_disabled":false,"rental_uris":{"android":"levelo://app?vid=9e19dba8-337e-43bc-b54c-a65103167539","ios":"levelo://app?vid=9e19dba8-337e-43bc-b54c-a65103167539"},"vehicle_type_id":"4","last_reported":1703919962,"current_range_meters":12800,"station_id":"","pricing_plan_id":"free"},{"bike_id":"5bd9ed5c-d3fb-4a4e-802f-da8e57dc7ed4","system_id":"levelo_inurba_marseille","lat":43.283998,"lon":5.375062,"is_reserved":false,"is_disabled":false,"rental_uris":{"android":"levelo://app?vid=5bd9ed5c-d3fb-4a4e-802f-da8e57dc7ed4","ios":"levelo://app?vid=5bd9ed5c-d3fb-4a4e-802f-da8e57dc7ed4"},"vehicle_type_id":"4","last_reported":1703919962,"current_range_meters":30400,"station_id":"ce4bh412rcd13ifvqds0","pricing_plan_id":"free"},{"bike_id":"2e82c994-2ec9-46ae-974a-c8964637f864","system_id":"levelo_inurba_marseille","lat":43.283998,"lon":5.375062,"is_reserved":false,"is_disabled":false,"rental_uris":{"android":"levelo://app?vid=2e82c994-2ec9-46ae-974a-c8964637f864","ios":"levelo://app?vid=2e82c994-2ec9-46ae-974a-c8964637f864"},"vehicle_type_id":"4","last_reported":1703919962,"current_range_meters":22800,"station_id":"ce4bh412rcd13ifvqds0","pricing_plan_id":"free"},{"bike_id":"292d57f4-5847-4a38-b02a-09f7a05b4157","system_id":"levelo_inurba_marseille","lat":43.283998,"lon":5.375062,"is_reserved":false,"is_disabled":false,"rental_uris":{"android":"levelo://app?vid=292d57f4-5847-4a38-b02a-09f7a05b4157","ios":"levelo://app?vid=292d57f4-5847-4a38-b02a-09f7a05b4157"},"vehicle_type_id":"4","last_reported":1703919962,"current_range_meters":11600,"station_id":"ce4bh412rcd13ifvqds0","pricing_plan_id":"free"},{"bike_id":"a6ff6d3b-68c7-40ed-b60f-6846a4db124d","system_id":"levelo_inurba_marseille","lat":43.283998,"lon":5.375062,"is_reserved":false,"is_disabled":false,"rental_uris":{"android":"levelo://app?vid=a6ff6d3b-68c7-40ed-b60f-6846a4db124d","ios":"levelo://app?vid=a6ff6d3b-68c7-40ed-b60f-6846a4db124d"},"vehicle_type_id":"4","last_reported":1703919962,"current_range_meters":20800,"station_id":"ce4bh412rcd13ifvqds0","pricing_plan_id":"free"},{"bike_id":"f0d1ce46-faf5-486f-835d-5abe66ae0de5","system_id":"levelo_inurba_marseille","lat":43.283998,"lon":5.375062,"is_reserved":false,"is_disabled":false,"rental_uris":{"android":"levelo://app?vid=f0d1ce46-faf5-486f-835d-5abe66ae0de5","ios":"levelo://app?vid=f0d1ce46-faf5-486f-835d-5abe66ae0de5"},"vehicle_type_id":"4","last_reported":1703919962,"current_range_meters":15600,"station_id":"ce4bh412rcd13ifvqds0","pricing_plan_id":"free"},{"bike_id":"826ee3ee-e6f5-40b4-ae31-5f48d6237c3e","system_id":"levelo_inurba_marseille","lat":43.283998,"lon":5.375062,"is_reserved":false,"is_disabled":false,"rental_uris":{"android":"levelo://app?vid=826ee3ee-e6f5-40b4-ae31-5f48d6237c3e","ios":"levelo://app?vid=826ee3ee-e6f5-40b4-ae31-5f48d6237c3e"},"vehicle_type_id":"4","last_reported":1703919962,"current_range_meters":31200,"station_id":"ce4bh412rcd13ifvqds0","pricing_plan_id":"free"},{"bike_id":"fbfb8c05-5ed4-463e-b775-b689b2ac1d1b","system_id":"levelo_inurba_marseille","lat":43.283998,"lon":5.375062,"is_reserved":false,"is_disabled":false,"rental_uris":{"android":"levelo://app?vid=fbfb8c05-5ed4-463e-b775-b689b2ac1d1b","ios":"levelo://app?vid=fbfb8c05-5ed4-463e-b775-b689b2ac1d1b"},"vehicle_type_id":"4","last_reported":1703919962,"current_range_meters":8000,"station_id":"ce4bh412rcd13ifvqds0","pricing_plan_id":"free"},{"bike_id":"c9b28026-cbe1-48ee-b4a0-56e4d1c42459","system_id":"levelo_inurba_marseille","lat":43.283998,"lon":5.375062,"is_reserved":false,"is_disabled":false,"rental_uris":{"android":"levelo://app?vid=c9b28026-cbe1-48ee-b4a0-56e4d1c42459","ios":"levelo://app?vid=c9b28026-cbe1-48ee-b4a0-56e4d1c42459"},"vehicle_type_id":"4","last_reported":1703919962,"current_range_meters":28400,"station_id":"ce4bh412rcd13ifvqds0","pricing_plan_id":"free"},{"bike_id":"45af58a8-4f2b-400c-b2bf-120944409eb4","system_id":"levelo_inurba_marseille","lat":43.283998,"lon":5.375062,"is_reserved":false,"is_disabled":false,"rental_uris":{"android":"levelo://app?vid=45af58a8-4f2b-400c-b2bf-120944409eb4","ios":"levelo://app?vid=45af58a8-4f2b-400c-b2bf-120944409eb4"},"vehicle_type_id":"4","last_reported":1703919962,"current_range_meters":26000,"station_id":"ce4bh412rcd13ifvqds0","pricing_plan_id":"free"},{"bike_id":"d74a3e47-788e-44a3-a4cc-77d545cb7425","system_id":"levelo_inurba_marseille","lat":43.286595,"lon":5.386795,"is_reserved":false,"is_disabled":false,"rental_uris":{"android":"levelo://app?vid=d74a3e47-788e-44a3-a4cc-77d545cb7425","ios":"levelo://app?vid=d74a3e47-788e-44a3-a4cc-77d545cb7425"},"vehicle_type_id":"4","last_reported":1703919962,"current_range_meters":27600,"station_id":"ce4bh492rcd13ifvqdug","pricing_plan_id":"free"},{"bike_id":"4ad566ac-35d2-45f1-93b8-aa3abd61c433","system_id":"levelo_inurba_marseille","lat":43.30104,"lon":5.40477,"is_reserved":false,"is_disabled":false,"rental_uris":{"android":"levelo://app?vid=4ad566ac-35d2-45f1-93b8-aa3abd61c433","ios":"levelo://app?vid=4ad566ac-35d2-45f1-93b8-aa3abd61c433"},"vehicle_type_id":"4","last_reported":1703919962,"current_range_meters":2400,"station_id":"","pricing_plan_id":"free"},{"bike_id":"5ab02490-e261-4253-8592-c671a48aeaae","system_id":"levelo_inurba_marseille","lat":43.319179,"lon":5.407725,"is_reserved":false,"is_disabled":false,"rental_uris":{"android":"levelo://app?vid=5ab02490-e261-4253-8592-c671a48aeaae","ios":"levelo://app?vid=5ab02490-e261-4253-8592-c671a48aeaae"},"vehicle_type_id":"4","last_reported":1703919962,"current_range_meters":14400,"station_id":"ce4bhq12rcd13ifvqhig","pricing_plan_id":"free"},{"bike_id":"420ad11d-47e4-42b6-9c2b-35a3bdfdcbdf","system_id":"levelo_inurba_marseille","lat":43.323464,"lon":5.406297,"is_reserved":false,"is_disabled":false,"rental_uris":{"android":"levelo://app?vid=420ad11d-47e4-42b6-9c2b-35a3bdfdcbdf","ios":"levelo://app?vid=420ad11d-47e4-42b6-9c2b-35a3bdfdcbdf"},"vehicle_type_id":"4","last_reported":1703919962,"current_range_meters":30400,"station_id":"ce4bhq92rcd13ifvqhjg","pricing_plan_id":"free"},{"bike_id":"c7bdc9f5-a856-4f00-85f4-b12a0e7e40a9","system_id":"levelo_inurba_marseille","lat":43.323464,"lon":5.406297,"is_reserved":false,"is_disabled":false,"rental_uris":{"android":"levelo://app?vid=c7bdc9f5-a856-4f00-85f4-b12a0e7e40a9","ios":"levelo://app?vid=c7bdc9f5-a856-4f00-85f4-b12a0e7e40a9"},"vehicle_type_id":"4","last_reported":1703919962,"current_range_meters":30400,"station_id":"ce4bhq92rcd13ifvqhjg","pricing_plan_id":"free"},{"bike_id":"7fda07af-0880-4e03-99ed-d7131f0690fa","system_id":"levelo_inurba_marseille","lat":43.33728,"lon":5.39189,"is_reserved":false,"is_disabled":false,"rental_uris":{"android":"levelo://app?vid=7fda07af-0880-4e03-99ed-d7131f0690fa","ios":"levelo://app?vid=7fda07af-0880-4e03-99ed-d7131f0690fa"},"vehicle_type_id":"4","last_reported":1703919962,"current_range_meters":0,"station_id":"ce4bhr92rcd13ifvqhsg","pricing_plan_id":"free"},{"bike_id":"c9cdc97e-3b4c-49e9-9424-721a32ba6fd6","system_id":"levelo_inurba_marseille","lat":43.337168,"lon":5.391825,"is_reserved":false,"is_disabled":false,"rental_uris":{"android":"levelo://app?vid=c9cdc97e-3b4c-49e9-9424-721a32ba6fd6","ios":"levelo://app?vid=c9cdc97e-3b4c-49e9-9424-721a32ba6fd6"},"vehicle_type_id":"4","last_reported":1703919962,"current_range_meters":28400,"station_id":"ce4bhr92rcd13ifvqhsg","pricing_plan_id":"free"},{"bike_id":"155ed273-8f18-4040-8be2-100367949594","system_id":"levelo_inurba_marseille","lat":43.2886,"lon":5.39301,"is_reserved":false,"is_disabled":false,"rental_uris":{"android":"levelo://app?vid=155ed273-8f18-4040-8be2-100367949594","ios":"levelo://app?vid=155ed273-8f18-4040-8be2-100367949594"},"vehicle_type_id":"4","last_reported":1703919962,"current_range_meters":23600,"station_id":"ce4bh2p2rcd13ifvqdi0","pricing_plan_id":"free"},{"bike_id":"e469057f-6bb5-4cc6-b439-f68af4168887","system_id":"levelo_inurba_marseille","lat":43.288501,"lon":5.393087,"is_reserved":false,"is_disabled":false,"rental_uris":{"android":"levelo://app?vid=e469057f-6bb5-4cc6-b439-f68af4168887","ios":"levelo://app?vid=e469057f-6bb5-4cc6-b439-f68af4168887"},"vehicle_type_id":"4","last_reported":1703919962,"current_range_meters":8400,"station_id":"ce4bh2p2rcd13ifvqdi0","pricing_plan_id":"free"},{"bike_id":"d31c6e90-665f-4aee-aa43-dd5d1b8eea52","system_id":"levelo_inurba_marseille","lat":43.284793,"lon":5.384119,"is_reserved":false,"is_disabled":false,"rental_uris":{"android":"levelo://app?vid=d31c6e90-665f-4aee-aa43-dd5d1b8eea52","ios":"levelo://app?vid=d31c6e90-665f-4aee-aa43-dd5d1b8eea52"},"vehicle_type_id":"4","last_reported":1703919962,"current_range_meters":30000,"station_id":"ce4bh512rcd13ifvqe3g","pricing_plan_id":"free"},{"bike_id":"f23bb7ed-9693-40f8-b706-186ebc0fabf5","system_id":"levelo_inurba_marseille","lat":43.288501,"lon":5.393087,"is_reserved":false,"is_disabled":false,"rental_uris":{"android":"levelo://app?vid=f23bb7ed-9693-40f8-b706-186ebc0fabf5","ios":"levelo://app?vid=f23bb7ed-9693-40f8-b706-186ebc0fabf5"},"vehicle_type_id":"4","last_reported":1703919962,"current_range_meters":31200,"station_id":"ce4bh2p2rcd13ifvqdi0","pricing_plan_id":"free"},{"bike_id":"12abca64-024e-433b-bc59-478cb6a8d434","system_id":"levelo_inurba_marseille","lat":43.325309,"lon":5.405724,"is_reserved":false,"is_disabled":false,"rental_uris":{"android":"levelo://app?vid=12abca64-024e-433b-bc59-478cb6a8d434","ios":"levelo://app?vid=12abca64-024e-433b-bc59-478cb6a8d434"},"vehicle_type_id":"4","last_reported":1703919962,"current_range_meters":9200,"station_id":"","pricing_plan_id":"free"},{"bike_id":"2ad95a4b-214e-48fc-9c4c-dced021e229f","system_id":"levelo_inurba_marseille","lat":43.325262,"lon":5.405793,"is_reserved":false,"is_disabled":false,"rental_uris":{"android":"levelo://app?vid=2ad95a4b-214e-48fc-9c4c-dced021e229f","ios":"levelo://app?vid=2ad95a4b-214e-48fc-9c4c-dced021e229f"},"vehicle_type_id":"4","last_reported":1703919962,"current_range_meters":30400,"station_id":"","pricing_plan_id":"free"},{"bike_id":"7d5d8fbd-48c6-476f-9ae8-4b3d8682bd7f","system_id":"levelo_inurba_marseille","lat":43.288501,"lon":5.393087,"is_reserved":false,"is_disabled":false,"rental_uris":{"android":"levelo://app?vid=7d5d8fbd-48c6-476f-9ae8-4b3d8682bd7f","ios":"levelo://app?vid=7d5d8fbd-48c6-476f-9ae8-4b3d8682bd7f"},"vehicle_type_id":"4","last_reported":1703919962,"current_range_meters":12000,"station_id":"ce4bh2p2rcd13ifvqdi0","pricing_plan_id":"free"},{"bike_id":"30c28359-fe6f-4521-b6f8-124ed38a777b","system_id":"levelo_inurba_marseille","lat":43.325295,"lon":5.4058,"is_reserved":false,"is_disabled":false,"rental_uris":{"android":"levelo://app?vid=30c28359-fe6f-4521-b6f8-124ed38a777b","ios":"levelo://app?vid=30c28359-fe6f-4521-b6f8-124ed38a777b"},"vehicle_type_id":"4","last_reported":1703919962,"current_range_meters":10000,"station_id":"","pricing_plan_id":"free"},{"bike_id":"d047ca68-9078-4a93-a47a-39dbb2c50969","system_id":"levelo_inurba_marseille","lat":43.283498,"lon":5.380948,"is_reserved":false,"is_disabled":false,"rental_uris":{"android":"levelo://app?vid=d047ca68-9078-4a93-a47a-39dbb2c50969","ios":"levelo://app?vid=d047ca68-9078-4a93-a47a-39dbb2c50969"},"vehicle_type_id":"4","last_reported":1703919962,"current_range_meters":28800,"station_id":"ce4bh412rcd13ifvqdr0","pricing_plan_id":"free"},{"bike_id":"e485450b-2736-4f4c-b94b-0da5a69b88aa","system_id":"levelo_inurba_marseille","lat":43.33385,"lon":5.39822,"is_reserved":false,"is_disabled":false,"rental_uris":{"android":"levelo://app?vid=e485450b-2736-4f4c-b94b-0da5a69b88aa","ios":"levelo://app?vid=e485450b-2736-4f4c-b94b-0da5a69b88aa"},"vehicle_type_id":"4","last_reported":1703919962,"current_range_meters":8000,"station_id":"","pricing_plan_id":"free"},{"bike_id":"626f0a1b-5435-4204-99bc-312f09b853ad","system_id":"levelo_inurba_marseille","lat":43.284219,"lon":5.3497,"is_reserved":false,"is_disabled":false,"rental_uris":{"android":"levelo://app?vid=626f0a1b-5435-4204-99bc-312f09b853ad","ios":"levelo://app?vid=626f0a1b-5435-4204-99bc-312f09b853ad"},"vehicle_type_id":"4","last_reported":1703919962,"current_range_meters":31600,"station_id":"ce4bhbh2rcd13ifvqepg","pricing_plan_id":"free"},{"bike_id":"a50b46bb-4642-462a-80e6-19066ec51636","system_id":"levelo_inurba_marseille","lat":43.284219,"lon":5.3497,"is_reserved":false,"is_disabled":false,"rental_uris":{"android":"levelo://app?vid=a50b46bb-4642-462a-80e6-19066ec51636","ios":"levelo://app?vid=a50b46bb-4642-462a-80e6-19066ec51636"},"vehicle_type_id":"4","last_reported":1703919962,"current_range_meters":18800,"station_id":"ce4bhbh2rcd13ifvqepg","pricing_plan_id":"free"},{"bike_id":"e556a1bc-ad96-40a1-b149-9700182c2a82","system_id":"levelo_inurba_marseille","lat":43.282754,"lon":5.350519,"is_reserved":false,"is_disabled":false,"rental_uris":{"android":"levelo://app?vid=e556a1bc-ad96-40a1-b149-9700182c2a82","ios":"levelo://app?vid=e556a1bc-ad96-40a1-b149-9700182c2a82"},"vehicle_type_id":"4","last_reported":1703919962,"current_range_meters":27600,"station_id":"ce4bhbp2rcd13ifvqerg","pricing_plan_id":"free"},{"bike_id":"afd82280-54b9-4754-9c64-9b6ef9e0bb3e","system_id":"levelo_inurba_marseille","lat":43.282744,"lon":5.350533,"is_reserved":false,"is_disabled":false,"rental_uris":{"android":"levelo://app?vid=afd82280-54b9-4754-9c64-9b6ef9e0bb3e","ios":"levelo://app?vid=afd82280-54b9-4754-9c64-9b6ef9e0bb3e"},"vehicle_type_id":"4","last_reported":1703919962,"current_range_meters":20400,"station_id":"ce4bhbp2rcd13ifvqerg","pricing_plan_id":"free"},{"bike_id":"2b69eee0-866b-429e-8ea5-2295ed3f4418","system_id":"levelo_inurba_marseille","lat":43.282744,"lon":5.350533,"is_reserved":false,"is_disabled":false,"rental_uris":{"android":"levelo://app?vid=2b69eee0-866b-429e-8ea5-2295ed3f4418","ios":"levelo://app?vid=2b69eee0-866b-429e-8ea5-2295ed3f4418"},"vehicle_type_id":"4","last_reported":1703919962,"current_range_meters":30400,"station_id":"ce4bhbp2rcd13ifvqerg","pricing_plan_id":"free"},{"bike_id":"76b9627c-2f2e-48ce-8cbf-c87f1a3ff4bb","system_id":"levelo_inurba_marseille","lat":43.282744,"lon":5.350533,"is_reserved":false,"is_disabled":false,"rental_uris":{"android":"levelo://app?vid=76b9627c-2f2e-48ce-8cbf-c87f1a3ff4bb","ios":"levelo://app?vid=76b9627c-2f2e-48ce-8cbf-c87f1a3ff4bb"},"vehicle_type_id":"4","last_reported":1703919962,"current_range_meters":25600,"station_id":"ce4bhbp2rcd13ifvqerg","pricing_plan_id":"free"},{"bike_id":"77f1cb38-95de-4f2e-a4b9-c534ffce72c8","system_id":"levelo_inurba_marseille","lat":43.28039,"lon":5.369297,"is_reserved":false,"is_disabled":false,"rental_uris":{"android":"levelo://app?vid=77f1cb38-95de-4f2e-a4b9-c534ffce72c8","ios":"levelo://app?vid=77f1cb38-95de-4f2e-a4b9-c534ffce72c8"},"vehicle_type_id":"4","last_reported":1703919962,"current_range_meters":26000,"station_id":"ce4bha12rcd13ifvqef0","pricing_plan_id":"free"},{"bike_id":"9b436395-ed01-468d-a77e-74e6b71c07ec","system_id":"levelo_inurba_marseille","lat":43.28039,"lon":5.369297,"is_reserved":false,"is_disabled":false,"rental_uris":{"android":"levelo://app?vid=9b436395-ed01-468d-a77e-74e6b71c07ec","ios":"levelo://app?vid=9b436395-ed01-468d-a77e-74e6b71c07ec"},"vehicle_type_id":"4","last_reported":1703919962,"current_range_meters":16800,"station_id":"ce4bha12rcd13ifvqef0","pricing_plan_id":"free"},{"bike_id":"e88a8927-e556-4eca-94a1-45f0b3b6e0d6","system_id":"levelo_inurba_marseille","lat":43.28039,"lon":5.369297,"is_reserved":false,"is_disabled":false,"rental_uris":{"android":"levelo://app?vid=e88a8927-e556-4eca-94a1-45f0b3b6e0d6","ios":"levelo://app?vid=e88a8927-e556-4eca-94a1-45f0b3b6e0d6"},"vehicle_type_id":"4","last_reported":1703919962,"current_range_meters":12000,"station_id":"ce4bha12rcd13ifvqef0","pricing_plan_id":"free"},{"bike_id":"cc26d6c9-2cac-4550-9c49-10adb96cb352","system_id":"levelo_inurba_marseille","lat":43.28039,"lon":5.369297,"is_reserved":false,"is_disabled":false,"rental_uris":{"android":"levelo://app?vid=cc26d6c9-2cac-4550-9c49-10adb96cb352","ios":"levelo://app?vid=cc26d6c9-2cac-4550-9c49-10adb96cb352"},"vehicle_type_id":"4","last_reported":1703919962,"current_range_meters":30400,"station_id":"ce4bha12rcd13ifvqef0","pricing_plan_id":"free"},{"bike_id":"e6705b7e-225d-4d3f-b609-3f8890a0bd7d","system_id":"levelo_inurba_marseille","lat":43.28039,"lon":5.369297,"is_reserved":false,"is_disabled":false,"rental_uris":{"android":"levelo://app?vid=e6705b7e-225d-4d3f-b609-3f8890a0bd7d","ios":"levelo://app?vid=e6705b7e-225d-4d3f-b609-3f8890a0bd7d"},"vehicle_type_id":"4","last_reported":1703919962,"current_range_meters":30400,"station_id":"ce4bha12rcd13ifvqef0","pricing_plan_id":"free"},{"bike_id":"57e02c62-d375-475a-937f-fa741e7b2ac1","system_id":"levelo_inurba_marseille","lat":43.280382,"lon":5.369291,"is_reserved":false,"is_disabled":false,"rental_uris":{"android":"levelo://app?vid=57e02c62-d375-475a-937f-fa741e7b2ac1","ios":"levelo://app?vid=57e02c62-d375-475a-937f-fa741e7b2ac1"},"vehicle_type_id":"4","last_reported":1703919962,"current_range_meters":29600,"station_id":"ce4bha12rcd13ifvqef0","pricing_plan_id":"free"},{"bike_id":"b2e9dd3c-ab70-4d36-b8bb-79a38e64a52c","system_id":"levelo_inurba_marseille","lat":43.28039,"lon":5.369297,"is_reserved":false,"is_disabled":false,"rental_uris":{"android":"levelo://app?vid=b2e9dd3c-ab70-4d36-b8bb-79a38e64a52c","ios":"levelo://app?vid=b2e9dd3c-ab70-4d36-b8bb-79a38e64a52c"},"vehicle_type_id":"4","last_reported":1703919962,"current_range_meters":30000,"station_id":"ce4bha12rcd13ifvqef0","pricing_plan_id":"free"},{"bike_id":"b0b85657-22c4-4545-9bad-fb7d19b0377a","system_id":"levelo_inurba_marseille","lat":43.28039,"lon":5.369297,"is_reserved":false,"is_disabled":false,"rental_uris":{"android":"levelo://app?vid=b0b85657-22c4-4545-9bad-fb7d19b0377a","ios":"levelo://app?vid=b0b85657-22c4-4545-9bad-fb7d19b0377a"},"vehicle_type_id":"4","last_reported":1703919962,"current_range_meters":15600,"station_id":"ce4bha12rcd13ifvqef0","pricing_plan_id":"free"},{"bike_id":"3e3b5c53-8422-4203-87f4-15db1f0860e4","system_id":"levelo_inurba_marseille","lat":43.290412,"lon":5.399633,"is_reserved":false,"is_disabled":false,"rental_uris":{"android":"levelo://app?vid=3e3b5c53-8422-4203-87f4-15db1f0860e4","ios":"levelo://app?vid=3e3b5c53-8422-4203-87f4-15db1f0860e4"},"vehicle_type_id":"4","last_reported":1703919962,"current_range_meters":30400,"station_id":"ce4bh392rcd13ifvqdm0","pricing_plan_id":"free"},{"bike_id":"26a4d6d2-5c44-4b16-a5b4-2339f2a224e4","system_id":"levelo_inurba_marseille","lat":43.290412,"lon":5.399633,"is_reserved":false,"is_disabled":false,"rental_uris":{"android":"levelo://app?vid=26a4d6d2-5c44-4b16-a5b4-2339f2a224e4","ios":"levelo://app?vid=26a4d6d2-5c44-4b16-a5b4-2339f2a224e4"},"vehicle_type_id":"4","last_reported":1703919962,"current_range_meters":30400,"station_id":"ce4bh392rcd13ifvqdm0","pricing_plan_id":"free"},{"bike_id":"85d79688-2454-4602-acb0-2d1a8922a022","system_id":"levelo_inurba_marseille","lat":43.29041,"lon":5.399634,"is_reserved":false,"is_disabled":false,"rental_uris":{"android":"levelo://app?vid=85d79688-2454-4602-acb0-2d1a8922a022","ios":"levelo://app?vid=85d79688-2454-4602-acb0-2d1a8922a022"},"vehicle_type_id":"4","last_reported":1703919962,"current_range_meters":29600,"station_id":"ce4bh392rcd13ifvqdm0","pricing_plan_id":"free"},{"bike_id":"2a7e66bc-14ec-4a14-ac7b-ca6d55316254","system_id":"levelo_inurba_marseille","lat":43.281044,"lon":5.378308,"is_reserved":false,"is_disabled":false,"rental_uris":{"android":"levelo://app?vid=2a7e66bc-14ec-4a14-ac7b-ca6d55316254","ios":"levelo://app?vid=2a7e66bc-14ec-4a14-ac7b-ca6d55316254"},"vehicle_type_id":"4","last_reported":1703919962,"current_range_meters":30400,"station_id":"ce4bha12rcd13ifvqee0","pricing_plan_id":"free"},{"bike_id":"3100d794-ce98-400d-8237-4a9c34f1ee80","system_id":"levelo_inurba_marseille","lat":43.281044,"lon":5.378308,"is_reserved":false,"is_disabled":false,"rental_uris":{"android":"levelo://app?vid=3100d794-ce98-400d-8237-4a9c34f1ee80","ios":"levelo://app?vid=3100d794-ce98-400d-8237-4a9c34f1ee80"},"vehicle_type_id":"4","last_reported":1703919962,"current_range_meters":25600,"station_id":"ce4bha12rcd13ifvqee0","pricing_plan_id":"free"},{"bike_id":"0b6a5b1e-63f4-4b5a-afd4-6b3e14ae965d","system_id":"levelo_inurba_marseille","lat":43.281044,"lon":5.378308,"is_reserved":false,"is_disabled":false,"rental_uris":{"android":"levelo://app?vid=0b6a5b1e-63f4-4b5a-afd4-6b3e14ae965d","ios":"levelo://app?vid=0b6a5b1e-63f4-4b5a-afd4-6b3e14ae965d"},"vehicle_type_id":"4","last_reported":1703919962,"current_range_meters":25200,"station_id":"ce4bha12rcd13ifvqee0","pricing_plan_id":"free"},{"bike_id":"fef07020-a933-453a-a1f7-3e9b26e432c6","system_id":"levelo_inurba_marseille","lat":43.281044,"lon":5.378308,"is_reserved":false,"is_disabled":false,"rental_uris":{"android":"levelo://app?vid=fef07020-a933-453a-a1f7-3e9b26e432c6","ios":"levelo://app?vid=fef07020-a933-453a-a1f7-3e9b26e432c6"},"vehicle_type_id":"4","last_reported":1703919962,"current_range_meters":31200,"station_id":"ce4bha12rcd13ifvqee0","pricing_plan_id":"free"},{"bike_id":"4bef1dea-2164-4547-b9d8-776af92005e9","system_id":"levelo_inurba_marseille","lat":43.296263,"lon":5.40601,"is_reserved":false,"is_disabled":false,"rental_uris":{"android":"levelo://app?vid=4bef1dea-2164-4547-b9d8-776af92005e9","ios":"levelo://app?vid=4bef1dea-2164-4547-b9d8-776af92005e9"},"vehicle_type_id":"4","last_reported":1703919962,"current_range_meters":28800,"station_id":"ce4bh0h2rcd13ifvqd60","pricing_plan_id":"free"},{"bike_id":"62722cb0-91f2-47b4-b60b-e5b16038907b","system_id":"levelo_inurba_marseille","lat":43.326605,"lon":5.409903,"is_reserved":false,"is_disabled":false,"rental_uris":{"android":"levelo://app?vid=62722cb0-91f2-47b4-b60b-e5b16038907b","ios":"levelo://app?vid=62722cb0-91f2-47b4-b60b-e5b16038907b"},"vehicle_type_id":"4","last_reported":1703919962,"current_range_meters":30000,"station_id":"ce4bhpp2rcd13ifvqhgg","pricing_plan_id":"free"},{"bike_id":"c28bddba-5d7a-451f-a2da-3115474da65c","system_id":"levelo_inurba_marseille","lat":43.326605,"lon":5.409903,"is_reserved":false,"is_disabled":false,"rental_uris":{"android":"levelo://app?vid=c28bddba-5d7a-451f-a2da-3115474da65c","ios":"levelo://app?vid=c28bddba-5d7a-451f-a2da-3115474da65c"},"vehicle_type_id":"4","last_reported":1703919962,"current_range_meters":29200,"station_id":"ce4bhpp2rcd13ifvqhgg","pricing_plan_id":"free"},{"bike_id":"199a927a-115e-4ad9-ab8e-b363b9a5e83b","system_id":"levelo_inurba_marseille","lat":43.304188,"lon":5.412904,"is_reserved":false,"is_disabled":false,"rental_uris":{"android":"levelo://app?vid=199a927a-115e-4ad9-ab8e-b363b9a5e83b","ios":"levelo://app?vid=199a927a-115e-4ad9-ab8e-b363b9a5e83b"},"vehicle_type_id":"4","last_reported":1703919962,"current_range_meters":24000,"station_id":"ce4bhop2rcd13ifvqh8g","pricing_plan_id":"free"},{"bike_id":"4d1ab0ec-97ef-4316-b4f8-9f26c524337f","system_id":"levelo_inurba_marseille","lat":43.304188,"lon":5.412904,"is_reserved":false,"is_disabled":false,"rental_uris":{"android":"levelo://app?vid=4d1ab0ec-97ef-4316-b4f8-9f26c524337f","ios":"levelo://app?vid=4d1ab0ec-97ef-4316-b4f8-9f26c524337f"},"vehicle_type_id":"4","last_reported":1703919962,"current_range_meters":29600,"station_id":"ce4bhop2rcd13ifvqh8g","pricing_plan_id":"free"},{"bike_id":"e82dfce0-8df4-4529-8c61-abc54f4b8158","system_id":"levelo_inurba_marseille","lat":43.304188,"lon":5.412904,"is_reserved":false,"is_disabled":false,"rental_uris":{"android":"levelo://app?vid=e82dfce0-8df4-4529-8c61-abc54f4b8158","ios":"levelo://app?vid=e82dfce0-8df4-4529-8c61-abc54f4b8158"},"vehicle_type_id":"4","last_reported":1703919962,"current_range_meters":14000,"station_id":"ce4bhop2rcd13ifvqh8g","pricing_plan_id":"free"},{"bike_id":"61210dc3-fb48-407f-91e7-442acecfaa07","system_id":"levelo_inurba_marseille","lat":43.304188,"lon":5.412904,"is_reserved":false,"is_disabled":false,"rental_uris":{"android":"levelo://app?vid=61210dc3-fb48-407f-91e7-442acecfaa07","ios":"levelo://app?vid=61210dc3-fb48-407f-91e7-442acecfaa07"},"vehicle_type_id":"4","last_reported":1703919962,"current_range_meters":31200,"station_id":"ce4bhop2rcd13ifvqh8g","pricing_plan_id":"free"},{"bike_id":"295bbd76-6a9c-4b1f-8350-6d09c5747336","system_id":"levelo_inurba_marseille","lat":43.279087,"lon":5.380114,"is_reserved":false,"is_disabled":false,"rental_uris":{"android":"levelo://app?vid=295bbd76-6a9c-4b1f-8350-6d09c5747336","ios":"levelo://app?vid=295bbd76-6a9c-4b1f-8350-6d09c5747336"},"vehicle_type_id":"4","last_reported":1703919962,"current_range_meters":27600,"station_id":"ce4bhf92rcd13ifvqf50","pricing_plan_id":"free"},{"bike_id":"d9f0069e-a6fd-47e9-b87a-58a7a008255f","system_id":"levelo_inurba_marseille","lat":43.287154,"lon":5.399979,"is_reserved":false,"is_disabled":false,"rental_uris":{"android":"levelo://app?vid=d9f0069e-a6fd-47e9-b87a-58a7a008255f","ios":"levelo://app?vid=d9f0069e-a6fd-47e9-b87a-58a7a008255f"},"vehicle_type_id":"4","last_reported":1703919962,"current_range_meters":29200,"station_id":"ce4bho92rcd13ifvqh3g","pricing_plan_id":"free"},{"bike_id":"92f03cbf-2f49-4da4-b8d7-426bbccdf525","system_id":"levelo_inurba_marseille","lat":43.287154,"lon":5.399979,"is_reserved":false,"is_disabled":false,"rental_uris":{"android":"levelo://app?vid=92f03cbf-2f49-4da4-b8d7-426bbccdf525","ios":"levelo://app?vid=92f03cbf-2f49-4da4-b8d7-426bbccdf525"},"vehicle_type_id":"4","last_reported":1703919962,"current_range_meters":25200,"station_id":"ce4bho92rcd13ifvqh3g","pricing_plan_id":"free"},{"bike_id":"8bedf531-be71-4d96-affa-9c9a76db8436","system_id":"levelo_inurba_marseille","lat":43.287154,"lon":5.399979,"is_reserved":false,"is_disabled":false,"rental_uris":{"android":"levelo://app?vid=8bedf531-be71-4d96-affa-9c9a76db8436","ios":"levelo://app?vid=8bedf531-be71-4d96-affa-9c9a76db8436"},"vehicle_type_id":"4","last_reported":1703919962,"current_range_meters":31200,"station_id":"ce4bho92rcd13ifvqh3g","pricing_plan_id":"free"},{"bike_id":"927344cc-55b9-46fa-a891-c353465bfa01","system_id":"levelo_inurba_marseille","lat":43.292571,"lon":5.409107,"is_reserved":false,"is_disabled":false,"rental_uris":{"android":"levelo://app?vid=927344cc-55b9-46fa-a891-c353465bfa01","ios":"levelo://app?vid=927344cc-55b9-46fa-a891-c353465bfa01"},"vehicle_type_id":"4","last_reported":1703919962,"current_range_meters":26800,"station_id":"ce4bh192rcd13ifvqdc0","pricing_plan_id":"free"},{"bike_id":"7267cb4d-476d-43b7-af3a-fe542accfcad","system_id":"levelo_inurba_marseille","lat":43.27618,"lon":5.361009,"is_reserved":false,"is_disabled":false,"rental_uris":{"android":"levelo://app?vid=7267cb4d-476d-43b7-af3a-fe542accfcad","ios":"levelo://app?vid=7267cb4d-476d-43b7-af3a-fe542accfcad"},"vehicle_type_id":"4","last_reported":1703919962,"current_range_meters":17600,"station_id":"ce4bgj92rcd13ifvqbe0","pricing_plan_id":"free"},{"bike_id":"e5487b3d-2565-4615-8c66-7a8512d1304f","system_id":"levelo_inurba_marseille","lat":43.280784,"lon":5.396622,"is_reserved":false,"is_disabled":false,"rental_uris":{"android":"levelo://app?vid=e5487b3d-2565-4615-8c66-7a8512d1304f","ios":"levelo://app?vid=e5487b3d-2565-4615-8c66-7a8512d1304f"},"vehicle_type_id":"4","last_reported":1703919962,"current_range_meters":30400,"station_id":"ce4bho12rcd13ifvqh2g","pricing_plan_id":"free"},{"bike_id":"6681aa5d-6afd-4c9d-866b-f5eff907184f","system_id":"levelo_inurba_marseille","lat":43.273762,"lon":5.36253,"is_reserved":false,"is_disabled":false,"rental_uris":{"android":"levelo://app?vid=6681aa5d-6afd-4c9d-866b-f5eff907184f","ios":"levelo://app?vid=6681aa5d-6afd-4c9d-866b-f5eff907184f"},"vehicle_type_id":"4","last_reported":1703919962,"current_range_meters":29600,"station_id":"ce4bhbh2rcd13ifvqeo0","pricing_plan_id":"free"},