{"last_updated":1740831359,"ttl":60,"version":"2.2","data":{"bikes":[{"bike_id":"bc8386b5-0cd0-4381-b75c-5878599312e4","system_id":"levelo_inurba_marseille","lat":43.25115,"lon":5.40324,"is_reserved":false,"is_disabled":false,"rental_uris":{"android":"levelo://app?vid=bc8386b5-0cd0-4381-b75c-5878599312e4","ios":"levelo://app?vid=bc8386b5-0cd0-4381-b75c-5878599312e4"},"vehicle_type_id":"4","last_reported":1740831359,"current_range_meters":0,"station_id":"ce4bhlh2rcd13ifvqgig","pricing_plan_id":"cebpf4jnsgd1na2vs0mg"},{"bike_id":"0e6e3900-a846-4069-8bfd-1d9cbe5e5532","system_id":"levelo_inurba_marseille","lat":43.27088,"lon":5.4228,"is_reserved":false,"is_disabled":false,"rental_uris":{"android":"levelo://app?vid=0e6e3900-a846-4069-8bfd-1d9cbe5e5532","ios":"levelo://app?vid=0e6e3900-a846-4069-8bfd-1d9cbe5e5532"},"vehicle_type_id":"4","last_reported":1740831359,"current_range_meters":2800,"station_id":"ce4bhk92rcd13ifvqgb0","pricing_plan_id":"cebpf4jnsgd1na2vs0mg"},{"bike_id":"81edaef7-2e1f-45c5-90d8-c913d795a46c","system_id":"levelo_inurba_marseille","lat":43.30157,"lon":5.38092,"is_reserved":false,"is_disabled":false,"rental_uris":{"android":"levelo://app?vid=81edaef7-2e1f-45c5-90d8-c913d795a46c","ios":"levelo://app?vid=81edaef7-2e1f-45c5-90d8-c913d795a46c"},"vehicle_type_id":"4","last_reported":1740831359,"current_range_meters":3200,"station_id":"ce4bgjp2rcd13ifvqbh0","pricing_plan_id":"cebpf4jnsgd1na2vs0mg"},{"bike_id":"95a589ff-9c04-4446-ba79-0b985d4926fc","system_id":"levelo_inurba_marseille","lat":43.301843,"lon":5.366276,"is_reserved":false,"is_disabled":false,"rental_uris":{"android":"levelo://app?vid=95a589ff-9c04-4446-ba79-0b985d4926fc","ios":"levelo://app?vid=95a589ff-9c04-4446-ba79-0b985d4926fc"},"vehicle_type_id":"4","last_reported":1740831359,"current_range_meters":2000,"station_id":"ce4bgs92rcd13ifvqcc0","pricing_plan_id":"cebpf4jnsgd1na2vs0mg"},{"bike_id":"a784e81d-5006-4453-9717-ffbf01f0dbd6","system_id":"levelo_inurba_marseille","lat":43.2998,"lon":5.38484,"is_reserved":false,"is_disabled":true,"rental_uris":{"android":"levelo://app?vid=a784e81d-5006-4453-9717-ffbf01f0dbd6","ios":"levelo://app?vid=a784e81d-5006-4453-9717-ffbf01f0dbd6"},"vehicle_type_id":"4","last_reported":1740831359,"current_range_meters":3600,"station_id":"ce4bgj92rcd13ifvqbd0","pricing_plan_id":"cebpf4jnsgd1na2vs0mg"},{"bike_id":"ae953fdd-5e6d-4e47-8247-9f24f9137085","system_id":"levelo_inurba_marseille","lat":43.26214,"lon":5.37441,"is_reserved":false,"is_disabled":false,"rental_uris":{"android":"levelo://app?vid=ae953fdd-5e6d-4e47-8247-9f24f9137085","ios":"levelo://app?vid=ae953fdd-5e6d-4e47-8247-9f24f9137085"},"vehicle_type_id":"4","last_reported":1740831359,"current_range_meters":3600,"station_id":"ce4bhgp2rcd13ifvqfc0","pricing_plan_id":"cebpf4jnsgd1na2vs0mg"},{"bike_id":"765edde8-ebe0-4946-b63e-9a4d0d15a548","system_id":"levelo_inurba_marseille","lat":43.29763,"lon":5.37108,"is_reserved":false,"is_disabled":false,"rental_uris":{"android":"levelo://app?vid=765edde8-ebe0-4946-b63e-9a4d0d15a548","ios":"levelo://app?vid=765edde8-ebe0-4946-b63e-9a4d0d15a548"},"vehicle_type_id":"4","last_reported":1740831359,"current_range_meters":4000,"station_id":"ce4bgop2rcd13ifvqc1g","pricing_plan_id":"cebpf4jnsgd1na2vs0mg"},{"bike_id":"f8b25d90-893f-43e7-b6af-489918142ddb","system_id":"levelo_inurba_marseille","lat":43.29622,"lon":5.38097,"is_reserved":false,"is_disabled":false,"rental_uris":{"android":"levelo://app?vid=f8b25d90-893f-43e7-b6af-489918142ddb","ios":"levelo://app?vid=f8b25d90-893f-43e7-b6af-489918142ddb"},"vehicle_type_id":"4","last_reported":1740831359,"current_range_meters":4000,"station_id":"ce4bgl12rcd13ifvqbo0","pricing_plan_id":"cebpf4jnsgd1na2vs0mg"},{"bike_id":"17ddbbb5-11e9-4dea-8d48-8df35a23e77a","system_id":"levelo_inurba_marseille","lat":43.31728,"lon":5.39024,"is_reserved":false,"is_disabled":false,"rental_uris":{"android":"levelo://app?vid=17ddbbb5-11e9-4dea-8d48-8df35a23e77a","ios":"levelo://app?vid=17ddbbb5-11e9-4dea-8d48-8df35a23e77a"},"vehicle_type_id":"4","last_reported":1740831359,"current_range_meters":4000,"station_id":"ce4bhqp2rcd13ifvqhng","pricing_plan_id":"cebpf4jnsgd1na2vs0mg"},{"bike_id":"bcc6ec3f-ff83-406a-8f7f-5ddf2f4f0714","system_id":"levelo_inurba_marseille","lat":43.29545,"lon":5.4228,"is_reserved":false,"is_disabled":false,"rental_uris":{"android":"levelo://app?vid=bcc6ec3f-ff83-406a-8f7f-5ddf2f4f0714","ios":"levelo://app?vid=bcc6ec3f-ff83-406a-8f7f-5ddf2f4f0714"},"vehicle_type_id":"4","last_reported":1740831359,"current_range_meters":4400,"station_id":"ce4bhph2rcd13ifvqhdg","pricing_plan_id":"cebpf4jnsgd1na2vs0mg"},{"bike_id":"513f03e6-e962-457c-812a-34a160089873","system_id":"levelo_inurba_marseille","lat":43.26573,"lon":5.38988,"is_reserved":false,"is_disabled":false,"rental_uris":{"android":"levelo://app?vid=513f03e6-e962-457c-812a-34a160089873","ios":"levelo://app?vid=513f03e6-e962-457c-812a-34a160089873"},"vehicle_type_id":"4","last_reported":1740831359,"current_range_meters":4400,"station_id":"ce4bhe12rcd13ifvqf30","pricing_plan_id":"cebpf4jnsgd1na2vs0mg"},{"bike_id":"f32ea091-8d65-493c-8fff-13bbf53faa68","system_id":"levelo_inurba_marseille","lat":43.31715,"lon":5.43669,"is_reserved":false,"is_disabled":false,"rental_uris":{"android":"levelo://app?vid=f32ea091-8d65-493c-8fff-13bbf53faa68","ios":"levelo://app?vid=f32ea091-8d65-493c-8fff-13bbf53faa68"},"vehicle_type_id":"4","last_reported":1740831359,"current_range_meters":4400,"station_id":"ce4bhp92rcd13ifvqhcg","pricing_plan_id":"cebpf4jnsgd1na2vs0mg"},{"bike_id":"0e07936b-b5f4-4ce0-90ff-73c063994f1c","system_id":"levelo_inurba_marseille","lat":43.30459,"lon":5.37246,"is_reserved":false,"is_disabled":false,"rental_uris":{"android":"levelo://app?vid=0e07936b-b5f4-4ce0-90ff-73c063994f1c","ios":"levelo://app?vid=0e07936b-b5f4-4ce0-90ff-73c063994f1c"},"vehicle_type_id":"4","last_reported":1740831359,"current_range_meters":4400,"station_id":"","pricing_plan_id":"cebpf4jnsgd1na2vs0mg"},{"bike_id":"fec06910-07f0-48a6-a5fb-cac0e9b54af9","system_id":"levelo_inurba_marseille","lat":43.25721,"lon":5.41799,"is_reserved":false,"is_disabled":false,"rental_uris":{"android":"levelo://app?vid=fec06910-07f0-48a6-a5fb-cac0e9b54af9","ios":"levelo://app?vid=fec06910-07f0-48a6-a5fb-cac0e9b54af9"},"vehicle_type_id":"4","last_reported":1740831359,"current_range_meters":4800,"station_id":"","pricing_plan_id":"cebpf4jnsgd1na2vs0mg"},{"bike_id":"8c4fb7a0-388e-4455-8206-282707aecc72","system_id":"levelo_inurba_marseille","lat":43.29613,"lon":5.38112,"is_reserved":false,"is_disabled":false,"rental_uris":{"android":"levelo://app?vid=8c4fb7a0-388e-4455-8206-282707aecc72","ios":"levelo://app?vid=8c4fb7a0-388e-4455-8206-282707aecc72"},"vehicle_type_id":"4","last_reported":1740831359,"current_range_meters":4800,"station_id":"ce4bgl12rcd13ifvqbo0","pricing_plan_id":"cebpf4jnsgd1na2vs0mg"},{"bike_id":"3f16e53f-bb4a-4f6b-a1bb-0d6254f40fcf","system_id":"levelo_inurba_marseille","lat":43.32005,"lon":5.38146,"is_reserved":false,"is_disabled":false,"rental_uris":{"android":"levelo://app?vid=3f16e53f-bb4a-4f6b-a1bb-0d6254f40fcf","ios":"levelo://app?vid=3f16e53f-bb4a-4f6b-a1bb-0d6254f40fcf"},"vehicle_type_id":"4","last_reported":1740831359,"current_range_meters":5600,"station_id":"ce4bhr12rcd13ifvqhpg","pricing_plan_id":"cebpf4jnsgd1na2vs0mg"},{"bike_id":"669725ce-2ed0-4534-b2c7-b477e6f488fd","system_id":"levelo_inurba_marseille","lat":43.29014,"lon":5.38122,"is_reserved":false,"is_disabled":false,"rental_uris":{"android":"levelo://app?vid=669725ce-2ed0-4534-b2c7-b477e6f488fd","ios":"levelo://app?vid=669725ce-2ed0-4534-b2c7-b477e6f488fd"},"vehicle_type_id":"4","last_reported":1740831359,"current_range_meters":5600,"station_id":"ce4bh4p2rcd13ifvqe1g","pricing_plan_id":"cebpf4jnsgd1na2vs0mg"},{"bike_id":"6bbd9ee1-9038-4139-a6ec-30d2056acaaf","system_id":"levelo_inurba_marseille","lat":43.29224,"lon":5.36059,"is_reserved":false,"is_disabled":false,"rental_uris":{"android":"levelo://app?vid=6bbd9ee1-9038-4139-a6ec-30d2056acaaf","ios":"levelo://app?vid=6bbd9ee1-9038-4139-a6ec-30d2056acaaf"},"vehicle_type_id":"4","last_reported":1740831359,"current_range_meters":5600,"station_id":"ce4bhbh2rcd13ifvqeqg","pricing_plan_id":"cebpf4jnsgd1na2vs0mg"},{"bike_id":"4097b1c9-81ed-4381-9f60-ce4d99e4355d","system_id":"levelo_inurba_marseille","lat":43.23051,"lon":5.35476,"is_reserved":false,"is_disabled":false,"rental_uris":{"android":"levelo://app?vid=4097b1c9-81ed-4381-9f60-ce4d99e4355d","ios":"levelo://app?vid=4097b1c9-81ed-4381-9f60-ce4d99e4355d"},"vehicle_type_id":"4","last_reported":1740831359,"current_range_meters":5600,"station_id":"cpo3342slgdg3j2ifvpg","pricing_plan_id":"cebpf4jnsgd1na2vs0mg"},{"bike_id":"67ce8cfb-6f6b-425f-bc83-c1ca88627e6b","system_id":"levelo_inurba_marseille","lat":43.29254,"lon":5.37609,"is_reserved":false,"is_disabled":false,"rental_uris":{"android":"levelo://app?vid=67ce8cfb-6f6b-425f-bc83-c1ca88627e6b","ios":"levelo://app?vid=67ce8cfb-6f6b-425f-bc83-c1ca88627e6b"},"vehicle_type_id":"4","last_reported":1740831359,"current_range_meters":5600,"station_id":"ce4bgi12rcd13ifvqb80","pricing_plan_id":"cebpf4jnsgd1na2vs0mg"},{"bike_id":"b7e2c369-d84f-4338-9533-a63aa3a15001","system_id":"levelo_inurba_marseille","lat":43.31711,"lon":5.43707,"is_reserved":false,"is_disabled":false,"rental_uris":{"android":"levelo://app?vid=b7e2c369-d84f-4338-9533-a63aa3a15001","ios":"levelo://app?vid=b7e2c369-d84f-4338-9533-a63aa3a15001"},"vehicle_type_id":"4","last_reported":1740831359,"current_range_meters":6000,"station_id":"ce4bhp92rcd13ifvqhcg","pricing_plan_id":"cebpf4jnsgd1na2vs0mg"},{"bike_id":"e489c998-1186-487d-bcb2-da9e83c9c825","system_id":"levelo_inurba_marseille","lat":43.28012,"lon":5.40024,"is_reserved":false,"is_disabled":false,"rental_uris":{"android":"levelo://app?vid=e489c998-1186-487d-bcb2-da9e83c9c825","ios":"levelo://app?vid=e489c998-1186-487d-bcb2-da9e83c9c825"},"vehicle_type_id":"4","last_reported":1740831359,"current_range_meters":6000,"station_id":"ce4bho92rcd13ifvqh4g","pricing_plan_id":"cebpf4jnsgd1na2vs0mg"},{"bike_id":"4cf5188c-d2e7-4df0-b8d4-7934652c385d","system_id":"levelo_inurba_marseille","lat":43.33608,"lon":5.41026,"is_reserved":false,"is_disabled":false,"rental_uris":{"android":"levelo://app?vid=4cf5188c-d2e7-4df0-b8d4-7934652c385d","ios":"levelo://app?vid=4cf5188c-d2e7-4df0-b8d4-7934652c385d"},"vehicle_type_id":"4","last_reported":1740831359,"current_range_meters":6000,"station_id":"ce4bhqh2rcd13ifvqhmg","pricing_plan_id":"cebpf4jnsgd1na2vs0mg"},{"bike_id":"49e0a034-277f-4658-83cf-83e39377ef50","system_id":"levelo_inurba_marseille","lat":43.29543,"lon":5.3794,"is_reserved":false,"is_disabled":false,"rental_uris":{"android":"levelo://app?vid=49e0a034-277f-4658-83cf-83e39377ef50","ios":"levelo://app?vid=49e0a034-277f-4658-83cf-83e39377ef50"},"vehicle_type_id":"4","last_reported":1740831359,"current_range_meters":6000,"station_id":"","pricing_plan_id":"cebpf4jnsgd1na2vs0mg"},{"bike_id":"58a68f7e-3a58-4830-88c7-f299e7022d3e","system_id":"levelo_inurba_marseille","lat":43.3151,"lon":5.37276,"is_reserved":false,"is_disabled":false,"rental_uris":{"android":"levelo://app?vid=58a68f7e-3a58-4830-88c7-f299e7022d3e","ios":"levelo://app?vid=58a68f7e-3a58-4830-88c7-f299e7022d3e"},"vehicle_type_id":"4","last_reported":1740831359,"current_range_meters":6000,"station_id":"ce4bgt12rcd13ifvqcd0","pricing_plan_id":"cebpf4jnsgd1na2vs0mg"},{"bike_id":"9125a52a-7636-4ef7-91be-dae27247ba17","system_id":"levelo_inurba_marseille","lat":43.255,"lon":5.37654,"is_reserved":false,"is_disabled":false,"rental_uris":{"android":"levelo://app?vid=9125a52a-7636-4ef7-91be-dae27247ba17","ios":"levelo://app?vid=9125a52a-7636-4ef7-91be-dae27247ba17"},"vehicle_type_id":"4","last_reported":1740831359,"current_range_meters":6000,"station_id":"ce4bhh12rcd13ifvqff0","pricing_plan_id":"cebpf4jnsgd1na2vs0mg"},{"bike_id":"3de9aeda-1f9a-4bbc-8b90-e02a49e56ca9","system_id":"levelo_inurba_marseille","lat":43.231888,"lon":5.355565,"is_reserved":false,"is_disabled":false,"rental_uris":{"android":"levelo://app?vid=3de9aeda-1f9a-4bbc-8b90-e02a49e56ca9","ios":"levelo://app?vid=3de9aeda-1f9a-4bbc-8b90-e02a49e56ca9"},"vehicle_type_id":"4","last_reported":1740831359,"current_range_meters":6000,"station_id":"ce4bhu92rcd13ifvqi70","pricing_plan_id":"cebpf4jnsgd1na2vs0mg"},{"bike_id":"8d3518da-a581-49db-bfbc-cea304ed94ce","system_id":"levelo_inurba_marseille","lat":43.30204,"lon":5.39476,"is_reserved":false,"is_disabled":false,"rental_uris":{"android":"levelo://app?vid=8d3518da-a581-49db-bfbc-cea304ed94ce","ios":"levelo://app?vid=8d3518da-a581-49db-bfbc-cea304ed94ce"},"vehicle_type_id":"4","last_reported":1740831359,"current_range_meters":6000,"station_id":"ce4bh0p2rcd13ifvqd70","pricing_plan_id":"cebpf4jnsgd1na2vs0mg"},{"bike_id":"aedfabfe-3da6-43e3-bc29-07ea3503afbe","system_id":"levelo_inurba_marseille","lat":43.251171,"lon":5.403753,"is_reserved":false,"is_disabled":false,"rental_uris":{"android":"levelo://app?vid=aedfabfe-3da6-43e3-bc29-07ea3503afbe","ios":"levelo://app?vid=aedfabfe-3da6-43e3-bc29-07ea3503afbe"},"vehicle_type_id":"4","last_reported":1740831359,"current_range_meters":6400,"station_id":"ce4bhlh2rcd13ifvqgig","pricing_plan_id":"cebpf4jnsgd1na2vs0mg"},{"bike_id":"e3e5d0a0-2b8e-4546-b4bd-04f8a6cfc265","system_id":"levelo_inurba_marseille","lat":43.280363,"lon":5.36944,"is_reserved":false,"is_disabled":false,"rental_uris":{"android":"levelo://app?vid=e3e5d0a0-2b8e-4546-b4bd-04f8a6cfc265","ios":"levelo://app?vid=e3e5d0a0-2b8e-4546-b4bd-04f8a6cfc265"},"vehicle_type_id":"4","last_reported":1740831359,"current_range_meters":6400,"station_id":"ce4bha12rcd13ifvqef0","pricing_plan_id":"cebpf4jnsgd1na2vs0mg"},{"bike_id":"f1df5103-b2df-40ac-a443-252d2c43af39","system_id":"levelo_inurba_marseille","lat":43.26208,"lon":5.37931,"is_reserved":false,"is_disabled":false,"rental_uris":{"android":"levelo://app?vid=f1df5103-b2df-40ac-a443-252d2c43af39","ios":"levelo://app?vid=f1df5103-b2df-40ac-a443-252d2c43af39"},"vehicle_type_id":"4","last_reported":1740831359,"current_range_meters":6400,"station_id":"ce4bhjp2rcd13ifvqg90","pricing_plan_id":"cebpf4jnsgd1na2vs0mg"},{"bike_id":"d3de1fa0-cd43-4ee4-b53e-c660ff357d19","system_id":"levelo_inurba_marseille","lat":43.26489,"lon":5.3954,"is_reserved":false,"is_disabled":false,"rental_uris":{"android":"levelo://app?vid=d3de1fa0-cd43-4ee4-b53e-c660ff357d19","ios":"levelo://app?vid=d3de1fa0-cd43-4ee4-b53e-c660ff357d19"},"vehicle_type_id":"4","last_reported":1740831359,"current_range_meters":6000,"station_id":"ce4bhi12rcd13ifvqfq0","pricing_plan_id":"cebpf4jnsgd1na2vs0mg"},{"bike_id":"bcb3dd3d-4bbe-4a55-8cc6-0ab0579bcdbe","system_id":"levelo_inurba_marseille","lat":43.31702,"lon":5.3776,"is_reserved":false,"is_disabled":false,"rental_uris":{"android":"levelo://app?vid=bcb3dd3d-4bbe-4a55-8cc6-0ab0579bcdbe","ios":"levelo://app?vid=bcb3dd3d-4bbe-4a55-8cc6-0ab0579bcdbe"},"vehicle_type_id":"4","last_reported":1740831359,"current_range_meters":6400,"station_id":"ce4bgth2rcd13ifvqch0","pricing_plan_id":"cebpf4jnsgd1na2vs0mg"},{"bike_id":"9eb62bd7-0fdc-491b-9eef-be0a9f73fbfb","system_id":"levelo_inurba_marseille","lat":43.242,"lon":5.36362,"is_reserved":false,"is_disabled":false,"rental_uris":{"android":"levelo://app?vid=9eb62bd7-0fdc-491b-9eef-be0a9f73fbfb","ios":"levelo://app?vid=9eb62bd7-0fdc-491b-9eef-be0a9f73fbfb"},"vehicle_type_id":"4","last_reported":1740831359,"current_range_meters":6800,"station_id":"cpo36qri1sfpv3e86is0","pricing_plan_id":"cebpf4jnsgd1na2vs0mg"},{"bike_id":"d653e336-1cf9-47f2-9441-15e65abb981a","system_id":"levelo_inurba_marseille","lat":43.27427,"lon":5.41464,"is_reserved":false,"is_disabled":false,"rental_uris":{"android":"levelo://app?vid=d653e336-1cf9-47f2-9441-15e65abb981a","ios":"levelo://app?vid=d653e336-1cf9-47f2-9441-15e65abb981a"},"vehicle_type_id":"4","last_reported":1740831359,"current_range_meters":6800,"station_id":"","pricing_plan_id":"cebpf4jnsgd1na2vs0mg"},{"bike_id":"a1866f5d-c65f-4013-a887-862db84a5c62","system_id":"levelo_inurba_marseille","lat":43.26686,"lon":5.38295,"is_reserved":false,"is_disabled":false,"rental_uris":{"android":"levelo://app?vid=a1866f5d-c65f-4013-a887-862db84a5c62","ios":"levelo://app?vid=a1866f5d-c65f-4013-a887-862db84a5c62"},"vehicle_type_id":"4","last_reported":1740831359,"current_range_meters":7200,"station_id":"ce4bhg92rcd13ifvqf90","pricing_plan_id":"cebpf4jnsgd1na2vs0mg"},{"bike_id":"b6c0b988-afaa-4666-b8a1-2cd3bd7c2568","system_id":"levelo_inurba_marseille","lat":43.29012,"lon":5.3813,"is_reserved":false,"is_disabled":false,"rental_uris":{"android":"levelo://app?vid=b6c0b988-afaa-4666-b8a1-2cd3bd7c2568","ios":"levelo://app?vid=b6c0b988-afaa-4666-b8a1-2cd3bd7c2568"},"vehicle_type_id":"4","last_reported":1740831359,"current_range_meters":7200,"station_id":"ce4bh4p2rcd13ifvqe1g","pricing_plan_id":"cebpf4jnsgd1na2vs0mg"},{"bike_id":"468cc411-5a10-46f4-8919-d9a120794357","system_id":"levelo_inurba_marseille","lat":43.28022,"lon":5.40002,"is_reserved":false,"is_disabled":false,"rental_uris":{"android":"levelo://app?vid=468cc411-5a10-46f4-8919-d9a120794357","ios":"levelo://app?vid=468cc411-5a10-46f4-8919-d9a120794357"},"vehicle_type_id":"4","last_reported":1740831359,"current_range_meters":7200,"station_id":"ce4bho92rcd13ifvqh4g","pricing_plan_id":"cebpf4jnsgd1na2vs0mg"},{"bike_id":"d36301ff-065c-4644-9520-d9e8e53fafb9","system_id":"levelo_inurba_marseille","lat":43.27229,"lon":5.39208,"is_reserved":false,"is_disabled":true,"rental_uris":{"android":"levelo://app?vid=d36301ff-065c-4644-9520-d9e8e53fafb9","ios":"levelo://app?vid=d36301ff-065c-4644-9520-d9e8e53fafb9"},"vehicle_type_id":"4","last_reported":1740831359,"current_range_meters":7200,"station_id":"ce4bhhp2rcd13ifvqfm0","pricing_plan_id":"cebpf4jnsgd1na2vs0mg"},{"bike_id":"8dbd79ab-8d7e-44ba-9f11-4afd7e562df1","system_id":"levelo_inurba_marseille","lat":43.25004,"lon":5.38929,"is_reserved":false,"is_disabled":false,"rental_uris":{"android":"levelo://app?vid=8dbd79ab-8d7e-44ba-9f11-4afd7e562df1","ios":"levelo://app?vid=8dbd79ab-8d7e-44ba-9f11-4afd7e562df1"},"vehicle_type_id":"4","last_reported":1740831359,"current_range_meters":7200,"station_id":"ce4bhgp2rcd13ifvqfd0","pricing_plan_id":"cebpf4jnsgd1na2vs0mg"},{"bike_id":"e845bf52-a25e-4912-aaba-f98c45384e4f","system_id":"levelo_inurba_marseille","lat":43.30126,"lon":5.39867,"is_reserved":false,"is_disabled":false,"rental_uris":{"android":"levelo://app?vid=e845bf52-a25e-4912-aaba-f98c45384e4f","ios":"levelo://app?vid=e845bf52-a25e-4912-aaba-f98c45384e4f"},"vehicle_type_id":"4","last_reported":1740831359,"current_range_meters":8000,"station_id":"ce4bh0h2rcd13ifvqd40","pricing_plan_id":"cebpf4jnsgd1na2vs0mg"},{"bike_id":"d17baa29-5a57-4a19-aae6-deadc7280431","system_id":"levelo_inurba_marseille","lat":43.23157,"lon":5.43701,"is_reserved":false,"is_disabled":false,"rental_uris":{"android":"levelo://app?vid=d17baa29-5a57-4a19-aae6-deadc7280431","ios":"levelo://app?vid=d17baa29-5a57-4a19-aae6-deadc7280431"},"vehicle_type_id":"4","last_reported":1740831359,"current_range_meters":6800,"station_id":"ce4bhmp2rcd13ifvqgog","pricing_plan_id":"cebpf4jnsgd1na2vs0mg"},{"bike_id":"fa1ce0fc-bb0b-4edf-bf43-a9a6ffba0462","system_id":"levelo_inurba_marseille","lat":43.24809,"lon":5.37456,"is_reserved":false,"is_disabled":false,"rental_uris":{"android":"levelo://app?vid=fa1ce0fc-bb0b-4edf-bf43-a9a6ffba0462","ios":"levelo://app?vid=fa1ce0fc-bb0b-4edf-bf43-a9a6ffba0462"},"vehicle_type_id":"4","last_reported":1740831359,"current_range_meters":6400,"station_id":"ce4bhgh2rcd13ifvqfb0","pricing_plan_id":"cebpf4jnsgd1na2vs0mg"},{"bike_id":"d5481c01-2984-43f7-9ca9-876cf6aa8921","system_id":"levelo_inurba_marseille","lat":43.27984,"lon":5.40022,"is_reserved":false,"is_disabled":false,"rental_uris":{"android":"levelo://app?vid=d5481c01-2984-43f7-9ca9-876cf6aa8921","ios":"levelo://app?vid=d5481c01-2984-43f7-9ca9-876cf6aa8921"},"vehicle_type_id":"4","last_reported":1740831359,"current_range_meters":8000,"station_id":"ce4bho92rcd13ifvqh4g","pricing_plan_id":"cebpf4jnsgd1na2vs0mg"},{"bike_id":"e8e574a6-d13a-4906-9b60-657faa08b971","system_id":"levelo_inurba_marseille","lat":43.26814,"lon":5.40258,"is_reserved":false,"is_disabled":true,"rental_uris":{"android":"levelo://app?vid=e8e574a6-d13a-4906-9b60-657faa08b971","ios":"levelo://app?vid=e8e574a6-d13a-4906-9b60-657faa08b971"},"vehicle_type_id":"4","last_reported":1740831359,"current_range_meters":8000,"station_id":"ce501612rcd8frsf0b60","pricing_plan_id":"cebpf4jnsgd1na2vs0mg"},{"bike_id":"be047da3-12fb-470e-9d78-68641c40dc2c","system_id":"levelo_inurba_marseille","lat":43.28676,"lon":5.40994,"is_reserved":false,"is_disabled":false,"rental_uris":{"android":"levelo://app?vid=be047da3-12fb-470e-9d78-68641c40dc2c","ios":"levelo://app?vid=be047da3-12fb-470e-9d78-68641c40dc2c"},"vehicle_type_id":"4","last_reported":1740831359,"current_range_meters":8000,"station_id":"","pricing_plan_id":"cebpf4jnsgd1na2vs0mg"},{"bike_id":"77b7c322-7703-4fb8-9103-770e7bb5551e","system_id":"levelo_inurba_marseille","lat":43.26555,"lon":5.37285,"is_reserved":false,"is_disabled":false,"rental_uris":{"android":"levelo://app?vid=77b7c322-7703-4fb8-9103-770e7bb5551e","ios":"levelo://app?vid=77b7c322-7703-4fb8-9103-770e7bb5551e"},"vehicle_type_id":"4","last_reported":1740831359,"current_range_meters":8000,"station_id":"ce4bhg12rcd13ifvqf70","pricing_plan_id":"cebpf4jnsgd1na2vs0mg"},{"bike_id":"bb113d46-ee53-44da-bdcc-afcf6081c369","system_id":"levelo_inurba_marseille","lat":43.27912,"lon":5.39567,"is_reserved":false,"is_disabled":false,"rental_uris":{"android":"levelo://app?vid=bb113d46-ee53-44da-bdcc-afcf6081c369","ios":"levelo://app?vid=bb113d46-ee53-44da-bdcc-afcf6081c369"},"vehicle_type_id":"4","last_reported":1740831359,"current_range_meters":8400,"station_id":"ce4bhf92rcd13ifvqf40","pricing_plan_id":"cebpf4jnsgd1na2vs0mg"},{"bike_id":"749fee80-dfaa-43de-aa58-d21bbf5e0792","system_id":"levelo_inurba_marseille","lat":43.23184,"lon":5.39993,"is_reserved":false,"is_disabled":false,"rental_uris":{"android":"levelo://app?vid=749fee80-dfaa-43de-aa58-d21bbf5e0792","ios":"levelo://app?vid=749fee80-dfaa-43de-aa58-d21bbf5e0792"},"vehicle_type_id":"4","last_reported":1740831359,"current_range_meters":8400,"station_id":"ce4bhn12rcd13ifvqgqg","pricing_plan_id":"cebpf4jnsgd1na2vs0mg"},{"bike_id":"a0b4d9f1-d5f9-4f90-a46f-d6395b493a8e","system_id":"levelo_inurba_marseille","lat":43.30324,"lon":5.40438,"is_reserved":false,"is_disabled":false,"rental_uris":{"android":"levelo://app?vid=a0b4d9f1-d5f9-4f90-a46f-d6395b493a8e","ios":"levelo://app?vid=a0b4d9f1-d5f9-4f90-a46f-d6395b493a8e"},"vehicle_type_id":"4","last_reported":1740831359,"current_range_meters":8400,"station_id":"ce4bh012rcd13ifvqd10","pricing_plan_id":"cebpf4jnsgd1na2vs0mg"},{"bike_id":"52cf7821-da1e-494c-a5b9-17f0d0b017f9","system_id":"levelo_inurba_marseille","lat":43.30159,"lon":5.38086,"is_reserved":false,"is_disabled":false,"rental_uris":{"android":"levelo://app?vid=52cf7821-da1e-494c-a5b9-17f0d0b017f9","ios":"levelo://app?vid=52cf7821-da1e-494c-a5b9-17f0d0b017f9"},"vehicle_type_id":"4","last_reported":1740831359,"current_range_meters":8400,"station_id":"ce4bgjp2rcd13ifvqbh0","pricing_plan_id":"cebpf4jnsgd1na2vs0mg"},{"bike_id":"35a4782e-5d2e-4fb8-8175-5ce018572fa7","system_id":"levelo_inurba_marseille","lat":43.30053,"lon":5.37723,"is_reserved":false,"is_disabled":false,"rental_uris":{"android":"levelo://app?vid=35a4782e-5d2e-4fb8-8175-5ce018572fa7","ios":"levelo://app?vid=35a4782e-5d2e-4fb8-8175-5ce018572fa7"},"vehicle_type_id":"4","last_reported":1740831359,"current_range_meters":8400,"station_id":"","pricing_plan_id":"cebpf4jnsgd1na2vs0mg"},{"bike_id":"a5fd71ea-4807-4e2d-a716-448c8cd70326","system_id":"levelo_inurba_marseille","lat":43.265542,"lon":5.372837,"is_reserved":false,"is_disabled":true,"rental_uris":{"android":"levelo://app?vid=a5fd71ea-4807-4e2d-a716-448c8cd70326","ios":"levelo://app?vid=a5fd71ea-4807-4e2d-a716-448c8cd70326"},"vehicle_type_id":"4","last_reported":1740831359,"current_range_meters":8400,"station_id":"ce4bhg12rcd13ifvqf70","pricing_plan_id":"cebpf4jnsgd1na2vs0mg"},{"bike_id":"87b985b0-b21a-457b-876e-995bf2ff8f5e","system_id":"levelo_inurba_marseille","lat":43.32103,"lon":5.36773,"is_reserved":false,"is_disabled":false,"rental_uris":{"android":"levelo://app?vid=87b985b0-b21a-457b-876e-995bf2ff8f5e","ios":"levelo://app?vid=87b985b0-b21a-457b-876e-995bf2ff8f5e"},"vehicle_type_id":"4","last_reported":1740831359,"current_range_meters":8400,"station_id":"ce4bhrh2rcd13ifvqhug","pricing_plan_id":"cebpf4jnsgd1na2vs0mg"},{"bike_id":"1ca99755-49f9-43e3-bafb-4e2fd2f86821","system_id":"levelo_inurba_marseille","lat":43.28994,"lon":5.37835,"is_reserved":false,"is_disabled":false,"rental_uris":{"android":"levelo://app?vid=1ca99755-49f9-43e3-bafb-4e2fd2f86821","ios":"levelo://app?vid=1ca99755-49f9-43e3-bafb-4e2fd2f86821"},"vehicle_type_id":"4","last_reported":1740831359,"current_range_meters":8400,"station_id":"ce4bh9p2rcd13ifvqed0","pricing_plan_id":"cebpf4jnsgd1na2vs0mg"},{"bike_id":"1ef83ca4-2f4d-464d-9fb6-924b48a09432","system_id":"levelo_inurba_marseille","lat":43.29451,"lon":5.39771,"is_reserved":false,"is_disabled":true,"rental_uris":{"android":"levelo://app?vid=1ef83ca4-2f4d-464d-9fb6-924b48a09432","ios":"levelo://app?vid=1ef83ca4-2f4d-464d-9fb6-924b48a09432"},"vehicle_type_id":"4","last_reported":1740831359,"current_range_meters":8800,"station_id":"ce4bh3h2rcd13ifvqdo0","pricing_plan_id":"cebpf4jnsgd1na2vs0mg"},{"bike_id":"bd4d047f-c101-4bc6-bd96-59ee035f5a00","system_id":"levelo_inurba_marseille","lat":43.28739,"lon":5.38906,"is_reserved":false,"is_disabled":false,"rental_uris":{"android":"levelo://app?vid=bd4d047f-c101-4bc6-bd96-59ee035f5a00","ios":"levelo://app?vid=bd4d047f-c101-4bc6-bd96-59ee035f5a00"},"vehicle_type_id":"4","last_reported":1740831359,"current_range_meters":8800,"station_id":"","pricing_plan_id":"cebpf4jnsgd1na2vs0mg"},{"bike_id":"257c4849-dc72-4ebc-b295-ab798a49160b","system_id":"levelo_inurba_marseille","lat":43.26174,"lon":5.38063,"is_reserved":false,"is_disabled":false,"rental_uris":{"android":"levelo://app?vid=257c4849-dc72-4ebc-b295-ab798a49160b","ios":"levelo://app?vid=257c4849-dc72-4ebc-b295-ab798a49160b"},"vehicle_type_id":"4","last_reported":1740831359,"current_range_meters":8800,"station_id":"","pricing_plan_id":"cebpf4jnsgd1na2vs0mg"},{"bike_id":"20b99df9-03ab-4841-80fa-c0d486f288be","system_id":"levelo_inurba_marseille","lat":43.23211,"lon":5.35546,"is_reserved":false,"is_disabled":false,"rental_uris":{"android":"levelo://app?vid=20b99df9-03ab-4841-80fa-c0d486f288be","ios":"levelo://app?vid=20b99df9-03ab-4841-80fa-c0d486f288be"},"vehicle_type_id":"4","last_reported":1740831359,"current_range_meters":8800,"station_id":"ce4bhu92rcd13ifvqi70","pricing_plan_id":"cebpf4jnsgd1na2vs0mg"},{"bike_id":"4771ecb6-9ac2-4a09-9d85-af96ce7165c9","system_id":"levelo_inurba_marseille","lat":43.30643,"lon":5.40094,"is_reserved":false,"is_disabled":false,"rental_uris":{"android":"levelo://app?vid=4771ecb6-9ac2-4a09-9d85-af96ce7165c9","ios":"levelo://app?vid=4771ecb6-9ac2-4a09-9d85-af96ce7165c9"},"vehicle_type_id":"4","last_reported":1740831359,"current_range_meters":8800,"station_id":"ce4bh112rcd13ifvqda0","pricing_plan_id":"cebpf4jnsgd1na2vs0mg"},{"bike_id":"2f2014cd-a3cb-42fd-9d45-8c9bbd09611c","system_id":"levelo_inurba_marseille","lat":43.24393,"lon":5.37061,"is_reserved":false,"is_disabled":false,"rental_uris":{"android":"levelo://app?vid=2f2014cd-a3cb-42fd-9d45-8c9bbd09611c","ios":"levelo://app?vid=2f2014cd-a3cb-42fd-9d45-8c9bbd09611c"},"vehicle_type_id":"4","last_reported":1740831359,"current_range_meters":8800,"station_id":"ce4bhhh2rcd13ifvqfk0","pricing_plan_id":"cebpf4jnsgd1na2vs0mg"},{"bike_id":"3f5e4c77-943b-4a46-b257-614bf13afec4","system_id":"levelo_inurba_marseille","lat":43.24165,"lon":5.36416,"is_reserved":false,"is_disabled":false,"rental_uris":{"android":"levelo://app?vid=3f5e4c77-943b-4a46-b257-614bf13afec4","ios":"levelo://app?vid=3f5e4c77-943b-4a46-b257-614bf13afec4"},"vehicle_type_id":"4","last_reported":1740831359,"current_range_meters":8800,"station_id":"cpo36qri1sfpv3e86is0","pricing_plan_id":"cebpf4jnsgd1na2vs0mg"},{"bike_id":"fa32e183-306a-47e5-ad8c-fff869084beb","system_id":"levelo_inurba_marseille","lat":43.29617,"lon":5.38111,"is_reserved":false,"is_disabled":false,"rental_uris":{"android":"levelo://app?vid=fa32e183-306a-47e5-ad8c-fff869084beb","ios":"levelo://app?vid=fa32e183-306a-47e5-ad8c-fff869084beb"},"vehicle_type_id":"4","last_reported":1740831359,"current_range_meters":8800,"station_id":"ce4bgl12rcd13ifvqbo0","pricing_plan_id":"cebpf4jnsgd1na2vs0mg"},{"bike_id":"1e90af25-4e98-4932-bc55-e4f702068827","system_id":"levelo_inurba_marseille","lat":43.31726,"lon":5.42389,"is_reserved":false,"is_disabled":false,"rental_uris":{"android":"levelo://app?vid=1e90af25-4e98-4932-bc55-e4f702068827","ios":"levelo://app?vid=1e90af25-4e98-4932-bc55-e4f702068827"},"vehicle_type_id":"4","last_reported":1740831359,"current_range_meters":9200,"station_id":"ce4bhp92rcd13ifvqhbg","pricing_plan_id":"cebpf4jnsgd1na2vs0mg"},{"bike_id":"2e5b1c00-cc3f-4398-9d7c-2f6eede7d980","system_id":"levelo_inurba_marseille","lat":43.30143,"lon":5.39875,"is_reserved":false,"is_disabled":false,"rental_uris":{"android":"levelo://app?vid=2e5b1c00-cc3f-4398-9d7c-2f6eede7d980","ios":"levelo://app?vid=2e5b1c00-cc3f-4398-9d7c-2f6eede7d980"},"vehicle_type_id":"4","last_reported":1740831359,"current_range_meters":8800,"station_id":"ce4bh0h2rcd13ifvqd40","pricing_plan_id":"cebpf4jnsgd1na2vs0mg"},{"bike_id":"31a4ae8f-5111-408f-85c5-2ee40c683dd2","system_id":"levelo_inurba_marseille","lat":43.30652,"lon":5.40097,"is_reserved":false,"is_disabled":false,"rental_uris":{"android":"levelo://app?vid=31a4ae8f-5111-408f-85c5-2ee40c683dd2","ios":"levelo://app?vid=31a4ae8f-5111-408f-85c5-2ee40c683dd2"},"vehicle_type_id":"4","last_reported":1740831359,"current_range_meters":8800,"station_id":"ce4bh112rcd13ifvqda0","pricing_plan_id":"cebpf4jnsgd1na2vs0mg"},{"bike_id":"a25a4bca-1a72-419f-af06-cf47c412ca14","system_id":"levelo_inurba_marseille","lat":43.30799,"lon":5.43526,"is_reserved":false,"is_disabled":false,"rental_uris":{"android":"levelo://app?vid=a25a4bca-1a72-419f-af06-cf47c412ca14","ios":"levelo://app?vid=a25a4bca-1a72-419f-af06-cf47c412ca14"},"vehicle_type_id":"4","last_reported":1740831359,"current_range_meters":9200,"station_id":"ce4bhph2rcd13ifvqheg","pricing_plan_id":"cebpf4jnsgd1na2vs0mg"},{"bike_id":"f7888e25-446f-4da8-96e6-65d5daad9223","system_id":"levelo_inurba_marseille","lat":43.28421,"lon":5.34989,"is_reserved":false,"is_disabled":false,"rental_uris":{"android":"levelo://app?vid=f7888e25-446f-4da8-96e6-65d5daad9223","ios":"levelo://app?vid=f7888e25-446f-4da8-96e6-65d5daad9223"},"vehicle_type_id":"4","last_reported":1740831359,"current_range_meters":9200,"station_id":"ce4bhbh2rcd13ifvqepg","pricing_plan_id":"cebpf4jnsgd1na2vs0mg"},{"bike_id":"bb641393-ab1a-49cf-943a-f93621ac3308","system_id":"levelo_inurba_marseille","lat":43.30471,"lon":5.3791,"is_reserved":false,"is_disabled":false,"rental_uris":{"android":"levelo://app?vid=bb641393-ab1a-49cf-943a-f93621ac3308","ios":"levelo://app?vid=bb641393-ab1a-49cf-943a-f93621ac3308"},"vehicle_type_id":"4","last_reported":1740831359,"current_range_meters":9200,"station_id":"ce4bgup2rcd13ifvqcn0","pricing_plan_id":"cebpf4jnsgd1na2vs0mg"},{"bike_id":"38e4208e-f256-4294-9ec9-809b58394803","system_id":"levelo_inurba_marseille","lat":43.31348,"lon":5.39706,"is_reserved":false,"is_disabled":false,"rental_uris":{"android":"levelo://app?vid=38e4208e-f256-4294-9ec9-809b58394803","ios":"levelo://app?vid=38e4208e-f256-4294-9ec9-809b58394803"},"vehicle_type_id":"4","last_reported":1740831359,"current_range_meters":9600,"station_id":"ce4bgvp2rcd13ifvqcu0","pricing_plan_id":"cebpf4jnsgd1na2vs0mg"},{"bike_id":"f9388811-58f6-490f-9417-8dcd21feeb24","system_id":"levelo_inurba_marseille","lat":43.27994,"lon":5.40019,"is_reserved":false,"is_disabled":false,"rental_uris":{"android":"levelo://app?vid=f9388811-58f6-490f-9417-8dcd21feeb24","ios":"levelo://app?vid=f9388811-58f6-490f-9417-8dcd21feeb24"},"vehicle_type_id":"4","last_reported":1740831359,"current_range_meters":9600,"station_id":"ce4bho92rcd13ifvqh4g","pricing_plan_id":"cebpf4jnsgd1na2vs0mg"},{"bike_id":"364b209e-752e-45ea-b26c-06b2552c1833","system_id":"levelo_inurba_marseille","lat":43.23192,"lon":5.35549,"is_reserved":false,"is_disabled":false,"rental_uris":{"android":"levelo://app?vid=364b209e-752e-45ea-b26c-06b2552c1833","ios":"levelo://app?vid=364b209e-752e-45ea-b26c-06b2552c1833"},"vehicle_type_id":"4","last_reported":1740831359,"current_range_meters":9600,"station_id":"ce4bhu92rcd13ifvqi70","pricing_plan_id":"cebpf4jnsgd1na2vs0mg"},{"bike_id":"5ebfd1a0-c249-4c98-835d-9c17b0f393bf","system_id":"levelo_inurba_marseille","lat":43.30147,"lon":5.38091,"is_reserved":false,"is_disabled":false,"rental_uris":{"android":"levelo://app?vid=5ebfd1a0-c249-4c98-835d-9c17b0f393bf","ios":"levelo://app?vid=5ebfd1a0-c249-4c98-835d-9c17b0f393bf"},"vehicle_type_id":"4","last_reported":1740831359,"current_range_meters":9600,"station_id":"ce4bgjp2rcd13ifvqbh0","pricing_plan_id":"cebpf4jnsgd1na2vs0mg"},{"bike_id":"83b577d2-041a-4db7-ae5c-27899fd31d04","system_id":"levelo_inurba_marseille","lat":43.29526,"lon":5.37498,"is_reserved":false,"is_disabled":false,"rental_uris":{"android":"levelo://app?vid=83b577d2-041a-4db7-ae5c-27899fd31d04","ios":"levelo://app?vid=83b577d2-041a-4db7-ae5c-27899fd31d04"},"vehicle_type_id":"4","last_reported":1740831359,"current_range_meters":9600,"station_id":"ce4bgkp2rcd13ifvqbmg","pricing_plan_id":"cebpf4jnsgd1na2vs0mg"},{"bike_id":"49e9cdc7-76a5-4b66-ae2d-61c73beb73a8","system_id":"levelo_inurba_marseille","lat":43.24162,"lon":5.3641,"is_reserved":false,"is_disabled":false,"rental_uris":{"android":"levelo://app?vid=49e9cdc7-76a5-4b66-ae2d-61c73beb73a8","ios":"levelo://app?vid=49e9cdc7-76a5-4b66-ae2d-61c73beb73a8"},"vehicle_type_id":"4","last_reported":1740831359,"current_range_meters":9600,"station_id":"cpo36qri1sfpv3e86is0","pricing_plan_id":"cebpf4jnsgd1na2vs0mg"},{"bike_id":"593edb3c-7add-4a3d-9dbe-95cef549de0d","system_id":"levelo_inurba_marseille","lat":43.23063,"lon":5.35481,"is_reserved":false,"is_disabled":false,"rental_uris":{"android":"levelo://app?vid=593edb3c-7add-4a3d-9dbe-95cef549de0d","ios":"levelo://app?vid=593edb3c-7add-4a3d-9dbe-95cef549de0d"},"vehicle_type_id":"4","last_reported":1740831359,"current_range_meters":9600,"station_id":"cpo3342slgdg3j2ifvpg","pricing_plan_id":"cebpf4jnsgd1na2vs0mg"},{"bike_id":"f7e969b9-30da-4a12-9fbc-e6e05e9966aa","system_id":"levelo_inurba_marseille","lat":43.26199,"lon":5.37467,"is_reserved":false,"is_disabled":false,"rental_uris":{"android":"levelo://app?vid=f7e969b9-30da-4a12-9fbc-e6e05e9966aa","ios":"levelo://app?vid=f7e969b9-30da-4a12-9fbc-e6e05e9966aa"},"vehicle_type_id":"4","last_reported":1740831359,"current_range_meters":10000,"station_id":"ce4bhgp2rcd13ifvqfc0","pricing_plan_id":"cebpf4jnsgd1na2vs0mg"},{"bike_id":"0ea40d37-7418-467a-b260-a4b3d10e83f5","system_id":"levelo_inurba_marseille","lat":43.29072,"lon":5.37163,"is_reserved":false,"is_disabled":false,"rental_uris":{"android":"levelo://app?vid=0ea40d37-7418-467a-b260-a4b3d10e83f5","ios":"levelo://app?vid=0ea40d37-7418-467a-b260-a4b3d10e83f5"},"vehicle_type_id":"4","last_reported":1740831359,"current_range_meters":10000,"station_id":"ce4bh5p2rcd13ifvqe4g","pricing_plan_id":"cebpf4jnsgd1na2vs0mg"},{"bike_id":"3990e16d-dd4f-475a-8cc5-c87b81a08a6c","system_id":"levelo_inurba_marseille","lat":43.30401,"lon":5.39728,"is_reserved":false,"is_disabled":false,"rental_uris":{"android":"levelo://app?vid=3990e16d-dd4f-475a-8cc5-c87b81a08a6c","ios":"levelo://app?vid=3990e16d-dd4f-475a-8cc5-c87b81a08a6c"},"vehicle_type_id":"4","last_reported":1740831359,"current_range_meters":10000,"station_id":"ce4bh092rcd13ifvqd20","pricing_plan_id":"cebpf4jnsgd1na2vs0mg"},{"bike_id":"bddf37d4-a2ae-4c74-bcad-602e7e9ee614","system_id":"levelo_inurba_marseille","lat":43.24682,"lon":5.38142,"is_reserved":false,"is_disabled":false,"rental_uris":{"android":"levelo://app?vid=bddf37d4-a2ae-4c74-bcad-602e7e9ee614","ios":"levelo://app?vid=bddf37d4-a2ae-4c74-bcad-602e7e9ee614"},"vehicle_type_id":"4","last_reported":1740831359,"current_range_meters":10000,"station_id":"ce4bhih2rcd13ifvqfr0","pricing_plan_id":"cebpf4jnsgd1na2vs0mg"},{"bike_id":"60d4e3af-a938-45a6-a89b-d7fe9130f2cc","system_id":"levelo_inurba_marseille","lat":43.24172,"lon":5.39714,"is_reserved":false,"is_disabled":false,"rental_uris":{"android":"levelo://app?vid=60d4e3af-a938-45a6-a89b-d7fe9130f2cc","ios":"levelo://app?vid=60d4e3af-a938-45a6-a89b-d7fe9130f2cc"},"vehicle_type_id":"4","last_reported":1740831359,"current_range_meters":10000,"station_id":"ce4bhn12rcd13ifvqgpg","pricing_plan_id":"cebpf4jnsgd1na2vs0mg"},{"bike_id":"05012d31-b3d4-41c6-8f51-6e9634844bb6","system_id":"levelo_inurba_marseille","lat":43.243927,"lon":5.37059,"is_reserved":false,"is_disabled":false,"rental_uris":{"android":"levelo://app?vid=05012d31-b3d4-41c6-8f51-6e9634844bb6","ios":"levelo://app?vid=05012d31-b3d4-41c6-8f51-6e9634844bb6"},"vehicle_type_id":"4","last_reported":1740831359,"current_range_meters":14000,"station_id":"ce4bhg92rcd13ifvqf90","pricing_plan_id":"cebpf4jnsgd1na2vs0mg"},{"bike_id":"597c78d8-1097-48db-b3be-fafc8754eab9","system_id":"levelo_inurba_marseille","lat":43.24172,"lon":5.3637,"is_reserved":false,"is_disabled":false,"rental_uris":{"android":"levelo://app?vid=597c78d8-1097-48db-b3be-fafc8754eab9","ios":"levelo://app?vid=597c78d8-1097-48db-b3be-fafc8754eab9"},"vehicle_type_id":"4","last_reported":1740831359,"current_range_meters":10000,"station_id":"cpo36qri1sfpv3e86is0","pricing_plan_id":"cebpf4jnsgd1na2vs0mg"},{"bike_id":"c65e2549-0bd4-4200-87e8-04da94f3c3c4","system_id":"levelo_inurba_marseille","lat":43.2843,"lon":5.3499,"is_reserved":false,"is_disabled":false,"rental_uris":{"android":"levelo://app?vid=c65e2549-0bd4-4200-87e8-04da94f3c3c4","ios":"levelo://app?vid=c65e2549-0bd4-4200-87e8-04da94f3c3c4"},"vehicle_type_id":"4","last_reported":1740831359,"current_range_meters":10800,"station_id":"ce4bhbh2rcd13ifvqepg","pricing_plan_id":"cebpf4jnsgd1na2vs0mg"},{"bike_id":"525a8d9b-26c1-4a75-a7f9-bc7d0b5a7f45","system_id":"levelo_inurba_marseille","lat":43.29921,"lon":5.37475,"is_reserved":false,"is_disabled":false,"rental_uris":{"android":"levelo://app?vid=525a8d9b-26c1-4a75-a7f9-bc7d0b5a7f45","ios":"levelo://app?vid=525a8d9b-26c1-4a75-a7f9-bc7d0b5a7f45"},"vehicle_type_id":"4","last_reported":1740831359,"current_range_meters":10800,"station_id":"ce4bgjh2rcd13ifvqbg0","pricing_plan_id":"cebpf4jnsgd1na2vs0mg"},{"bike_id":"49dae6dc-fea0-4fb3-8e37-03ce1dbe2090","system_id":"levelo_inurba_marseille","lat":43.27209,"lon":5.39183,"is_reserved":false,"is_disabled":false,"rental_uris":{"android":"levelo://app?vid=49dae6dc-fea0-4fb3-8e37-03ce1dbe2090","ios":"levelo://app?vid=49dae6dc-fea0-4fb3-8e37-03ce1dbe2090"},"vehicle_type_id":"4","last_reported":1740831359,"current_range_meters":10800,"station_id":"ce4bhhp2rcd13ifvqfm0","pricing_plan_id":"cebpf4jnsgd1na2vs0mg"},{"bike_id":"b777b4cf-3a59-4bd6-bbe8-877c47f15172","system_id":"levelo_inurba_marseille","lat":43.29265,"lon":5.36855,"is_reserved":false,"is_disabled":false,"rental_uris":{"android":"levelo://app?vid=b777b4cf-3a59-4bd6-bbe8-877c47f15172","ios":"levelo://app?vid=b777b4cf-3a59-4bd6-bbe8-877c47f15172"},"vehicle_type_id":"4","last_reported":1740831359,"current_range_meters":10800,"station_id":"ce4bhbp2rcd13ifvqesg","pricing_plan_id":"cebpf4jnsgd1na2vs0mg"},{"bike_id":"a0f4785f-b6c3-496b-9268-b69bebe4b0b2","system_id":"levelo_inurba_marseille","lat":43.29735,"lon":5.37693,"is_reserved":false,"is_disabled":false,"rental_uris":{"android":"levelo://app?vid=a0f4785f-b6c3-496b-9268-b69bebe4b0b2","ios":"levelo://app?vid=a0f4785f-b6c3-496b-9268-b69bebe4b0b2"},"vehicle_type_id":"4","last_reported":1740831359,"current_range_meters":10800,"station_id":"ce4bgkh2rcd13ifvqbl0","pricing_plan_id":"cebpf4jnsgd1na2vs0mg"},{"bike_id":"5e40b48c-2c50-4736-885b-bdd6eb88dfe2","system_id":"levelo_inurba_marseille","lat":43.26202,"lon":5.37929,"is_reserved":false,"is_disabled":false,"rental_uris":{"android":"levelo://app?vid=5e40b48c-2c50-4736-885b-bdd6eb88dfe2","ios":"levelo://app?vid=5e40b48c-2c50-4736-885b-bdd6eb88dfe2"},"vehicle_type_id":"4","last_reported":1740831359,"current_range_meters":10800,"station_id":"ce4bhjp2rcd13ifvqg90","pricing_plan_id":"cebpf4jnsgd1na2vs0mg"},{"bike_id":"03aa3c9e-8994-44f4-92c0-8cedc04d3db2","system_id":"levelo_inurba_marseille","lat":43.28638,"lon":5.35082,"is_reserved":false,"is_disabled":false,"rental_uris":{"android":"levelo://app?vid=03aa3c9e-8994-44f4-92c0-8cedc04d3db2","ios":"levelo://app?vid=03aa3c9e-8994-44f4-92c0-8cedc04d3db2"},"vehicle_type_id":"4","last_reported":1740831359,"current_range_meters":11200,"station_id":"ce4bhch2rcd13ifvqeug","pricing_plan_id":"cebpf4jnsgd1na2vs0mg"},{"bike_id":"4bd4b995-1984-49fc-b229-218c3bec2a20","system_id":"levelo_inurba_marseille","lat":43.284207,"lon":5.349726,"is_reserved":false,"is_disabled":false,"rental_uris":{"android":"levelo://app?vid=4bd4b995-1984-49fc-b229-218c3bec2a20","ios":"levelo://app?vid=4bd4b995-1984-49fc-b229-218c3bec2a20"},"vehicle_type_id":"4","last_reported":1740831359,"current_range_meters":11200,"station_id":"ce4bhbh2rcd13ifvqepg","pricing_plan_id":"cebpf4jnsgd1na2vs0mg"},{"bike_id":"3ae43e61-e460-4942-a7d7-9a08b7b0118e","system_id":"levelo_inurba_marseille","lat":43.2483,"lon":5.37441,"is_reserved":false,"is_disabled":false,"rental_uris":{"android":"levelo://app?vid=3ae43e61-e460-4942-a7d7-9a08b7b0118e","ios":"levelo://app?vid=3ae43e61-e460-4942-a7d7-9a08b7b0118e"},"vehicle_type_id":"4","last_reported":1740831359,"current_range_meters":11200,"station_id":"ce4bhgh2rcd13ifvqfb0","pricing_plan_id":"cebpf4jnsgd1na2vs0mg"},{"bike_id":"2667b23c-67ae-471f-a157-93cd2283f666","system_id":"levelo_inurba_marseille","lat":43.29609,"lon":5.3811,"is_reserved":false,"is_disabled":false,"rental_uris":{"android":"levelo://app?vid=2667b23c-67ae-471f-a157-93cd2283f666","ios":"levelo://app?vid=2667b23c-67ae-471f-a157-93cd2283f666"},"vehicle_type_id":"4","last_reported":1740831359,"current_range_meters":11200,"station_id":"ce4bgl12rcd13ifvqbo0","pricing_plan_id":"cebpf4jnsgd1na2vs0mg"},{"bike_id":"87139ab5-bc15-44b7-9e7a-9043d7a28bff","system_id":"levelo_inurba_marseille","lat":43.285053,"lon":5.359844,"is_reserved":false,"is_disabled":false,"rental_uris":{"android":"levelo://app?vid=87139ab5-bc15-44b7-9e7a-9043d7a28bff","ios":"levelo://app?vid=87139ab5-bc15-44b7-9e7a-9043d7a28bff"},"vehicle_type_id":"4","last_reported":1740831359,"current_range_meters":9200,"station_id":"ce4bhah2rcd13ifvqei0","pricing_plan_id":"cebpf4jnsgd1na2vs0mg"},{"bike_id":"d8ce033e-f3a5-430d-b70d-26539a7235b3","system_id":"levelo_inurba_marseille","lat":43.3135,"lon":5.39694,"is_reserved":false,"is_disabled":false,"rental_uris":{"android":"levelo://app?vid=d8ce033e-f3a5-430d-b70d-26539a7235b3","ios":"levelo://app?vid=d8ce033e-f3a5-430d-b70d-26539a7235b3"},"vehicle_type_id":"4","last_reported":1740831359,"current_range_meters":11200,"station_id":"ce4bgvp2rcd13ifvqcu0","pricing_plan_id":"cebpf4jnsgd1na2vs0mg"},{"bike_id":"57deac86-739a-4bb6-bdf6-82f46c6e1f8b","system_id":"levelo_inurba_marseille","lat":43.29305,"lon":5.40164,"is_reserved":false,"is_disabled":false,"rental_uris":{"android":"levelo://app?vid=57deac86-739a-4bb6-bdf6-82f46c6e1f8b","ios":"levelo://app?vid=57deac86-739a-4bb6-bdf6-82f46c6e1f8b"},"vehicle_type_id":"4","last_reported":1740831359,"current_range_meters":11200,"station_id":"ce4bh312rcd13ifvqdk0","pricing_plan_id":"cebpf4jnsgd1na2vs0mg"},{"bike_id":"aec71658-17a5-4da9-b83a-a47667804bd5","system_id":"levelo_inurba_marseille","lat":43.28377,"lon":5.38632,"is_reserved":false,"is_disabled":false,"rental_uris":{"android":"levelo://app?vid=aec71658-17a5-4da9-b83a-a47667804bd5","ios":"levelo://app?vid=aec71658-17a5-4da9-b83a-a47667804bd5"},"vehicle_type_id":"4","last_reported":1740831359,"current_range_meters":16800,"station_id":"ce4bh492rcd13ifvqdvg","pricing_plan_id":"cebpf4jnsgd1na2vs0mg"},{"bike_id":"fe9be11b-eaf6-4a1d-8a81-ad93dbbe458b","system_id":"levelo_inurba_marseille","lat":43.29274,"lon":5.36834,"is_reserved":false,"is_disabled":false,"rental_uris":{"android":"levelo://app?vid=fe9be11b-eaf6-4a1d-8a81-ad93dbbe458b","ios":"levelo://app?vid=fe9be11b-eaf6-4a1d-8a81-ad93dbbe458b"},"vehicle_type_id":"4","last_reported":1740831359,"current_range_meters":11600,"station_id":"ce4bhbp2rcd13ifvqesg","pricing_plan_id":"cebpf4jnsgd1na2vs0mg"},{"bike_id":"61a72bc1-2d83-44c9-871f-2beb6d4073a7","system_id":"levelo_inurba_marseille","lat":43.30525,"lon":5.36697,"is_reserved":false,"is_disabled":false,"rental_uris":{"android":"levelo://app?vid=61a72bc1-2d83-44c9-871f-2beb6d4073a7","ios":"levelo://app?vid=61a72bc1-2d83-44c9-871f-2beb6d4073a7"},"vehicle_type_id":"4","last_reported":1740831359,"current_range_meters":11600,"station_id":"ce4bgrp2rcd13ifvqc9g","pricing_plan_id":"cebpf4jnsgd1na2vs0mg"},{"bike_id":"a47480e6-d90d-4164-b9f3-564d3036421f","system_id":"levelo_inurba_marseille","lat":43.30314,"lon":5.36911,"is_reserved":false,"is_disabled":false,"rental_uris":{"android":"levelo://app?vid=a47480e6-d90d-4164-b9f3-564d3036421f","ios":"levelo://app?vid=a47480e6-d90d-4164-b9f3-564d3036421f"},"vehicle_type_id":"4","last_reported":1740831359,"current_range_meters":12000,"station_id":"ce4bgqh2rcd13ifvqc5g","pricing_plan_id":"cebpf4jnsgd1na2vs0mg"},{"bike_id":"43e1e04c-280b-4d54-bbb9-c3921d8e975b","system_id":"levelo_inurba_marseille","lat":43.29279,"lon":5.36848,"is_reserved":false,"is_disabled":false,"rental_uris":{"android":"levelo://app?vid=43e1e04c-280b-4d54-bbb9-c3921d8e975b","ios":"levelo://app?vid=43e1e04c-280b-4d54-bbb9-c3921d8e975b"},"vehicle_type_id":"4","last_reported":1740831359,"current_range_meters":12000,"station_id":"ce4bhbp2rcd13ifvqesg","pricing_plan_id":"cebpf4jnsgd1na2vs0mg"},{"bike_id":"9f4deda5-76e4-48c2-b596-52dcf3f3bc23","system_id":"levelo_inurba_marseille","lat":43.29606,"lon":5.37718,"is_reserved":false,"is_disabled":false,"rental_uris":{"android":"levelo://app?vid=9f4deda5-76e4-48c2-b596-52dcf3f3bc23","ios":"levelo://app?vid=9f4deda5-76e4-48c2-b596-52dcf3f3bc23"},"vehicle_type_id":"4","last_reported":1740831359,"current_range_meters":12000,"station_id":"ce4bgi92rcd13ifvqb90","pricing_plan_id":"cebpf4jnsgd1na2vs0mg"},{"bike_id":"161d70e9-e213-4bf5-bde1-9c3d7296d89c","system_id":"levelo_inurba_marseille","lat":43.278326,"lon":5.392011,"is_reserved":false,"is_disabled":true,"rental_uris":{"android":"levelo://app?vid=161d70e9-e213-4bf5-bde1-9c3d7296d89c","ios":"levelo://app?vid=161d70e9-e213-4bf5-bde1-9c3d7296d89c"},"vehicle_type_id":"4","last_reported":1740831359,"current_range_meters":12000,"station_id":"ce4bhjp2rcd13ifvqga0","pricing_plan_id":"cebpf4jnsgd1na2vs0mg"},{"bike_id":"0203778c-d518-4745-a911-c7103087c75c","system_id":"levelo_inurba_marseille","lat":43.29975,"lon":5.38486,"is_reserved":false,"is_disabled":false,"rental_uris":{"android":"levelo://app?vid=0203778c-d518-4745-a911-c7103087c75c","ios":"levelo://app?vid=0203778c-d518-4745-a911-c7103087c75c"},"vehicle_type_id":"4","last_reported":1740831359,"current_range_meters":12000,"station_id":"ce4bgj92rcd13ifvqbd0","pricing_plan_id":"cebpf4jnsgd1na2vs0mg"},{"bike_id":"8bb33282-5a35-4582-9cde-e53a3dbdbcc5","system_id":"levelo_inurba_marseille","lat":43.244007,"lon":5.370561,"is_reserved":false,"is_disabled":false,"rental_uris":{"android":"levelo://app?vid=8bb33282-5a35-4582-9cde-e53a3dbdbcc5","ios":"levelo://app?vid=8bb33282-5a35-4582-9cde-e53a3dbdbcc5"},"vehicle_type_id":"4","last_reported":1740831359,"current_range_meters":12000,"station_id":"ce4bhhh2rcd13ifvqfk0","pricing_plan_id":"cebpf4jnsgd1na2vs0mg"},{"bike_id":"d7413954-b5d7-4971-a5e6-3c9f193a11ee","system_id":"levelo_inurba_marseille","lat":43.33597,"lon":5.40974,"is_reserved":false,"is_disabled":false,"rental_uris":{"android":"levelo://app?vid=d7413954-b5d7-4971-a5e6-3c9f193a11ee","ios":"levelo://app?vid=d7413954-b5d7-4971-a5e6-3c9f193a11ee"},"vehicle_type_id":"4","last_reported":1740831359,"current_range_meters":12000,"station_id":"","pricing_plan_id":"cebpf4jnsgd1na2vs0mg"},{"bike_id":"0693b9d6-4a9d-4e38-bfa2-80f934bcc2e3","system_id":"levelo_inurba_marseille","lat":43.24173,"lon":5.36398,"is_reserved":false,"is_disabled":false,"rental_uris":{"android":"levelo://app?vid=0693b9d6-4a9d-4e38-bfa2-80f934bcc2e3","ios":"levelo://app?vid=0693b9d6-4a9d-4e38-bfa2-80f934bcc2e3"},"vehicle_type_id":"4","last_reported":1740831359,"current_range_meters":12400,"station_id":"cpo36qri1sfpv3e86is0","pricing_plan_id":"cebpf4jnsgd1na2vs0mg"},{"bike_id":"c02d9f0e-be7c-4cde-a6b2-bc73970c8e1e","system_id":"levelo_inurba_marseille","lat":43.3128,"lon":5.40172,"is_reserved":false,"is_disabled":false,"rental_uris":{"android":"levelo://app?vid=c02d9f0e-be7c-4cde-a6b2-bc73970c8e1e","ios":"levelo://app?vid=c02d9f0e-be7c-4cde-a6b2-bc73970c8e1e"},"vehicle_type_id":"4","last_reported":1740831359,"current_range_meters":12400,"station_id":"ce4bh092rcd13ifvqd30","pricing_plan_id":"cebpf4jnsgd1na2vs0mg"},{"bike_id":"31c0e24b-42d8-4837-af8d-97c389878bc1","system_id":"levelo_inurba_marseille","lat":43.30414,"lon":5.41287,"is_reserved":false,"is_disabled":false,"rental_uris":{"android":"levelo://app?vid=31c0e24b-42d8-4837-af8d-97c389878bc1","ios":"levelo://app?vid=31c0e24b-42d8-4837-af8d-97c389878bc1"},"vehicle_type_id":"4","last_reported":1740831359,"current_range_meters":12400,"station_id":"ce4bhop2rcd13ifvqh8g","pricing_plan_id":"cebpf4jnsgd1na2vs0mg"},{"bike_id":"4015c440-7267-44b4-8be2-f4b87cb51aa9","system_id":"levelo_inurba_marseille","lat":43.2557,"lon":5.38221,"is_reserved":false,"is_disabled":false,"rental_uris":{"android":"levelo://app?vid=4015c440-7267-44b4-8be2-f4b87cb51aa9","ios":"levelo://app?vid=4015c440-7267-44b4-8be2-f4b87cb51aa9"},"vehicle_type_id":"4","last_reported":1740831359,"current_range_meters":12400,"station_id":"ce4bhih2rcd13ifvqfs0","pricing_plan_id":"cebpf4jnsgd1na2vs0mg"},{"bike_id":"45ee2923-7a06-45bd-b6d3-09cb229aaa2e","system_id":"levelo_inurba_marseille","lat":43.29009,"lon":5.38123,"is_reserved":false,"is_disabled":false,"rental_uris":{"android":"levelo://app?vid=45ee2923-7a06-45bd-b6d3-09cb229aaa2e","ios":"levelo://app?vid=45ee2923-7a06-45bd-b6d3-09cb229aaa2e"},"vehicle_type_id":"4","last_reported":1740831359,"current_range_meters":12400,"station_id":"ce4bh4p2rcd13ifvqe1g","pricing_plan_id":"cebpf4jnsgd1na2vs0mg"},{"bike_id":"f2140162-a9ca-4892-955d-d5eba5d2741e","system_id":"levelo_inurba_marseille","lat":43.27994,"lon":5.40009,"is_reserved":false,"is_disabled":false,"rental_uris":{"android":"levelo://app?vid=f2140162-a9ca-4892-955d-d5eba5d2741e","ios":"levelo://app?vid=f2140162-a9ca-4892-955d-d5eba5d2741e"},"vehicle_type_id":"4","last_reported":1740831359,"current_range_meters":12800,"station_id":"ce4bho92rcd13ifvqh4g","pricing_plan_id":"cebpf4jnsgd1na2vs0mg"},{"bike_id":"448318b9-98db-4143-87d2-dabd1ab9c33a","system_id":"levelo_inurba_marseille","lat":43.27839,"lon":5.39204,"is_reserved":false,"is_disabled":false,"rental_uris":{"android":"levelo://app?vid=448318b9-98db-4143-87d2-dabd1ab9c33a","ios":"levelo://app?vid=448318b9-98db-4143-87d2-dabd1ab9c33a"},"vehicle_type_id":"4","last_reported":1740831359,"current_range_meters":13600,"station_id":"ce4bhjp2rcd13ifvqga0","pricing_plan_id":"cebpf4jnsgd1na2vs0mg"},{"bike_id":"5a9df47d-6551-4b87-9367-371612b52570","system_id":"levelo_inurba_marseille","lat":43.2927,"lon":5.36843,"is_reserved":false,"is_disabled":false,"rental_uris":{"android":"levelo://app?vid=5a9df47d-6551-4b87-9367-371612b52570","ios":"levelo://app?vid=5a9df47d-6551-4b87-9367-371612b52570"},"vehicle_type_id":"4","last_reported":1740831359,"current_range_meters":13600,"station_id":"ce4bhbp2rcd13ifvqesg","pricing_plan_id":"cebpf4jnsgd1na2vs0mg"},{"bike_id":"24db149f-1618-42c4-af45-9cda7f46d94c","system_id":"levelo_inurba_marseille","lat":43.27081,"lon":5.42275,"is_reserved":false,"is_disabled":false,"rental_uris":{"android":"levelo://app?vid=24db149f-1618-42c4-af45-9cda7f46d94c","ios":"levelo://app?vid=24db149f-1618-42c4-af45-9cda7f46d94c"},"vehicle_type_id":"4","last_reported":1740831359,"current_range_meters":13600,"station_id":"ce4bhk92rcd13ifvqgb0","pricing_plan_id":"cebpf4jnsgd1na2vs0mg"},{"bike_id":"dce704e8-d235-4d63-a2e3-acccc657079e","system_id":"levelo_inurba_marseille","lat":43.23195,"lon":5.35541,"is_reserved":false,"is_disabled":false,"rental_uris":{"android":"levelo://app?vid=dce704e8-d235-4d63-a2e3-acccc657079e","ios":"levelo://app?vid=dce704e8-d235-4d63-a2e3-acccc657079e"},"vehicle_type_id":"4","last_reported":1740831359,"current_range_meters":13600,"station_id":"ce4bhu92rcd13ifvqi70","pricing_plan_id":"cebpf4jnsgd1na2vs0mg"},{"bike_id":"b67989ee-d469-488f-912d-1aedc6b162c3","system_id":"levelo_inurba_marseille","lat":43.232,"lon":5.39991,"is_reserved":false,"is_disabled":false,"rental_uris":{"android":"levelo://app?vid=b67989ee-d469-488f-912d-1aedc6b162c3","ios":"levelo://app?vid=b67989ee-d469-488f-912d-1aedc6b162c3"},"vehicle_type_id":"4","last_reported":1740831359,"current_range_meters":13600,"station_id":"ce4bhn12rcd13ifvqgqg","pricing_plan_id":"cebpf4jnsgd1na2vs0mg"},{"bike_id":"761546c5-be0c-4342-b24b-2df20a5a6b56","system_id":"levelo_inurba_marseille","lat":43.31759,"lon":5.39022,"is_reserved":false,"is_disabled":false,"rental_uris":{"android":"levelo://app?vid=761546c5-be0c-4342-b24b-2df20a5a6b56","ios":"levelo://app?vid=761546c5-be0c-4342-b24b-2df20a5a6b56"},"vehicle_type_id":"4","last_reported":1740831359,"current_range_meters":14000,"station_id":"ce4bhqp2rcd13ifvqhng","pricing_plan_id":"cebpf4jnsgd1na2vs0mg"},{"bike_id":"2b368b3d-d962-4c21-9c9d-5bc7c2351d31","system_id":"levelo_inurba_marseille","lat":43.31687,"lon":5.40465,"is_reserved":false,"is_disabled":false,"rental_uris":{"android":"levelo://app?vid=2b368b3d-d962-4c21-9c9d-5bc7c2351d31","ios":"levelo://app?vid=2b368b3d-d962-4c21-9c9d-5bc7c2351d31"},"vehicle_type_id":"4","last_reported":1740831359,"current_range_meters":14000,"station_id":"ce4bh012rcd13ifvqd00","pricing_plan_id":"cebpf4jnsgd1na2vs0mg"},{"bike_id":"e3ea0c82-575d-4f15-b57c-6eebd57f815a","system_id":"levelo_inurba_marseille","lat":43.27276,"lon":5.39092,"is_reserved":false,"is_disabled":true,"rental_uris":{"android":"levelo://app?vid=e3ea0c82-575d-4f15-b57c-6eebd57f815a","ios":"levelo://app?vid=e3ea0c82-575d-4f15-b57c-6eebd57f815a"},"vehicle_type_id":"4","last_reported":1740831359,"current_range_meters":14000,"station_id":"ce4bhgp2rcd13ifvqfe0","pricing_plan_id":"cebpf4jnsgd1na2vs0mg"},{"bike_id":"9e70006a-cdf2-4919-93a2-3c66955a3b59","system_id":"levelo_inurba_marseille","lat":43.32372,"lon":5.36788,"is_reserved":false,"is_disabled":false,"rental_uris":{"android":"levelo://app?vid=9e70006a-cdf2-4919-93a2-3c66955a3b59","ios":"levelo://app?vid=9e70006a-cdf2-4919-93a2-3c66955a3b59"},"vehicle_type_id":"4","last_reported":1740831359,"current_range_meters":14000,"station_id":"ce4bhsh2rcd13ifvqi2g","pricing_plan_id":"cebpf4jnsgd1na2vs0mg"},{"bike_id":"f5d3ac68-6969-41d5-bc29-93594324e7ab","system_id":"levelo_inurba_marseille","lat":43.29236,"lon":5.39562,"is_reserved":false,"is_disabled":false,"rental_uris":{"android":"levelo://app?vid=f5d3ac68-6969-41d5-bc29-93594324e7ab","ios":"levelo://app?vid=f5d3ac68-6969-41d5-bc29-93594324e7ab"},"vehicle_type_id":"4","last_reported":1740831359,"current_range_meters":14000,"station_id":"","pricing_plan_id":"cebpf4jnsgd1na2vs0mg"},{"bike_id":"ef03a3f5-7eb7-484e-a782-a578552c3412","system_id":"levelo_inurba_marseille","lat":43.302498,"lon":5.393464,"is_reserved":false,"is_disabled":false,"rental_uris":{"android":"levelo://app?vid=ef03a3f5-7eb7-484e-a782-a578552c3412","ios":"levelo://app?vid=ef03a3f5-7eb7-484e-a782-a578552c3412"},"vehicle_type_id":"4","last_reported":1740831359,"current_range_meters":14000,"station_id":"ce4bh0p2rcd13ifvqd70","pricing_plan_id":"cebpf4jnsgd1na2vs0mg"},{"bike_id":"3d326c83-df55-456d-a39d-f1c118f8a994","system_id":"levelo_inurba_marseille","lat":43.302472,"lon":5.400828,"is_reserved":false,"is_disabled":true,"rental_uris":{"android":"levelo://app?vid=3d326c83-df55-456d-a39d-f1c118f8a994","ios":"levelo://app?vid=3d326c83-df55-456d-a39d-f1c118f8a994"},"vehicle_type_id":"4","last_reported":1740831359,"current_range_meters":14000,"station_id":"ce4bgvh2rcd13ifvqcs0","pricing_plan_id":"cebpf4jnsgd1na2vs0mg"},{"bike_id":"65d3f959-ea2e-4ee1-bec2-cfc9552537cf","system_id":"levelo_inurba_marseille","lat":43.31116,"lon":5.37761,"is_reserved":false,"is_disabled":false,"rental_uris":{"android":"levelo://app?vid=65d3f959-ea2e-4ee1-bec2-cfc9552537cf","ios":"levelo://app?vid=65d3f959-ea2e-4ee1-bec2-cfc9552537cf"},"vehicle_type_id":"4","last_reported":1740831359,"current_range_meters":12000,"station_id":"ce4bgt92rcd13ifvqcg0","pricing_plan_id":"cebpf4jnsgd1na2vs0mg"},{"bike_id":"467403fd-6f15-4c74-82d9-a7abc162580e","system_id":"levelo_inurba_marseille","lat":43.28933,"lon":5.36639,"is_reserved":false,"is_disabled":false,"rental_uris":{"android":"levelo://app?vid=467403fd-6f15-4c74-82d9-a7abc162580e","ios":"levelo://app?vid=467403fd-6f15-4c74-82d9-a7abc162580e"},"vehicle_type_id":"4","last_reported":1740831359,"current_range_meters":14400,"station_id":"ce4bhap2rcd13ifvqek0","pricing_plan_id":"cebpf4jnsgd1na2vs0mg"},{"bike_id":"fb18759c-f3ca-4612-8704-baf08a44bab2","system_id":"levelo_inurba_marseille","lat":43.28435,"lon":5.3499,"is_reserved":false,"is_disabled":false,"rental_uris":{"android":"levelo://app?vid=fb18759c-f3ca-4612-8704-baf08a44bab2","ios":"levelo://app?vid=fb18759c-f3ca-4612-8704-baf08a44bab2"},"vehicle_type_id":"4","last_reported":1740831359,"current_range_meters":14400,"station_id":"ce4bhbh2rcd13ifvqepg","pricing_plan_id":"cebpf4jnsgd1na2vs0mg"},{"bike_id":"0944d872-e6bb-4bdf-b711-d4a83f36c5ec","system_id":"levelo_inurba_marseille","lat":43.31073,"lon":5.38352,"is_reserved":false,"is_disabled":false,"rental_uris":{"android":"levelo://app?vid=0944d872-e6bb-4bdf-b711-d4a83f36c5ec","ios":"levelo://app?vid=0944d872-e6bb-4bdf-b711-d4a83f36c5ec"},"vehicle_type_id":"4","last_reported":1740831359,"current_range_meters":14400,"station_id":"ce4bgv92rcd13ifvqcr0","pricing_plan_id":"cebpf4jnsgd1na2vs0mg"},{"bike_id":"8235333d-301f-40af-bcff-249a4ee0b3a0","system_id":"levelo_inurba_marseille","lat":43.29617,"lon":5.38098,"is_reserved":false,"is_disabled":false,"rental_uris":{"android":"levelo://app?vid=8235333d-301f-40af-bcff-249a4ee0b3a0","ios":"levelo://app?vid=8235333d-301f-40af-bcff-249a4ee0b3a0"},"vehicle_type_id":"4","last_reported":1740831359,"current_range_meters":14800,"station_id":"ce4bgl12rcd13ifvqbo0","pricing_plan_id":"cebpf4jnsgd1na2vs0mg"},{"bike_id":"f7bc7081-0b8f-4bad-a8c7-1cfce583294a","system_id":"levelo_inurba_marseille","lat":43.31356,"lon":5.39692,"is_reserved":false,"is_disabled":false,"rental_uris":{"android":"levelo://app?vid=f7bc7081-0b8f-4bad-a8c7-1cfce583294a","ios":"levelo://app?vid=f7bc7081-0b8f-4bad-a8c7-1cfce583294a"},"vehicle_type_id":"4","last_reported":1740831359,"current_range_meters":14800,"station_id":"ce4bgvp2rcd13ifvqcu0","pricing_plan_id":"cebpf4jnsgd1na2vs0mg"},{"bike_id":"08a2d3ad-f2dd-4493-8549-3d6141caf513","system_id":"levelo_inurba_marseille","lat":43.29311,"lon":5.37163,"is_reserved":false,"is_disabled":false,"rental_uris":{"android":"levelo://app?vid=08a2d3ad-f2dd-4493-8549-3d6141caf513","ios":"levelo://app?vid=08a2d3ad-f2dd-4493-8549-3d6141caf513"},"vehicle_type_id":"4","last_reported":1740831359,"current_range_meters":15200,"station_id":"ce4bgh92rcd13ifvqb40","pricing_plan_id":"cebpf4jnsgd1na2vs0mg"},{"bike_id":"60ef0ad3-3d22-4ab4-bc92-7f12f016aeef","system_id":"levelo_inurba_marseille","lat":43.31279,"lon":5.40166,"is_reserved":false,"is_disabled":false,"rental_uris":{"android":"levelo://app?vid=60ef0ad3-3d22-4ab4-bc92-7f12f016aeef","ios":"levelo://app?vid=60ef0ad3-3d22-4ab4-bc92-7f12f016aeef"},"vehicle_type_id":"4","last_reported":1740831359,"current_range_meters":15200,"station_id":"ce4bh092rcd13ifvqd30","pricing_plan_id":"cebpf4jnsgd1na2vs0mg"},{"bike_id":"a0568a2d-5744-4393-a769-f8a4199ff590","system_id":"levelo_inurba_marseille","lat":43.29316,"lon":5.37176,"is_reserved":false,"is_disabled":false,"rental_uris":{"android":"levelo://app?vid=a0568a2d-5744-4393-a769-f8a4199ff590","ios":"levelo://app?vid=a0568a2d-5744-4393-a769-f8a4199ff590"},"vehicle_type_id":"4","last_reported":1740831359,"current_range_meters":15200,"station_id":"ce4bgh92rcd13ifvqb40","pricing_plan_id":"cebpf4jnsgd1na2vs0mg"},{"bike_id":"9af7b3db-d51b-4b64-8620-760a3a639926","system_id":"levelo_inurba_marseille","lat":43.28859,"lon":5.39304,"is_reserved":false,"is_disabled":false,"rental_uris":{"android":"levelo://app?vid=9af7b3db-d51b-4b64-8620-760a3a639926","ios":"levelo://app?vid=9af7b3db-d51b-4b64-8620-760a3a639926"},"vehicle_type_id":"4","last_reported":1740831359,"current_range_meters":15200,"station_id":"ce4bh2p2rcd13ifvqdi0","pricing_plan_id":"cebpf4jnsgd1na2vs0mg"},{"bike_id":"126a2887-a8d7-41d4-9163-b42424ad4383","system_id":"levelo_inurba_marseille","lat":43.29977,"lon":5.38498,"is_reserved":false,"is_disabled":false,"rental_uris":{"android":"levelo://app?vid=126a2887-a8d7-41d4-9163-b42424ad4383","ios":"levelo://app?vid=126a2887-a8d7-41d4-9163-b42424ad4383"},"vehicle_type_id":"4","last_reported":1740831359,"current_range_meters":15200,"station_id":"ce4bgj92rcd13ifvqbd0","pricing_plan_id":"cebpf4jnsgd1na2vs0mg"},{"bike_id":"e0a413a7-bc6b-4647-8e86-c0926ac098ec","system_id":"levelo_inurba_marseille","lat":43.29252,"lon":5.36857,"is_reserved":false,"is_disabled":false,"rental_uris":{"android":"levelo://app?vid=e0a413a7-bc6b-4647-8e86-c0926ac098ec","ios":"levelo://app?vid=e0a413a7-bc6b-4647-8e86-c0926ac098ec"},"vehicle_type_id":"4","last_reported":1740831359,"current_range_meters":15200,"station_id":"ce4bhbp2rcd13ifvqesg","pricing_plan_id":"cebpf4jnsgd1na2vs0mg"},{"bike_id":"d876cf5d-2e50-4606-9f11-2ff62b9adc7b","system_id":"levelo_inurba_marseille","lat":43.23064,"lon":5.35489,"is_reserved":false,"is_disabled":false,"rental_uris":{"android":"levelo://app?vid=d876cf5d-2e50-4606-9f11-2ff62b9adc7b","ios":"levelo://app?vid=d876cf5d-2e50-4606-9f11-2ff62b9adc7b"},"vehicle_type_id":"4","last_reported":1740831359,"current_range_meters":15200,"station_id":"cpo3342slgdg3j2ifvpg","pricing_plan_id":"cebpf4jnsgd1na2vs0mg"},{"bike_id":"77cd5975-59ff-4178-92d8-e639e9a332a7","system_id":"levelo_inurba_marseille","lat":43.299823,"lon":5.36575,"is_reserved":false,"is_disabled":false,"rental_uris":{"android":"levelo://app?vid=77cd5975-59ff-4178-92d8-e639e9a332a7","ios":"levelo://app?vid=77cd5975-59ff-4178-92d8-e639e9a332a7"},"vehicle_type_id":"4","last_reported":1740831359,"current_range_meters":16000,"station_id":"ce4bgjh2rcd13ifvqbg0","pricing_plan_id":"cebpf4jnsgd1na2vs0mg"},{"bike_id":"0b59b9c1-ba87-4c20-8d7f-cddd7ccc8fa2","system_id":"levelo_inurba_marseille","lat":43.32368,"lon":5.38883,"is_reserved":false,"is_disabled":false,"rental_uris":{"android":"levelo://app?vid=0b59b9c1-ba87-4c20-8d7f-cddd7ccc8fa2","ios":"levelo://app?vid=0b59b9c1-ba87-4c20-8d7f-cddd7ccc8fa2"},"vehicle_type_id":"4","last_reported":1740831359,"current_range_meters":16000,"station_id":"ce4bhqp2rcd13ifvqhog","pricing_plan_id":"cebpf4jnsgd1na2vs0mg"},{"bike_id":"f4982309-5f3b-4415-94b1-3c0c89a0d672","system_id":"levelo_inurba_marseille","lat":43.26797,"lon":5.40655,"is_reserved":false,"is_disabled":false,"rental_uris":{"android":"levelo://app?vid=f4982309-5f3b-4415-94b1-3c0c89a0d672","ios":"levelo://app?vid=f4982309-5f3b-4415-94b1-3c0c89a0d672"},"vehicle_type_id":"4","last_reported":1740831359,"current_range_meters":16000,"station_id":"","pricing_plan_id":"cebpf4jnsgd1na2vs0mg"},{"bike_id":"e929fbf8-4f93-4934-820e-091c61544a54","system_id":"levelo_inurba_marseille","lat":43.29979,"lon":5.38479,"is_reserved":false,"is_disabled":false,"rental_uris":{"android":"levelo://app?vid=e929fbf8-4f93-4934-820e-091c61544a54","ios":"levelo://app?vid=e929fbf8-4f93-4934-820e-091c61544a54"},"vehicle_type_id":"4","last_reported":1740831359,"current_range_meters":14000,"station_id":"ce4bgj92rcd13ifvqbd0","pricing_plan_id":"cebpf4jnsgd1na2vs0mg"},{"bike_id":"586f9cab-7694-4e92-9dce-04bdf2edfa65","system_id":"levelo_inurba_marseille","lat":43.27321,"lon":5.39076,"is_reserved":false,"is_disabled":false,"rental_uris":{"android":"levelo://app?vid=586f9cab-7694-4e92-9dce-04bdf2edfa65","ios":"levelo://app?vid=586f9cab-7694-4e92-9dce-04bdf2edfa65"},"vehicle_type_id":"4","last_reported":1740831359,"current_range_meters":13600,"station_id":"ce4bhgp2rcd13ifvqfe0","pricing_plan_id":"cebpf4jnsgd1na2vs0mg"},{"bike_id":"218457ac-5064-4483-b256-7af7da02f0cd","system_id":"levelo_inurba_marseille","lat":43.2797,"lon":5.38722,"is_reserved":false,"is_disabled":true,"rental_uris":{"android":"levelo://app?vid=218457ac-5064-4483-b256-7af7da02f0cd","ios":"levelo://app?vid=218457ac-5064-4483-b256-7af7da02f0cd"},"vehicle_type_id":"4","last_reported":1740831359,"current_range_meters":16000,"station_id":"ce4bhg12rcd13ifvqf80","pricing_plan_id":"cebpf4jnsgd1na2vs0mg"},{"bike_id":"7506d091-f1bc-4e2c-a30b-2d702d04a8ee","system_id":"levelo_inurba_marseille","lat":43.295273,"lon":5.390392,"is_reserved":false,"is_disabled":false,"rental_uris":{"android":"levelo://app?vid=7506d091-f1bc-4e2c-a30b-2d702d04a8ee","ios":"levelo://app?vid=7506d091-f1bc-4e2c-a30b-2d702d04a8ee"},"vehicle_type_id":"4","last_reported":1740831359,"current_range_meters":16000,"station_id":"ce4bh3p2rcd13ifvqdp0","pricing_plan_id":"cebpf4jnsgd1na2vs0mg"},{"bike_id":"27d57ba8-cb2b-4da3-bcfc-1efd3956d0fa","system_id":"levelo_inurba_marseille","lat":43.29555,"lon":5.42278,"is_reserved":false,"is_disabled":false,"rental_uris":{"android":"levelo://app?vid=27d57ba8-cb2b-4da3-bcfc-1efd3956d0fa","ios":"levelo://app?vid=27d57ba8-cb2b-4da3-bcfc-1efd3956d0fa"},"vehicle_type_id":"4","last_reported":1740831359,"current_range_meters":16400,"station_id":"ce4bhph2rcd13ifvqhdg","pricing_plan_id":"cebpf4jnsgd1na2vs0mg"},{"bike_id":"97585fad-9490-4e57-b217-1b43f3a78e11","system_id":"levelo_inurba_marseille","lat":43.31085,"lon":5.42432,"is_reserved":false,"is_disabled":false,"rental_uris":{"android":"levelo://app?vid=97585fad-9490-4e57-b217-1b43f3a78e11","ios":"levelo://app?vid=97585fad-9490-4e57-b217-1b43f3a78e11"},"vehicle_type_id":"4","last_reported":1740831359,"current_range_meters":16400,"station_id":"ce4bhp92rcd13ifvqhag","pricing_plan_id":"cebpf4jnsgd1na2vs0mg"},{"bike_id":"75cacdd1-032d-44f3-80c0-7c98daff7c98","system_id":"levelo_inurba_marseille","lat":43.297829,"lon":5.363305,"is_reserved":false,"is_disabled":false,"rental_uris":{"android":"levelo://app?vid=75cacdd1-032d-44f3-80c0-7c98daff7c98","ios":"levelo://app?vid=75cacdd1-032d-44f3-80c0-7c98daff7c98"},"vehicle_type_id":"4","last_reported":1740831359,"current_range_meters":16400,"station_id":"ce4bgpp2rcd13ifvqc3g","pricing_plan_id":"cebpf4jnsgd1na2vs0mg"},{"bike_id":"f1317508-b318-42b3-b6cc-485d3729a439","system_id":"levelo_inurba_marseille","lat":43.26203,"lon":5.37925,"is_reserved":false,"is_disabled":true,"rental_uris":{"android":"levelo://app?vid=f1317508-b318-42b3-b6cc-485d3729a439","ios":"levelo://app?vid=f1317508-b318-42b3-b6cc-485d3729a439"},"vehicle_type_id":"4","last_reported":1740831359,"current_range_meters":16400,"station_id":"ce4bhjp2rcd13ifvqg90","pricing_plan_id":"cebpf4jnsgd1na2vs0mg"},{"bike_id":"20d46fcb-4529-4896-b225-392c7b6d1f52","system_id":"levelo_inurba_marseille","lat":43.29205,"lon":5.39333,"is_reserved":false,"is_disabled":true,"rental_uris":{"android":"levelo://app?vid=20d46fcb-4529-4896-b225-392c7b6d1f52","ios":"levelo://app?vid=20d46fcb-4529-4896-b225-392c7b6d1f52"},"vehicle_type_id":"4","last_reported":1740831359,"current_range_meters":16400,"station_id":"ce4bh192rcd13ifvqdd0","pricing_plan_id":"cebpf4jnsgd1na2vs0mg"},{"bike_id":"eb353dc0-7506-4174-935e-315256184a7f","system_id":"levelo_inurba_marseille","lat":43.23197,"lon":5.35579,"is_reserved":false,"is_disabled":false,"rental_uris":{"android":"levelo://app?vid=eb353dc0-7506-4174-935e-315256184a7f","ios":"levelo://app?vid=eb353dc0-7506-4174-935e-315256184a7f"},"vehicle_type_id":"4","last_reported":1740831359,"current_range_meters":16400,"station_id":"ce4bhu92rcd13ifvqi70","pricing_plan_id":"cebpf4jnsgd1na2vs0mg"},{"bike_id":"d1586462-d979-4b68-a7d1-ef272cc2372c","system_id":"levelo_inurba_marseille","lat":43.30104,"lon":5.39059,"is_reserved":false,"is_disabled":false,"rental_uris":{"android":"levelo://app?vid=d1586462-d979-4b68-a7d1-ef272cc2372c","ios":"levelo://app?vid=d1586462-d979-4b68-a7d1-ef272cc2372c"},"vehicle_type_id":"4","last_reported":1740831359,"current_range_meters":16400,"station_id":"ce4bh192rcd13ifvqdb0","pricing_plan_id":"cebpf4jnsgd1na2vs0mg"},{"bike_id":"3eea0f89-b137-40d9-a4fd-d1c6a11e78cf","system_id":"levelo_inurba_marseille","lat":43.25593,"lon":5.38228,"is_reserved":false,"is_disabled":false,"rental_uris":{"android":"levelo://app?vid=3eea0f89-b137-40d9-a4fd-d1c6a11e78cf","ios":"levelo://app?vid=3eea0f89-b137-40d9-a4fd-d1c6a11e78cf"},"vehicle_type_id":"4","last_reported":1740831359,"current_range_meters":16400,"station_id":"ce4bhih2rcd13ifvqfs0","pricing_plan_id":"cebpf4jnsgd1na2vs0mg"},{"bike_id":"947cfbd8-f780-40ed-b425-ca551a5b9765","system_id":"levelo_inurba_marseille","lat":43.3016,"lon":5.38086,"is_reserved":false,"is_disabled":false,"rental_uris":{"android":"levelo://app?vid=947cfbd8-f780-40ed-b425-ca551a5b9765","ios":"levelo://app?vid=947cfbd8-f780-40ed-b425-ca551a5b9765"},"vehicle_type_id":"4","last_reported":1740831359,"current_range_meters":16400,"station_id":"ce4bgjp2rcd13ifvqbh0","pricing_plan_id":"cebpf4jnsgd1na2vs0mg"},{"bike_id":"56fd48ea-c1d2-4f38-bf8e-16eb3f61656f","system_id":"levelo_inurba_marseille","lat":43.2321,"lon":5.3556,"is_reserved":false,"is_disabled":false,"rental_uris":{"android":"levelo://app?vid=56fd48ea-c1d2-4f38-bf8e-16eb3f61656f","ios":"levelo://app?vid=56fd48ea-c1d2-4f38-bf8e-16eb3f61656f"},"vehicle_type_id":"4","last_reported":1740831359,"current_range_meters":16800,"station_id":"ce4bhu92rcd13ifvqi70","pricing_plan_id":"cebpf4jnsgd1na2vs0mg"},{"bike_id":"c3952970-2e91-49a3-996e-56166eb466ce","system_id":"levelo_inurba_marseille","lat":43.30155,"lon":5.37421,"is_reserved":false,"is_disabled":false,"rental_uris":{"android":"levelo://app?vid=c3952970-2e91-49a3-996e-56166eb466ce","ios":"levelo://app?vid=c3952970-2e91-49a3-996e-56166eb466ce"},"vehicle_type_id":"4","last_reported":1740831359,"current_range_meters":17600,"station_id":"ce4bgs92rcd13ifvqcc0","pricing_plan_id":"cebpf4jnsgd1na2vs0mg"},{"bike_id":"b6b4c9df-0093-4c48-82f9-d5e0e2b312fa","system_id":"levelo_inurba_marseille","lat":43.30151,"lon":5.38074,"is_reserved":false,"is_disabled":false,"rental_uris":{"android":"levelo://app?vid=b6b4c9df-0093-4c48-82f9-d5e0e2b312fa","ios":"levelo://app?vid=b6b4c9df-0093-4c48-82f9-d5e0e2b312fa"},"vehicle_type_id":"4","last_reported":1740831359,"current_range_meters":16800,"station_id":"ce4bgjp2rcd13ifvqbh0","pricing_plan_id":"cebpf4jnsgd1na2vs0mg"},{"bike_id":"219c3b0b-00a7-466e-b12d-57038ccef4f4","system_id":"levelo_inurba_marseille","lat":43.26211,"lon":5.3744,"is_reserved":false,"is_disabled":false,"rental_uris":{"android":"levelo://app?vid=219c3b0b-00a7-466e-b12d-57038ccef4f4","ios":"levelo://app?vid=219c3b0b-00a7-466e-b12d-57038ccef4f4"},"vehicle_type_id":"4","last_reported":1740831359,"current_range_meters":16800,"station_id":"ce4bhgp2rcd13ifvqfc0","pricing_plan_id":"cebpf4jnsgd1na2vs0mg"},{"bike_id":"006a54dd-4a99-4516-8be4-f9eb0014e887","system_id":"levelo_inurba_marseille","lat":43.28619,"lon":5.35106,"is_reserved":false,"is_disabled":false,"rental_uris":{"android":"levelo://app?vid=006a54dd-4a99-4516-8be4-f9eb0014e887","ios":"levelo://app?vid=006a54dd-4a99-4516-8be4-f9eb0014e887"},"vehicle_type_id":"4","last_reported":1740831359,"current_range_meters":16800,"station_id":"ce4bhch2rcd13ifvqeug","pricing_plan_id":"cebpf4jnsgd1na2vs0mg"},{"bike_id":"2c759b50-0dfa-4a6b-b408-41f033d005e6","system_id":"levelo_inurba_marseille","lat":43.31712,"lon":5.37743,"is_reserved":false,"is_disabled":false,"rental_uris":{"android":"levelo://app?vid=2c759b50-0dfa-4a6b-b408-41f033d005e6","ios":"levelo://app?vid=2c759b50-0dfa-4a6b-b408-41f033d005e6"},"vehicle_type_id":"4","last_reported":1740831359,"current_range_meters":16800,"station_id":"ce4bgth2rcd13ifvqch0","pricing_plan_id":"cebpf4jnsgd1na2vs0mg"},{"bike_id":"c78d6362-c843-4d1f-b1fb-9bfca5efb0ab","system_id":"levelo_inurba_marseille","lat":43.29274,"lon":5.36839,"is_reserved":false,"is_disabled":false,"rental_uris":{"android":"levelo://app?vid=c78d6362-c843-4d1f-b1fb-9bfca5efb0ab","ios":"levelo://app?vid=c78d6362-c843-4d1f-b1fb-9bfca5efb0ab"},"vehicle_type_id":"4","last_reported":1740831359,"current_range_meters":16800,"station_id":"ce4bhbp2rcd13ifvqesg","pricing_plan_id":"cebpf4jnsgd1na2vs0mg"},{"bike_id":"97660e11-152b-48a1-9b57-8ac6abeca229","system_id":"levelo_inurba_marseille","lat":43.298969,"lon":5.43667,"is_reserved":false,"is_disabled":false,"rental_uris":{"android":"levelo://app?vid=97660e11-152b-48a1-9b57-8ac6abeca229","ios":"levelo://app?vid=97660e11-152b-48a1-9b57-8ac6abeca229"},"vehicle_type_id":"4","last_reported":1740831359,"current_range_meters":17200,"station_id":"ce4bhpp2rcd13ifvqhfg","pricing_plan_id":"cebpf4jnsgd1na2vs0mg"},{"bike_id":"ae07f147-26ae-41a1-8aee-2851f6dcc9df","system_id":"levelo_inurba_marseille","lat":43.28105,"lon":5.39834,"is_reserved":false,"is_disabled":false,"rental_uris":{"android":"levelo://app?vid=ae07f147-26ae-41a1-8aee-2851f6dcc9df","ios":"levelo://app?vid=ae07f147-26ae-41a1-8aee-2851f6dcc9df"},"vehicle_type_id":"4","last_reported":1740831359,"current_range_meters":17200,"station_id":"","pricing_plan_id":"cebpf4jnsgd1na2vs0mg"},{"bike_id":"cfb78254-0f82-46b0-9a2c-ac71fa0123cd","system_id":"levelo_inurba_marseille","lat":43.29302,"lon":5.37439,"is_reserved":false,"is_disabled":false,"rental_uris":{"android":"levelo://app?vid=cfb78254-0f82-46b0-9a2c-ac71fa0123cd","ios":"levelo://app?vid=cfb78254-0f82-46b0-9a2c-ac71fa0123cd"},"vehicle_type_id":"4","last_reported":1740831359,"current_range_meters":17200,"station_id":"ce4bgi12rcd13ifvqb70","pricing_plan_id":"cebpf4jnsgd1na2vs0mg"},{"bike_id":"a197c053-f495-4388-bb09-62f1a25a335b","system_id":"levelo_inurba_marseille","lat":43.2307,"lon":5.35502,"is_reserved":false,"is_disabled":false,"rental_uris":{"android":"levelo://app?vid=a197c053-f495-4388-bb09-62f1a25a335b","ios":"levelo://app?vid=a197c053-f495-4388-bb09-62f1a25a335b"},"vehicle_type_id":"4","last_reported":1740831359,"current_range_meters":17200,"station_id":"cpo3342slgdg3j2ifvpg","pricing_plan_id":"cebpf4jnsgd1na2vs0mg"},{"bike_id":"351063c0-6813-4169-9437-dca02fe04a30","system_id":"levelo_inurba_marseille","lat":43.32362,"lon":5.38881,"is_reserved":false,"is_disabled":false,"rental_uris":{"android":"levelo://app?vid=351063c0-6813-4169-9437-dca02fe04a30","ios":"levelo://app?vid=351063c0-6813-4169-9437-dca02fe04a30"},"vehicle_type_id":"4","last_reported":1740831359,"current_range_meters":17200,"station_id":"ce4bhqp2rcd13ifvqhog","pricing_plan_id":"cebpf4jnsgd1na2vs0mg"},{"bike_id":"6a01dde0-7c36-4ea3-b193-84ede9ad8399","system_id":"levelo_inurba_marseille","lat":43.30418,"lon":5.41286,"is_reserved":false,"is_disabled":false,"rental_uris":{"android":"levelo://app?vid=6a01dde0-7c36-4ea3-b193-84ede9ad8399","ios":"levelo://app?vid=6a01dde0-7c36-4ea3-b193-84ede9ad8399"},"vehicle_type_id":"4","last_reported":1740831359,"current_range_meters":17200,"station_id":"ce4bhop2rcd13ifvqh8g","pricing_plan_id":"cebpf4jnsgd1na2vs0mg"},{"bike_id":"ecd6da64-26b8-4b7b-9976-d2ae9181440b","system_id":"levelo_inurba_marseille","lat":43.30248,"lon":5.40028,"is_reserved":false,"is_disabled":false,"rental_uris":{"android":"levelo://app?vid=ecd6da64-26b8-4b7b-9976-d2ae9181440b","ios":"levelo://app?vid=ecd6da64-26b8-4b7b-9976-d2ae9181440b"},"vehicle_type_id":"4","last_reported":1740831359,"current_range_meters":8400,"station_id":"","pricing_plan_id":"cebpf4jnsgd1na2vs0mg"},{"bike_id":"3c9c65ff-a2a8-4c52-a6f4-62bcc77556ef","system_id":"levelo_inurba_marseille","lat":43.24158,"lon":5.3641,"is_reserved":false,"is_disabled":false,"rental_uris":{"android":"levelo://app?vid=3c9c65ff-a2a8-4c52-a6f4-62bcc77556ef","ios":"levelo://app?vid=3c9c65ff-a2a8-4c52-a6f4-62bcc77556ef"},"vehicle_type_id":"4","last_reported":1740831359,"current_range_meters":17200,"station_id":"cpo36qri1sfpv3e86is0","pricing_plan_id":"cebpf4jnsgd1na2vs0mg"},{"bike_id":"7d5d958f-b83f-4bbe-ad9e-7f4f52446c19","system_id":"levelo_inurba_marseille","lat":43.30967,"lon":5.39045,"is_reserved":false,"is_disabled":false,"rental_uris":{"android":"levelo://app?vid=7d5d958f-b83f-4bbe-ad9e-7f4f52446c19","ios":"levelo://app?vid=7d5d958f-b83f-4bbe-ad9e-7f4f52446c19"},"vehicle_type_id":"4","last_reported":1740831359,"current_range_meters":17200,"station_id":"ce4bgup2rcd13ifvqco0","pricing_plan_id":"cebpf4jnsgd1na2vs0mg"},{"bike_id":"06a3de8c-705d-454d-b0ed-501e581cd668","system_id":"levelo_inurba_marseille","lat":43.28835,"lon":5.39328,"is_reserved":false,"is_disabled":false,"rental_uris":{"android":"levelo://app?vid=06a3de8c-705d-454d-b0ed-501e581cd668","ios":"levelo://app?vid=06a3de8c-705d-454d-b0ed-501e581cd668"},"vehicle_type_id":"4","last_reported":1740831359,"current_range_meters":17600,"station_id":"ce4bh2p2rcd13ifvqdi0","pricing_plan_id":"cebpf4jnsgd1na2vs0mg"},{"bike_id":"ffe714ed-8c20-4a89-8de0-4dba1597b1d3","system_id":"levelo_inurba_marseille","lat":43.29632,"lon":5.37151,"is_reserved":false,"is_disabled":false,"rental_uris":{"android":"levelo://app?vid=ffe714ed-8c20-4a89-8de0-4dba1597b1d3","ios":"levelo://app?vid=ffe714ed-8c20-4a89-8de0-4dba1597b1d3"},"vehicle_type_id":"4","last_reported":1740831359,"current_range_meters":17600,"station_id":"ce4bgnh2rcd13ifvqc0g","pricing_plan_id":"cebpf4jnsgd1na2vs0mg"},{"bike_id":"5f58e767-9619-4aff-a7ce-6fecff2cc717","system_id":"levelo_inurba_marseille","lat":43.28454,"lon":5.39182,"is_reserved":false,"is_disabled":true,"rental_uris":{"android":"levelo://app?vid=5f58e767-9619-4aff-a7ce-6fecff2cc717","ios":"levelo://app?vid=5f58e767-9619-4aff-a7ce-6fecff2cc717"},"vehicle_type_id":"4","last_reported":1740831359,"current_range_meters":17600,"station_id":"ce4bhoh2rcd13ifvqh5g","pricing_plan_id":"cebpf4jnsgd1na2vs0mg"},{"bike_id":"49645587-4897-47af-80cb-ea0df5af90cc","system_id":"levelo_inurba_marseille","lat":43.26216,"lon":5.37459,"is_reserved":false,"is_disabled":false,"rental_uris":{"android":"levelo://app?vid=49645587-4897-47af-80cb-ea0df5af90cc","ios":"levelo://app?vid=49645587-4897-47af-80cb-ea0df5af90cc"},"vehicle_type_id":"4","last_reported":1740831359,"current_range_meters":17600,"station_id":"ce4bhgp2rcd13ifvqfc0","pricing_plan_id":"cebpf4jnsgd1na2vs0mg"},{"bike_id":"57cd94f2-e7d7-48fa-948e-308f17077047","system_id":"levelo_inurba_marseille","lat":43.29082,"lon":5.38129,"is_reserved":false,"is_disabled":false,"rental_uris":{"android":"levelo://app?vid=57cd94f2-e7d7-48fa-948e-308f17077047","ios":"levelo://app?vid=57cd94f2-e7d7-48fa-948e-308f17077047"},"vehicle_type_id":"4","last_reported":1740831359,"current_range_meters":17600,"station_id":"ce4bh512rcd13ifvqe2g","pricing_plan_id":"cebpf4jnsgd1na2vs0mg"},{"bike_id":"3fae9c45-8c5c-4664-9282-2ca6cc6141cf","system_id":"levelo_inurba_marseille","lat":43.28854,"lon":5.3931,"is_reserved":false,"is_disabled":false,"rental_uris":{"android":"levelo://app?vid=3fae9c45-8c5c-4664-9282-2ca6cc6141cf","ios":"levelo://app?vid=3fae9c45-8c5c-4664-9282-2ca6cc6141cf"},"vehicle_type_id":"4","last_reported":1740831359,"current_range_meters":17600,"station_id":"ce4bh2p2rcd13ifvqdi0","pricing_plan_id":"cebpf4jnsgd1na2vs0mg"},{"bike_id":"3d3e1218-9db2-47a8-a44c-42be77ca5680","system_id":"levelo_inurba_marseille","lat":43.29285,"lon":5.36844,"is_reserved":false,"is_disabled":false,"rental_uris":{"android":"levelo://app?vid=3d3e1218-9db2-47a8-a44c-42be77ca5680","ios":"levelo://app?vid=3d3e1218-9db2-47a8-a44c-42be77ca5680"},"vehicle_type_id":"4","last_reported":1740831359,"current_range_meters":17600,"station_id":"ce4bhbp2rcd13ifvqesg","pricing_plan_id":"cebpf4jnsgd1na2vs0mg"},{"bike_id":"dbd24d78-1e72-4b79-b29c-55756f89ecc8","system_id":"levelo_inurba_marseille","lat":43.25009,"lon":5.38952,"is_reserved":false,"is_disabled":false,"rental_uris":{"android":"levelo://app?vid=dbd24d78-1e72-4b79-b29c-55756f89ecc8","ios":"levelo://app?vid=dbd24d78-1e72-4b79-b29c-55756f89ecc8"},"vehicle_type_id":"4","last_reported":1740831359,"current_range_meters":17600,"station_id":"ce4bhgp2rcd13ifvqfd0","pricing_plan_id":"cebpf4jnsgd1na2vs0mg"},{"bike_id":"54adf5fa-926b-4227-b5ee-b31390421ef4","system_id":"levelo_inurba_marseille","lat":43.26197,"lon":5.37926,"is_reserved":false,"is_disabled":false,"rental_uris":{"android":"levelo://app?vid=54adf5fa-926b-4227-b5ee-b31390421ef4","ios":"levelo://app?vid=54adf5fa-926b-4227-b5ee-b31390421ef4"},"vehicle_type_id":"4","last_reported":1740831359,"current_range_meters":17600,"station_id":"ce4bhjp2rcd13ifvqg90","pricing_plan_id":"cebpf4jnsgd1na2vs0mg"},{"bike_id":"7823a789-113a-40ae-a3f9-3b27eb5735e7","system_id":"levelo_inurba_marseille","lat":43.2959,"lon":5.39987,"is_reserved":false,"is_disabled":true,"rental_uris":{"android":"levelo://app?vid=7823a789-113a-40ae-a3f9-3b27eb5735e7","ios":"levelo://app?vid=7823a789-113a-40ae-a3f9-3b27eb5735e7"},"vehicle_type_id":"4","last_reported":1740831359,"current_range_meters":18000,"station_id":"ce4bh312rcd13ifvqdj0","pricing_plan_id":"cebpf4jnsgd1na2vs0mg"},{"bike_id":"33c951cc-444f-49ba-bdb7-2ae131148385","system_id":"levelo_inurba_marseille","lat":43.28718,"lon":5.39985,"is_reserved":false,"is_disabled":true,"rental_uris":{"android":"levelo://app?vid=33c951cc-444f-49ba-bdb7-2ae131148385","ios":"levelo://app?vid=33c951cc-444f-49ba-bdb7-2ae131148385"},"vehicle_type_id":"4","last_reported":1740831359,"current_range_meters":18000,"station_id":"ce4bho92rcd13ifvqh3g","pricing_plan_id":"cebpf4jnsgd1na2vs0mg"},{"bike_id":"620a5eb3-daee-44ad-a3ba-f984dc8c768a","system_id":"levelo_inurba_marseille","lat":43.30197,"lon":5.36622,"is_reserved":false,"is_disabled":true,"rental_uris":{"android":"levelo://app?vid=620a5eb3-daee-44ad-a3ba-f984dc8c768a","ios":"levelo://app?vid=620a5eb3-daee-44ad-a3ba-f984dc8c768a"},"vehicle_type_id":"4","last_reported":1740831359,"current_range_meters":18000,"station_id":"ce4bgrh2rcd13ifvqc8g","pricing_plan_id":"cebpf4jnsgd1na2vs0mg"},{"bike_id":"715c5172-2db9-4e77-abba-3b6c0991537b","system_id":"levelo_inurba_marseille","lat":43.24388,"lon":5.3706,"is_reserved":false,"is_disabled":false,"rental_uris":{"android":"levelo://app?vid=715c5172-2db9-4e77-abba-3b6c0991537b","ios":"levelo://app?vid=715c5172-2db9-4e77-abba-3b6c0991537b"},"vehicle_type_id":"4","last_reported":1740831359,"current_range_meters":18000,"station_id":"ce4bhhh2rcd13ifvqfk0","pricing_plan_id":"cebpf4jnsgd1na2vs0mg"},{"bike_id":"1e8a698f-bd61-494d-bb2b-5d84ba7e2b82","system_id":"levelo_inurba_marseille","lat":43.31324,"lon":5.39695,"is_reserved":false,"is_disabled":false,"rental_uris":{"android":"levelo://app?vid=1e8a698f-bd61-494d-bb2b-5d84ba7e2b82","ios":"levelo://app?vid=1e8a698f-bd61-494d-bb2b-5d84ba7e2b82"},"vehicle_type_id":"4","last_reported":1740831359,"current_range_meters":18000,"station_id":"ce4bgvp2rcd13ifvqcu0","pricing_plan_id":"cebpf4jnsgd1na2vs0mg"},{"bike_id":"8417a675-6aa8-4e9c-be43-b203d4114e2c","system_id":"levelo_inurba_marseille","lat":43.31326,"lon":5.39692,"is_reserved":false,"is_disabled":false,"rental_uris":{"android":"levelo://app?vid=8417a675-6aa8-4e9c-be43-b203d4114e2c","ios":"levelo://app?vid=8417a675-6aa8-4e9c-be43-b203d4114e2c"},"vehicle_type_id":"4","last_reported":1740831359,"current_range_meters":18000,"station_id":"ce4bgvp2rcd13ifvqcu0","pricing_plan_id":"cebpf4jnsgd1na2vs0mg"},{"bike_id":"03c0b7e9-318a-43ad-80cc-23faf1305a7a","system_id":"levelo_inurba_marseille","lat":43.31269,"lon":5.40166,"is_reserved":false,"is_disabled":false,"rental_uris":{"android":"levelo://app?vid=03c0b7e9-318a-43ad-80cc-23faf1305a7a","ios":"levelo://app?vid=03c0b7e9-318a-43ad-80cc-23faf1305a7a"},"vehicle_type_id":"4","last_reported":1740831359,"current_range_meters":18000,"station_id":"ce4bh092rcd13ifvqd30","pricing_plan_id":"cebpf4jnsgd1na2vs0mg"},{"bike_id":"3fcf3449-49b4-4dec-83e4-d2ce64f40a0a","system_id":"levelo_inurba_marseille","lat":43.29258,"lon":5.40911,"is_reserved":false,"is_disabled":false,"rental_uris":{"android":"levelo://app?vid=3fcf3449-49b4-4dec-83e4-d2ce64f40a0a","ios":"levelo://app?vid=3fcf3449-49b4-4dec-83e4-d2ce64f40a0a"},"vehicle_type_id":"4","last_reported":1740831359,"current_range_meters":18000,"station_id":"ce4bh192rcd13ifvqdc0","pricing_plan_id":"cebpf4jnsgd1na2vs0mg"},{"bike_id":"a6ad48d9-d475-4d6a-bed6-a3874214dbd4","system_id":"levelo_inurba_marseille","lat":43.28038,"lon":5.3695,"is_reserved":false,"is_disabled":false,"rental_uris":{"android":"levelo://app?vid=a6ad48d9-d475-4d6a-bed6-a3874214dbd4","ios":"levelo://app?vid=a6ad48d9-d475-4d6a-bed6-a3874214dbd4"},"vehicle_type_id":"4","last_reported":1740831359,"current_range_meters":18000,"station_id":"ce4bha12rcd13ifvqef0","pricing_plan_id":"cebpf4jnsgd1na2vs0mg"},{"bike_id":"51488355-cec3-4549-a8df-af618d811700","system_id":"levelo_inurba_marseille","lat":43.31716,"lon":5.40473,"is_reserved":false,"is_disabled":false,"rental_uris":{"android":"levelo://app?vid=51488355-cec3-4549-a8df-af618d811700","ios":"levelo://app?vid=51488355-cec3-4549-a8df-af618d811700"},"vehicle_type_id":"4","last_reported":1740831359,"current_range_meters":18000,"station_id":"ce4bh012rcd13ifvqd00","pricing_plan_id":"cebpf4jnsgd1na2vs0mg"},{"bike_id":"d5792e34-1a9b-4bc2-abd5-2c645e524662","system_id":"levelo_inurba_marseille","lat":43.31688,"lon":5.4046,"is_reserved":false,"is_disabled":false,"rental_uris":{"android":"levelo://app?vid=d5792e34-1a9b-4bc2-abd5-2c645e524662","ios":"levelo://app?vid=d5792e34-1a9b-4bc2-abd5-2c645e524662"},"vehicle_type_id":"4","last_reported":1740831359,"current_range_meters":18000,"station_id":"ce4bh012rcd13ifvqd00","pricing_plan_id":"cebpf4jnsgd1na2vs0mg"},{"bike_id":"eed929c8-2241-4c56-a454-fbcc9942c971","system_id":"levelo_inurba_marseille","lat":43.29925,"lon":5.37475,"is_reserved":false,"is_disabled":false,"rental_uris":{"android":"levelo://app?vid=eed929c8-2241-4c56-a454-fbcc9942c971","ios":"levelo://app?vid=eed929c8-2241-4c56-a454-fbcc9942c971"},"vehicle_type_id":"4","last_reported":1740831359,"current_range_meters":17600,"station_id":"ce4bgjh2rcd13ifvqbg0","pricing_plan_id":"cebpf4jnsgd1na2vs0mg"},{"bike_id":"0b9601aa-278b-45cb-b475-a52d27d5e478","system_id":"levelo_inurba_marseille","lat":43.2907,"lon":5.37165,"is_reserved":false,"is_disabled":false,"rental_uris":{"android":"levelo://app?vid=0b9601aa-278b-45cb-b475-a52d27d5e478","ios":"levelo://app?vid=0b9601aa-278b-45cb-b475-a52d27d5e478"},"vehicle_type_id":"4","last_reported":1740831359,"current_range_meters":18000,"station_id":"ce4bh5p2rcd13ifvqe4g","pricing_plan_id":"cebpf4jnsgd1na2vs0mg"},{"bike_id":"e2b1a97c-05f9-4994-8c76-5c4c26614832","system_id":"levelo_inurba_marseille","lat":43.26562,"lon":5.37283,"is_reserved":false,"is_disabled":false,"rental_uris":{"android":"levelo://app?vid=e2b1a97c-05f9-4994-8c76-5c4c26614832","ios":"levelo://app?vid=e2b1a97c-05f9-4994-8c76-5c4c26614832"},"vehicle_type_id":"4","last_reported":1740831359,"current_range_meters":18800,"station_id":"ce4bhg12rcd13ifvqf70","pricing_plan_id":"cebpf4jnsgd1na2vs0mg"},{"bike_id":"785b2088-e997-4eaf-a2a1-57cc25d13a31","system_id":"levelo_inurba_marseille","lat":43.25564,"lon":5.38206,"is_reserved":false,"is_disabled":false,"rental_uris":{"android":"levelo://app?vid=785b2088-e997-4eaf-a2a1-57cc25d13a31","ios":"levelo://app?vid=785b2088-e997-4eaf-a2a1-57cc25d13a31"},"vehicle_type_id":"4","last_reported":1740831359,"current_range_meters":18800,"station_id":"ce4bhih2rcd13ifvqfs0","pricing_plan_id":"cebpf4jnsgd1na2vs0mg"},{"bike_id":"6a2edffc-5751-46f7-9edd-0d95ca916319","system_id":"levelo_inurba_marseille","lat":43.28348,"lon":5.38097,"is_reserved":false,"is_disabled":false,"rental_uris":{"android":"levelo://app?vid=6a2edffc-5751-46f7-9edd-0d95ca916319","ios":"levelo://app?vid=6a2edffc-5751-46f7-9edd-0d95ca916319"},"vehicle_type_id":"4","last_reported":1740831359,"current_range_meters":18800,"station_id":"ce4bh412rcd13ifvqdr0","pricing_plan_id":"cebpf4jnsgd1na2vs0mg"},{"bike_id":"f030de87-2c9d-4265-8d43-6de6f6593378","system_id":"levelo_inurba_marseille","lat":43.29847,"lon":5.36277,"is_reserved":false,"is_disabled":false,"rental_uris":{"android":"levelo://app?vid=f030de87-2c9d-4265-8d43-6de6f6593378","ios":"levelo://app?vid=f030de87-2c9d-4265-8d43-6de6f6593378"},"vehicle_type_id":"4","last_reported":1740831359,"current_range_meters":18800,"station_id":"ce4bgpp2rcd13ifvqc3g","pricing_plan_id":"cebpf4jnsgd1na2vs0mg"},{"bike_id":"d0338d15-401f-4f02-ad15-e1eebf71fa48","system_id":"levelo_inurba_marseille","lat":43.29618,"lon":5.38093,"is_reserved":false,"is_disabled":false,"rental_uris":{"android":"levelo://app?vid=d0338d15-401f-4f02-ad15-e1eebf71fa48","ios":"levelo://app?vid=d0338d15-401f-4f02-ad15-e1eebf71fa48"},"vehicle_type_id":"4","last_reported":1740831359,"current_range_meters":18800,"station_id":"ce4bgl12rcd13ifvqbo0","pricing_plan_id":"cebpf4jnsgd1na2vs0mg"},{"bike_id":"57390bf4-d467-48ec-86f1-4a474a0213b9","system_id":"levelo_inurba_marseille","lat":43.3133,"lon":5.39682,"is_reserved":false,"is_disabled":false,"rental_uris":{"android":"levelo://app?vid=57390bf4-d467-48ec-86f1-4a474a0213b9","ios":"levelo://app?vid=57390bf4-d467-48ec-86f1-4a474a0213b9"},"vehicle_type_id":"4","last_reported":1740831359,"current_range_meters":18800,"station_id":"ce4bgvp2rcd13ifvqcu0","pricing_plan_id":"cebpf4jnsgd1na2vs0mg"},{"bike_id":"9d9ea3d7-9a8c-4118-bff6-a1dc51515da1","system_id":"levelo_inurba_marseille","lat":43.29816,"lon":5.40419,"is_reserved":false,"is_disabled":false,"rental_uris":{"android":"levelo://app?vid=9d9ea3d7-9a8c-4118-bff6-a1dc51515da1","ios":"levelo://app?vid=9d9ea3d7-9a8c-4118-bff6-a1dc51515da1"},"vehicle_type_id":"4","last_reported":1740831359,"current_range_meters":19200,"station_id":"ce4bh112rcd13ifvqd90","pricing_plan_id":"cebpf4jnsgd1na2vs0mg"},{"bike_id":"149537ed-ce9c-4869-93d3-629862e7f097","system_id":"levelo_inurba_marseille","lat":43.24071,"lon":5.3776,"is_reserved":false,"is_disabled":false,"rental_uris":{"android":"levelo://app?vid=149537ed-ce9c-4869-93d3-629862e7f097","ios":"levelo://app?vid=149537ed-ce9c-4869-93d3-629862e7f097"},"vehicle_type_id":"4","last_reported":1740831359,"current_range_meters":19200,"station_id":"ce4bhnp2rcd13ifvqgvg","pricing_plan_id":"cebpf4jnsgd1na2vs0mg"},{"bike_id":"96090500-e92b-4618-a8ce-3e71815df01c","system_id":"levelo_inurba_marseille","lat":43.31075,"lon":5.38239,"is_reserved":false,"is_disabled":false,"rental_uris":{"android":"levelo://app?vid=96090500-e92b-4618-a8ce-3e71815df01c","ios":"levelo://app?vid=96090500-e92b-4618-a8ce-3e71815df01c"},"vehicle_type_id":"4","last_reported":1740831359,"current_range_meters":19200,"station_id":"","pricing_plan_id":"cebpf4jnsgd1na2vs0mg"},{"bike_id":"753ab9e7-d64e-4298-99a4-63045ec1deba","system_id":"levelo_inurba_marseille","lat":43.29894,"lon":5.389125,"is_reserved":false,"is_disabled":false,"rental_uris":{"android":"levelo://app?vid=753ab9e7-d64e-4298-99a4-63045ec1deba","ios":"levelo://app?vid=753ab9e7-d64e-4298-99a4-63045ec1deba"},"vehicle_type_id":"4","last_reported":1740831359,"current_range_meters":18800,"station_id":"ce4bh392rcd13ifvqdl0","pricing_plan_id":"cebpf4jnsgd1na2vs0mg"},{"bike_id":"4bea4796-ad3b-4420-849c-6ca776a03ba1","system_id":"levelo_inurba_marseille","lat":43.26568,"lon":5.39005,"is_reserved":false,"is_disabled":false,"rental_uris":{"android":"levelo://app?vid=4bea4796-ad3b-4420-849c-6ca776a03ba1","ios":"levelo://app?vid=4bea4796-ad3b-4420-849c-6ca776a03ba1"},"vehicle_type_id":"4","last_reported":1740831359,"current_range_meters":19200,"station_id":"ce4bhe12rcd13ifvqf30","pricing_plan_id":"cebpf4jnsgd1na2vs0mg"},{"bike_id":"2a23d718-92f0-41a6-864d-e68ac618d458","system_id":"levelo_inurba_marseille","lat":43.28314,"lon":5.40149,"is_reserved":false,"is_disabled":false,"rental_uris":{"android":"levelo://app?vid=2a23d718-92f0-41a6-864d-e68ac618d458","ios":"levelo://app?vid=2a23d718-92f0-41a6-864d-e68ac618d458"},"vehicle_type_id":"4","last_reported":1740831359,"current_range_meters":19200,"station_id":"","pricing_plan_id":"cebpf4jnsgd1na2vs0mg"},{"bike_id":"e1ba78ef-42db-47fe-b98e-4c9136cd4bed","system_id":"levelo_inurba_marseille","lat":43.28413,"lon":5.37512,"is_reserved":false,"is_disabled":false,"rental_uris":{"android":"levelo://app?vid=e1ba78ef-42db-47fe-b98e-4c9136cd4bed","ios":"levelo://app?vid=e1ba78ef-42db-47fe-b98e-4c9136cd4bed"},"vehicle_type_id":"4","last_reported":1740831359,"current_range_meters":19200,"station_id":"ce4bh412rcd13ifvqds0","pricing_plan_id":"cebpf4jnsgd1na2vs0mg"},{"bike_id":"a59702b1-f060-4b9f-979e-856938c57603","system_id":"levelo_inurba_marseille","lat":43.29263,"lon":5.37622,"is_reserved":false,"is_disabled":false,"rental_uris":{"android":"levelo://app?vid=a59702b1-f060-4b9f-979e-856938c57603","ios":"levelo://app?vid=a59702b1-f060-4b9f-979e-856938c57603"},"vehicle_type_id":"4","last_reported":1740831359,"current_range_meters":19200,"station_id":"ce4bgi12rcd13ifvqb80","pricing_plan_id":"cebpf4jnsgd1na2vs0mg"},{"bike_id":"8b4eac13-9923-4d4f-b352-1b63f99f96f9","system_id":"levelo_inurba_marseille","lat":43.3066,"lon":5.40086,"is_reserved":false,"is_disabled":false,"rental_uris":{"android":"levelo://app?vid=8b4eac13-9923-4d4f-b352-1b63f99f96f9","ios":"levelo://app?vid=8b4eac13-9923-4d4f-b352-1b63f99f96f9"},"vehicle_type_id":"4","last_reported":1740831359,"current_range_meters":19600,"station_id":"ce4bh112rcd13ifvqda0","pricing_plan_id":"cebpf4jnsgd1na2vs0mg"},{"bike_id":"eb9f27e8-11a6-4fcf-8240-7050305fdbb6","system_id":"levelo_inurba_marseille","lat":43.29279,"lon":5.3686,"is_reserved":false,"is_disabled":false,"rental_uris":{"android":"levelo://app?vid=eb9f27e8-11a6-4fcf-8240-7050305fdbb6","ios":"levelo://app?vid=eb9f27e8-11a6-4fcf-8240-7050305fdbb6"},"vehicle_type_id":"4","last_reported":1740831359,"current_range_meters":19600,"station_id":"ce4bhbp2rcd13ifvqesg","pricing_plan_id":"cebpf4jnsgd1na2vs0mg"},{"bike_id":"c2ada79f-5d24-47a7-b849-9a0bc8ba1658","system_id":"levelo_inurba_marseille","lat":43.26204,"lon":5.37931,"is_reserved":false,"is_disabled":false,"rental_uris":{"android":"levelo://app?vid=c2ada79f-5d24-47a7-b849-9a0bc8ba1658","ios":"levelo://app?vid=c2ada79f-5d24-47a7-b849-9a0bc8ba1658"},"vehicle_type_id":"4","last_reported":1740831359,"current_range_meters":19600,"station_id":"ce4bhjp2rcd13ifvqg90","pricing_plan_id":"cebpf4jnsgd1na2vs0mg"},{"bike_id":"aa304f95-c851-42b2-ae73-941c99122016","system_id":"levelo_inurba_marseille","lat":43.26684,"lon":5.38267,"is_reserved":false,"is_disabled":false,"rental_uris":{"android":"levelo://app?vid=aa304f95-c851-42b2-ae73-941c99122016","ios":"levelo://app?vid=aa304f95-c851-42b2-ae73-941c99122016"},"vehicle_type_id":"4","last_reported":1740831359,"current_range_meters":20000,"station_id":"ce4bhg92rcd13ifvqf90","pricing_plan_id":"cebpf4jnsgd1na2vs0mg"},{"bike_id":"67816b0b-27f5-4b8a-b69c-764fef545166","system_id":"levelo_inurba_marseille","lat":43.31713,"lon":5.43705,"is_reserved":false,"is_disabled":false,"rental_uris":{"android":"levelo://app?vid=67816b0b-27f5-4b8a-b69c-764fef545166","ios":"levelo://app?vid=67816b0b-27f5-4b8a-b69c-764fef545166"},"vehicle_type_id":"4","last_reported":1740831359,"current_range_meters":20000,"station_id":"ce4bhp92rcd13ifvqhcg","pricing_plan_id":"cebpf4jnsgd1na2vs0mg"},{"bike_id":"05e7837d-6899-4d2c-b509-5e0c81ac650a","system_id":"levelo_inurba_marseille","lat":43.29227,"lon":5.36065,"is_reserved":false,"is_disabled":false,"rental_uris":{"android":"levelo://app?vid=05e7837d-6899-4d2c-b509-5e0c81ac650a","ios":"levelo://app?vid=05e7837d-6899-4d2c-b509-5e0c81ac650a"},"vehicle_type_id":"4","last_reported":1740831359,"current_range_meters":20000,"station_id":"ce4bhbh2rcd13ifvqeqg","pricing_plan_id":"cebpf4jnsgd1na2vs0mg"},{"bike_id":"d66b749a-0808-469e-b143-0787b08d816b","system_id":"levelo_inurba_marseille","lat":43.26208,"lon":5.3743,"is_reserved":false,"is_disabled":false,"rental_uris":{"android":"levelo://app?vid=d66b749a-0808-469e-b143-0787b08d816b","ios":"levelo://app?vid=d66b749a-0808-469e-b143-0787b08d816b"},"vehicle_type_id":"4","last_reported":1740831359,"current_range_meters":20000,"station_id":"ce4bhgp2rcd13ifvqfc0","pricing_plan_id":"cebpf4jnsgd1na2vs0mg"},{"bike_id":"bfa481fb-a656-4b9c-883c-2c65f6b54291","system_id":"levelo_inurba_marseille","lat":43.31328,"lon":5.39684,"is_reserved":false,"is_disabled":false,"rental_uris":{"android":"levelo://app?vid=bfa481fb-a656-4b9c-883c-2c65f6b54291","ios":"levelo://app?vid=bfa481fb-a656-4b9c-883c-2c65f6b54291"},"vehicle_type_id":"4","last_reported":1740831359,"current_range_meters":20000,"station_id":"ce4bgvp2rcd13ifvqcu0","pricing_plan_id":"cebpf4jnsgd1na2vs0mg"},{"bike_id":"074ca2bc-5219-4421-b4e6-f5ba8b7ca372","system_id":"levelo_inurba_marseille","lat":43.31338,"lon":5.39706,"is_reserved":false,"is_disabled":false,"rental_uris":{"android":"levelo://app?vid=074ca2bc-5219-4421-b4e6-f5ba8b7ca372","ios":"levelo://app?vid=074ca2bc-5219-4421-b4e6-f5ba8b7ca372"},"vehicle_type_id":"4","last_reported":1740831359,"current_range_meters":20000,"station_id":"ce4bgvp2rcd13ifvqcu0","pricing_plan_id":"cebpf4jnsgd1na2vs0mg"},{"bike_id":"daf44d92-e2dd-4064-b65e-2a17336aae7a","system_id":"levelo_inurba_marseille","lat":43.28738,"lon":5.37411,"is_reserved":false,"is_disabled":false,"rental_uris":{"android":"levelo://app?vid=daf44d92-e2dd-4064-b65e-2a17336aae7a","ios":"levelo://app?vid=daf44d92-e2dd-4064-b65e-2a17336aae7a"},"vehicle_type_id":"4","last_reported":1740831359,"current_range_meters":20000,"station_id":"","pricing_plan_id":"cebpf4jnsgd1na2vs0mg"},{"bike_id":"f2cca806-b227-4cbe-877b-64bc58b8635e","system_id":"levelo_inurba_marseille","lat":43.3042,"lon":5.41276,"is_reserved":false,"is_disabled":false,"rental_uris":{"android":"levelo://app?vid=f2cca806-b227-4cbe-877b-64bc58b8635e","ios":"levelo://app?vid=f2cca806-b227-4cbe-877b-64bc58b8635e"},"vehicle_type_id":"4","last_reported":1740831359,"current_range_meters":20000,"station_id":"ce4bhop2rcd13ifvqh8g","pricing_plan_id":"cebpf4jnsgd1na2vs0mg"},{"bike_id":"cc38455f-9c7e-4dde-b9fa-ef4a19c402b8","system_id":"levelo_inurba_marseille","lat":43.28872,"lon":5.37078,"is_reserved":false,"is_disabled":false,"rental_uris":{"android":"levelo://app?vid=cc38455f-9c7e-4dde-b9fa-ef4a19c402b8","ios":"levelo://app?vid=cc38455f-9c7e-4dde-b9fa-ef4a19c402b8"},"vehicle_type_id":"4","last_reported":1740831359,"current_range_meters":20000,"station_id":"","pricing_plan_id":"cebpf4jnsgd1na2vs0mg"},{"bike_id":"2e82128a-a662-4404-aff2-c5b873ace22a","system_id":"levelo_inurba_marseille","lat":43.31741,"lon":5.39028,"is_reserved":false,"is_disabled":false,"rental_uris":{"android":"levelo://app?vid=2e82128a-a662-4404-aff2-c5b873ace22a","ios":"levelo://app?vid=2e82128a-a662-4404-aff2-c5b873ace22a"},"vehicle_type_id":"4","last_reported":1740831359,"current_range_meters":20000,"station_id":"ce4bhqp2rcd13ifvqhng","pricing_plan_id":"cebpf4jnsgd1na2vs0mg"},{"bike_id":"df87d52b-2c21-4355-9df2-108aa60fc15d","system_id":"levelo_inurba_marseille","lat":43.301331,"lon":5.380469,"is_reserved":false,"is_disabled":false,"rental_uris":{"android":"levelo://app?vid=df87d52b-2c21-4355-9df2-108aa60fc15d","ios":"levelo://app?vid=df87d52b-2c21-4355-9df2-108aa60fc15d"},"vehicle_type_id":"4","last_reported":1740831359,"current_range_meters":20400,"station_id":"ce4bho12rcd13ifvqh1g","pricing_plan_id":"cebpf4jnsgd1na2vs0mg"},