{"last_updated":1750882344,"ttl":60,"version":"2.2","data":{"bikes":[{"bike_id":"3da29fb8-fc97-44c6-b9ac-31dd456b2fd4","system_id":"levelo_inurba_marseille","lat":43.33771,"lon":5.37424,"is_reserved":false,"is_disabled":true,"rental_uris":{"android":"levelo://app?vid=3da29fb8-fc97-44c6-b9ac-31dd456b2fd4","ios":"levelo://app?vid=3da29fb8-fc97-44c6-b9ac-31dd456b2fd4"},"vehicle_type_id":"4","last_reported":1750882344,"current_range_meters":0,"station_id":"","pricing_plan_id":"cebpf4jnsgd1na2vs0mg"},{"bike_id":"01861ad8-a8d7-4be6-816e-651927c87584","system_id":"levelo_inurba_marseille","lat":43.33751,"lon":5.37456,"is_reserved":false,"is_disabled":true,"rental_uris":{"android":"levelo://app?vid=01861ad8-a8d7-4be6-816e-651927c87584","ios":"levelo://app?vid=01861ad8-a8d7-4be6-816e-651927c87584"},"vehicle_type_id":"4","last_reported":1750882344,"current_range_meters":0,"station_id":"","pricing_plan_id":"cebpf4jnsgd1na2vs0mg"},{"bike_id":"8c6de0c1-9eaf-4c18-8155-d956789067ae","system_id":"levelo_inurba_marseille","lat":43.27964,"lon":5.44231,"is_reserved":false,"is_disabled":true,"rental_uris":{"android":"levelo://app?vid=8c6de0c1-9eaf-4c18-8155-d956789067ae","ios":"levelo://app?vid=8c6de0c1-9eaf-4c18-8155-d956789067ae"},"vehicle_type_id":"4","last_reported":1750882344,"current_range_meters":0,"station_id":"","pricing_plan_id":"cebpf4jnsgd1na2vs0mg"},{"bike_id":"01a7b5de-cbb0-45f6-b552-105157f7a511","system_id":"levelo_inurba_marseille","lat":43.23856,"lon":5.43021,"is_reserved":false,"is_disabled":true,"rental_uris":{"android":"levelo://app?vid=01a7b5de-cbb0-45f6-b552-105157f7a511","ios":"levelo://app?vid=01a7b5de-cbb0-45f6-b552-105157f7a511"},"vehicle_type_id":"4","last_reported":1750882344,"current_range_meters":0,"station_id":"","pricing_plan_id":"cebpf4jnsgd1na2vs0mg"},{"bike_id":"62a493c7-4534-4419-ad43-0582de34a72a","system_id":"levelo_inurba_marseille","lat":43.21366,"lon":5.355183,"is_reserved":false,"is_disabled":true,"rental_uris":{"android":"levelo://app?vid=62a493c7-4534-4419-ad43-0582de34a72a","ios":"levelo://app?vid=62a493c7-4534-4419-ad43-0582de34a72a"},"vehicle_type_id":"4","last_reported":1750882344,"current_range_meters":0,"station_id":"","pricing_plan_id":"cebpf4jnsgd1na2vs0mg"},{"bike_id":"85c58f10-925d-4344-b389-09267487a6fc","system_id":"levelo_inurba_marseille","lat":43.21122,"lon":5.419,"is_reserved":false,"is_disabled":true,"rental_uris":{"android":"levelo://app?vid=85c58f10-925d-4344-b389-09267487a6fc","ios":"levelo://app?vid=85c58f10-925d-4344-b389-09267487a6fc"},"vehicle_type_id":"4","last_reported":1750882344,"current_range_meters":0,"station_id":"","pricing_plan_id":"cebpf4jnsgd1na2vs0mg"},{"bike_id":"a9e5e555-fdaf-49c0-b286-f0f2659b17d0","system_id":"levelo_inurba_marseille","lat":43.282994,"lon":5.432421,"is_reserved":false,"is_disabled":true,"rental_uris":{"android":"levelo://app?vid=a9e5e555-fdaf-49c0-b286-f0f2659b17d0","ios":"levelo://app?vid=a9e5e555-fdaf-49c0-b286-f0f2659b17d0"},"vehicle_type_id":"4","last_reported":1750882344,"current_range_meters":0,"station_id":"","pricing_plan_id":"cebpf4jnsgd1na2vs0mg"},{"bike_id":"139d47bd-ff87-42d8-a4c6-89da4be6f80c","system_id":"levelo_inurba_marseille","lat":43.2795,"lon":5.4421,"is_reserved":false,"is_disabled":true,"rental_uris":{"android":"levelo://app?vid=139d47bd-ff87-42d8-a4c6-89da4be6f80c","ios":"levelo://app?vid=139d47bd-ff87-42d8-a4c6-89da4be6f80c"},"vehicle_type_id":"4","last_reported":1750882344,"current_range_meters":0,"station_id":"","pricing_plan_id":"cebpf4jnsgd1na2vs0mg"},{"bike_id":"5c4c21e3-0f2f-4bc6-8d31-f41d7813bc60","system_id":"levelo_inurba_marseille","lat":43.2534,"lon":5.38167,"is_reserved":false,"is_disabled":true,"rental_uris":{"android":"levelo://app?vid=5c4c21e3-0f2f-4bc6-8d31-f41d7813bc60","ios":"levelo://app?vid=5c4c21e3-0f2f-4bc6-8d31-f41d7813bc60"},"vehicle_type_id":"4","last_reported":1750882344,"current_range_meters":0,"station_id":"","pricing_plan_id":"cebpf4jnsgd1na2vs0mg"},{"bike_id":"a147e67d-e0b1-425e-bbda-ae9524df353e","system_id":"levelo_inurba_marseille","lat":43.337485,"lon":5.374613,"is_reserved":false,"is_disabled":true,"rental_uris":{"android":"levelo://app?vid=a147e67d-e0b1-425e-bbda-ae9524df353e","ios":"levelo://app?vid=a147e67d-e0b1-425e-bbda-ae9524df353e"},"vehicle_type_id":"4","last_reported":1750882344,"current_range_meters":0,"station_id":"","pricing_plan_id":"cebpf4jnsgd1na2vs0mg"},{"bike_id":"d6bdcc19-0f34-440b-b349-c45590fc6833","system_id":"levelo_inurba_marseille","lat":43.26233,"lon":5.37493,"is_reserved":false,"is_disabled":true,"rental_uris":{"android":"levelo://app?vid=d6bdcc19-0f34-440b-b349-c45590fc6833","ios":"levelo://app?vid=d6bdcc19-0f34-440b-b349-c45590fc6833"},"vehicle_type_id":"4","last_reported":1750882344,"current_range_meters":0,"station_id":"","pricing_plan_id":"cebpf4jnsgd1na2vs0mg"},{"bike_id":"4d064f95-6dcb-4234-9e98-7c70fbb74351","system_id":"levelo_inurba_marseille","lat":43.337444,"lon":5.374475,"is_reserved":false,"is_disabled":true,"rental_uris":{"android":"levelo://app?vid=4d064f95-6dcb-4234-9e98-7c70fbb74351","ios":"levelo://app?vid=4d064f95-6dcb-4234-9e98-7c70fbb74351"},"vehicle_type_id":"4","last_reported":1750882344,"current_range_meters":0,"station_id":"","pricing_plan_id":"cebpf4jnsgd1na2vs0mg"},{"bike_id":"d6609b4f-333b-43c1-9ebe-8726f5e76e88","system_id":"levelo_inurba_marseille","lat":43.337444,"lon":5.374475,"is_reserved":false,"is_disabled":true,"rental_uris":{"android":"levelo://app?vid=d6609b4f-333b-43c1-9ebe-8726f5e76e88","ios":"levelo://app?vid=d6609b4f-333b-43c1-9ebe-8726f5e76e88"},"vehicle_type_id":"4","last_reported":1750882344,"current_range_meters":0,"station_id":"","pricing_plan_id":"cebpf4jnsgd1na2vs0mg"},{"bike_id":"14903f35-1eaf-4a5d-86c3-23007b361999","system_id":"levelo_inurba_marseille","lat":43.27064,"lon":5.42274,"is_reserved":false,"is_disabled":true,"rental_uris":{"android":"levelo://app?vid=14903f35-1eaf-4a5d-86c3-23007b361999","ios":"levelo://app?vid=14903f35-1eaf-4a5d-86c3-23007b361999"},"vehicle_type_id":"4","last_reported":1750882344,"current_range_meters":0,"station_id":"","pricing_plan_id":"cebpf4jnsgd1na2vs0mg"},{"bike_id":"c83adf78-14ca-4a80-b94a-16ed5ff617f2","system_id":"levelo_inurba_marseille","lat":43.22505,"lon":5.34786,"is_reserved":false,"is_disabled":true,"rental_uris":{"android":"levelo://app?vid=c83adf78-14ca-4a80-b94a-16ed5ff617f2","ios":"levelo://app?vid=c83adf78-14ca-4a80-b94a-16ed5ff617f2"},"vehicle_type_id":"4","last_reported":1750882344,"current_range_meters":0,"station_id":"","pricing_plan_id":"cebpf4jnsgd1na2vs0mg"},{"bike_id":"9cb193d0-906b-4ac2-85c5-eea810b1d20f","system_id":"levelo_inurba_marseille","lat":43.29384,"lon":5.42942,"is_reserved":false,"is_disabled":true,"rental_uris":{"android":"levelo://app?vid=9cb193d0-906b-4ac2-85c5-eea810b1d20f","ios":"levelo://app?vid=9cb193d0-906b-4ac2-85c5-eea810b1d20f"},"vehicle_type_id":"4","last_reported":1750882344,"current_range_meters":0,"station_id":"","pricing_plan_id":"cebpf4jnsgd1na2vs0mg"},{"bike_id":"b17b6606-336a-4606-9b65-af139c49de26","system_id":"levelo_inurba_marseille","lat":43.25674,"lon":5.42729,"is_reserved":false,"is_disabled":true,"rental_uris":{"android":"levelo://app?vid=b17b6606-336a-4606-9b65-af139c49de26","ios":"levelo://app?vid=b17b6606-336a-4606-9b65-af139c49de26"},"vehicle_type_id":"4","last_reported":1750882344,"current_range_meters":0,"station_id":"","pricing_plan_id":"cebpf4jnsgd1na2vs0mg"},{"bike_id":"bd17737b-22d2-4e4f-88e8-4eb661d864c4","system_id":"levelo_inurba_marseille","lat":43.29166,"lon":5.46056,"is_reserved":false,"is_disabled":true,"rental_uris":{"android":"levelo://app?vid=bd17737b-22d2-4e4f-88e8-4eb661d864c4","ios":"levelo://app?vid=bd17737b-22d2-4e4f-88e8-4eb661d864c4"},"vehicle_type_id":"4","last_reported":1750882344,"current_range_meters":0,"station_id":"","pricing_plan_id":"cebpf4jnsgd1na2vs0mg"},{"bike_id":"9d3724b1-0dc8-4689-9d6a-55005a9503cb","system_id":"levelo_inurba_marseille","lat":43.2864,"lon":5.42815,"is_reserved":false,"is_disabled":true,"rental_uris":{"android":"levelo://app?vid=9d3724b1-0dc8-4689-9d6a-55005a9503cb","ios":"levelo://app?vid=9d3724b1-0dc8-4689-9d6a-55005a9503cb"},"vehicle_type_id":"4","last_reported":1750882344,"current_range_meters":0,"station_id":"","pricing_plan_id":"cebpf4jnsgd1na2vs0mg"},{"bike_id":"17f2bf91-421e-46bd-a761-71a4f27295fd","system_id":"levelo_inurba_marseille","lat":43.238439,"lon":5.430672,"is_reserved":false,"is_disabled":true,"rental_uris":{"android":"levelo://app?vid=17f2bf91-421e-46bd-a761-71a4f27295fd","ios":"levelo://app?vid=17f2bf91-421e-46bd-a761-71a4f27295fd"},"vehicle_type_id":"4","last_reported":1750882344,"current_range_meters":0,"station_id":"","pricing_plan_id":"cebpf4jnsgd1na2vs0mg"},{"bike_id":"3d07ef76-af52-42e0-81f1-5f4963c9ee29","system_id":"levelo_inurba_marseille","lat":43.29465,"lon":5.43842,"is_reserved":false,"is_disabled":true,"rental_uris":{"android":"levelo://app?vid=3d07ef76-af52-42e0-81f1-5f4963c9ee29","ios":"levelo://app?vid=3d07ef76-af52-42e0-81f1-5f4963c9ee29"},"vehicle_type_id":"4","last_reported":1750882344,"current_range_meters":0,"station_id":"","pricing_plan_id":"cebpf4jnsgd1na2vs0mg"},{"bike_id":"9b8be277-ab0e-4923-93d8-769b11e4cdb7","system_id":"levelo_inurba_marseille","lat":43.26079,"lon":5.38707,"is_reserved":false,"is_disabled":true,"rental_uris":{"android":"levelo://app?vid=9b8be277-ab0e-4923-93d8-769b11e4cdb7","ios":"levelo://app?vid=9b8be277-ab0e-4923-93d8-769b11e4cdb7"},"vehicle_type_id":"4","last_reported":1750882344,"current_range_meters":0,"station_id":"","pricing_plan_id":"cebpf4jnsgd1na2vs0mg"},{"bike_id":"de08631c-43a1-4cf4-a982-0e913eb46f16","system_id":"levelo_inurba_marseille","lat":43.29602,"lon":5.38101,"is_reserved":false,"is_disabled":true,"rental_uris":{"android":"levelo://app?vid=de08631c-43a1-4cf4-a982-0e913eb46f16","ios":"levelo://app?vid=de08631c-43a1-4cf4-a982-0e913eb46f16"},"vehicle_type_id":"4","last_reported":1750882344,"current_range_meters":0,"station_id":"ce4bgl12rcd13ifvqbo0","pricing_plan_id":"cebpf4jnsgd1na2vs0mg"},{"bike_id":"96ddba67-6d62-408d-9dfe-b8096676f444","system_id":"levelo_inurba_marseille","lat":43.31226,"lon":5.36864,"is_reserved":false,"is_disabled":true,"rental_uris":{"android":"levelo://app?vid=96ddba67-6d62-408d-9dfe-b8096676f444","ios":"levelo://app?vid=96ddba67-6d62-408d-9dfe-b8096676f444"},"vehicle_type_id":"4","last_reported":1750882344,"current_range_meters":0,"station_id":"ce4bgl92rcd13ifvqbq0","pricing_plan_id":"cebpf4jnsgd1na2vs0mg"},{"bike_id":"3bff3630-2255-47ed-8abe-dc9f7856c3ae","system_id":"levelo_inurba_marseille","lat":43.31507,"lon":5.37285,"is_reserved":false,"is_disabled":true,"rental_uris":{"android":"levelo://app?vid=3bff3630-2255-47ed-8abe-dc9f7856c3ae","ios":"levelo://app?vid=3bff3630-2255-47ed-8abe-dc9f7856c3ae"},"vehicle_type_id":"4","last_reported":1750882344,"current_range_meters":0,"station_id":"ce4bgt12rcd13ifvqcd0","pricing_plan_id":"cebpf4jnsgd1na2vs0mg"},{"bike_id":"01a4fa26-8e75-4727-8531-bcde9366617e","system_id":"levelo_inurba_marseille","lat":43.28357,"lon":5.38106,"is_reserved":false,"is_disabled":true,"rental_uris":{"android":"levelo://app?vid=01a4fa26-8e75-4727-8531-bcde9366617e","ios":"levelo://app?vid=01a4fa26-8e75-4727-8531-bcde9366617e"},"vehicle_type_id":"4","last_reported":1750882344,"current_range_meters":0,"station_id":"ce4bh412rcd13ifvqdr0","pricing_plan_id":"cebpf4jnsgd1na2vs0mg"},{"bike_id":"50cef523-6690-420d-ac28-548e333d137e","system_id":"levelo_inurba_marseille","lat":43.28346,"lon":5.38105,"is_reserved":false,"is_disabled":true,"rental_uris":{"android":"levelo://app?vid=50cef523-6690-420d-ac28-548e333d137e","ios":"levelo://app?vid=50cef523-6690-420d-ac28-548e333d137e"},"vehicle_type_id":"4","last_reported":1750882344,"current_range_meters":0,"station_id":"ce4bh412rcd13ifvqdr0","pricing_plan_id":"cebpf4jnsgd1na2vs0mg"},{"bike_id":"915f9082-80a7-44a9-a9ad-86396ecbeba4","system_id":"levelo_inurba_marseille","lat":43.292694,"lon":5.384289,"is_reserved":false,"is_disabled":true,"rental_uris":{"android":"levelo://app?vid=915f9082-80a7-44a9-a9ad-86396ecbeba4","ios":"levelo://app?vid=915f9082-80a7-44a9-a9ad-86396ecbeba4"},"vehicle_type_id":"4","last_reported":1750882344,"current_range_meters":0,"station_id":"ce4bh692rcd13ifvqea0","pricing_plan_id":"cebpf4jnsgd1na2vs0mg"},{"bike_id":"b568e67b-6987-4817-841f-104585eb8548","system_id":"levelo_inurba_marseille","lat":43.27377,"lon":5.36246,"is_reserved":false,"is_disabled":true,"rental_uris":{"android":"levelo://app?vid=b568e67b-6987-4817-841f-104585eb8548","ios":"levelo://app?vid=b568e67b-6987-4817-841f-104585eb8548"},"vehicle_type_id":"4","last_reported":1750882344,"current_range_meters":0,"station_id":"ce4bhbh2rcd13ifvqeo0","pricing_plan_id":"cebpf4jnsgd1na2vs0mg"},{"bike_id":"6d5df12f-9aa0-4951-a455-9a041f3fec20","system_id":"levelo_inurba_marseille","lat":43.27379,"lon":5.36251,"is_reserved":false,"is_disabled":true,"rental_uris":{"android":"levelo://app?vid=6d5df12f-9aa0-4951-a455-9a041f3fec20","ios":"levelo://app?vid=6d5df12f-9aa0-4951-a455-9a041f3fec20"},"vehicle_type_id":"4","last_reported":1750882344,"current_range_meters":0,"station_id":"ce4bhbh2rcd13ifvqeo0","pricing_plan_id":"cebpf4jnsgd1na2vs0mg"},{"bike_id":"5f7b24b6-7cab-4053-8aad-fa9ebf7f1f1c","system_id":"levelo_inurba_marseille","lat":43.27377,"lon":5.36266,"is_reserved":false,"is_disabled":true,"rental_uris":{"android":"levelo://app?vid=5f7b24b6-7cab-4053-8aad-fa9ebf7f1f1c","ios":"levelo://app?vid=5f7b24b6-7cab-4053-8aad-fa9ebf7f1f1c"},"vehicle_type_id":"4","last_reported":1750882344,"current_range_meters":0,"station_id":"ce4bhbh2rcd13ifvqeo0","pricing_plan_id":"cebpf4jnsgd1na2vs0mg"},{"bike_id":"8fc1579d-aabc-465b-81f9-d5466d90aa35","system_id":"levelo_inurba_marseille","lat":43.27918,"lon":5.39568,"is_reserved":false,"is_disabled":true,"rental_uris":{"android":"levelo://app?vid=8fc1579d-aabc-465b-81f9-d5466d90aa35","ios":"levelo://app?vid=8fc1579d-aabc-465b-81f9-d5466d90aa35"},"vehicle_type_id":"4","last_reported":1750882344,"current_range_meters":0,"station_id":"ce4bhf92rcd13ifvqf40","pricing_plan_id":"cebpf4jnsgd1na2vs0mg"},{"bike_id":"16c2fb0a-81cf-4ac3-b860-e85261ab6450","system_id":"levelo_inurba_marseille","lat":43.262198,"lon":5.37438,"is_reserved":false,"is_disabled":true,"rental_uris":{"android":"levelo://app?vid=16c2fb0a-81cf-4ac3-b860-e85261ab6450","ios":"levelo://app?vid=16c2fb0a-81cf-4ac3-b860-e85261ab6450"},"vehicle_type_id":"4","last_reported":1750882344,"current_range_meters":0,"station_id":"ce4bhgp2rcd13ifvqfc0","pricing_plan_id":"cebpf4jnsgd1na2vs0mg"},{"bike_id":"000d9b6b-5e7e-4a6f-baba-cf92d7ba4ae2","system_id":"levelo_inurba_marseille","lat":43.25492,"lon":5.37647,"is_reserved":false,"is_disabled":true,"rental_uris":{"android":"levelo://app?vid=000d9b6b-5e7e-4a6f-baba-cf92d7ba4ae2","ios":"levelo://app?vid=000d9b6b-5e7e-4a6f-baba-cf92d7ba4ae2"},"vehicle_type_id":"4","last_reported":1750882344,"current_range_meters":0,"station_id":"ce4bhh12rcd13ifvqff0","pricing_plan_id":"cebpf4jnsgd1na2vs0mg"},{"bike_id":"d9fa611a-e9bb-46f8-ad25-98e57c4ae4ed","system_id":"levelo_inurba_marseille","lat":43.27068,"lon":5.42278,"is_reserved":false,"is_disabled":true,"rental_uris":{"android":"levelo://app?vid=d9fa611a-e9bb-46f8-ad25-98e57c4ae4ed","ios":"levelo://app?vid=d9fa611a-e9bb-46f8-ad25-98e57c4ae4ed"},"vehicle_type_id":"4","last_reported":1750882344,"current_range_meters":0,"station_id":"ce4bhk92rcd13ifvqgb0","pricing_plan_id":"cebpf4jnsgd1na2vs0mg"},{"bike_id":"a051ca7a-ac8c-4df1-8786-313ad90e2e71","system_id":"levelo_inurba_marseille","lat":43.2706,"lon":5.40254,"is_reserved":false,"is_disabled":true,"rental_uris":{"android":"levelo://app?vid=a051ca7a-ac8c-4df1-8786-313ad90e2e71","ios":"levelo://app?vid=a051ca7a-ac8c-4df1-8786-313ad90e2e71"},"vehicle_type_id":"4","last_reported":1750882344,"current_range_meters":0,"station_id":"ce4bhk92rcd13ifvqgc0","pricing_plan_id":"cebpf4jnsgd1na2vs0mg"},{"bike_id":"ebcb3503-a19b-41ed-902e-d207cffdba45","system_id":"levelo_inurba_marseille","lat":43.23157,"lon":5.43705,"is_reserved":false,"is_disabled":true,"rental_uris":{"android":"levelo://app?vid=ebcb3503-a19b-41ed-902e-d207cffdba45","ios":"levelo://app?vid=ebcb3503-a19b-41ed-902e-d207cffdba45"},"vehicle_type_id":"4","last_reported":1750882344,"current_range_meters":0,"station_id":"ce4bhmp2rcd13ifvqgog","pricing_plan_id":"cebpf4jnsgd1na2vs0mg"},{"bike_id":"a01c2600-7eef-4f65-9ebc-03105e468d59","system_id":"levelo_inurba_marseille","lat":43.3031,"lon":5.39196,"is_reserved":false,"is_disabled":true,"rental_uris":{"android":"levelo://app?vid=a01c2600-7eef-4f65-9ebc-03105e468d59","ios":"levelo://app?vid=a01c2600-7eef-4f65-9ebc-03105e468d59"},"vehicle_type_id":"4","last_reported":1750882344,"current_range_meters":400,"station_id":"ce4bgkh2rcd13ifvqbk0","pricing_plan_id":"cebpf4jnsgd1na2vs0mg"},{"bike_id":"8e0ae158-8d4a-4436-ae7b-b92fbb5f52c5","system_id":"levelo_inurba_marseille","lat":43.31714,"lon":5.37742,"is_reserved":false,"is_disabled":true,"rental_uris":{"android":"levelo://app?vid=8e0ae158-8d4a-4436-ae7b-b92fbb5f52c5","ios":"levelo://app?vid=8e0ae158-8d4a-4436-ae7b-b92fbb5f52c5"},"vehicle_type_id":"4","last_reported":1750882344,"current_range_meters":400,"station_id":"ce4bgth2rcd13ifvqch0","pricing_plan_id":"cebpf4jnsgd1na2vs0mg"},{"bike_id":"96630c5c-2ab1-477a-9226-20000b5f790c","system_id":"levelo_inurba_marseille","lat":43.23188,"lon":5.39974,"is_reserved":false,"is_disabled":true,"rental_uris":{"android":"levelo://app?vid=96630c5c-2ab1-477a-9226-20000b5f790c","ios":"levelo://app?vid=96630c5c-2ab1-477a-9226-20000b5f790c"},"vehicle_type_id":"4","last_reported":1750882344,"current_range_meters":400,"station_id":"ce4bhn12rcd13ifvqgqg","pricing_plan_id":"cebpf4jnsgd1na2vs0mg"},{"bike_id":"b9c69dd5-a0d1-4448-80eb-b9426f311082","system_id":"levelo_inurba_marseille","lat":43.30444,"lon":5.41252,"is_reserved":false,"is_disabled":true,"rental_uris":{"android":"levelo://app?vid=b9c69dd5-a0d1-4448-80eb-b9426f311082","ios":"levelo://app?vid=b9c69dd5-a0d1-4448-80eb-b9426f311082"},"vehicle_type_id":"4","last_reported":1750882344,"current_range_meters":400,"station_id":"ce4bhop2rcd13ifvqh8g","pricing_plan_id":"cebpf4jnsgd1na2vs0mg"},{"bike_id":"45f54f61-99b2-4a5e-a6aa-41e252486eeb","system_id":"levelo_inurba_marseille","lat":43.22806,"lon":5.3494,"is_reserved":false,"is_disabled":true,"rental_uris":{"android":"levelo://app?vid=45f54f61-99b2-4a5e-a6aa-41e252486eeb","ios":"levelo://app?vid=45f54f61-99b2-4a5e-a6aa-41e252486eeb"},"vehicle_type_id":"4","last_reported":1750882344,"current_range_meters":800,"station_id":"","pricing_plan_id":"cebpf4jnsgd1na2vs0mg"},{"bike_id":"6a5e2240-b341-4ec2-94b6-39a85cf96fad","system_id":"levelo_inurba_marseille","lat":43.311246,"lon":5.378053,"is_reserved":false,"is_disabled":true,"rental_uris":{"android":"levelo://app?vid=6a5e2240-b341-4ec2-94b6-39a85cf96fad","ios":"levelo://app?vid=6a5e2240-b341-4ec2-94b6-39a85cf96fad"},"vehicle_type_id":"4","last_reported":1750882344,"current_range_meters":800,"station_id":"ce4bgt12rcd13ifvqcd0","pricing_plan_id":"cebpf4jnsgd1na2vs0mg"},{"bike_id":"7b5269e1-1723-47c7-a8ff-00fd865f8842","system_id":"levelo_inurba_marseille","lat":43.30094,"lon":5.3907,"is_reserved":false,"is_disabled":true,"rental_uris":{"android":"levelo://app?vid=7b5269e1-1723-47c7-a8ff-00fd865f8842","ios":"levelo://app?vid=7b5269e1-1723-47c7-a8ff-00fd865f8842"},"vehicle_type_id":"4","last_reported":1750882344,"current_range_meters":800,"station_id":"ce4bh192rcd13ifvqdb0","pricing_plan_id":"cebpf4jnsgd1na2vs0mg"},{"bike_id":"04297790-7581-40a2-83f4-22a650351432","system_id":"levelo_inurba_marseille","lat":43.29045,"lon":5.38158,"is_reserved":false,"is_disabled":true,"rental_uris":{"android":"levelo://app?vid=04297790-7581-40a2-83f4-22a650351432","ios":"levelo://app?vid=04297790-7581-40a2-83f4-22a650351432"},"vehicle_type_id":"4","last_reported":1750882344,"current_range_meters":800,"station_id":"ce4bh4p2rcd13ifvqe1g","pricing_plan_id":"cebpf4jnsgd1na2vs0mg"},{"bike_id":"71475482-903b-4e29-a3f5-60e4f06283e9","system_id":"levelo_inurba_marseille","lat":43.28466,"lon":5.38407,"is_reserved":false,"is_disabled":true,"rental_uris":{"android":"levelo://app?vid=71475482-903b-4e29-a3f5-60e4f06283e9","ios":"levelo://app?vid=71475482-903b-4e29-a3f5-60e4f06283e9"},"vehicle_type_id":"4","last_reported":1750882344,"current_range_meters":800,"station_id":"ce4bh512rcd13ifvqe3g","pricing_plan_id":"cebpf4jnsgd1na2vs0mg"},{"bike_id":"e6f09f53-b207-4d8c-a0ae-3bb5ccbf5797","system_id":"levelo_inurba_marseille","lat":43.2567,"lon":5.38288,"is_reserved":false,"is_disabled":true,"rental_uris":{"android":"levelo://app?vid=e6f09f53-b207-4d8c-a0ae-3bb5ccbf5797","ios":"levelo://app?vid=e6f09f53-b207-4d8c-a0ae-3bb5ccbf5797"},"vehicle_type_id":"4","last_reported":1750882344,"current_range_meters":1200,"station_id":"","pricing_plan_id":"cebpf4jnsgd1na2vs0mg"},{"bike_id":"e958b87a-6435-444a-8654-6ab949754ae0","system_id":"levelo_inurba_marseille","lat":43.31379,"lon":5.372174,"is_reserved":false,"is_disabled":true,"rental_uris":{"android":"levelo://app?vid=e958b87a-6435-444a-8654-6ab949754ae0","ios":"levelo://app?vid=e958b87a-6435-444a-8654-6ab949754ae0"},"vehicle_type_id":"4","last_reported":1750882344,"current_range_meters":1200,"station_id":"","pricing_plan_id":"cebpf4jnsgd1na2vs0mg"},{"bike_id":"91c15b17-f1e7-419b-9f1c-1ef5e986273c","system_id":"levelo_inurba_marseille","lat":43.29774,"lon":5.37095,"is_reserved":false,"is_disabled":true,"rental_uris":{"android":"levelo://app?vid=91c15b17-f1e7-419b-9f1c-1ef5e986273c","ios":"levelo://app?vid=91c15b17-f1e7-419b-9f1c-1ef5e986273c"},"vehicle_type_id":"4","last_reported":1750882344,"current_range_meters":1200,"station_id":"ce4bgop2rcd13ifvqc1g","pricing_plan_id":"cebpf4jnsgd1na2vs0mg"},{"bike_id":"813d7bb1-2621-40c4-bb0a-6d5e13d60884","system_id":"levelo_inurba_marseille","lat":43.28412,"lon":5.3751,"is_reserved":false,"is_disabled":true,"rental_uris":{"android":"levelo://app?vid=813d7bb1-2621-40c4-bb0a-6d5e13d60884","ios":"levelo://app?vid=813d7bb1-2621-40c4-bb0a-6d5e13d60884"},"vehicle_type_id":"4","last_reported":1750882344,"current_range_meters":1200,"station_id":"ce4bh412rcd13ifvqds0","pricing_plan_id":"cebpf4jnsgd1na2vs0mg"},{"bike_id":"c185b76f-e3e0-46a2-90c7-38c84f668879","system_id":"levelo_inurba_marseille","lat":43.291016,"lon":5.381308,"is_reserved":false,"is_disabled":true,"rental_uris":{"android":"levelo://app?vid=c185b76f-e3e0-46a2-90c7-38c84f668879","ios":"levelo://app?vid=c185b76f-e3e0-46a2-90c7-38c84f668879"},"vehicle_type_id":"4","last_reported":1750882344,"current_range_meters":1200,"station_id":"ce4bh4p2rcd13ifvqe1g","pricing_plan_id":"cebpf4jnsgd1na2vs0mg"},{"bike_id":"9b751c24-8302-4ba3-ac51-12c5f8ffef2f","system_id":"levelo_inurba_marseille","lat":43.28929,"lon":5.38398,"is_reserved":false,"is_disabled":true,"rental_uris":{"android":"levelo://app?vid=9b751c24-8302-4ba3-ac51-12c5f8ffef2f","ios":"levelo://app?vid=9b751c24-8302-4ba3-ac51-12c5f8ffef2f"},"vehicle_type_id":"4","last_reported":1750882344,"current_range_meters":1200,"station_id":"ce4bh612rcd13ifvqe6g","pricing_plan_id":"cebpf4jnsgd1na2vs0mg"},{"bike_id":"b88630a8-14f3-4fd3-a91e-2c7336c4172a","system_id":"levelo_inurba_marseille","lat":43.290475,"lon":5.359188,"is_reserved":false,"is_disabled":true,"rental_uris":{"android":"levelo://app?vid=b88630a8-14f3-4fd3-a91e-2c7336c4172a","ios":"levelo://app?vid=b88630a8-14f3-4fd3-a91e-2c7336c4172a"},"vehicle_type_id":"4","last_reported":1750882344,"current_range_meters":1200,"station_id":"ce4bha92rcd13ifvqeg0","pricing_plan_id":"cebpf4jnsgd1na2vs0mg"},{"bike_id":"43142e98-c2d2-4bac-8710-dcaf5b4d014c","system_id":"levelo_inurba_marseille","lat":43.299,"lon":5.43642,"is_reserved":false,"is_disabled":true,"rental_uris":{"android":"levelo://app?vid=43142e98-c2d2-4bac-8710-dcaf5b4d014c","ios":"levelo://app?vid=43142e98-c2d2-4bac-8710-dcaf5b4d014c"},"vehicle_type_id":"4","last_reported":1750882344,"current_range_meters":1200,"station_id":"ce4bhpp2rcd13ifvqhfg","pricing_plan_id":"cebpf4jnsgd1na2vs0mg"},{"bike_id":"91f7d707-bc77-4fa2-be75-d62d1e5a6157","system_id":"levelo_inurba_marseille","lat":43.28705,"lon":5.37391,"is_reserved":false,"is_disabled":true,"rental_uris":{"android":"levelo://app?vid=91f7d707-bc77-4fa2-be75-d62d1e5a6157","ios":"levelo://app?vid=91f7d707-bc77-4fa2-be75-d62d1e5a6157"},"vehicle_type_id":"4","last_reported":1750882344,"current_range_meters":1600,"station_id":"ce4bh3p2rcd13ifvqdq0","pricing_plan_id":"cebpf4jnsgd1na2vs0mg"},{"bike_id":"eb02271a-f372-4bd0-830d-271bdaf9a571","system_id":"levelo_inurba_marseille","lat":43.26552,"lon":5.37289,"is_reserved":false,"is_disabled":true,"rental_uris":{"android":"levelo://app?vid=eb02271a-f372-4bd0-830d-271bdaf9a571","ios":"levelo://app?vid=eb02271a-f372-4bd0-830d-271bdaf9a571"},"vehicle_type_id":"4","last_reported":1750882344,"current_range_meters":1600,"station_id":"ce4bhg12rcd13ifvqf70","pricing_plan_id":"cebpf4jnsgd1na2vs0mg"},{"bike_id":"2c463f67-bcde-4a65-a32d-52befeefb14f","system_id":"levelo_inurba_marseille","lat":43.26212,"lon":5.37437,"is_reserved":false,"is_disabled":true,"rental_uris":{"android":"levelo://app?vid=2c463f67-bcde-4a65-a32d-52befeefb14f","ios":"levelo://app?vid=2c463f67-bcde-4a65-a32d-52befeefb14f"},"vehicle_type_id":"4","last_reported":1750882344,"current_range_meters":1600,"station_id":"ce4bhgp2rcd13ifvqfc0","pricing_plan_id":"cebpf4jnsgd1na2vs0mg"},{"bike_id":"9232167a-6cb8-4861-ac10-d1c66e0a839a","system_id":"levelo_inurba_marseille","lat":43.30141,"lon":5.38779,"is_reserved":false,"is_disabled":true,"rental_uris":{"android":"levelo://app?vid=9232167a-6cb8-4861-ac10-d1c66e0a839a","ios":"levelo://app?vid=9232167a-6cb8-4861-ac10-d1c66e0a839a"},"vehicle_type_id":"4","last_reported":1750882344,"current_range_meters":2000,"station_id":"ce4bghh2rcd13ifvqb60","pricing_plan_id":"cebpf4jnsgd1na2vs0mg"},{"bike_id":"37e5bf19-f914-4ce8-8a1f-ff6c1c7ad4a4","system_id":"levelo_inurba_marseille","lat":43.30541,"lon":5.36558,"is_reserved":false,"is_disabled":true,"rental_uris":{"android":"levelo://app?vid=37e5bf19-f914-4ce8-8a1f-ff6c1c7ad4a4","ios":"levelo://app?vid=37e5bf19-f914-4ce8-8a1f-ff6c1c7ad4a4"},"vehicle_type_id":"4","last_reported":1750882344,"current_range_meters":2000,"station_id":"ce4bgs12rcd13ifvqcag","pricing_plan_id":"cebpf4jnsgd1na2vs0mg"},{"bike_id":"ab1f4be9-8355-471b-a8ab-63c808bd93fe","system_id":"levelo_inurba_marseille","lat":43.286663,"lon":5.36339,"is_reserved":false,"is_disabled":true,"rental_uris":{"android":"levelo://app?vid=ab1f4be9-8355-471b-a8ab-63c808bd93fe","ios":"levelo://app?vid=ab1f4be9-8355-471b-a8ab-63c808bd93fe"},"vehicle_type_id":"4","last_reported":1750882344,"current_range_meters":2000,"station_id":"ce4bhah2rcd13ifvqej0","pricing_plan_id":"cebpf4jnsgd1na2vs0mg"},{"bike_id":"1dc015bd-fda7-40b4-88ea-03256923f3db","system_id":"levelo_inurba_marseille","lat":43.26024,"lon":5.37547,"is_reserved":false,"is_disabled":true,"rental_uris":{"android":"levelo://app?vid=1dc015bd-fda7-40b4-88ea-03256923f3db","ios":"levelo://app?vid=1dc015bd-fda7-40b4-88ea-03256923f3db"},"vehicle_type_id":"4","last_reported":1750882344,"current_range_meters":2000,"station_id":"ce4bhgh2rcd13ifvqfa0","pricing_plan_id":"cebpf4jnsgd1na2vs0mg"},{"bike_id":"71638a97-e772-4edf-9ced-c2d7aeb98c01","system_id":"levelo_inurba_marseille","lat":43.25855,"lon":5.399374,"is_reserved":false,"is_disabled":true,"rental_uris":{"android":"levelo://app?vid=71638a97-e772-4edf-9ced-c2d7aeb98c01","ios":"levelo://app?vid=71638a97-e772-4edf-9ced-c2d7aeb98c01"},"vehicle_type_id":"4","last_reported":1750882344,"current_range_meters":2000,"station_id":"ce4bhl92rcd13ifvqghg","pricing_plan_id":"cebpf4jnsgd1na2vs0mg"},{"bike_id":"04c5447d-2fa4-4d22-b91b-9dc8474fa1c2","system_id":"levelo_inurba_marseille","lat":43.24171,"lon":5.36397,"is_reserved":false,"is_disabled":true,"rental_uris":{"android":"levelo://app?vid=04c5447d-2fa4-4d22-b91b-9dc8474fa1c2","ios":"levelo://app?vid=04c5447d-2fa4-4d22-b91b-9dc8474fa1c2"},"vehicle_type_id":"4","last_reported":1750882344,"current_range_meters":2000,"station_id":"cpo36qri1sfpv3e86is0","pricing_plan_id":"cebpf4jnsgd1na2vs0mg"},{"bike_id":"82b2227c-9b70-41ec-ace7-30a834c01c22","system_id":"levelo_inurba_marseille","lat":43.29589,"lon":5.40046,"is_reserved":false,"is_disabled":false,"rental_uris":{"android":"levelo://app?vid=82b2227c-9b70-41ec-ace7-30a834c01c22","ios":"levelo://app?vid=82b2227c-9b70-41ec-ace7-30a834c01c22"},"vehicle_type_id":"4","last_reported":1750882344,"current_range_meters":2800,"station_id":"","pricing_plan_id":"cebpf4jnsgd1na2vs0mg"},{"bike_id":"c7f4a325-15c0-4753-a423-998403766c5e","system_id":"levelo_inurba_marseille","lat":43.30934,"lon":5.40129,"is_reserved":false,"is_disabled":false,"rental_uris":{"android":"levelo://app?vid=c7f4a325-15c0-4753-a423-998403766c5e","ios":"levelo://app?vid=c7f4a325-15c0-4753-a423-998403766c5e"},"vehicle_type_id":"4","last_reported":1750882344,"current_range_meters":2800,"station_id":"ce4bgvp2rcd13ifvqct0","pricing_plan_id":"cebpf4jnsgd1na2vs0mg"},{"bike_id":"1395c84d-fff8-4fc1-b67b-51fd47d41de0","system_id":"levelo_inurba_marseille","lat":43.25002,"lon":5.38926,"is_reserved":false,"is_disabled":false,"rental_uris":{"android":"levelo://app?vid=1395c84d-fff8-4fc1-b67b-51fd47d41de0","ios":"levelo://app?vid=1395c84d-fff8-4fc1-b67b-51fd47d41de0"},"vehicle_type_id":"4","last_reported":1750882344,"current_range_meters":2800,"station_id":"ce4bhgp2rcd13ifvqfd0","pricing_plan_id":"cebpf4jnsgd1na2vs0mg"},{"bike_id":"5977d0b3-7af0-4e66-9b0a-0f04cafe84cd","system_id":"levelo_inurba_marseille","lat":43.30897,"lon":5.39594,"is_reserved":false,"is_disabled":false,"rental_uris":{"android":"levelo://app?vid=5977d0b3-7af0-4e66-9b0a-0f04cafe84cd","ios":"levelo://app?vid=5977d0b3-7af0-4e66-9b0a-0f04cafe84cd"},"vehicle_type_id":"4","last_reported":1750882344,"current_range_meters":3200,"station_id":"","pricing_plan_id":"cebpf4jnsgd1na2vs0mg"},{"bike_id":"465d2323-f97d-48b0-a820-bc5fa54ae0fa","system_id":"levelo_inurba_marseille","lat":43.28392,"lon":5.45984,"is_reserved":false,"is_disabled":false,"rental_uris":{"android":"levelo://app?vid=465d2323-f97d-48b0-a820-bc5fa54ae0fa","ios":"levelo://app?vid=465d2323-f97d-48b0-a820-bc5fa54ae0fa"},"vehicle_type_id":"4","last_reported":1750882344,"current_range_meters":3200,"station_id":"","pricing_plan_id":"cebpf4jnsgd1na2vs0mg"},{"bike_id":"04d3bfc6-d897-4e53-9242-b6b91dc360fe","system_id":"levelo_inurba_marseille","lat":43.29993,"lon":5.39668,"is_reserved":false,"is_disabled":false,"rental_uris":{"android":"levelo://app?vid=04d3bfc6-d897-4e53-9242-b6b91dc360fe","ios":"levelo://app?vid=04d3bfc6-d897-4e53-9242-b6b91dc360fe"},"vehicle_type_id":"4","last_reported":1750882344,"current_range_meters":3200,"station_id":"","pricing_plan_id":"cebpf4jnsgd1na2vs0mg"},{"bike_id":"27e24b4b-7efc-42d9-ae6a-3db9cba9f94f","system_id":"levelo_inurba_marseille","lat":43.23182,"lon":5.39998,"is_reserved":false,"is_disabled":false,"rental_uris":{"android":"levelo://app?vid=27e24b4b-7efc-42d9-ae6a-3db9cba9f94f","ios":"levelo://app?vid=27e24b4b-7efc-42d9-ae6a-3db9cba9f94f"},"vehicle_type_id":"4","last_reported":1750882344,"current_range_meters":3200,"station_id":"ce4bhn12rcd13ifvqgqg","pricing_plan_id":"cebpf4jnsgd1na2vs0mg"},{"bike_id":"f333bcb3-17e0-43f1-847f-eb3d745e3e41","system_id":"levelo_inurba_marseille","lat":43.2934,"lon":5.42825,"is_reserved":false,"is_disabled":false,"rental_uris":{"android":"levelo://app?vid=f333bcb3-17e0-43f1-847f-eb3d745e3e41","ios":"levelo://app?vid=f333bcb3-17e0-43f1-847f-eb3d745e3e41"},"vehicle_type_id":"4","last_reported":1750882344,"current_range_meters":3600,"station_id":"","pricing_plan_id":"cebpf4jnsgd1na2vs0mg"},{"bike_id":"ee2c7b93-1aeb-46bf-8ea5-5ed691195404","system_id":"levelo_inurba_marseille","lat":43.292694,"lon":5.384348,"is_reserved":false,"is_disabled":false,"rental_uris":{"android":"levelo://app?vid=ee2c7b93-1aeb-46bf-8ea5-5ed691195404","ios":"levelo://app?vid=ee2c7b93-1aeb-46bf-8ea5-5ed691195404"},"vehicle_type_id":"4","last_reported":1750882344,"current_range_meters":3600,"station_id":"ce4bh692rcd13ifvqea0","pricing_plan_id":"cebpf4jnsgd1na2vs0mg"},{"bike_id":"af7061df-2a3d-4257-9dce-2f46f29a6a4c","system_id":"levelo_inurba_marseille","lat":43.25495,"lon":5.37643,"is_reserved":false,"is_disabled":false,"rental_uris":{"android":"levelo://app?vid=af7061df-2a3d-4257-9dce-2f46f29a6a4c","ios":"levelo://app?vid=af7061df-2a3d-4257-9dce-2f46f29a6a4c"},"vehicle_type_id":"4","last_reported":1750882344,"current_range_meters":3600,"station_id":"ce4bhh12rcd13ifvqff0","pricing_plan_id":"cebpf4jnsgd1na2vs0mg"},{"bike_id":"eb31cea7-8b7f-4ffa-b95d-3e16ebc20f67","system_id":"levelo_inurba_marseille","lat":43.269526,"lon":5.386573,"is_reserved":false,"is_disabled":false,"rental_uris":{"android":"levelo://app?vid=eb31cea7-8b7f-4ffa-b95d-3e16ebc20f67","ios":"levelo://app?vid=eb31cea7-8b7f-4ffa-b95d-3e16ebc20f67"},"vehicle_type_id":"4","last_reported":1750882344,"current_range_meters":3600,"station_id":"ce4bhh92rcd13ifvqfh0","pricing_plan_id":"cebpf4jnsgd1na2vs0mg"},{"bike_id":"17240ff8-0f9b-494f-a7e6-fc10c35928de","system_id":"levelo_inurba_marseille","lat":43.307,"lon":5.37369,"is_reserved":false,"is_disabled":false,"rental_uris":{"android":"levelo://app?vid=17240ff8-0f9b-494f-a7e6-fc10c35928de","ios":"levelo://app?vid=17240ff8-0f9b-494f-a7e6-fc10c35928de"},"vehicle_type_id":"4","last_reported":1750882344,"current_range_meters":4000,"station_id":"","pricing_plan_id":"cebpf4jnsgd1na2vs0mg"},{"bike_id":"4139e58e-5cd8-443f-b906-b455f35392f1","system_id":"levelo_inurba_marseille","lat":43.27382,"lon":5.36256,"is_reserved":false,"is_disabled":false,"rental_uris":{"android":"levelo://app?vid=4139e58e-5cd8-443f-b906-b455f35392f1","ios":"levelo://app?vid=4139e58e-5cd8-443f-b906-b455f35392f1"},"vehicle_type_id":"4","last_reported":1750882344,"current_range_meters":4400,"station_id":"ce4bhbh2rcd13ifvqeo0","pricing_plan_id":"cebpf4jnsgd1na2vs0mg"},{"bike_id":"ccf1b32f-45c1-4f88-92c7-a51e916dc31f","system_id":"levelo_inurba_marseille","lat":43.26804,"lon":5.40268,"is_reserved":false,"is_disabled":false,"rental_uris":{"android":"levelo://app?vid=ccf1b32f-45c1-4f88-92c7-a51e916dc31f","ios":"levelo://app?vid=ccf1b32f-45c1-4f88-92c7-a51e916dc31f"},"vehicle_type_id":"4","last_reported":1750882344,"current_range_meters":4400,"station_id":"ce501612rcd8frsf0b60","pricing_plan_id":"cebpf4jnsgd1na2vs0mg"},{"bike_id":"af9394ba-8ed5-42c3-9c3f-7c1b84a96d0f","system_id":"levelo_inurba_marseille","lat":43.287202,"lon":5.360934,"is_reserved":false,"is_disabled":false,"rental_uris":{"android":"levelo://app?vid=af9394ba-8ed5-42c3-9c3f-7c1b84a96d0f","ios":"levelo://app?vid=af9394ba-8ed5-42c3-9c3f-7c1b84a96d0f"},"vehicle_type_id":"4","last_reported":1750882344,"current_range_meters":4400,"station_id":"cki0cbj6b192h4jlfktg","pricing_plan_id":"cebpf4jnsgd1na2vs0mg"},{"bike_id":"099b646e-ba6a-47e5-9f39-887b10c8baaa","system_id":"levelo_inurba_marseille","lat":43.27133,"lon":5.40925,"is_reserved":false,"is_disabled":false,"rental_uris":{"android":"levelo://app?vid=099b646e-ba6a-47e5-9f39-887b10c8baaa","ios":"levelo://app?vid=099b646e-ba6a-47e5-9f39-887b10c8baaa"},"vehicle_type_id":"4","last_reported":1750882344,"current_range_meters":4800,"station_id":"","pricing_plan_id":"cebpf4jnsgd1na2vs0mg"},{"bike_id":"156180f5-90cc-42ff-bbc5-56e5f3104370","system_id":"levelo_inurba_marseille","lat":43.23864,"lon":5.43035,"is_reserved":false,"is_disabled":false,"rental_uris":{"android":"levelo://app?vid=156180f5-90cc-42ff-bbc5-56e5f3104370","ios":"levelo://app?vid=156180f5-90cc-42ff-bbc5-56e5f3104370"},"vehicle_type_id":"4","last_reported":1750882344,"current_range_meters":4800,"station_id":"","pricing_plan_id":"cebpf4jnsgd1na2vs0mg"},{"bike_id":"91162b89-1bb6-4677-b0c3-e3f6ee71790a","system_id":"levelo_inurba_marseille","lat":43.295288,"lon":5.385426,"is_reserved":false,"is_disabled":false,"rental_uris":{"android":"levelo://app?vid=91162b89-1bb6-4677-b0c3-e3f6ee71790a","ios":"levelo://app?vid=91162b89-1bb6-4677-b0c3-e3f6ee71790a"},"vehicle_type_id":"4","last_reported":1750882344,"current_range_meters":4800,"station_id":"ce4bgih2rcd13ifvqba0","pricing_plan_id":"cebpf4jnsgd1na2vs0mg"},{"bike_id":"a0760026-f5aa-44de-98d1-79186a831343","system_id":"levelo_inurba_marseille","lat":43.28928,"lon":5.3841,"is_reserved":false,"is_disabled":false,"rental_uris":{"android":"levelo://app?vid=a0760026-f5aa-44de-98d1-79186a831343","ios":"levelo://app?vid=a0760026-f5aa-44de-98d1-79186a831343"},"vehicle_type_id":"4","last_reported":1750882344,"current_range_meters":4800,"station_id":"ce4bh612rcd13ifvqe6g","pricing_plan_id":"cebpf4jnsgd1na2vs0mg"},{"bike_id":"54948d3e-db53-4610-8980-5b4c36ff6f25","system_id":"levelo_inurba_marseille","lat":43.28156,"lon":5.4264,"is_reserved":false,"is_disabled":false,"rental_uris":{"android":"levelo://app?vid=54948d3e-db53-4610-8980-5b4c36ff6f25","ios":"levelo://app?vid=54948d3e-db53-4610-8980-5b4c36ff6f25"},"vehicle_type_id":"4","last_reported":1750882344,"current_range_meters":4800,"station_id":"ce4bhnh2rcd13ifvqgug","pricing_plan_id":"cebpf4jnsgd1na2vs0mg"},{"bike_id":"d705077f-b2a1-46f0-aea8-ddf035556f86","system_id":"levelo_inurba_marseille","lat":43.292682,"lon":5.384348,"is_reserved":false,"is_disabled":false,"rental_uris":{"android":"levelo://app?vid=d705077f-b2a1-46f0-aea8-ddf035556f86","ios":"levelo://app?vid=d705077f-b2a1-46f0-aea8-ddf035556f86"},"vehicle_type_id":"4","last_reported":1750882344,"current_range_meters":5600,"station_id":"","pricing_plan_id":"cebpf4jnsgd1na2vs0mg"},{"bike_id":"6c5d737c-dce7-4c40-a219-804cddbc549c","system_id":"levelo_inurba_marseille","lat":43.29531,"lon":5.38536,"is_reserved":false,"is_disabled":false,"rental_uris":{"android":"levelo://app?vid=6c5d737c-dce7-4c40-a219-804cddbc549c","ios":"levelo://app?vid=6c5d737c-dce7-4c40-a219-804cddbc549c"},"vehicle_type_id":"4","last_reported":1750882344,"current_range_meters":5600,"station_id":"ce4bgih2rcd13ifvqba0","pricing_plan_id":"cebpf4jnsgd1na2vs0mg"},{"bike_id":"ecf89a4e-e598-48c5-b4da-726c37c1627d","system_id":"levelo_inurba_marseille","lat":43.31487,"lon":5.37307,"is_reserved":false,"is_disabled":false,"rental_uris":{"android":"levelo://app?vid=ecf89a4e-e598-48c5-b4da-726c37c1627d","ios":"levelo://app?vid=ecf89a4e-e598-48c5-b4da-726c37c1627d"},"vehicle_type_id":"4","last_reported":1750882344,"current_range_meters":5600,"station_id":"ce4bgt12rcd13ifvqcd0","pricing_plan_id":"cebpf4jnsgd1na2vs0mg"},{"bike_id":"c3f17245-3731-4b4f-8db6-a47d9c1cec5c","system_id":"levelo_inurba_marseille","lat":43.29283,"lon":5.40109,"is_reserved":false,"is_disabled":false,"rental_uris":{"android":"levelo://app?vid=c3f17245-3731-4b4f-8db6-a47d9c1cec5c","ios":"levelo://app?vid=c3f17245-3731-4b4f-8db6-a47d9c1cec5c"},"vehicle_type_id":"4","last_reported":1750882344,"current_range_meters":5600,"station_id":"ce4bh312rcd13ifvqdk0","pricing_plan_id":"cebpf4jnsgd1na2vs0mg"},{"bike_id":"0c4307bd-0192-4099-9ca6-196bcea3418c","system_id":"levelo_inurba_marseille","lat":43.28478,"lon":5.35873,"is_reserved":false,"is_disabled":false,"rental_uris":{"android":"levelo://app?vid=0c4307bd-0192-4099-9ca6-196bcea3418c","ios":"levelo://app?vid=0c4307bd-0192-4099-9ca6-196bcea3418c"},"vehicle_type_id":"4","last_reported":1750882344,"current_range_meters":5600,"station_id":"ce4bhah2rcd13ifvqei0","pricing_plan_id":"cebpf4jnsgd1na2vs0mg"},{"bike_id":"df88f5e8-624f-40cd-9e58-d26addcac077","system_id":"levelo_inurba_marseille","lat":43.25499,"lon":5.37647,"is_reserved":false,"is_disabled":false,"rental_uris":{"android":"levelo://app?vid=df88f5e8-624f-40cd-9e58-d26addcac077","ios":"levelo://app?vid=df88f5e8-624f-40cd-9e58-d26addcac077"},"vehicle_type_id":"4","last_reported":1750882344,"current_range_meters":5600,"station_id":"ce4bhh12rcd13ifvqff0","pricing_plan_id":"cebpf4jnsgd1na2vs0mg"},{"bike_id":"86d04759-ad11-40c7-a10c-17fd2923b766","system_id":"levelo_inurba_marseille","lat":43.25493,"lon":5.37647,"is_reserved":false,"is_disabled":false,"rental_uris":{"android":"levelo://app?vid=86d04759-ad11-40c7-a10c-17fd2923b766","ios":"levelo://app?vid=86d04759-ad11-40c7-a10c-17fd2923b766"},"vehicle_type_id":"4","last_reported":1750882344,"current_range_meters":5600,"station_id":"ce4bhh12rcd13ifvqff0","pricing_plan_id":"cebpf4jnsgd1na2vs0mg"},{"bike_id":"c2d43608-11b6-477a-a3b7-ea86445a76ea","system_id":"levelo_inurba_marseille","lat":43.27494,"lon":5.42447,"is_reserved":false,"is_disabled":false,"rental_uris":{"android":"levelo://app?vid=c2d43608-11b6-477a-a3b7-ea86445a76ea","ios":"levelo://app?vid=c2d43608-11b6-477a-a3b7-ea86445a76ea"},"vehicle_type_id":"4","last_reported":1750882344,"current_range_meters":5600,"station_id":"ce4bhn92rcd13ifvqgrg","pricing_plan_id":"cebpf4jnsgd1na2vs0mg"},{"bike_id":"e471db39-2680-479d-bd80-ed8056f89efe","system_id":"levelo_inurba_marseille","lat":43.28723,"lon":5.36091,"is_reserved":false,"is_disabled":false,"rental_uris":{"android":"levelo://app?vid=e471db39-2680-479d-bd80-ed8056f89efe","ios":"levelo://app?vid=e471db39-2680-479d-bd80-ed8056f89efe"},"vehicle_type_id":"4","last_reported":1750882344,"current_range_meters":5600,"station_id":"cki0cbj6b192h4jlfktg","pricing_plan_id":"cebpf4jnsgd1na2vs0mg"},{"bike_id":"2a258118-38b7-43d4-b09b-51a9197b0d5c","system_id":"levelo_inurba_marseille","lat":43.29539,"lon":5.38546,"is_reserved":false,"is_disabled":false,"rental_uris":{"android":"levelo://app?vid=2a258118-38b7-43d4-b09b-51a9197b0d5c","ios":"levelo://app?vid=2a258118-38b7-43d4-b09b-51a9197b0d5c"},"vehicle_type_id":"4","last_reported":1750882344,"current_range_meters":6000,"station_id":"ce4bgih2rcd13ifvqba0","pricing_plan_id":"cebpf4jnsgd1na2vs0mg"},{"bike_id":"377a3710-ae4f-4594-ac53-95b04d169bc1","system_id":"levelo_inurba_marseille","lat":43.30322,"lon":5.40434,"is_reserved":false,"is_disabled":false,"rental_uris":{"android":"levelo://app?vid=377a3710-ae4f-4594-ac53-95b04d169bc1","ios":"levelo://app?vid=377a3710-ae4f-4594-ac53-95b04d169bc1"},"vehicle_type_id":"4","last_reported":1750882344,"current_range_meters":6000,"station_id":"ce4bh012rcd13ifvqd10","pricing_plan_id":"cebpf4jnsgd1na2vs0mg"},{"bike_id":"41283710-85f7-468a-86e0-babdcd32cc08","system_id":"levelo_inurba_marseille","lat":43.28347,"lon":5.38104,"is_reserved":false,"is_disabled":false,"rental_uris":{"android":"levelo://app?vid=41283710-85f7-468a-86e0-babdcd32cc08","ios":"levelo://app?vid=41283710-85f7-468a-86e0-babdcd32cc08"},"vehicle_type_id":"4","last_reported":1750882344,"current_range_meters":6000,"station_id":"ce4bh412rcd13ifvqdr0","pricing_plan_id":"cebpf4jnsgd1na2vs0mg"},{"bike_id":"49355e43-0c05-4890-99ce-5eb4b561d5a3","system_id":"levelo_inurba_marseille","lat":43.2926,"lon":5.38453,"is_reserved":false,"is_disabled":false,"rental_uris":{"android":"levelo://app?vid=49355e43-0c05-4890-99ce-5eb4b561d5a3","ios":"levelo://app?vid=49355e43-0c05-4890-99ce-5eb4b561d5a3"},"vehicle_type_id":"4","last_reported":1750882344,"current_range_meters":6000,"station_id":"ce4bh692rcd13ifvqea0","pricing_plan_id":"cebpf4jnsgd1na2vs0mg"},{"bike_id":"b9208366-120a-419c-bda8-2dee800b88bc","system_id":"levelo_inurba_marseille","lat":43.25491,"lon":5.37649,"is_reserved":false,"is_disabled":false,"rental_uris":{"android":"levelo://app?vid=b9208366-120a-419c-bda8-2dee800b88bc","ios":"levelo://app?vid=b9208366-120a-419c-bda8-2dee800b88bc"},"vehicle_type_id":"4","last_reported":1750882344,"current_range_meters":6000,"station_id":"ce4bhh12rcd13ifvqff0","pricing_plan_id":"cebpf4jnsgd1na2vs0mg"},{"bike_id":"67a5051a-b32e-408a-8389-c22b54eb81f6","system_id":"levelo_inurba_marseille","lat":43.32987,"lon":5.45632,"is_reserved":false,"is_disabled":false,"rental_uris":{"android":"levelo://app?vid=67a5051a-b32e-408a-8389-c22b54eb81f6","ios":"levelo://app?vid=67a5051a-b32e-408a-8389-c22b54eb81f6"},"vehicle_type_id":"4","last_reported":1750882344,"current_range_meters":6400,"station_id":"","pricing_plan_id":"cebpf4jnsgd1na2vs0mg"},{"bike_id":"e2875ae0-6e0c-4ed6-bb9a-a705f2fcb2a5","system_id":"levelo_inurba_marseille","lat":43.295258,"lon":5.385343,"is_reserved":false,"is_disabled":false,"rental_uris":{"android":"levelo://app?vid=e2875ae0-6e0c-4ed6-bb9a-a705f2fcb2a5","ios":"levelo://app?vid=e2875ae0-6e0c-4ed6-bb9a-a705f2fcb2a5"},"vehicle_type_id":"4","last_reported":1750882344,"current_range_meters":6400,"station_id":"ce4bgih2rcd13ifvqba0","pricing_plan_id":"cebpf4jnsgd1na2vs0mg"},{"bike_id":"d010fa69-eed7-415e-bda4-8ccba58cfa26","system_id":"levelo_inurba_marseille","lat":43.303232,"lon":5.404379,"is_reserved":false,"is_disabled":false,"rental_uris":{"android":"levelo://app?vid=d010fa69-eed7-415e-bda4-8ccba58cfa26","ios":"levelo://app?vid=d010fa69-eed7-415e-bda4-8ccba58cfa26"},"vehicle_type_id":"4","last_reported":1750882344,"current_range_meters":6400,"station_id":"ce4bh012rcd13ifvqd10","pricing_plan_id":"cebpf4jnsgd1na2vs0mg"},{"bike_id":"8403bb72-97f4-4cb6-9899-e61a4892937d","system_id":"levelo_inurba_marseille","lat":43.2847,"lon":5.38406,"is_reserved":false,"is_disabled":false,"rental_uris":{"android":"levelo://app?vid=8403bb72-97f4-4cb6-9899-e61a4892937d","ios":"levelo://app?vid=8403bb72-97f4-4cb6-9899-e61a4892937d"},"vehicle_type_id":"4","last_reported":1750882344,"current_range_meters":6400,"station_id":"ce4bh512rcd13ifvqe3g","pricing_plan_id":"cebpf4jnsgd1na2vs0mg"},{"bike_id":"16288e10-12db-45c2-8d5b-ba7444c60d06","system_id":"levelo_inurba_marseille","lat":43.2679,"lon":5.39426,"is_reserved":false,"is_disabled":false,"rental_uris":{"android":"levelo://app?vid=16288e10-12db-45c2-8d5b-ba7444c60d06","ios":"levelo://app?vid=16288e10-12db-45c2-8d5b-ba7444c60d06"},"vehicle_type_id":"4","last_reported":1750882344,"current_range_meters":6400,"station_id":"ce4bhh12rcd13ifvqfg0","pricing_plan_id":"cebpf4jnsgd1na2vs0mg"},{"bike_id":"3a431c0a-a827-4db5-ac54-10ce1b525755","system_id":"levelo_inurba_marseille","lat":43.31224,"lon":5.3685,"is_reserved":false,"is_disabled":false,"rental_uris":{"android":"levelo://app?vid=3a431c0a-a827-4db5-ac54-10ce1b525755","ios":"levelo://app?vid=3a431c0a-a827-4db5-ac54-10ce1b525755"},"vehicle_type_id":"4","last_reported":1750882344,"current_range_meters":6800,"station_id":"","pricing_plan_id":"cebpf4jnsgd1na2vs0mg"},{"bike_id":"fd8c18c4-d29e-42b5-a3d5-d1f93e7ea541","system_id":"levelo_inurba_marseille","lat":43.31337,"lon":5.39676,"is_reserved":false,"is_disabled":false,"rental_uris":{"android":"levelo://app?vid=fd8c18c4-d29e-42b5-a3d5-d1f93e7ea541","ios":"levelo://app?vid=fd8c18c4-d29e-42b5-a3d5-d1f93e7ea541"},"vehicle_type_id":"4","last_reported":1750882344,"current_range_meters":6800,"station_id":"ce4bgvp2rcd13ifvqcu0","pricing_plan_id":"cebpf4jnsgd1na2vs0mg"},{"bike_id":"4f39bfd3-af90-494e-ae08-9df3d9580312","system_id":"levelo_inurba_marseille","lat":43.2738,"lon":5.36251,"is_reserved":false,"is_disabled":false,"rental_uris":{"android":"levelo://app?vid=4f39bfd3-af90-494e-ae08-9df3d9580312","ios":"levelo://app?vid=4f39bfd3-af90-494e-ae08-9df3d9580312"},"vehicle_type_id":"4","last_reported":1750882344,"current_range_meters":6800,"station_id":"ce4bhbh2rcd13ifvqeo0","pricing_plan_id":"cebpf4jnsgd1na2vs0mg"},{"bike_id":"b0c80139-303d-4a98-ba70-4530fbcd9937","system_id":"levelo_inurba_marseille","lat":43.28419,"lon":5.34974,"is_reserved":false,"is_disabled":false,"rental_uris":{"android":"levelo://app?vid=b0c80139-303d-4a98-ba70-4530fbcd9937","ios":"levelo://app?vid=b0c80139-303d-4a98-ba70-4530fbcd9937"},"vehicle_type_id":"4","last_reported":1750882344,"current_range_meters":6800,"station_id":"ce4bhbh2rcd13ifvqepg","pricing_plan_id":"cebpf4jnsgd1na2vs0mg"},{"bike_id":"1f7f22a3-7a72-4183-9fe9-1b9e657cae9d","system_id":"levelo_inurba_marseille","lat":43.25492,"lon":5.37645,"is_reserved":false,"is_disabled":false,"rental_uris":{"android":"levelo://app?vid=1f7f22a3-7a72-4183-9fe9-1b9e657cae9d","ios":"levelo://app?vid=1f7f22a3-7a72-4183-9fe9-1b9e657cae9d"},"vehicle_type_id":"4","last_reported":1750882344,"current_range_meters":6800,"station_id":"ce4bhh12rcd13ifvqff0","pricing_plan_id":"cebpf4jnsgd1na2vs0mg"},{"bike_id":"d6ad3ef7-7b94-4bc4-bb06-06127c61aad6","system_id":"levelo_inurba_marseille","lat":43.27161,"lon":5.40979,"is_reserved":false,"is_disabled":false,"rental_uris":{"android":"levelo://app?vid=d6ad3ef7-7b94-4bc4-bb06-06127c61aad6","ios":"levelo://app?vid=d6ad3ef7-7b94-4bc4-bb06-06127c61aad6"},"vehicle_type_id":"4","last_reported":1750882344,"current_range_meters":6800,"station_id":"ce4bhl12rcd13ifvqgf0","pricing_plan_id":"cebpf4jnsgd1na2vs0mg"},{"bike_id":"451696b7-cde8-417f-918c-5e1840f4b90e","system_id":"levelo_inurba_marseille","lat":43.28433,"lon":5.39194,"is_reserved":false,"is_disabled":false,"rental_uris":{"android":"levelo://app?vid=451696b7-cde8-417f-918c-5e1840f4b90e","ios":"levelo://app?vid=451696b7-cde8-417f-918c-5e1840f4b90e"},"vehicle_type_id":"4","last_reported":1750882344,"current_range_meters":6800,"station_id":"ce4bhoh2rcd13ifvqh5g","pricing_plan_id":"cebpf4jnsgd1na2vs0mg"},{"bike_id":"00e841b4-7bcd-4c30-b2d6-ecef7ce04dde","system_id":"levelo_inurba_marseille","lat":43.329064,"lon":5.374984,"is_reserved":false,"is_disabled":false,"rental_uris":{"android":"levelo://app?vid=00e841b4-7bcd-4c30-b2d6-ecef7ce04dde","ios":"levelo://app?vid=00e841b4-7bcd-4c30-b2d6-ecef7ce04dde"},"vehicle_type_id":"4","last_reported":1750882344,"current_range_meters":7200,"station_id":"","pricing_plan_id":"cebpf4jnsgd1na2vs0mg"},{"bike_id":"3bb1373e-164d-4962-b306-c7aabb75c75a","system_id":"levelo_inurba_marseille","lat":43.297036,"lon":5.366177,"is_reserved":false,"is_disabled":false,"rental_uris":{"android":"levelo://app?vid=3bb1373e-164d-4962-b306-c7aabb75c75a","ios":"levelo://app?vid=3bb1373e-164d-4962-b306-c7aabb75c75a"},"vehicle_type_id":"4","last_reported":1750882344,"current_range_meters":7200,"station_id":"ce4bgn12rcd13ifvqbt0","pricing_plan_id":"cebpf4jnsgd1na2vs0mg"},{"bike_id":"106a18bf-1e18-48b1-a019-66650297ceaf","system_id":"levelo_inurba_marseille","lat":43.31513,"lon":5.37267,"is_reserved":false,"is_disabled":false,"rental_uris":{"android":"levelo://app?vid=106a18bf-1e18-48b1-a019-66650297ceaf","ios":"levelo://app?vid=106a18bf-1e18-48b1-a019-66650297ceaf"},"vehicle_type_id":"4","last_reported":1750882344,"current_range_meters":7200,"station_id":"ce4bgt12rcd13ifvqcd0","pricing_plan_id":"cebpf4jnsgd1na2vs0mg"},{"bike_id":"711dc136-edd6-41f2-bf22-d6892452b503","system_id":"levelo_inurba_marseille","lat":43.31717,"lon":5.37767,"is_reserved":false,"is_disabled":false,"rental_uris":{"android":"levelo://app?vid=711dc136-edd6-41f2-bf22-d6892452b503","ios":"levelo://app?vid=711dc136-edd6-41f2-bf22-d6892452b503"},"vehicle_type_id":"4","last_reported":1750882344,"current_range_meters":7200,"station_id":"ce4bgth2rcd13ifvqch0","pricing_plan_id":"cebpf4jnsgd1na2vs0mg"},{"bike_id":"e6a94a59-fe06-4ae9-a9ab-5a45d3f27335","system_id":"levelo_inurba_marseille","lat":43.28403,"lon":5.37515,"is_reserved":false,"is_disabled":false,"rental_uris":{"android":"levelo://app?vid=e6a94a59-fe06-4ae9-a9ab-5a45d3f27335","ios":"levelo://app?vid=e6a94a59-fe06-4ae9-a9ab-5a45d3f27335"},"vehicle_type_id":"4","last_reported":1750882344,"current_range_meters":7200,"station_id":"ce4bh412rcd13ifvqds0","pricing_plan_id":"cebpf4jnsgd1na2vs0mg"},{"bike_id":"9cbf678c-a994-4a68-9350-22218becc4f7","system_id":"levelo_inurba_marseille","lat":43.29259,"lon":5.38435,"is_reserved":false,"is_disabled":false,"rental_uris":{"android":"levelo://app?vid=9cbf678c-a994-4a68-9350-22218becc4f7","ios":"levelo://app?vid=9cbf678c-a994-4a68-9350-22218becc4f7"},"vehicle_type_id":"4","last_reported":1750882344,"current_range_meters":7200,"station_id":"ce4bh692rcd13ifvqea0","pricing_plan_id":"cebpf4jnsgd1na2vs0mg"},{"bike_id":"72a05c59-d63e-4bce-992d-5dc00ec06f58","system_id":"levelo_inurba_marseille","lat":43.28948,"lon":5.36618,"is_reserved":false,"is_disabled":false,"rental_uris":{"android":"levelo://app?vid=72a05c59-d63e-4bce-992d-5dc00ec06f58","ios":"levelo://app?vid=72a05c59-d63e-4bce-992d-5dc00ec06f58"},"vehicle_type_id":"4","last_reported":1750882344,"current_range_meters":7200,"station_id":"ce4bhap2rcd13ifvqek0","pricing_plan_id":"cebpf4jnsgd1na2vs0mg"},{"bike_id":"5e98c8f6-0b52-463f-a583-4d4f94fefccb","system_id":"levelo_inurba_marseille","lat":43.27374,"lon":5.36256,"is_reserved":false,"is_disabled":false,"rental_uris":{"android":"levelo://app?vid=5e98c8f6-0b52-463f-a583-4d4f94fefccb","ios":"levelo://app?vid=5e98c8f6-0b52-463f-a583-4d4f94fefccb"},"vehicle_type_id":"4","last_reported":1750882344,"current_range_meters":7200,"station_id":"ce4bhbh2rcd13ifvqeo0","pricing_plan_id":"cebpf4jnsgd1na2vs0mg"},{"bike_id":"d95e0142-4701-4c37-aa35-e3f4bd4c6607","system_id":"levelo_inurba_marseille","lat":43.2549,"lon":5.37647,"is_reserved":false,"is_disabled":false,"rental_uris":{"android":"levelo://app?vid=d95e0142-4701-4c37-aa35-e3f4bd4c6607","ios":"levelo://app?vid=d95e0142-4701-4c37-aa35-e3f4bd4c6607"},"vehicle_type_id":"4","last_reported":1750882344,"current_range_meters":7200,"station_id":"ce4bhh12rcd13ifvqff0","pricing_plan_id":"cebpf4jnsgd1na2vs0mg"},{"bike_id":"37e0ff9d-a8de-4088-a164-75282686d41d","system_id":"levelo_inurba_marseille","lat":43.33749,"lon":5.374481,"is_reserved":false,"is_disabled":false,"rental_uris":{"android":"levelo://app?vid=37e0ff9d-a8de-4088-a164-75282686d41d","ios":"levelo://app?vid=37e0ff9d-a8de-4088-a164-75282686d41d"},"vehicle_type_id":"4","last_reported":1750882344,"current_range_meters":8000,"station_id":"","pricing_plan_id":"cebpf4jnsgd1na2vs0mg"},{"bike_id":"7c3f6852-4f29-42a9-a8c1-e2b82bb43fcf","system_id":"levelo_inurba_marseille","lat":43.29249,"lon":5.42671,"is_reserved":false,"is_disabled":false,"rental_uris":{"android":"levelo://app?vid=7c3f6852-4f29-42a9-a8c1-e2b82bb43fcf","ios":"levelo://app?vid=7c3f6852-4f29-42a9-a8c1-e2b82bb43fcf"},"vehicle_type_id":"4","last_reported":1750882344,"current_range_meters":8000,"station_id":"","pricing_plan_id":"cebpf4jnsgd1na2vs0mg"},{"bike_id":"b2b2c10c-bbe1-4d83-86ef-09ba864e6a16","system_id":"levelo_inurba_marseille","lat":43.29626,"lon":5.377105,"is_reserved":false,"is_disabled":false,"rental_uris":{"android":"levelo://app?vid=b2b2c10c-bbe1-4d83-86ef-09ba864e6a16","ios":"levelo://app?vid=b2b2c10c-bbe1-4d83-86ef-09ba864e6a16"},"vehicle_type_id":"4","last_reported":1750882344,"current_range_meters":8400,"station_id":"","pricing_plan_id":"cebpf4jnsgd1na2vs0mg"},{"bike_id":"11ebf4fb-e752-44af-81e3-7d28e8eee9cc","system_id":"levelo_inurba_marseille","lat":43.28111,"lon":5.43216,"is_reserved":false,"is_disabled":false,"rental_uris":{"android":"levelo://app?vid=11ebf4fb-e752-44af-81e3-7d28e8eee9cc","ios":"levelo://app?vid=11ebf4fb-e752-44af-81e3-7d28e8eee9cc"},"vehicle_type_id":"4","last_reported":1750882344,"current_range_meters":8400,"station_id":"","pricing_plan_id":"cebpf4jnsgd1na2vs0mg"},{"bike_id":"12c11b50-b7d5-4b80-ae5a-03a25a08eda7","system_id":"levelo_inurba_marseille","lat":43.29281,"lon":5.40125,"is_reserved":false,"is_disabled":false,"rental_uris":{"android":"levelo://app?vid=12c11b50-b7d5-4b80-ae5a-03a25a08eda7","ios":"levelo://app?vid=12c11b50-b7d5-4b80-ae5a-03a25a08eda7"},"vehicle_type_id":"4","last_reported":1750882344,"current_range_meters":8400,"station_id":"ce4bh312rcd13ifvqdk0","pricing_plan_id":"cebpf4jnsgd1na2vs0mg"},{"bike_id":"6bc2e831-0377-4679-8bfc-f4724d358561","system_id":"levelo_inurba_marseille","lat":43.29435,"lon":5.39749,"is_reserved":false,"is_disabled":false,"rental_uris":{"android":"levelo://app?vid=6bc2e831-0377-4679-8bfc-f4724d358561","ios":"levelo://app?vid=6bc2e831-0377-4679-8bfc-f4724d358561"},"vehicle_type_id":"4","last_reported":1750882344,"current_range_meters":8400,"station_id":"ce4bh3h2rcd13ifvqdo0","pricing_plan_id":"cebpf4jnsgd1na2vs0mg"},{"bike_id":"54063075-307e-4f27-9061-3d26bc2b8a29","system_id":"levelo_inurba_marseille","lat":43.262279,"lon":5.404484,"is_reserved":false,"is_disabled":false,"rental_uris":{"android":"levelo://app?vid=54063075-307e-4f27-9061-3d26bc2b8a29","ios":"levelo://app?vid=54063075-307e-4f27-9061-3d26bc2b8a29"},"vehicle_type_id":"4","last_reported":1750882344,"current_range_meters":8400,"station_id":"ce4bhmh2rcd13ifvqgmg","pricing_plan_id":"cebpf4jnsgd1na2vs0mg"},{"bike_id":"d0a014d3-adae-4aec-beb5-0ece5ab3b84c","system_id":"levelo_inurba_marseille","lat":43.28448,"lon":5.39209,"is_reserved":false,"is_disabled":false,"rental_uris":{"android":"levelo://app?vid=d0a014d3-adae-4aec-beb5-0ece5ab3b84c","ios":"levelo://app?vid=d0a014d3-adae-4aec-beb5-0ece5ab3b84c"},"vehicle_type_id":"4","last_reported":1750882344,"current_range_meters":8400,"station_id":"ce4bhoh2rcd13ifvqh5g","pricing_plan_id":"cebpf4jnsgd1na2vs0mg"},{"bike_id":"2915a83b-af1f-439c-8a6f-970fd5cdb1ab","system_id":"levelo_inurba_marseille","lat":43.30893,"lon":5.3964,"is_reserved":false,"is_disabled":false,"rental_uris":{"android":"levelo://app?vid=2915a83b-af1f-439c-8a6f-970fd5cdb1ab","ios":"levelo://app?vid=2915a83b-af1f-439c-8a6f-970fd5cdb1ab"},"vehicle_type_id":"4","last_reported":1750882344,"current_range_meters":8800,"station_id":"ce4bh012rcd13ifvqcv0","pricing_plan_id":"cebpf4jnsgd1na2vs0mg"},{"bike_id":"56eb9784-40e4-4037-a04a-3e64973f2b46","system_id":"levelo_inurba_marseille","lat":43.31688,"lon":5.40475,"is_reserved":false,"is_disabled":false,"rental_uris":{"android":"levelo://app?vid=56eb9784-40e4-4037-a04a-3e64973f2b46","ios":"levelo://app?vid=56eb9784-40e4-4037-a04a-3e64973f2b46"},"vehicle_type_id":"4","last_reported":1750882344,"current_range_meters":8800,"station_id":"ce4bh012rcd13ifvqd00","pricing_plan_id":"cebpf4jnsgd1na2vs0mg"},{"bike_id":"2db5b890-c058-4532-9547-56e223e114f5","system_id":"levelo_inurba_marseille","lat":43.28431,"lon":5.39195,"is_reserved":false,"is_disabled":false,"rental_uris":{"android":"levelo://app?vid=2db5b890-c058-4532-9547-56e223e114f5","ios":"levelo://app?vid=2db5b890-c058-4532-9547-56e223e114f5"},"vehicle_type_id":"4","last_reported":1750882344,"current_range_meters":8800,"station_id":"ce4bhoh2rcd13ifvqh5g","pricing_plan_id":"cebpf4jnsgd1na2vs0mg"},{"bike_id":"51b217be-9488-41c1-b083-6d728251b280","system_id":"levelo_inurba_marseille","lat":43.24337,"lon":5.36875,"is_reserved":false,"is_disabled":false,"rental_uris":{"android":"levelo://app?vid=51b217be-9488-41c1-b083-6d728251b280","ios":"levelo://app?vid=51b217be-9488-41c1-b083-6d728251b280"},"vehicle_type_id":"4","last_reported":1750882344,"current_range_meters":9200,"station_id":"","pricing_plan_id":"cebpf4jnsgd1na2vs0mg"},{"bike_id":"b992786f-3f71-401e-934c-867b6cf20ceb","system_id":"levelo_inurba_marseille","lat":43.29527,"lon":5.38543,"is_reserved":false,"is_disabled":false,"rental_uris":{"android":"levelo://app?vid=b992786f-3f71-401e-934c-867b6cf20ceb","ios":"levelo://app?vid=b992786f-3f71-401e-934c-867b6cf20ceb"},"vehicle_type_id":"4","last_reported":1750882344,"current_range_meters":9200,"station_id":"ce4bgih2rcd13ifvqba0","pricing_plan_id":"cebpf4jnsgd1na2vs0mg"},{"bike_id":"a5f5ae76-ed7b-4984-b9f1-07b9ebf1d5e9","system_id":"levelo_inurba_marseille","lat":43.30186,"lon":5.36608,"is_reserved":false,"is_disabled":false,"rental_uris":{"android":"levelo://app?vid=a5f5ae76-ed7b-4984-b9f1-07b9ebf1d5e9","ios":"levelo://app?vid=a5f5ae76-ed7b-4984-b9f1-07b9ebf1d5e9"},"vehicle_type_id":"4","last_reported":1750882344,"current_range_meters":9200,"station_id":"ce4bgrh2rcd13ifvqc8g","pricing_plan_id":"cebpf4jnsgd1na2vs0mg"},{"bike_id":"dbfb2b4d-f467-42b8-bdec-0c1e515fa89f","system_id":"levelo_inurba_marseille","lat":43.2989,"lon":5.43644,"is_reserved":false,"is_disabled":false,"rental_uris":{"android":"levelo://app?vid=dbfb2b4d-f467-42b8-bdec-0c1e515fa89f","ios":"levelo://app?vid=dbfb2b4d-f467-42b8-bdec-0c1e515fa89f"},"vehicle_type_id":"4","last_reported":1750882344,"current_range_meters":9200,"station_id":"ce4bhpp2rcd13ifvqhfg","pricing_plan_id":"cebpf4jnsgd1na2vs0mg"},{"bike_id":"47f74298-b68f-45bd-b514-ed4318c7e445","system_id":"levelo_inurba_marseille","lat":43.29937,"lon":5.36489,"is_reserved":false,"is_disabled":false,"rental_uris":{"android":"levelo://app?vid=47f74298-b68f-45bd-b514-ed4318c7e445","ios":"levelo://app?vid=47f74298-b68f-45bd-b514-ed4318c7e445"},"vehicle_type_id":"4","last_reported":1750882344,"current_range_meters":9600,"station_id":"ce4bgm92rcd13ifvqbr0","pricing_plan_id":"cebpf4jnsgd1na2vs0mg"},{"bike_id":"3e051ea7-005b-4686-abf2-56c6162c0169","system_id":"levelo_inurba_marseille","lat":43.3044,"lon":5.39726,"is_reserved":false,"is_disabled":false,"rental_uris":{"android":"levelo://app?vid=3e051ea7-005b-4686-abf2-56c6162c0169","ios":"levelo://app?vid=3e051ea7-005b-4686-abf2-56c6162c0169"},"vehicle_type_id":"4","last_reported":1750882344,"current_range_meters":9600,"station_id":"ce4bh092rcd13ifvqd20","pricing_plan_id":"cebpf4jnsgd1na2vs0mg"},{"bike_id":"968587e0-bc5d-4b3f-9634-a5dfc0b1606b","system_id":"levelo_inurba_marseille","lat":43.28347,"lon":5.38106,"is_reserved":false,"is_disabled":false,"rental_uris":{"android":"levelo://app?vid=968587e0-bc5d-4b3f-9634-a5dfc0b1606b","ios":"levelo://app?vid=968587e0-bc5d-4b3f-9634-a5dfc0b1606b"},"vehicle_type_id":"4","last_reported":1750882344,"current_range_meters":9600,"station_id":"ce4bh412rcd13ifvqdr0","pricing_plan_id":"cebpf4jnsgd1na2vs0mg"},{"bike_id":"90d0adf9-856e-4218-b353-039df302b49e","system_id":"levelo_inurba_marseille","lat":43.2903,"lon":5.3864,"is_reserved":false,"is_disabled":false,"rental_uris":{"android":"levelo://app?vid=90d0adf9-856e-4218-b353-039df302b49e","ios":"levelo://app?vid=90d0adf9-856e-4218-b353-039df302b49e"},"vehicle_type_id":"4","last_reported":1750882344,"current_range_meters":9600,"station_id":"ce4bh4p2rcd13ifvqe0g","pricing_plan_id":"cebpf4jnsgd1na2vs0mg"},{"bike_id":"35b14479-4a4d-4383-83de-c7fea66894b3","system_id":"levelo_inurba_marseille","lat":43.299032,"lon":5.436739,"is_reserved":false,"is_disabled":false,"rental_uris":{"android":"levelo://app?vid=35b14479-4a4d-4383-83de-c7fea66894b3","ios":"levelo://app?vid=35b14479-4a4d-4383-83de-c7fea66894b3"},"vehicle_type_id":"4","last_reported":1750882344,"current_range_meters":9600,"station_id":"ce4bhpp2rcd13ifvqhfg","pricing_plan_id":"cebpf4jnsgd1na2vs0mg"},{"bike_id":"7ee087bf-6962-4443-902d-238b37e8f3d6","system_id":"levelo_inurba_marseille","lat":43.26805,"lon":5.40267,"is_reserved":false,"is_disabled":false,"rental_uris":{"android":"levelo://app?vid=7ee087bf-6962-4443-902d-238b37e8f3d6","ios":"levelo://app?vid=7ee087bf-6962-4443-902d-238b37e8f3d6"},"vehicle_type_id":"4","last_reported":1750882344,"current_range_meters":9600,"station_id":"ce501612rcd8frsf0b60","pricing_plan_id":"cebpf4jnsgd1na2vs0mg"},{"bike_id":"af112b62-19de-41d4-b8d7-e14d0172315d","system_id":"levelo_inurba_marseille","lat":43.32691,"lon":5.39222,"is_reserved":false,"is_disabled":false,"rental_uris":{"android":"levelo://app?vid=af112b62-19de-41d4-b8d7-e14d0172315d","ios":"levelo://app?vid=af112b62-19de-41d4-b8d7-e14d0172315d"},"vehicle_type_id":"4","last_reported":1750882344,"current_range_meters":10000,"station_id":"","pricing_plan_id":"cebpf4jnsgd1na2vs0mg"},{"bike_id":"724b64f7-4bc7-4fd8-ad96-d34542c2d799","system_id":"levelo_inurba_marseille","lat":43.31221,"lon":5.36856,"is_reserved":false,"is_disabled":false,"rental_uris":{"android":"levelo://app?vid=724b64f7-4bc7-4fd8-ad96-d34542c2d799","ios":"levelo://app?vid=724b64f7-4bc7-4fd8-ad96-d34542c2d799"},"vehicle_type_id":"4","last_reported":1750882344,"current_range_meters":10000,"station_id":"ce4bgl92rcd13ifvqbq0","pricing_plan_id":"cebpf4jnsgd1na2vs0mg"},{"bike_id":"b40dd072-113a-434d-893f-74c6c60dc398","system_id":"levelo_inurba_marseille","lat":43.23187,"lon":5.39982,"is_reserved":false,"is_disabled":false,"rental_uris":{"android":"levelo://app?vid=b40dd072-113a-434d-893f-74c6c60dc398","ios":"levelo://app?vid=b40dd072-113a-434d-893f-74c6c60dc398"},"vehicle_type_id":"4","last_reported":1750882344,"current_range_meters":10000,"station_id":"ce4bhn12rcd13ifvqgqg","pricing_plan_id":"cebpf4jnsgd1na2vs0mg"},{"bike_id":"85aebb63-1277-49af-91e5-22f2d655e266","system_id":"levelo_inurba_marseille","lat":43.29904,"lon":5.43657,"is_reserved":false,"is_disabled":false,"rental_uris":{"android":"levelo://app?vid=85aebb63-1277-49af-91e5-22f2d655e266","ios":"levelo://app?vid=85aebb63-1277-49af-91e5-22f2d655e266"},"vehicle_type_id":"4","last_reported":1750882344,"current_range_meters":10000,"station_id":"ce4bhpp2rcd13ifvqhfg","pricing_plan_id":"cebpf4jnsgd1na2vs0mg"},{"bike_id":"36ffba93-3b62-49cd-8e5b-3ec0f1940b5c","system_id":"levelo_inurba_marseille","lat":43.33156,"lon":5.36481,"is_reserved":false,"is_disabled":false,"rental_uris":{"android":"levelo://app?vid=36ffba93-3b62-49cd-8e5b-3ec0f1940b5c","ios":"levelo://app?vid=36ffba93-3b62-49cd-8e5b-3ec0f1940b5c"},"vehicle_type_id":"4","last_reported":1750882344,"current_range_meters":10800,"station_id":"","pricing_plan_id":"cebpf4jnsgd1na2vs0mg"},{"bike_id":"23a576b0-f308-4af9-a856-c356c821e9fe","system_id":"levelo_inurba_marseille","lat":43.25158,"lon":5.40654,"is_reserved":false,"is_disabled":false,"rental_uris":{"android":"levelo://app?vid=23a576b0-f308-4af9-a856-c356c821e9fe","ios":"levelo://app?vid=23a576b0-f308-4af9-a856-c356c821e9fe"},"vehicle_type_id":"4","last_reported":1750882344,"current_range_meters":10800,"station_id":"","pricing_plan_id":"cebpf4jnsgd1na2vs0mg"},{"bike_id":"c70284a7-a187-47d6-bd12-f2144f2aca60","system_id":"levelo_inurba_marseille","lat":43.30654,"lon":5.40067,"is_reserved":false,"is_disabled":false,"rental_uris":{"android":"levelo://app?vid=c70284a7-a187-47d6-bd12-f2144f2aca60","ios":"levelo://app?vid=c70284a7-a187-47d6-bd12-f2144f2aca60"},"vehicle_type_id":"4","last_reported":1750882344,"current_range_meters":10800,"station_id":"ce4bh112rcd13ifvqda0","pricing_plan_id":"cebpf4jnsgd1na2vs0mg"},{"bike_id":"9b205443-2fa6-4889-a4dc-d43826de24f7","system_id":"levelo_inurba_marseille","lat":43.292701,"lon":5.384095,"is_reserved":false,"is_disabled":false,"rental_uris":{"android":"levelo://app?vid=9b205443-2fa6-4889-a4dc-d43826de24f7","ios":"levelo://app?vid=9b205443-2fa6-4889-a4dc-d43826de24f7"},"vehicle_type_id":"4","last_reported":1750882344,"current_range_meters":10800,"station_id":"ce4bh692rcd13ifvqea0","pricing_plan_id":"cebpf4jnsgd1na2vs0mg"},{"bike_id":"7f50d161-e434-48f7-b1e5-0d60867601f0","system_id":"levelo_inurba_marseille","lat":43.25496,"lon":5.37649,"is_reserved":false,"is_disabled":false,"rental_uris":{"android":"levelo://app?vid=7f50d161-e434-48f7-b1e5-0d60867601f0","ios":"levelo://app?vid=7f50d161-e434-48f7-b1e5-0d60867601f0"},"vehicle_type_id":"4","last_reported":1750882344,"current_range_meters":10800,"station_id":"ce4bhh12rcd13ifvqff0","pricing_plan_id":"cebpf4jnsgd1na2vs0mg"},{"bike_id":"5eee8925-0941-460b-a942-18fcb70bac7c","system_id":"levelo_inurba_marseille","lat":43.2725,"lon":5.40048,"is_reserved":false,"is_disabled":false,"rental_uris":{"android":"levelo://app?vid=5eee8925-0941-460b-a942-18fcb70bac7c","ios":"levelo://app?vid=5eee8925-0941-460b-a942-18fcb70bac7c"},"vehicle_type_id":"4","last_reported":1750882344,"current_range_meters":11200,"station_id":"","pricing_plan_id":"cebpf4jnsgd1na2vs0mg"},{"bike_id":"9d5108c8-93fb-4699-9aea-984cb07bd09a","system_id":"levelo_inurba_marseille","lat":43.29962,"lon":5.38491,"is_reserved":false,"is_disabled":false,"rental_uris":{"android":"levelo://app?vid=9d5108c8-93fb-4699-9aea-984cb07bd09a","ios":"levelo://app?vid=9d5108c8-93fb-4699-9aea-984cb07bd09a"},"vehicle_type_id":"4","last_reported":1750882344,"current_range_meters":11200,"station_id":"ce4bgj92rcd13ifvqbd0","pricing_plan_id":"cebpf4jnsgd1na2vs0mg"},{"bike_id":"7a9b7d2c-b97d-4fb3-83ca-b794aaebee05","system_id":"levelo_inurba_marseille","lat":43.30545,"lon":5.36698,"is_reserved":false,"is_disabled":false,"rental_uris":{"android":"levelo://app?vid=7a9b7d2c-b97d-4fb3-83ca-b794aaebee05","ios":"levelo://app?vid=7a9b7d2c-b97d-4fb3-83ca-b794aaebee05"},"vehicle_type_id":"4","last_reported":1750882344,"current_range_meters":11200,"station_id":"ce4bgrp2rcd13ifvqc9g","pricing_plan_id":"cebpf4jnsgd1na2vs0mg"},{"bike_id":"9e3dec3a-7004-4e70-8bcb-6f99c94c6bd0","system_id":"levelo_inurba_marseille","lat":43.28422,"lon":5.34975,"is_reserved":false,"is_disabled":false,"rental_uris":{"android":"levelo://app?vid=9e3dec3a-7004-4e70-8bcb-6f99c94c6bd0","ios":"levelo://app?vid=9e3dec3a-7004-4e70-8bcb-6f99c94c6bd0"},"vehicle_type_id":"4","last_reported":1750882344,"current_range_meters":11200,"station_id":"ce4bhbh2rcd13ifvqepg","pricing_plan_id":"cebpf4jnsgd1na2vs0mg"},{"bike_id":"a9856245-29fd-4538-b358-76ca715fe5e3","system_id":"levelo_inurba_marseille","lat":43.28145,"lon":5.42665,"is_reserved":false,"is_disabled":false,"rental_uris":{"android":"levelo://app?vid=a9856245-29fd-4538-b358-76ca715fe5e3","ios":"levelo://app?vid=a9856245-29fd-4538-b358-76ca715fe5e3"},"vehicle_type_id":"4","last_reported":1750882344,"current_range_meters":11200,"station_id":"ce4bhnh2rcd13ifvqgug","pricing_plan_id":"cebpf4jnsgd1na2vs0mg"},{"bike_id":"26a14eba-87a9-47b8-9607-30bd0042d428","system_id":"levelo_inurba_marseille","lat":43.31473,"lon":5.39405,"is_reserved":false,"is_disabled":false,"rental_uris":{"android":"levelo://app?vid=26a14eba-87a9-47b8-9607-30bd0042d428","ios":"levelo://app?vid=26a14eba-87a9-47b8-9607-30bd0042d428"},"vehicle_type_id":"4","last_reported":1750882344,"current_range_meters":11600,"station_id":"","pricing_plan_id":"cebpf4jnsgd1na2vs0mg"},{"bike_id":"9d016fa1-886c-48f3-8115-249152c54e2a","system_id":"levelo_inurba_marseille","lat":43.28846,"lon":5.39303,"is_reserved":false,"is_disabled":false,"rental_uris":{"android":"levelo://app?vid=9d016fa1-886c-48f3-8115-249152c54e2a","ios":"levelo://app?vid=9d016fa1-886c-48f3-8115-249152c54e2a"},"vehicle_type_id":"4","last_reported":1750882344,"current_range_meters":11600,"station_id":"ce4bh2p2rcd13ifvqdi0","pricing_plan_id":"cebpf4jnsgd1na2vs0mg"},{"bike_id":"195541e7-471e-4738-b7c7-2cc8c3210dc5","system_id":"levelo_inurba_marseille","lat":43.29561,"lon":5.39966,"is_reserved":false,"is_disabled":false,"rental_uris":{"android":"levelo://app?vid=195541e7-471e-4738-b7c7-2cc8c3210dc5","ios":"levelo://app?vid=195541e7-471e-4738-b7c7-2cc8c3210dc5"},"vehicle_type_id":"4","last_reported":1750882344,"current_range_meters":11600,"station_id":"ce4bh312rcd13ifvqdj0","pricing_plan_id":"cebpf4jnsgd1na2vs0mg"},{"bike_id":"e1c36edd-bf8e-4238-8000-13241da42cbc","system_id":"levelo_inurba_marseille","lat":43.26214,"lon":5.37439,"is_reserved":false,"is_disabled":false,"rental_uris":{"android":"levelo://app?vid=e1c36edd-bf8e-4238-8000-13241da42cbc","ios":"levelo://app?vid=e1c36edd-bf8e-4238-8000-13241da42cbc"},"vehicle_type_id":"4","last_reported":1750882344,"current_range_meters":11600,"station_id":"ce4bhgp2rcd13ifvqfc0","pricing_plan_id":"cebpf4jnsgd1na2vs0mg"},{"bike_id":"ec3f5073-75c9-4d6b-a120-f24cef83b554","system_id":"levelo_inurba_marseille","lat":43.28154,"lon":5.4264,"is_reserved":false,"is_disabled":false,"rental_uris":{"android":"levelo://app?vid=ec3f5073-75c9-4d6b-a120-f24cef83b554","ios":"levelo://app?vid=ec3f5073-75c9-4d6b-a120-f24cef83b554"},"vehicle_type_id":"4","last_reported":1750882344,"current_range_meters":11600,"station_id":"ce4bhnh2rcd13ifvqgug","pricing_plan_id":"cebpf4jnsgd1na2vs0mg"},{"bike_id":"441e2f39-7054-4744-894b-72ac8474531d","system_id":"levelo_inurba_marseille","lat":43.21191,"lon":5.35052,"is_reserved":false,"is_disabled":false,"rental_uris":{"android":"levelo://app?vid=441e2f39-7054-4744-894b-72ac8474531d","ios":"levelo://app?vid=441e2f39-7054-4744-894b-72ac8474531d"},"vehicle_type_id":"4","last_reported":1750882344,"current_range_meters":11600,"station_id":"st_cvj6sg6p6f1abm77japg","pricing_plan_id":"cebpf4jnsgd1na2vs0mg"},{"bike_id":"e5546373-4c53-4bc5-a5a1-7b80cd0ec164","system_id":"levelo_inurba_marseille","lat":43.29436,"lon":5.39753,"is_reserved":false,"is_disabled":false,"rental_uris":{"android":"levelo://app?vid=e5546373-4c53-4bc5-a5a1-7b80cd0ec164","ios":"levelo://app?vid=e5546373-4c53-4bc5-a5a1-7b80cd0ec164"},"vehicle_type_id":"4","last_reported":1750882344,"current_range_meters":12000,"station_id":"ce4bh3h2rcd13ifvqdo0","pricing_plan_id":"cebpf4jnsgd1na2vs0mg"},{"bike_id":"fcfb26c5-8e34-4eaf-b811-ac6c5688e1f4","system_id":"levelo_inurba_marseille","lat":43.29521,"lon":5.39041,"is_reserved":false,"is_disabled":false,"rental_uris":{"android":"levelo://app?vid=fcfb26c5-8e34-4eaf-b811-ac6c5688e1f4","ios":"levelo://app?vid=fcfb26c5-8e34-4eaf-b811-ac6c5688e1f4"},"vehicle_type_id":"4","last_reported":1750882344,"current_range_meters":12000,"station_id":"ce4bh3p2rcd13ifvqdp0","pricing_plan_id":"cebpf4jnsgd1na2vs0mg"},{"bike_id":"ed9848e4-6bfb-433c-a169-f0b048bf84e0","system_id":"levelo_inurba_marseille","lat":43.28474,"lon":5.35897,"is_reserved":false,"is_disabled":false,"rental_uris":{"android":"levelo://app?vid=ed9848e4-6bfb-433c-a169-f0b048bf84e0","ios":"levelo://app?vid=ed9848e4-6bfb-433c-a169-f0b048bf84e0"},"vehicle_type_id":"4","last_reported":1750882344,"current_range_meters":12000,"station_id":"ce4bhah2rcd13ifvqei0","pricing_plan_id":"cebpf4jnsgd1na2vs0mg"},{"bike_id":"8aa2fe90-7f46-4295-b20a-bb0b13f2b718","system_id":"levelo_inurba_marseille","lat":43.27387,"lon":5.36265,"is_reserved":false,"is_disabled":false,"rental_uris":{"android":"levelo://app?vid=8aa2fe90-7f46-4295-b20a-bb0b13f2b718","ios":"levelo://app?vid=8aa2fe90-7f46-4295-b20a-bb0b13f2b718"},"vehicle_type_id":"4","last_reported":1750882344,"current_range_meters":12000,"station_id":"ce4bhbh2rcd13ifvqeo0","pricing_plan_id":"cebpf4jnsgd1na2vs0mg"},{"bike_id":"d695cf0c-74ca-481e-b9ba-09018c4ecb42","system_id":"levelo_inurba_marseille","lat":43.24662,"lon":5.38166,"is_reserved":false,"is_disabled":false,"rental_uris":{"android":"levelo://app?vid=d695cf0c-74ca-481e-b9ba-09018c4ecb42","ios":"levelo://app?vid=d695cf0c-74ca-481e-b9ba-09018c4ecb42"},"vehicle_type_id":"4","last_reported":1750882344,"current_range_meters":12000,"station_id":"ce4bhih2rcd13ifvqfr0","pricing_plan_id":"cebpf4jnsgd1na2vs0mg"},{"bike_id":"8dfc8bd6-ce60-41c0-acf4-fbdac92663d9","system_id":"levelo_inurba_marseille","lat":43.23183,"lon":5.3555,"is_reserved":false,"is_disabled":false,"rental_uris":{"android":"levelo://app?vid=8dfc8bd6-ce60-41c0-acf4-fbdac92663d9","ios":"levelo://app?vid=8dfc8bd6-ce60-41c0-acf4-fbdac92663d9"},"vehicle_type_id":"4","last_reported":1750882344,"current_range_meters":12000,"station_id":"ce4bhu92rcd13ifvqi70","pricing_plan_id":"cebpf4jnsgd1na2vs0mg"},{"bike_id":"eadc4879-54be-4fe2-856c-25fd5c834415","system_id":"levelo_inurba_marseille","lat":43.23196,"lon":5.35561,"is_reserved":false,"is_disabled":false,"rental_uris":{"android":"levelo://app?vid=eadc4879-54be-4fe2-856c-25fd5c834415","ios":"levelo://app?vid=eadc4879-54be-4fe2-856c-25fd5c834415"},"vehicle_type_id":"4","last_reported":1750882344,"current_range_meters":12000,"station_id":"ce4bhu92rcd13ifvqi70","pricing_plan_id":"cebpf4jnsgd1na2vs0mg"},{"bike_id":"b6cdfa84-2239-48ce-a619-82d638aabe62","system_id":"levelo_inurba_marseille","lat":43.30333,"lon":5.40436,"is_reserved":false,"is_disabled":false,"rental_uris":{"android":"levelo://app?vid=b6cdfa84-2239-48ce-a619-82d638aabe62","ios":"levelo://app?vid=b6cdfa84-2239-48ce-a619-82d638aabe62"},"vehicle_type_id":"4","last_reported":1750882344,"current_range_meters":12400,"station_id":"ce4bh012rcd13ifvqd10","pricing_plan_id":"cebpf4jnsgd1na2vs0mg"},{"bike_id":"e2f5b300-4a63-4778-aada-c29a8a0ea1e8","system_id":"levelo_inurba_marseille","lat":43.32801,"lon":5.39202,"is_reserved":false,"is_disabled":false,"rental_uris":{"android":"levelo://app?vid=e2f5b300-4a63-4778-aada-c29a8a0ea1e8","ios":"levelo://app?vid=e2f5b300-4a63-4778-aada-c29a8a0ea1e8"},"vehicle_type_id":"4","last_reported":1750882344,"current_range_meters":12800,"station_id":"","pricing_plan_id":"cebpf4jnsgd1na2vs0mg"},{"bike_id":"c8c6bb8b-e6e6-4187-aab6-9a452986ddf2","system_id":"levelo_inurba_marseille","lat":43.29536,"lon":5.38517,"is_reserved":false,"is_disabled":false,"rental_uris":{"android":"levelo://app?vid=c8c6bb8b-e6e6-4187-aab6-9a452986ddf2","ios":"levelo://app?vid=c8c6bb8b-e6e6-4187-aab6-9a452986ddf2"},"vehicle_type_id":"4","last_reported":1750882344,"current_range_meters":12800,"station_id":"ce4bgih2rcd13ifvqba0","pricing_plan_id":"cebpf4jnsgd1na2vs0mg"},{"bike_id":"f80b57d9-d248-4c3d-816e-beea209e872c","system_id":"levelo_inurba_marseille","lat":43.29525,"lon":5.39382,"is_reserved":false,"is_disabled":false,"rental_uris":{"android":"levelo://app?vid=f80b57d9-d248-4c3d-816e-beea209e872c","ios":"levelo://app?vid=f80b57d9-d248-4c3d-816e-beea209e872c"},"vehicle_type_id":"4","last_reported":1750882344,"current_range_meters":12800,"station_id":"ce4bh292rcd13ifvqdf0","pricing_plan_id":"cebpf4jnsgd1na2vs0mg"},{"bike_id":"6161de28-477a-409c-a4f1-c5df93c966b6","system_id":"levelo_inurba_marseille","lat":43.28347,"lon":5.38101,"is_reserved":false,"is_disabled":false,"rental_uris":{"android":"levelo://app?vid=6161de28-477a-409c-a4f1-c5df93c966b6","ios":"levelo://app?vid=6161de28-477a-409c-a4f1-c5df93c966b6"},"vehicle_type_id":"4","last_reported":1750882344,"current_range_meters":12800,"station_id":"ce4bh412rcd13ifvqdr0","pricing_plan_id":"cebpf4jnsgd1na2vs0mg"},{"bike_id":"773195e4-395e-443c-be8c-bb46422eac03","system_id":"levelo_inurba_marseille","lat":43.2551,"lon":5.37651,"is_reserved":false,"is_disabled":false,"rental_uris":{"android":"levelo://app?vid=773195e4-395e-443c-be8c-bb46422eac03","ios":"levelo://app?vid=773195e4-395e-443c-be8c-bb46422eac03"},"vehicle_type_id":"4","last_reported":1750882344,"current_range_meters":12800,"station_id":"ce4bhh12rcd13ifvqff0","pricing_plan_id":"cebpf4jnsgd1na2vs0mg"},{"bike_id":"606aa41b-732d-472a-b321-f00550a4825f","system_id":"levelo_inurba_marseille","lat":43.23197,"lon":5.39974,"is_reserved":false,"is_disabled":false,"rental_uris":{"android":"levelo://app?vid=606aa41b-732d-472a-b321-f00550a4825f","ios":"levelo://app?vid=606aa41b-732d-472a-b321-f00550a4825f"},"vehicle_type_id":"4","last_reported":1750882344,"current_range_meters":12800,"station_id":"ce4bhn12rcd13ifvqgqg","pricing_plan_id":"cebpf4jnsgd1na2vs0mg"},{"bike_id":"5b0059f2-5a2a-41ce-b903-1f956adfdd24","system_id":"levelo_inurba_marseille","lat":43.29792,"lon":5.43536,"is_reserved":false,"is_disabled":false,"rental_uris":{"android":"levelo://app?vid=5b0059f2-5a2a-41ce-b903-1f956adfdd24","ios":"levelo://app?vid=5b0059f2-5a2a-41ce-b903-1f956adfdd24"},"vehicle_type_id":"4","last_reported":1750882344,"current_range_meters":13600,"station_id":"","pricing_plan_id":"cebpf4jnsgd1na2vs0mg"},{"bike_id":"3f498225-92d9-4398-9e02-b9d4d95085c8","system_id":"levelo_inurba_marseille","lat":43.29685,"lon":5.36647,"is_reserved":false,"is_disabled":false,"rental_uris":{"android":"levelo://app?vid=3f498225-92d9-4398-9e02-b9d4d95085c8","ios":"levelo://app?vid=3f498225-92d9-4398-9e02-b9d4d95085c8"},"vehicle_type_id":"4","last_reported":1750882344,"current_range_meters":13600,"station_id":"ce4bgn12rcd13ifvqbt0","pricing_plan_id":"cebpf4jnsgd1na2vs0mg"},{"bike_id":"4d6658f4-b84c-4066-af22-3348974d22c3","system_id":"levelo_inurba_marseille","lat":43.3112,"lon":5.3776,"is_reserved":false,"is_disabled":false,"rental_uris":{"android":"levelo://app?vid=4d6658f4-b84c-4066-af22-3348974d22c3","ios":"levelo://app?vid=4d6658f4-b84c-4066-af22-3348974d22c3"},"vehicle_type_id":"4","last_reported":1750882344,"current_range_meters":13600,"station_id":"ce4bgt92rcd13ifvqcg0","pricing_plan_id":"cebpf4jnsgd1na2vs0mg"},{"bike_id":"af5af934-e7c5-4f4b-93d9-83c42ea131da","system_id":"levelo_inurba_marseille","lat":43.29098,"lon":5.38118,"is_reserved":false,"is_disabled":false,"rental_uris":{"android":"levelo://app?vid=af5af934-e7c5-4f4b-93d9-83c42ea131da","ios":"levelo://app?vid=af5af934-e7c5-4f4b-93d9-83c42ea131da"},"vehicle_type_id":"4","last_reported":1750882344,"current_range_meters":13600,"station_id":"ce4bh512rcd13ifvqe2g","pricing_plan_id":"cebpf4jnsgd1na2vs0mg"},{"bike_id":"c3d6fd4e-a988-49b0-9220-ce0ea86f0e8c","system_id":"levelo_inurba_marseille","lat":43.2651,"lon":5.3953,"is_reserved":false,"is_disabled":false,"rental_uris":{"android":"levelo://app?vid=c3d6fd4e-a988-49b0-9220-ce0ea86f0e8c","ios":"levelo://app?vid=c3d6fd4e-a988-49b0-9220-ce0ea86f0e8c"},"vehicle_type_id":"4","last_reported":1750882344,"current_range_meters":13600,"station_id":"ce4bhi12rcd13ifvqfq0","pricing_plan_id":"cebpf4jnsgd1na2vs0mg"},{"bike_id":"efabcb35-59bb-4758-8a6c-5665d0efe20c","system_id":"levelo_inurba_marseille","lat":43.23195,"lon":5.3555,"is_reserved":false,"is_disabled":false,"rental_uris":{"android":"levelo://app?vid=efabcb35-59bb-4758-8a6c-5665d0efe20c","ios":"levelo://app?vid=efabcb35-59bb-4758-8a6c-5665d0efe20c"},"vehicle_type_id":"4","last_reported":1750882344,"current_range_meters":13600,"station_id":"ce4bhu92rcd13ifvqi70","pricing_plan_id":"cebpf4jnsgd1na2vs0mg"},{"bike_id":"6de72933-1e1b-4210-918e-260ebaa8a1d6","system_id":"levelo_inurba_marseille","lat":43.301465,"lon":5.374224,"is_reserved":false,"is_disabled":false,"rental_uris":{"android":"levelo://app?vid=6de72933-1e1b-4210-918e-260ebaa8a1d6","ios":"levelo://app?vid=6de72933-1e1b-4210-918e-260ebaa8a1d6"},"vehicle_type_id":"4","last_reported":1750882344,"current_range_meters":14000,"station_id":"ce4bgi92rcd13ifvqb90","pricing_plan_id":"cebpf4jnsgd1na2vs0mg"},{"bike_id":"e682afb2-1c47-4fe7-94e6-a0c6acf90b2c","system_id":"levelo_inurba_marseille","lat":43.29532,"lon":5.39039,"is_reserved":false,"is_disabled":false,"rental_uris":{"android":"levelo://app?vid=e682afb2-1c47-4fe7-94e6-a0c6acf90b2c","ios":"levelo://app?vid=e682afb2-1c47-4fe7-94e6-a0c6acf90b2c"},"vehicle_type_id":"4","last_reported":1750882344,"current_range_meters":14000,"station_id":"ce4bh3p2rcd13ifvqdp0","pricing_plan_id":"cebpf4jnsgd1na2vs0mg"},{"bike_id":"df078257-89cd-4b9a-a6a7-29cfc96a3dfa","system_id":"levelo_inurba_marseille","lat":43.29027,"lon":5.3865,"is_reserved":false,"is_disabled":false,"rental_uris":{"android":"levelo://app?vid=df078257-89cd-4b9a-a6a7-29cfc96a3dfa","ios":"levelo://app?vid=df078257-89cd-4b9a-a6a7-29cfc96a3dfa"},"vehicle_type_id":"4","last_reported":1750882344,"current_range_meters":14000,"station_id":"ce4bh4p2rcd13ifvqe0g","pricing_plan_id":"cebpf4jnsgd1na2vs0mg"},{"bike_id":"1507d491-2e58-4878-b5dd-67410ae7f548","system_id":"levelo_inurba_marseille","lat":43.26695,"lon":5.38256,"is_reserved":false,"is_disabled":false,"rental_uris":{"android":"levelo://app?vid=1507d491-2e58-4878-b5dd-67410ae7f548","ios":"levelo://app?vid=1507d491-2e58-4878-b5dd-67410ae7f548"},"vehicle_type_id":"4","last_reported":1750882344,"current_range_meters":14000,"station_id":"ce4bhg92rcd13ifvqf90","pricing_plan_id":"cebpf4jnsgd1na2vs0mg"},{"bike_id":"d3dff7a3-fffa-4a22-9509-62d948a88d79","system_id":"levelo_inurba_marseille","lat":43.29633,"lon":5.40602,"is_reserved":false,"is_disabled":false,"rental_uris":{"android":"levelo://app?vid=d3dff7a3-fffa-4a22-9509-62d948a88d79","ios":"levelo://app?vid=d3dff7a3-fffa-4a22-9509-62d948a88d79"},"vehicle_type_id":"4","last_reported":1750882344,"current_range_meters":14400,"station_id":"ce4bh0h2rcd13ifvqd60","pricing_plan_id":"cebpf4jnsgd1na2vs0mg"},{"bike_id":"5244a4b7-38dd-4bb7-abda-84985ebddd2d","system_id":"levelo_inurba_marseille","lat":43.30106,"lon":5.39051,"is_reserved":false,"is_disabled":false,"rental_uris":{"android":"levelo://app?vid=5244a4b7-38dd-4bb7-abda-84985ebddd2d","ios":"levelo://app?vid=5244a4b7-38dd-4bb7-abda-84985ebddd2d"},"vehicle_type_id":"4","last_reported":1750882344,"current_range_meters":14400,"station_id":"ce4bh192rcd13ifvqdb0","pricing_plan_id":"cebpf4jnsgd1na2vs0mg"},{"bike_id":"1eca00f9-4c53-4d25-8ee6-540f54760f6c","system_id":"levelo_inurba_marseille","lat":43.32004,"lon":5.3816,"is_reserved":false,"is_disabled":false,"rental_uris":{"android":"levelo://app?vid=1eca00f9-4c53-4d25-8ee6-540f54760f6c","ios":"levelo://app?vid=1eca00f9-4c53-4d25-8ee6-540f54760f6c"},"vehicle_type_id":"4","last_reported":1750882344,"current_range_meters":14400,"station_id":"ce4bhr12rcd13ifvqhpg","pricing_plan_id":"cebpf4jnsgd1na2vs0mg"},{"bike_id":"7bc68ce4-6121-4246-8bb7-8a8a3c36961b","system_id":"levelo_inurba_marseille","lat":43.23189,"lon":5.35558,"is_reserved":false,"is_disabled":false,"rental_uris":{"android":"levelo://app?vid=7bc68ce4-6121-4246-8bb7-8a8a3c36961b","ios":"levelo://app?vid=7bc68ce4-6121-4246-8bb7-8a8a3c36961b"},"vehicle_type_id":"4","last_reported":1750882344,"current_range_meters":14400,"station_id":"ce4bhu92rcd13ifvqi70","pricing_plan_id":"cebpf4jnsgd1na2vs0mg"},{"bike_id":"e377a263-ad3e-49f3-8476-066a4a43ce3a","system_id":"levelo_inurba_marseille","lat":43.31112,"lon":5.37768,"is_reserved":false,"is_disabled":false,"rental_uris":{"android":"levelo://app?vid=e377a263-ad3e-49f3-8476-066a4a43ce3a","ios":"levelo://app?vid=e377a263-ad3e-49f3-8476-066a4a43ce3a"},"vehicle_type_id":"4","last_reported":1750882344,"current_range_meters":14800,"station_id":"ce4bgt92rcd13ifvqcg0","pricing_plan_id":"cebpf4jnsgd1na2vs0mg"},{"bike_id":"41ecafb4-1caf-4b87-8f89-aa99956c2418","system_id":"levelo_inurba_marseille","lat":43.2954,"lon":5.39385,"is_reserved":false,"is_disabled":false,"rental_uris":{"android":"levelo://app?vid=41ecafb4-1caf-4b87-8f89-aa99956c2418","ios":"levelo://app?vid=41ecafb4-1caf-4b87-8f89-aa99956c2418"},"vehicle_type_id":"4","last_reported":1750882344,"current_range_meters":14800,"station_id":"ce4bh292rcd13ifvqdf0","pricing_plan_id":"cebpf4jnsgd1na2vs0mg"},{"bike_id":"993ec81a-bca7-45fb-9df1-8c719d232af5","system_id":"levelo_inurba_marseille","lat":43.28103,"lon":5.37825,"is_reserved":false,"is_disabled":false,"rental_uris":{"android":"levelo://app?vid=993ec81a-bca7-45fb-9df1-8c719d232af5","ios":"levelo://app?vid=993ec81a-bca7-45fb-9df1-8c719d232af5"},"vehicle_type_id":"4","last_reported":1750882344,"current_range_meters":14800,"station_id":"ce4bha12rcd13ifvqee0","pricing_plan_id":"cebpf4jnsgd1na2vs0mg"},{"bike_id":"6cafc292-a309-40a4-ad1b-407e42956824","system_id":"levelo_inurba_marseille","lat":43.25713,"lon":5.41118,"is_reserved":false,"is_disabled":false,"rental_uris":{"android":"levelo://app?vid=6cafc292-a309-40a4-ad1b-407e42956824","ios":"levelo://app?vid=6cafc292-a309-40a4-ad1b-407e42956824"},"vehicle_type_id":"4","last_reported":1750882344,"current_range_meters":14800,"station_id":"ce4bhkp2rcd13ifvqgd0","pricing_plan_id":"cebpf4jnsgd1na2vs0mg"},{"bike_id":"5ff107fb-d9ab-4209-935b-ea7b17c79014","system_id":"levelo_inurba_marseille","lat":43.23196,"lon":5.39999,"is_reserved":false,"is_disabled":false,"rental_uris":{"android":"levelo://app?vid=5ff107fb-d9ab-4209-935b-ea7b17c79014","ios":"levelo://app?vid=5ff107fb-d9ab-4209-935b-ea7b17c79014"},"vehicle_type_id":"4","last_reported":1750882344,"current_range_meters":14800,"station_id":"ce4bhn12rcd13ifvqgqg","pricing_plan_id":"cebpf4jnsgd1na2vs0mg"},{"bike_id":"b2b02e0f-ae2e-4d62-b6d1-bbccd31e58d6","system_id":"levelo_inurba_marseille","lat":43.30072,"lon":5.39316,"is_reserved":false,"is_disabled":false,"rental_uris":{"android":"levelo://app?vid=b2b02e0f-ae2e-4d62-b6d1-bbccd31e58d6","ios":"levelo://app?vid=b2b02e0f-ae2e-4d62-b6d1-bbccd31e58d6"},"vehicle_type_id":"4","last_reported":1750882344,"current_range_meters":15200,"station_id":"","pricing_plan_id":"cebpf4jnsgd1na2vs0mg"},{"bike_id":"648decb7-4a96-4e6b-bfee-08693167624a","system_id":"levelo_inurba_marseille","lat":43.26211,"lon":5.37439,"is_reserved":false,"is_disabled":false,"rental_uris":{"android":"levelo://app?vid=648decb7-4a96-4e6b-bfee-08693167624a","ios":"levelo://app?vid=648decb7-4a96-4e6b-bfee-08693167624a"},"vehicle_type_id":"4","last_reported":1750882344,"current_range_meters":15200,"station_id":"ce4bhgp2rcd13ifvqfc0","pricing_plan_id":"cebpf4jnsgd1na2vs0mg"},{"bike_id":"a76f4da4-1e36-4646-8c26-06d9cd2548d6","system_id":"levelo_inurba_marseille","lat":43.25493,"lon":5.37649,"is_reserved":false,"is_disabled":false,"rental_uris":{"android":"levelo://app?vid=a76f4da4-1e36-4646-8c26-06d9cd2548d6","ios":"levelo://app?vid=a76f4da4-1e36-4646-8c26-06d9cd2548d6"},"vehicle_type_id":"4","last_reported":1750882344,"current_range_meters":15200,"station_id":"ce4bhh12rcd13ifvqff0","pricing_plan_id":"cebpf4jnsgd1na2vs0mg"},{"bike_id":"d1529dce-77d5-4b66-9aa3-f57c10bfa692","system_id":"levelo_inurba_marseille","lat":43.27946,"lon":5.4105,"is_reserved":false,"is_disabled":false,"rental_uris":{"android":"levelo://app?vid=d1529dce-77d5-4b66-9aa3-f57c10bfa692","ios":"levelo://app?vid=d1529dce-77d5-4b66-9aa3-f57c10bfa692"},"vehicle_type_id":"4","last_reported":1750882344,"current_range_meters":15200,"station_id":"ce4bhnp2rcd13ifvqh0g","pricing_plan_id":"cebpf4jnsgd1na2vs0mg"},{"bike_id":"548a1946-6b2e-4487-8245-1c74f9d1b629","system_id":"levelo_inurba_marseille","lat":43.31991,"lon":5.38142,"is_reserved":false,"is_disabled":false,"rental_uris":{"android":"levelo://app?vid=548a1946-6b2e-4487-8245-1c74f9d1b629","ios":"levelo://app?vid=548a1946-6b2e-4487-8245-1c74f9d1b629"},"vehicle_type_id":"4","last_reported":1750882344,"current_range_meters":15200,"station_id":"ce4bhr12rcd13ifvqhpg","pricing_plan_id":"cebpf4jnsgd1na2vs0mg"},{"bike_id":"f47876d7-9c85-474e-92c5-7a242e08b67c","system_id":"levelo_inurba_marseille","lat":43.30559,"lon":5.375648,"is_reserved":false,"is_disabled":false,"rental_uris":{"android":"levelo://app?vid=f47876d7-9c85-474e-92c5-7a242e08b67c","ios":"levelo://app?vid=f47876d7-9c85-474e-92c5-7a242e08b67c"},"vehicle_type_id":"4","last_reported":1750882344,"current_range_meters":16000,"station_id":"","pricing_plan_id":"cebpf4jnsgd1na2vs0mg"},{"bike_id":"7db50ed2-22c1-42c1-a004-cfe2e4b55e6c","system_id":"levelo_inurba_marseille","lat":43.30797,"lon":5.38153,"is_reserved":false,"is_disabled":false,"rental_uris":{"android":"levelo://app?vid=7db50ed2-22c1-42c1-a004-cfe2e4b55e6c","ios":"levelo://app?vid=7db50ed2-22c1-42c1-a004-cfe2e4b55e6c"},"vehicle_type_id":"4","last_reported":1750882344,"current_range_meters":16000,"station_id":"ce4bgt12rcd13ifvqce0","pricing_plan_id":"cebpf4jnsgd1na2vs0mg"},{"bike_id":"d25ef037-f374-4b1a-805f-07cbb4e8ee6f","system_id":"levelo_inurba_marseille","lat":43.26026,"lon":5.37549,"is_reserved":false,"is_disabled":false,"rental_uris":{"android":"levelo://app?vid=d25ef037-f374-4b1a-805f-07cbb4e8ee6f","ios":"levelo://app?vid=d25ef037-f374-4b1a-805f-07cbb4e8ee6f"},"vehicle_type_id":"4","last_reported":1750882344,"current_range_meters":16000,"station_id":"ce4bhgh2rcd13ifvqfa0","pricing_plan_id":"cebpf4jnsgd1na2vs0mg"},{"bike_id":"27650437-493c-4e86-99ef-0136f2c35b13","system_id":"levelo_inurba_marseille","lat":43.2621,"lon":5.37441,"is_reserved":false,"is_disabled":false,"rental_uris":{"android":"levelo://app?vid=27650437-493c-4e86-99ef-0136f2c35b13","ios":"levelo://app?vid=27650437-493c-4e86-99ef-0136f2c35b13"},"vehicle_type_id":"4","last_reported":1750882344,"current_range_meters":16000,"station_id":"ce4bhgp2rcd13ifvqfc0","pricing_plan_id":"cebpf4jnsgd1na2vs0mg"},{"bike_id":"84a2c12d-ff70-4a12-9a38-8ede23a73cdf","system_id":"levelo_inurba_marseille","lat":43.31889,"lon":5.40724,"is_reserved":false,"is_disabled":false,"rental_uris":{"android":"levelo://app?vid=84a2c12d-ff70-4a12-9a38-8ede23a73cdf","ios":"levelo://app?vid=84a2c12d-ff70-4a12-9a38-8ede23a73cdf"},"vehicle_type_id":"4","last_reported":1750882344,"current_range_meters":16000,"station_id":"ce4bhq12rcd13ifvqhig","pricing_plan_id":"cebpf4jnsgd1na2vs0mg"},{"bike_id":"de0f7c2b-5974-4035-a240-8ed367c0e3f3","system_id":"levelo_inurba_marseille","lat":43.319648,"lon":5.376294,"is_reserved":false,"is_disabled":false,"rental_uris":{"android":"levelo://app?vid=de0f7c2b-5974-4035-a240-8ed367c0e3f3","ios":"levelo://app?vid=de0f7c2b-5974-4035-a240-8ed367c0e3f3"},"vehicle_type_id":"4","last_reported":1750882344,"current_range_meters":16400,"station_id":"","pricing_plan_id":"cebpf4jnsgd1na2vs0mg"},{"bike_id":"87f3a897-3b4f-424c-ad57-7482ce106414","system_id":"levelo_inurba_marseille","lat":43.31329,"lon":5.39691,"is_reserved":false,"is_disabled":false,"rental_uris":{"android":"levelo://app?vid=87f3a897-3b4f-424c-ad57-7482ce106414","ios":"levelo://app?vid=87f3a897-3b4f-424c-ad57-7482ce106414"},"vehicle_type_id":"4","last_reported":1750882344,"current_range_meters":16400,"station_id":"ce4bgvp2rcd13ifvqcu0","pricing_plan_id":"cebpf4jnsgd1na2vs0mg"},{"bike_id":"65600638-210f-4099-a82d-90ba96970f99","system_id":"levelo_inurba_marseille","lat":43.28402,"lon":5.37476,"is_reserved":false,"is_disabled":false,"rental_uris":{"android":"levelo://app?vid=65600638-210f-4099-a82d-90ba96970f99","ios":"levelo://app?vid=65600638-210f-4099-a82d-90ba96970f99"},"vehicle_type_id":"4","last_reported":1750882344,"current_range_meters":16400,"station_id":"ce4bh412rcd13ifvqds0","pricing_plan_id":"cebpf4jnsgd1na2vs0mg"},{"bike_id":"ddc1f841-8229-44af-88dc-2db91e8b1604","system_id":"levelo_inurba_marseille","lat":43.25495,"lon":5.37648,"is_reserved":false,"is_disabled":false,"rental_uris":{"android":"levelo://app?vid=ddc1f841-8229-44af-88dc-2db91e8b1604","ios":"levelo://app?vid=ddc1f841-8229-44af-88dc-2db91e8b1604"},"vehicle_type_id":"4","last_reported":1750882344,"current_range_meters":16400,"station_id":"ce4bhh12rcd13ifvqff0","pricing_plan_id":"cebpf4jnsgd1na2vs0mg"},{"bike_id":"ac4ec67d-2f74-4eac-b568-9138510ed0e6","system_id":"levelo_inurba_marseille","lat":43.25492,"lon":5.37647,"is_reserved":false,"is_disabled":false,"rental_uris":{"android":"levelo://app?vid=ac4ec67d-2f74-4eac-b568-9138510ed0e6","ios":"levelo://app?vid=ac4ec67d-2f74-4eac-b568-9138510ed0e6"},"vehicle_type_id":"4","last_reported":1750882344,"current_range_meters":16400,"station_id":"ce4bhh12rcd13ifvqff0","pricing_plan_id":"cebpf4jnsgd1na2vs0mg"},{"bike_id":"70a87e8b-7ad1-4bdf-b181-5e2fc38709cd","system_id":"levelo_inurba_marseille","lat":43.29897,"lon":5.43665,"is_reserved":false,"is_disabled":false,"rental_uris":{"android":"levelo://app?vid=70a87e8b-7ad1-4bdf-b181-5e2fc38709cd","ios":"levelo://app?vid=70a87e8b-7ad1-4bdf-b181-5e2fc38709cd"},"vehicle_type_id":"4","last_reported":1750882344,"current_range_meters":16400,"station_id":"ce4bhpp2rcd13ifvqhfg","pricing_plan_id":"cebpf4jnsgd1na2vs0mg"},{"bike_id":"e92d3bb6-e9a5-40d5-9b97-e83c16a3a6f3","system_id":"levelo_inurba_marseille","lat":43.31893,"lon":5.40725,"is_reserved":false,"is_disabled":false,"rental_uris":{"android":"levelo://app?vid=e92d3bb6-e9a5-40d5-9b97-e83c16a3a6f3","ios":"levelo://app?vid=e92d3bb6-e9a5-40d5-9b97-e83c16a3a6f3"},"vehicle_type_id":"4","last_reported":1750882344,"current_range_meters":16400,"station_id":"ce4bhq12rcd13ifvqhig","pricing_plan_id":"cebpf4jnsgd1na2vs0mg"},{"bike_id":"15b2721a-3664-49e1-9877-261c08daeef5","system_id":"levelo_inurba_marseille","lat":43.21198,"lon":5.35057,"is_reserved":false,"is_disabled":false,"rental_uris":{"android":"levelo://app?vid=15b2721a-3664-49e1-9877-261c08daeef5","ios":"levelo://app?vid=15b2721a-3664-49e1-9877-261c08daeef5"},"vehicle_type_id":"4","last_reported":1750882344,"current_range_meters":16400,"station_id":"st_cvj6sg6p6f1abm77japg","pricing_plan_id":"cebpf4jnsgd1na2vs0mg"},{"bike_id":"ee9db356-6b1a-43d1-8cd0-12f8f0e5264f","system_id":"levelo_inurba_marseille","lat":43.273657,"lon":5.391021,"is_reserved":false,"is_disabled":false,"rental_uris":{"android":"levelo://app?vid=ee9db356-6b1a-43d1-8cd0-12f8f0e5264f","ios":"levelo://app?vid=ee9db356-6b1a-43d1-8cd0-12f8f0e5264f"},"vehicle_type_id":"4","last_reported":1750882344,"current_range_meters":16800,"station_id":"ce4bh492rcd13ifvqdvg","pricing_plan_id":"cebpf4jnsgd1na2vs0mg"},{"bike_id":"6d2671ac-83e9-4fb7-a06d-3b8fad6a032f","system_id":"levelo_inurba_marseille","lat":43.25495,"lon":5.3766,"is_reserved":false,"is_disabled":false,"rental_uris":{"android":"levelo://app?vid=6d2671ac-83e9-4fb7-a06d-3b8fad6a032f","ios":"levelo://app?vid=6d2671ac-83e9-4fb7-a06d-3b8fad6a032f"},"vehicle_type_id":"4","last_reported":1750882344,"current_range_meters":16800,"station_id":"ce4bhh12rcd13ifvqff0","pricing_plan_id":"cebpf4jnsgd1na2vs0mg"},{"bike_id":"7f212f1e-9b22-4ad3-88bb-18d999719345","system_id":"levelo_inurba_marseille","lat":43.21203,"lon":5.35055,"is_reserved":false,"is_disabled":false,"rental_uris":{"android":"levelo://app?vid=7f212f1e-9b22-4ad3-88bb-18d999719345","ios":"levelo://app?vid=7f212f1e-9b22-4ad3-88bb-18d999719345"},"vehicle_type_id":"4","last_reported":1750882344,"current_range_meters":16800,"station_id":"st_cvj6sg6p6f1abm77japg","pricing_plan_id":"cebpf4jnsgd1na2vs0mg"},{"bike_id":"4b8da722-ee9e-48a4-a5e5-3a8a10364708","system_id":"levelo_inurba_marseille","lat":43.31199,"lon":5.37833,"is_reserved":false,"is_disabled":false,"rental_uris":{"android":"levelo://app?vid=4b8da722-ee9e-48a4-a5e5-3a8a10364708","ios":"levelo://app?vid=4b8da722-ee9e-48a4-a5e5-3a8a10364708"},"vehicle_type_id":"4","last_reported":1750882344,"current_range_meters":17200,"station_id":"","pricing_plan_id":"cebpf4jnsgd1na2vs0mg"},{"bike_id":"c3d951ea-3701-4d76-8e41-09648beae56a","system_id":"levelo_inurba_marseille","lat":43.248606,"lon":5.373589,"is_reserved":false,"is_disabled":false,"rental_uris":{"android":"levelo://app?vid=c3d951ea-3701-4d76-8e41-09648beae56a","ios":"levelo://app?vid=c3d951ea-3701-4d76-8e41-09648beae56a"},"vehicle_type_id":"4","last_reported":1750882344,"current_range_meters":17200,"station_id":"","pricing_plan_id":"cebpf4jnsgd1na2vs0mg"},{"bike_id":"fb66646f-743a-4e1e-b572-ad1ca943129a","system_id":"levelo_inurba_marseille","lat":43.28855,"lon":5.39295,"is_reserved":false,"is_disabled":false,"rental_uris":{"android":"levelo://app?vid=fb66646f-743a-4e1e-b572-ad1ca943129a","ios":"levelo://app?vid=fb66646f-743a-4e1e-b572-ad1ca943129a"},"vehicle_type_id":"4","last_reported":1750882344,"current_range_meters":17200,"station_id":"ce4bh2p2rcd13ifvqdi0","pricing_plan_id":"cebpf4jnsgd1na2vs0mg"},{"bike_id":"557c1906-af33-4070-ac5c-11b871bd0d54","system_id":"levelo_inurba_marseille","lat":43.28614,"lon":5.37063,"is_reserved":false,"is_disabled":false,"rental_uris":{"android":"levelo://app?vid=557c1906-af33-4070-ac5c-11b871bd0d54","ios":"levelo://app?vid=557c1906-af33-4070-ac5c-11b871bd0d54"},"vehicle_type_id":"4","last_reported":1750882344,"current_range_meters":17200,"station_id":"ce4bht12rcd13ifvqi60","pricing_plan_id":"cebpf4jnsgd1na2vs0mg"},{"bike_id":"ca85e96d-658f-4cdb-b0ce-0136988ea0ec","system_id":"levelo_inurba_marseille","lat":43.28729,"lon":5.36085,"is_reserved":false,"is_disabled":false,"rental_uris":{"android":"levelo://app?vid=ca85e96d-658f-4cdb-b0ce-0136988ea0ec","ios":"levelo://app?vid=ca85e96d-658f-4cdb-b0ce-0136988ea0ec"},"vehicle_type_id":"4","last_reported":1750882344,"current_range_meters":17200,"station_id":"cki0cbj6b192h4jlfktg","pricing_plan_id":"cebpf4jnsgd1na2vs0mg"},{"bike_id":"86ebd8a7-7d30-43b6-953e-6107b0f77710","system_id":"levelo_inurba_marseille","lat":43.33411,"lon":5.40063,"is_reserved":false,"is_disabled":false,"rental_uris":{"android":"levelo://app?vid=86ebd8a7-7d30-43b6-953e-6107b0f77710","ios":"levelo://app?vid=86ebd8a7-7d30-43b6-953e-6107b0f77710"},"vehicle_type_id":"4","last_reported":1750882344,"current_range_meters":17600,"station_id":"","pricing_plan_id":"cebpf4jnsgd1na2vs0mg"},{"bike_id":"495def83-d8c5-4232-a319-de95aab72b7c","system_id":"levelo_inurba_marseille","lat":43.28686,"lon":5.38654,"is_reserved":false,"is_disabled":false,"rental_uris":{"android":"levelo://app?vid=495def83-d8c5-4232-a319-de95aab72b7c","ios":"levelo://app?vid=495def83-d8c5-4232-a319-de95aab72b7c"},"vehicle_type_id":"4","last_reported":1750882344,"current_range_meters":17600,"station_id":"ce4bh492rcd13ifvqdug","pricing_plan_id":"cebpf4jnsgd1na2vs0mg"},{"bike_id":"9fa18a84-1d67-4379-b50e-6611e989cb39","system_id":"levelo_inurba_marseille","lat":43.25496,"lon":5.37652,"is_reserved":false,"is_disabled":false,"rental_uris":{"android":"levelo://app?vid=9fa18a84-1d67-4379-b50e-6611e989cb39","ios":"levelo://app?vid=9fa18a84-1d67-4379-b50e-6611e989cb39"},"vehicle_type_id":"4","last_reported":1750882344,"current_range_meters":17600,"station_id":"ce4bhh12rcd13ifvqff0","pricing_plan_id":"cebpf4jnsgd1na2vs0mg"},{"bike_id":"4ec07c6c-9906-422d-90d3-0bf68bc54d11","system_id":"levelo_inurba_marseille","lat":43.25499,"lon":5.37647,"is_reserved":false,"is_disabled":false,"rental_uris":{"android":"levelo://app?vid=4ec07c6c-9906-422d-90d3-0bf68bc54d11","ios":"levelo://app?vid=4ec07c6c-9906-422d-90d3-0bf68bc54d11"},