{"last_updated":1726776573,"ttl":30,"version":"2.2","data":{"bikes":[{"bike_id":"461e743b-06c2-49e4-97ae-9f334ad97d5f","system_id":"levelo_inurba_marseille","lat":43.28397,"lon":5.37512,"is_reserved":false,"is_disabled":false,"rental_uris":{"android":"levelo://app?vid=461e743b-06c2-49e4-97ae-9f334ad97d5f","ios":"levelo://app?vid=461e743b-06c2-49e4-97ae-9f334ad97d5f"},"vehicle_type_id":"4","last_reported":1726776573,"current_range_meters":33600,"station_id":"ce4bh412rcd13ifvqds0","pricing_plan_id":"cebpf4jnsgd1na2vs0mg"},{"bike_id":"43562033-0930-40dc-8876-d192f1ee8fa7","system_id":"levelo_inurba_marseille","lat":43.30646,"lon":5.40108,"is_reserved":false,"is_disabled":false,"rental_uris":{"android":"levelo://app?vid=43562033-0930-40dc-8876-d192f1ee8fa7","ios":"levelo://app?vid=43562033-0930-40dc-8876-d192f1ee8fa7"},"vehicle_type_id":"4","last_reported":1726776573,"current_range_meters":12400,"station_id":"ce4bh112rcd13ifvqda0","pricing_plan_id":"cebpf4jnsgd1na2vs0mg"},{"bike_id":"d29d038d-c053-482b-9df2-6f6386a3597a","system_id":"levelo_inurba_marseille","lat":43.27974,"lon":5.38735,"is_reserved":false,"is_disabled":false,"rental_uris":{"android":"levelo://app?vid=d29d038d-c053-482b-9df2-6f6386a3597a","ios":"levelo://app?vid=d29d038d-c053-482b-9df2-6f6386a3597a"},"vehicle_type_id":"4","last_reported":1726776573,"current_range_meters":11200,"station_id":"ce4bhg12rcd13ifvqf80","pricing_plan_id":"cebpf4jnsgd1na2vs0mg"},{"bike_id":"d2d5b36d-cd3c-4b9b-8011-d9b33013fc52","system_id":"levelo_inurba_marseille","lat":43.26963,"lon":5.38635,"is_reserved":false,"is_disabled":false,"rental_uris":{"android":"levelo://app?vid=d2d5b36d-cd3c-4b9b-8011-d9b33013fc52","ios":"levelo://app?vid=d2d5b36d-cd3c-4b9b-8011-d9b33013fc52"},"vehicle_type_id":"4","last_reported":1726776573,"current_range_meters":10800,"station_id":"ce4bhh92rcd13ifvqfh0","pricing_plan_id":"cebpf4jnsgd1na2vs0mg"},{"bike_id":"e97262c5-0a80-48c6-9abe-fcdb1c57f6b8","system_id":"levelo_inurba_marseille","lat":43.30891,"lon":5.39659,"is_reserved":false,"is_disabled":false,"rental_uris":{"android":"levelo://app?vid=e97262c5-0a80-48c6-9abe-fcdb1c57f6b8","ios":"levelo://app?vid=e97262c5-0a80-48c6-9abe-fcdb1c57f6b8"},"vehicle_type_id":"4","last_reported":1726776573,"current_range_meters":4400,"station_id":"ce4bh012rcd13ifvqcv0","pricing_plan_id":"cebpf4jnsgd1na2vs0mg"},{"bike_id":"7d55db78-7210-483f-b538-ea2b4ad1d4c8","system_id":"levelo_inurba_marseille","lat":43.31082,"lon":5.42434,"is_reserved":false,"is_disabled":false,"rental_uris":{"android":"levelo://app?vid=7d55db78-7210-483f-b538-ea2b4ad1d4c8","ios":"levelo://app?vid=7d55db78-7210-483f-b538-ea2b4ad1d4c8"},"vehicle_type_id":"4","last_reported":1726776573,"current_range_meters":31200,"station_id":"ce4bhp92rcd13ifvqhag","pricing_plan_id":"cebpf4jnsgd1na2vs0mg"},{"bike_id":"eb67e6e9-00dd-44c7-8445-13c3a76d39d6","system_id":"levelo_inurba_marseille","lat":43.31359,"lon":5.38501,"is_reserved":false,"is_disabled":false,"rental_uris":{"android":"levelo://app?vid=eb67e6e9-00dd-44c7-8445-13c3a76d39d6","ios":"levelo://app?vid=eb67e6e9-00dd-44c7-8445-13c3a76d39d6"},"vehicle_type_id":"4","last_reported":1726776573,"current_range_meters":24000,"station_id":"ce4bgt92rcd13ifvqcf0","pricing_plan_id":"cebpf4jnsgd1na2vs0mg"},{"bike_id":"a5ed4552-d0d2-4d14-bf49-8a55d4e2e324","system_id":"levelo_inurba_marseille","lat":43.3042,"lon":5.41296,"is_reserved":false,"is_disabled":false,"rental_uris":{"android":"levelo://app?vid=a5ed4552-d0d2-4d14-bf49-8a55d4e2e324","ios":"levelo://app?vid=a5ed4552-d0d2-4d14-bf49-8a55d4e2e324"},"vehicle_type_id":"4","last_reported":1726776573,"current_range_meters":34000,"station_id":"ce4bhop2rcd13ifvqh8g","pricing_plan_id":"cebpf4jnsgd1na2vs0mg"},{"bike_id":"a08cac62-1d3d-4f91-af12-25953ddfb101","system_id":"levelo_inurba_marseille","lat":43.24654,"lon":5.38899,"is_reserved":false,"is_disabled":false,"rental_uris":{"android":"levelo://app?vid=a08cac62-1d3d-4f91-af12-25953ddfb101","ios":"levelo://app?vid=a08cac62-1d3d-4f91-af12-25953ddfb101"},"vehicle_type_id":"4","last_reported":1726776573,"current_range_meters":27200,"station_id":"ce4bhg12rcd13ifvqf60","pricing_plan_id":"cebpf4jnsgd1na2vs0mg"},{"bike_id":"dc873ccc-5283-4204-9440-97850e006bd7","system_id":"levelo_inurba_marseille","lat":43.3153,"lon":5.38038,"is_reserved":false,"is_disabled":false,"rental_uris":{"android":"levelo://app?vid=dc873ccc-5283-4204-9440-97850e006bd7","ios":"levelo://app?vid=dc873ccc-5283-4204-9440-97850e006bd7"},"vehicle_type_id":"4","last_reported":1726776573,"current_range_meters":30000,"station_id":"ce4bhsp2rcd13ifvqi50","pricing_plan_id":"cebpf4jnsgd1na2vs0mg"},{"bike_id":"4273fb2e-6b23-4d07-b35f-38105647953f","system_id":"levelo_inurba_marseille","lat":43.28712,"lon":5.3739,"is_reserved":false,"is_disabled":false,"rental_uris":{"android":"levelo://app?vid=4273fb2e-6b23-4d07-b35f-38105647953f","ios":"levelo://app?vid=4273fb2e-6b23-4d07-b35f-38105647953f"},"vehicle_type_id":"4","last_reported":1726776573,"current_range_meters":38800,"station_id":"ce4bh3p2rcd13ifvqdq0","pricing_plan_id":"cebpf4jnsgd1na2vs0mg"},{"bike_id":"259a1233-1d98-4d8d-810e-00bdd4c3c766","system_id":"levelo_inurba_marseille","lat":43.3189,"lon":5.40735,"is_reserved":false,"is_disabled":false,"rental_uris":{"android":"levelo://app?vid=259a1233-1d98-4d8d-810e-00bdd4c3c766","ios":"levelo://app?vid=259a1233-1d98-4d8d-810e-00bdd4c3c766"},"vehicle_type_id":"4","last_reported":1726776573,"current_range_meters":25200,"station_id":"ce4bhq12rcd13ifvqhig","pricing_plan_id":"cebpf4jnsgd1na2vs0mg"},{"bike_id":"5a011757-8bed-47aa-aa97-2be1fb39f2aa","system_id":"levelo_inurba_marseille","lat":43.28467,"lon":5.35905,"is_reserved":false,"is_disabled":false,"rental_uris":{"android":"levelo://app?vid=5a011757-8bed-47aa-aa97-2be1fb39f2aa","ios":"levelo://app?vid=5a011757-8bed-47aa-aa97-2be1fb39f2aa"},"vehicle_type_id":"4","last_reported":1726776573,"current_range_meters":31200,"station_id":"ce4bhah2rcd13ifvqei0","pricing_plan_id":"cebpf4jnsgd1na2vs0mg"},{"bike_id":"e532fd53-ad12-4848-82ea-70ac934c1c37","system_id":"levelo_inurba_marseille","lat":43.3375,"lon":5.37446,"is_reserved":false,"is_disabled":false,"rental_uris":{"android":"levelo://app?vid=e532fd53-ad12-4848-82ea-70ac934c1c37","ios":"levelo://app?vid=e532fd53-ad12-4848-82ea-70ac934c1c37"},"vehicle_type_id":"4","last_reported":1726776573,"current_range_meters":36400,"station_id":"","pricing_plan_id":"cebpf4jnsgd1na2vs0mg"},{"bike_id":"8ceaecc8-718f-4488-8932-de6cb7c7ec9e","system_id":"levelo_inurba_marseille","lat":43.26809,"lon":5.40265,"is_reserved":false,"is_disabled":false,"rental_uris":{"android":"levelo://app?vid=8ceaecc8-718f-4488-8932-de6cb7c7ec9e","ios":"levelo://app?vid=8ceaecc8-718f-4488-8932-de6cb7c7ec9e"},"vehicle_type_id":"4","last_reported":1726776573,"current_range_meters":40000,"station_id":"ce501612rcd8frsf0b60","pricing_plan_id":"cebpf4jnsgd1na2vs0mg"},{"bike_id":"80490428-4cf9-4e64-9c06-c69737938659","system_id":"levelo_inurba_marseille","lat":43.28663,"lon":5.36366,"is_reserved":false,"is_disabled":false,"rental_uris":{"android":"levelo://app?vid=80490428-4cf9-4e64-9c06-c69737938659","ios":"levelo://app?vid=80490428-4cf9-4e64-9c06-c69737938659"},"vehicle_type_id":"4","last_reported":1726776573,"current_range_meters":7200,"station_id":"ce4bhah2rcd13ifvqej0","pricing_plan_id":"cebpf4jnsgd1na2vs0mg"},{"bike_id":"eba669c2-dbe1-4f32-b6c5-931f9639d8d0","system_id":"levelo_inurba_marseille","lat":43.29957,"lon":5.38471,"is_reserved":false,"is_disabled":false,"rental_uris":{"android":"levelo://app?vid=eba669c2-dbe1-4f32-b6c5-931f9639d8d0","ios":"levelo://app?vid=eba669c2-dbe1-4f32-b6c5-931f9639d8d0"},"vehicle_type_id":"4","last_reported":1726776573,"current_range_meters":9200,"station_id":"ce4bgj92rcd13ifvqbd0","pricing_plan_id":"cebpf4jnsgd1na2vs0mg"},{"bike_id":"f9898cab-cb36-4e00-83b8-7f729aaf5652","system_id":"levelo_inurba_marseille","lat":43.32655,"lon":5.41001,"is_reserved":false,"is_disabled":false,"rental_uris":{"android":"levelo://app?vid=f9898cab-cb36-4e00-83b8-7f729aaf5652","ios":"levelo://app?vid=f9898cab-cb36-4e00-83b8-7f729aaf5652"},"vehicle_type_id":"4","last_reported":1726776573,"current_range_meters":38800,"station_id":"ce4bhpp2rcd13ifvqhgg","pricing_plan_id":"cebpf4jnsgd1na2vs0mg"},{"bike_id":"d32cf929-3fc5-47e4-adf6-bce42e1bb786","system_id":"levelo_inurba_marseille","lat":43.307312,"lon":5.371359,"is_reserved":false,"is_disabled":false,"rental_uris":{"android":"levelo://app?vid=d32cf929-3fc5-47e4-adf6-bce42e1bb786","ios":"levelo://app?vid=d32cf929-3fc5-47e4-adf6-bce42e1bb786"},"vehicle_type_id":"4","last_reported":1726776573,"current_range_meters":12000,"station_id":"ce4bgv12rcd13ifvqcp0","pricing_plan_id":"cebpf4jnsgd1na2vs0mg"},{"bike_id":"a17f5ffc-f55c-4584-bc7a-fa848bff16e2","system_id":"levelo_inurba_marseille","lat":43.29404,"lon":5.37375,"is_reserved":false,"is_disabled":false,"rental_uris":{"android":"levelo://app?vid=a17f5ffc-f55c-4584-bc7a-fa848bff16e2","ios":"levelo://app?vid=a17f5ffc-f55c-4584-bc7a-fa848bff16e2"},"vehicle_type_id":"4","last_reported":1726776573,"current_range_meters":39200,"station_id":"","pricing_plan_id":"cebpf4jnsgd1na2vs0mg"},{"bike_id":"a567976d-80fe-4b0e-a6dd-1f84f1aac25d","system_id":"levelo_inurba_marseille","lat":43.29201,"lon":5.39326,"is_reserved":false,"is_disabled":false,"rental_uris":{"android":"levelo://app?vid=a567976d-80fe-4b0e-a6dd-1f84f1aac25d","ios":"levelo://app?vid=a567976d-80fe-4b0e-a6dd-1f84f1aac25d"},"vehicle_type_id":"4","last_reported":1726776573,"current_range_meters":39200,"station_id":"ce4bh192rcd13ifvqdd0","pricing_plan_id":"cebpf4jnsgd1na2vs0mg"},{"bike_id":"6813a1bb-af4b-4872-8b9e-0171c15e7d49","system_id":"levelo_inurba_marseille","lat":43.30638,"lon":5.40102,"is_reserved":false,"is_disabled":false,"rental_uris":{"android":"levelo://app?vid=6813a1bb-af4b-4872-8b9e-0171c15e7d49","ios":"levelo://app?vid=6813a1bb-af4b-4872-8b9e-0171c15e7d49"},"vehicle_type_id":"4","last_reported":1726776573,"current_range_meters":38000,"station_id":"ce4bh112rcd13ifvqda0","pricing_plan_id":"cebpf4jnsgd1na2vs0mg"},{"bike_id":"7f6acce1-39ea-4633-ba55-98fb087e35e9","system_id":"levelo_inurba_marseille","lat":43.308563,"lon":5.3971,"is_reserved":false,"is_disabled":false,"rental_uris":{"android":"levelo://app?vid=7f6acce1-39ea-4633-ba55-98fb087e35e9","ios":"levelo://app?vid=7f6acce1-39ea-4633-ba55-98fb087e35e9"},"vehicle_type_id":"4","last_reported":1726776573,"current_range_meters":6400,"station_id":"ce4bh012rcd13ifvqcv0","pricing_plan_id":"cebpf4jnsgd1na2vs0mg"},{"bike_id":"dc59c3b5-2484-4472-b269-239c5d51bc87","system_id":"levelo_inurba_marseille","lat":43.29422,"lon":5.38626,"is_reserved":false,"is_disabled":false,"rental_uris":{"android":"levelo://app?vid=dc59c3b5-2484-4472-b269-239c5d51bc87","ios":"levelo://app?vid=dc59c3b5-2484-4472-b269-239c5d51bc87"},"vehicle_type_id":"4","last_reported":1726776573,"current_range_meters":38000,"station_id":"ce4bh2h2rcd13ifvqdh0","pricing_plan_id":"cebpf4jnsgd1na2vs0mg"},{"bike_id":"0e6d9370-8da4-4f23-a42e-d76f6f525ae5","system_id":"levelo_inurba_marseille","lat":43.28858,"lon":5.35857,"is_reserved":false,"is_disabled":false,"rental_uris":{"android":"levelo://app?vid=0e6d9370-8da4-4f23-a42e-d76f6f525ae5","ios":"levelo://app?vid=0e6d9370-8da4-4f23-a42e-d76f6f525ae5"},"vehicle_type_id":"4","last_reported":1726776573,"current_range_meters":38800,"station_id":"ce4bhb12rcd13ifvqem0","pricing_plan_id":"cebpf4jnsgd1na2vs0mg"},{"bike_id":"1d669fcc-1fdc-4a47-bb39-513baf72b3d8","system_id":"levelo_inurba_marseille","lat":43.28108,"lon":5.37833,"is_reserved":false,"is_disabled":false,"rental_uris":{"android":"levelo://app?vid=1d669fcc-1fdc-4a47-bb39-513baf72b3d8","ios":"levelo://app?vid=1d669fcc-1fdc-4a47-bb39-513baf72b3d8"},"vehicle_type_id":"4","last_reported":1726776573,"current_range_meters":10800,"station_id":"ce4bha12rcd13ifvqee0","pricing_plan_id":"cebpf4jnsgd1na2vs0mg"},{"bike_id":"06eef320-c2b1-42ca-bda3-e896022e4f06","system_id":"levelo_inurba_marseille","lat":43.27072,"lon":5.42284,"is_reserved":false,"is_disabled":false,"rental_uris":{"android":"levelo://app?vid=06eef320-c2b1-42ca-bda3-e896022e4f06","ios":"levelo://app?vid=06eef320-c2b1-42ca-bda3-e896022e4f06"},"vehicle_type_id":"4","last_reported":1726776573,"current_range_meters":17600,"station_id":"ce4bhk92rcd13ifvqgb0","pricing_plan_id":"cebpf4jnsgd1na2vs0mg"},{"bike_id":"a12cc5e8-e2c4-4843-8ecf-b44a6338654e","system_id":"levelo_inurba_marseille","lat":43.29714,"lon":5.36611,"is_reserved":false,"is_disabled":false,"rental_uris":{"android":"levelo://app?vid=a12cc5e8-e2c4-4843-8ecf-b44a6338654e","ios":"levelo://app?vid=a12cc5e8-e2c4-4843-8ecf-b44a6338654e"},"vehicle_type_id":"4","last_reported":1726776573,"current_range_meters":33200,"station_id":"ce4bgn12rcd13ifvqbt0","pricing_plan_id":"cebpf4jnsgd1na2vs0mg"},{"bike_id":"c58be8b5-ae29-447d-87fb-81f8ade99201","system_id":"levelo_inurba_marseille","lat":43.303284,"lon":5.404428,"is_reserved":false,"is_disabled":false,"rental_uris":{"android":"levelo://app?vid=c58be8b5-ae29-447d-87fb-81f8ade99201","ios":"levelo://app?vid=c58be8b5-ae29-447d-87fb-81f8ade99201"},"vehicle_type_id":"4","last_reported":1726776573,"current_range_meters":30800,"station_id":"ce4bh012rcd13ifvqd10","pricing_plan_id":"cebpf4jnsgd1na2vs0mg"},{"bike_id":"d6a52dc7-7c1e-4441-8be7-448bd43513e3","system_id":"levelo_inurba_marseille","lat":43.30956,"lon":5.39034,"is_reserved":false,"is_disabled":false,"rental_uris":{"android":"levelo://app?vid=d6a52dc7-7c1e-4441-8be7-448bd43513e3","ios":"levelo://app?vid=d6a52dc7-7c1e-4441-8be7-448bd43513e3"},"vehicle_type_id":"4","last_reported":1726776573,"current_range_meters":6400,"station_id":"ce4bgup2rcd13ifvqco0","pricing_plan_id":"cebpf4jnsgd1na2vs0mg"},{"bike_id":"568f3b54-327a-485e-8dea-362f5b133281","system_id":"levelo_inurba_marseille","lat":43.31717,"lon":5.37762,"is_reserved":false,"is_disabled":false,"rental_uris":{"android":"levelo://app?vid=568f3b54-327a-485e-8dea-362f5b133281","ios":"levelo://app?vid=568f3b54-327a-485e-8dea-362f5b133281"},"vehicle_type_id":"4","last_reported":1726776573,"current_range_meters":2800,"station_id":"ce4bgth2rcd13ifvqch0","pricing_plan_id":"cebpf4jnsgd1na2vs0mg"},{"bike_id":"013f266c-0606-4ddb-bfea-9da057478c9e","system_id":"levelo_inurba_marseille","lat":43.28575,"lon":5.39505,"is_reserved":false,"is_disabled":false,"rental_uris":{"android":"levelo://app?vid=013f266c-0606-4ddb-bfea-9da057478c9e","ios":"levelo://app?vid=013f266c-0606-4ddb-bfea-9da057478c9e"},"vehicle_type_id":"4","last_reported":1726776573,"current_range_meters":22400,"station_id":"ce4bh292rcd13ifvqdg0","pricing_plan_id":"cebpf4jnsgd1na2vs0mg"},{"bike_id":"920ab599-2fc2-4098-a358-fc9f827f2d1a","system_id":"levelo_inurba_marseille","lat":43.30309,"lon":5.39221,"is_reserved":false,"is_disabled":false,"rental_uris":{"android":"levelo://app?vid=920ab599-2fc2-4098-a358-fc9f827f2d1a","ios":"levelo://app?vid=920ab599-2fc2-4098-a358-fc9f827f2d1a"},"vehicle_type_id":"4","last_reported":1726776573,"current_range_meters":9200,"station_id":"ce4bgkh2rcd13ifvqbk0","pricing_plan_id":"cebpf4jnsgd1na2vs0mg"},{"bike_id":"2938c4de-0f8a-48aa-a709-0c5c63e17702","system_id":"levelo_inurba_marseille","lat":43.2792,"lon":5.39575,"is_reserved":false,"is_disabled":false,"rental_uris":{"android":"levelo://app?vid=2938c4de-0f8a-48aa-a709-0c5c63e17702","ios":"levelo://app?vid=2938c4de-0f8a-48aa-a709-0c5c63e17702"},"vehicle_type_id":"4","last_reported":1726776573,"current_range_meters":31200,"station_id":"ce4bhf92rcd13ifvqf40","pricing_plan_id":"cebpf4jnsgd1na2vs0mg"},{"bike_id":"a244c4d4-d575-48e3-94b5-f5a8645dec63","system_id":"levelo_inurba_marseille","lat":43.31176,"lon":5.38722,"is_reserved":false,"is_disabled":false,"rental_uris":{"android":"levelo://app?vid=a244c4d4-d575-48e3-94b5-f5a8645dec63","ios":"levelo://app?vid=a244c4d4-d575-48e3-94b5-f5a8645dec63"},"vehicle_type_id":"4","last_reported":1726776573,"current_range_meters":39200,"station_id":"ce4bgv12rcd13ifvqcp0","pricing_plan_id":"cebpf4jnsgd1na2vs0mg"},{"bike_id":"3ddc290e-5a67-453f-a356-251b8cb031fe","system_id":"levelo_inurba_marseille","lat":43.32476,"lon":5.36579,"is_reserved":false,"is_disabled":false,"rental_uris":{"android":"levelo://app?vid=3ddc290e-5a67-453f-a356-251b8cb031fe","ios":"levelo://app?vid=3ddc290e-5a67-453f-a356-251b8cb031fe"},"vehicle_type_id":"4","last_reported":1726776573,"current_range_meters":3600,"station_id":"ce4bhs12rcd13ifvqhvg","pricing_plan_id":"cebpf4jnsgd1na2vs0mg"},{"bike_id":"1bcdb92b-8824-41cd-b6cf-d0ee92f5a1da","system_id":"levelo_inurba_marseille","lat":43.28038,"lon":5.36962,"is_reserved":false,"is_disabled":false,"rental_uris":{"android":"levelo://app?vid=1bcdb92b-8824-41cd-b6cf-d0ee92f5a1da","ios":"levelo://app?vid=1bcdb92b-8824-41cd-b6cf-d0ee92f5a1da"},"vehicle_type_id":"4","last_reported":1726776573,"current_range_meters":18000,"station_id":"ce4bha12rcd13ifvqef0","pricing_plan_id":"cebpf4jnsgd1na2vs0mg"},{"bike_id":"04394a73-34a5-4d88-bac1-80c0695aafe5","system_id":"levelo_inurba_marseille","lat":43.337444,"lon":5.374475,"is_reserved":false,"is_disabled":false,"rental_uris":{"android":"levelo://app?vid=04394a73-34a5-4d88-bac1-80c0695aafe5","ios":"levelo://app?vid=04394a73-34a5-4d88-bac1-80c0695aafe5"},"vehicle_type_id":"4","last_reported":1726776573,"current_range_meters":22800,"station_id":"","pricing_plan_id":"cebpf4jnsgd1na2vs0mg"},{"bike_id":"2bb3e148-93ab-445e-859b-72db66b984ff","system_id":"levelo_inurba_marseille","lat":43.29518,"lon":5.39054,"is_reserved":false,"is_disabled":false,"rental_uris":{"android":"levelo://app?vid=2bb3e148-93ab-445e-859b-72db66b984ff","ios":"levelo://app?vid=2bb3e148-93ab-445e-859b-72db66b984ff"},"vehicle_type_id":"4","last_reported":1726776573,"current_range_meters":33600,"station_id":"ce4bh3p2rcd13ifvqdp0","pricing_plan_id":"cebpf4jnsgd1na2vs0mg"},{"bike_id":"036ab25f-0c34-4c45-8e88-1fc9200da6fd","system_id":"levelo_inurba_marseille","lat":43.27187,"lon":5.42699,"is_reserved":false,"is_disabled":false,"rental_uris":{"android":"levelo://app?vid=036ab25f-0c34-4c45-8e88-1fc9200da6fd","ios":"levelo://app?vid=036ab25f-0c34-4c45-8e88-1fc9200da6fd"},"vehicle_type_id":"4","last_reported":1726776573,"current_range_meters":28400,"station_id":"","pricing_plan_id":"cebpf4jnsgd1na2vs0mg"},{"bike_id":"40e5b403-5590-4098-a474-822a4163b2a7","system_id":"levelo_inurba_marseille","lat":43.24082,"lon":5.3775,"is_reserved":false,"is_disabled":false,"rental_uris":{"android":"levelo://app?vid=40e5b403-5590-4098-a474-822a4163b2a7","ios":"levelo://app?vid=40e5b403-5590-4098-a474-822a4163b2a7"},"vehicle_type_id":"4","last_reported":1726776573,"current_range_meters":27600,"station_id":"ce4bhnp2rcd13ifvqgvg","pricing_plan_id":"cebpf4jnsgd1na2vs0mg"},{"bike_id":"298ac1dc-024a-45f9-bee5-67e6e0d001f8","system_id":"levelo_inurba_marseille","lat":43.32291,"lon":5.38262,"is_reserved":false,"is_disabled":false,"rental_uris":{"android":"levelo://app?vid=298ac1dc-024a-45f9-bee5-67e6e0d001f8","ios":"levelo://app?vid=298ac1dc-024a-45f9-bee5-67e6e0d001f8"},"vehicle_type_id":"4","last_reported":1726776573,"current_range_meters":30800,"station_id":"ce4bhr12rcd13ifvqhqg","pricing_plan_id":"cebpf4jnsgd1na2vs0mg"},{"bike_id":"f385b4a6-31cf-416b-83d1-919567483ec0","system_id":"levelo_inurba_marseille","lat":43.29573,"lon":5.39962,"is_reserved":false,"is_disabled":false,"rental_uris":{"android":"levelo://app?vid=f385b4a6-31cf-416b-83d1-919567483ec0","ios":"levelo://app?vid=f385b4a6-31cf-416b-83d1-919567483ec0"},"vehicle_type_id":"4","last_reported":1726776573,"current_range_meters":34000,"station_id":"ce4bh312rcd13ifvqdj0","pricing_plan_id":"cebpf4jnsgd1na2vs0mg"},{"bike_id":"8fc912cb-62a8-45bf-baba-301953b2296d","system_id":"levelo_inurba_marseille","lat":43.29527,"lon":5.385371,"is_reserved":false,"is_disabled":false,"rental_uris":{"android":"levelo://app?vid=8fc912cb-62a8-45bf-baba-301953b2296d","ios":"levelo://app?vid=8fc912cb-62a8-45bf-baba-301953b2296d"},"vehicle_type_id":"4","last_reported":1726776573,"current_range_meters":38800,"station_id":"ce4bgih2rcd13ifvqba0","pricing_plan_id":"cebpf4jnsgd1na2vs0mg"},{"bike_id":"33065ea5-4482-48ea-97a8-c913fa094e14","system_id":"levelo_inurba_marseille","lat":43.31365,"lon":5.385,"is_reserved":false,"is_disabled":false,"rental_uris":{"android":"levelo://app?vid=33065ea5-4482-48ea-97a8-c913fa094e14","ios":"levelo://app?vid=33065ea5-4482-48ea-97a8-c913fa094e14"},"vehicle_type_id":"4","last_reported":1726776573,"current_range_meters":32800,"station_id":"ce4bgt92rcd13ifvqcf0","pricing_plan_id":"cebpf4jnsgd1na2vs0mg"},{"bike_id":"fb05fda6-7ba5-461c-9029-16f078e065d0","system_id":"levelo_inurba_marseille","lat":43.295364,"lon":5.393973,"is_reserved":false,"is_disabled":false,"rental_uris":{"android":"levelo://app?vid=fb05fda6-7ba5-461c-9029-16f078e065d0","ios":"levelo://app?vid=fb05fda6-7ba5-461c-9029-16f078e065d0"},"vehicle_type_id":"4","last_reported":1726776573,"current_range_meters":34800,"station_id":"ce4bh292rcd13ifvqdf0","pricing_plan_id":"cebpf4jnsgd1na2vs0mg"},{"bike_id":"cb4ca1e4-7dc6-4744-9561-df41619e45db","system_id":"levelo_inurba_marseille","lat":43.300934,"lon":5.390854,"is_reserved":false,"is_disabled":false,"rental_uris":{"android":"levelo://app?vid=cb4ca1e4-7dc6-4744-9561-df41619e45db","ios":"levelo://app?vid=cb4ca1e4-7dc6-4744-9561-df41619e45db"},"vehicle_type_id":"4","last_reported":1726776573,"current_range_meters":16400,"station_id":"ce4bh192rcd13ifvqdb0","pricing_plan_id":"cebpf4jnsgd1na2vs0mg"},{"bike_id":"4e78cba5-c430-4a63-99ce-85df2a0cf3fd","system_id":"levelo_inurba_marseille","lat":43.27177,"lon":5.40992,"is_reserved":false,"is_disabled":false,"rental_uris":{"android":"levelo://app?vid=4e78cba5-c430-4a63-99ce-85df2a0cf3fd","ios":"levelo://app?vid=4e78cba5-c430-4a63-99ce-85df2a0cf3fd"},"vehicle_type_id":"4","last_reported":1726776573,"current_range_meters":38800,"station_id":"ce4bhl12rcd13ifvqgf0","pricing_plan_id":"cebpf4jnsgd1na2vs0mg"},{"bike_id":"253b057b-a41c-4693-8aa4-03c682f3fbb1","system_id":"levelo_inurba_marseille","lat":43.26818,"lon":5.40271,"is_reserved":false,"is_disabled":false,"rental_uris":{"android":"levelo://app?vid=253b057b-a41c-4693-8aa4-03c682f3fbb1","ios":"levelo://app?vid=253b057b-a41c-4693-8aa4-03c682f3fbb1"},"vehicle_type_id":"4","last_reported":1726776573,"current_range_meters":6800,"station_id":"ce501612rcd8frsf0b60","pricing_plan_id":"cebpf4jnsgd1na2vs0mg"},{"bike_id":"6659f6a7-2ea0-4ee9-acc0-4f7b7437cae8","system_id":"levelo_inurba_marseille","lat":43.31324,"lon":5.39694,"is_reserved":false,"is_disabled":false,"rental_uris":{"android":"levelo://app?vid=6659f6a7-2ea0-4ee9-acc0-4f7b7437cae8","ios":"levelo://app?vid=6659f6a7-2ea0-4ee9-acc0-4f7b7437cae8"},"vehicle_type_id":"4","last_reported":1726776573,"current_range_meters":10000,"station_id":"ce4bgvp2rcd13ifvqcu0","pricing_plan_id":"cebpf4jnsgd1na2vs0mg"},{"bike_id":"49aec777-8627-4899-a18d-07e10a9d4f25","system_id":"levelo_inurba_marseille","lat":43.29376,"lon":5.3785,"is_reserved":false,"is_disabled":false,"rental_uris":{"android":"levelo://app?vid=49aec777-8627-4899-a18d-07e10a9d4f25","ios":"levelo://app?vid=49aec777-8627-4899-a18d-07e10a9d4f25"},"vehicle_type_id":"4","last_reported":1726776573,"current_range_meters":33200,"station_id":"ce4bgjh2rcd13ifvqbf0","pricing_plan_id":"cebpf4jnsgd1na2vs0mg"},{"bike_id":"53bae7c5-1b34-45d2-b215-b1b48b8d9579","system_id":"levelo_inurba_marseille","lat":43.2926,"lon":5.38451,"is_reserved":false,"is_disabled":false,"rental_uris":{"android":"levelo://app?vid=53bae7c5-1b34-45d2-b215-b1b48b8d9579","ios":"levelo://app?vid=53bae7c5-1b34-45d2-b215-b1b48b8d9579"},"vehicle_type_id":"4","last_reported":1726776573,"current_range_meters":30000,"station_id":"ce4bh692rcd13ifvqea0","pricing_plan_id":"cebpf4jnsgd1na2vs0mg"},{"bike_id":"9a1381d5-fc14-4f1c-8a19-e27eec1de9a5","system_id":"levelo_inurba_marseille","lat":43.28858,"lon":5.35849,"is_reserved":false,"is_disabled":false,"rental_uris":{"android":"levelo://app?vid=9a1381d5-fc14-4f1c-8a19-e27eec1de9a5","ios":"levelo://app?vid=9a1381d5-fc14-4f1c-8a19-e27eec1de9a5"},"vehicle_type_id":"4","last_reported":1726776573,"current_range_meters":38800,"station_id":"ce4bhb12rcd13ifvqem0","pricing_plan_id":"cebpf4jnsgd1na2vs0mg"},{"bike_id":"79f9170f-8de8-4fbe-9051-45aa1ac080c3","system_id":"levelo_inurba_marseille","lat":43.2943,"lon":5.39753,"is_reserved":false,"is_disabled":false,"rental_uris":{"android":"levelo://app?vid=79f9170f-8de8-4fbe-9051-45aa1ac080c3","ios":"levelo://app?vid=79f9170f-8de8-4fbe-9051-45aa1ac080c3"},"vehicle_type_id":"4","last_reported":1726776573,"current_range_meters":39200,"station_id":"ce4bh3h2rcd13ifvqdo0","pricing_plan_id":"cebpf4jnsgd1na2vs0mg"},{"bike_id":"d8a4623e-600f-4384-9a48-2e381d4d65b5","system_id":"levelo_inurba_marseille","lat":43.292786,"lon":5.368329,"is_reserved":false,"is_disabled":false,"rental_uris":{"android":"levelo://app?vid=d8a4623e-600f-4384-9a48-2e381d4d65b5","ios":"levelo://app?vid=d8a4623e-600f-4384-9a48-2e381d4d65b5"},"vehicle_type_id":"4","last_reported":1726776573,"current_range_meters":34000,"station_id":"ce4bhbp2rcd13ifvqesg","pricing_plan_id":"cebpf4jnsgd1na2vs0mg"},{"bike_id":"5b87ea10-02d9-442f-9b10-4fd331eca58e","system_id":"levelo_inurba_marseille","lat":43.25007,"lon":5.38928,"is_reserved":false,"is_disabled":false,"rental_uris":{"android":"levelo://app?vid=5b87ea10-02d9-442f-9b10-4fd331eca58e","ios":"levelo://app?vid=5b87ea10-02d9-442f-9b10-4fd331eca58e"},"vehicle_type_id":"4","last_reported":1726776573,"current_range_meters":39200,"station_id":"ce4bhgp2rcd13ifvqfd0","pricing_plan_id":"cebpf4jnsgd1na2vs0mg"},{"bike_id":"c42d6b2f-7847-4248-848b-a4c3edc602d9","system_id":"levelo_inurba_marseille","lat":43.31994,"lon":5.38163,"is_reserved":false,"is_disabled":false,"rental_uris":{"android":"levelo://app?vid=c42d6b2f-7847-4248-848b-a4c3edc602d9","ios":"levelo://app?vid=c42d6b2f-7847-4248-848b-a4c3edc602d9"},"vehicle_type_id":"4","last_reported":1726776573,"current_range_meters":11600,"station_id":"ce4bhr12rcd13ifvqhpg","pricing_plan_id":"cebpf4jnsgd1na2vs0mg"},{"bike_id":"163d448d-e936-4ece-9076-d8fdc2df1b88","system_id":"levelo_inurba_marseille","lat":43.31376,"lon":5.38495,"is_reserved":false,"is_disabled":false,"rental_uris":{"android":"levelo://app?vid=163d448d-e936-4ece-9076-d8fdc2df1b88","ios":"levelo://app?vid=163d448d-e936-4ece-9076-d8fdc2df1b88"},"vehicle_type_id":"4","last_reported":1726776573,"current_range_meters":11200,"station_id":"ce4bgt92rcd13ifvqcf0","pricing_plan_id":"cebpf4jnsgd1na2vs0mg"},{"bike_id":"7efe107e-86e4-4fba-83a9-6ffe2afd3a54","system_id":"levelo_inurba_marseille","lat":43.29525,"lon":5.3855,"is_reserved":false,"is_disabled":false,"rental_uris":{"android":"levelo://app?vid=7efe107e-86e4-4fba-83a9-6ffe2afd3a54","ios":"levelo://app?vid=7efe107e-86e4-4fba-83a9-6ffe2afd3a54"},"vehicle_type_id":"4","last_reported":1726776573,"current_range_meters":32000,"station_id":"ce4bgih2rcd13ifvqba0","pricing_plan_id":"cebpf4jnsgd1na2vs0mg"},{"bike_id":"3f84e45e-eda6-4453-8c51-79d05df784f5","system_id":"levelo_inurba_marseille","lat":43.31764,"lon":5.39011,"is_reserved":false,"is_disabled":false,"rental_uris":{"android":"levelo://app?vid=3f84e45e-eda6-4453-8c51-79d05df784f5","ios":"levelo://app?vid=3f84e45e-eda6-4453-8c51-79d05df784f5"},"vehicle_type_id":"4","last_reported":1726776573,"current_range_meters":37600,"station_id":"ce4bhqp2rcd13ifvqhng","pricing_plan_id":"cebpf4jnsgd1na2vs0mg"},{"bike_id":"1d4dce81-26c9-4e90-9512-73a77179f3d4","system_id":"levelo_inurba_marseille","lat":43.23173,"lon":5.3999,"is_reserved":false,"is_disabled":false,"rental_uris":{"android":"levelo://app?vid=1d4dce81-26c9-4e90-9512-73a77179f3d4","ios":"levelo://app?vid=1d4dce81-26c9-4e90-9512-73a77179f3d4"},"vehicle_type_id":"4","last_reported":1726776573,"current_range_meters":10000,"station_id":"ce4bhn12rcd13ifvqgqg","pricing_plan_id":"cebpf4jnsgd1na2vs0mg"},{"bike_id":"43356356-1ebf-41d4-a9de-4fa2973940ef","system_id":"levelo_inurba_marseille","lat":43.29963,"lon":5.41329,"is_reserved":false,"is_disabled":false,"rental_uris":{"android":"levelo://app?vid=43356356-1ebf-41d4-a9de-4fa2973940ef","ios":"levelo://app?vid=43356356-1ebf-41d4-a9de-4fa2973940ef"},"vehicle_type_id":"4","last_reported":1726776573,"current_range_meters":36000,"station_id":"ce4bhp12rcd13ifvqh9g","pricing_plan_id":"cebpf4jnsgd1na2vs0mg"},{"bike_id":"d30f821e-1e42-49d4-86e7-59f80602dbb7","system_id":"levelo_inurba_marseille","lat":43.246629,"lon":5.381685,"is_reserved":false,"is_disabled":false,"rental_uris":{"android":"levelo://app?vid=d30f821e-1e42-49d4-86e7-59f80602dbb7","ios":"levelo://app?vid=d30f821e-1e42-49d4-86e7-59f80602dbb7"},"vehicle_type_id":"4","last_reported":1726776573,"current_range_meters":38000,"station_id":"ce4bhih2rcd13ifvqfr0","pricing_plan_id":"cebpf4jnsgd1na2vs0mg"},{"bike_id":"586337a7-ea44-4a0c-a2e4-774a4f46c373","system_id":"levelo_inurba_marseille","lat":43.31335,"lon":5.39698,"is_reserved":false,"is_disabled":false,"rental_uris":{"android":"levelo://app?vid=586337a7-ea44-4a0c-a2e4-774a4f46c373","ios":"levelo://app?vid=586337a7-ea44-4a0c-a2e4-774a4f46c373"},"vehicle_type_id":"4","last_reported":1726776573,"current_range_meters":36000,"station_id":"ce4bgvp2rcd13ifvqcu0","pricing_plan_id":"cebpf4jnsgd1na2vs0mg"},{"bike_id":"f91d86b2-456a-48aa-bac9-b4717c616eb8","system_id":"levelo_inurba_marseille","lat":43.25724,"lon":5.4111,"is_reserved":false,"is_disabled":false,"rental_uris":{"android":"levelo://app?vid=f91d86b2-456a-48aa-bac9-b4717c616eb8","ios":"levelo://app?vid=f91d86b2-456a-48aa-bac9-b4717c616eb8"},"vehicle_type_id":"4","last_reported":1726776573,"current_range_meters":8800,"station_id":"ce4bhkp2rcd13ifvqgd0","pricing_plan_id":"cebpf4jnsgd1na2vs0mg"},{"bike_id":"f689521a-328c-4627-83e8-a25c4f32e99b","system_id":"levelo_inurba_marseille","lat":43.2319,"lon":5.35563,"is_reserved":false,"is_disabled":false,"rental_uris":{"android":"levelo://app?vid=f689521a-328c-4627-83e8-a25c4f32e99b","ios":"levelo://app?vid=f689521a-328c-4627-83e8-a25c4f32e99b"},"vehicle_type_id":"4","last_reported":1726776573,"current_range_meters":30000,"station_id":"ce4bhu92rcd13ifvqi70","pricing_plan_id":"cebpf4jnsgd1na2vs0mg"},{"bike_id":"4c9dad28-bab3-4c54-867f-101b77a30cda","system_id":"levelo_inurba_marseille","lat":43.28464,"lon":5.35889,"is_reserved":false,"is_disabled":false,"rental_uris":{"android":"levelo://app?vid=4c9dad28-bab3-4c54-867f-101b77a30cda","ios":"levelo://app?vid=4c9dad28-bab3-4c54-867f-101b77a30cda"},"vehicle_type_id":"4","last_reported":1726776573,"current_range_meters":35200,"station_id":"ce4bhah2rcd13ifvqei0","pricing_plan_id":"cebpf4jnsgd1na2vs0mg"},{"bike_id":"b348916b-8fd3-493e-b690-474ad5979d8a","system_id":"levelo_inurba_marseille","lat":43.30599,"lon":5.39357,"is_reserved":false,"is_disabled":false,"rental_uris":{"android":"levelo://app?vid=b348916b-8fd3-493e-b690-474ad5979d8a","ios":"levelo://app?vid=b348916b-8fd3-493e-b690-474ad5979d8a"},"vehicle_type_id":"4","last_reported":1726776573,"current_range_meters":37600,"station_id":"ce4bh0p2rcd13ifvqd80","pricing_plan_id":"cebpf4jnsgd1na2vs0mg"},{"bike_id":"3f83789d-3dd0-43cc-a9bb-a5b70cdc879e","system_id":"levelo_inurba_marseille","lat":43.28703,"lon":5.37385,"is_reserved":false,"is_disabled":false,"rental_uris":{"android":"levelo://app?vid=3f83789d-3dd0-43cc-a9bb-a5b70cdc879e","ios":"levelo://app?vid=3f83789d-3dd0-43cc-a9bb-a5b70cdc879e"},"vehicle_type_id":"4","last_reported":1726776573,"current_range_meters":39200,"station_id":"ce4bh3p2rcd13ifvqdq0","pricing_plan_id":"cebpf4jnsgd1na2vs0mg"},{"bike_id":"8b52ab57-179c-4a72-8284-951453e82027","system_id":"levelo_inurba_marseille","lat":43.29035,"lon":5.38648,"is_reserved":false,"is_disabled":false,"rental_uris":{"android":"levelo://app?vid=8b52ab57-179c-4a72-8284-951453e82027","ios":"levelo://app?vid=8b52ab57-179c-4a72-8284-951453e82027"},"vehicle_type_id":"4","last_reported":1726776573,"current_range_meters":11600,"station_id":"ce4bh4p2rcd13ifvqe0g","pricing_plan_id":"cebpf4jnsgd1na2vs0mg"},{"bike_id":"a8841453-322d-4809-a2ca-4c41ea5ecf5f","system_id":"levelo_inurba_marseille","lat":43.30903,"lon":5.37199,"is_reserved":false,"is_disabled":false,"rental_uris":{"android":"levelo://app?vid=a8841453-322d-4809-a2ca-4c41ea5ecf5f","ios":"levelo://app?vid=a8841453-322d-4809-a2ca-4c41ea5ecf5f"},"vehicle_type_id":"4","last_reported":1726776573,"current_range_meters":38800,"station_id":"ce4bguh2rcd13ifvqckg","pricing_plan_id":"cebpf4jnsgd1na2vs0mg"},{"bike_id":"ab180979-2163-43d0-b267-33004b099031","system_id":"levelo_inurba_marseille","lat":43.28412,"lon":5.3752,"is_reserved":false,"is_disabled":false,"rental_uris":{"android":"levelo://app?vid=ab180979-2163-43d0-b267-33004b099031","ios":"levelo://app?vid=ab180979-2163-43d0-b267-33004b099031"},"vehicle_type_id":"4","last_reported":1726776573,"current_range_meters":30800,"station_id":"ce4bh412rcd13ifvqds0","pricing_plan_id":"cebpf4jnsgd1na2vs0mg"},{"bike_id":"f655babe-7aec-4496-b9a8-3b24ca07c747","system_id":"levelo_inurba_marseille","lat":43.2927,"lon":5.36815,"is_reserved":false,"is_disabled":false,"rental_uris":{"android":"levelo://app?vid=f655babe-7aec-4496-b9a8-3b24ca07c747","ios":"levelo://app?vid=f655babe-7aec-4496-b9a8-3b24ca07c747"},"vehicle_type_id":"4","last_reported":1726776573,"current_range_meters":6400,"station_id":"","pricing_plan_id":"cebpf4jnsgd1na2vs0mg"},{"bike_id":"ac5c1f04-bc9a-4eba-8223-2dd3b8012fa0","system_id":"levelo_inurba_marseille","lat":43.29439,"lon":5.39748,"is_reserved":false,"is_disabled":false,"rental_uris":{"android":"levelo://app?vid=ac5c1f04-bc9a-4eba-8223-2dd3b8012fa0","ios":"levelo://app?vid=ac5c1f04-bc9a-4eba-8223-2dd3b8012fa0"},"vehicle_type_id":"4","last_reported":1726776573,"current_range_meters":39200,"station_id":"ce4bh3h2rcd13ifvqdo0","pricing_plan_id":"cebpf4jnsgd1na2vs0mg"},{"bike_id":"b9cce780-afff-448f-a3ea-2b9ff395d34e","system_id":"levelo_inurba_marseille","lat":43.29028,"lon":5.38646,"is_reserved":false,"is_disabled":false,"rental_uris":{"android":"levelo://app?vid=b9cce780-afff-448f-a3ea-2b9ff395d34e","ios":"levelo://app?vid=b9cce780-afff-448f-a3ea-2b9ff395d34e"},"vehicle_type_id":"4","last_reported":1726776573,"current_range_meters":28000,"station_id":"ce4bh4p2rcd13ifvqe0g","pricing_plan_id":"cebpf4jnsgd1na2vs0mg"},{"bike_id":"002b0699-6ee9-40eb-887b-ba2bc729859f","system_id":"levelo_inurba_marseille","lat":43.225306,"lon":5.348318,"is_reserved":false,"is_disabled":false,"rental_uris":{"android":"levelo://app?vid=002b0699-6ee9-40eb-887b-ba2bc729859f","ios":"levelo://app?vid=002b0699-6ee9-40eb-887b-ba2bc729859f"},"vehicle_type_id":"4","last_reported":1726776573,"current_range_meters":9600,"station_id":"ce4bhu92rcd13ifvqi70","pricing_plan_id":"cebpf4jnsgd1na2vs0mg"},{"bike_id":"9680a5ae-9565-4f16-a49c-6049cde2422f","system_id":"levelo_inurba_marseille","lat":43.29284,"lon":5.40122,"is_reserved":false,"is_disabled":false,"rental_uris":{"android":"levelo://app?vid=9680a5ae-9565-4f16-a49c-6049cde2422f","ios":"levelo://app?vid=9680a5ae-9565-4f16-a49c-6049cde2422f"},"vehicle_type_id":"4","last_reported":1726776573,"current_range_meters":25600,"station_id":"ce4bh312rcd13ifvqdk0","pricing_plan_id":"cebpf4jnsgd1na2vs0mg"},{"bike_id":"3cd5ff8d-fc85-490f-9c7b-27925dfcd802","system_id":"levelo_inurba_marseille","lat":43.30417,"lon":5.4128,"is_reserved":false,"is_disabled":false,"rental_uris":{"android":"levelo://app?vid=3cd5ff8d-fc85-490f-9c7b-27925dfcd802","ios":"levelo://app?vid=3cd5ff8d-fc85-490f-9c7b-27925dfcd802"},"vehicle_type_id":"4","last_reported":1726776573,"current_range_meters":25600,"station_id":"ce4bhop2rcd13ifvqh8g","pricing_plan_id":"cebpf4jnsgd1na2vs0mg"},{"bike_id":"72afbc88-749c-4ec5-9ff0-ddd824e0a5ba","system_id":"levelo_inurba_marseille","lat":43.27183,"lon":5.40995,"is_reserved":false,"is_disabled":false,"rental_uris":{"android":"levelo://app?vid=72afbc88-749c-4ec5-9ff0-ddd824e0a5ba","ios":"levelo://app?vid=72afbc88-749c-4ec5-9ff0-ddd824e0a5ba"},"vehicle_type_id":"4","last_reported":1726776573,"current_range_meters":38800,"station_id":"ce4bhl12rcd13ifvqgf0","pricing_plan_id":"cebpf4jnsgd1na2vs0mg"},{"bike_id":"0b489c8a-29e1-4f5d-80ab-4ae77a5d0e18","system_id":"levelo_inurba_marseille","lat":43.29328,"lon":5.3715,"is_reserved":false,"is_disabled":false,"rental_uris":{"android":"levelo://app?vid=0b489c8a-29e1-4f5d-80ab-4ae77a5d0e18","ios":"levelo://app?vid=0b489c8a-29e1-4f5d-80ab-4ae77a5d0e18"},"vehicle_type_id":"4","last_reported":1726776573,"current_range_meters":9200,"station_id":"ce4bgh92rcd13ifvqb40","pricing_plan_id":"cebpf4jnsgd1na2vs0mg"},{"bike_id":"5767e1a9-48b0-4c74-8627-4d55bc18f357","system_id":"levelo_inurba_marseille","lat":43.25723,"lon":5.41107,"is_reserved":false,"is_disabled":false,"rental_uris":{"android":"levelo://app?vid=5767e1a9-48b0-4c74-8627-4d55bc18f357","ios":"levelo://app?vid=5767e1a9-48b0-4c74-8627-4d55bc18f357"},"vehicle_type_id":"4","last_reported":1726776573,"current_range_meters":22800,"station_id":"ce4bhkp2rcd13ifvqgd0","pricing_plan_id":"cebpf4jnsgd1na2vs0mg"},{"bike_id":"78de459a-8961-48d3-9d87-3a4dc50323f3","system_id":"levelo_inurba_marseille","lat":43.32357,"lon":5.38902,"is_reserved":false,"is_disabled":false,"rental_uris":{"android":"levelo://app?vid=78de459a-8961-48d3-9d87-3a4dc50323f3","ios":"levelo://app?vid=78de459a-8961-48d3-9d87-3a4dc50323f3"},"vehicle_type_id":"4","last_reported":1726776573,"current_range_meters":17200,"station_id":"ce4bhqp2rcd13ifvqhog","pricing_plan_id":"cebpf4jnsgd1na2vs0mg"},{"bike_id":"3d5bd334-f8aa-488b-9e5a-dbf2ce9fe931","system_id":"levelo_inurba_marseille","lat":43.29582,"lon":5.36746,"is_reserved":false,"is_disabled":false,"rental_uris":{"android":"levelo://app?vid=3d5bd334-f8aa-488b-9e5a-dbf2ce9fe931","ios":"levelo://app?vid=3d5bd334-f8aa-488b-9e5a-dbf2ce9fe931"},"vehicle_type_id":"4","last_reported":1726776573,"current_range_meters":16800,"station_id":"ce4bgph2rcd13ifvqc2g","pricing_plan_id":"cebpf4jnsgd1na2vs0mg"},{"bike_id":"38dadd8c-d3a2-4d23-ab13-29b99dc8b37a","system_id":"levelo_inurba_marseille","lat":43.33033,"lon":5.39066,"is_reserved":false,"is_disabled":false,"rental_uris":{"android":"levelo://app?vid=38dadd8c-d3a2-4d23-ab13-29b99dc8b37a","ios":"levelo://app?vid=38dadd8c-d3a2-4d23-ab13-29b99dc8b37a"},"vehicle_type_id":"4","last_reported":1726776573,"current_range_meters":16800,"station_id":"ce4bhr92rcd13ifvqhrg","pricing_plan_id":"cebpf4jnsgd1na2vs0mg"},{"bike_id":"e300bc59-4965-4de2-859e-a118857eb8fb","system_id":"levelo_inurba_marseille","lat":43.2761,"lon":5.3612,"is_reserved":false,"is_disabled":false,"rental_uris":{"android":"levelo://app?vid=e300bc59-4965-4de2-859e-a118857eb8fb","ios":"levelo://app?vid=e300bc59-4965-4de2-859e-a118857eb8fb"},"vehicle_type_id":"4","last_reported":1726776573,"current_range_meters":37600,"station_id":"ce4bgj92rcd13ifvqbe0","pricing_plan_id":"cebpf4jnsgd1na2vs0mg"},{"bike_id":"8d47ac2c-6aff-4006-865b-6319f0339211","system_id":"levelo_inurba_marseille","lat":43.31753,"lon":5.39029,"is_reserved":false,"is_disabled":false,"rental_uris":{"android":"levelo://app?vid=8d47ac2c-6aff-4006-865b-6319f0339211","ios":"levelo://app?vid=8d47ac2c-6aff-4006-865b-6319f0339211"},"vehicle_type_id":"4","last_reported":1726776573,"current_range_meters":5600,"station_id":"ce4bhqp2rcd13ifvqhng","pricing_plan_id":"cebpf4jnsgd1na2vs0mg"},{"bike_id":"d49c4b8d-1442-474e-ac6a-b66e0941dbb3","system_id":"levelo_inurba_marseille","lat":43.26062,"lon":5.39388,"is_reserved":false,"is_disabled":false,"rental_uris":{"android":"levelo://app?vid=d49c4b8d-1442-474e-ac6a-b66e0941dbb3","ios":"levelo://app?vid=d49c4b8d-1442-474e-ac6a-b66e0941dbb3"},"vehicle_type_id":"4","last_reported":1726776573,"current_range_meters":39200,"station_id":"ce4bhh92rcd13ifvqfj0","pricing_plan_id":"cebpf4jnsgd1na2vs0mg"},{"bike_id":"0f53cc12-21ea-4b2c-82be-e7ab4beb82bf","system_id":"levelo_inurba_marseille","lat":43.31757,"lon":5.39015,"is_reserved":false,"is_disabled":false,"rental_uris":{"android":"levelo://app?vid=0f53cc12-21ea-4b2c-82be-e7ab4beb82bf","ios":"levelo://app?vid=0f53cc12-21ea-4b2c-82be-e7ab4beb82bf"},"vehicle_type_id":"4","last_reported":1726776573,"current_range_meters":6800,"station_id":"ce4bhqp2rcd13ifvqhng","pricing_plan_id":"cebpf4jnsgd1na2vs0mg"},{"bike_id":"fadac423-1102-471d-b12e-f79a7c476377","system_id":"levelo_inurba_marseille","lat":43.27908,"lon":5.38014,"is_reserved":false,"is_disabled":false,"rental_uris":{"android":"levelo://app?vid=fadac423-1102-471d-b12e-f79a7c476377","ios":"levelo://app?vid=fadac423-1102-471d-b12e-f79a7c476377"},"vehicle_type_id":"4","last_reported":1726776573,"current_range_meters":39200,"station_id":"ce4bhf92rcd13ifvqf50","pricing_plan_id":"cebpf4jnsgd1na2vs0mg"},{"bike_id":"eea4bc74-da54-414c-a725-bf3b72b6e191","system_id":"levelo_inurba_marseille","lat":43.28848,"lon":5.35878,"is_reserved":false,"is_disabled":false,"rental_uris":{"android":"levelo://app?vid=eea4bc74-da54-414c-a725-bf3b72b6e191","ios":"levelo://app?vid=eea4bc74-da54-414c-a725-bf3b72b6e191"},"vehicle_type_id":"4","last_reported":1726776573,"current_range_meters":38800,"station_id":"ce4bhb12rcd13ifvqem0","pricing_plan_id":"cebpf4jnsgd1na2vs0mg"},{"bike_id":"b153f585-91a7-4778-8e3b-fba7bd4d15f4","system_id":"levelo_inurba_marseille","lat":43.31352,"lon":5.36715,"is_reserved":false,"is_disabled":false,"rental_uris":{"android":"levelo://app?vid=b153f585-91a7-4778-8e3b-fba7bd4d15f4","ios":"levelo://app?vid=b153f585-91a7-4778-8e3b-fba7bd4d15f4"},"vehicle_type_id":"4","last_reported":1726776573,"current_range_meters":38000,"station_id":"ce4bgr92rcd13ifvqc6g","pricing_plan_id":"cebpf4jnsgd1na2vs0mg"},{"bike_id":"d23b9ae4-ccae-4fd5-96e0-0f9d91f82b70","system_id":"levelo_inurba_marseille","lat":43.303223,"lon":5.368377,"is_reserved":false,"is_disabled":false,"rental_uris":{"android":"levelo://app?vid=d23b9ae4-ccae-4fd5-96e0-0f9d91f82b70","ios":"levelo://app?vid=d23b9ae4-ccae-4fd5-96e0-0f9d91f82b70"},"vehicle_type_id":"4","last_reported":1726776573,"current_range_meters":38400,"station_id":"ce4bgl92rcd13ifvqbq0","pricing_plan_id":"cebpf4jnsgd1na2vs0mg"},{"bike_id":"e409c3f1-76e2-45ab-b69f-e3375104363d","system_id":"levelo_inurba_marseille","lat":43.28704,"lon":5.39982,"is_reserved":false,"is_disabled":false,"rental_uris":{"android":"levelo://app?vid=e409c3f1-76e2-45ab-b69f-e3375104363d","ios":"levelo://app?vid=e409c3f1-76e2-45ab-b69f-e3375104363d"},"vehicle_type_id":"4","last_reported":1726776573,"current_range_meters":19600,"station_id":"ce4bho92rcd13ifvqh3g","pricing_plan_id":"cebpf4jnsgd1na2vs0mg"},{"bike_id":"27c5c9f5-f14e-4a8b-9dc8-8a569cb24e34","system_id":"levelo_inurba_marseille","lat":43.28466,"lon":5.35891,"is_reserved":false,"is_disabled":false,"rental_uris":{"android":"levelo://app?vid=27c5c9f5-f14e-4a8b-9dc8-8a569cb24e34","ios":"levelo://app?vid=27c5c9f5-f14e-4a8b-9dc8-8a569cb24e34"},"vehicle_type_id":"4","last_reported":1726776573,"current_range_meters":17200,"station_id":"ce4bhah2rcd13ifvqei0","pricing_plan_id":"cebpf4jnsgd1na2vs0mg"},{"bike_id":"0f99561d-c3b7-4d71-8f6c-402f09bcbad6","system_id":"levelo_inurba_marseille","lat":43.25869,"lon":5.39894,"is_reserved":false,"is_disabled":false,"rental_uris":{"android":"levelo://app?vid=0f99561d-c3b7-4d71-8f6c-402f09bcbad6","ios":"levelo://app?vid=0f99561d-c3b7-4d71-8f6c-402f09bcbad6"},"vehicle_type_id":"4","last_reported":1726776573,"current_range_meters":39200,"station_id":"ce4bhl92rcd13ifvqghg","pricing_plan_id":"cebpf4jnsgd1na2vs0mg"},{"bike_id":"2c96f4ad-2c2e-44b8-8e08-a57b6c1eb2e5","system_id":"levelo_inurba_marseille","lat":43.33024,"lon":5.3904,"is_reserved":false,"is_disabled":false,"rental_uris":{"android":"levelo://app?vid=2c96f4ad-2c2e-44b8-8e08-a57b6c1eb2e5","ios":"levelo://app?vid=2c96f4ad-2c2e-44b8-8e08-a57b6c1eb2e5"},"vehicle_type_id":"4","last_reported":1726776573,"current_range_meters":33600,"station_id":"ce4bhr92rcd13ifvqhrg","pricing_plan_id":"cebpf4jnsgd1na2vs0mg"},{"bike_id":"c03a1ab9-85ba-4bc9-aa5b-ac7c1227d1a2","system_id":"levelo_inurba_marseille","lat":43.24549,"lon":5.39524,"is_reserved":false,"is_disabled":false,"rental_uris":{"android":"levelo://app?vid=c03a1ab9-85ba-4bc9-aa5b-ac7c1227d1a2","ios":"levelo://app?vid=c03a1ab9-85ba-4bc9-aa5b-ac7c1227d1a2"},"vehicle_type_id":"4","last_reported":1726776573,"current_range_meters":10000,"station_id":"ce4bhlp2rcd13ifvqgjg","pricing_plan_id":"cebpf4jnsgd1na2vs0mg"},{"bike_id":"e3678fe5-cd97-41c2-92f5-c59b10e32309","system_id":"levelo_inurba_marseille","lat":43.294115,"lon":5.386227,"is_reserved":false,"is_disabled":false,"rental_uris":{"android":"levelo://app?vid=e3678fe5-cd97-41c2-92f5-c59b10e32309","ios":"levelo://app?vid=e3678fe5-cd97-41c2-92f5-c59b10e32309"},"vehicle_type_id":"4","last_reported":1726776573,"current_range_meters":37600,"station_id":"ce4bhsp2rcd13ifvqi50","pricing_plan_id":"cebpf4jnsgd1na2vs0mg"},{"bike_id":"e9a5d37d-0cb5-44ff-a653-c77a5ca5838b","system_id":"levelo_inurba_marseille","lat":43.31756,"lon":5.39016,"is_reserved":false,"is_disabled":false,"rental_uris":{"android":"levelo://app?vid=e9a5d37d-0cb5-44ff-a653-c77a5ca5838b","ios":"levelo://app?vid=e9a5d37d-0cb5-44ff-a653-c77a5ca5838b"},"vehicle_type_id":"4","last_reported":1726776573,"current_range_meters":3200,"station_id":"ce4bhqp2rcd13ifvqhng","pricing_plan_id":"cebpf4jnsgd1na2vs0mg"},{"bike_id":"7b4b9870-da86-40f4-b324-647a49c85541","system_id":"levelo_inurba_marseille","lat":43.31724,"lon":5.42397,"is_reserved":false,"is_disabled":false,"rental_uris":{"android":"levelo://app?vid=7b4b9870-da86-40f4-b324-647a49c85541","ios":"levelo://app?vid=7b4b9870-da86-40f4-b324-647a49c85541"},"vehicle_type_id":"4","last_reported":1726776573,"current_range_meters":12000,"station_id":"ce4bhp92rcd13ifvqhbg","pricing_plan_id":"cebpf4jnsgd1na2vs0mg"},{"bike_id":"44da3e59-dcf2-4354-910f-f3fece0ed467","system_id":"levelo_inurba_marseille","lat":43.27064,"lon":5.4228,"is_reserved":false,"is_disabled":false,"rental_uris":{"android":"levelo://app?vid=44da3e59-dcf2-4354-910f-f3fece0ed467","ios":"levelo://app?vid=44da3e59-dcf2-4354-910f-f3fece0ed467"},"vehicle_type_id":"4","last_reported":1726776573,"current_range_meters":38800,"station_id":"ce4bhk92rcd13ifvqgb0","pricing_plan_id":"cebpf4jnsgd1na2vs0mg"},{"bike_id":"eb2ef9af-e9bb-4b94-aee1-3fb33b5e66f9","system_id":"levelo_inurba_marseille","lat":43.27997,"lon":5.41666,"is_reserved":false,"is_disabled":false,"rental_uris":{"android":"levelo://app?vid=eb2ef9af-e9bb-4b94-aee1-3fb33b5e66f9","ios":"levelo://app?vid=eb2ef9af-e9bb-4b94-aee1-3fb33b5e66f9"},"vehicle_type_id":"4","last_reported":1726776573,"current_range_meters":38800,"station_id":"ce4bho12rcd13ifvqh1g","pricing_plan_id":"cebpf4jnsgd1na2vs0mg"},{"bike_id":"1f80227b-c6b9-4a4f-bc1d-ca2709170bdc","system_id":"levelo_inurba_marseille","lat":43.251068,"lon":5.40317,"is_reserved":false,"is_disabled":false,"rental_uris":{"android":"levelo://app?vid=1f80227b-c6b9-4a4f-bc1d-ca2709170bdc","ios":"levelo://app?vid=1f80227b-c6b9-4a4f-bc1d-ca2709170bdc"},"vehicle_type_id":"4","last_reported":1726776573,"current_range_meters":12400,"station_id":"ce4bhlh2rcd13ifvqgig","pricing_plan_id":"cebpf4jnsgd1na2vs0mg"},{"bike_id":"bbabc812-5d4f-4dde-ac4b-6c59e8a40a27","system_id":"levelo_inurba_marseille","lat":43.27505,"lon":5.42442,"is_reserved":false,"is_disabled":false,"rental_uris":{"android":"levelo://app?vid=bbabc812-5d4f-4dde-ac4b-6c59e8a40a27","ios":"levelo://app?vid=bbabc812-5d4f-4dde-ac4b-6c59e8a40a27"},"vehicle_type_id":"4","last_reported":1726776573,"current_range_meters":30400,"station_id":"ce4bhn92rcd13ifvqgrg","pricing_plan_id":"cebpf4jnsgd1na2vs0mg"},{"bike_id":"a2347508-7627-4a7c-9d6c-d4bf0cca3d3d","system_id":"levelo_inurba_marseille","lat":43.29447,"lon":5.39747,"is_reserved":false,"is_disabled":false,"rental_uris":{"android":"levelo://app?vid=a2347508-7627-4a7c-9d6c-d4bf0cca3d3d","ios":"levelo://app?vid=a2347508-7627-4a7c-9d6c-d4bf0cca3d3d"},"vehicle_type_id":"4","last_reported":1726776573,"current_range_meters":39200,"station_id":"ce4bh3h2rcd13ifvqdo0","pricing_plan_id":"cebpf4jnsgd1na2vs0mg"},{"bike_id":"cfc731a7-6955-427a-9d72-0a0d0711b6b6","system_id":"levelo_inurba_marseille","lat":43.28941,"lon":5.36634,"is_reserved":false,"is_disabled":false,"rental_uris":{"android":"levelo://app?vid=cfc731a7-6955-427a-9d72-0a0d0711b6b6","ios":"levelo://app?vid=cfc731a7-6955-427a-9d72-0a0d0711b6b6"},"vehicle_type_id":"4","last_reported":1726776573,"current_range_meters":38800,"station_id":"ce4bhap2rcd13ifvqek0","pricing_plan_id":"cebpf4jnsgd1na2vs0mg"},{"bike_id":"dd584773-adaf-4b1b-8f11-fcfca5f7bc1d","system_id":"levelo_inurba_marseille","lat":43.28085,"lon":5.39674,"is_reserved":false,"is_disabled":false,"rental_uris":{"android":"levelo://app?vid=dd584773-adaf-4b1b-8f11-fcfca5f7bc1d","ios":"levelo://app?vid=dd584773-adaf-4b1b-8f11-fcfca5f7bc1d"},"vehicle_type_id":"4","last_reported":1726776573,"current_range_meters":25200,"station_id":"ce4bho12rcd13ifvqh2g","pricing_plan_id":"cebpf4jnsgd1na2vs0mg"},{"bike_id":"d095a2de-cb44-4d0b-9d57-524091713fe6","system_id":"levelo_inurba_marseille","lat":43.292,"lon":5.39328,"is_reserved":false,"is_disabled":false,"rental_uris":{"android":"levelo://app?vid=d095a2de-cb44-4d0b-9d57-524091713fe6","ios":"levelo://app?vid=d095a2de-cb44-4d0b-9d57-524091713fe6"},"vehicle_type_id":"4","last_reported":1726776573,"current_range_meters":20800,"station_id":"ce4bh192rcd13ifvqdd0","pricing_plan_id":"cebpf4jnsgd1na2vs0mg"},{"bike_id":"dd74e259-a115-47c5-afe1-b8dee667f7eb","system_id":"levelo_inurba_marseille","lat":43.2867,"lon":5.38675,"is_reserved":false,"is_disabled":false,"rental_uris":{"android":"levelo://app?vid=dd74e259-a115-47c5-afe1-b8dee667f7eb","ios":"levelo://app?vid=dd74e259-a115-47c5-afe1-b8dee667f7eb"},"vehicle_type_id":"4","last_reported":1726776573,"current_range_meters":16800,"station_id":"ce4bh492rcd13ifvqdug","pricing_plan_id":"cebpf4jnsgd1na2vs0mg"},{"bike_id":"3caef979-dc43-414a-950b-d5a6a890aa4b","system_id":"levelo_inurba_marseille","lat":43.25082,"lon":5.39519,"is_reserved":false,"is_disabled":false,"rental_uris":{"android":"levelo://app?vid=3caef979-dc43-414a-950b-d5a6a890aa4b","ios":"levelo://app?vid=3caef979-dc43-414a-950b-d5a6a890aa4b"},"vehicle_type_id":"4","last_reported":1726776573,"current_range_meters":38800,"station_id":"ce4bhm12rcd13ifvqgkg","pricing_plan_id":"cebpf4jnsgd1na2vs0mg"},{"bike_id":"1bd9aea9-da31-4368-b338-3635b5620571","system_id":"levelo_inurba_marseille","lat":43.23965,"lon":5.36636,"is_reserved":false,"is_disabled":false,"rental_uris":{"android":"levelo://app?vid=1bd9aea9-da31-4368-b338-3635b5620571","ios":"levelo://app?vid=1bd9aea9-da31-4368-b338-3635b5620571"},"vehicle_type_id":"4","last_reported":1726776573,"current_range_meters":16800,"station_id":"ce4bhi12rcd13ifvqfp0","pricing_plan_id":"cebpf4jnsgd1na2vs0mg"},{"bike_id":"8bded9b1-4958-41a5-9529-392455536bc5","system_id":"levelo_inurba_marseille","lat":43.27503,"lon":5.4245,"is_reserved":false,"is_disabled":false,"rental_uris":{"android":"levelo://app?vid=8bded9b1-4958-41a5-9529-392455536bc5","ios":"levelo://app?vid=8bded9b1-4958-41a5-9529-392455536bc5"},"vehicle_type_id":"4","last_reported":1726776573,"current_range_meters":40000,"station_id":"ce4bhn92rcd13ifvqgrg","pricing_plan_id":"cebpf4jnsgd1na2vs0mg"},{"bike_id":"a2eb1526-071c-462b-ae89-1cca26b21959","system_id":"levelo_inurba_marseille","lat":43.31359,"lon":5.38499,"is_reserved":false,"is_disabled":false,"rental_uris":{"android":"levelo://app?vid=a2eb1526-071c-462b-ae89-1cca26b21959","ios":"levelo://app?vid=a2eb1526-071c-462b-ae89-1cca26b21959"},"vehicle_type_id":"4","last_reported":1726776573,"current_range_meters":10000,"station_id":"ce4bgt92rcd13ifvqcf0","pricing_plan_id":"cebpf4jnsgd1na2vs0mg"},{"bike_id":"be94c59f-2016-4732-9f99-b945584a5279","system_id":"levelo_inurba_marseille","lat":43.23153,"lon":5.43718,"is_reserved":false,"is_disabled":false,"rental_uris":{"android":"levelo://app?vid=be94c59f-2016-4732-9f99-b945584a5279","ios":"levelo://app?vid=be94c59f-2016-4732-9f99-b945584a5279"},"vehicle_type_id":"4","last_reported":1726776573,"current_range_meters":27600,"station_id":"ce4bhmp2rcd13ifvqgog","pricing_plan_id":"cebpf4jnsgd1na2vs0mg"},{"bike_id":"35b5402e-439d-435e-b161-9776477f6ee9","system_id":"levelo_inurba_marseille","lat":43.29554,"lon":5.39416,"is_reserved":false,"is_disabled":false,"rental_uris":{"android":"levelo://app?vid=35b5402e-439d-435e-b161-9776477f6ee9","ios":"levelo://app?vid=35b5402e-439d-435e-b161-9776477f6ee9"},"vehicle_type_id":"4","last_reported":1726776573,"current_range_meters":38800,"station_id":"ce4bh292rcd13ifvqdf0","pricing_plan_id":"cebpf4jnsgd1na2vs0mg"},{"bike_id":"4fa0ca0d-342c-4cd6-990b-f5e4ae40db2b","system_id":"levelo_inurba_marseille","lat":43.29965,"lon":5.41331,"is_reserved":false,"is_disabled":false,"rental_uris":{"android":"levelo://app?vid=4fa0ca0d-342c-4cd6-990b-f5e4ae40db2b","ios":"levelo://app?vid=4fa0ca0d-342c-4cd6-990b-f5e4ae40db2b"},"vehicle_type_id":"4","last_reported":1726776573,"current_range_meters":38400,"station_id":"ce4bhp12rcd13ifvqh9g","pricing_plan_id":"cebpf4jnsgd1na2vs0mg"},{"bike_id":"1b297945-7c8a-4e0e-b2c4-bc43a6c00be3","system_id":"levelo_inurba_marseille","lat":43.24649,"lon":5.388916,"is_reserved":false,"is_disabled":false,"rental_uris":{"android":"levelo://app?vid=1b297945-7c8a-4e0e-b2c4-bc43a6c00be3","ios":"levelo://app?vid=1b297945-7c8a-4e0e-b2c4-bc43a6c00be3"},"vehicle_type_id":"4","last_reported":1726776573,"current_range_meters":12400,"station_id":"ce4bhg12rcd13ifvqf60","pricing_plan_id":"cebpf4jnsgd1na2vs0mg"},{"bike_id":"220676d0-d8f4-4560-88ae-78e88aa4e063","system_id":"levelo_inurba_marseille","lat":43.28407,"lon":5.37517,"is_reserved":false,"is_disabled":false,"rental_uris":{"android":"levelo://app?vid=220676d0-d8f4-4560-88ae-78e88aa4e063","ios":"levelo://app?vid=220676d0-d8f4-4560-88ae-78e88aa4e063"},"vehicle_type_id":"4","last_reported":1726776573,"current_range_meters":8800,"station_id":"ce4bh412rcd13ifvqds0","pricing_plan_id":"cebpf4jnsgd1na2vs0mg"},{"bike_id":"31fcface-a698-4de8-96db-80061b32ca13","system_id":"levelo_inurba_marseille","lat":43.29421,"lon":5.38621,"is_reserved":false,"is_disabled":false,"rental_uris":{"android":"levelo://app?vid=31fcface-a698-4de8-96db-80061b32ca13","ios":"levelo://app?vid=31fcface-a698-4de8-96db-80061b32ca13"},"vehicle_type_id":"4","last_reported":1726776573,"current_range_meters":16000,"station_id":"ce4bh2h2rcd13ifvqdh0","pricing_plan_id":"cebpf4jnsgd1na2vs0mg"},{"bike_id":"44bf2849-b7a5-4545-8f3a-17e550cd324c","system_id":"levelo_inurba_marseille","lat":43.287291,"lon":5.379374,"is_reserved":false,"is_disabled":false,"rental_uris":{"android":"levelo://app?vid=44bf2849-b7a5-4545-8f3a-17e550cd324c","ios":"levelo://app?vid=44bf2849-b7a5-4545-8f3a-17e550cd324c"},"vehicle_type_id":"4","last_reported":1726776573,"current_range_meters":38000,"station_id":"ce4bh9p2rcd13ifvqec0","pricing_plan_id":"cebpf4jnsgd1na2vs0mg"},{"bike_id":"6939343d-2242-4995-beb4-4816030da522","system_id":"levelo_inurba_marseille","lat":43.29783,"lon":5.37103,"is_reserved":false,"is_disabled":false,"rental_uris":{"android":"levelo://app?vid=6939343d-2242-4995-beb4-4816030da522","ios":"levelo://app?vid=6939343d-2242-4995-beb4-4816030da522"},"vehicle_type_id":"4","last_reported":1726776573,"current_range_meters":38800,"station_id":"ce4bgop2rcd13ifvqc1g","pricing_plan_id":"cebpf4jnsgd1na2vs0mg"},{"bike_id":"8cec0694-5753-4a2d-b633-441d0154d25f","system_id":"levelo_inurba_marseille","lat":43.29257,"lon":5.38447,"is_reserved":false,"is_disabled":false,"rental_uris":{"android":"levelo://app?vid=8cec0694-5753-4a2d-b633-441d0154d25f","ios":"levelo://app?vid=8cec0694-5753-4a2d-b633-441d0154d25f"},"vehicle_type_id":"4","last_reported":1726776573,"current_range_meters":38800,"station_id":"ce4bh692rcd13ifvqea0","pricing_plan_id":"cebpf4jnsgd1na2vs0mg"},{"bike_id":"5705acbc-d503-4f36-a9f5-13b5f18aa34d","system_id":"levelo_inurba_marseille","lat":43.23961,"lon":5.36641,"is_reserved":false,"is_disabled":false,"rental_uris":{"android":"levelo://app?vid=5705acbc-d503-4f36-a9f5-13b5f18aa34d","ios":"levelo://app?vid=5705acbc-d503-4f36-a9f5-13b5f18aa34d"},"vehicle_type_id":"4","last_reported":1726776573,"current_range_meters":37600,"station_id":"ce4bhi12rcd13ifvqfp0","pricing_plan_id":"cebpf4jnsgd1na2vs0mg"},{"bike_id":"05035e18-c624-4ff9-a16d-de5fbf15eae2","system_id":"levelo_inurba_marseille","lat":43.28853,"lon":5.35864,"is_reserved":false,"is_disabled":false,"rental_uris":{"android":"levelo://app?vid=05035e18-c624-4ff9-a16d-de5fbf15eae2","ios":"levelo://app?vid=05035e18-c624-4ff9-a16d-de5fbf15eae2"},"vehicle_type_id":"4","last_reported":1726776573,"current_range_meters":38800,"station_id":"ce4bhb12rcd13ifvqem0","pricing_plan_id":"cebpf4jnsgd1na2vs0mg"},{"bike_id":"11228085-23e5-4c89-842a-c1aca906e3a6","system_id":"levelo_inurba_marseille","lat":43.27995,"lon":5.4166,"is_reserved":false,"is_disabled":false,"rental_uris":{"android":"levelo://app?vid=11228085-23e5-4c89-842a-c1aca906e3a6","ios":"levelo://app?vid=11228085-23e5-4c89-842a-c1aca906e3a6"},"vehicle_type_id":"4","last_reported":1726776573,"current_range_meters":38800,"station_id":"ce4bho12rcd13ifvqh1g","pricing_plan_id":"cebpf4jnsgd1na2vs0mg"},{"bike_id":"c9f3a0b8-525c-4ab6-9937-fd795d03618e","system_id":"levelo_inurba_marseille","lat":43.26057,"lon":5.39398,"is_reserved":false,"is_disabled":false,"rental_uris":{"android":"levelo://app?vid=c9f3a0b8-525c-4ab6-9937-fd795d03618e","ios":"levelo://app?vid=c9f3a0b8-525c-4ab6-9937-fd795d03618e"},"vehicle_type_id":"4","last_reported":1726776573,"current_range_meters":39200,"station_id":"ce4bhh92rcd13ifvqfj0","pricing_plan_id":"cebpf4jnsgd1na2vs0mg"},{"bike_id":"cd8e9929-c995-4a74-af9f-d79388bb1f25","system_id":"levelo_inurba_marseille","lat":43.28858,"lon":5.39309,"is_reserved":false,"is_disabled":false,"rental_uris":{"android":"levelo://app?vid=cd8e9929-c995-4a74-af9f-d79388bb1f25","ios":"levelo://app?vid=cd8e9929-c995-4a74-af9f-d79388bb1f25"},"vehicle_type_id":"4","last_reported":1726776573,"current_range_meters":8400,"station_id":"ce4bh2p2rcd13ifvqdi0","pricing_plan_id":"cebpf4jnsgd1na2vs0mg"},{"bike_id":"48263b0d-1f86-401e-88d5-70e1c9e2470e","system_id":"levelo_inurba_marseille","lat":43.29424,"lon":5.38628,"is_reserved":false,"is_disabled":false,"rental_uris":{"android":"levelo://app?vid=48263b0d-1f86-401e-88d5-70e1c9e2470e","ios":"levelo://app?vid=48263b0d-1f86-401e-88d5-70e1c9e2470e"},"vehicle_type_id":"4","last_reported":1726776573,"current_range_meters":24800,"station_id":"ce4bh2h2rcd13ifvqdh0","pricing_plan_id":"cebpf4jnsgd1na2vs0mg"},{"bike_id":"c6d6874e-6803-4d96-b0f2-faf10ee5b16d","system_id":"levelo_inurba_marseille","lat":43.29169,"lon":5.37169,"is_reserved":false,"is_disabled":false,"rental_uris":{"android":"levelo://app?vid=c6d6874e-6803-4d96-b0f2-faf10ee5b16d","ios":"levelo://app?vid=c6d6874e-6803-4d96-b0f2-faf10ee5b16d"},"vehicle_type_id":"4","last_reported":1726776573,"current_range_meters":39200,"station_id":"ce4bha92rcd13ifvqeh0","pricing_plan_id":"cebpf4jnsgd1na2vs0mg"},{"bike_id":"7b9dd459-340b-4978-bfb0-6c163a5263e8","system_id":"levelo_inurba_marseille","lat":43.23189,"lon":5.35553,"is_reserved":false,"is_disabled":false,"rental_uris":{"android":"levelo://app?vid=7b9dd459-340b-4978-bfb0-6c163a5263e8","ios":"levelo://app?vid=7b9dd459-340b-4978-bfb0-6c163a5263e8"},"vehicle_type_id":"4","last_reported":1726776573,"current_range_meters":40000,"station_id":"ce4bhu92rcd13ifvqi70","pricing_plan_id":"cebpf4jnsgd1na2vs0mg"},{"bike_id":"47c56b71-2560-481e-a76e-8d39095c725b","system_id":"levelo_inurba_marseille","lat":43.25009,"lon":5.38933,"is_reserved":false,"is_disabled":false,"rental_uris":{"android":"levelo://app?vid=47c56b71-2560-481e-a76e-8d39095c725b","ios":"levelo://app?vid=47c56b71-2560-481e-a76e-8d39095c725b"},"vehicle_type_id":"4","last_reported":1726776573,"current_range_meters":39200,"station_id":"ce4bhgp2rcd13ifvqfd0","pricing_plan_id":"cebpf4jnsgd1na2vs0mg"},{"bike_id":"e3d2cb34-c757-45ad-beac-0be6b9457278","system_id":"levelo_inurba_marseille","lat":43.30803,"lon":5.43525,"is_reserved":false,"is_disabled":false,"rental_uris":{"android":"levelo://app?vid=e3d2cb34-c757-45ad-beac-0be6b9457278","ios":"levelo://app?vid=e3d2cb34-c757-45ad-beac-0be6b9457278"},"vehicle_type_id":"4","last_reported":1726776573,"current_range_meters":38000,"station_id":"ce4bhph2rcd13ifvqheg","pricing_plan_id":"cebpf4jnsgd1na2vs0mg"},{"bike_id":"87440cd1-4d99-421b-9f62-83acc0dd5fa9","system_id":"levelo_inurba_marseille","lat":43.32366,"lon":5.38875,"is_reserved":false,"is_disabled":false,"rental_uris":{"android":"levelo://app?vid=87440cd1-4d99-421b-9f62-83acc0dd5fa9","ios":"levelo://app?vid=87440cd1-4d99-421b-9f62-83acc0dd5fa9"},"vehicle_type_id":"4","last_reported":1726776573,"current_range_meters":3200,"station_id":"ce4bhqp2rcd13ifvqhog","pricing_plan_id":"cebpf4jnsgd1na2vs0mg"},{"bike_id":"dad38bd6-f634-4d80-9e1a-573af50bb627","system_id":"levelo_inurba_marseille","lat":43.31163,"lon":5.38736,"is_reserved":false,"is_disabled":false,"rental_uris":{"android":"levelo://app?vid=dad38bd6-f634-4d80-9e1a-573af50bb627","ios":"levelo://app?vid=dad38bd6-f634-4d80-9e1a-573af50bb627"},"vehicle_type_id":"4","last_reported":1726776573,"current_range_meters":11200,"station_id":"ce4bgv12rcd13ifvqcp0","pricing_plan_id":"cebpf4jnsgd1na2vs0mg"},{"bike_id":"7477cbd8-3f2d-4131-92c1-db5689b072bb","system_id":"levelo_inurba_marseille","lat":43.28706,"lon":5.39985,"is_reserved":false,"is_disabled":false,"rental_uris":{"android":"levelo://app?vid=7477cbd8-3f2d-4131-92c1-db5689b072bb","ios":"levelo://app?vid=7477cbd8-3f2d-4131-92c1-db5689b072bb"},"vehicle_type_id":"4","last_reported":1726776573,"current_range_meters":8000,"station_id":"ce4bho92rcd13ifvqh3g","pricing_plan_id":"cebpf4jnsgd1na2vs0mg"},{"bike_id":"010d89de-6be0-4954-8660-15897686fb5a","system_id":"levelo_inurba_marseille","lat":43.31185,"lon":5.38719,"is_reserved":false,"is_disabled":false,"rental_uris":{"android":"levelo://app?vid=010d89de-6be0-4954-8660-15897686fb5a","ios":"levelo://app?vid=010d89de-6be0-4954-8660-15897686fb5a"},"vehicle_type_id":"4","last_reported":1726776573,"current_range_meters":17600,"station_id":"ce4bgv12rcd13ifvqcp0","pricing_plan_id":"cebpf4jnsgd1na2vs0mg"},{"bike_id":"2fcf78b9-a6fd-45ff-9124-0793f7b94fb4","system_id":"levelo_inurba_marseille","lat":43.298034,"lon":5.380917,"is_reserved":false,"is_disabled":false,"rental_uris":{"android":"levelo://app?vid=2fcf78b9-a6fd-45ff-9124-0793f7b94fb4","ios":"levelo://app?vid=2fcf78b9-a6fd-45ff-9124-0793f7b94fb4"},"vehicle_type_id":"4","last_reported":1726776573,"current_range_meters":33600,"station_id":"ce4bhqp2rcd13ifvqhng","pricing_plan_id":"cebpf4jnsgd1na2vs0mg"},{"bike_id":"59526314-6814-428f-9df0-ead1cf1c2777","system_id":"levelo_inurba_marseille","lat":43.25934,"lon":5.4092,"is_reserved":false,"is_disabled":false,"rental_uris":{"android":"levelo://app?vid=59526314-6814-428f-9df0-ead1cf1c2777","ios":"levelo://app?vid=59526314-6814-428f-9df0-ead1cf1c2777"},"vehicle_type_id":"4","last_reported":1726776573,"current_range_meters":37600,"station_id":"ce4bhm92rcd13ifvqglg","pricing_plan_id":"cebpf4jnsgd1na2vs0mg"},{"bike_id":"1c0e1357-02cb-4297-83ed-35c6c9a16415","system_id":"levelo_inurba_marseille","lat":43.27814,"lon":5.40716,"is_reserved":false,"is_disabled":false,"rental_uris":{"android":"levelo://app?vid=1c0e1357-02cb-4297-83ed-35c6c9a16415","ios":"levelo://app?vid=1c0e1357-02cb-4297-83ed-35c6c9a16415"},"vehicle_type_id":"4","last_reported":1726776573,"current_range_meters":25600,"station_id":"ce4bhnh2rcd13ifvqgtg","pricing_plan_id":"cebpf4jnsgd1na2vs0mg"},{"bike_id":"258a6987-5753-4290-97fd-db8d9a7729ea","system_id":"levelo_inurba_marseille","lat":43.2587,"lon":5.39907,"is_reserved":false,"is_disabled":false,"rental_uris":{"android":"levelo://app?vid=258a6987-5753-4290-97fd-db8d9a7729ea","ios":"levelo://app?vid=258a6987-5753-4290-97fd-db8d9a7729ea"},"vehicle_type_id":"4","last_reported":1726776573,"current_range_meters":38000,"station_id":"ce4bhl92rcd13ifvqghg","pricing_plan_id":"cebpf4jnsgd1na2vs0mg"},{"bike_id":"1cc9f31c-229d-47fa-ab7b-d111a4bb5538","system_id":"levelo_inurba_marseille","lat":43.29275,"lon":5.38454,"is_reserved":false,"is_disabled":false,"rental_uris":{"android":"levelo://app?vid=1cc9f31c-229d-47fa-ab7b-d111a4bb5538","ios":"levelo://app?vid=1cc9f31c-229d-47fa-ab7b-d111a4bb5538"},"vehicle_type_id":"4","last_reported":1726776573,"current_range_meters":29600,"station_id":"ce4bh692rcd13ifvqea0","pricing_plan_id":"cebpf4jnsgd1na2vs0mg"},{"bike_id":"a6138b45-7e28-438c-b576-0f9f8832e4f6","system_id":"levelo_inurba_marseille","lat":43.32662,"lon":5.40998,"is_reserved":false,"is_disabled":false,"rental_uris":{"android":"levelo://app?vid=a6138b45-7e28-438c-b576-0f9f8832e4f6","ios":"levelo://app?vid=a6138b45-7e28-438c-b576-0f9f8832e4f6"},"vehicle_type_id":"4","last_reported":1726776573,"current_range_meters":9200,"station_id":"ce4bhpp2rcd13ifvqhgg","pricing_plan_id":"cebpf4jnsgd1na2vs0mg"},{"bike_id":"d28b7451-e74e-455d-898d-10e272314f3a","system_id":"levelo_inurba_marseille","lat":43.29272,"lon":5.38439,"is_reserved":false,"is_disabled":false,"rental_uris":{"android":"levelo://app?vid=d28b7451-e74e-455d-898d-10e272314f3a","ios":"levelo://app?vid=d28b7451-e74e-455d-898d-10e272314f3a"},"vehicle_type_id":"4","last_reported":1726776573,"current_range_meters":38800,"station_id":"ce4bh692rcd13ifvqea0","pricing_plan_id":"cebpf4jnsgd1na2vs0mg"},{"bike_id":"e8838fc0-3cd4-4213-84e3-c33f37fcda59","system_id":"levelo_inurba_marseille","lat":43.25828,"lon":5.39435,"is_reserved":false,"is_disabled":false,"rental_uris":{"android":"levelo://app?vid=e8838fc0-3cd4-4213-84e3-c33f37fcda59","ios":"levelo://app?vid=e8838fc0-3cd4-4213-84e3-c33f37fcda59"},"vehicle_type_id":"4","last_reported":1726776573,"current_range_meters":40000,"station_id":"ce4bhip2rcd13ifvqft0","pricing_plan_id":"cebpf4jnsgd1na2vs0mg"},{"bike_id":"52b9b571-fe00-4360-b27f-4dbfbe3a3da0","system_id":"levelo_inurba_marseille","lat":43.29201,"lon":5.39315,"is_reserved":false,"is_disabled":false,"rental_uris":{"android":"levelo://app?vid=52b9b571-fe00-4360-b27f-4dbfbe3a3da0","ios":"levelo://app?vid=52b9b571-fe00-4360-b27f-4dbfbe3a3da0"},"vehicle_type_id":"4","last_reported":1726776573,"current_range_meters":28800,"station_id":"ce4bh192rcd13ifvqdd0","pricing_plan_id":"cebpf4jnsgd1na2vs0mg"},{"bike_id":"ef180934-2dae-4833-acdd-ed74426bbff7","system_id":"levelo_inurba_marseille","lat":43.313152,"lon":5.396793,"is_reserved":false,"is_disabled":false,"rental_uris":{"android":"levelo://app?vid=ef180934-2dae-4833-acdd-ed74426bbff7","ios":"levelo://app?vid=ef180934-2dae-4833-acdd-ed74426bbff7"},"vehicle_type_id":"4","last_reported":1726776573,"current_range_meters":38400,"station_id":"ce4bgvp2rcd13ifvqcu0","pricing_plan_id":"cebpf4jnsgd1na2vs0mg"},{"bike_id":"eb2bede7-1cfc-481d-95f0-4175f9ef21df","system_id":"levelo_inurba_marseille","lat":43.2594,"lon":5.40905,"is_reserved":false,"is_disabled":false,"rental_uris":{"android":"levelo://app?vid=eb2bede7-1cfc-481d-95f0-4175f9ef21df","ios":"levelo://app?vid=eb2bede7-1cfc-481d-95f0-4175f9ef21df"},"vehicle_type_id":"4","last_reported":1726776573,"current_range_meters":19600,"station_id":"ce4bhm92rcd13ifvqglg","pricing_plan_id":"cebpf4jnsgd1na2vs0mg"},{"bike_id":"7d4e2ebf-b6f0-4170-8a9c-ee1e2b56fad3","system_id":"levelo_inurba_marseille","lat":43.311135,"lon":5.377683,"is_reserved":false,"is_disabled":false,"rental_uris":{"android":"levelo://app?vid=7d4e2ebf-b6f0-4170-8a9c-ee1e2b56fad3","ios":"levelo://app?vid=7d4e2ebf-b6f0-4170-8a9c-ee1e2b56fad3"},"vehicle_type_id":"4","last_reported":1726776573,"current_range_meters":25200,"station_id":"ce4bgt92rcd13ifvqcg0","pricing_plan_id":"cebpf4jnsgd1na2vs0mg"},{"bike_id":"b639e14f-e095-4c35-8c20-ce3aa7b199ab","system_id":"levelo_inurba_marseille","lat":43.31176,"lon":5.3872,"is_reserved":false,"is_disabled":false,"rental_uris":{"android":"levelo://app?vid=b639e14f-e095-4c35-8c20-ce3aa7b199ab","ios":"levelo://app?vid=b639e14f-e095-4c35-8c20-ce3aa7b199ab"},"vehicle_type_id":"4","last_reported":1726776573,"current_range_meters":36800,"station_id":"ce4bgv12rcd13ifvqcp0","pricing_plan_id":"cebpf4jnsgd1na2vs0mg"},{"bike_id":"d8b18eca-39fe-4a97-abf9-9ab1b84f9774","system_id":"levelo_inurba_marseille","lat":43.31696,"lon":5.4047,"is_reserved":false,"is_disabled":false,"rental_uris":{"android":"levelo://app?vid=d8b18eca-39fe-4a97-abf9-9ab1b84f9774","ios":"levelo://app?vid=d8b18eca-39fe-4a97-abf9-9ab1b84f9774"},"vehicle_type_id":"4","last_reported":1726776573,"current_range_meters":30000,"station_id":"ce4bh012rcd13ifvqd00","pricing_plan_id":"cebpf4jnsgd1na2vs0mg"},{"bike_id":"6c9203fc-fa5f-4aed-9d55-ad66cd264384","system_id":"levelo_inurba_marseille","lat":43.30805,"lon":5.3816,"is_reserved":false,"is_disabled":false,"rental_uris":{"android":"levelo://app?vid=6c9203fc-fa5f-4aed-9d55-ad66cd264384","ios":"levelo://app?vid=6c9203fc-fa5f-4aed-9d55-ad66cd264384"},"vehicle_type_id":"4","last_reported":1726776573,"current_range_meters":28400,"station_id":"ce4bgt12rcd13ifvqce0","pricing_plan_id":"cebpf4jnsgd1na2vs0mg"},{"bike_id":"46c81631-f9df-4d0f-bfb6-7099ccd4c02c","system_id":"levelo_inurba_marseille","lat":43.29266,"lon":5.36843,"is_reserved":false,"is_disabled":false,"rental_uris":{"android":"levelo://app?vid=46c81631-f9df-4d0f-bfb6-7099ccd4c02c","ios":"levelo://app?vid=46c81631-f9df-4d0f-bfb6-7099ccd4c02c"},"vehicle_type_id":"4","last_reported":1726776573,"current_range_meters":38800,"station_id":"ce4bhbp2rcd13ifvqesg","pricing_plan_id":"cebpf4jnsgd1na2vs0mg"},{"bike_id":"ee41bdc7-00d2-44a5-9eb9-55f6a395866e","system_id":"levelo_inurba_marseille","lat":43.31175,"lon":5.38715,"is_reserved":false,"is_disabled":false,"rental_uris":{"android":"levelo://app?vid=ee41bdc7-00d2-44a5-9eb9-55f6a395866e","ios":"levelo://app?vid=ee41bdc7-00d2-44a5-9eb9-55f6a395866e"},"vehicle_type_id":"4","last_reported":1726776573,"current_range_meters":37600,"station_id":"ce4bgv12rcd13ifvqcp0","pricing_plan_id":"cebpf4jnsgd1na2vs0mg"},{"bike_id":"82ea35eb-356c-435a-af7e-f3943eee0033","system_id":"levelo_inurba_marseille","lat":43.31529,"lon":5.38032,"is_reserved":false,"is_disabled":false,"rental_uris":{"android":"levelo://app?vid=82ea35eb-356c-435a-af7e-f3943eee0033","ios":"levelo://app?vid=82ea35eb-356c-435a-af7e-f3943eee0033"},"vehicle_type_id":"4","last_reported":1726776573,"current_range_meters":40000,"station_id":"ce4bhsp2rcd13ifvqi50","pricing_plan_id":"cebpf4jnsgd1na2vs0mg"},{"bike_id":"902190e7-1fe9-4270-9546-498dac581307","system_id":"levelo_inurba_marseille","lat":43.28011,"lon":5.40601,"is_reserved":false,"is_disabled":false,"rental_uris":{"android":"levelo://app?vid=902190e7-1fe9-4270-9546-498dac581307","ios":"levelo://app?vid=902190e7-1fe9-4270-9546-498dac581307"},"vehicle_type_id":"4","last_reported":1726776573,"current_range_meters":34800,"station_id":"","pricing_plan_id":"cebpf4jnsgd1na2vs0mg"},{"bike_id":"804b3646-259f-4a84-a03f-2f262500c2a5","system_id":"levelo_inurba_marseille","lat":43.31756,"lon":5.39014,"is_reserved":false,"is_disabled":false,"rental_uris":{"android":"levelo://app?vid=804b3646-259f-4a84-a03f-2f262500c2a5","ios":"levelo://app?vid=804b3646-259f-4a84-a03f-2f262500c2a5"},"vehicle_type_id":"4","last_reported":1726776573,"current_range_meters":39200,"station_id":"ce4bhqp2rcd13ifvqhng","pricing_plan_id":"cebpf4jnsgd1na2vs0mg"},{"bike_id":"5357f56d-8fda-4848-92ec-00c39d374ad6","system_id":"levelo_inurba_marseille","lat":43.28453,"lon":5.35896,"is_reserved":false,"is_disabled":false,"rental_uris":{"android":"levelo://app?vid=5357f56d-8fda-4848-92ec-00c39d374ad6","ios":"levelo://app?vid=5357f56d-8fda-4848-92ec-00c39d374ad6"},"vehicle_type_id":"4","last_reported":1726776573,"current_range_meters":24000,"station_id":"ce4bhah2rcd13ifvqei0","pricing_plan_id":"cebpf4jnsgd1na2vs0mg"},{"bike_id":"c48441d3-1273-46e7-8012-ad8941a2e1c7","system_id":"levelo_inurba_marseille","lat":43.31269,"lon":5.40174,"is_reserved":false,"is_disabled":false,"rental_uris":{"android":"levelo://app?vid=c48441d3-1273-46e7-8012-ad8941a2e1c7","ios":"levelo://app?vid=c48441d3-1273-46e7-8012-ad8941a2e1c7"},"vehicle_type_id":"4","last_reported":1726776573,"current_range_meters":19600,"station_id":"ce4bh092rcd13ifvqd30","pricing_plan_id":"cebpf4jnsgd1na2vs0mg"},{"bike_id":"c72671e4-48d1-4590-84cd-1cd1b432d06a","system_id":"levelo_inurba_marseille","lat":43.31712,"lon":5.37755,"is_reserved":false,"is_disabled":false,"rental_uris":{"android":"levelo://app?vid=c72671e4-48d1-4590-84cd-1cd1b432d06a","ios":"levelo://app?vid=c72671e4-48d1-4590-84cd-1cd1b432d06a"},"vehicle_type_id":"4","last_reported":1726776573,"current_range_meters":19200,"station_id":"ce4bgth2rcd13ifvqch0","pricing_plan_id":"cebpf4jnsgd1na2vs0mg"},{"bike_id":"c834d831-5d16-4ace-9fb0-a852330accd9","system_id":"levelo_inurba_marseille","lat":43.28941,"lon":5.36405,"is_reserved":false,"is_disabled":false,"rental_uris":{"android":"levelo://app?vid=c834d831-5d16-4ace-9fb0-a852330accd9","ios":"levelo://app?vid=c834d831-5d16-4ace-9fb0-a852330accd9"},"vehicle_type_id":"4","last_reported":1726776573,"current_range_meters":27600,"station_id":"ce4bhc92rcd13ifvqetg","pricing_plan_id":"cebpf4jnsgd1na2vs0mg"},{"bike_id":"7c904801-7111-4d1d-a285-a9fb34472e47","system_id":"levelo_inurba_marseille","lat":43.29807,"lon":5.4041,"is_reserved":false,"is_disabled":false,"rental_uris":{"android":"levelo://app?vid=7c904801-7111-4d1d-a285-a9fb34472e47","ios":"levelo://app?vid=7c904801-7111-4d1d-a285-a9fb34472e47"},"vehicle_type_id":"4","last_reported":1726776573,"current_range_meters":40000,"station_id":"ce4bh112rcd13ifvqd90","pricing_plan_id":"cebpf4jnsgd1na2vs0mg"},{"bike_id":"db5bed51-afb9-4548-98e9-7b7ae226c501","system_id":"levelo_inurba_marseille","lat":43.33756,"lon":5.37453,"is_reserved":false,"is_disabled":false,"rental_uris":{"android":"levelo://app?vid=db5bed51-afb9-4548-98e9-7b7ae226c501","ios":"levelo://app?vid=db5bed51-afb9-4548-98e9-7b7ae226c501"},"vehicle_type_id":"4","last_reported":1726776573,"current_range_meters":20400,"station_id":"","pricing_plan_id":"cebpf4jnsgd1na2vs0mg"},{"bike_id":"630f2ed8-5212-4996-af32-0f87e53985a8","system_id":"levelo_inurba_marseille","lat":43.27996,"lon":5.41665,"is_reserved":false,"is_disabled":false,"rental_uris":{"android":"levelo://app?vid=630f2ed8-5212-4996-af32-0f87e53985a8","ios":"levelo://app?vid=630f2ed8-5212-4996-af32-0f87e53985a8"},"vehicle_type_id":"4","last_reported":1726776573,"current_range_meters":38800,"station_id":"ce4bho12rcd13ifvqh1g","pricing_plan_id":"cebpf4jnsgd1na2vs0mg"},{"bike_id":"c357d0f2-1d15-4700-bb1d-df01b73a31cf","system_id":"levelo_inurba_marseille","lat":43.26501,"lon":5.3954,"is_reserved":false,"is_disabled":false,"rental_uris":{"android":"levelo://app?vid=c357d0f2-1d15-4700-bb1d-df01b73a31cf","ios":"levelo://app?vid=c357d0f2-1d15-4700-bb1d-df01b73a31cf"},"vehicle_type_id":"4","last_reported":1726776573,"current_range_meters":4800,"station_id":"ce4bhi12rcd13ifvqfq0","pricing_plan_id":"cebpf4jnsgd1na2vs0mg"},{"bike_id":"93c79a73-3e02-46ac-80e0-9576860eb50b","system_id":"levelo_inurba_marseille","lat":43.330339,"lon":5.390774,"is_reserved":false,"is_disabled":false,"rental_uris":{"android":"levelo://app?vid=93c79a73-3e02-46ac-80e0-9576860eb50b","ios":"levelo://app?vid=93c79a73-3e02-46ac-80e0-9576860eb50b"},"vehicle_type_id":"4","last_reported":1726776573,"current_range_meters":33200,"station_id":"ce4bhr92rcd13ifvqhrg","pricing_plan_id":"cebpf4jnsgd1na2vs0mg"},{"bike_id":"327dd63b-d479-45fd-b8d0-20036984d251","system_id":"levelo_inurba_marseille","lat":43.30144,"lon":5.37407,"is_reserved":false,"is_disabled":false,"rental_uris":{"android":"levelo://app?vid=327dd63b-d479-45fd-b8d0-20036984d251","ios":"levelo://app?vid=327dd63b-d479-45fd-b8d0-20036984d251"},"vehicle_type_id":"4","last_reported":1726776573,"current_range_meters":38800,"station_id":"ce4bgs92rcd13ifvqcc0","pricing_plan_id":"cebpf4jnsgd1na2vs0mg"},{"bike_id":"26f5c6c9-9ba1-4a1a-abde-84cca0ffc830","system_id":"levelo_inurba_marseille","lat":43.32287,"lon":5.40642,"is_reserved":false,"is_disabled":false,"rental_uris":{"android":"levelo://app?vid=26f5c6c9-9ba1-4a1a-abde-84cca0ffc830","ios":"levelo://app?vid=26f5c6c9-9ba1-4a1a-abde-84cca0ffc830"},"vehicle_type_id":"4","last_reported":1726776573,"current_range_meters":31200,"station_id":"ce4bhq92rcd13ifvqhjg","pricing_plan_id":"cebpf4jnsgd1na2vs0mg"},{"bike_id":"1005537b-abba-4a33-9073-3d27072603aa","system_id":"levelo_inurba_marseille","lat":43.27814,"lon":5.40709,"is_reserved":false,"is_disabled":false,"rental_uris":{"android":"levelo://app?vid=1005537b-abba-4a33-9073-3d27072603aa","ios":"levelo://app?vid=1005537b-abba-4a33-9073-3d27072603aa"},"vehicle_type_id":"4","last_reported":1726776573,"current_range_meters":28400,"station_id":"ce4bhnh2rcd13ifvqgtg","pricing_plan_id":"cebpf4jnsgd1na2vs0mg"},{"bike_id":"e0b355a4-8180-4a6f-a87e-67de69c780f3","system_id":"levelo_inurba_marseille","lat":43.31359,"lon":5.38503,"is_reserved":false,"is_disabled":false,"rental_uris":{"android":"levelo://app?vid=e0b355a4-8180-4a6f-a87e-67de69c780f3","ios":"levelo://app?vid=e0b355a4-8180-4a6f-a87e-67de69c780f3"},"vehicle_type_id":"4","last_reported":1726776573,"current_range_meters":13600,"station_id":"ce4bgt92rcd13ifvqcf0","pricing_plan_id":"cebpf4jnsgd1na2vs0mg"},{"bike_id":"4a9e77fa-aa16-453a-ade2-7a8a125bd2a3","system_id":"levelo_inurba_marseille","lat":43.30097,"lon":5.39076,"is_reserved":false,"is_disabled":false,"rental_uris":{"android":"levelo://app?vid=4a9e77fa-aa16-453a-ade2-7a8a125bd2a3","ios":"levelo://app?vid=4a9e77fa-aa16-453a-ade2-7a8a125bd2a3"},"vehicle_type_id":"4","last_reported":1726776573,"current_range_meters":4000,"station_id":"ce4bh192rcd13ifvqdb0","pricing_plan_id":"cebpf4jnsgd1na2vs0mg"},{"bike_id":"ffa23234-c1ea-4d00-b640-cd73b1915784","system_id":"levelo_inurba_marseille","lat":43.31999,"lon":5.38153,"is_reserved":false,"is_disabled":false,"rental_uris":{"android":"levelo://app?vid=ffa23234-c1ea-4d00-b640-cd73b1915784","ios":"levelo://app?vid=ffa23234-c1ea-4d00-b640-cd73b1915784"},"vehicle_type_id":"4","last_reported":1726776573,"current_range_meters":11600,"station_id":"ce4bhr12rcd13ifvqhpg","pricing_plan_id":"cebpf4jnsgd1na2vs0mg"},{"bike_id":"92e6af67-05b1-4069-9f4f-c3abf89c366a","system_id":"levelo_inurba_marseille","lat":43.28729,"lon":5.36091,"is_reserved":false,"is_disabled":false,"rental_uris":{"android":"levelo://app?vid=92e6af67-05b1-4069-9f4f-c3abf89c366a","ios":"levelo://app?vid=92e6af67-05b1-4069-9f4f-c3abf89c366a"},"vehicle_type_id":"4","last_reported":1726776573,"current_range_meters":34000,"station_id":"cki0cbj6b192h4jlfktg","pricing_plan_id":"cebpf4jnsgd1na2vs0mg"},{"bike_id":"d8f0b5ed-65b7-42da-8474-b44b658a7fac","system_id":"levelo_inurba_marseille","lat":43.29258,"lon":5.38449,"is_reserved":false,"is_disabled":false,"rental_uris":{"android":"levelo://app?vid=d8f0b5ed-65b7-42da-8474-b44b658a7fac","ios":"levelo://app?vid=d8f0b5ed-65b7-42da-8474-b44b658a7fac"},"vehicle_type_id":"4","last_reported":1726776573,"current_range_meters":22800,"station_id":"ce4bh692rcd13ifvqea0","pricing_plan_id":"cebpf4jnsgd1na2vs0mg"},{"bike_id":"a7364ed1-6c69-4458-b841-c8a568496d80","system_id":"levelo_inurba_marseille","lat":43.28568,"lon":5.39511,"is_reserved":false,"is_disabled":false,"rental_uris":{"android":"levelo://app?vid=a7364ed1-6c69-4458-b841-c8a568496d80","ios":"levelo://app?vid=a7364ed1-6c69-4458-b841-c8a568496d80"},"vehicle_type_id":"4","last_reported":1726776573,"current_range_meters":24000,"station_id":"ce4bh292rcd13ifvqdg0","pricing_plan_id":"cebpf4jnsgd1na2vs0mg"},{"bike_id":"58014cc6-4f39-4119-a8a0-cdc0e2507820","system_id":"levelo_inurba_marseille","lat":43.32291,"lon":5.38275,"is_reserved":false,"is_disabled":false,"rental_uris":{"android":"levelo://app?vid=58014cc6-4f39-4119-a8a0-cdc0e2507820","ios":"levelo://app?vid=58014cc6-4f39-4119-a8a0-cdc0e2507820"},"vehicle_type_id":"4","last_reported":1726776573,"current_range_meters":40000,"station_id":"ce4bhr12rcd13ifvqhqg","pricing_plan_id":"cebpf4jnsgd1na2vs0mg"},{"bike_id":"2838ac1e-3ca6-49d7-8eac-b30001bf2521","system_id":"levelo_inurba_marseille","lat":43.295261,"lon":5.375032,"is_reserved":false,"is_disabled":false,"rental_uris":{"android":"levelo://app?vid=2838ac1e-3ca6-49d7-8eac-b30001bf2521","ios":"levelo://app?vid=2838ac1e-3ca6-49d7-8eac-b30001bf2521"},"vehicle_type_id":"4","last_reported":1726776573,"current_range_meters":36800,"station_id":"ce4bgkp2rcd13ifvqbmg","pricing_plan_id":"cebpf4jnsgd1na2vs0mg"},{"bike_id":"2f6487d8-3308-48fb-a6c3-71a5b95fa3f1","system_id":"levelo_inurba_marseille","lat":43.29197,"lon":5.3933,"is_reserved":false,"is_disabled":false,"rental_uris":{"android":"levelo://app?vid=2f6487d8-3308-48fb-a6c3-71a5b95fa3f1","ios":"levelo://app?vid=2f6487d8-3308-48fb-a6c3-71a5b95fa3f1"},"vehicle_type_id":"4","last_reported":1726776573,"current_range_meters":39200,"station_id":"ce4bh192rcd13ifvqdd0","pricing_plan_id":"cebpf4jnsgd1na2vs0mg"},{"bike_id":"c85674c7-24dd-4fde-884d-be4a3a3bcd14","system_id":"levelo_inurba_marseille","lat":43.27977,"lon":5.38758,"is_reserved":false,"is_disabled":false,"rental_uris":{"android":"levelo://app?vid=c85674c7-24dd-4fde-884d-be4a3a3bcd14","ios":"levelo://app?vid=c85674c7-24dd-4fde-884d-be4a3a3bcd14"},"vehicle_type_id":"4","last_reported":1726776573,"current_range_meters":25200,"station_id":"ce4bhg12rcd13ifvqf80","pricing_plan_id":"cebpf4jnsgd1na2vs0mg"},{"bike_id":"bce83964-771d-421d-a795-c2b376c5b9dc","system_id":"levelo_inurba_marseille","lat":43.23198,"lon":5.35551,"is_reserved":false,"is_disabled":false,"rental_uris":{"android":"levelo://app?vid=bce83964-771d-421d-a795-c2b376c5b9dc","ios":"levelo://app?vid=bce83964-771d-421d-a795-c2b376c5b9dc"},"vehicle_type_id":"4","last_reported":1726776573,"current_range_meters":19600,"station_id":"ce4bhu92rcd13ifvqi70","pricing_plan_id":"cebpf4jnsgd1na2vs0mg"},{"bike_id":"adc9346b-3bd9-4737-bbeb-f84afb48cedf","system_id":"levelo_inurba_marseille","lat":43.31172,"lon":5.38726,"is_reserved":false,"is_disabled":false,"rental_uris":{"android":"levelo://app?vid=adc9346b-3bd9-4737-bbeb-f84afb48cedf","ios":"levelo://app?vid=adc9346b-3bd9-4737-bbeb-f84afb48cedf"},"vehicle_type_id":"4","last_reported":1726776573,"current_range_meters":35200,"station_id":"ce4bgv12rcd13ifvqcp0","pricing_plan_id":"cebpf4jnsgd1na2vs0mg"},{"bike_id":"92f70320-422d-4efa-985b-91e362256974","system_id":"levelo_inurba_marseille","lat":43.29424,"lon":5.38613,"is_reserved":false,"is_disabled":false,"rental_uris":{"android":"levelo://app?vid=92f70320-422d-4efa-985b-91e362256974","ios":"levelo://app?vid=92f70320-422d-4efa-985b-91e362256974"},"vehicle_type_id":"4","last_reported":1726776573,"current_range_meters":6800,"station_id":"ce4bh2h2rcd13ifvqdh0","pricing_plan_id":"cebpf4jnsgd1na2vs0mg"},{"bike_id":"610f8990-dd77-4468-ab4e-0b488aa87bf5","system_id":"levelo_inurba_marseille","lat":43.28577,"lon":5.39511,"is_reserved":false,"is_disabled":false,"rental_uris":{"android":"levelo://app?vid=610f8990-dd77-4468-ab4e-0b488aa87bf5","ios":"levelo://app?vid=610f8990-dd77-4468-ab4e-0b488aa87bf5"},"vehicle_type_id":"4","last_reported":1726776573,"current_range_meters":32000,"station_id":"ce4bh292rcd13ifvqdg0","pricing_plan_id":"cebpf4jnsgd1na2vs0mg"},{"bike_id":"ac8c2064-cd59-4c08-a0cc-57a6b4b1952f","system_id":"levelo_inurba_marseille","lat":43.29519,"lon":5.39047,"is_reserved":false,"is_disabled":false,"rental_uris":{"android":"levelo://app?vid=ac8c2064-cd59-4c08-a0cc-57a6b4b1952f","ios":"levelo://app?vid=ac8c2064-cd59-4c08-a0cc-57a6b4b1952f"},"vehicle_type_id":"4","last_reported":1726776573,"current_range_meters":38800,"station_id":"ce4bh3p2rcd13ifvqdp0","pricing_plan_id":"cebpf4jnsgd1na2vs0mg"},{"bike_id":"aff3f781-0b85-4632-b931-41379274a64a","system_id":"levelo_inurba_marseille","lat":43.28862,"lon":5.3586,"is_reserved":false,"is_disabled":false,"rental_uris":{"android":"levelo://app?vid=aff3f781-0b85-4632-b931-41379274a64a","ios":"levelo://app?vid=aff3f781-0b85-4632-b931-41379274a64a"},"vehicle_type_id":"4","last_reported":1726776573,"current_range_meters":39200,"station_id":"ce4bhb12rcd13ifvqem0","pricing_plan_id":"cebpf4jnsgd1na2vs0mg"},{"bike_id":"60717e19-eade-42b2-82fa-44930ff01f46","system_id":"levelo_inurba_marseille","lat":43.31119,"lon":5.3778,"is_reserved":false,"is_disabled":false,"rental_uris":{"android":"levelo://app?vid=60717e19-eade-42b2-82fa-44930ff01f46","ios":"levelo://app?vid=60717e19-eade-42b2-82fa-44930ff01f46"},"vehicle_type_id":"4","last_reported":1726776573,"current_range_meters":21600,"station_id":"ce4bgt92rcd13ifvqcg0","pricing_plan_id":"cebpf4jnsgd1na2vs0mg"},{"bike_id":"5c643d73-df91-4773-be66-12c4b540fa63","system_id":"levelo_inurba_marseille","lat":43.32363,"lon":5.38884,"is_reserved":false,"is_disabled":false,"rental_uris":{"android":"levelo://app?vid=5c643d73-df91-4773-be66-12c4b540fa63","ios":"levelo://app?vid=5c643d73-df91-4773-be66-12c4b540fa63"},"vehicle_type_id":"4","last_reported":1726776573,"current_range_meters":32400,"station_id":"ce4bhqp2rcd13ifvqhog","pricing_plan_id":"cebpf4jnsgd1na2vs0mg"},{"bike_id":"2f32a331-b49d-477f-aca0-35205690f6ac","system_id":"levelo_inurba_marseille","lat":43.31765,"lon":5.3902,"is_reserved":false,"is_disabled":false,"rental_uris":{"android":"levelo://app?vid=2f32a331-b49d-477f-aca0-35205690f6ac","ios":"levelo://app?vid=2f32a331-b49d-477f-aca0-35205690f6ac"},"vehicle_type_id":"4","last_reported":1726776573,"current_range_meters":14800,"station_id":"ce4bhqp2rcd13ifvqhng","pricing_plan_id":"cebpf4jnsgd1na2vs0mg"},{"bike_id":"ec29d62d-5ae9-437a-b766-df37d25daa06","system_id":"levelo_inurba_marseille","lat":43.25439,"lon":5.41291,"is_reserved":false,"is_disabled":false,"rental_uris":{"android":"levelo://app?vid=ec29d62d-5ae9-437a-b766-df37d25daa06","ios":"levelo://app?vid=ec29d62d-5ae9-437a-b766-df37d25daa06"},"vehicle_type_id":"4","last_reported":1726776573,"current_range_meters":18000,"station_id":"","pricing_plan_id":"cebpf4jnsgd1na2vs0mg"},{"bike_id":"55ea00ea-8ca7-4691-a860-30c8fa2e522b","system_id":"levelo_inurba_marseille","lat":43.3388,"lon":5.39164,"is_reserved":false,"is_disabled":false,"rental_uris":{"android":"levelo://app?vid=55ea00ea-8ca7-4691-a860-30c8fa2e522b","ios":"levelo://app?vid=55ea00ea-8ca7-4691-a860-30c8fa2e522b"},"vehicle_type_id":"4","last_reported":1726776573,"current_range_meters":2000,"station_id":"","pricing_plan_id":"cebpf4jnsgd1na2vs0mg"},{"bike_id":"486cd400-e632-4ee8-8f0d-302e2930cd91","system_id":"levelo_inurba_marseille","lat":43.28932,"lon":5.36634,"is_reserved":false,"is_disabled":false,"rental_uris":{"android":"levelo://app?vid=486cd400-e632-4ee8-8f0d-302e2930cd91","ios":"levelo://app?vid=486cd400-e632-4ee8-8f0d-302e2930cd91"},"vehicle_type_id":"4","last_reported":1726776573,"current_range_meters":30000,"station_id":"ce4bhap2rcd13ifvqek0","pricing_plan_id":"cebpf4jnsgd1na2vs0mg"},{"bike_id":"7ea9d8f2-0d66-4548-a794-09f56005d83a","system_id":"levelo_inurba_marseille","lat":43.289344,"lon":5.396374,"is_reserved":false,"is_disabled":false,"rental_uris":{"android":"levelo://app?vid=7ea9d8f2-0d66-4548-a794-09f56005d83a","ios":"levelo://app?vid=7ea9d8f2-0d66-4548-a794-09f56005d83a"},"vehicle_type_id":"4","last_reported":1726776573,"current_range_meters":13600,"station_id":"ce4bh3h2rcd13ifvqdn0","pricing_plan_id":"cebpf4jnsgd1na2vs0mg"},{"bike_id":"e176d1a5-44c5-4dc3-a1e9-0035a8ce6720","system_id":"levelo_inurba_marseille","lat":43.30433,"lon":5.38898,"is_reserved":false,"is_disabled":false,"rental_uris":{"android":"levelo://app?vid=e176d1a5-44c5-4dc3-a1e9-0035a8ce6720","ios":"levelo://app?vid=e176d1a5-44c5-4dc3-a1e9-0035a8ce6720"},"vehicle_type_id":"4","last_reported":1726776573,"current_range_meters":11600,"station_id":"ce4bgk12rcd13ifvqbi0","pricing_plan_id":"cebpf4jnsgd1na2vs0mg"},{"bike_id":"6a7cbce8-6d05-4e3b-85d6-96b606fa3c7d","system_id":"levelo_inurba_marseille","lat":43.28709,"lon":5.40005,"is_reserved":false,"is_disabled":false,"rental_uris":{"android":"levelo://app?vid=6a7cbce8-6d05-4e3b-85d6-96b606fa3c7d","ios":"levelo://app?vid=6a7cbce8-6d05-4e3b-85d6-96b606fa3c7d"},"vehicle_type_id":"4","last_reported":1726776573,"current_range_meters":34800,"station_id":"ce4bho92rcd13ifvqh3g","pricing_plan_id":"cebpf4jnsgd1na2vs0mg"},{"bike_id":"fa2e946d-01fe-4bb4-a2b0-55af60a0bcec","system_id":"levelo_inurba_marseille","lat":43.33726,"lon":5.3919,"is_reserved":false,"is_disabled":false,"rental_uris":{"android":"levelo://app?vid=fa2e946d-01fe-4bb4-a2b0-55af60a0bcec","ios":"levelo://app?vid=fa2e946d-01fe-4bb4-a2b0-55af60a0bcec"},"vehicle_type_id":"4","last_reported":1726776573,"current_range_meters":36400,"station_id":"ce4bhr92rcd13ifvqhsg","pricing_plan_id":"cebpf4jnsgd1na2vs0mg"},{"bike_id":"15c61f1f-3493-4657-baab-60b59ae1c722","system_id":"levelo_inurba_marseille","lat":43.33025,"lon":5.39041,"is_reserved":false,"is_disabled":false,"rental_uris":{"android":"levelo://app?vid=15c61f1f-3493-4657-baab-60b59ae1c722","ios":"levelo://app?vid=15c61f1f-3493-4657-baab-60b59ae1c722"},"vehicle_type_id":"4","last_reported":1726776573,"current_range_meters":36800,"station_id":"ce4bhr92rcd13ifvqhrg","pricing_plan_id":"cebpf4jnsgd1na2vs0mg"},{"bike_id":"001626ab-e388-4578-8436-9e5bd95bdb05","system_id":"levelo_inurba_marseille","lat":43.30807,"lon":5.3816,"is_reserved":false,"is_disabled":false,"rental_uris":{"android":"levelo://app?vid=001626ab-e388-4578-8436-9e5bd95bdb05","ios":"levelo://app?vid=001626ab-e388-4578-8436-9e5bd95bdb05"},"vehicle_type_id":"4","last_reported":1726776573,"current_range_meters":22400,"station_id":"ce4bgt12rcd13ifvqce0","pricing_plan_id":"cebpf4jnsgd1na2vs0mg"},{"bike_id":"68e19465-4786-410e-be8a-513cd66b7eda","system_id":"levelo_inurba_marseille","lat":43.29206,"lon":5.39332,"is_reserved":false,"is_disabled":false,"rental_uris":{"android":"levelo://app?vid=68e19465-4786-410e-be8a-513cd66b7eda","ios":"levelo://app?vid=68e19465-4786-410e-be8a-513cd66b7eda"},"vehicle_type_id":"4","last_reported":1726776573,"current_range_meters":30000,"station_id":"ce4bh192rcd13ifvqdd0","pricing_plan_id":"cebpf4jnsgd1na2vs0mg"},{"bike_id":"dfe5a2f9-95fb-4357-b566-f78ab9dca414","system_id":"levelo_inurba_marseille","lat":43.32297,"lon":5.38271,"is_reserved":false,"is_disabled":false,"rental_uris":{"android":"levelo://app?vid=dfe5a2f9-95fb-4357-b566-f78ab9dca414","ios":"levelo://app?vid=dfe5a2f9-95fb-4357-b566-f78ab9dca414"},"vehicle_type_id":"4","last_reported":1726776573,"current_range_meters":35600,"station_id":"ce4bhr12rcd13ifvqhqg","pricing_plan_id":"cebpf4jnsgd1na2vs0mg"},{"bike_id":"328d45f9-980e-4811-97c0-47d761861509","system_id":"levelo_inurba_marseille","lat":43.29847,"lon":5.37836,"is_reserved":false,"is_disabled":false,"rental_uris":{"android":"levelo://app?vid=328d45f9-980e-4811-97c0-47d761861509","ios":"levelo://app?vid=328d45f9-980e-4811-97c0-47d761861509"},"vehicle_type_id":"4","last_reported":1726776573,"current_range_meters":4400,"station_id":"","pricing_plan_id":"cebpf4jnsgd1na2vs0mg"},{"bike_id":"f675b1c8-b516-4c1e-aec8-a13b4f46a47f","system_id":"levelo_inurba_marseille","lat":43.29193,"lon":5.39318,"is_reserved":false,"is_disabled":false,"rental_uris":{"android":"levelo://app?vid=f675b1c8-b516-4c1e-aec8-a13b4f46a47f","ios":"levelo://app?vid=f675b1c8-b516-4c1e-aec8-a13b4f46a47f"},"vehicle_type_id":"4","last_reported":1726776573,"current_range_meters":36400,"station_id":"ce4bh192rcd13ifvqdd0","pricing_plan_id":"cebpf4jnsgd1na2vs0mg"},{"bike_id":"b1e0187f-c06c-4ad6-9a35-dc6cf25a2ec3","system_id":"levelo_inurba_marseille","lat":43.31188,"lon":5.38719,"is_reserved":false,"is_disabled":false,"rental_uris":{"android":"levelo://app?vid=b1e0187f-c06c-4ad6-9a35-dc6cf25a2ec3","ios":"levelo://app?vid=b1e0187f-c06c-4ad6-9a35-dc6cf25a2ec3"},"vehicle_type_id":"4","last_reported":1726776573,"current_range_meters":38400,"station_id":"ce4bgv12rcd13ifvqcp0","pricing_plan_id":"cebpf4jnsgd1na2vs0mg"},{"bike_id":"3ae02191-6679-4bb8-af51-031d68a4f208","system_id":"levelo_inurba_marseille","lat":43.32341,"lon":5.4062,"is_reserved":false,"is_disabled":false,"rental_uris":{"android":"levelo://app?vid=3ae02191-6679-4bb8-af51-031d68a4f208","ios":"levelo://app?vid=3ae02191-6679-4bb8-af51-031d68a4f208"},"vehicle_type_id":"4","last_reported":1726776573,"current_range_meters":38800,"station_id":"ce4bhq92rcd13ifvqhjg","pricing_plan_id":"cebpf4jnsgd1na2vs0mg"},{"bike_id":"c223daba-6501-499e-8438-e0267042ce85","system_id":"levelo_inurba_marseille","lat":43.29522,"lon":5.3904,"is_reserved":false,"is_disabled":false,"rental_uris":{"android":"levelo://app?vid=c223daba-6501-499e-8438-e0267042ce85","ios":"levelo://app?vid=c223daba-6501-499e-8438-e0267042ce85"},"vehicle_type_id":"4","last_reported":1726776573,"current_range_meters":34800,"station_id":"ce4bh3p2rcd13ifvqdp0","pricing_plan_id":"cebpf4jnsgd1na2vs0mg"},{"bike_id":"c1c1288c-cf2c-4330-93fa-a3ab5d2aeba8","system_id":"levelo_inurba_marseille","lat":43.27904,"lon":5.37996,"is_reserved":false,"is_disabled":false,"rental_uris":{"android":"levelo://app?vid=c1c1288c-cf2c-4330-93fa-a3ab5d2aeba8","ios":"levelo://app?vid=c1c1288c-cf2c-4330-93fa-a3ab5d2aeba8"},"vehicle_type_id":"4","last_reported":1726776573,"current_range_meters":6800,"station_id":"ce4bhf92rcd13ifvqf50","pricing_plan_id":"cebpf4jnsgd1na2vs0mg"},{"bike_id":"fa690805-233a-4a70-a9f3-33f1b67cdb1f","system_id":"levelo_inurba_marseille","lat":43.32286,"lon":5.38271,"is_reserved":false,"is_disabled":false,"rental_uris":{"android":"levelo://app?vid=fa690805-233a-4a70-a9f3-33f1b67cdb1f","ios":"levelo://app?vid=fa690805-233a-4a70-a9f3-33f1b67cdb1f"},"vehicle_type_id":"4","last_reported":1726776573,"current_range_meters":22400,"station_id":"ce4bhr12rcd13ifvqhqg","pricing_plan_id":"cebpf4jnsgd1na2vs0mg"},{"bike_id":"b2284503-8a22-416e-b6b9-e5fb681d79b7","system_id":"levelo_inurba_marseille","lat":43.28454,"lon":5.39198,"is_reserved":false,"is_disabled":false,"rental_uris":{"android":"levelo://app?vid=b2284503-8a22-416e-b6b9-e5fb681d79b7","ios":"levelo://app?vid=b2284503-8a22-416e-b6b9-e5fb681d79b7"},"vehicle_type_id":"4","last_reported":1726776573,"current_range_meters":6000,"station_id":"ce4bhoh2rcd13ifvqh5g","pricing_plan_id":"cebpf4jnsgd1na2vs0mg"},{"bike_id":"b2763354-ec6c-4733-8de6-6c4493759ae9","system_id":"levelo_inurba_marseille","lat":43.29099,"lon":5.40193,"is_reserved":false,"is_disabled":false,"rental_uris":{"android":"levelo://app?vid=b2763354-ec6c-4733-8de6-6c4493759ae9","ios":"levelo://app?vid=b2763354-ec6c-4733-8de6-6c4493759ae9"},"vehicle_type_id":"4","last_reported":1726776573,"current_range_meters":24800,"station_id":"","pricing_plan_id":"cebpf4jnsgd1na2vs0mg"},{"bike_id":"fa4f10c2-c300-4092-afc5-10efd226a879","system_id":"levelo_inurba_marseille","lat":43.28078,"lon":5.39666,"is_reserved":false,"is_disabled":false,"rental_uris":{"android":"levelo://app?vid=fa4f10c2-c300-4092-afc5-10efd226a879","ios":"levelo://app?vid=fa4f10c2-c300-4092-afc5-10efd226a879"},"vehicle_type_id":"4","last_reported":1726776573,"current_range_meters":39200,"station_id":"ce4bho12rcd13ifvqh2g","pricing_plan_id":"cebpf4jnsgd1na2vs0mg"},{"bike_id":"fe780c9c-7e13-4b38-81ce-ea43f071d76c","system_id":"levelo_inurba_marseille","lat":43.23065,"lon":5.35494,"is_reserved":false,"is_disabled":false,"rental_uris":{"android":"levelo://app?vid=fe780c9c-7e13-4b38-81ce-ea43f071d76c","ios":"levelo://app?vid=fe780c9c-7e13-4b38-81ce-ea43f071d76c"},"vehicle_type_id":"4","last_reported":1726776573,"current_range_meters":35200,"station_id":"cpo3342slgdg3j2ifvpg","pricing_plan_id":"cebpf4jnsgd1na2vs0mg"},{"bike_id":"14d17b45-6c42-462d-97e5-7e69a070dac8","system_id":"levelo_inurba_marseille","lat":43.28895,"lon":5.35882,"is_reserved":false,"is_disabled":false,"rental_uris":{"android":"levelo://app?vid=14d17b45-6c42-462d-97e5-7e69a070dac8","ios":"levelo://app?vid=14d17b45-6c42-462d-97e5-7e69a070dac8"},"vehicle_type_id":"4","last_reported":1726776573,"current_range_meters":36800,"station_id":"ce4bhap2rcd13ifvqek0","pricing_plan_id":"cebpf4jnsgd1na2vs0mg"},{"bike_id":"fff22dbc-cd00-4e53-b7af-0e080e25248f","system_id":"levelo_inurba_marseille","lat":43.28931,"lon":5.36639,"is_reserved":false,"is_disabled":false,"rental_uris":{"android":"levelo://app?vid=fff22dbc-cd00-4e53-b7af-0e080e25248f","ios":"levelo://app?vid=fff22dbc-cd00-4e53-b7af-0e080e25248f"},"vehicle_type_id":"4","last_reported":1726776573,"current_range_meters":30800,"station_id":"ce4bhap2rcd13ifvqek0","pricing_plan_id":"cebpf4jnsgd1na2vs0mg"},{"bike_id":"38cb7dfd-06a0-4fa3-94e6-db5dd5315f15","system_id":"levelo_inurba_marseille","lat":43.25859,"lon":5.39914,"is_reserved":false,"is_disabled":false,"rental_uris":{"android":"levelo://app?vid=38cb7dfd-06a0-4fa3-94e6-db5dd5315f15","ios":"levelo://app?vid=38cb7dfd-06a0-4fa3-94e6-db5dd5315f15"},"vehicle_type_id":"4","last_reported":1726776573,"current_range_meters":8000,"station_id":"ce4bhl92rcd13ifvqghg","pricing_plan_id":"cebpf4jnsgd1na2vs0mg"},{"bike_id":"42737279-ffa2-4fde-8abb-3fc7aa8ed902","system_id":"levelo_inurba_marseille","lat":43.29796,"lon":5.40406,"is_reserved":false,"is_disabled":false,"rental_uris":{"android":"levelo://app?vid=42737279-ffa2-4fde-8abb-3fc7aa8ed902","ios":"levelo://app?vid=42737279-ffa2-4fde-8abb-3fc7aa8ed902"},"vehicle_type_id":"4","last_reported":1726776573,"current_range_meters":36800,"station_id":"ce4bh112rcd13ifvqd90","pricing_plan_id":"cebpf4jnsgd1na2vs0mg"},{"bike_id":"ac1ab480-eb92-426b-ba9d-b2e950b769ae","system_id":"levelo_inurba_marseille","lat":43.30806,"lon":5.4352,"is_reserved":false,"is_disabled":false,"rental_uris":{"android":"levelo://app?vid=ac1ab480-eb92-426b-ba9d-b2e950b769ae","ios":"levelo://app?vid=ac1ab480-eb92-426b-ba9d-b2e950b769ae"},"vehicle_type_id":"4","last_reported":1726776573,"current_range_meters":10800,"station_id":"ce4bhph2rcd13ifvqheg","pricing_plan_id":"cebpf4jnsgd1na2vs0mg"},{"bike_id":"94959bc4-3727-41df-95cc-ac0eb83342c8","system_id":"levelo_inurba_marseille","lat":43.31364,"lon":5.38502,"is_reserved":false,"is_disabled":false,"rental_uris":{"android":"levelo://app?vid=94959bc4-3727-41df-95cc-ac0eb83342c8","ios":"levelo://app?vid=94959bc4-3727-41df-95cc-ac0eb83342c8"},"vehicle_type_id":"4","last_reported":1726776573,"current_range_meters":38800,"station_id":"ce4bgt92rcd13ifvqcf0","pricing_plan_id":"cebpf4jnsgd1na2vs0mg"},{"bike_id":"0653cb10-c12e-4c27-af75-8f3495a98f89","system_id":"levelo_inurba_marseille","lat":43.32288,"lon":5.38271,"is_reserved":false,"is_disabled":false,"rental_uris":{"android":"levelo://app?vid=0653cb10-c12e-4c27-af75-8f3495a98f89","ios":"levelo://app?vid=0653cb10-c12e-4c27-af75-8f3495a98f89"},"vehicle_type_id":"4","last_reported":1726776573,"current_range_meters":6400,"station_id":"ce4bhr12rcd13ifvqhqg","pricing_plan_id":"cebpf4jnsgd1na2vs0mg"},{"bike_id":"92dd1f62-4d48-4f0a-9710-c3047f413fb0","system_id":"levelo_inurba_marseille","lat":43.28032,"lon":5.36949,"is_reserved":false,"is_disabled":false,"rental_uris":{"android":"levelo://app?vid=92dd1f62-4d48-4f0a-9710-c3047f413fb0","ios":"levelo://app?vid=92dd1f62-4d48-4f0a-9710-c3047f413fb0"},"vehicle_type_id":"4","last_reported":1726776573,"current_range_meters":24400,"station_id":"ce4bha12rcd13ifvqef0","pricing_plan_id":"cebpf4jnsgd1na2vs0mg"},{"bike_id":"3b5c402c-27d5-4010-ae48-42592c44e1cb","system_id":"levelo_inurba_marseille","lat":43.292,"lon":5.38272,"is_reserved":false,"is_disabled":false,"rental_uris":{"android":"levelo://app?vid=3b5c402c-27d5-4010-ae48-42592c44e1cb","ios":"levelo://app?vid=3b5c402c-27d5-4010-ae48-42592c44e1cb"},"vehicle_type_id":"4","last_reported":1726776573,"current_range_meters":30400,"station_id":"","pricing_plan_id":"cebpf4jnsgd1na2vs0mg"},{"bike_id":"6062b5c3-611e-45af-92d0-d5471a666408","system_id":"levelo_inurba_marseille","lat":43.31148,"lon":5.37217,"is_reserved":false,"is_disabled":false,"rental_uris":{"android":"levelo://app?vid=6062b5c3-611e-45af-92d0-d5471a666408","ios":"levelo://app?vid=6062b5c3-611e-45af-92d0-d5471a666408"},"vehicle_type_id":"4","last_reported":1726776573,"current_range_meters":8400,"station_id":"","pricing_plan_id":"cebpf4jnsgd1na2vs0mg"},