{"last_updated":1746555275,"ttl":60,"version":"2.2","data":{"bikes":[{"bike_id":"66b646b3-6352-44bb-9bfb-21570512e3e5","system_id":"levelo_inurba_marseille","lat":43.281096,"lon":5.403982,"is_reserved":false,"is_disabled":false,"rental_uris":{"android":"levelo://app?vid=66b646b3-6352-44bb-9bfb-21570512e3e5","ios":"levelo://app?vid=66b646b3-6352-44bb-9bfb-21570512e3e5"},"vehicle_type_id":"4","last_reported":1746555275,"current_range_meters":2800,"station_id":"","pricing_plan_id":"cebpf4jnsgd1na2vs0mg"},{"bike_id":"d55e8965-db6f-4b74-b6cd-69e10b1f4a42","system_id":"levelo_inurba_marseille","lat":43.28658,"lon":5.36351,"is_reserved":false,"is_disabled":false,"rental_uris":{"android":"levelo://app?vid=d55e8965-db6f-4b74-b6cd-69e10b1f4a42","ios":"levelo://app?vid=d55e8965-db6f-4b74-b6cd-69e10b1f4a42"},"vehicle_type_id":"4","last_reported":1746555275,"current_range_meters":3200,"station_id":"ce4bhah2rcd13ifvqej0","pricing_plan_id":"cebpf4jnsgd1na2vs0mg"},{"bike_id":"61851d0c-c17c-4c33-9dd8-16a521b76c0c","system_id":"levelo_inurba_marseille","lat":43.26525,"lon":5.39066,"is_reserved":false,"is_disabled":false,"rental_uris":{"android":"levelo://app?vid=61851d0c-c17c-4c33-9dd8-16a521b76c0c","ios":"levelo://app?vid=61851d0c-c17c-4c33-9dd8-16a521b76c0c"},"vehicle_type_id":"4","last_reported":1746555275,"current_range_meters":3200,"station_id":"","pricing_plan_id":"cebpf4jnsgd1na2vs0mg"},{"bike_id":"1f116f1e-7338-4d25-99cc-07622b26742c","system_id":"levelo_inurba_marseille","lat":43.26059,"lon":5.39397,"is_reserved":false,"is_disabled":false,"rental_uris":{"android":"levelo://app?vid=1f116f1e-7338-4d25-99cc-07622b26742c","ios":"levelo://app?vid=1f116f1e-7338-4d25-99cc-07622b26742c"},"vehicle_type_id":"4","last_reported":1746555275,"current_range_meters":3200,"station_id":"ce4bhh92rcd13ifvqfj0","pricing_plan_id":"cebpf4jnsgd1na2vs0mg"},{"bike_id":"57080614-ae11-44bc-86e2-e8daf805b60b","system_id":"levelo_inurba_marseille","lat":43.28612,"lon":5.350997,"is_reserved":false,"is_disabled":true,"rental_uris":{"android":"levelo://app?vid=57080614-ae11-44bc-86e2-e8daf805b60b","ios":"levelo://app?vid=57080614-ae11-44bc-86e2-e8daf805b60b"},"vehicle_type_id":"4","last_reported":1746555275,"current_range_meters":3200,"station_id":"ce4bhch2rcd13ifvqeug","pricing_plan_id":"cebpf4jnsgd1na2vs0mg"},{"bike_id":"062d7f52-c4d8-4dc1-9663-505e56d21979","system_id":"levelo_inurba_marseille","lat":43.32363,"lon":5.388968,"is_reserved":false,"is_disabled":false,"rental_uris":{"android":"levelo://app?vid=062d7f52-c4d8-4dc1-9663-505e56d21979","ios":"levelo://app?vid=062d7f52-c4d8-4dc1-9663-505e56d21979"},"vehicle_type_id":"4","last_reported":1746555275,"current_range_meters":3600,"station_id":"ce4bhqp2rcd13ifvqhog","pricing_plan_id":"cebpf4jnsgd1na2vs0mg"},{"bike_id":"763da8a1-6279-4b7d-b246-ea39eaeb2dba","system_id":"levelo_inurba_marseille","lat":43.31071,"lon":5.38346,"is_reserved":false,"is_disabled":false,"rental_uris":{"android":"levelo://app?vid=763da8a1-6279-4b7d-b246-ea39eaeb2dba","ios":"levelo://app?vid=763da8a1-6279-4b7d-b246-ea39eaeb2dba"},"vehicle_type_id":"4","last_reported":1746555275,"current_range_meters":3600,"station_id":"ce4bgv92rcd13ifvqcr0","pricing_plan_id":"cebpf4jnsgd1na2vs0mg"},{"bike_id":"9513cfcb-04e8-4f4f-9123-aff86adad713","system_id":"levelo_inurba_marseille","lat":43.30076,"lon":5.39086,"is_reserved":false,"is_disabled":false,"rental_uris":{"android":"levelo://app?vid=9513cfcb-04e8-4f4f-9123-aff86adad713","ios":"levelo://app?vid=9513cfcb-04e8-4f4f-9123-aff86adad713"},"vehicle_type_id":"4","last_reported":1746555275,"current_range_meters":4000,"station_id":"ce4bh192rcd13ifvqdb0","pricing_plan_id":"cebpf4jnsgd1na2vs0mg"},{"bike_id":"482344f1-460c-48ea-83dd-01b9a385e5cf","system_id":"levelo_inurba_marseille","lat":43.30674,"lon":5.36856,"is_reserved":false,"is_disabled":false,"rental_uris":{"android":"levelo://app?vid=482344f1-460c-48ea-83dd-01b9a385e5cf","ios":"levelo://app?vid=482344f1-460c-48ea-83dd-01b9a385e5cf"},"vehicle_type_id":"4","last_reported":1746555275,"current_range_meters":4000,"station_id":"","pricing_plan_id":"cebpf4jnsgd1na2vs0mg"},{"bike_id":"21e3558b-d293-48c6-b1d4-2e58f9b1e6ce","system_id":"levelo_inurba_marseille","lat":43.32039,"lon":5.4155,"is_reserved":false,"is_disabled":false,"rental_uris":{"android":"levelo://app?vid=21e3558b-d293-48c6-b1d4-2e58f9b1e6ce","ios":"levelo://app?vid=21e3558b-d293-48c6-b1d4-2e58f9b1e6ce"},"vehicle_type_id":"4","last_reported":1746555275,"current_range_meters":4000,"station_id":"ce4bhq92rcd13ifvqhkg","pricing_plan_id":"cebpf4jnsgd1na2vs0mg"},{"bike_id":"41eaff25-8fc7-43ff-a8a1-ee3e6795efb8","system_id":"levelo_inurba_marseille","lat":43.28711,"lon":5.36099,"is_reserved":false,"is_disabled":false,"rental_uris":{"android":"levelo://app?vid=41eaff25-8fc7-43ff-a8a1-ee3e6795efb8","ios":"levelo://app?vid=41eaff25-8fc7-43ff-a8a1-ee3e6795efb8"},"vehicle_type_id":"4","last_reported":1746555275,"current_range_meters":4400,"station_id":"cki0cbj6b192h4jlfktg","pricing_plan_id":"cebpf4jnsgd1na2vs0mg"},{"bike_id":"460e3755-20ae-409f-b9ab-050ef7f15414","system_id":"levelo_inurba_marseille","lat":43.289305,"lon":5.384025,"is_reserved":false,"is_disabled":false,"rental_uris":{"android":"levelo://app?vid=460e3755-20ae-409f-b9ab-050ef7f15414","ios":"levelo://app?vid=460e3755-20ae-409f-b9ab-050ef7f15414"},"vehicle_type_id":"4","last_reported":1746555275,"current_range_meters":4400,"station_id":"ce4bh612rcd13ifvqe6g","pricing_plan_id":"cebpf4jnsgd1na2vs0mg"},{"bike_id":"11abfdf1-2dbc-48e0-a85c-e50a58604ee8","system_id":"levelo_inurba_marseille","lat":43.262097,"lon":5.374413,"is_reserved":false,"is_disabled":false,"rental_uris":{"android":"levelo://app?vid=11abfdf1-2dbc-48e0-a85c-e50a58604ee8","ios":"levelo://app?vid=11abfdf1-2dbc-48e0-a85c-e50a58604ee8"},"vehicle_type_id":"4","last_reported":1746555275,"current_range_meters":4400,"station_id":"ce4bhgp2rcd13ifvqfc0","pricing_plan_id":"cebpf4jnsgd1na2vs0mg"},{"bike_id":"9a83f313-b427-4954-a3cc-2d6e8efa25df","system_id":"levelo_inurba_marseille","lat":43.26063,"lon":5.39379,"is_reserved":false,"is_disabled":false,"rental_uris":{"android":"levelo://app?vid=9a83f313-b427-4954-a3cc-2d6e8efa25df","ios":"levelo://app?vid=9a83f313-b427-4954-a3cc-2d6e8efa25df"},"vehicle_type_id":"4","last_reported":1746555275,"current_range_meters":4400,"station_id":"ce4bhh92rcd13ifvqfj0","pricing_plan_id":"cebpf4jnsgd1na2vs0mg"},{"bike_id":"2891f423-1bc1-4170-8c8f-eb567885424f","system_id":"levelo_inurba_marseille","lat":43.29909,"lon":5.38137,"is_reserved":false,"is_disabled":false,"rental_uris":{"android":"levelo://app?vid=2891f423-1bc1-4170-8c8f-eb567885424f","ios":"levelo://app?vid=2891f423-1bc1-4170-8c8f-eb567885424f"},"vehicle_type_id":"4","last_reported":1746555275,"current_range_meters":4800,"station_id":"ce4bgj12rcd13ifvqbc0","pricing_plan_id":"cebpf4jnsgd1na2vs0mg"},{"bike_id":"b3de5d6b-1468-4018-b0f2-e074df5f809e","system_id":"levelo_inurba_marseille","lat":43.30137,"lon":5.37422,"is_reserved":false,"is_disabled":false,"rental_uris":{"android":"levelo://app?vid=b3de5d6b-1468-4018-b0f2-e074df5f809e","ios":"levelo://app?vid=b3de5d6b-1468-4018-b0f2-e074df5f809e"},"vehicle_type_id":"4","last_reported":1746555275,"current_range_meters":4800,"station_id":"ce4bgs92rcd13ifvqcc0","pricing_plan_id":"cebpf4jnsgd1na2vs0mg"},{"bike_id":"cc6d44ce-0e13-488e-a6e4-ecfc3f892afe","system_id":"levelo_inurba_marseille","lat":43.23193,"lon":5.35552,"is_reserved":false,"is_disabled":false,"rental_uris":{"android":"levelo://app?vid=cc6d44ce-0e13-488e-a6e4-ecfc3f892afe","ios":"levelo://app?vid=cc6d44ce-0e13-488e-a6e4-ecfc3f892afe"},"vehicle_type_id":"4","last_reported":1746555275,"current_range_meters":5600,"station_id":"ce4bhu92rcd13ifvqi70","pricing_plan_id":"cebpf4jnsgd1na2vs0mg"},{"bike_id":"903d6e82-3c48-467a-b65c-eac4b14802bb","system_id":"levelo_inurba_marseille","lat":43.289201,"lon":5.384057,"is_reserved":false,"is_disabled":true,"rental_uris":{"android":"levelo://app?vid=903d6e82-3c48-467a-b65c-eac4b14802bb","ios":"levelo://app?vid=903d6e82-3c48-467a-b65c-eac4b14802bb"},"vehicle_type_id":"4","last_reported":1746555275,"current_range_meters":5600,"station_id":"ce4bh612rcd13ifvqe6g","pricing_plan_id":"cebpf4jnsgd1na2vs0mg"},{"bike_id":"9afdaa32-5437-40bb-b5dc-0e42f55a33ee","system_id":"levelo_inurba_marseille","lat":43.25386,"lon":5.41864,"is_reserved":false,"is_disabled":false,"rental_uris":{"android":"levelo://app?vid=9afdaa32-5437-40bb-b5dc-0e42f55a33ee","ios":"levelo://app?vid=9afdaa32-5437-40bb-b5dc-0e42f55a33ee"},"vehicle_type_id":"4","last_reported":1746555275,"current_range_meters":5600,"station_id":"","pricing_plan_id":"cebpf4jnsgd1na2vs0mg"},{"bike_id":"0344eae7-e00c-4bb5-951e-fbde9e8653ad","system_id":"levelo_inurba_marseille","lat":43.28347,"lon":5.38094,"is_reserved":false,"is_disabled":false,"rental_uris":{"android":"levelo://app?vid=0344eae7-e00c-4bb5-951e-fbde9e8653ad","ios":"levelo://app?vid=0344eae7-e00c-4bb5-951e-fbde9e8653ad"},"vehicle_type_id":"4","last_reported":1746555275,"current_range_meters":5600,"station_id":"ce4bh412rcd13ifvqdr0","pricing_plan_id":"cebpf4jnsgd1na2vs0mg"},{"bike_id":"9ca7296c-72c0-4364-b79f-4e16b70a89e3","system_id":"levelo_inurba_marseille","lat":43.30638,"lon":5.40102,"is_reserved":false,"is_disabled":false,"rental_uris":{"android":"levelo://app?vid=9ca7296c-72c0-4364-b79f-4e16b70a89e3","ios":"levelo://app?vid=9ca7296c-72c0-4364-b79f-4e16b70a89e3"},"vehicle_type_id":"4","last_reported":1746555275,"current_range_meters":5600,"station_id":"ce4bh112rcd13ifvqda0","pricing_plan_id":"cebpf4jnsgd1na2vs0mg"},{"bike_id":"3b6d0d5a-ef6d-4dae-ab94-89e2c820cc2f","system_id":"levelo_inurba_marseille","lat":43.284798,"lon":5.385604,"is_reserved":false,"is_disabled":true,"rental_uris":{"android":"levelo://app?vid=3b6d0d5a-ef6d-4dae-ab94-89e2c820cc2f","ios":"levelo://app?vid=3b6d0d5a-ef6d-4dae-ab94-89e2c820cc2f"},"vehicle_type_id":"4","last_reported":1746555275,"current_range_meters":5600,"station_id":"ce4bh8p2rcd13ifvqeb0","pricing_plan_id":"cebpf4jnsgd1na2vs0mg"},{"bike_id":"9ca898e2-58aa-4a6b-b98c-56b6e5fbd4ff","system_id":"levelo_inurba_marseille","lat":43.28362,"lon":5.38627,"is_reserved":false,"is_disabled":false,"rental_uris":{"android":"levelo://app?vid=9ca898e2-58aa-4a6b-b98c-56b6e5fbd4ff","ios":"levelo://app?vid=9ca898e2-58aa-4a6b-b98c-56b6e5fbd4ff"},"vehicle_type_id":"4","last_reported":1746555275,"current_range_meters":5600,"station_id":"ce4bh492rcd13ifvqdvg","pricing_plan_id":"cebpf4jnsgd1na2vs0mg"},{"bike_id":"b4fb5917-65cd-4586-99be-5ddc06be1cf6","system_id":"levelo_inurba_marseille","lat":43.308,"lon":5.43517,"is_reserved":false,"is_disabled":false,"rental_uris":{"android":"levelo://app?vid=b4fb5917-65cd-4586-99be-5ddc06be1cf6","ios":"levelo://app?vid=b4fb5917-65cd-4586-99be-5ddc06be1cf6"},"vehicle_type_id":"4","last_reported":1746555275,"current_range_meters":6000,"station_id":"ce4bhph2rcd13ifvqheg","pricing_plan_id":"cebpf4jnsgd1na2vs0mg"},{"bike_id":"02ee1f8c-c807-460c-8cd5-17d596121f3d","system_id":"levelo_inurba_marseille","lat":43.29299,"lon":5.37452,"is_reserved":false,"is_disabled":false,"rental_uris":{"android":"levelo://app?vid=02ee1f8c-c807-460c-8cd5-17d596121f3d","ios":"levelo://app?vid=02ee1f8c-c807-460c-8cd5-17d596121f3d"},"vehicle_type_id":"4","last_reported":1746555275,"current_range_meters":6000,"station_id":"ce4bgi12rcd13ifvqb70","pricing_plan_id":"cebpf4jnsgd1na2vs0mg"},{"bike_id":"416f578b-a76d-4698-b5ca-69135ef4b579","system_id":"levelo_inurba_marseille","lat":43.2417,"lon":5.36395,"is_reserved":false,"is_disabled":false,"rental_uris":{"android":"levelo://app?vid=416f578b-a76d-4698-b5ca-69135ef4b579","ios":"levelo://app?vid=416f578b-a76d-4698-b5ca-69135ef4b579"},"vehicle_type_id":"4","last_reported":1746555275,"current_range_meters":6000,"station_id":"cpo36qri1sfpv3e86is0","pricing_plan_id":"cebpf4jnsgd1na2vs0mg"},{"bike_id":"83cc1842-773c-46bc-8be1-caa63d83c3c2","system_id":"levelo_inurba_marseille","lat":43.25946,"lon":5.39472,"is_reserved":false,"is_disabled":false,"rental_uris":{"android":"levelo://app?vid=83cc1842-773c-46bc-8be1-caa63d83c3c2","ios":"levelo://app?vid=83cc1842-773c-46bc-8be1-caa63d83c3c2"},"vehicle_type_id":"4","last_reported":1746555275,"current_range_meters":6000,"station_id":"","pricing_plan_id":"cebpf4jnsgd1na2vs0mg"},{"bike_id":"e7adc2c2-6808-4c63-a1b1-cceeef4a062c","system_id":"levelo_inurba_marseille","lat":43.31152,"lon":5.37274,"is_reserved":false,"is_disabled":false,"rental_uris":{"android":"levelo://app?vid=e7adc2c2-6808-4c63-a1b1-cceeef4a062c","ios":"levelo://app?vid=e7adc2c2-6808-4c63-a1b1-cceeef4a062c"},"vehicle_type_id":"4","last_reported":1746555275,"current_range_meters":6400,"station_id":"","pricing_plan_id":"cebpf4jnsgd1na2vs0mg"},{"bike_id":"50f3fcab-2f9e-4031-bf4d-a64e50e1255e","system_id":"levelo_inurba_marseille","lat":43.31523,"lon":5.38035,"is_reserved":false,"is_disabled":false,"rental_uris":{"android":"levelo://app?vid=50f3fcab-2f9e-4031-bf4d-a64e50e1255e","ios":"levelo://app?vid=50f3fcab-2f9e-4031-bf4d-a64e50e1255e"},"vehicle_type_id":"4","last_reported":1746555275,"current_range_meters":6400,"station_id":"ce4bhsp2rcd13ifvqi50","pricing_plan_id":"cebpf4jnsgd1na2vs0mg"},{"bike_id":"550492a7-f2aa-425c-80dc-2d432d80b11f","system_id":"levelo_inurba_marseille","lat":43.30332,"lon":5.40429,"is_reserved":false,"is_disabled":false,"rental_uris":{"android":"levelo://app?vid=550492a7-f2aa-425c-80dc-2d432d80b11f","ios":"levelo://app?vid=550492a7-f2aa-425c-80dc-2d432d80b11f"},"vehicle_type_id":"4","last_reported":1746555275,"current_range_meters":6800,"station_id":"ce4bh012rcd13ifvqd10","pricing_plan_id":"cebpf4jnsgd1na2vs0mg"},{"bike_id":"e520bf2e-defc-4483-a84f-c8272ed0450a","system_id":"levelo_inurba_marseille","lat":43.31755,"lon":5.39014,"is_reserved":false,"is_disabled":false,"rental_uris":{"android":"levelo://app?vid=e520bf2e-defc-4483-a84f-c8272ed0450a","ios":"levelo://app?vid=e520bf2e-defc-4483-a84f-c8272ed0450a"},"vehicle_type_id":"4","last_reported":1746555275,"current_range_meters":6800,"station_id":"ce4bhqp2rcd13ifvqhng","pricing_plan_id":"cebpf4jnsgd1na2vs0mg"},{"bike_id":"8518895d-e505-4635-8463-a83b14baaa2f","system_id":"levelo_inurba_marseille","lat":43.31073,"lon":5.38354,"is_reserved":false,"is_disabled":false,"rental_uris":{"android":"levelo://app?vid=8518895d-e505-4635-8463-a83b14baaa2f","ios":"levelo://app?vid=8518895d-e505-4635-8463-a83b14baaa2f"},"vehicle_type_id":"4","last_reported":1746555275,"current_range_meters":6800,"station_id":"ce4bgv92rcd13ifvqcr0","pricing_plan_id":"cebpf4jnsgd1na2vs0mg"},{"bike_id":"e952849c-e6c5-4d1b-9a44-b0ce055333c5","system_id":"levelo_inurba_marseille","lat":43.246447,"lon":5.388907,"is_reserved":false,"is_disabled":false,"rental_uris":{"android":"levelo://app?vid=e952849c-e6c5-4d1b-9a44-b0ce055333c5","ios":"levelo://app?vid=e952849c-e6c5-4d1b-9a44-b0ce055333c5"},"vehicle_type_id":"4","last_reported":1746555275,"current_range_meters":6800,"station_id":"ce4bhg12rcd13ifvqf60","pricing_plan_id":"cebpf4jnsgd1na2vs0mg"},{"bike_id":"6b57af6f-c805-405c-9eb5-0eb3b2f9a209","system_id":"levelo_inurba_marseille","lat":43.31163,"lon":5.38719,"is_reserved":false,"is_disabled":false,"rental_uris":{"android":"levelo://app?vid=6b57af6f-c805-405c-9eb5-0eb3b2f9a209","ios":"levelo://app?vid=6b57af6f-c805-405c-9eb5-0eb3b2f9a209"},"vehicle_type_id":"4","last_reported":1746555275,"current_range_meters":6800,"station_id":"ce4bgv12rcd13ifvqcp0","pricing_plan_id":"cebpf4jnsgd1na2vs0mg"},{"bike_id":"50ce004f-6dd8-4c68-9ddd-e7225450f321","system_id":"levelo_inurba_marseille","lat":43.2885,"lon":5.39305,"is_reserved":false,"is_disabled":false,"rental_uris":{"android":"levelo://app?vid=50ce004f-6dd8-4c68-9ddd-e7225450f321","ios":"levelo://app?vid=50ce004f-6dd8-4c68-9ddd-e7225450f321"},"vehicle_type_id":"4","last_reported":1746555275,"current_range_meters":6800,"station_id":"ce4bh2p2rcd13ifvqdi0","pricing_plan_id":"cebpf4jnsgd1na2vs0mg"},{"bike_id":"c43d1ebc-e0bf-469b-9736-e2426b444af2","system_id":"levelo_inurba_marseille","lat":43.3043,"lon":5.38886,"is_reserved":false,"is_disabled":false,"rental_uris":{"android":"levelo://app?vid=c43d1ebc-e0bf-469b-9736-e2426b444af2","ios":"levelo://app?vid=c43d1ebc-e0bf-469b-9736-e2426b444af2"},"vehicle_type_id":"4","last_reported":1746555275,"current_range_meters":6800,"station_id":"ce4bgk12rcd13ifvqbi0","pricing_plan_id":"cebpf4jnsgd1na2vs0mg"},{"bike_id":"c79e0e9a-696d-46bb-b2c3-2d8656b73e8f","system_id":"levelo_inurba_marseille","lat":43.279223,"lon":5.395815,"is_reserved":false,"is_disabled":false,"rental_uris":{"android":"levelo://app?vid=c79e0e9a-696d-46bb-b2c3-2d8656b73e8f","ios":"levelo://app?vid=c79e0e9a-696d-46bb-b2c3-2d8656b73e8f"},"vehicle_type_id":"4","last_reported":1746555275,"current_range_meters":7200,"station_id":"ce4bhf92rcd13ifvqf40","pricing_plan_id":"cebpf4jnsgd1na2vs0mg"},{"bike_id":"bfe26aff-b52c-4015-ba43-736a10d29ef2","system_id":"levelo_inurba_marseille","lat":43.303265,"lon":5.40431,"is_reserved":false,"is_disabled":false,"rental_uris":{"android":"levelo://app?vid=bfe26aff-b52c-4015-ba43-736a10d29ef2","ios":"levelo://app?vid=bfe26aff-b52c-4015-ba43-736a10d29ef2"},"vehicle_type_id":"4","last_reported":1746555275,"current_range_meters":7200,"station_id":"ce4bh012rcd13ifvqd10","pricing_plan_id":"cebpf4jnsgd1na2vs0mg"},{"bike_id":"f6466b48-50e6-4a74-8c77-2209957086c6","system_id":"levelo_inurba_marseille","lat":43.29293,"lon":5.36844,"is_reserved":false,"is_disabled":false,"rental_uris":{"android":"levelo://app?vid=f6466b48-50e6-4a74-8c77-2209957086c6","ios":"levelo://app?vid=f6466b48-50e6-4a74-8c77-2209957086c6"},"vehicle_type_id":"4","last_reported":1746555275,"current_range_meters":7200,"station_id":"ce4bhbp2rcd13ifvqesg","pricing_plan_id":"cebpf4jnsgd1na2vs0mg"},{"bike_id":"985c4e2e-b75f-4a7c-8494-6b3ff39cd703","system_id":"levelo_inurba_marseille","lat":43.27808,"lon":5.40713,"is_reserved":false,"is_disabled":false,"rental_uris":{"android":"levelo://app?vid=985c4e2e-b75f-4a7c-8494-6b3ff39cd703","ios":"levelo://app?vid=985c4e2e-b75f-4a7c-8494-6b3ff39cd703"},"vehicle_type_id":"4","last_reported":1746555275,"current_range_meters":7200,"station_id":"ce4bhnh2rcd13ifvqgtg","pricing_plan_id":"cebpf4jnsgd1na2vs0mg"},{"bike_id":"0c17be15-a41d-4950-b3da-566199bc2f43","system_id":"levelo_inurba_marseille","lat":43.31168,"lon":5.38716,"is_reserved":false,"is_disabled":false,"rental_uris":{"android":"levelo://app?vid=0c17be15-a41d-4950-b3da-566199bc2f43","ios":"levelo://app?vid=0c17be15-a41d-4950-b3da-566199bc2f43"},"vehicle_type_id":"4","last_reported":1746555275,"current_range_meters":7200,"station_id":"ce4bgv12rcd13ifvqcp0","pricing_plan_id":"cebpf4jnsgd1na2vs0mg"},{"bike_id":"af36051c-5493-460b-964e-0615b4187dfc","system_id":"levelo_inurba_marseille","lat":43.30639,"lon":5.40078,"is_reserved":false,"is_disabled":false,"rental_uris":{"android":"levelo://app?vid=af36051c-5493-460b-964e-0615b4187dfc","ios":"levelo://app?vid=af36051c-5493-460b-964e-0615b4187dfc"},"vehicle_type_id":"4","last_reported":1746555275,"current_range_meters":7200,"station_id":"ce4bh112rcd13ifvqda0","pricing_plan_id":"cebpf4jnsgd1na2vs0mg"},{"bike_id":"f58e2bf4-1fef-49a3-99e4-4f5bba038ba7","system_id":"levelo_inurba_marseille","lat":43.297215,"lon":5.368695,"is_reserved":false,"is_disabled":false,"rental_uris":{"android":"levelo://app?vid=f58e2bf4-1fef-49a3-99e4-4f5bba038ba7","ios":"levelo://app?vid=f58e2bf4-1fef-49a3-99e4-4f5bba038ba7"},"vehicle_type_id":"4","last_reported":1746555275,"current_range_meters":7200,"station_id":"","pricing_plan_id":"cebpf4jnsgd1na2vs0mg"},{"bike_id":"941fde67-ebb3-46bf-81eb-f8927af64b21","system_id":"levelo_inurba_marseille","lat":43.29254,"lon":5.38439,"is_reserved":false,"is_disabled":false,"rental_uris":{"android":"levelo://app?vid=941fde67-ebb3-46bf-81eb-f8927af64b21","ios":"levelo://app?vid=941fde67-ebb3-46bf-81eb-f8927af64b21"},"vehicle_type_id":"4","last_reported":1746555275,"current_range_meters":7200,"station_id":"ce4bh692rcd13ifvqea0","pricing_plan_id":"cebpf4jnsgd1na2vs0mg"},{"bike_id":"36cfbc4d-3506-41b9-9db9-c31980340859","system_id":"levelo_inurba_marseille","lat":43.2869,"lon":5.37392,"is_reserved":false,"is_disabled":false,"rental_uris":{"android":"levelo://app?vid=36cfbc4d-3506-41b9-9db9-c31980340859","ios":"levelo://app?vid=36cfbc4d-3506-41b9-9db9-c31980340859"},"vehicle_type_id":"4","last_reported":1746555275,"current_range_meters":7200,"station_id":"ce4bh3p2rcd13ifvqdq0","pricing_plan_id":"cebpf4jnsgd1na2vs0mg"},{"bike_id":"9d3fd1a0-e478-4ebd-9080-d3afe2d04ddf","system_id":"levelo_inurba_marseille","lat":43.33004,"lon":5.39036,"is_reserved":false,"is_disabled":false,"rental_uris":{"android":"levelo://app?vid=9d3fd1a0-e478-4ebd-9080-d3afe2d04ddf","ios":"levelo://app?vid=9d3fd1a0-e478-4ebd-9080-d3afe2d04ddf"},"vehicle_type_id":"4","last_reported":1746555275,"current_range_meters":8000,"station_id":"ce4bhr92rcd13ifvqhrg","pricing_plan_id":"cebpf4jnsgd1na2vs0mg"},{"bike_id":"286a6ab7-0a45-4401-aace-f6c2aeeb4956","system_id":"levelo_inurba_marseille","lat":43.29839,"lon":5.36268,"is_reserved":false,"is_disabled":false,"rental_uris":{"android":"levelo://app?vid=286a6ab7-0a45-4401-aace-f6c2aeeb4956","ios":"levelo://app?vid=286a6ab7-0a45-4401-aace-f6c2aeeb4956"},"vehicle_type_id":"4","last_reported":1746555275,"current_range_meters":8000,"station_id":"ce4bgpp2rcd13ifvqc3g","pricing_plan_id":"cebpf4jnsgd1na2vs0mg"},{"bike_id":"cb11426a-6273-4867-aece-a381efa31fe9","system_id":"levelo_inurba_marseille","lat":43.26551,"lon":5.37301,"is_reserved":false,"is_disabled":false,"rental_uris":{"android":"levelo://app?vid=cb11426a-6273-4867-aece-a381efa31fe9","ios":"levelo://app?vid=cb11426a-6273-4867-aece-a381efa31fe9"},"vehicle_type_id":"4","last_reported":1746555275,"current_range_meters":8000,"station_id":"ce4bhg12rcd13ifvqf70","pricing_plan_id":"cebpf4jnsgd1na2vs0mg"},{"bike_id":"6e2c21db-0baa-4ede-8c9b-539f044fc0a6","system_id":"levelo_inurba_marseille","lat":43.28048,"lon":5.39679,"is_reserved":false,"is_disabled":false,"rental_uris":{"android":"levelo://app?vid=6e2c21db-0baa-4ede-8c9b-539f044fc0a6","ios":"levelo://app?vid=6e2c21db-0baa-4ede-8c9b-539f044fc0a6"},"vehicle_type_id":"4","last_reported":1746555275,"current_range_meters":8000,"station_id":"ce4bho12rcd13ifvqh2g","pricing_plan_id":"cebpf4jnsgd1na2vs0mg"},{"bike_id":"8444e437-c596-4247-8080-295722d4ce39","system_id":"levelo_inurba_marseille","lat":43.28401,"lon":5.375237,"is_reserved":false,"is_disabled":false,"rental_uris":{"android":"levelo://app?vid=8444e437-c596-4247-8080-295722d4ce39","ios":"levelo://app?vid=8444e437-c596-4247-8080-295722d4ce39"},"vehicle_type_id":"4","last_reported":1746555275,"current_range_meters":8000,"station_id":"ce4bh412rcd13ifvqds0","pricing_plan_id":"cebpf4jnsgd1na2vs0mg"},{"bike_id":"9f785001-05b7-4f3b-a2b4-ebf27005fa4a","system_id":"levelo_inurba_marseille","lat":43.29277,"lon":5.36841,"is_reserved":false,"is_disabled":true,"rental_uris":{"android":"levelo://app?vid=9f785001-05b7-4f3b-a2b4-ebf27005fa4a","ios":"levelo://app?vid=9f785001-05b7-4f3b-a2b4-ebf27005fa4a"},"vehicle_type_id":"4","last_reported":1746555275,"current_range_meters":8400,"station_id":"ce4bhbp2rcd13ifvqesg","pricing_plan_id":"cebpf4jnsgd1na2vs0mg"},{"bike_id":"a285d45d-c188-41ba-9d64-786333bd4f8e","system_id":"levelo_inurba_marseille","lat":43.291992,"lon":5.393239,"is_reserved":false,"is_disabled":false,"rental_uris":{"android":"levelo://app?vid=a285d45d-c188-41ba-9d64-786333bd4f8e","ios":"levelo://app?vid=a285d45d-c188-41ba-9d64-786333bd4f8e"},"vehicle_type_id":"4","last_reported":1746555275,"current_range_meters":8400,"station_id":"ce4bh192rcd13ifvqdd0","pricing_plan_id":"cebpf4jnsgd1na2vs0mg"},{"bike_id":"84796d25-aade-4960-ae15-0172d7b5b77e","system_id":"levelo_inurba_marseille","lat":43.314092,"lon":5.393788,"is_reserved":false,"is_disabled":false,"rental_uris":{"android":"levelo://app?vid=84796d25-aade-4960-ae15-0172d7b5b77e","ios":"levelo://app?vid=84796d25-aade-4960-ae15-0172d7b5b77e"},"vehicle_type_id":"4","last_reported":1746555275,"current_range_meters":8400,"station_id":"","pricing_plan_id":"cebpf4jnsgd1na2vs0mg"},{"bike_id":"3488de24-d248-4ccb-be5b-0f7cd36a3f68","system_id":"levelo_inurba_marseille","lat":43.246857,"lon":5.382638,"is_reserved":false,"is_disabled":false,"rental_uris":{"android":"levelo://app?vid=3488de24-d248-4ccb-be5b-0f7cd36a3f68","ios":"levelo://app?vid=3488de24-d248-4ccb-be5b-0f7cd36a3f68"},"vehicle_type_id":"4","last_reported":1746555275,"current_range_meters":8400,"station_id":"ce4bhih2rcd13ifvqfr0","pricing_plan_id":"cebpf4jnsgd1na2vs0mg"},{"bike_id":"3de2115f-44c4-43e4-a8f9-0745786d3a3e","system_id":"levelo_inurba_marseille","lat":43.29527,"lon":5.38534,"is_reserved":false,"is_disabled":false,"rental_uris":{"android":"levelo://app?vid=3de2115f-44c4-43e4-a8f9-0745786d3a3e","ios":"levelo://app?vid=3de2115f-44c4-43e4-a8f9-0745786d3a3e"},"vehicle_type_id":"4","last_reported":1746555275,"current_range_meters":8400,"station_id":"ce4bgih2rcd13ifvqba0","pricing_plan_id":"cebpf4jnsgd1na2vs0mg"},{"bike_id":"6e3c6a7f-22fc-4508-b06d-ebb3d18f9191","system_id":"levelo_inurba_marseille","lat":43.30986,"lon":5.41723,"is_reserved":false,"is_disabled":false,"rental_uris":{"android":"levelo://app?vid=6e3c6a7f-22fc-4508-b06d-ebb3d18f9191","ios":"levelo://app?vid=6e3c6a7f-22fc-4508-b06d-ebb3d18f9191"},"vehicle_type_id":"4","last_reported":1746555275,"current_range_meters":8400,"station_id":"","pricing_plan_id":"cebpf4jnsgd1na2vs0mg"},{"bike_id":"9d8f73eb-df09-4699-86a7-d631e2319093","system_id":"levelo_inurba_marseille","lat":43.262691,"lon":5.374406,"is_reserved":false,"is_disabled":false,"rental_uris":{"android":"levelo://app?vid=9d8f73eb-df09-4699-86a7-d631e2319093","ios":"levelo://app?vid=9d8f73eb-df09-4699-86a7-d631e2319093"},"vehicle_type_id":"4","last_reported":1746555275,"current_range_meters":8400,"station_id":"","pricing_plan_id":"cebpf4jnsgd1na2vs0mg"},{"bike_id":"341eef70-3678-4ac1-a65c-4c2eee12ec06","system_id":"levelo_inurba_marseille","lat":43.29432,"lon":5.39754,"is_reserved":false,"is_disabled":false,"rental_uris":{"android":"levelo://app?vid=341eef70-3678-4ac1-a65c-4c2eee12ec06","ios":"levelo://app?vid=341eef70-3678-4ac1-a65c-4c2eee12ec06"},"vehicle_type_id":"4","last_reported":1746555275,"current_range_meters":8400,"station_id":"ce4bh3h2rcd13ifvqdo0","pricing_plan_id":"cebpf4jnsgd1na2vs0mg"},{"bike_id":"ef85df44-c572-4b38-9810-58afe892c9f4","system_id":"levelo_inurba_marseille","lat":43.27174,"lon":5.409947,"is_reserved":false,"is_disabled":false,"rental_uris":{"android":"levelo://app?vid=ef85df44-c572-4b38-9810-58afe892c9f4","ios":"levelo://app?vid=ef85df44-c572-4b38-9810-58afe892c9f4"},"vehicle_type_id":"4","last_reported":1746555275,"current_range_meters":8400,"station_id":"ce4bhl12rcd13ifvqgf0","pricing_plan_id":"cebpf4jnsgd1na2vs0mg"},{"bike_id":"80a5c19d-59ea-4676-ad69-7c3267e22758","system_id":"levelo_inurba_marseille","lat":43.29925,"lon":5.38756,"is_reserved":false,"is_disabled":false,"rental_uris":{"android":"levelo://app?vid=80a5c19d-59ea-4676-ad69-7c3267e22758","ios":"levelo://app?vid=80a5c19d-59ea-4676-ad69-7c3267e22758"},"vehicle_type_id":"4","last_reported":1746555275,"current_range_meters":8800,"station_id":"","pricing_plan_id":"cebpf4jnsgd1na2vs0mg"},{"bike_id":"47956ac4-b384-4e4d-8f86-d31ccfb14679","system_id":"levelo_inurba_marseille","lat":43.26204,"lon":5.3746,"is_reserved":false,"is_disabled":true,"rental_uris":{"android":"levelo://app?vid=47956ac4-b384-4e4d-8f86-d31ccfb14679","ios":"levelo://app?vid=47956ac4-b384-4e4d-8f86-d31ccfb14679"},"vehicle_type_id":"4","last_reported":1746555275,"current_range_meters":8800,"station_id":"ce4bhgp2rcd13ifvqfc0","pricing_plan_id":"cebpf4jnsgd1na2vs0mg"},{"bike_id":"c2fff035-6128-402a-b38b-ebc94261b3d8","system_id":"levelo_inurba_marseille","lat":43.21205,"lon":5.35066,"is_reserved":false,"is_disabled":false,"rental_uris":{"android":"levelo://app?vid=c2fff035-6128-402a-b38b-ebc94261b3d8","ios":"levelo://app?vid=c2fff035-6128-402a-b38b-ebc94261b3d8"},"vehicle_type_id":"4","last_reported":1746555275,"current_range_meters":8800,"station_id":"st_cvj6sg6p6f1abm77japg","pricing_plan_id":"cebpf4jnsgd1na2vs0mg"},{"bike_id":"0c377d9d-9a3a-47a7-9944-6039314b5e15","system_id":"levelo_inurba_marseille","lat":43.246,"lon":5.40469,"is_reserved":false,"is_disabled":false,"rental_uris":{"android":"levelo://app?vid=0c377d9d-9a3a-47a7-9944-6039314b5e15","ios":"levelo://app?vid=0c377d9d-9a3a-47a7-9944-6039314b5e15"},"vehicle_type_id":"4","last_reported":1746555275,"current_range_meters":8800,"station_id":"","pricing_plan_id":"cebpf4jnsgd1na2vs0mg"},{"bike_id":"503569af-07db-461f-918e-29f89d0c1c24","system_id":"levelo_inurba_marseille","lat":43.22503,"lon":5.34781,"is_reserved":false,"is_disabled":false,"rental_uris":{"android":"levelo://app?vid=503569af-07db-461f-918e-29f89d0c1c24","ios":"levelo://app?vid=503569af-07db-461f-918e-29f89d0c1c24"},"vehicle_type_id":"4","last_reported":1746555275,"current_range_meters":8800,"station_id":"st_cvj5dfep6f1abm77gieg","pricing_plan_id":"cebpf4jnsgd1na2vs0mg"},{"bike_id":"5065d57c-c557-4e50-92c1-b9a172ed439b","system_id":"levelo_inurba_marseille","lat":43.267833,"lon":5.394118,"is_reserved":false,"is_disabled":false,"rental_uris":{"android":"levelo://app?vid=5065d57c-c557-4e50-92c1-b9a172ed439b","ios":"levelo://app?vid=5065d57c-c557-4e50-92c1-b9a172ed439b"},"vehicle_type_id":"4","last_reported":1746555275,"current_range_meters":8800,"station_id":"ce4bhh12rcd13ifvqfg0","pricing_plan_id":"cebpf4jnsgd1na2vs0mg"},{"bike_id":"2cf86696-983d-4f5b-a4cb-606d4883a4aa","system_id":"levelo_inurba_marseille","lat":43.28939,"lon":5.36636,"is_reserved":false,"is_disabled":false,"rental_uris":{"android":"levelo://app?vid=2cf86696-983d-4f5b-a4cb-606d4883a4aa","ios":"levelo://app?vid=2cf86696-983d-4f5b-a4cb-606d4883a4aa"},"vehicle_type_id":"4","last_reported":1746555275,"current_range_meters":8800,"station_id":"ce4bhap2rcd13ifvqek0","pricing_plan_id":"cebpf4jnsgd1na2vs0mg"},{"bike_id":"545f72f0-c38e-4432-947d-5512046004cf","system_id":"levelo_inurba_marseille","lat":43.29302,"lon":5.37448,"is_reserved":false,"is_disabled":false,"rental_uris":{"android":"levelo://app?vid=545f72f0-c38e-4432-947d-5512046004cf","ios":"levelo://app?vid=545f72f0-c38e-4432-947d-5512046004cf"},"vehicle_type_id":"4","last_reported":1746555275,"current_range_meters":9200,"station_id":"ce4bgi12rcd13ifvqb70","pricing_plan_id":"cebpf4jnsgd1na2vs0mg"},{"bike_id":"7a2e8a0d-b9f1-43ed-ac90-7f66ef00bc85","system_id":"levelo_inurba_marseille","lat":43.23964,"lon":5.36626,"is_reserved":false,"is_disabled":false,"rental_uris":{"android":"levelo://app?vid=7a2e8a0d-b9f1-43ed-ac90-7f66ef00bc85","ios":"levelo://app?vid=7a2e8a0d-b9f1-43ed-ac90-7f66ef00bc85"},"vehicle_type_id":"4","last_reported":1746555275,"current_range_meters":9200,"station_id":"ce4bhi12rcd13ifvqfp0","pricing_plan_id":"cebpf4jnsgd1na2vs0mg"},{"bike_id":"a5b58b88-d0e3-4b5a-8a97-c190b646012d","system_id":"levelo_inurba_marseille","lat":43.31354,"lon":5.38497,"is_reserved":false,"is_disabled":false,"rental_uris":{"android":"levelo://app?vid=a5b58b88-d0e3-4b5a-8a97-c190b646012d","ios":"levelo://app?vid=a5b58b88-d0e3-4b5a-8a97-c190b646012d"},"vehicle_type_id":"4","last_reported":1746555275,"current_range_meters":9200,"station_id":"ce4bgt92rcd13ifvqcf0","pricing_plan_id":"cebpf4jnsgd1na2vs0mg"},{"bike_id":"7a6416d9-9e95-4e18-9d44-a2b8f60cec46","system_id":"levelo_inurba_marseille","lat":43.31322,"lon":5.39697,"is_reserved":false,"is_disabled":false,"rental_uris":{"android":"levelo://app?vid=7a6416d9-9e95-4e18-9d44-a2b8f60cec46","ios":"levelo://app?vid=7a6416d9-9e95-4e18-9d44-a2b8f60cec46"},"vehicle_type_id":"4","last_reported":1746555275,"current_range_meters":9200,"station_id":"ce4bgvp2rcd13ifvqcu0","pricing_plan_id":"cebpf4jnsgd1na2vs0mg"},{"bike_id":"e068620a-4c5f-46b2-8ba9-4c5243068b8a","system_id":"levelo_inurba_marseille","lat":43.299,"lon":5.37474,"is_reserved":false,"is_disabled":false,"rental_uris":{"android":"levelo://app?vid=e068620a-4c5f-46b2-8ba9-4c5243068b8a","ios":"levelo://app?vid=e068620a-4c5f-46b2-8ba9-4c5243068b8a"},"vehicle_type_id":"4","last_reported":1746555275,"current_range_meters":9200,"station_id":"ce4bgjh2rcd13ifvqbg0","pricing_plan_id":"cebpf4jnsgd1na2vs0mg"},{"bike_id":"897470dd-5179-44ab-9e36-9d7a83a69cbe","system_id":"levelo_inurba_marseille","lat":43.30244,"lon":5.40057,"is_reserved":false,"is_disabled":false,"rental_uris":{"android":"levelo://app?vid=897470dd-5179-44ab-9e36-9d7a83a69cbe","ios":"levelo://app?vid=897470dd-5179-44ab-9e36-9d7a83a69cbe"},"vehicle_type_id":"4","last_reported":1746555275,"current_range_meters":9600,"station_id":"ce4bgvh2rcd13ifvqcs0","pricing_plan_id":"cebpf4jnsgd1na2vs0mg"},{"bike_id":"87362888-0488-4fb8-aa14-26c31a43f3fa","system_id":"levelo_inurba_marseille","lat":43.26026,"lon":5.37548,"is_reserved":false,"is_disabled":false,"rental_uris":{"android":"levelo://app?vid=87362888-0488-4fb8-aa14-26c31a43f3fa","ios":"levelo://app?vid=87362888-0488-4fb8-aa14-26c31a43f3fa"},"vehicle_type_id":"4","last_reported":1746555275,"current_range_meters":9600,"station_id":"ce4bhgh2rcd13ifvqfa0","pricing_plan_id":"cebpf4jnsgd1na2vs0mg"},{"bike_id":"c9592205-9409-4f74-aed1-7c4141a58caa","system_id":"levelo_inurba_marseille","lat":43.271366,"lon":5.363669,"is_reserved":false,"is_disabled":false,"rental_uris":{"android":"levelo://app?vid=c9592205-9409-4f74-aed1-7c4141a58caa","ios":"levelo://app?vid=c9592205-9409-4f74-aed1-7c4141a58caa"},"vehicle_type_id":"4","last_reported":1746555275,"current_range_meters":9600,"station_id":"","pricing_plan_id":"cebpf4jnsgd1na2vs0mg"},{"bike_id":"f6109f77-c014-4a9b-9a9e-5efc9867f02f","system_id":"levelo_inurba_marseille","lat":43.28962,"lon":5.37846,"is_reserved":false,"is_disabled":false,"rental_uris":{"android":"levelo://app?vid=f6109f77-c014-4a9b-9a9e-5efc9867f02f","ios":"levelo://app?vid=f6109f77-c014-4a9b-9a9e-5efc9867f02f"},"vehicle_type_id":"4","last_reported":1746555275,"current_range_meters":9600,"station_id":"ce4bh9p2rcd13ifvqed0","pricing_plan_id":"cebpf4jnsgd1na2vs0mg"},{"bike_id":"943d0601-5d73-468b-922c-7ef604961a21","system_id":"levelo_inurba_marseille","lat":43.211911,"lon":5.350759,"is_reserved":false,"is_disabled":false,"rental_uris":{"android":"levelo://app?vid=943d0601-5d73-468b-922c-7ef604961a21","ios":"levelo://app?vid=943d0601-5d73-468b-922c-7ef604961a21"},"vehicle_type_id":"4","last_reported":1746555275,"current_range_meters":9600,"station_id":"st_cvj6sg6p6f1abm77japg","pricing_plan_id":"cebpf4jnsgd1na2vs0mg"},{"bike_id":"fc453207-e37b-4b13-ae20-4430b65eb533","system_id":"levelo_inurba_marseille","lat":43.32442,"lon":5.39127,"is_reserved":false,"is_disabled":false,"rental_uris":{"android":"levelo://app?vid=fc453207-e37b-4b13-ae20-4430b65eb533","ios":"levelo://app?vid=fc453207-e37b-4b13-ae20-4430b65eb533"},"vehicle_type_id":"4","last_reported":1746555275,"current_range_meters":10000,"station_id":"","pricing_plan_id":"cebpf4jnsgd1na2vs0mg"},{"bike_id":"747da85d-16f7-46ac-bee6-c3f3a0c126c7","system_id":"levelo_inurba_marseille","lat":43.31525,"lon":5.38039,"is_reserved":false,"is_disabled":false,"rental_uris":{"android":"levelo://app?vid=747da85d-16f7-46ac-bee6-c3f3a0c126c7","ios":"levelo://app?vid=747da85d-16f7-46ac-bee6-c3f3a0c126c7"},"vehicle_type_id":"4","last_reported":1746555275,"current_range_meters":10000,"station_id":"ce4bhsp2rcd13ifvqi50","pricing_plan_id":"cebpf4jnsgd1na2vs0mg"},{"bike_id":"059bb91a-0769-48cd-9e75-e7d71912752c","system_id":"levelo_inurba_marseille","lat":43.27612,"lon":5.36105,"is_reserved":false,"is_disabled":false,"rental_uris":{"android":"levelo://app?vid=059bb91a-0769-48cd-9e75-e7d71912752c","ios":"levelo://app?vid=059bb91a-0769-48cd-9e75-e7d71912752c"},"vehicle_type_id":"4","last_reported":1746555275,"current_range_meters":10000,"station_id":"ce4bgj92rcd13ifvqbe0","pricing_plan_id":"cebpf4jnsgd1na2vs0mg"},{"bike_id":"6dfdb266-0779-4e92-a863-a5f0ccfd8e31","system_id":"levelo_inurba_marseille","lat":43.24081,"lon":5.37751,"is_reserved":false,"is_disabled":false,"rental_uris":{"android":"levelo://app?vid=6dfdb266-0779-4e92-a863-a5f0ccfd8e31","ios":"levelo://app?vid=6dfdb266-0779-4e92-a863-a5f0ccfd8e31"},"vehicle_type_id":"4","last_reported":1746555275,"current_range_meters":10800,"station_id":"ce4bhnp2rcd13ifvqgvg","pricing_plan_id":"cebpf4jnsgd1na2vs0mg"},{"bike_id":"2d34c47c-7e86-4bb4-ab5f-8da030cb95d8","system_id":"levelo_inurba_marseille","lat":43.26224,"lon":5.40449,"is_reserved":false,"is_disabled":false,"rental_uris":{"android":"levelo://app?vid=2d34c47c-7e86-4bb4-ab5f-8da030cb95d8","ios":"levelo://app?vid=2d34c47c-7e86-4bb4-ab5f-8da030cb95d8"},"vehicle_type_id":"4","last_reported":1746555275,"current_range_meters":10800,"station_id":"ce4bhmh2rcd13ifvqgmg","pricing_plan_id":"cebpf4jnsgd1na2vs0mg"},{"bike_id":"a336803a-5925-4136-8191-0db1c55e291d","system_id":"levelo_inurba_marseille","lat":43.26677,"lon":5.38271,"is_reserved":false,"is_disabled":false,"rental_uris":{"android":"levelo://app?vid=a336803a-5925-4136-8191-0db1c55e291d","ios":"levelo://app?vid=a336803a-5925-4136-8191-0db1c55e291d"},"vehicle_type_id":"4","last_reported":1746555275,"current_range_meters":10800,"station_id":"ce4bhg92rcd13ifvqf90","pricing_plan_id":"cebpf4jnsgd1na2vs0mg"},{"bike_id":"328acd36-0bf7-442e-a9c6-c6f0bf8544a2","system_id":"levelo_inurba_marseille","lat":43.2998,"lon":5.37177,"is_reserved":false,"is_disabled":false,"rental_uris":{"android":"levelo://app?vid=328acd36-0bf7-442e-a9c6-c6f0bf8544a2","ios":"levelo://app?vid=328acd36-0bf7-442e-a9c6-c6f0bf8544a2"},"vehicle_type_id":"4","last_reported":1746555275,"current_range_meters":10800,"station_id":"ce4bgr92rcd13ifvqc7g","pricing_plan_id":"cebpf4jnsgd1na2vs0mg"},{"bike_id":"bbf01d4f-ee29-42a1-b282-5114e8fe0f11","system_id":"levelo_inurba_marseille","lat":43.26039,"lon":5.37551,"is_reserved":false,"is_disabled":false,"rental_uris":{"android":"levelo://app?vid=bbf01d4f-ee29-42a1-b282-5114e8fe0f11","ios":"levelo://app?vid=bbf01d4f-ee29-42a1-b282-5114e8fe0f11"},"vehicle_type_id":"4","last_reported":1746555275,"current_range_meters":10800,"station_id":"ce4bhgh2rcd13ifvqfa0","pricing_plan_id":"cebpf4jnsgd1na2vs0mg"},{"bike_id":"2a165751-3c21-4ed3-bda5-aaf3aeab8496","system_id":"levelo_inurba_marseille","lat":43.288573,"lon":5.358603,"is_reserved":false,"is_disabled":false,"rental_uris":{"android":"levelo://app?vid=2a165751-3c21-4ed3-bda5-aaf3aeab8496","ios":"levelo://app?vid=2a165751-3c21-4ed3-bda5-aaf3aeab8496"},"vehicle_type_id":"4","last_reported":1746555275,"current_range_meters":10800,"station_id":"ce4bhb12rcd13ifvqem0","pricing_plan_id":"cebpf4jnsgd1na2vs0mg"},{"bike_id":"3ceeaae0-78a4-426f-89a7-796ed7c38e52","system_id":"levelo_inurba_marseille","lat":43.29265,"lon":5.38423,"is_reserved":false,"is_disabled":false,"rental_uris":{"android":"levelo://app?vid=3ceeaae0-78a4-426f-89a7-796ed7c38e52","ios":"levelo://app?vid=3ceeaae0-78a4-426f-89a7-796ed7c38e52"},"vehicle_type_id":"4","last_reported":1746555275,"current_range_meters":10800,"station_id":"ce4bh692rcd13ifvqea0","pricing_plan_id":"cebpf4jnsgd1na2vs0mg"},{"bike_id":"1ba4c65a-5b0a-44c1-972a-cc2e80abc9bf","system_id":"levelo_inurba_marseille","lat":43.27062,"lon":5.4228,"is_reserved":false,"is_disabled":false,"rental_uris":{"android":"levelo://app?vid=1ba4c65a-5b0a-44c1-972a-cc2e80abc9bf","ios":"levelo://app?vid=1ba4c65a-5b0a-44c1-972a-cc2e80abc9bf"},"vehicle_type_id":"4","last_reported":1746555275,"current_range_meters":10800,"station_id":"ce4bhk92rcd13ifvqgb0","pricing_plan_id":"cebpf4jnsgd1na2vs0mg"},{"bike_id":"3f84d55c-f7b3-443f-a8ba-1f83ba8291a2","system_id":"levelo_inurba_marseille","lat":43.21189,"lon":5.35064,"is_reserved":false,"is_disabled":false,"rental_uris":{"android":"levelo://app?vid=3f84d55c-f7b3-443f-a8ba-1f83ba8291a2","ios":"levelo://app?vid=3f84d55c-f7b3-443f-a8ba-1f83ba8291a2"},"vehicle_type_id":"4","last_reported":1746555275,"current_range_meters":10800,"station_id":"st_cvj6sg6p6f1abm77japg","pricing_plan_id":"cebpf4jnsgd1na2vs0mg"},{"bike_id":"1e6ef1b5-4779-4cb6-b6c7-5c78c344b341","system_id":"levelo_inurba_marseille","lat":43.23176,"lon":5.3999,"is_reserved":false,"is_disabled":false,"rental_uris":{"android":"levelo://app?vid=1e6ef1b5-4779-4cb6-b6c7-5c78c344b341","ios":"levelo://app?vid=1e6ef1b5-4779-4cb6-b6c7-5c78c344b341"},"vehicle_type_id":"4","last_reported":1746555275,"current_range_meters":11200,"station_id":"ce4bhn12rcd13ifvqgqg","pricing_plan_id":"cebpf4jnsgd1na2vs0mg"},{"bike_id":"d6918ebc-6bfa-45b6-9f2f-bdf2010f816b","system_id":"levelo_inurba_marseille","lat":43.30811,"lon":5.43544,"is_reserved":false,"is_disabled":false,"rental_uris":{"android":"levelo://app?vid=d6918ebc-6bfa-45b6-9f2f-bdf2010f816b","ios":"levelo://app?vid=d6918ebc-6bfa-45b6-9f2f-bdf2010f816b"},"vehicle_type_id":"4","last_reported":1746555275,"current_range_meters":11200,"station_id":"ce4bhph2rcd13ifvqheg","pricing_plan_id":"cebpf4jnsgd1na2vs0mg"},{"bike_id":"7e07653f-7c13-4983-a2e1-3da5c96f1bd5","system_id":"levelo_inurba_marseille","lat":43.29256,"lon":5.40894,"is_reserved":false,"is_disabled":false,"rental_uris":{"android":"levelo://app?vid=7e07653f-7c13-4983-a2e1-3da5c96f1bd5","ios":"levelo://app?vid=7e07653f-7c13-4983-a2e1-3da5c96f1bd5"},"vehicle_type_id":"4","last_reported":1746555275,"current_range_meters":11200,"station_id":"ce4bh192rcd13ifvqdc0","pricing_plan_id":"cebpf4jnsgd1na2vs0mg"},{"bike_id":"8d31de6f-b022-4d8a-a11c-2fb279e9f105","system_id":"levelo_inurba_marseille","lat":43.284127,"lon":5.34985,"is_reserved":false,"is_disabled":false,"rental_uris":{"android":"levelo://app?vid=8d31de6f-b022-4d8a-a11c-2fb279e9f105","ios":"levelo://app?vid=8d31de6f-b022-4d8a-a11c-2fb279e9f105"},"vehicle_type_id":"4","last_reported":1746555275,"current_range_meters":11200,"station_id":"ce4bhbh2rcd13ifvqepg","pricing_plan_id":"cebpf4jnsgd1na2vs0mg"},{"bike_id":"f6cabdf9-a769-4cc5-8b53-d3f43ad02333","system_id":"levelo_inurba_marseille","lat":43.31711,"lon":5.43709,"is_reserved":false,"is_disabled":false,"rental_uris":{"android":"levelo://app?vid=f6cabdf9-a769-4cc5-8b53-d3f43ad02333","ios":"levelo://app?vid=f6cabdf9-a769-4cc5-8b53-d3f43ad02333"},"vehicle_type_id":"4","last_reported":1746555275,"current_range_meters":11200,"station_id":"ce4bhp92rcd13ifvqhcg","pricing_plan_id":"cebpf4jnsgd1na2vs0mg"},{"bike_id":"aa0ff8ba-f75a-4963-8e38-b1ad71967fad","system_id":"levelo_inurba_marseille","lat":43.26488,"lon":5.39536,"is_reserved":false,"is_disabled":false,"rental_uris":{"android":"levelo://app?vid=aa0ff8ba-f75a-4963-8e38-b1ad71967fad","ios":"levelo://app?vid=aa0ff8ba-f75a-4963-8e38-b1ad71967fad"},"vehicle_type_id":"4","last_reported":1746555275,"current_range_meters":11600,"station_id":"ce4bhi12rcd13ifvqfq0","pricing_plan_id":"cebpf4jnsgd1na2vs0mg"},{"bike_id":"b9d889a1-6f8f-4145-8432-407a3df656c7","system_id":"levelo_inurba_marseille","lat":43.24168,"lon":5.36394,"is_reserved":false,"is_disabled":false,"rental_uris":{"android":"levelo://app?vid=b9d889a1-6f8f-4145-8432-407a3df656c7","ios":"levelo://app?vid=b9d889a1-6f8f-4145-8432-407a3df656c7"},"vehicle_type_id":"4","last_reported":1746555275,"current_range_meters":11600,"station_id":"cpo36qri1sfpv3e86is0","pricing_plan_id":"cebpf4jnsgd1na2vs0mg"},{"bike_id":"917f5b58-aba1-4a22-990d-41155db889c4","system_id":"levelo_inurba_marseille","lat":43.292,"lon":5.357903,"is_reserved":false,"is_disabled":false,"rental_uris":{"android":"levelo://app?vid=917f5b58-aba1-4a22-990d-41155db889c4","ios":"levelo://app?vid=917f5b58-aba1-4a22-990d-41155db889c4"},"vehicle_type_id":"4","last_reported":1746555275,"current_range_meters":11600,"station_id":"ce4bhb12rcd13ifvqel0","pricing_plan_id":"cebpf4jnsgd1na2vs0mg"},{"bike_id":"9b8a00ec-fdb2-49a0-ab5c-2b782631ffeb","system_id":"levelo_inurba_marseille","lat":43.28999,"lon":5.35606,"is_reserved":false,"is_disabled":false,"rental_uris":{"android":"levelo://app?vid=9b8a00ec-fdb2-49a0-ab5c-2b782631ffeb","ios":"levelo://app?vid=9b8a00ec-fdb2-49a0-ab5c-2b782631ffeb"},"vehicle_type_id":"4","last_reported":1746555275,"current_range_meters":11600,"station_id":"ce4bhb92rcd13ifvqen0","pricing_plan_id":"cebpf4jnsgd1na2vs0mg"},{"bike_id":"ffb75ed6-e10e-4842-bdfd-17d4dcf5342a","system_id":"levelo_inurba_marseille","lat":43.29228,"lon":5.36063,"is_reserved":false,"is_disabled":false,"rental_uris":{"android":"levelo://app?vid=ffb75ed6-e10e-4842-bdfd-17d4dcf5342a","ios":"levelo://app?vid=ffb75ed6-e10e-4842-bdfd-17d4dcf5342a"},"vehicle_type_id":"4","last_reported":1746555275,"current_range_meters":11600,"station_id":"ce4bhbh2rcd13ifvqeqg","pricing_plan_id":"cebpf4jnsgd1na2vs0mg"},{"bike_id":"8c1990c9-d19f-4c89-99cc-b6e9d4dc9693","system_id":"levelo_inurba_marseille","lat":43.31176,"lon":5.38709,"is_reserved":false,"is_disabled":false,"rental_uris":{"android":"levelo://app?vid=8c1990c9-d19f-4c89-99cc-b6e9d4dc9693","ios":"levelo://app?vid=8c1990c9-d19f-4c89-99cc-b6e9d4dc9693"},"vehicle_type_id":"4","last_reported":1746555275,"current_range_meters":11600,"station_id":"ce4bgv12rcd13ifvqcp0","pricing_plan_id":"cebpf4jnsgd1na2vs0mg"},{"bike_id":"0ab4220c-25f6-439c-9704-c3ed7cbbd9eb","system_id":"levelo_inurba_marseille","lat":43.312683,"lon":5.40172,"is_reserved":false,"is_disabled":false,"rental_uris":{"android":"levelo://app?vid=0ab4220c-25f6-439c-9704-c3ed7cbbd9eb","ios":"levelo://app?vid=0ab4220c-25f6-439c-9704-c3ed7cbbd9eb"},"vehicle_type_id":"4","last_reported":1746555275,"current_range_meters":11600,"station_id":"ce4bh092rcd13ifvqd30","pricing_plan_id":"cebpf4jnsgd1na2vs0mg"},{"bike_id":"4d41f66c-f615-49b2-a6d7-735e22d421fb","system_id":"levelo_inurba_marseille","lat":43.23176,"lon":5.3999,"is_reserved":false,"is_disabled":false,"rental_uris":{"android":"levelo://app?vid=4d41f66c-f615-49b2-a6d7-735e22d421fb","ios":"levelo://app?vid=4d41f66c-f615-49b2-a6d7-735e22d421fb"},"vehicle_type_id":"4","last_reported":1746555275,"current_range_meters":11600,"station_id":"ce4bhn12rcd13ifvqgqg","pricing_plan_id":"cebpf4jnsgd1na2vs0mg"},{"bike_id":"04ec000f-2fe3-423a-af92-d2b786646514","system_id":"levelo_inurba_marseille","lat":43.26206,"lon":5.37449,"is_reserved":false,"is_disabled":false,"rental_uris":{"android":"levelo://app?vid=04ec000f-2fe3-423a-af92-d2b786646514","ios":"levelo://app?vid=04ec000f-2fe3-423a-af92-d2b786646514"},"vehicle_type_id":"4","last_reported":1746555275,"current_range_meters":12000,"station_id":"ce4bhgp2rcd13ifvqfc0","pricing_plan_id":"cebpf4jnsgd1na2vs0mg"},{"bike_id":"e61d9d28-a387-4a61-b1c5-1cbde5b83087","system_id":"levelo_inurba_marseille","lat":43.28418,"lon":5.34978,"is_reserved":false,"is_disabled":false,"rental_uris":{"android":"levelo://app?vid=e61d9d28-a387-4a61-b1c5-1cbde5b83087","ios":"levelo://app?vid=e61d9d28-a387-4a61-b1c5-1cbde5b83087"},"vehicle_type_id":"4","last_reported":1746555275,"current_range_meters":12000,"station_id":"ce4bhbh2rcd13ifvqepg","pricing_plan_id":"cebpf4jnsgd1na2vs0mg"},{"bike_id":"cf67a73e-fc77-4f04-af94-bd68b23f4822","system_id":"levelo_inurba_marseille","lat":43.30256,"lon":5.40077,"is_reserved":false,"is_disabled":false,"rental_uris":{"android":"levelo://app?vid=cf67a73e-fc77-4f04-af94-bd68b23f4822","ios":"levelo://app?vid=cf67a73e-fc77-4f04-af94-bd68b23f4822"},"vehicle_type_id":"4","last_reported":1746555275,"current_range_meters":12000,"station_id":"ce4bgvh2rcd13ifvqcs0","pricing_plan_id":"cebpf4jnsgd1na2vs0mg"},{"bike_id":"b56a0599-26d6-41a2-90ab-9e079181cb30","system_id":"levelo_inurba_marseille","lat":43.265509,"lon":5.372843,"is_reserved":false,"is_disabled":false,"rental_uris":{"android":"levelo://app?vid=b56a0599-26d6-41a2-90ab-9e079181cb30","ios":"levelo://app?vid=b56a0599-26d6-41a2-90ab-9e079181cb30"},"vehicle_type_id":"4","last_reported":1746555275,"current_range_meters":12000,"station_id":"","pricing_plan_id":"cebpf4jnsgd1na2vs0mg"},{"bike_id":"b6be7bf1-9d8c-4b04-8ff2-edb645f0d4fc","system_id":"levelo_inurba_marseille","lat":43.28404,"lon":5.3751,"is_reserved":false,"is_disabled":false,"rental_uris":{"android":"levelo://app?vid=b6be7bf1-9d8c-4b04-8ff2-edb645f0d4fc","ios":"levelo://app?vid=b6be7bf1-9d8c-4b04-8ff2-edb645f0d4fc"},"vehicle_type_id":"4","last_reported":1746555275,"current_range_meters":12000,"station_id":"ce4bh412rcd13ifvqds0","pricing_plan_id":"cebpf4jnsgd1na2vs0mg"},{"bike_id":"88203f97-6f17-409b-88c5-5a9555661500","system_id":"levelo_inurba_marseille","lat":43.27669,"lon":5.38879,"is_reserved":false,"is_disabled":false,"rental_uris":{"android":"levelo://app?vid=88203f97-6f17-409b-88c5-5a9555661500","ios":"levelo://app?vid=88203f97-6f17-409b-88c5-5a9555661500"},"vehicle_type_id":"4","last_reported":1746555275,"current_range_meters":12000,"station_id":"ce4bhi12rcd13ifvqfo0","pricing_plan_id":"cebpf4jnsgd1na2vs0mg"},{"bike_id":"fb2ffea4-4f75-4769-b4fe-8bbfc285107e","system_id":"levelo_inurba_marseille","lat":43.26205,"lon":5.37441,"is_reserved":false,"is_disabled":false,"rental_uris":{"android":"levelo://app?vid=fb2ffea4-4f75-4769-b4fe-8bbfc285107e","ios":"levelo://app?vid=fb2ffea4-4f75-4769-b4fe-8bbfc285107e"},"vehicle_type_id":"4","last_reported":1746555275,"current_range_meters":12000,"station_id":"ce4bhgp2rcd13ifvqfc0","pricing_plan_id":"cebpf4jnsgd1na2vs0mg"},{"bike_id":"5af4c869-0cf6-42d7-b8b6-16441487d84a","system_id":"levelo_inurba_marseille","lat":43.279069,"lon":5.380129,"is_reserved":false,"is_disabled":false,"rental_uris":{"android":"levelo://app?vid=5af4c869-0cf6-42d7-b8b6-16441487d84a","ios":"levelo://app?vid=5af4c869-0cf6-42d7-b8b6-16441487d84a"},"vehicle_type_id":"4","last_reported":1746555275,"current_range_meters":12000,"station_id":"ce4bhf92rcd13ifvqf50","pricing_plan_id":"cebpf4jnsgd1na2vs0mg"},{"bike_id":"b4564f3c-232d-4565-b333-b9d3b872a4c3","system_id":"levelo_inurba_marseille","lat":43.309345,"lon":5.404225,"is_reserved":false,"is_disabled":false,"rental_uris":{"android":"levelo://app?vid=b4564f3c-232d-4565-b333-b9d3b872a4c3","ios":"levelo://app?vid=b4564f3c-232d-4565-b333-b9d3b872a4c3"},"vehicle_type_id":"4","last_reported":1746555275,"current_range_meters":12000,"station_id":"","pricing_plan_id":"cebpf4jnsgd1na2vs0mg"},{"bike_id":"b7d80097-298e-4709-9451-f9f082bbe887","system_id":"levelo_inurba_marseille","lat":43.3043,"lon":5.38882,"is_reserved":false,"is_disabled":false,"rental_uris":{"android":"levelo://app?vid=b7d80097-298e-4709-9451-f9f082bbe887","ios":"levelo://app?vid=b7d80097-298e-4709-9451-f9f082bbe887"},"vehicle_type_id":"4","last_reported":1746555275,"current_range_meters":12400,"station_id":"ce4bgk12rcd13ifvqbi0","pricing_plan_id":"cebpf4jnsgd1na2vs0mg"},{"bike_id":"b4bac287-3615-423a-bca2-a11fb80cb066","system_id":"levelo_inurba_marseille","lat":43.23074,"lon":5.35482,"is_reserved":false,"is_disabled":false,"rental_uris":{"android":"levelo://app?vid=b4bac287-3615-423a-bca2-a11fb80cb066","ios":"levelo://app?vid=b4bac287-3615-423a-bca2-a11fb80cb066"},"vehicle_type_id":"4","last_reported":1746555275,"current_range_meters":12400,"station_id":"cpo3342slgdg3j2ifvpg","pricing_plan_id":"cebpf4jnsgd1na2vs0mg"},{"bike_id":"1b756e6c-c8cb-4927-a571-fd986fba6543","system_id":"levelo_inurba_marseille","lat":43.28606,"lon":5.37058,"is_reserved":false,"is_disabled":false,"rental_uris":{"android":"levelo://app?vid=1b756e6c-c8cb-4927-a571-fd986fba6543","ios":"levelo://app?vid=1b756e6c-c8cb-4927-a571-fd986fba6543"},"vehicle_type_id":"4","last_reported":1746555275,"current_range_meters":12400,"station_id":"ce4bht12rcd13ifvqi60","pricing_plan_id":"cebpf4jnsgd1na2vs0mg"},{"bike_id":"084e446d-94e6-48a4-8a45-501eaaf97335","system_id":"levelo_inurba_marseille","lat":43.29773,"lon":5.39339,"is_reserved":false,"is_disabled":false,"rental_uris":{"android":"levelo://app?vid=084e446d-94e6-48a4-8a45-501eaaf97335","ios":"levelo://app?vid=084e446d-94e6-48a4-8a45-501eaaf97335"},"vehicle_type_id":"4","last_reported":1746555275,"current_range_meters":12400,"station_id":"chh1huq6cuj3fo74tm60","pricing_plan_id":"cebpf4jnsgd1na2vs0mg"},{"bike_id":"f96a6fee-2b27-4011-b21c-0dabc863cd74","system_id":"levelo_inurba_marseille","lat":43.29302,"lon":5.37463,"is_reserved":false,"is_disabled":false,"rental_uris":{"android":"levelo://app?vid=f96a6fee-2b27-4011-b21c-0dabc863cd74","ios":"levelo://app?vid=f96a6fee-2b27-4011-b21c-0dabc863cd74"},"vehicle_type_id":"4","last_reported":1746555275,"current_range_meters":12400,"station_id":"ce4bgi12rcd13ifvqb70","pricing_plan_id":"cebpf4jnsgd1na2vs0mg"},{"bike_id":"28fa0e5c-ce07-48e6-aedc-cc7f72793d00","system_id":"levelo_inurba_marseille","lat":43.24389,"lon":5.37058,"is_reserved":false,"is_disabled":false,"rental_uris":{"android":"levelo://app?vid=28fa0e5c-ce07-48e6-aedc-cc7f72793d00","ios":"levelo://app?vid=28fa0e5c-ce07-48e6-aedc-cc7f72793d00"},"vehicle_type_id":"4","last_reported":1746555275,"current_range_meters":12800,"station_id":"ce4bhhh2rcd13ifvqfk0","pricing_plan_id":"cebpf4jnsgd1na2vs0mg"},{"bike_id":"065dfa79-5129-4665-ba10-4a802102a715","system_id":"levelo_inurba_marseille","lat":43.317257,"lon":5.423993,"is_reserved":false,"is_disabled":false,"rental_uris":{"android":"levelo://app?vid=065dfa79-5129-4665-ba10-4a802102a715","ios":"levelo://app?vid=065dfa79-5129-4665-ba10-4a802102a715"},"vehicle_type_id":"4","last_reported":1746555275,"current_range_meters":12800,"station_id":"ce4bhp92rcd13ifvqhbg","pricing_plan_id":"cebpf4jnsgd1na2vs0mg"},{"bike_id":"a72b9f11-2337-45cd-934a-1a5dcb26adef","system_id":"levelo_inurba_marseille","lat":43.30248,"lon":5.40072,"is_reserved":false,"is_disabled":false,"rental_uris":{"android":"levelo://app?vid=a72b9f11-2337-45cd-934a-1a5dcb26adef","ios":"levelo://app?vid=a72b9f11-2337-45cd-934a-1a5dcb26adef"},"vehicle_type_id":"4","last_reported":1746555275,"current_range_meters":12800,"station_id":"ce4bgvh2rcd13ifvqcs0","pricing_plan_id":"cebpf4jnsgd1na2vs0mg"},{"bike_id":"a6ae732d-91f3-4fd7-bf74-f8cb0ff75b35","system_id":"levelo_inurba_marseille","lat":43.29959,"lon":5.385,"is_reserved":false,"is_disabled":false,"rental_uris":{"android":"levelo://app?vid=a6ae732d-91f3-4fd7-bf74-f8cb0ff75b35","ios":"levelo://app?vid=a6ae732d-91f3-4fd7-bf74-f8cb0ff75b35"},"vehicle_type_id":"4","last_reported":1746555275,"current_range_meters":12800,"station_id":"ce4bgj92rcd13ifvqbd0","pricing_plan_id":"cebpf4jnsgd1na2vs0mg"},{"bike_id":"85519a58-7621-4715-8007-c7b2f9d78f1d","system_id":"levelo_inurba_marseille","lat":43.27807,"lon":5.40712,"is_reserved":false,"is_disabled":false,"rental_uris":{"android":"levelo://app?vid=85519a58-7621-4715-8007-c7b2f9d78f1d","ios":"levelo://app?vid=85519a58-7621-4715-8007-c7b2f9d78f1d"},"vehicle_type_id":"4","last_reported":1746555275,"current_range_meters":12800,"station_id":"ce4bhnh2rcd13ifvqgtg","pricing_plan_id":"cebpf4jnsgd1na2vs0mg"},{"bike_id":"60774389-291b-4ac5-8a9e-b1b7c5552d11","system_id":"levelo_inurba_marseille","lat":43.28938,"lon":5.36638,"is_reserved":false,"is_disabled":false,"rental_uris":{"android":"levelo://app?vid=60774389-291b-4ac5-8a9e-b1b7c5552d11","ios":"levelo://app?vid=60774389-291b-4ac5-8a9e-b1b7c5552d11"},"vehicle_type_id":"4","last_reported":1746555275,"current_range_meters":12800,"station_id":"ce4bhap2rcd13ifvqek0","pricing_plan_id":"cebpf4jnsgd1na2vs0mg"},{"bike_id":"1aacf16d-d225-4998-9e93-eb86cbd8f614","system_id":"levelo_inurba_marseille","lat":43.2872,"lon":5.39967,"is_reserved":false,"is_disabled":false,"rental_uris":{"android":"levelo://app?vid=1aacf16d-d225-4998-9e93-eb86cbd8f614","ios":"levelo://app?vid=1aacf16d-d225-4998-9e93-eb86cbd8f614"},"vehicle_type_id":"4","last_reported":1746555275,"current_range_meters":12800,"station_id":"ce4bho92rcd13ifvqh3g","pricing_plan_id":"cebpf4jnsgd1na2vs0mg"},{"bike_id":"b9d70c54-a5fa-48df-b4b0-8ddf951a079a","system_id":"levelo_inurba_marseille","lat":43.26226,"lon":5.40454,"is_reserved":false,"is_disabled":false,"rental_uris":{"android":"levelo://app?vid=b9d70c54-a5fa-48df-b4b0-8ddf951a079a","ios":"levelo://app?vid=b9d70c54-a5fa-48df-b4b0-8ddf951a079a"},"vehicle_type_id":"4","last_reported":1746555275,"current_range_meters":12800,"station_id":"ce4bhmh2rcd13ifvqgmg","pricing_plan_id":"cebpf4jnsgd1na2vs0mg"},{"bike_id":"b3f1ceef-7436-4e69-9c1a-1504e6073469","system_id":"levelo_inurba_marseille","lat":43.31323,"lon":5.3969,"is_reserved":false,"is_disabled":false,"rental_uris":{"android":"levelo://app?vid=b3f1ceef-7436-4e69-9c1a-1504e6073469","ios":"levelo://app?vid=b3f1ceef-7436-4e69-9c1a-1504e6073469"},"vehicle_type_id":"4","last_reported":1746555275,"current_range_meters":12800,"station_id":"ce4bgvp2rcd13ifvqcu0","pricing_plan_id":"cebpf4jnsgd1na2vs0mg"},{"bike_id":"8a5554a2-b62f-4371-8d49-519ad97fb9f1","system_id":"levelo_inurba_marseille","lat":43.32989,"lon":5.3905,"is_reserved":false,"is_disabled":false,"rental_uris":{"android":"levelo://app?vid=8a5554a2-b62f-4371-8d49-519ad97fb9f1","ios":"levelo://app?vid=8a5554a2-b62f-4371-8d49-519ad97fb9f1"},"vehicle_type_id":"4","last_reported":1746555275,"current_range_meters":12800,"station_id":"ce4bhr92rcd13ifvqhrg","pricing_plan_id":"cebpf4jnsgd1na2vs0mg"},{"bike_id":"3b3c2c72-bea7-4c93-8471-bb7347270ebe","system_id":"levelo_inurba_marseille","lat":43.29525,"lon":5.39015,"is_reserved":false,"is_disabled":false,"rental_uris":{"android":"levelo://app?vid=3b3c2c72-bea7-4c93-8471-bb7347270ebe","ios":"levelo://app?vid=3b3c2c72-bea7-4c93-8471-bb7347270ebe"},"vehicle_type_id":"4","last_reported":1746555275,"current_range_meters":13600,"station_id":"ce4bh3p2rcd13ifvqdp0","pricing_plan_id":"cebpf4jnsgd1na2vs0mg"},{"bike_id":"4b717f06-ead9-4d1e-afdc-d51ea5fbfe8b","system_id":"levelo_inurba_marseille","lat":43.278138,"lon":5.40705,"is_reserved":false,"is_disabled":false,"rental_uris":{"android":"levelo://app?vid=4b717f06-ead9-4d1e-afdc-d51ea5fbfe8b","ios":"levelo://app?vid=4b717f06-ead9-4d1e-afdc-d51ea5fbfe8b"},"vehicle_type_id":"4","last_reported":1746555275,"current_range_meters":13600,"station_id":"ce4bhnh2rcd13ifvqgtg","pricing_plan_id":"cebpf4jnsgd1na2vs0mg"},{"bike_id":"c2b5dfdd-c187-416b-a825-dd0eaeb03dfb","system_id":"levelo_inurba_marseille","lat":43.29526,"lon":5.39398,"is_reserved":false,"is_disabled":false,"rental_uris":{"android":"levelo://app?vid=c2b5dfdd-c187-416b-a825-dd0eaeb03dfb","ios":"levelo://app?vid=c2b5dfdd-c187-416b-a825-dd0eaeb03dfb"},"vehicle_type_id":"4","last_reported":1746555275,"current_range_meters":13600,"station_id":"ce4bh292rcd13ifvqdf0","pricing_plan_id":"cebpf4jnsgd1na2vs0mg"},{"bike_id":"b3920b57-95ec-4fd9-9773-ab280cf43e13","system_id":"levelo_inurba_marseille","lat":43.28836,"lon":5.35842,"is_reserved":false,"is_disabled":false,"rental_uris":{"android":"levelo://app?vid=b3920b57-95ec-4fd9-9773-ab280cf43e13","ios":"levelo://app?vid=b3920b57-95ec-4fd9-9773-ab280cf43e13"},"vehicle_type_id":"4","last_reported":1746555275,"current_range_meters":13600,"station_id":"ce4bhb12rcd13ifvqem0","pricing_plan_id":"cebpf4jnsgd1na2vs0mg"},{"bike_id":"4d766cad-d5f5-4c4c-8e09-932b8b9cda05","system_id":"levelo_inurba_marseille","lat":43.26578,"lon":5.39066,"is_reserved":false,"is_disabled":false,"rental_uris":{"android":"levelo://app?vid=4d766cad-d5f5-4c4c-8e09-932b8b9cda05","ios":"levelo://app?vid=4d766cad-d5f5-4c4c-8e09-932b8b9cda05"},"vehicle_type_id":"4","last_reported":1746555275,"current_range_meters":13600,"station_id":"","pricing_plan_id":"cebpf4jnsgd1na2vs0mg"},{"bike_id":"741922f7-49ff-4751-a228-5a73f2c8c24d","system_id":"levelo_inurba_marseille","lat":43.2417,"lon":5.364041,"is_reserved":false,"is_disabled":false,"rental_uris":{"android":"levelo://app?vid=741922f7-49ff-4751-a228-5a73f2c8c24d","ios":"levelo://app?vid=741922f7-49ff-4751-a228-5a73f2c8c24d"},"vehicle_type_id":"4","last_reported":1746555275,"current_range_meters":13600,"station_id":"cpo36qri1sfpv3e86is0","pricing_plan_id":"cebpf4jnsgd1na2vs0mg"},{"bike_id":"5f548c32-b151-48d5-bf1b-4829be434a13","system_id":"levelo_inurba_marseille","lat":43.28478,"lon":5.38556,"is_reserved":false,"is_disabled":false,"rental_uris":{"android":"levelo://app?vid=5f548c32-b151-48d5-bf1b-4829be434a13","ios":"levelo://app?vid=5f548c32-b151-48d5-bf1b-4829be434a13"},"vehicle_type_id":"4","last_reported":1746555275,"current_range_meters":13600,"station_id":"ce4bh8p2rcd13ifvqeb0","pricing_plan_id":"cebpf4jnsgd1na2vs0mg"},{"bike_id":"e5a3878b-700d-463b-8694-a25c96c00b29","system_id":"levelo_inurba_marseille","lat":43.29099,"lon":5.38129,"is_reserved":false,"is_disabled":false,"rental_uris":{"android":"levelo://app?vid=e5a3878b-700d-463b-8694-a25c96c00b29","ios":"levelo://app?vid=e5a3878b-700d-463b-8694-a25c96c00b29"},"vehicle_type_id":"4","last_reported":1746555275,"current_range_meters":13600,"station_id":"ce4bh512rcd13ifvqe2g","pricing_plan_id":"cebpf4jnsgd1na2vs0mg"},{"bike_id":"0415d8fa-e6a8-40de-a5f4-c15b40b11998","system_id":"levelo_inurba_marseille","lat":43.310612,"lon":5.383558,"is_reserved":false,"is_disabled":false,"rental_uris":{"android":"levelo://app?vid=0415d8fa-e6a8-40de-a5f4-c15b40b11998","ios":"levelo://app?vid=0415d8fa-e6a8-40de-a5f4-c15b40b11998"},"vehicle_type_id":"4","last_reported":1746555275,"current_range_meters":14000,"station_id":"ce4bgv92rcd13ifvqcr0","pricing_plan_id":"cebpf4jnsgd1na2vs0mg"},{"bike_id":"7f4c77b1-0dcf-491b-92de-d681ba4a9956","system_id":"levelo_inurba_marseille","lat":43.2886,"lon":5.35827,"is_reserved":false,"is_disabled":false,"rental_uris":{"android":"levelo://app?vid=7f4c77b1-0dcf-491b-92de-d681ba4a9956","ios":"levelo://app?vid=7f4c77b1-0dcf-491b-92de-d681ba4a9956"},"vehicle_type_id":"4","last_reported":1746555275,"current_range_meters":14000,"station_id":"ce4bhb12rcd13ifvqem0","pricing_plan_id":"cebpf4jnsgd1na2vs0mg"},{"bike_id":"228131ea-7479-42cb-bafc-65e2c39a6247","system_id":"levelo_inurba_marseille","lat":43.3015,"lon":5.39868,"is_reserved":false,"is_disabled":false,"rental_uris":{"android":"levelo://app?vid=228131ea-7479-42cb-bafc-65e2c39a6247","ios":"levelo://app?vid=228131ea-7479-42cb-bafc-65e2c39a6247"},"vehicle_type_id":"4","last_reported":1746555275,"current_range_meters":14000,"station_id":"ce4bh0h2rcd13ifvqd40","pricing_plan_id":"cebpf4jnsgd1na2vs0mg"},{"bike_id":"4bd70568-9034-4b4d-a9a2-d4957c3553ab","system_id":"levelo_inurba_marseille","lat":43.30138,"lon":5.39885,"is_reserved":false,"is_disabled":false,"rental_uris":{"android":"levelo://app?vid=4bd70568-9034-4b4d-a9a2-d4957c3553ab","ios":"levelo://app?vid=4bd70568-9034-4b4d-a9a2-d4957c3553ab"},"vehicle_type_id":"4","last_reported":1746555275,"current_range_meters":14000,"station_id":"ce4bh0h2rcd13ifvqd40","pricing_plan_id":"cebpf4jnsgd1na2vs0mg"},{"bike_id":"b74f126f-2440-4bf2-9b81-a9b28266e685","system_id":"levelo_inurba_marseille","lat":43.3088,"lon":5.39659,"is_reserved":false,"is_disabled":false,"rental_uris":{"android":"levelo://app?vid=b74f126f-2440-4bf2-9b81-a9b28266e685","ios":"levelo://app?vid=b74f126f-2440-4bf2-9b81-a9b28266e685"},"vehicle_type_id":"4","last_reported":1746555275,"current_range_meters":14000,"station_id":"ce4bh012rcd13ifvqcv0","pricing_plan_id":"cebpf4jnsgd1na2vs0mg"},{"bike_id":"c0c9b625-2ed9-4025-8036-243e1cf4c3d6","system_id":"levelo_inurba_marseille","lat":43.25125,"lon":5.4032,"is_reserved":false,"is_disabled":false,"rental_uris":{"android":"levelo://app?vid=c0c9b625-2ed9-4025-8036-243e1cf4c3d6","ios":"levelo://app?vid=c0c9b625-2ed9-4025-8036-243e1cf4c3d6"},"vehicle_type_id":"4","last_reported":1746555275,"current_range_meters":14000,"station_id":"ce4bhlh2rcd13ifvqgig","pricing_plan_id":"cebpf4jnsgd1na2vs0mg"},{"bike_id":"c65b64f5-a38f-4b33-a48f-6bb6c6b32a53","system_id":"levelo_inurba_marseille","lat":43.211885,"lon":5.350803,"is_reserved":false,"is_disabled":false,"rental_uris":{"android":"levelo://app?vid=c65b64f5-a38f-4b33-a48f-6bb6c6b32a53","ios":"levelo://app?vid=c65b64f5-a38f-4b33-a48f-6bb6c6b32a53"},"vehicle_type_id":"4","last_reported":1746555275,"current_range_meters":14400,"station_id":"st_cvj6sg6p6f1abm77japg","pricing_plan_id":"cebpf4jnsgd1na2vs0mg"},{"bike_id":"1900e395-19ba-404e-aa6a-262b7656599d","system_id":"levelo_inurba_marseille","lat":43.2888,"lon":5.43707,"is_reserved":false,"is_disabled":false,"rental_uris":{"android":"levelo://app?vid=1900e395-19ba-404e-aa6a-262b7656599d","ios":"levelo://app?vid=1900e395-19ba-404e-aa6a-262b7656599d"},"vehicle_type_id":"4","last_reported":1746555275,"current_range_meters":14400,"station_id":"","pricing_plan_id":"cebpf4jnsgd1na2vs0mg"},{"bike_id":"7991c015-7b8a-4ffd-80f2-ed98c1156310","system_id":"levelo_inurba_marseille","lat":43.32281,"lon":5.38285,"is_reserved":false,"is_disabled":false,"rental_uris":{"android":"levelo://app?vid=7991c015-7b8a-4ffd-80f2-ed98c1156310","ios":"levelo://app?vid=7991c015-7b8a-4ffd-80f2-ed98c1156310"},"vehicle_type_id":"4","last_reported":1746555275,"current_range_meters":14400,"station_id":"ce4bhr12rcd13ifvqhqg","pricing_plan_id":"cebpf4jnsgd1na2vs0mg"},{"bike_id":"2201460e-8252-45ca-8f3e-3f00df942ba0","system_id":"levelo_inurba_marseille","lat":43.29265,"lon":5.38436,"is_reserved":false,"is_disabled":false,"rental_uris":{"android":"levelo://app?vid=2201460e-8252-45ca-8f3e-3f00df942ba0","ios":"levelo://app?vid=2201460e-8252-45ca-8f3e-3f00df942ba0"},"vehicle_type_id":"4","last_reported":1746555275,"current_range_meters":14800,"station_id":"ce4bh692rcd13ifvqea0","pricing_plan_id":"cebpf4jnsgd1na2vs0mg"},{"bike_id":"3029db95-9878-4455-82e0-702bdd2a6f8e","system_id":"levelo_inurba_marseille","lat":43.29277,"lon":5.36841,"is_reserved":false,"is_disabled":false,"rental_uris":{"android":"levelo://app?vid=3029db95-9878-4455-82e0-702bdd2a6f8e","ios":"levelo://app?vid=3029db95-9878-4455-82e0-702bdd2a6f8e"},"vehicle_type_id":"4","last_reported":1746555275,"current_range_meters":14800,"station_id":"","pricing_plan_id":"cebpf4jnsgd1na2vs0mg"},{"bike_id":"b298572e-caaa-48c1-a86a-4fb045282292","system_id":"levelo_inurba_marseille","lat":43.28696,"lon":5.37393,"is_reserved":false,"is_disabled":false,"rental_uris":{"android":"levelo://app?vid=b298572e-caaa-48c1-a86a-4fb045282292","ios":"levelo://app?vid=b298572e-caaa-48c1-a86a-4fb045282292"},"vehicle_type_id":"4","last_reported":1746555275,"current_range_meters":14800,"station_id":"ce4bh3p2rcd13ifvqdq0","pricing_plan_id":"cebpf4jnsgd1na2vs0mg"},{"bike_id":"58411efa-40b6-47e6-84fd-2de00c33f67c","system_id":"levelo_inurba_marseille","lat":43.33018,"lon":5.3904,"is_reserved":false,"is_disabled":false,"rental_uris":{"android":"levelo://app?vid=58411efa-40b6-47e6-84fd-2de00c33f67c","ios":"levelo://app?vid=58411efa-40b6-47e6-84fd-2de00c33f67c"},"vehicle_type_id":"4","last_reported":1746555275,"current_range_meters":15200,"station_id":"ce4bhr92rcd13ifvqhrg","pricing_plan_id":"cebpf4jnsgd1na2vs0mg"},{"bike_id":"17f0769e-9f04-4f76-90bd-eb07d5cad87f","system_id":"levelo_inurba_marseille","lat":43.28417,"lon":5.34976,"is_reserved":false,"is_disabled":false,"rental_uris":{"android":"levelo://app?vid=17f0769e-9f04-4f76-90bd-eb07d5cad87f","ios":"levelo://app?vid=17f0769e-9f04-4f76-90bd-eb07d5cad87f"},"vehicle_type_id":"4","last_reported":1746555275,"current_range_meters":15200,"station_id":"ce4bhbh2rcd13ifvqepg","pricing_plan_id":"cebpf4jnsgd1na2vs0mg"},{"bike_id":"65710a7f-3a77-4434-a07b-596afe9aa4c0","system_id":"levelo_inurba_marseille","lat":43.31328,"lon":5.39695,"is_reserved":false,"is_disabled":false,"rental_uris":{"android":"levelo://app?vid=65710a7f-3a77-4434-a07b-596afe9aa4c0","ios":"levelo://app?vid=65710a7f-3a77-4434-a07b-596afe9aa4c0"},"vehicle_type_id":"4","last_reported":1746555275,"current_range_meters":15200,"station_id":"ce4bgvp2rcd13ifvqcu0","pricing_plan_id":"cebpf4jnsgd1na2vs0mg"},{"bike_id":"ea30e7a4-248f-4dc0-b5bf-d1a2b45b0fd5","system_id":"levelo_inurba_marseille","lat":43.27672,"lon":5.38878,"is_reserved":false,"is_disabled":false,"rental_uris":{"android":"levelo://app?vid=ea30e7a4-248f-4dc0-b5bf-d1a2b45b0fd5","ios":"levelo://app?vid=ea30e7a4-248f-4dc0-b5bf-d1a2b45b0fd5"},"vehicle_type_id":"4","last_reported":1746555275,"current_range_meters":16000,"station_id":"ce4bhi12rcd13ifvqfo0","pricing_plan_id":"cebpf4jnsgd1na2vs0mg"},{"bike_id":"1dfe0c9b-9f09-473d-a1ef-7150588cd5e8","system_id":"levelo_inurba_marseille","lat":43.28154,"lon":5.42644,"is_reserved":false,"is_disabled":false,"rental_uris":{"android":"levelo://app?vid=1dfe0c9b-9f09-473d-a1ef-7150588cd5e8","ios":"levelo://app?vid=1dfe0c9b-9f09-473d-a1ef-7150588cd5e8"},"vehicle_type_id":"4","last_reported":1746555275,"current_range_meters":16000,"station_id":"ce4bhnh2rcd13ifvqgug","pricing_plan_id":"cebpf4jnsgd1na2vs0mg"},{"bike_id":"10a76b2f-30ce-4cf3-87f0-2ccfedb183aa","system_id":"levelo_inurba_marseille","lat":43.29532,"lon":5.38533,"is_reserved":false,"is_disabled":false,"rental_uris":{"android":"levelo://app?vid=10a76b2f-30ce-4cf3-87f0-2ccfedb183aa","ios":"levelo://app?vid=10a76b2f-30ce-4cf3-87f0-2ccfedb183aa"},"vehicle_type_id":"4","last_reported":1746555275,"current_range_meters":16000,"station_id":"ce4bgih2rcd13ifvqba0","pricing_plan_id":"cebpf4jnsgd1na2vs0mg"},{"bike_id":"5f792297-f88d-4da0-ac40-43910bc681a7","system_id":"levelo_inurba_marseille","lat":43.30309,"lon":5.40443,"is_reserved":false,"is_disabled":false,"rental_uris":{"android":"levelo://app?vid=5f792297-f88d-4da0-ac40-43910bc681a7","ios":"levelo://app?vid=5f792297-f88d-4da0-ac40-43910bc681a7"},"vehicle_type_id":"4","last_reported":1746555275,"current_range_meters":16000,"station_id":"ce4bh012rcd13ifvqd10","pricing_plan_id":"cebpf4jnsgd1na2vs0mg"},{"bike_id":"47d2fd70-6980-4296-bfaf-01fe22c02520","system_id":"levelo_inurba_marseille","lat":43.3081,"lon":5.43524,"is_reserved":false,"is_disabled":false,"rental_uris":{"android":"levelo://app?vid=47d2fd70-6980-4296-bfaf-01fe22c02520","ios":"levelo://app?vid=47d2fd70-6980-4296-bfaf-01fe22c02520"},"vehicle_type_id":"4","last_reported":1746555275,"current_range_meters":16400,"station_id":"ce4bhph2rcd13ifvqheg","pricing_plan_id":"cebpf4jnsgd1na2vs0mg"},{"bike_id":"c761457c-43c6-4500-9aec-e5e2c152850c","system_id":"levelo_inurba_marseille","lat":43.315363,"lon":5.380379,"is_reserved":false,"is_disabled":true,"rental_uris":{"android":"levelo://app?vid=c761457c-43c6-4500-9aec-e5e2c152850c","ios":"levelo://app?vid=c761457c-43c6-4500-9aec-e5e2c152850c"},"vehicle_type_id":"4","last_reported":1746555275,"current_range_meters":16400,"station_id":"ce4bhsp2rcd13ifvqi50","pricing_plan_id":"cebpf4jnsgd1na2vs0mg"},{"bike_id":"2d4427e7-a7a4-433d-a972-af2598822e0f","system_id":"levelo_inurba_marseille","lat":43.28424,"lon":5.34994,"is_reserved":false,"is_disabled":false,"rental_uris":{"android":"levelo://app?vid=2d4427e7-a7a4-433d-a972-af2598822e0f","ios":"levelo://app?vid=2d4427e7-a7a4-433d-a972-af2598822e0f"},"vehicle_type_id":"4","last_reported":1746555275,"current_range_meters":16400,"station_id":"ce4bhbh2rcd13ifvqepg","pricing_plan_id":"cebpf4jnsgd1na2vs0mg"},{"bike_id":"49adf419-1d44-4ce4-8e45-39dfe254ee3e","system_id":"levelo_inurba_marseille","lat":43.28728,"lon":5.36089,"is_reserved":false,"is_disabled":false,"rental_uris":{"android":"levelo://app?vid=49adf419-1d44-4ce4-8e45-39dfe254ee3e","ios":"levelo://app?vid=49adf419-1d44-4ce4-8e45-39dfe254ee3e"},"vehicle_type_id":"4","last_reported":1746555275,"current_range_meters":16400,"station_id":"cki0cbj6b192h4jlfktg","pricing_plan_id":"cebpf4jnsgd1na2vs0mg"},{"bike_id":"b1a97ec7-993f-4a2d-83e7-6ed722a41c26","system_id":"levelo_inurba_marseille","lat":43.278343,"lon":5.391933,"is_reserved":false,"is_disabled":true,"rental_uris":{"android":"levelo://app?vid=b1a97ec7-993f-4a2d-83e7-6ed722a41c26","ios":"levelo://app?vid=b1a97ec7-993f-4a2d-83e7-6ed722a41c26"},"vehicle_type_id":"4","last_reported":1746555275,"current_range_meters":16400,"station_id":"ce4bhjp2rcd13ifvqga0","pricing_plan_id":"cebpf4jnsgd1na2vs0mg"},{"bike_id":"c1590e31-1e3c-4ef4-bfd2-f6700a79d2fb","system_id":"levelo_inurba_marseille","lat":43.32655,"lon":5.40993,"is_reserved":false,"is_disabled":false,"rental_uris":{"android":"levelo://app?vid=c1590e31-1e3c-4ef4-bfd2-f6700a79d2fb","ios":"levelo://app?vid=c1590e31-1e3c-4ef4-bfd2-f6700a79d2fb"},"vehicle_type_id":"4","last_reported":1746555275,"current_range_meters":16400,"station_id":"ce4bhpp2rcd13ifvqhgg","pricing_plan_id":"cebpf4jnsgd1na2vs0mg"},{"bike_id":"537dd953-8c79-4265-92f0-0179cdafd76b","system_id":"levelo_inurba_marseille","lat":43.284093,"lon":5.34991,"is_reserved":false,"is_disabled":false,"rental_uris":{"android":"levelo://app?vid=537dd953-8c79-4265-92f0-0179cdafd76b","ios":"levelo://app?vid=537dd953-8c79-4265-92f0-0179cdafd76b"},"vehicle_type_id":"4","last_reported":1746555275,"current_range_meters":16400,"station_id":"ce4bhbh2rcd13ifvqepg","pricing_plan_id":"cebpf4jnsgd1na2vs0mg"},{"bike_id":"d1a330da-6328-41bd-a21e-8f5936f057f3","system_id":"levelo_inurba_marseille","lat":43.2782,"lon":5.40695,"is_reserved":false,"is_disabled":false,"rental_uris":{"android":"levelo://app?vid=d1a330da-6328-41bd-a21e-8f5936f057f3","ios":"levelo://app?vid=d1a330da-6328-41bd-a21e-8f5936f057f3"},"vehicle_type_id":"4","last_reported":1746555275,"current_range_meters":16400,"station_id":"ce4bhnh2rcd13ifvqgtg","pricing_plan_id":"cebpf4jnsgd1na2vs0mg"},{"bike_id":"2714f713-c769-4f6a-ac44-441a635e9cba","system_id":"levelo_inurba_marseille","lat":43.21617,"lon":5.34225,"is_reserved":false,"is_disabled":false,"rental_uris":{"android":"levelo://app?vid=2714f713-c769-4f6a-ac44-441a635e9cba","ios":"levelo://app?vid=2714f713-c769-4f6a-ac44-441a635e9cba"},"vehicle_type_id":"4","last_reported":1746555275,"current_range_meters":16400,"station_id":"","pricing_plan_id":"cebpf4jnsgd1na2vs0mg"},{"bike_id":"0c6b4f22-b121-48fe-930e-ed944bfd9136","system_id":"levelo_inurba_marseille","lat":43.262075,"lon":5.37439,"is_reserved":false,"is_disabled":false,"rental_uris":{"android":"levelo://app?vid=0c6b4f22-b121-48fe-930e-ed944bfd9136","ios":"levelo://app?vid=0c6b4f22-b121-48fe-930e-ed944bfd9136"},"vehicle_type_id":"4","last_reported":1746555275,"current_range_meters":16400,"station_id":"ce4bhgp2rcd13ifvqfc0","pricing_plan_id":"cebpf4jnsgd1na2vs0mg"},{"bike_id":"e2d95a62-27f2-483b-871e-05c84b46aaa8","system_id":"levelo_inurba_marseille","lat":43.30795,"lon":5.43527,"is_reserved":false,"is_disabled":false,"rental_uris":{"android":"levelo://app?vid=e2d95a62-27f2-483b-871e-05c84b46aaa8","ios":"levelo://app?vid=e2d95a62-27f2-483b-871e-05c84b46aaa8"},"vehicle_type_id":"4","last_reported":1746555275,"current_range_meters":16400,"station_id":"ce4bhph2rcd13ifvqheg","pricing_plan_id":"cebpf4jnsgd1na2vs0mg"},{"bike_id":"00300daa-ec0b-4834-a54e-dbf97409005e","system_id":"levelo_inurba_marseille","lat":43.32292,"lon":5.38275,"is_reserved":false,"is_disabled":false,"rental_uris":{"android":"levelo://app?vid=00300daa-ec0b-4834-a54e-dbf97409005e","ios":"levelo://app?vid=00300daa-ec0b-4834-a54e-dbf97409005e"},"vehicle_type_id":"4","last_reported":1746555275,"current_range_meters":16800,"station_id":"ce4bhr12rcd13ifvqhqg","pricing_plan_id":"cebpf4jnsgd1na2vs0mg"},{"bike_id":"b02dd700-e1d0-4736-93d7-81d9f5d4b73b","system_id":"levelo_inurba_marseille","lat":43.251,"lon":5.40359,"is_reserved":false,"is_disabled":false,"rental_uris":{"android":"levelo://app?vid=b02dd700-e1d0-4736-93d7-81d9f5d4b73b","ios":"levelo://app?vid=b02dd700-e1d0-4736-93d7-81d9f5d4b73b"},"vehicle_type_id":"4","last_reported":1746555275,"current_range_meters":16800,"station_id":"ce4bhlh2rcd13ifvqgig","pricing_plan_id":"cebpf4jnsgd1na2vs0mg"},{"bike_id":"cab3fb7b-47c3-404c-a8dc-80f54b39d4cd","system_id":"levelo_inurba_marseille","lat":43.295176,"lon":5.390268,"is_reserved":false,"is_disabled":true,"rental_uris":{"android":"levelo://app?vid=cab3fb7b-47c3-404c-a8dc-80f54b39d4cd","ios":"levelo://app?vid=cab3fb7b-47c3-404c-a8dc-80f54b39d4cd"},"vehicle_type_id":"4","last_reported":1746555275,"current_range_meters":16800,"station_id":"ce4bh3p2rcd13ifvqdp0","pricing_plan_id":"cebpf4jnsgd1na2vs0mg"},{"bike_id":"d13c920e-2508-4ba6-93d9-c8ff4ab0b03a","system_id":"levelo_inurba_marseille","lat":43.29904,"lon":5.38136,"is_reserved":false,"is_disabled":false,"rental_uris":{"android":"levelo://app?vid=d13c920e-2508-4ba6-93d9-c8ff4ab0b03a","ios":"levelo://app?vid=d13c920e-2508-4ba6-93d9-c8ff4ab0b03a"},"vehicle_type_id":"4","last_reported":1746555275,"current_range_meters":16800,"station_id":"","pricing_plan_id":"cebpf4jnsgd1na2vs0mg"},{"bike_id":"6ddfab9f-2277-47db-9a29-a17f3e8cccb6","system_id":"levelo_inurba_marseille","lat":43.28251,"lon":5.35083,"is_reserved":false,"is_disabled":false,"rental_uris":{"android":"levelo://app?vid=6ddfab9f-2277-47db-9a29-a17f3e8cccb6","ios":"levelo://app?vid=6ddfab9f-2277-47db-9a29-a17f3e8cccb6"},"vehicle_type_id":"4","last_reported":1746555275,"current_range_meters":16800,"station_id":"ce4bhbp2rcd13ifvqerg","pricing_plan_id":"cebpf4jnsgd1na2vs0mg"},{"bike_id":"248eac28-86a3-4437-ae4c-0f873ce8ed3d","system_id":"levelo_inurba_marseille","lat":43.2603,"lon":5.37545,"is_reserved":false,"is_disabled":false,"rental_uris":{"android":"levelo://app?vid=248eac28-86a3-4437-ae4c-0f873ce8ed3d","ios":"levelo://app?vid=248eac28-86a3-4437-ae4c-0f873ce8ed3d"},"vehicle_type_id":"4","last_reported":1746555275,"current_range_meters":16800,"station_id":"ce4bhgh2rcd13ifvqfa0","pricing_plan_id":"cebpf4jnsgd1na2vs0mg"},{"bike_id":"7ed2f0f4-ffe0-411c-896a-d646459d0c80","system_id":"levelo_inurba_marseille","lat":43.25111,"lon":5.40325,"is_reserved":false,"is_disabled":false,"rental_uris":{"android":"levelo://app?vid=7ed2f0f4-ffe0-411c-896a-d646459d0c80","ios":"levelo://app?vid=7ed2f0f4-ffe0-411c-896a-d646459d0c80"},"vehicle_type_id":"4","last_reported":1746555275,"current_range_meters":16800,"station_id":"ce4bhlh2rcd13ifvqgig","pricing_plan_id":"cebpf4jnsgd1na2vs0mg"},{"bike_id":"e09f1dbc-8a48-49f2-bf0a-7265d30677f4","system_id":"levelo_inurba_marseille","lat":43.262032,"lon":5.37932,"is_reserved":false,"is_disabled":false,"rental_uris":{"android":"levelo://app?vid=e09f1dbc-8a48-49f2-bf0a-7265d30677f4","ios":"levelo://app?vid=e09f1dbc-8a48-49f2-bf0a-7265d30677f4"},"vehicle_type_id":"4","last_reported":1746555275,"current_range_meters":17200,"station_id":"ce4bhjp2rcd13ifvqg90","pricing_plan_id":"cebpf4jnsgd1na2vs0mg"},{"bike_id":"e65f272f-ba26-435d-9209-853e50218dce","system_id":"levelo_inurba_marseille","lat":43.24066,"lon":5.37747,"is_reserved":false,"is_disabled":false,"rental_uris":{"android":"levelo://app?vid=e65f272f-ba26-435d-9209-853e50218dce","ios":"levelo://app?vid=e65f272f-ba26-435d-9209-853e50218dce"},"vehicle_type_id":"4","last_reported":1746555275,"current_range_meters":17200,"station_id":"ce4bhnp2rcd13ifvqgvg","pricing_plan_id":"cebpf4jnsgd1na2vs0mg"},{"bike_id":"c1ea240d-5dfc-4daf-8645-5bad5952f855","system_id":"levelo_inurba_marseille","lat":43.286,"lon":5.35121,"is_reserved":false,"is_disabled":false,"rental_uris":{"android":"levelo://app?vid=c1ea240d-5dfc-4daf-8645-5bad5952f855","ios":"levelo://app?vid=c1ea240d-5dfc-4daf-8645-5bad5952f855"},"vehicle_type_id":"4","last_reported":1746555275,"current_range_meters":17200,"station_id":"ce4bhch2rcd13ifvqeug","pricing_plan_id":"cebpf4jnsgd1na2vs0mg"},{"bike_id":"d38bd2b9-37af-4494-bbe0-8f8ed78650ef","system_id":"levelo_inurba_marseille","lat":43.298674,"lon":5.397247,"is_reserved":false,"is_disabled":false,"rental_uris":{"android":"levelo://app?vid=d38bd2b9-37af-4494-bbe0-8f8ed78650ef","ios":"levelo://app?vid=d38bd2b9-37af-4494-bbe0-8f8ed78650ef"},"vehicle_type_id":"4","last_reported":1746555275,"current_range_meters":17200,"station_id":"ce4bh0h2rcd13ifvqd50","pricing_plan_id":"cebpf4jnsgd1na2vs0mg"},{"bike_id":"416a670a-d86d-49f4-b581-2929653cf208","system_id":"levelo_inurba_marseille","lat":43.29491,"lon":5.38002,"is_reserved":false,"is_disabled":false,"rental_uris":{"android":"levelo://app?vid=416a670a-d86d-49f4-b581-2929653cf208","ios":"levelo://app?vid=416a670a-d86d-49f4-b581-2929653cf208"},"vehicle_type_id":"4","last_reported":1746555275,"current_range_meters":17200,"station_id":"ce4bhb92rcd13ifvqen0","pricing_plan_id":"cebpf4jnsgd1na2vs0mg"},{"bike_id":"ac700e2e-c129-4f82-a3c3-f628077933a6","system_id":"levelo_inurba_marseille","lat":43.21201,"lon":5.35056,"is_reserved":false,"is_disabled":false,"rental_uris":{"android":"levelo://app?vid=ac700e2e-c129-4f82-a3c3-f628077933a6","ios":"levelo://app?vid=ac700e2e-c129-4f82-a3c3-f628077933a6"},"vehicle_type_id":"4","last_reported":1746555275,"current_range_meters":17200,"station_id":"st_cvj6sg6p6f1abm77japg","pricing_plan_id":"cebpf4jnsgd1na2vs0mg"},{"bike_id":"0e3c9a15-abfd-4ac4-84f5-f2f7949b0e3f","system_id":"levelo_inurba_marseille","lat":43.30898,"lon":5.37182,"is_reserved":false,"is_disabled":false,"rental_uris":{"android":"levelo://app?vid=0e3c9a15-abfd-4ac4-84f5-f2f7949b0e3f","ios":"levelo://app?vid=0e3c9a15-abfd-4ac4-84f5-f2f7949b0e3f"},"vehicle_type_id":"4","last_reported":1746555275,"current_range_meters":17600,"station_id":"ce4bguh2rcd13ifvqckg","pricing_plan_id":"cebpf4jnsgd1na2vs0mg"},{"bike_id":"387a6276-06fd-4748-9222-63df581f8ac6","system_id":"levelo_inurba_marseille","lat":43.29533,"lon":5.38541,"is_reserved":false,"is_disabled":true,"rental_uris":{"android":"levelo://app?vid=387a6276-06fd-4748-9222-63df581f8ac6","ios":"levelo://app?vid=387a6276-06fd-4748-9222-63df581f8ac6"},"vehicle_type_id":"4","last_reported":1746555275,"current_range_meters":17600,"station_id":"ce4bgih2rcd13ifvqba0","pricing_plan_id":"cebpf4jnsgd1na2vs0mg"},{"bike_id":"f9824804-8082-4686-9118-6a1e81da0c5e","system_id":"levelo_inurba_marseille","lat":43.2656,"lon":5.37289,"is_reserved":false,"is_disabled":false,"rental_uris":{"android":"levelo://app?vid=f9824804-8082-4686-9118-6a1e81da0c5e","ios":"levelo://app?vid=f9824804-8082-4686-9118-6a1e81da0c5e"},"vehicle_type_id":"4","last_reported":1746555275,"current_range_meters":17600,"station_id":"ce4bhg12rcd13ifvqf70","pricing_plan_id":"cebpf4jnsgd1na2vs0mg"},{"bike_id":"bc21d41d-8bae-4ce5-965d-6963860374be","system_id":"levelo_inurba_marseille","lat":43.29619,"lon":5.37163,"is_reserved":false,"is_disabled":false,"rental_uris":{"android":"levelo://app?vid=bc21d41d-8bae-4ce5-965d-6963860374be","ios":"levelo://app?vid=bc21d41d-8bae-4ce5-965d-6963860374be"},"vehicle_type_id":"4","last_reported":1746555275,"current_range_meters":18000,"station_id":"ce4bgnh2rcd13ifvqc0g","pricing_plan_id":"cebpf4jnsgd1na2vs0mg"},{"bike_id":"d1257c47-ee0f-4cc1-a58a-b5e939b65412","system_id":"levelo_inurba_marseille","lat":43.282609,"lon":5.350533,"is_reserved":false,"is_disabled":false,"rental_uris":{"android":"levelo://app?vid=d1257c47-ee0f-4cc1-a58a-b5e939b65412","ios":"levelo://app?vid=d1257c47-ee0f-4cc1-a58a-b5e939b65412"},"vehicle_type_id":"4","last_reported":1746555275,"current_range_meters":18000,"station_id":"ce4bhbp2rcd13ifvqerg","pricing_plan_id":"cebpf4jnsgd1na2vs0mg"},{"bike_id":"32b194ca-cbb9-475f-9089-d2300f06e77c","system_id":"levelo_inurba_marseille","lat":43.29432,"lon":5.386,"is_reserved":false,"is_disabled":false,"rental_uris":{"android":"levelo://app?vid=32b194ca-cbb9-475f-9089-d2300f06e77c","ios":"levelo://app?vid=32b194ca-cbb9-475f-9089-d2300f06e77c"},"vehicle_type_id":"4","last_reported":1746555275,"current_range_meters":18000,"station_id":"ce4bh2h2rcd13ifvqdh0","pricing_plan_id":"cebpf4jnsgd1na2vs0mg"},{"bike_id":"07a09920-8c45-4c0a-80e5-694447836431","system_id":"levelo_inurba_marseille","lat":43.32285,"lon":5.38277,"is_reserved":false,"is_disabled":false,"rental_uris":{"android":"levelo://app?vid=07a09920-8c45-4c0a-80e5-694447836431","ios":"levelo://app?vid=07a09920-8c45-4c0a-80e5-694447836431"},"vehicle_type_id":"4","last_reported":1746555275,"current_range_meters":18000,"station_id":"ce4bhr12rcd13ifvqhqg","pricing_plan_id":"cebpf4jnsgd1na2vs0mg"},{"bike_id":"cad73dbd-538c-461e-8f5d-9f9cb63b32c3","system_id":"levelo_inurba_marseille","lat":43.21193,"lon":5.35078,"is_reserved":false,"is_disabled":true,"rental_uris":{"android":"levelo://app?vid=cad73dbd-538c-461e-8f5d-9f9cb63b32c3","ios":"levelo://app?vid=cad73dbd-538c-461e-8f5d-9f9cb63b32c3"},"vehicle_type_id":"4","last_reported":1746555275,"current_range_meters":18000,"station_id":"st_cvj6sg6p6f1abm77japg","pricing_plan_id":"cebpf4jnsgd1na2vs0mg"},{"bike_id":"f8d0ff89-2c62-444c-b55e-8c506fe62484","system_id":"levelo_inurba_marseille","lat":43.29893,"lon":5.43675,"is_reserved":false,"is_disabled":false,"rental_uris":{"android":"levelo://app?vid=f8d0ff89-2c62-444c-b55e-8c506fe62484","ios":"levelo://app?vid=f8d0ff89-2c62-444c-b55e-8c506fe62484"},"vehicle_type_id":"4","last_reported":1746555275,"current_range_meters":18800,"station_id":"ce4bhpp2rcd13ifvqhfg","pricing_plan_id":"cebpf4jnsgd1na2vs0mg"},{"bike_id":"d09751c9-e571-4ef3-b87f-a24d1257f883","system_id":"levelo_inurba_marseille","lat":43.28433,"lon":5.39199,"is_reserved":false,"is_disabled":false,"rental_uris":{"android":"levelo://app?vid=d09751c9-e571-4ef3-b87f-a24d1257f883","ios":"levelo://app?vid=d09751c9-e571-4ef3-b87f-a24d1257f883"},"vehicle_type_id":"4","last_reported":1746555275,"current_range_meters":18800,"station_id":"ce4bhoh2rcd13ifvqh5g","pricing_plan_id":"cebpf4jnsgd1na2vs0mg"},{"bike_id":"f45321ad-a54b-404d-981b-802d3c9e0607","system_id":"levelo_inurba_marseille","lat":43.212045,"lon":5.350766,"is_reserved":false,"is_disabled":true,"rental_uris":{"android":"levelo://app?vid=f45321ad-a54b-404d-981b-802d3c9e0607","ios":"levelo://app?vid=f45321ad-a54b-404d-981b-802d3c9e0607"},"vehicle_type_id":"4","last_reported":1746555275,"current_range_meters":18800,"station_id":"st_cvj6sg6p6f1abm77japg","pricing_plan_id":"cebpf4jnsgd1na2vs0mg"},{"bike_id":"562551e2-fcab-4152-8ab2-456a681c50f4","system_id":"levelo_inurba_marseille","lat":43.26062,"lon":5.39397,"is_reserved":false,"is_disabled":false,"rental_uris":{"android":"levelo://app?vid=562551e2-fcab-4152-8ab2-456a681c50f4","ios":"levelo://app?vid=562551e2-fcab-4152-8ab2-456a681c50f4"},"vehicle_type_id":"4","last_reported":1746555275,"current_range_meters":18800,"station_id":"ce4bhh92rcd13ifvqfj0","pricing_plan_id":"cebpf4jnsgd1na2vs0mg"},{"bike_id":"e0786dd7-702b-4cae-aa99-2a6db6952679","system_id":"levelo_inurba_marseille","lat":43.26537,"lon":5.39061,"is_reserved":false,"is_disabled":false,"rental_uris":{"android":"levelo://app?vid=e0786dd7-702b-4cae-aa99-2a6db6952679","ios":"levelo://app?vid=e0786dd7-702b-4cae-aa99-2a6db6952679"},"vehicle_type_id":"4","last_reported":1746555275,"current_range_meters":18800,"station_id":"","pricing_plan_id":"cebpf4jnsgd1na2vs0mg"},{"bike_id":"5717337c-b4f5-4e73-a23e-847a54144983","system_id":"levelo_inurba_marseille","lat":43.286137,"lon":5.350999,"is_reserved":false,"is_disabled":false,"rental_uris":{"android":"levelo://app?vid=5717337c-b4f5-4e73-a23e-847a54144983","ios":"levelo://app?vid=5717337c-b4f5-4e73-a23e-847a54144983"},"vehicle_type_id":"4","last_reported":1746555275,"current_range_meters":18800,"station_id":"ce4bhch2rcd13ifvqeug","pricing_plan_id":"cebpf4jnsgd1na2vs0mg"},{"bike_id":"4fa44a4d-c738-41bc-9022-213fbeae4065","system_id":"levelo_inurba_marseille","lat":43.23184,"lon":5.3999,"is_reserved":false,"is_disabled":false,"rental_uris":{"android":"levelo://app?vid=4fa44a4d-c738-41bc-9022-213fbeae4065","ios":"levelo://app?vid=4fa44a4d-c738-41bc-9022-213fbeae4065"},"vehicle_type_id":"4","last_reported":1746555275,"current_range_meters":18800,"station_id":"ce4bhn12rcd13ifvqgqg","pricing_plan_id":"cebpf4jnsgd1na2vs0mg"},{"bike_id":"5b7c813e-8a01-4cab-bedc-2fef8b455485","system_id":"levelo_inurba_marseille","lat":43.294283,"lon":5.386103,"is_reserved":false,"is_disabled":true,"rental_uris":{"android":"levelo://app?vid=5b7c813e-8a01-4cab-bedc-2fef8b455485","ios":"levelo://app?vid=5b7c813e-8a01-4cab-bedc-2fef8b455485"},"vehicle_type_id":"4","last_reported":1746555275,"current_range_meters":19200,"station_id":"ce4bh2h2rcd13ifvqdh0","pricing_plan_id":"cebpf4jnsgd1na2vs0mg"},{"bike_id":"86aac975-5efa-4471-b431-8ed509ade609","system_id":"levelo_inurba_marseille","lat":43.286181,"lon":5.351061,"is_reserved":false,"is_disabled":false,"rental_uris":{"android":"levelo://app?vid=86aac975-5efa-4471-b431-8ed509ade609","ios":"levelo://app?vid=86aac975-5efa-4471-b431-8ed509ade609"},"vehicle_type_id":"4","last_reported":1746555275,"current_range_meters":19200,"station_id":"ce4bhch2rcd13ifvqeug","pricing_plan_id":"cebpf4jnsgd1na2vs0mg"},{"bike_id":"b24ee4a6-a92c-460b-a1b5-8a3da776c4d3","system_id":"levelo_inurba_marseille","lat":43.3171,"lon":5.43664,"is_reserved":false,"is_disabled":false,"rental_uris":{"android":"levelo://app?vid=b24ee4a6-a92c-460b-a1b5-8a3da776c4d3","ios":"levelo://app?vid=b24ee4a6-a92c-460b-a1b5-8a3da776c4d3"},"vehicle_type_id":"4","last_reported":1746555275,"current_range_meters":19200,"station_id":"ce4bhp92rcd13ifvqhcg","pricing_plan_id":"cebpf4jnsgd1na2vs0mg"},{"bike_id":"960747af-c38a-41de-aff1-908daedbaa3f","system_id":"levelo_inurba_marseille","lat":43.30873,"lon":5.39654,"is_reserved":false,"is_disabled":false,"rental_uris":{"android":"levelo://app?vid=960747af-c38a-41de-aff1-908daedbaa3f","ios":"levelo://app?vid=960747af-c38a-41de-aff1-908daedbaa3f"},"vehicle_type_id":"4","last_reported":1746555275,"current_range_meters":19200,"station_id":"ce4bh012rcd13ifvqcv0","pricing_plan_id":"cebpf4jnsgd1na2vs0mg"},{"bike_id":"4b1a2f61-dda1-4cff-a96c-732ef7d052fb","system_id":"levelo_inurba_marseille","lat":43.31163,"lon":5.38723,"is_reserved":false,"is_disabled":false,"rental_uris":{"android":"levelo://app?vid=4b1a2f61-dda1-4cff-a96c-732ef7d052fb","ios":"levelo://app?vid=4b1a2f61-dda1-4cff-a96c-732ef7d052fb"},"vehicle_type_id":"4","last_reported":1746555275,"current_range_meters":19200,"station_id":"ce4bgv12rcd13ifvqcp0","pricing_plan_id":"cebpf4jnsgd1na2vs0mg"},{"bike_id":"fd76d4ca-f3ad-4fc8-b8d8-1513582aff5f","system_id":"levelo_inurba_marseille","lat":43.22928,"lon":5.35379,"is_reserved":false,"is_disabled":false,"rental_uris":{"android":"levelo://app?vid=fd76d4ca-f3ad-4fc8-b8d8-1513582aff5f","ios":"levelo://app?vid=fd76d4ca-f3ad-4fc8-b8d8-1513582aff5f"},"vehicle_type_id":"4","last_reported":1746555275,"current_range_meters":19200,"station_id":"cpo3532slgdg3j2ikp40","pricing_plan_id":"cebpf4jnsgd1na2vs0mg"},{"bike_id":"1ed73ea3-5204-45a2-953a-c39ef1d85659","system_id":"levelo_inurba_marseille","lat":43.26228,"lon":5.40453,"is_reserved":false,"is_disabled":false,"rental_uris":{"android":"levelo://app?vid=1ed73ea3-5204-45a2-953a-c39ef1d85659","ios":"levelo://app?vid=1ed73ea3-5204-45a2-953a-c39ef1d85659"},"vehicle_type_id":"4","last_reported":1746555275,"current_range_meters":19200,"station_id":"ce4bhmh2rcd13ifvqgmg","pricing_plan_id":"cebpf4jnsgd1na2vs0mg"},{"bike_id":"5685bd0d-2574-4734-8c9c-00ae4f47e51e","system_id":"levelo_inurba_marseille","lat":43.28851,"lon":5.39303,"is_reserved":false,"is_disabled":false,"rental_uris":{"android":"levelo://app?vid=5685bd0d-2574-4734-8c9c-00ae4f47e51e","ios":"levelo://app?vid=5685bd0d-2574-4734-8c9c-00ae4f47e51e"},"vehicle_type_id":"4","last_reported":1746555275,"current_range_meters":19200,"station_id":"ce4bh2p2rcd13ifvqdi0","pricing_plan_id":"cebpf4jnsgd1na2vs0mg"},{"bike_id":"77474f5f-07ea-4e35-9f6f-a6063451dc6b","system_id":"levelo_inurba_marseille","lat":43.2407,"lon":5.37759,"is_reserved":false,"is_disabled":false,"rental_uris":{"android":"levelo://app?vid=77474f5f-07ea-4e35-9f6f-a6063451dc6b","ios":"levelo://app?vid=77474f5f-07ea-4e35-9f6f-a6063451dc6b"},"vehicle_type_id":"4","last_reported":1746555275,"current_range_meters":19600,"station_id":"ce4bhnp2rcd13ifvqgvg","pricing_plan_id":"cebpf4jnsgd1na2vs0mg"},{"bike_id":"d17d197f-fd51-426a-a4fe-12238885a566","system_id":"levelo_inurba_marseille","lat":43.28152,"lon":5.42641,"is_reserved":false,"is_disabled":false,"rental_uris":{"android":"levelo://app?vid=d17d197f-fd51-426a-a4fe-12238885a566","ios":"levelo://app?vid=d17d197f-fd51-426a-a4fe-12238885a566"},"vehicle_type_id":"4","last_reported":1746555275,"current_range_meters":19600,"station_id":"ce4bhnh2rcd13ifvqgug","pricing_plan_id":"cebpf4jnsgd1na2vs0mg"},{"bike_id":"ced1369b-c3b8-4484-832b-2dc47996891f","system_id":"levelo_inurba_marseille","lat":43.26568,"lon":5.39039,"is_reserved":false,"is_disabled":false,"rental_uris":{"android":"levelo://app?vid=ced1369b-c3b8-4484-832b-2dc47996891f","ios":"levelo://app?vid=ced1369b-c3b8-4484-832b-2dc47996891f"},"vehicle_type_id":"4","last_reported":1746555275,"current_range_meters":19600,"station_id":"ce4bhe12rcd13ifvqf30","pricing_plan_id":"cebpf4jnsgd1na2vs0mg"},{"bike_id":"a55ec945-c26b-4764-a447-a267edccc3dd","system_id":"levelo_inurba_marseille","lat":43.267822,"lon":5.410515,"is_reserved":false,"is_disabled":false,"rental_uris":{"android":"levelo://app?vid=a55ec945-c26b-4764-a447-a267edccc3dd","ios":"levelo://app?vid=a55ec945-c26b-4764-a447-a267edccc3dd"},"vehicle_type_id":"4","last_reported":1746555275,"current_range_meters":20000,"station_id":"ce4bhk92rcd13ifvqgb0","pricing_plan_id":"cebpf4jnsgd1na2vs0mg"},{"bike_id":"e37b26c4-9ac3-42b7-9dd8-77514dad2b3c","system_id":"levelo_inurba_marseille","lat":43.30429,"lon":5.38884,"is_reserved":false,"is_disabled":false,"rental_uris":{"android":"levelo://app?vid=e37b26c4-9ac3-42b7-9dd8-77514dad2b3c","ios":"levelo://app?vid=e37b26c4-9ac3-42b7-9dd8-77514dad2b3c"},"vehicle_type_id":"4","last_reported":1746555275,"current_range_meters":20000,"station_id":"ce4bgk12rcd13ifvqbi0","pricing_plan_id":"cebpf4jnsgd1na2vs0mg"},{"bike_id":"2494ffb0-eee8-4693-9e50-49e709c3841a","system_id":"levelo_inurba_marseille","lat":43.29525,"lon":5.38537,"is_reserved":false,"is_disabled":false,"rental_uris":{"android":"levelo://app?vid=2494ffb0-eee8-4693-9e50-49e709c3841a","ios":"levelo://app?vid=2494ffb0-eee8-4693-9e50-49e709c3841a"},"vehicle_type_id":"4","last_reported":1746555275,"current_range_meters":20000,"station_id":"ce4bgih2rcd13ifvqba0","pricing_plan_id":"cebpf4jnsgd1na2vs0mg"},{"bike_id":"81dd1c4b-6a3b-4570-b1e2-1c9b93ab7410","system_id":"levelo_inurba_marseille","lat":43.22508,"lon":5.34772,"is_reserved":false,"is_disabled":false,"rental_uris":{"android":"levelo://app?vid=81dd1c4b-6a3b-4570-b1e2-1c9b93ab7410","ios":"levelo://app?vid=81dd1c4b-6a3b-4570-b1e2-1c9b93ab7410"},"vehicle_type_id":"4","last_reported":1746555275,"current_range_meters":20000,"station_id":"st_cvj5dfep6f1abm77gieg","pricing_plan_id":"cebpf4jnsgd1na2vs0mg"},{"bike_id":"a3ed077e-760f-4bb6-b7f5-6ec386df71d4","system_id":"levelo_inurba_marseille","lat":43.217498,"lon":5.346064,"is_reserved":false,"is_disabled":false,"rental_uris":{"android":"levelo://app?vid=a3ed077e-760f-4bb6-b7f5-6ec386df71d4","ios":"levelo://app?vid=a3ed077e-760f-4bb6-b7f5-6ec386df71d4"},"vehicle_type_id":"4","last_reported":1746555275,"current_range_meters":20400,"station_id":"st_cvj6r9ubvosntc0bgbag","pricing_plan_id":"cebpf4jnsgd1na2vs0mg"},{"bike_id":"24384f0e-408a-42ee-9dc0-46996d573e79","system_id":"levelo_inurba_marseille","lat":43.22503,"lon":5.34787,"is_reserved":false,"is_disabled":false,"rental_uris":{"android":"levelo://app?vid=24384f0e-408a-42ee-9dc0-46996d573e79","ios":"levelo://app?vid=24384f0e-408a-42ee-9dc0-46996d573e79"},"vehicle_type_id":"4","last_reported":1746555275,"current_range_meters":20400,"station_id":"st_cvj5dfep6f1abm77gieg","pricing_plan_id":"cebpf4jnsgd1na2vs0mg"},{"bike_id":"0d20fa4e-a211-4363-a945-ec725378a3a5","system_id":"levelo_inurba_marseille","lat":43.322677,"lon":5.382753,"is_reserved":false,"is_disabled":false,"rental_uris":{"android":"levelo://app?vid=0d20fa4e-a211-4363-a945-ec725378a3a5","ios":"levelo://app?vid=0d20fa4e-a211-4363-a945-ec725378a3a5"},"vehicle_type_id":"4","last_reported":1746555275,"current_range_meters":20800,"station_id":"ce4bhr12rcd13ifvqhqg","pricing_plan_id":"cebpf4jnsgd1na2vs0mg"},{"bike_id":"63af6f78-57d5-4f3d-9494-a6d72ff84dc1","system_id":"levelo_inurba_marseille","lat":43.21203,"lon":5.35052,"is_reserved":false,"is_disabled":false,"rental_uris":{"android":"levelo://app?vid=63af6f78-57d5-4f3d-9494-a6d72ff84dc1","ios":"levelo://app?vid=63af6f78-57d5-4f3d-9494-a6d72ff84dc1"},"vehicle_type_id":"4","last_reported":1746555275,"current_range_meters":20800,"station_id":"st_cvj6sg6p6f1abm77japg","pricing_plan_id":"cebpf4jnsgd1na2vs0mg"},{"bike_id":"22ab888d-7bc8-4340-bb65-581f579312d9","system_id":"levelo_inurba_marseille","lat":43.27805,"lon":5.40712,"is_reserved":false,"is_disabled":false,"rental_uris":{"android":"levelo://app?vid=22ab888d-7bc8-4340-bb65-581f579312d9","ios":"levelo://app?vid=22ab888d-7bc8-4340-bb65-581f579312d9"},"vehicle_type_id":"4","last_reported":1746555275,"current_range_meters":20800,"station_id":"ce4bhnh2rcd13ifvqgtg","pricing_plan_id":"cebpf4jnsgd1na2vs0mg"},{"bike_id":"b288657d-a326-4e0c-ad41-58848f71ab90","system_id":"levelo_inurba_marseille","lat":43.30794,"lon":5.43528,"is_reserved":false,"is_disabled":false,"rental_uris":{"android":"levelo://app?vid=b288657d-a326-4e0c-ad41-58848f71ab90","ios":"levelo://app?vid=b288657d-a326-4e0c-ad41-58848f71ab90"},"vehicle_type_id":"4","last_reported":1746555275,"current_range_meters":20800,"station_id":"ce4bhph2rcd13ifvqheg","pricing_plan_id":"cebpf4jnsgd1na2vs0mg"},{"bike_id":"651acc80-ef31-4a17-88f6-12a1262bd550","system_id":"levelo_inurba_marseille","lat":43.27171,"lon":5.40994,"is_reserved":false,"is_disabled":false,"rental_uris":{"android":"levelo://app?vid=651acc80-ef31-4a17-88f6-12a1262bd550","ios":"levelo://app?vid=651acc80-ef31-4a17-88f6-12a1262bd550"},"vehicle_type_id":"4","last_reported":1746555275,"current_range_meters":20800,"station_id":"ce4bhl12rcd13ifvqgf0","pricing_plan_id":"cebpf4jnsgd1na2vs0mg"},{"bike_id":"c7105b3e-81f0-4cc5-a710-2e71caa60471","system_id":"levelo_inurba_marseille","lat":43.29438,"lon":5.39762,"is_reserved":false,"is_disabled":true,"rental_uris":{"android":"levelo://app?vid=c7105b3e-81f0-4cc5-a710-2e71caa60471","ios":"levelo://app?vid=c7105b3e-81f0-4cc5-a710-2e71caa60471"},"vehicle_type_id":"4","last_reported":1746555275,"current_range_meters":20800,"station_id":"ce4bh3h2rcd13ifvqdo0","pricing_plan_id":"cebpf4jnsgd1na2vs0mg"},{"bike_id":"8015471d-b111-49e7-ae88-6808aaa46e63","system_id":"levelo_inurba_marseille","lat":43.26199,"lon":5.37925,"is_reserved":false,"is_disabled":false,"rental_uris":{"android":"levelo://app?vid=8015471d-b111-49e7-ae88-6808aaa46e63","ios":"levelo://app?vid=8015471d-b111-49e7-ae88-6808aaa46e63"},"vehicle_type_id":"4","last_reported":1746555275,"current_range_meters":20800,"station_id":"ce4bhjp2rcd13ifvqg90","pricing_plan_id":"cebpf4jnsgd1na2vs0mg"},{"bike_id":"397ed50a-607c-4162-846e-38e3cb87aeb4","system_id":"levelo_inurba_marseille","lat":43.31326,"lon":5.397,"is_reserved":false,"is_disabled":false,"rental_uris":{"android":"levelo://app?vid=397ed50a-607c-4162-846e-38e3cb87aeb4","ios":"levelo://app?vid=397ed50a-607c-4162-846e-38e3cb87aeb4"},"vehicle_type_id":"4","last_reported":1746555275,"current_range_meters":21600,"station_id":"ce4bgvp2rcd13ifvqcu0","pricing_plan_id":"cebpf4jnsgd1na2vs0mg"},{"bike_id":"4d4a19f0-3f3c-4767-9a4d-275e0e20e723","system_id":"levelo_inurba_marseille","lat":43.29785,"lon":5.39335,"is_reserved":false,"is_disabled":false,"rental_uris":{"android":"levelo://app?vid=4d4a19f0-3f3c-4767-9a4d-275e0e20e723","ios":"levelo://app?vid=4d4a19f0-3f3c-4767-9a4d-275e0e20e723"},"vehicle_type_id":"4","last_reported":1746555275,"current_range_meters":21600,"station_id":"chh1huq6cuj3fo74tm60","pricing_plan_id":"cebpf4jnsgd1na2vs0mg"},{"bike_id":"3fee3462-456c-4f43-9504-97d0442acf23","system_id":"levelo_inurba_marseille","lat":43.24548,"lon":5.39511,"is_reserved":false,"is_disabled":false,"rental_uris":{"android":"levelo://app?vid=3fee3462-456c-4f43-9504-97d0442acf23","ios":"levelo://app?vid=3fee3462-456c-4f43-9504-97d0442acf23"},"vehicle_type_id":"4","last_reported":1746555275,"current_range_meters":21600,"station_id":"ce4bhlp2rcd13ifvqgjg","pricing_plan_id":"cebpf4jnsgd1na2vs0mg"},{"bike_id":"60689545-5d60-47bd-8c83-dfeb87ae92a6","system_id":"levelo_inurba_marseille","lat":43.23065,"lon":5.35493,"is_reserved":false,"is_disabled":false,"rental_uris":{"android":"levelo://app?vid=60689545-5d60-47bd-8c83-dfeb87ae92a6","ios":"levelo://app?vid=60689545-5d60-47bd-8c83-dfeb87ae92a6"},"vehicle_type_id":"4","last_reported":1746555275,"current_range_meters":21600,"station_id":"cpo3342slgdg3j2ifvpg","pricing_plan_id":"cebpf4jnsgd1na2vs0mg"},{"bike_id":"b84ce581-5ccb-4316-99c0-9db24e20ffc8","system_id":"levelo_inurba_marseille","lat":43.29003,"lon":5.35609,"is_reserved":false,"is_disabled":false,"rental_uris":{"android":"levelo://app?vid=b84ce581-5ccb-4316-99c0-9db24e20ffc8","ios":"levelo://app?vid=b84ce581-5ccb-4316-99c0-9db24e20ffc8"},