{"last_updated":1701439624,"ttl":30,"version":"2.2","data":{"bikes":[{"bike_id":"3c9dc2f8-75a6-46c6-8514-31eddab1ff34","system_id":"levelo_inurba_marseille","lat":43.31341,"lon":5.367098,"is_reserved":false,"is_disabled":false,"rental_uris":{"android":"levelo://app?vid=3c9dc2f8-75a6-46c6-8514-31eddab1ff34","ios":"levelo://app?vid=3c9dc2f8-75a6-46c6-8514-31eddab1ff34"},"vehicle_type_id":"4","last_reported":1701439624,"current_range_meters":31200,"station_id":"ce4bgr92rcd13ifvqc6g","pricing_plan_id":"free"},{"bike_id":"08eeef1b-4966-4fab-bdce-d0a413859701","system_id":"levelo_inurba_marseille","lat":43.309076,"lon":5.368465,"is_reserved":false,"is_disabled":false,"rental_uris":{"android":"levelo://app?vid=08eeef1b-4966-4fab-bdce-d0a413859701","ios":"levelo://app?vid=08eeef1b-4966-4fab-bdce-d0a413859701"},"vehicle_type_id":"4","last_reported":1701439624,"current_range_meters":25200,"station_id":"ce4bgn92rcd13ifvqbvg","pricing_plan_id":"free"},{"bike_id":"2dd83692-907f-43d9-83e2-d00327120c96","system_id":"levelo_inurba_marseille","lat":43.309076,"lon":5.368465,"is_reserved":false,"is_disabled":false,"rental_uris":{"android":"levelo://app?vid=2dd83692-907f-43d9-83e2-d00327120c96","ios":"levelo://app?vid=2dd83692-907f-43d9-83e2-d00327120c96"},"vehicle_type_id":"4","last_reported":1701439624,"current_range_meters":5200,"station_id":"ce4bgn92rcd13ifvqbvg","pricing_plan_id":"free"},{"bike_id":"3dd993a4-3713-4f57-b3e1-2bef5c9ddf75","system_id":"levelo_inurba_marseille","lat":43.309039,"lon":5.371797,"is_reserved":false,"is_disabled":false,"rental_uris":{"android":"levelo://app?vid=3dd993a4-3713-4f57-b3e1-2bef5c9ddf75","ios":"levelo://app?vid=3dd993a4-3713-4f57-b3e1-2bef5c9ddf75"},"vehicle_type_id":"4","last_reported":1701439624,"current_range_meters":14400,"station_id":"ce4bguh2rcd13ifvqckg","pricing_plan_id":"free"},{"bike_id":"26d5fea0-0988-496a-8ef2-8c553ea7fb07","system_id":"levelo_inurba_marseille","lat":43.30549,"lon":5.36555,"is_reserved":false,"is_disabled":false,"rental_uris":{"android":"levelo://app?vid=26d5fea0-0988-496a-8ef2-8c553ea7fb07","ios":"levelo://app?vid=26d5fea0-0988-496a-8ef2-8c553ea7fb07"},"vehicle_type_id":"4","last_reported":1701439624,"current_range_meters":14000,"station_id":"ce4bgs12rcd13ifvqcag","pricing_plan_id":"free"},{"bike_id":"c89c3dfe-e6ca-4cbc-96f6-79c8a8baa3f6","system_id":"levelo_inurba_marseille","lat":43.30545,"lon":5.36553,"is_reserved":false,"is_disabled":false,"rental_uris":{"android":"levelo://app?vid=c89c3dfe-e6ca-4cbc-96f6-79c8a8baa3f6","ios":"levelo://app?vid=c89c3dfe-e6ca-4cbc-96f6-79c8a8baa3f6"},"vehicle_type_id":"4","last_reported":1701439624,"current_range_meters":0,"station_id":"ce4bgs12rcd13ifvqcag","pricing_plan_id":"free"},{"bike_id":"6fa97053-2121-4794-9c70-97f88892e5eb","system_id":"levelo_inurba_marseille","lat":43.30535,"lon":5.36712,"is_reserved":false,"is_disabled":false,"rental_uris":{"android":"levelo://app?vid=6fa97053-2121-4794-9c70-97f88892e5eb","ios":"levelo://app?vid=6fa97053-2121-4794-9c70-97f88892e5eb"},"vehicle_type_id":"4","last_reported":1701439624,"current_range_meters":25600,"station_id":"ce4bgrp2rcd13ifvqc9g","pricing_plan_id":"free"},{"bike_id":"a66cf2a9-6164-43ab-88a8-2238bb0ebb53","system_id":"levelo_inurba_marseille","lat":43.305706,"lon":5.365654,"is_reserved":false,"is_disabled":false,"rental_uris":{"android":"levelo://app?vid=a66cf2a9-6164-43ab-88a8-2238bb0ebb53","ios":"levelo://app?vid=a66cf2a9-6164-43ab-88a8-2238bb0ebb53"},"vehicle_type_id":"4","last_reported":1701439624,"current_range_meters":15600,"station_id":"ce4bgs12rcd13ifvqcag","pricing_plan_id":"free"},{"bike_id":"d3232495-bd8a-40d2-b721-e926129239a9","system_id":"levelo_inurba_marseille","lat":43.305714,"lon":5.365633,"is_reserved":false,"is_disabled":false,"rental_uris":{"android":"levelo://app?vid=d3232495-bd8a-40d2-b721-e926129239a9","ios":"levelo://app?vid=d3232495-bd8a-40d2-b721-e926129239a9"},"vehicle_type_id":"4","last_reported":1701439624,"current_range_meters":0,"station_id":"ce4bgs12rcd13ifvqcag","pricing_plan_id":"free"},{"bike_id":"5a390d26-7e46-45e6-8a3b-89c5fa7ea65f","system_id":"levelo_inurba_marseille","lat":43.305989,"lon":5.37225,"is_reserved":false,"is_disabled":false,"rental_uris":{"android":"levelo://app?vid=5a390d26-7e46-45e6-8a3b-89c5fa7ea65f","ios":"levelo://app?vid=5a390d26-7e46-45e6-8a3b-89c5fa7ea65f"},"vehicle_type_id":"4","last_reported":1701439624,"current_range_meters":22800,"station_id":"ce4bgqh2rcd13ifvqc4g","pricing_plan_id":"free"},{"bike_id":"8bbf7466-b2a3-486e-ab44-3efaba79170d","system_id":"levelo_inurba_marseille","lat":43.305989,"lon":5.37225,"is_reserved":false,"is_disabled":false,"rental_uris":{"android":"levelo://app?vid=8bbf7466-b2a3-486e-ab44-3efaba79170d","ios":"levelo://app?vid=8bbf7466-b2a3-486e-ab44-3efaba79170d"},"vehicle_type_id":"4","last_reported":1701439624,"current_range_meters":21600,"station_id":"ce4bgqh2rcd13ifvqc4g","pricing_plan_id":"free"},{"bike_id":"d96c4639-d7b5-4031-a9d8-29d9f9d9be1b","system_id":"levelo_inurba_marseille","lat":43.305989,"lon":5.37225,"is_reserved":false,"is_disabled":false,"rental_uris":{"android":"levelo://app?vid=d96c4639-d7b5-4031-a9d8-29d9f9d9be1b","ios":"levelo://app?vid=d96c4639-d7b5-4031-a9d8-29d9f9d9be1b"},"vehicle_type_id":"4","last_reported":1701439624,"current_range_meters":28400,"station_id":"ce4bgqh2rcd13ifvqc4g","pricing_plan_id":"free"},{"bike_id":"7bdbcfe9-924e-49e5-849f-fb7276f261aa","system_id":"levelo_inurba_marseille","lat":43.31057,"lon":5.377467,"is_reserved":false,"is_disabled":false,"rental_uris":{"android":"levelo://app?vid=7bdbcfe9-924e-49e5-849f-fb7276f261aa","ios":"levelo://app?vid=7bdbcfe9-924e-49e5-849f-fb7276f261aa"},"vehicle_type_id":"4","last_reported":1701439624,"current_range_meters":10800,"station_id":"","pricing_plan_id":"free"},{"bike_id":"727d231a-d425-4d8f-ad3f-99b5a47572e8","system_id":"levelo_inurba_marseille","lat":43.30439,"lon":5.36753,"is_reserved":false,"is_disabled":false,"rental_uris":{"android":"levelo://app?vid=727d231a-d425-4d8f-ad3f-99b5a47572e8","ios":"levelo://app?vid=727d231a-d425-4d8f-ad3f-99b5a47572e8"},"vehicle_type_id":"4","last_reported":1701439624,"current_range_meters":28000,"station_id":"","pricing_plan_id":"free"},{"bike_id":"f427a2c3-6e4a-446b-ae2f-9be8aa7f4122","system_id":"levelo_inurba_marseille","lat":43.31719,"lon":5.376813,"is_reserved":false,"is_disabled":false,"rental_uris":{"android":"levelo://app?vid=f427a2c3-6e4a-446b-ae2f-9be8aa7f4122","ios":"levelo://app?vid=f427a2c3-6e4a-446b-ae2f-9be8aa7f4122"},"vehicle_type_id":"4","last_reported":1701439624,"current_range_meters":1600,"station_id":"","pricing_plan_id":"free"},{"bike_id":"e913f328-1e31-4c22-bd87-f809ea246de4","system_id":"levelo_inurba_marseille","lat":43.317168,"lon":5.376883,"is_reserved":false,"is_disabled":false,"rental_uris":{"android":"levelo://app?vid=e913f328-1e31-4c22-bd87-f809ea246de4","ios":"levelo://app?vid=e913f328-1e31-4c22-bd87-f809ea246de4"},"vehicle_type_id":"4","last_reported":1701439624,"current_range_meters":4000,"station_id":"","pricing_plan_id":"free"},{"bike_id":"ea2b5c26-a8b5-4d2b-8675-1d068a884886","system_id":"levelo_inurba_marseille","lat":43.307945,"lon":5.376487,"is_reserved":false,"is_disabled":false,"rental_uris":{"android":"levelo://app?vid=ea2b5c26-a8b5-4d2b-8675-1d068a884886","ios":"levelo://app?vid=ea2b5c26-a8b5-4d2b-8675-1d068a884886"},"vehicle_type_id":"4","last_reported":1701439624,"current_range_meters":31200,"station_id":"ce4bgv92rcd13ifvqcq0","pricing_plan_id":"free"},{"bike_id":"fb6fd937-527b-4585-9058-0dfdc6436ac8","system_id":"levelo_inurba_marseille","lat":43.31527,"lon":5.38039,"is_reserved":false,"is_disabled":false,"rental_uris":{"android":"levelo://app?vid=fb6fd937-527b-4585-9058-0dfdc6436ac8","ios":"levelo://app?vid=fb6fd937-527b-4585-9058-0dfdc6436ac8"},"vehicle_type_id":"4","last_reported":1701439624,"current_range_meters":25200,"station_id":"ce4bhsp2rcd13ifvqi50","pricing_plan_id":"free"},{"bike_id":"d5a0a6ed-8683-419f-a66f-5de4fa87f594","system_id":"levelo_inurba_marseille","lat":43.301939,"lon":5.366286,"is_reserved":false,"is_disabled":false,"rental_uris":{"android":"levelo://app?vid=d5a0a6ed-8683-419f-a66f-5de4fa87f594","ios":"levelo://app?vid=d5a0a6ed-8683-419f-a66f-5de4fa87f594"},"vehicle_type_id":"4","last_reported":1701439624,"current_range_meters":26000,"station_id":"ce4bgrh2rcd13ifvqc8g","pricing_plan_id":"free"},{"bike_id":"31403651-79e9-44e7-be8f-01db53f070f8","system_id":"levelo_inurba_marseille","lat":43.301939,"lon":5.366286,"is_reserved":false,"is_disabled":false,"rental_uris":{"android":"levelo://app?vid=31403651-79e9-44e7-be8f-01db53f070f8","ios":"levelo://app?vid=31403651-79e9-44e7-be8f-01db53f070f8"},"vehicle_type_id":"4","last_reported":1701439624,"current_range_meters":26800,"station_id":"ce4bgrh2rcd13ifvqc8g","pricing_plan_id":"free"},{"bike_id":"19dcde97-826d-4c77-b8cf-d90ba7f775b0","system_id":"levelo_inurba_marseille","lat":43.324771,"lon":5.36557,"is_reserved":false,"is_disabled":false,"rental_uris":{"android":"levelo://app?vid=19dcde97-826d-4c77-b8cf-d90ba7f775b0","ios":"levelo://app?vid=19dcde97-826d-4c77-b8cf-d90ba7f775b0"},"vehicle_type_id":"4","last_reported":1701439624,"current_range_meters":18400,"station_id":"ce4bhs12rcd13ifvqhvg","pricing_plan_id":"free"},{"bike_id":"541e039a-4cc4-4203-b2a5-aec79c356137","system_id":"levelo_inurba_marseille","lat":43.30143,"lon":5.37413,"is_reserved":false,"is_disabled":false,"rental_uris":{"android":"levelo://app?vid=541e039a-4cc4-4203-b2a5-aec79c356137","ios":"levelo://app?vid=541e039a-4cc4-4203-b2a5-aec79c356137"},"vehicle_type_id":"4","last_reported":1701439624,"current_range_meters":23200,"station_id":"ce4bgs92rcd13ifvqcc0","pricing_plan_id":"free"},{"bike_id":"2275aca5-3158-4c2c-8022-ca5d2714bc86","system_id":"levelo_inurba_marseille","lat":43.319997,"lon":5.381594,"is_reserved":false,"is_disabled":false,"rental_uris":{"android":"levelo://app?vid=2275aca5-3158-4c2c-8022-ca5d2714bc86","ios":"levelo://app?vid=2275aca5-3158-4c2c-8022-ca5d2714bc86"},"vehicle_type_id":"4","last_reported":1701439624,"current_range_meters":18800,"station_id":"ce4bhr12rcd13ifvqhpg","pricing_plan_id":"free"},{"bike_id":"4250c6d2-749d-4dd5-b59c-c4ec398a8a23","system_id":"levelo_inurba_marseille","lat":43.319935,"lon":5.381699,"is_reserved":false,"is_disabled":false,"rental_uris":{"android":"levelo://app?vid=4250c6d2-749d-4dd5-b59c-c4ec398a8a23","ios":"levelo://app?vid=4250c6d2-749d-4dd5-b59c-c4ec398a8a23"},"vehicle_type_id":"4","last_reported":1701439624,"current_range_meters":25200,"station_id":"ce4bhr12rcd13ifvqhpg","pricing_plan_id":"free"},{"bike_id":"748d12ab-8e09-4ecd-b2d2-cbe0ea9624f6","system_id":"levelo_inurba_marseille","lat":43.298543,"lon":5.367639,"is_reserved":false,"is_disabled":false,"rental_uris":{"android":"levelo://app?vid=748d12ab-8e09-4ecd-b2d2-cbe0ea9624f6","ios":"levelo://app?vid=748d12ab-8e09-4ecd-b2d2-cbe0ea9624f6"},"vehicle_type_id":"4","last_reported":1701439624,"current_range_meters":10800,"station_id":"","pricing_plan_id":"free"},{"bike_id":"82f55693-5755-421f-924c-5aeda155e746","system_id":"levelo_inurba_marseille","lat":43.303002,"lon":5.392142,"is_reserved":false,"is_disabled":false,"rental_uris":{"android":"levelo://app?vid=82f55693-5755-421f-924c-5aeda155e746","ios":"levelo://app?vid=82f55693-5755-421f-924c-5aeda155e746"},"vehicle_type_id":"4","last_reported":1701439624,"current_range_meters":21600,"station_id":"ce4bgkh2rcd13ifvqbk0","pricing_plan_id":"free"},{"bike_id":"87841ea5-3431-4695-98a4-f1c826b1bbe7","system_id":"levelo_inurba_marseille","lat":43.2991,"lon":5.374687,"is_reserved":false,"is_disabled":false,"rental_uris":{"android":"levelo://app?vid=87841ea5-3431-4695-98a4-f1c826b1bbe7","ios":"levelo://app?vid=87841ea5-3431-4695-98a4-f1c826b1bbe7"},"vehicle_type_id":"4","last_reported":1701439624,"current_range_meters":0,"station_id":"ce4bgjh2rcd13ifvqbg0","pricing_plan_id":"free"},{"bike_id":"f15eba9c-d62e-489a-9cd4-52639a2036d1","system_id":"levelo_inurba_marseille","lat":43.311722,"lon":5.387247,"is_reserved":false,"is_disabled":false,"rental_uris":{"android":"levelo://app?vid=f15eba9c-d62e-489a-9cd4-52639a2036d1","ios":"levelo://app?vid=f15eba9c-d62e-489a-9cd4-52639a2036d1"},"vehicle_type_id":"4","last_reported":1701439624,"current_range_meters":27200,"station_id":"ce4bgv12rcd13ifvqcp0","pricing_plan_id":"free"},{"bike_id":"044199e5-3443-4984-b151-477a87db8a3e","system_id":"levelo_inurba_marseille","lat":43.3281,"lon":5.3668,"is_reserved":false,"is_disabled":false,"rental_uris":{"android":"levelo://app?vid=044199e5-3443-4984-b151-477a87db8a3e","ios":"levelo://app?vid=044199e5-3443-4984-b151-477a87db8a3e"},"vehicle_type_id":"4","last_reported":1701439624,"current_range_meters":28800,"station_id":"ce4bhs92rcd13ifvqi0g","pricing_plan_id":"free"},{"bike_id":"65073be3-64d5-4947-9113-fd11101b78dd","system_id":"levelo_inurba_marseille","lat":43.322872,"lon":5.382756,"is_reserved":false,"is_disabled":false,"rental_uris":{"android":"levelo://app?vid=65073be3-64d5-4947-9113-fd11101b78dd","ios":"levelo://app?vid=65073be3-64d5-4947-9113-fd11101b78dd"},"vehicle_type_id":"4","last_reported":1701439624,"current_range_meters":12800,"station_id":"ce4bhr12rcd13ifvqhqg","pricing_plan_id":"free"},{"bike_id":"38b36a3d-7fa0-425f-884d-37f0109ceebf","system_id":"levelo_inurba_marseille","lat":43.32827,"lon":5.36691,"is_reserved":false,"is_disabled":false,"rental_uris":{"android":"levelo://app?vid=38b36a3d-7fa0-425f-884d-37f0109ceebf","ios":"levelo://app?vid=38b36a3d-7fa0-425f-884d-37f0109ceebf"},"vehicle_type_id":"4","last_reported":1701439624,"current_range_meters":17200,"station_id":"ce4bhs92rcd13ifvqi0g","pricing_plan_id":"free"},{"bike_id":"b79c00e9-2e26-4f63-a6b2-e6d49a437cf5","system_id":"levelo_inurba_marseille","lat":43.32831,"lon":5.36686,"is_reserved":false,"is_disabled":false,"rental_uris":{"android":"levelo://app?vid=b79c00e9-2e26-4f63-a6b2-e6d49a437cf5","ios":"levelo://app?vid=b79c00e9-2e26-4f63-a6b2-e6d49a437cf5"},"vehicle_type_id":"4","last_reported":1701439624,"current_range_meters":9200,"station_id":"ce4bhs92rcd13ifvqi0g","pricing_plan_id":"free"},{"bike_id":"1453d510-ce1e-4b2a-869b-2a5b2ff12885","system_id":"levelo_inurba_marseille","lat":43.29705,"lon":5.36613,"is_reserved":false,"is_disabled":false,"rental_uris":{"android":"levelo://app?vid=1453d510-ce1e-4b2a-869b-2a5b2ff12885","ios":"levelo://app?vid=1453d510-ce1e-4b2a-869b-2a5b2ff12885"},"vehicle_type_id":"4","last_reported":1701439624,"current_range_meters":6000,"station_id":"ce4bgn12rcd13ifvqbt0","pricing_plan_id":"free"},{"bike_id":"e9832211-0d2a-4134-84f6-b05ea43353a4","system_id":"levelo_inurba_marseille","lat":43.297163,"lon":5.365866,"is_reserved":false,"is_disabled":false,"rental_uris":{"android":"levelo://app?vid=e9832211-0d2a-4134-84f6-b05ea43353a4","ios":"levelo://app?vid=e9832211-0d2a-4134-84f6-b05ea43353a4"},"vehicle_type_id":"4","last_reported":1701439624,"current_range_meters":10000,"station_id":"ce4bgn12rcd13ifvqbt0","pricing_plan_id":"free"},{"bike_id":"5983625d-69f5-485f-a399-daec2999c965","system_id":"levelo_inurba_marseille","lat":43.321511,"lon":5.385721,"is_reserved":false,"is_disabled":false,"rental_uris":{"android":"levelo://app?vid=5983625d-69f5-485f-a399-daec2999c965","ios":"levelo://app?vid=5983625d-69f5-485f-a399-daec2999c965"},"vehicle_type_id":"4","last_reported":1701439624,"current_range_meters":6400,"station_id":"","pricing_plan_id":"free"},{"bike_id":"d068864e-3768-4cb7-8f2c-e01febcf4d60","system_id":"levelo_inurba_marseille","lat":43.29621,"lon":5.36523,"is_reserved":false,"is_disabled":false,"rental_uris":{"android":"levelo://app?vid=d068864e-3768-4cb7-8f2c-e01febcf4d60","ios":"levelo://app?vid=d068864e-3768-4cb7-8f2c-e01febcf4d60"},"vehicle_type_id":"4","last_reported":1701439624,"current_range_meters":7600,"station_id":"","pricing_plan_id":"free"},{"bike_id":"86dc693d-d93f-472c-b282-b733612935cd","system_id":"levelo_inurba_marseille","lat":43.309589,"lon":5.390258,"is_reserved":false,"is_disabled":false,"rental_uris":{"android":"levelo://app?vid=86dc693d-d93f-472c-b282-b733612935cd","ios":"levelo://app?vid=86dc693d-d93f-472c-b282-b733612935cd"},"vehicle_type_id":"4","last_reported":1701439624,"current_range_meters":30400,"station_id":"ce4bgup2rcd13ifvqco0","pricing_plan_id":"free"},{"bike_id":"8408bf07-6d9c-4729-b1a7-65f5701c5a97","system_id":"levelo_inurba_marseille","lat":43.298037,"lon":5.381066,"is_reserved":false,"is_disabled":false,"rental_uris":{"android":"levelo://app?vid=8408bf07-6d9c-4729-b1a7-65f5701c5a97","ios":"levelo://app?vid=8408bf07-6d9c-4729-b1a7-65f5701c5a97"},"vehicle_type_id":"4","last_reported":1701439624,"current_range_meters":24400,"station_id":"ce4bgip2rcd13ifvqbb0","pricing_plan_id":"free"},{"bike_id":"33235447-5367-47b7-9f14-e3e6c6302e9f","system_id":"levelo_inurba_marseille","lat":43.298037,"lon":5.381066,"is_reserved":false,"is_disabled":false,"rental_uris":{"android":"levelo://app?vid=33235447-5367-47b7-9f14-e3e6c6302e9f","ios":"levelo://app?vid=33235447-5367-47b7-9f14-e3e6c6302e9f"},"vehicle_type_id":"4","last_reported":1701439624,"current_range_meters":22000,"station_id":"ce4bgip2rcd13ifvqbb0","pricing_plan_id":"free"},{"bike_id":"92341269-5446-4b10-b1c3-52135229cc5b","system_id":"levelo_inurba_marseille","lat":43.298037,"lon":5.381066,"is_reserved":false,"is_disabled":false,"rental_uris":{"android":"levelo://app?vid=92341269-5446-4b10-b1c3-52135229cc5b","ios":"levelo://app?vid=92341269-5446-4b10-b1c3-52135229cc5b"},"vehicle_type_id":"4","last_reported":1701439624,"current_range_meters":10000,"station_id":"ce4bgip2rcd13ifvqbb0","pricing_plan_id":"free"},{"bike_id":"df239197-b84a-4989-a1ed-91984a5e3078","system_id":"levelo_inurba_marseille","lat":43.298037,"lon":5.381066,"is_reserved":false,"is_disabled":false,"rental_uris":{"android":"levelo://app?vid=df239197-b84a-4989-a1ed-91984a5e3078","ios":"levelo://app?vid=df239197-b84a-4989-a1ed-91984a5e3078"},"vehicle_type_id":"4","last_reported":1701439624,"current_range_meters":4000,"station_id":"ce4bgip2rcd13ifvqbb0","pricing_plan_id":"free"},{"bike_id":"ec985be4-7232-42d0-8f80-5faa332763f0","system_id":"levelo_inurba_marseille","lat":43.29575,"lon":5.37524,"is_reserved":false,"is_disabled":false,"rental_uris":{"android":"levelo://app?vid=ec985be4-7232-42d0-8f80-5faa332763f0","ios":"levelo://app?vid=ec985be4-7232-42d0-8f80-5faa332763f0"},"vehicle_type_id":"4","last_reported":1701439624,"current_range_meters":0,"station_id":"ce4bgh92rcd13ifvqb50","pricing_plan_id":"free"},{"bike_id":"24f19df3-ba5a-4327-8241-1a885c08f8ec","system_id":"levelo_inurba_marseille","lat":43.298037,"lon":5.381066,"is_reserved":false,"is_disabled":false,"rental_uris":{"android":"levelo://app?vid=24f19df3-ba5a-4327-8241-1a885c08f8ec","ios":"levelo://app?vid=24f19df3-ba5a-4327-8241-1a885c08f8ec"},"vehicle_type_id":"4","last_reported":1701439624,"current_range_meters":22800,"station_id":"ce4bgip2rcd13ifvqbb0","pricing_plan_id":"free"},{"bike_id":"1649529a-1a9c-4744-a992-aa2e4b4d8b33","system_id":"levelo_inurba_marseille","lat":43.299717,"lon":5.384845,"is_reserved":false,"is_disabled":false,"rental_uris":{"android":"levelo://app?vid=1649529a-1a9c-4744-a992-aa2e4b4d8b33","ios":"levelo://app?vid=1649529a-1a9c-4744-a992-aa2e4b4d8b33"},"vehicle_type_id":"4","last_reported":1701439624,"current_range_meters":13600,"station_id":"ce4bgj92rcd13ifvqbd0","pricing_plan_id":"free"},{"bike_id":"105b071e-6367-4f6e-b8ac-35d25ed064ea","system_id":"levelo_inurba_marseille","lat":43.313291,"lon":5.396838,"is_reserved":false,"is_disabled":false,"rental_uris":{"android":"levelo://app?vid=105b071e-6367-4f6e-b8ac-35d25ed064ea","ios":"levelo://app?vid=105b071e-6367-4f6e-b8ac-35d25ed064ea"},"vehicle_type_id":"4","last_reported":1701439624,"current_range_meters":28400,"station_id":"ce4bgvp2rcd13ifvqcu0","pricing_plan_id":"free"},{"bike_id":"81c81765-686e-4ef8-8ba0-60d7276501a3","system_id":"levelo_inurba_marseille","lat":43.32366,"lon":5.38888,"is_reserved":false,"is_disabled":false,"rental_uris":{"android":"levelo://app?vid=81c81765-686e-4ef8-8ba0-60d7276501a3","ios":"levelo://app?vid=81c81765-686e-4ef8-8ba0-60d7276501a3"},"vehicle_type_id":"4","last_reported":1701439624,"current_range_meters":26000,"station_id":"ce4bhqp2rcd13ifvqhog","pricing_plan_id":"free"},{"bike_id":"351c0f61-4749-4539-be1f-b799799bb6c6","system_id":"levelo_inurba_marseille","lat":43.29602,"lon":5.381084,"is_reserved":false,"is_disabled":false,"rental_uris":{"android":"levelo://app?vid=351c0f61-4749-4539-be1f-b799799bb6c6","ios":"levelo://app?vid=351c0f61-4749-4539-be1f-b799799bb6c6"},"vehicle_type_id":"4","last_reported":1701439624,"current_range_meters":18000,"station_id":"ce4bgl12rcd13ifvqbo0","pricing_plan_id":"free"},{"bike_id":"ff6e6534-45e5-415d-b60c-3642792e420f","system_id":"levelo_inurba_marseille","lat":43.292749,"lon":5.368402,"is_reserved":false,"is_disabled":false,"rental_uris":{"android":"levelo://app?vid=ff6e6534-45e5-415d-b60c-3642792e420f","ios":"levelo://app?vid=ff6e6534-45e5-415d-b60c-3642792e420f"},"vehicle_type_id":"4","last_reported":1701439624,"current_range_meters":13600,"station_id":"ce4bhbp2rcd13ifvqesg","pricing_plan_id":"free"},{"bike_id":"efc15249-0094-4388-8306-439bede5facd","system_id":"levelo_inurba_marseille","lat":43.292749,"lon":5.368402,"is_reserved":false,"is_disabled":false,"rental_uris":{"android":"levelo://app?vid=efc15249-0094-4388-8306-439bede5facd","ios":"levelo://app?vid=efc15249-0094-4388-8306-439bede5facd"},"vehicle_type_id":"4","last_reported":1701439624,"current_range_meters":27200,"station_id":"ce4bhbp2rcd13ifvqesg","pricing_plan_id":"free"},{"bike_id":"0480bbbd-fb2a-48d7-9e69-3d8c371ecd2a","system_id":"levelo_inurba_marseille","lat":43.305994,"lon":5.393687,"is_reserved":false,"is_disabled":false,"rental_uris":{"android":"levelo://app?vid=0480bbbd-fb2a-48d7-9e69-3d8c371ecd2a","ios":"levelo://app?vid=0480bbbd-fb2a-48d7-9e69-3d8c371ecd2a"},"vehicle_type_id":"4","last_reported":1701439624,"current_range_meters":2800,"station_id":"ce4bh0p2rcd13ifvqd80","pricing_plan_id":"free"},{"bike_id":"35e88f0d-0959-428a-aead-697093807729","system_id":"levelo_inurba_marseille","lat":43.2936,"lon":5.37835,"is_reserved":false,"is_disabled":false,"rental_uris":{"android":"levelo://app?vid=35e88f0d-0959-428a-aead-697093807729","ios":"levelo://app?vid=35e88f0d-0959-428a-aead-697093807729"},"vehicle_type_id":"4","last_reported":1701439624,"current_range_meters":25200,"station_id":"ce4bgjh2rcd13ifvqbf0","pricing_plan_id":"free"},{"bike_id":"4d35e0e1-8d23-4f4a-89b1-3c42f3d5ad8f","system_id":"levelo_inurba_marseille","lat":43.292311,"lon":5.360731,"is_reserved":false,"is_disabled":false,"rental_uris":{"android":"levelo://app?vid=4d35e0e1-8d23-4f4a-89b1-3c42f3d5ad8f","ios":"levelo://app?vid=4d35e0e1-8d23-4f4a-89b1-3c42f3d5ad8f"},"vehicle_type_id":"4","last_reported":1701439624,"current_range_meters":21200,"station_id":"ce4bhbh2rcd13ifvqeqg","pricing_plan_id":"free"},{"bike_id":"2a6c91e6-c0f7-46b2-b537-b9ef3d270a91","system_id":"levelo_inurba_marseille","lat":43.292311,"lon":5.360731,"is_reserved":false,"is_disabled":false,"rental_uris":{"android":"levelo://app?vid=2a6c91e6-c0f7-46b2-b537-b9ef3d270a91","ios":"levelo://app?vid=2a6c91e6-c0f7-46b2-b537-b9ef3d270a91"},"vehicle_type_id":"4","last_reported":1701439624,"current_range_meters":30000,"station_id":"ce4bhbh2rcd13ifvqeqg","pricing_plan_id":"free"},{"bike_id":"7c3df9f8-eb2f-4e0c-b5c4-399fd96f07e0","system_id":"levelo_inurba_marseille","lat":43.292311,"lon":5.360731,"is_reserved":false,"is_disabled":false,"rental_uris":{"android":"levelo://app?vid=7c3df9f8-eb2f-4e0c-b5c4-399fd96f07e0","ios":"levelo://app?vid=7c3df9f8-eb2f-4e0c-b5c4-399fd96f07e0"},"vehicle_type_id":"4","last_reported":1701439624,"current_range_meters":28400,"station_id":"ce4bhbh2rcd13ifvqeqg","pricing_plan_id":"free"},{"bike_id":"5d99d904-fb27-44e9-a68c-a72e24adb570","system_id":"levelo_inurba_marseille","lat":43.292311,"lon":5.360731,"is_reserved":false,"is_disabled":false,"rental_uris":{"android":"levelo://app?vid=5d99d904-fb27-44e9-a68c-a72e24adb570","ios":"levelo://app?vid=5d99d904-fb27-44e9-a68c-a72e24adb570"},"vehicle_type_id":"4","last_reported":1701439624,"current_range_meters":16800,"station_id":"ce4bhbh2rcd13ifvqeqg","pricing_plan_id":"free"},{"bike_id":"eaa0e7e7-2390-47fa-909b-7b240952cbef","system_id":"levelo_inurba_marseille","lat":43.319857,"lon":5.394562,"is_reserved":false,"is_disabled":false,"rental_uris":{"android":"levelo://app?vid=eaa0e7e7-2390-47fa-909b-7b240952cbef","ios":"levelo://app?vid=eaa0e7e7-2390-47fa-909b-7b240952cbef"},"vehicle_type_id":"4","last_reported":1701439624,"current_range_meters":18400,"station_id":"","pricing_plan_id":"free"},{"bike_id":"caf755f7-0d2b-4a03-89b0-d74d349d3975","system_id":"levelo_inurba_marseille","lat":43.29867,"lon":5.389247,"is_reserved":false,"is_disabled":false,"rental_uris":{"android":"levelo://app?vid=caf755f7-0d2b-4a03-89b0-d74d349d3975","ios":"levelo://app?vid=caf755f7-0d2b-4a03-89b0-d74d349d3975"},"vehicle_type_id":"4","last_reported":1701439624,"current_range_meters":22800,"station_id":"ce4bh392rcd13ifvqdl0","pricing_plan_id":"free"},{"bike_id":"6ab068b5-fbc7-4064-ad7e-6bfceded2877","system_id":"levelo_inurba_marseille","lat":43.290624,"lon":5.359245,"is_reserved":false,"is_disabled":false,"rental_uris":{"android":"levelo://app?vid=6ab068b5-fbc7-4064-ad7e-6bfceded2877","ios":"levelo://app?vid=6ab068b5-fbc7-4064-ad7e-6bfceded2877"},"vehicle_type_id":"4","last_reported":1701439624,"current_range_meters":0,"station_id":"ce4bha92rcd13ifvqeg0","pricing_plan_id":"free"},{"bike_id":"fac86e73-ada4-4f6e-b084-2f144d43733b","system_id":"levelo_inurba_marseille","lat":43.313235,"lon":5.396928,"is_reserved":false,"is_disabled":false,"rental_uris":{"android":"levelo://app?vid=fac86e73-ada4-4f6e-b084-2f144d43733b","ios":"levelo://app?vid=fac86e73-ada4-4f6e-b084-2f144d43733b"},"vehicle_type_id":"4","last_reported":1701439624,"current_range_meters":27600,"station_id":"ce4bgvp2rcd13ifvqcu0","pricing_plan_id":"free"},{"bike_id":"6d74d3e4-2179-44da-8c8f-9f381b3bf418","system_id":"levelo_inurba_marseille","lat":43.3133,"lon":5.39695,"is_reserved":false,"is_disabled":false,"rental_uris":{"android":"levelo://app?vid=6d74d3e4-2179-44da-8c8f-9f381b3bf418","ios":"levelo://app?vid=6d74d3e4-2179-44da-8c8f-9f381b3bf418"},"vehicle_type_id":"4","last_reported":1701439624,"current_range_meters":0,"station_id":"ce4bgvp2rcd13ifvqcu0","pricing_plan_id":"free"},{"bike_id":"62f30ee4-4291-4cb1-866b-b648e7330472","system_id":"levelo_inurba_marseille","lat":43.309047,"lon":5.396551,"is_reserved":false,"is_disabled":false,"rental_uris":{"android":"levelo://app?vid=62f30ee4-4291-4cb1-866b-b648e7330472","ios":"levelo://app?vid=62f30ee4-4291-4cb1-866b-b648e7330472"},"vehicle_type_id":"4","last_reported":1701439624,"current_range_meters":800,"station_id":"ce4bh012rcd13ifvqcv0","pricing_plan_id":"free"},{"bike_id":"248d14af-b6b7-4559-b418-2a35c477d481","system_id":"levelo_inurba_marseille","lat":43.302008,"lon":5.394694,"is_reserved":false,"is_disabled":false,"rental_uris":{"android":"levelo://app?vid=248d14af-b6b7-4559-b418-2a35c477d481","ios":"levelo://app?vid=248d14af-b6b7-4559-b418-2a35c477d481"},"vehicle_type_id":"4","last_reported":1701439624,"current_range_meters":27200,"station_id":"ce4bh0p2rcd13ifvqd70","pricing_plan_id":"free"},{"bike_id":"9fbb7457-483e-45cf-9155-c5711ae85bf2","system_id":"levelo_inurba_marseille","lat":43.30212,"lon":5.39471,"is_reserved":false,"is_disabled":false,"rental_uris":{"android":"levelo://app?vid=9fbb7457-483e-45cf-9155-c5711ae85bf2","ios":"levelo://app?vid=9fbb7457-483e-45cf-9155-c5711ae85bf2"},"vehicle_type_id":"4","last_reported":1701439624,"current_range_meters":4400,"station_id":"ce4bh0p2rcd13ifvqd70","pricing_plan_id":"free"},{"bike_id":"81321994-a6b2-43cb-be97-25a6adea1716","system_id":"levelo_inurba_marseille","lat":43.290624,"lon":5.359245,"is_reserved":false,"is_disabled":false,"rental_uris":{"android":"levelo://app?vid=81321994-a6b2-43cb-be97-25a6adea1716","ios":"levelo://app?vid=81321994-a6b2-43cb-be97-25a6adea1716"},"vehicle_type_id":"4","last_reported":1701439624,"current_range_meters":14800,"station_id":"ce4bha92rcd13ifvqeg0","pricing_plan_id":"free"},{"bike_id":"c6104509-f456-4b7d-8a51-d3ba77c46af4","system_id":"levelo_inurba_marseille","lat":43.312239,"lon":5.368562,"is_reserved":false,"is_disabled":false,"rental_uris":{"android":"levelo://app?vid=c6104509-f456-4b7d-8a51-d3ba77c46af4","ios":"levelo://app?vid=c6104509-f456-4b7d-8a51-d3ba77c46af4"},"vehicle_type_id":"4","last_reported":1701439624,"current_range_meters":7600,"station_id":"ce4bgl92rcd13ifvqbq0","pricing_plan_id":"free"},{"bike_id":"acf2c975-bd49-4ce4-b041-4efba7871ce8","system_id":"levelo_inurba_marseille","lat":43.290104,"lon":5.356111,"is_reserved":false,"is_disabled":false,"rental_uris":{"android":"levelo://app?vid=acf2c975-bd49-4ce4-b041-4efba7871ce8","ios":"levelo://app?vid=acf2c975-bd49-4ce4-b041-4efba7871ce8"},"vehicle_type_id":"4","last_reported":1701439624,"current_range_meters":29600,"station_id":"ce4bhb92rcd13ifvqen0","pricing_plan_id":"free"},{"bike_id":"fdc2fc9e-2f29-4c49-bcea-7a560d4446be","system_id":"levelo_inurba_marseille","lat":43.330507,"lon":5.390533,"is_reserved":false,"is_disabled":false,"rental_uris":{"android":"levelo://app?vid=fdc2fc9e-2f29-4c49-bcea-7a560d4446be","ios":"levelo://app?vid=fdc2fc9e-2f29-4c49-bcea-7a560d4446be"},"vehicle_type_id":"4","last_reported":1701439624,"current_range_meters":12800,"station_id":"","pricing_plan_id":"free"},{"bike_id":"f71bec80-1512-44cd-95d2-3d7fdee5df30","system_id":"levelo_inurba_marseille","lat":43.33057,"lon":5.39055,"is_reserved":false,"is_disabled":false,"rental_uris":{"android":"levelo://app?vid=f71bec80-1512-44cd-95d2-3d7fdee5df30","ios":"levelo://app?vid=f71bec80-1512-44cd-95d2-3d7fdee5df30"},"vehicle_type_id":"4","last_reported":1701439624,"current_range_meters":16000,"station_id":"","pricing_plan_id":"free"},{"bike_id":"1b6aa3ec-60db-44b9-865c-8e0f3068a5b1","system_id":"levelo_inurba_marseille","lat":43.28864,"lon":5.35869,"is_reserved":false,"is_disabled":false,"rental_uris":{"android":"levelo://app?vid=1b6aa3ec-60db-44b9-865c-8e0f3068a5b1","ios":"levelo://app?vid=1b6aa3ec-60db-44b9-865c-8e0f3068a5b1"},"vehicle_type_id":"4","last_reported":1701439624,"current_range_meters":0,"station_id":"ce4bhb12rcd13ifvqem0","pricing_plan_id":"free"},{"bike_id":"85b79b1a-f70d-4172-bd35-c7df323657e8","system_id":"levelo_inurba_marseille","lat":43.28856,"lon":5.35856,"is_reserved":false,"is_disabled":false,"rental_uris":{"android":"levelo://app?vid=85b79b1a-f70d-4172-bd35-c7df323657e8","ios":"levelo://app?vid=85b79b1a-f70d-4172-bd35-c7df323657e8"},"vehicle_type_id":"4","last_reported":1701439624,"current_range_meters":0,"station_id":"ce4bhb12rcd13ifvqem0","pricing_plan_id":"free"},{"bike_id":"d6f45f16-dec9-43f2-aa48-6d10bb9b9741","system_id":"levelo_inurba_marseille","lat":43.29337,"lon":5.388677,"is_reserved":false,"is_disabled":false,"rental_uris":{"android":"levelo://app?vid=d6f45f16-dec9-43f2-aa48-6d10bb9b9741","ios":"levelo://app?vid=d6f45f16-dec9-43f2-aa48-6d10bb9b9741"},"vehicle_type_id":"4","last_reported":1701439624,"current_range_meters":0,"station_id":"","pricing_plan_id":"free"},{"bike_id":"a56cde54-2181-43be-b189-3dd20781de6c","system_id":"levelo_inurba_marseille","lat":43.31264,"lon":5.40164,"is_reserved":false,"is_disabled":false,"rental_uris":{"android":"levelo://app?vid=a56cde54-2181-43be-b189-3dd20781de6c","ios":"levelo://app?vid=a56cde54-2181-43be-b189-3dd20781de6c"},"vehicle_type_id":"4","last_reported":1701439624,"current_range_meters":11200,"station_id":"ce4bh092rcd13ifvqd30","pricing_plan_id":"free"},{"bike_id":"94907f9a-2d73-4196-93bb-c5df451ea335","system_id":"levelo_inurba_marseille","lat":43.33758,"lon":5.37462,"is_reserved":false,"is_disabled":false,"rental_uris":{"android":"levelo://app?vid=94907f9a-2d73-4196-93bb-c5df451ea335","ios":"levelo://app?vid=94907f9a-2d73-4196-93bb-c5df451ea335"},"vehicle_type_id":"4","last_reported":1701439624,"current_range_meters":25200,"station_id":"","pricing_plan_id":"free"},{"bike_id":"01c542ea-0cd7-4044-a553-def949258e0c","system_id":"levelo_inurba_marseille","lat":43.301117,"lon":5.398795,"is_reserved":false,"is_disabled":false,"rental_uris":{"android":"levelo://app?vid=01c542ea-0cd7-4044-a553-def949258e0c","ios":"levelo://app?vid=01c542ea-0cd7-4044-a553-def949258e0c"},"vehicle_type_id":"4","last_reported":1701439624,"current_range_meters":22000,"station_id":"ce4bh0h2rcd13ifvqd40","pricing_plan_id":"free"},{"bike_id":"a058b393-a6da-4a58-909d-219f86fb4f8d","system_id":"levelo_inurba_marseille","lat":43.295196,"lon":5.39397,"is_reserved":false,"is_disabled":false,"rental_uris":{"android":"levelo://app?vid=a058b393-a6da-4a58-909d-219f86fb4f8d","ios":"levelo://app?vid=a058b393-a6da-4a58-909d-219f86fb4f8d"},"vehicle_type_id":"4","last_reported":1701439624,"current_range_meters":20800,"station_id":"ce4bh292rcd13ifvqdf0","pricing_plan_id":"free"},{"bike_id":"4b547438-a78f-41f4-8af4-92138889b036","system_id":"levelo_inurba_marseille","lat":43.28921,"lon":5.38412,"is_reserved":false,"is_disabled":false,"rental_uris":{"android":"levelo://app?vid=4b547438-a78f-41f4-8af4-92138889b036","ios":"levelo://app?vid=4b547438-a78f-41f4-8af4-92138889b036"},"vehicle_type_id":"4","last_reported":1701439624,"current_range_meters":16000,"station_id":"","pricing_plan_id":"free"},{"bike_id":"888a61e1-0eba-4525-bd7b-3db928d4ca23","system_id":"levelo_inurba_marseille","lat":43.286039,"lon":5.370681,"is_reserved":false,"is_disabled":false,"rental_uris":{"android":"levelo://app?vid=888a61e1-0eba-4525-bd7b-3db928d4ca23","ios":"levelo://app?vid=888a61e1-0eba-4525-bd7b-3db928d4ca23"},"vehicle_type_id":"4","last_reported":1701439624,"current_range_meters":2800,"station_id":"ce4bht12rcd13ifvqi60","pricing_plan_id":"free"},{"bike_id":"51e80092-f709-463a-96a2-8b25587b914d","system_id":"levelo_inurba_marseille","lat":43.286039,"lon":5.370681,"is_reserved":false,"is_disabled":false,"rental_uris":{"android":"levelo://app?vid=51e80092-f709-463a-96a2-8b25587b914d","ios":"levelo://app?vid=51e80092-f709-463a-96a2-8b25587b914d"},"vehicle_type_id":"4","last_reported":1701439624,"current_range_meters":28800,"station_id":"ce4bht12rcd13ifvqi60","pricing_plan_id":"free"},{"bike_id":"dc3761a7-bdd3-4507-9e40-91c181fba549","system_id":"levelo_inurba_marseille","lat":43.287184,"lon":5.37937,"is_reserved":false,"is_disabled":false,"rental_uris":{"android":"levelo://app?vid=dc3761a7-bdd3-4507-9e40-91c181fba549","ios":"levelo://app?vid=dc3761a7-bdd3-4507-9e40-91c181fba549"},"vehicle_type_id":"4","last_reported":1701439624,"current_range_meters":14400,"station_id":"ce4bh9p2rcd13ifvqec0","pricing_plan_id":"free"},{"bike_id":"79acb073-3d58-4685-87fb-d2c270dcf856","system_id":"levelo_inurba_marseille","lat":43.287184,"lon":5.37937,"is_reserved":false,"is_disabled":false,"rental_uris":{"android":"levelo://app?vid=79acb073-3d58-4685-87fb-d2c270dcf856","ios":"levelo://app?vid=79acb073-3d58-4685-87fb-d2c270dcf856"},"vehicle_type_id":"4","last_reported":1701439624,"current_range_meters":0,"station_id":"ce4bh9p2rcd13ifvqec0","pricing_plan_id":"free"},{"bike_id":"0ab0132b-f780-4150-9848-b8e3d9b01bd0","system_id":"levelo_inurba_marseille","lat":43.29201,"lon":5.3932,"is_reserved":false,"is_disabled":false,"rental_uris":{"android":"levelo://app?vid=0ab0132b-f780-4150-9848-b8e3d9b01bd0","ios":"levelo://app?vid=0ab0132b-f780-4150-9848-b8e3d9b01bd0"},"vehicle_type_id":"4","last_reported":1701439624,"current_range_meters":1200,"station_id":"ce4bh192rcd13ifvqdd0","pricing_plan_id":"free"},{"bike_id":"9c17a87d-d666-4eea-8912-e00e8acb08d3","system_id":"levelo_inurba_marseille","lat":43.284538,"lon":5.358657,"is_reserved":false,"is_disabled":false,"rental_uris":{"android":"levelo://app?vid=9c17a87d-d666-4eea-8912-e00e8acb08d3","ios":"levelo://app?vid=9c17a87d-d666-4eea-8912-e00e8acb08d3"},"vehicle_type_id":"4","last_reported":1701439624,"current_range_meters":7200,"station_id":"ce4bhah2rcd13ifvqei0","pricing_plan_id":"free"},{"bike_id":"817b958f-805d-442a-a6ea-334d011248fd","system_id":"levelo_inurba_marseille","lat":43.284538,"lon":5.358657,"is_reserved":false,"is_disabled":false,"rental_uris":{"android":"levelo://app?vid=817b958f-805d-442a-a6ea-334d011248fd","ios":"levelo://app?vid=817b958f-805d-442a-a6ea-334d011248fd"},"vehicle_type_id":"4","last_reported":1701439624,"current_range_meters":24000,"station_id":"ce4bhah2rcd13ifvqei0","pricing_plan_id":"free"},{"bike_id":"7aa48501-245f-4b99-a784-89bd91ec1e23","system_id":"levelo_inurba_marseille","lat":43.284538,"lon":5.358657,"is_reserved":false,"is_disabled":false,"rental_uris":{"android":"levelo://app?vid=7aa48501-245f-4b99-a784-89bd91ec1e23","ios":"levelo://app?vid=7aa48501-245f-4b99-a784-89bd91ec1e23"},"vehicle_type_id":"4","last_reported":1701439624,"current_range_meters":24800,"station_id":"ce4bhah2rcd13ifvqei0","pricing_plan_id":"free"},{"bike_id":"d46a7596-065d-4902-835d-3649f1b4134b","system_id":"levelo_inurba_marseille","lat":43.294314,"lon":5.397498,"is_reserved":false,"is_disabled":false,"rental_uris":{"android":"levelo://app?vid=d46a7596-065d-4902-835d-3649f1b4134b","ios":"levelo://app?vid=d46a7596-065d-4902-835d-3649f1b4134b"},"vehicle_type_id":"4","last_reported":1701439624,"current_range_meters":31200,"station_id":"ce4bh3h2rcd13ifvqdo0","pricing_plan_id":"free"},{"bike_id":"8bd62e75-e347-4664-b3bd-a65a87dc7af9","system_id":"levelo_inurba_marseille","lat":43.285848,"lon":5.350787,"is_reserved":false,"is_disabled":false,"rental_uris":{"android":"levelo://app?vid=8bd62e75-e347-4664-b3bd-a65a87dc7af9","ios":"levelo://app?vid=8bd62e75-e347-4664-b3bd-a65a87dc7af9"},"vehicle_type_id":"4","last_reported":1701439624,"current_range_meters":26400,"station_id":"ce4bhch2rcd13ifvqeug","pricing_plan_id":"free"},{"bike_id":"1b9febfb-554b-4c95-87ba-3cb1e6843195","system_id":"levelo_inurba_marseille","lat":43.283998,"lon":5.375062,"is_reserved":false,"is_disabled":false,"rental_uris":{"android":"levelo://app?vid=1b9febfb-554b-4c95-87ba-3cb1e6843195","ios":"levelo://app?vid=1b9febfb-554b-4c95-87ba-3cb1e6843195"},"vehicle_type_id":"4","last_reported":1701439624,"current_range_meters":25200,"station_id":"ce4bh412rcd13ifvqds0","pricing_plan_id":"free"},{"bike_id":"07c421f6-6b2e-4501-a2c2-43c24fccd0d2","system_id":"levelo_inurba_marseille","lat":43.295713,"lon":5.399639,"is_reserved":false,"is_disabled":false,"rental_uris":{"android":"levelo://app?vid=07c421f6-6b2e-4501-a2c2-43c24fccd0d2","ios":"levelo://app?vid=07c421f6-6b2e-4501-a2c2-43c24fccd0d2"},"vehicle_type_id":"4","last_reported":1701439624,"current_range_meters":18800,"station_id":"ce4bh312rcd13ifvqdj0","pricing_plan_id":"free"},{"bike_id":"da6e3f34-961b-4933-ae38-4fca6ed3a0fc","system_id":"levelo_inurba_marseille","lat":43.286595,"lon":5.386795,"is_reserved":false,"is_disabled":false,"rental_uris":{"android":"levelo://app?vid=da6e3f34-961b-4933-ae38-4fca6ed3a0fc","ios":"levelo://app?vid=da6e3f34-961b-4933-ae38-4fca6ed3a0fc"},"vehicle_type_id":"4","last_reported":1701439624,"current_range_meters":16800,"station_id":"ce4bh492rcd13ifvqdug","pricing_plan_id":"free"},{"bike_id":"f99fc4d8-709b-4cee-a32c-2cdd6f1e8b1e","system_id":"levelo_inurba_marseille","lat":43.337168,"lon":5.391825,"is_reserved":false,"is_disabled":false,"rental_uris":{"android":"levelo://app?vid=f99fc4d8-709b-4cee-a32c-2cdd6f1e8b1e","ios":"levelo://app?vid=f99fc4d8-709b-4cee-a32c-2cdd6f1e8b1e"},"vehicle_type_id":"4","last_reported":1701439624,"current_range_meters":14000,"station_id":"ce4bhr92rcd13ifvqhsg","pricing_plan_id":"free"},{"bike_id":"84fad9bb-91a9-4c00-ae7f-bd474ae3dd7f","system_id":"levelo_inurba_marseille","lat":43.297946,"lon":5.404063,"is_reserved":false,"is_disabled":false,"rental_uris":{"android":"levelo://app?vid=84fad9bb-91a9-4c00-ae7f-bd474ae3dd7f","ios":"levelo://app?vid=84fad9bb-91a9-4c00-ae7f-bd474ae3dd7f"},"vehicle_type_id":"4","last_reported":1701439624,"current_range_meters":30800,"station_id":"ce4bh112rcd13ifvqd90","pricing_plan_id":"free"},{"bike_id":"ca68dffd-1b55-42dd-a36f-67c8d14159fe","system_id":"levelo_inurba_marseille","lat":43.284219,"lon":5.3497,"is_reserved":false,"is_disabled":false,"rental_uris":{"android":"levelo://app?vid=ca68dffd-1b55-42dd-a36f-67c8d14159fe","ios":"levelo://app?vid=ca68dffd-1b55-42dd-a36f-67c8d14159fe"},"vehicle_type_id":"4","last_reported":1701439624,"current_range_meters":24000,"station_id":"ce4bhbh2rcd13ifvqepg","pricing_plan_id":"free"},{"bike_id":"6f1a2a99-12b9-4800-bd16-1e7e3636cb58","system_id":"levelo_inurba_marseille","lat":43.28858,"lon":5.393865,"is_reserved":false,"is_disabled":false,"rental_uris":{"android":"levelo://app?vid=6f1a2a99-12b9-4800-bd16-1e7e3636cb58","ios":"levelo://app?vid=6f1a2a99-12b9-4800-bd16-1e7e3636cb58"},"vehicle_type_id":"4","last_reported":1701439624,"current_range_meters":21200,"station_id":"","pricing_plan_id":"free"},{"bike_id":"8d7158fe-7b53-43db-9345-63e12ef4194d","system_id":"levelo_inurba_marseille","lat":43.284219,"lon":5.3497,"is_reserved":false,"is_disabled":false,"rental_uris":{"android":"levelo://app?vid=8d7158fe-7b53-43db-9345-63e12ef4194d","ios":"levelo://app?vid=8d7158fe-7b53-43db-9345-63e12ef4194d"},"vehicle_type_id":"4","last_reported":1701439624,"current_range_meters":15600,"station_id":"ce4bhbh2rcd13ifvqepg","pricing_plan_id":"free"},{"bike_id":"0fe24b78-cd45-4463-a57c-f7d22e31a527","system_id":"levelo_inurba_marseille","lat":43.2842,"lon":5.34984,"is_reserved":false,"is_disabled":false,"rental_uris":{"android":"levelo://app?vid=0fe24b78-cd45-4463-a57c-f7d22e31a527","ios":"levelo://app?vid=0fe24b78-cd45-4463-a57c-f7d22e31a527"},"vehicle_type_id":"4","last_reported":1701439624,"current_range_meters":25600,"station_id":"","pricing_plan_id":"free"},{"bike_id":"8e37c7df-9407-4b30-be79-a649ffe0b4ec","system_id":"levelo_inurba_marseille","lat":43.284219,"lon":5.3497,"is_reserved":false,"is_disabled":false,"rental_uris":{"android":"levelo://app?vid=8e37c7df-9407-4b30-be79-a649ffe0b4ec","ios":"levelo://app?vid=8e37c7df-9407-4b30-be79-a649ffe0b4ec"},"vehicle_type_id":"4","last_reported":1701439624,"current_range_meters":29600,"station_id":"ce4bhbh2rcd13ifvqepg","pricing_plan_id":"free"},{"bike_id":"4fe88c55-2815-41f4-9e0c-2b2aeeeb91c6","system_id":"levelo_inurba_marseille","lat":43.284217,"lon":5.349697,"is_reserved":false,"is_disabled":false,"rental_uris":{"android":"levelo://app?vid=4fe88c55-2815-41f4-9e0c-2b2aeeeb91c6","ios":"levelo://app?vid=4fe88c55-2815-41f4-9e0c-2b2aeeeb91c6"},"vehicle_type_id":"4","last_reported":1701439624,"current_range_meters":12800,"station_id":"ce4bhbh2rcd13ifvqepg","pricing_plan_id":"free"},{"bike_id":"5f14e861-7a4e-41d1-8b4e-97480382a7a6","system_id":"levelo_inurba_marseille","lat":43.284219,"lon":5.3497,"is_reserved":false,"is_disabled":false,"rental_uris":{"android":"levelo://app?vid=5f14e861-7a4e-41d1-8b4e-97480382a7a6","ios":"levelo://app?vid=5f14e861-7a4e-41d1-8b4e-97480382a7a6"},"vehicle_type_id":"4","last_reported":1701439624,"current_range_meters":28800,"station_id":"ce4bhbh2rcd13ifvqepg","pricing_plan_id":"free"},{"bike_id":"39417825-35fa-450a-b2bd-c06e60ccee77","system_id":"levelo_inurba_marseille","lat":43.284217,"lon":5.349697,"is_reserved":false,"is_disabled":false,"rental_uris":{"android":"levelo://app?vid=39417825-35fa-450a-b2bd-c06e60ccee77","ios":"levelo://app?vid=39417825-35fa-450a-b2bd-c06e60ccee77"},"vehicle_type_id":"4","last_reported":1701439624,"current_range_meters":27200,"station_id":"ce4bhbh2rcd13ifvqepg","pricing_plan_id":"free"},{"bike_id":"7ac662a1-516a-4598-935f-c13e2478c6d5","system_id":"levelo_inurba_marseille","lat":43.284154,"lon":5.349849,"is_reserved":false,"is_disabled":false,"rental_uris":{"android":"levelo://app?vid=7ac662a1-516a-4598-935f-c13e2478c6d5","ios":"levelo://app?vid=7ac662a1-516a-4598-935f-c13e2478c6d5"},"vehicle_type_id":"4","last_reported":1701439624,"current_range_meters":12800,"station_id":"","pricing_plan_id":"free"},{"bike_id":"35ecb18c-753b-4bab-b8f7-c0b847176eb7","system_id":"levelo_inurba_marseille","lat":43.284217,"lon":5.349697,"is_reserved":false,"is_disabled":false,"rental_uris":{"android":"levelo://app?vid=35ecb18c-753b-4bab-b8f7-c0b847176eb7","ios":"levelo://app?vid=35ecb18c-753b-4bab-b8f7-c0b847176eb7"},"vehicle_type_id":"4","last_reported":1701439624,"current_range_meters":12800,"station_id":"ce4bhbh2rcd13ifvqepg","pricing_plan_id":"free"},{"bike_id":"8e6098da-c693-4278-9fa3-8965cb048bea","system_id":"levelo_inurba_marseille","lat":43.284217,"lon":5.349697,"is_reserved":false,"is_disabled":false,"rental_uris":{"android":"levelo://app?vid=8e6098da-c693-4278-9fa3-8965cb048bea","ios":"levelo://app?vid=8e6098da-c693-4278-9fa3-8965cb048bea"},"vehicle_type_id":"4","last_reported":1701439624,"current_range_meters":29600,"station_id":"ce4bhbh2rcd13ifvqepg","pricing_plan_id":"free"},{"bike_id":"2d70261f-feb0-4598-b0b0-d60000be38e5","system_id":"levelo_inurba_marseille","lat":43.284217,"lon":5.349697,"is_reserved":false,"is_disabled":false,"rental_uris":{"android":"levelo://app?vid=2d70261f-feb0-4598-b0b0-d60000be38e5","ios":"levelo://app?vid=2d70261f-feb0-4598-b0b0-d60000be38e5"},"vehicle_type_id":"4","last_reported":1701439624,"current_range_meters":31600,"station_id":"ce4bhbh2rcd13ifvqepg","pricing_plan_id":"free"},{"bike_id":"51a6dde1-3259-428b-bc60-361517ede212","system_id":"levelo_inurba_marseille","lat":43.282754,"lon":5.350519,"is_reserved":false,"is_disabled":false,"rental_uris":{"android":"levelo://app?vid=51a6dde1-3259-428b-bc60-361517ede212","ios":"levelo://app?vid=51a6dde1-3259-428b-bc60-361517ede212"},"vehicle_type_id":"4","last_reported":1701439624,"current_range_meters":6400,"station_id":"ce4bhbp2rcd13ifvqerg","pricing_plan_id":"free"},{"bike_id":"9a8bab09-8d3a-42e0-9eea-7085771079e2","system_id":"levelo_inurba_marseille","lat":43.282744,"lon":5.350533,"is_reserved":false,"is_disabled":false,"rental_uris":{"android":"levelo://app?vid=9a8bab09-8d3a-42e0-9eea-7085771079e2","ios":"levelo://app?vid=9a8bab09-8d3a-42e0-9eea-7085771079e2"},"vehicle_type_id":"4","last_reported":1701439624,"current_range_meters":10400,"station_id":"ce4bhbp2rcd13ifvqerg","pricing_plan_id":"free"},{"bike_id":"a681b935-b017-420a-875d-272d9a5f3e76","system_id":"levelo_inurba_marseille","lat":43.282754,"lon":5.350519,"is_reserved":false,"is_disabled":false,"rental_uris":{"android":"levelo://app?vid=a681b935-b017-420a-875d-272d9a5f3e76","ios":"levelo://app?vid=a681b935-b017-420a-875d-272d9a5f3e76"},"vehicle_type_id":"4","last_reported":1701439624,"current_range_meters":26800,"station_id":"ce4bhbp2rcd13ifvqerg","pricing_plan_id":"free"},{"bike_id":"7f7614c4-ab26-47d2-95c8-5f6f96ff9e16","system_id":"levelo_inurba_marseille","lat":43.282744,"lon":5.350533,"is_reserved":false,"is_disabled":false,"rental_uris":{"android":"levelo://app?vid=7f7614c4-ab26-47d2-95c8-5f6f96ff9e16","ios":"levelo://app?vid=7f7614c4-ab26-47d2-95c8-5f6f96ff9e16"},"vehicle_type_id":"4","last_reported":1701439624,"current_range_meters":22800,"station_id":"ce4bhbp2rcd13ifvqerg","pricing_plan_id":"free"},{"bike_id":"ed6543bf-fd9e-4f5a-92db-a444621acb1f","system_id":"levelo_inurba_marseille","lat":43.28039,"lon":5.369297,"is_reserved":false,"is_disabled":false,"rental_uris":{"android":"levelo://app?vid=ed6543bf-fd9e-4f5a-92db-a444621acb1f","ios":"levelo://app?vid=ed6543bf-fd9e-4f5a-92db-a444621acb1f"},"vehicle_type_id":"4","last_reported":1701439624,"current_range_meters":23600,"station_id":"ce4bha12rcd13ifvqef0","pricing_plan_id":"free"},{"bike_id":"a61f9949-e31f-4447-9136-eee42a400807","system_id":"levelo_inurba_marseille","lat":43.28039,"lon":5.369297,"is_reserved":false,"is_disabled":false,"rental_uris":{"android":"levelo://app?vid=a61f9949-e31f-4447-9136-eee42a400807","ios":"levelo://app?vid=a61f9949-e31f-4447-9136-eee42a400807"},"vehicle_type_id":"4","last_reported":1701439624,"current_range_meters":26400,"station_id":"ce4bha12rcd13ifvqef0","pricing_plan_id":"free"},{"bike_id":"0435c72c-99c1-4b79-9272-a29da422113c","system_id":"levelo_inurba_marseille","lat":43.280382,"lon":5.369291,"is_reserved":false,"is_disabled":false,"rental_uris":{"android":"levelo://app?vid=0435c72c-99c1-4b79-9272-a29da422113c","ios":"levelo://app?vid=0435c72c-99c1-4b79-9272-a29da422113c"},"vehicle_type_id":"4","last_reported":1701439624,"current_range_meters":24000,"station_id":"ce4bha12rcd13ifvqef0","pricing_plan_id":"free"},{"bike_id":"329d6b84-2786-4544-83c9-f517e45def5a","system_id":"levelo_inurba_marseille","lat":43.281044,"lon":5.378308,"is_reserved":false,"is_disabled":false,"rental_uris":{"android":"levelo://app?vid=329d6b84-2786-4544-83c9-f517e45def5a","ios":"levelo://app?vid=329d6b84-2786-4544-83c9-f517e45def5a"},"vehicle_type_id":"4","last_reported":1701439624,"current_range_meters":13200,"station_id":"ce4bha12rcd13ifvqee0","pricing_plan_id":"free"},{"bike_id":"9fdb7f97-586d-42d2-befd-15216ba2e422","system_id":"levelo_inurba_marseille","lat":43.284317,"lon":5.391844,"is_reserved":false,"is_disabled":false,"rental_uris":{"android":"levelo://app?vid=9fdb7f97-586d-42d2-befd-15216ba2e422","ios":"levelo://app?vid=9fdb7f97-586d-42d2-befd-15216ba2e422"},"vehicle_type_id":"4","last_reported":1701439624,"current_range_meters":0,"station_id":"ce4bhoh2rcd13ifvqh5g","pricing_plan_id":"free"},{"bike_id":"24ca017d-bd94-499e-b774-75162b4d69b4","system_id":"levelo_inurba_marseille","lat":43.284462,"lon":5.392121,"is_reserved":false,"is_disabled":false,"rental_uris":{"android":"levelo://app?vid=24ca017d-bd94-499e-b774-75162b4d69b4","ios":"levelo://app?vid=24ca017d-bd94-499e-b774-75162b4d69b4"},"vehicle_type_id":"4","last_reported":1701439624,"current_range_meters":400,"station_id":"ce4bhoh2rcd13ifvqh5g","pricing_plan_id":"free"},{"bike_id":"8f8b3915-736f-4eec-8be6-145991019211","system_id":"levelo_inurba_marseille","lat":43.326605,"lon":5.409903,"is_reserved":false,"is_disabled":false,"rental_uris":{"android":"levelo://app?vid=8f8b3915-736f-4eec-8be6-145991019211","ios":"levelo://app?vid=8f8b3915-736f-4eec-8be6-145991019211"},"vehicle_type_id":"4","last_reported":1701439624,"current_range_meters":25600,"station_id":"ce4bhpp2rcd13ifvqhgg","pricing_plan_id":"free"},{"bike_id":"edccd163-f6e1-4e7d-bc68-768d7ebe881c","system_id":"levelo_inurba_marseille","lat":43.325483,"lon":5.410778,"is_reserved":false,"is_disabled":false,"rental_uris":{"android":"levelo://app?vid=edccd163-f6e1-4e7d-bc68-768d7ebe881c","ios":"levelo://app?vid=edccd163-f6e1-4e7d-bc68-768d7ebe881c"},"vehicle_type_id":"4","last_reported":1701439624,"current_range_meters":26000,"station_id":"","pricing_plan_id":"free"},{"bike_id":"73c4c96b-7b63-4827-9c48-a65a51eb8cc7","system_id":"levelo_inurba_marseille","lat":43.304188,"lon":5.412904,"is_reserved":false,"is_disabled":false,"rental_uris":{"android":"levelo://app?vid=73c4c96b-7b63-4827-9c48-a65a51eb8cc7","ios":"levelo://app?vid=73c4c96b-7b63-4827-9c48-a65a51eb8cc7"},"vehicle_type_id":"4","last_reported":1701439624,"current_range_meters":6400,"station_id":"ce4bhop2rcd13ifvqh8g","pricing_plan_id":"free"},{"bike_id":"099a81e9-1af7-4921-b06a-71bea6841d59","system_id":"levelo_inurba_marseille","lat":43.279742,"lon":5.38744,"is_reserved":false,"is_disabled":false,"rental_uris":{"android":"levelo://app?vid=099a81e9-1af7-4921-b06a-71bea6841d59","ios":"levelo://app?vid=099a81e9-1af7-4921-b06a-71bea6841d59"},"vehicle_type_id":"4","last_reported":1701439624,"current_range_meters":1600,"station_id":"ce4bhg12rcd13ifvqf80","pricing_plan_id":"free"},{"bike_id":"7a8a8b6a-b818-42e1-a374-63e7975fa92e","system_id":"levelo_inurba_marseille","lat":43.299579,"lon":5.413255,"is_reserved":false,"is_disabled":false,"rental_uris":{"android":"levelo://app?vid=7a8a8b6a-b818-42e1-a374-63e7975fa92e","ios":"levelo://app?vid=7a8a8b6a-b818-42e1-a374-63e7975fa92e"},"vehicle_type_id":"4","last_reported":1701439624,"current_range_meters":12800,"station_id":"ce4bhp12rcd13ifvqh9g","pricing_plan_id":"free"},{"bike_id":"80162fa2-9341-4ec8-a817-79b409626f9b","system_id":"levelo_inurba_marseille","lat":43.299577,"lon":5.413277,"is_reserved":false,"is_disabled":false,"rental_uris":{"android":"levelo://app?vid=80162fa2-9341-4ec8-a817-79b409626f9b","ios":"levelo://app?vid=80162fa2-9341-4ec8-a817-79b409626f9b"},"vehicle_type_id":"4","last_reported":1701439624,"current_range_meters":18000,"station_id":"ce4bhp12rcd13ifvqh9g","pricing_plan_id":"free"},{"bike_id":"910a90a8-460a-494a-9e79-f7852ab631c3","system_id":"levelo_inurba_marseille","lat":43.292569,"lon":5.409107,"is_reserved":false,"is_disabled":false,"rental_uris":{"android":"levelo://app?vid=910a90a8-460a-494a-9e79-f7852ab631c3","ios":"levelo://app?vid=910a90a8-460a-494a-9e79-f7852ab631c3"},"vehicle_type_id":"4","last_reported":1701439624,"current_range_meters":16400,"station_id":"ce4bh192rcd13ifvqdc0","pricing_plan_id":"free"},{"bike_id":"29b55a40-74cf-4b38-82e6-f0dd384bdd00","system_id":"levelo_inurba_marseille","lat":43.27621,"lon":5.361068,"is_reserved":false,"is_disabled":false,"rental_uris":{"android":"levelo://app?vid=29b55a40-74cf-4b38-82e6-f0dd384bdd00","ios":"levelo://app?vid=29b55a40-74cf-4b38-82e6-f0dd384bdd00"},"vehicle_type_id":"4","last_reported":1701439624,"current_range_meters":20800,"station_id":"","pricing_plan_id":"free"},{"bike_id":"818be9fc-2989-41ed-873f-1e7a5584d96d","system_id":"levelo_inurba_marseille","lat":43.303837,"lon":5.418724,"is_reserved":false,"is_disabled":false,"rental_uris":{"android":"levelo://app?vid=818be9fc-2989-41ed-873f-1e7a5584d96d","ios":"levelo://app?vid=818be9fc-2989-41ed-873f-1e7a5584d96d"},"vehicle_type_id":"4","last_reported":1701439624,"current_range_meters":14400,"station_id":"ce4bhop2rcd13ifvqh7g","pricing_plan_id":"free"},{"bike_id":"5229d6c3-48ba-4303-87c7-db4af5222240","system_id":"levelo_inurba_marseille","lat":43.303837,"lon":5.418724,"is_reserved":false,"is_disabled":false,"rental_uris":{"android":"levelo://app?vid=5229d6c3-48ba-4303-87c7-db4af5222240","ios":"levelo://app?vid=5229d6c3-48ba-4303-87c7-db4af5222240"},"vehicle_type_id":"4","last_reported":1701439624,"current_range_meters":27600,"station_id":"ce4bhop2rcd13ifvqh7g","pricing_plan_id":"free"},{"bike_id":"c9501d22-b887-4cf8-a7c2-55711a0654d6","system_id":"levelo_inurba_marseille","lat":43.33612,"lon":5.410321,"is_reserved":false,"is_disabled":false,"rental_uris":{"android":"levelo://app?vid=c9501d22-b887-4cf8-a7c2-55711a0654d6","ios":"levelo://app?vid=c9501d22-b887-4cf8-a7c2-55711a0654d6"},"vehicle_type_id":"4","last_reported":1701439624,"current_range_meters":25200,"station_id":"ce4bhqh2rcd13ifvqhmg","pricing_plan_id":"free"},{"bike_id":"e9c08a43-ce9c-41ad-a522-ba75edc3322b","system_id":"levelo_inurba_marseille","lat":43.275625,"lon":5.384392,"is_reserved":false,"is_disabled":false,"rental_uris":{"android":"levelo://app?vid=e9c08a43-ce9c-41ad-a522-ba75edc3322b","ios":"levelo://app?vid=e9c08a43-ce9c-41ad-a522-ba75edc3322b"},"vehicle_type_id":"4","last_reported":1701439624,"current_range_meters":16400,"station_id":"ce4bhh92rcd13ifvqfi0","pricing_plan_id":"free"},{"bike_id":"1e813f89-e27e-49c2-a322-ba5b93ef6d08","system_id":"levelo_inurba_marseille","lat":43.275625,"lon":5.384392,"is_reserved":false,"is_disabled":false,"rental_uris":{"android":"levelo://app?vid=1e813f89-e27e-49c2-a322-ba5b93ef6d08","ios":"levelo://app?vid=1e813f89-e27e-49c2-a322-ba5b93ef6d08"},"vehicle_type_id":"4","last_reported":1701439624,"current_range_meters":10000,"station_id":"ce4bhh92rcd13ifvqfi0","pricing_plan_id":"free"},{"bike_id":"765d5068-c9a3-4f63-9c8d-61ce6a8e61ed","system_id":"levelo_inurba_marseille","lat":43.275625,"lon":5.384392,"is_reserved":false,"is_disabled":false,"rental_uris":{"android":"levelo://app?vid=765d5068-c9a3-4f63-9c8d-61ce6a8e61ed","ios":"levelo://app?vid=765d5068-c9a3-4f63-9c8d-61ce6a8e61ed"},"vehicle_type_id":"4","last_reported":1701439624,"current_range_meters":30800,"station_id":"ce4bhh92rcd13ifvqfi0","pricing_plan_id":"free"},{"bike_id":"98cd0248-12ba-4e2e-96ec-8232dc07d32d","system_id":"levelo_inurba_marseille","lat":43.275625,"lon":5.384392,"is_reserved":false,"is_disabled":false,"rental_uris":{"android":"levelo://app?vid=98cd0248-12ba-4e2e-96ec-8232dc07d32d","ios":"levelo://app?vid=98cd0248-12ba-4e2e-96ec-8232dc07d32d"},"vehicle_type_id":"4","last_reported":1701439624,"current_range_meters":30400,"station_id":"ce4bhh92rcd13ifvqfi0","pricing_plan_id":"free"},{"bike_id":"c128f589-77cb-47db-9687-cffe23a2949e","system_id":"levelo_inurba_marseille","lat":43.276771,"lon":5.388799,"is_reserved":false,"is_disabled":false,"rental_uris":{"android":"levelo://app?vid=c128f589-77cb-47db-9687-cffe23a2949e","ios":"levelo://app?vid=c128f589-77cb-47db-9687-cffe23a2949e"},"vehicle_type_id":"4","last_reported":1701439624,"current_range_meters":20800,"station_id":"ce4bhi12rcd13ifvqfo0","pricing_plan_id":"free"},{"bike_id":"806870a9-e262-4f3c-9dca-eead85427f93","system_id":"levelo_inurba_marseille","lat":43.279952,"lon":5.400085,"is_reserved":false,"is_disabled":false,"rental_uris":{"android":"levelo://app?vid=806870a9-e262-4f3c-9dca-eead85427f93","ios":"levelo://app?vid=806870a9-e262-4f3c-9dca-eead85427f93"},"vehicle_type_id":"4","last_reported":1701439624,"current_range_meters":20400,"station_id":"ce4bho92rcd13ifvqh4g","pricing_plan_id":"free"},{"bike_id":"db7ffdb9-f10e-41dc-9854-cecf34a3d463","system_id":"levelo_inurba_marseille","lat":43.279952,"lon":5.400085,"is_reserved":false,"is_disabled":false,"rental_uris":{"android":"levelo://app?vid=db7ffdb9-f10e-41dc-9854-cecf34a3d463","ios":"levelo://app?vid=db7ffdb9-f10e-41dc-9854-cecf34a3d463"},"vehicle_type_id":"4","last_reported":1701439624,"current_range_meters":7200,"station_id":"ce4bho92rcd13ifvqh4g","pricing_plan_id":"free"},{"bike_id":"8b95fa19-34cb-496e-ada5-cf4ce57829c5","system_id":"levelo_inurba_marseille","lat":43.279952,"lon":5.400085,"is_reserved":false,"is_disabled":false,"rental_uris":{"android":"levelo://app?vid=8b95fa19-34cb-496e-ada5-cf4ce57829c5","ios":"levelo://app?vid=8b95fa19-34cb-496e-ada5-cf4ce57829c5"},"vehicle_type_id":"4","last_reported":1701439624,"current_range_meters":14800,"station_id":"ce4bho92rcd13ifvqh4g","pricing_plan_id":"free"},{"bike_id":"e87b923d-18f9-4508-8bef-e743842ea6fc","system_id":"levelo_inurba_marseille","lat":43.317121,"lon":5.423936,"is_reserved":false,"is_disabled":false,"rental_uris":{"android":"levelo://app?vid=e87b923d-18f9-4508-8bef-e743842ea6fc","ios":"levelo://app?vid=e87b923d-18f9-4508-8bef-e743842ea6fc"},"vehicle_type_id":"4","last_reported":1701439624,"current_range_meters":23600,"station_id":"ce4bhp92rcd13ifvqhbg","pricing_plan_id":"free"},{"bike_id":"27cd22d2-4dd6-4219-ada6-84d0bf6a97f2","system_id":"levelo_inurba_marseille","lat":43.340804,"lon":5.410219,"is_reserved":false,"is_disabled":false,"rental_uris":{"android":"levelo://app?vid=27cd22d2-4dd6-4219-ada6-84d0bf6a97f2","ios":"levelo://app?vid=27cd22d2-4dd6-4219-ada6-84d0bf6a97f2"},"vehicle_type_id":"4","last_reported":1701439624,"current_range_meters":30400,"station_id":"ce4bhqh2rcd13ifvqhlg","pricing_plan_id":"free"},{"bike_id":"98bd6a3e-2e7f-4303-9570-f60d6f05dee8","system_id":"levelo_inurba_marseille","lat":43.340804,"lon":5.410219,"is_reserved":false,"is_disabled":false,"rental_uris":{"android":"levelo://app?vid=98bd6a3e-2e7f-4303-9570-f60d6f05dee8","ios":"levelo://app?vid=98bd6a3e-2e7f-4303-9570-f60d6f05dee8"},"vehicle_type_id":"4","last_reported":1701439624,"current_range_meters":24000,"station_id":"ce4bhqh2rcd13ifvqhlg","pricing_plan_id":"free"},{"bike_id":"24ea50b7-1a79-4708-b774-184aeb36cb7c","system_id":"levelo_inurba_marseille","lat":43.30408,"lon":5.42546,"is_reserved":false,"is_disabled":false,"rental_uris":{"android":"levelo://app?vid=24ea50b7-1a79-4708-b774-184aeb36cb7c","ios":"levelo://app?vid=24ea50b7-1a79-4708-b774-184aeb36cb7c"},"vehicle_type_id":"4","last_reported":1701439624,"current_range_meters":30000,"station_id":"ce4bhoh2rcd13ifvqh6g","pricing_plan_id":"free"},{"bike_id":"ad319ad3-5072-496b-979f-e5645940bdaf","system_id":"levelo_inurba_marseille","lat":43.29548,"lon":5.42285,"is_reserved":false,"is_disabled":false,"rental_uris":{"android":"levelo://app?vid=ad319ad3-5072-496b-979f-e5645940bdaf","ios":"levelo://app?vid=ad319ad3-5072-496b-979f-e5645940bdaf"},"vehicle_type_id":"4","last_reported":1701439624,"current_range_meters":21600,"station_id":"ce4bhph2rcd13ifvqhdg","pricing_plan_id":"free"},{"bike_id":"5c762d5a-af0e-4d2e-aa44-d4ffc0034ac2","system_id":"levelo_inurba_marseille","lat":43.29556,"lon":5.42291,"is_reserved":false,"is_disabled":false,"rental_uris":{"android":"levelo://app?vid=5c762d5a-af0e-4d2e-aa44-d4ffc0034ac2","ios":"levelo://app?vid=5c762d5a-af0e-4d2e-aa44-d4ffc0034ac2"},"vehicle_type_id":"4","last_reported":1701439624,"current_range_meters":8000,"station_id":"ce4bhph2rcd13ifvqhdg","pricing_plan_id":"free"},{"bike_id":"33e2737f-fa09-4f19-8da2-f9b92820c727","system_id":"levelo_inurba_marseille","lat":43.272118,"lon":5.391758,"is_reserved":false,"is_disabled":false,"rental_uris":{"android":"levelo://app?vid=33e2737f-fa09-4f19-8da2-f9b92820c727","ios":"levelo://app?vid=33e2737f-fa09-4f19-8da2-f9b92820c727"},"vehicle_type_id":"4","last_reported":1701439624,"current_range_meters":26000,"station_id":"ce4bhhp2rcd13ifvqfm0","pricing_plan_id":"free"},{"bike_id":"6c4ec707-b162-47ad-a6e5-3b572f4cceb7","system_id":"levelo_inurba_marseille","lat":43.269606,"lon":5.385144,"is_reserved":false,"is_disabled":false,"rental_uris":{"android":"levelo://app?vid=6c4ec707-b162-47ad-a6e5-3b572f4cceb7","ios":"levelo://app?vid=6c4ec707-b162-47ad-a6e5-3b572f4cceb7"},"vehicle_type_id":"4","last_reported":1701439624,"current_range_meters":16000,"station_id":"","pricing_plan_id":"free"},{"bike_id":"ef1693b6-83e3-4ba4-b7a1-94e4d74e3550","system_id":"levelo_inurba_marseille","lat":43.269467,"lon":5.386439,"is_reserved":false,"is_disabled":false,"rental_uris":{"android":"levelo://app?vid=ef1693b6-83e3-4ba4-b7a1-94e4d74e3550","ios":"levelo://app?vid=ef1693b6-83e3-4ba4-b7a1-94e4d74e3550"},"vehicle_type_id":"4","last_reported":1701439624,"current_range_meters":29600,"station_id":"ce4bhh92rcd13ifvqfh0","pricing_plan_id":"free"},{"bike_id":"81b4b696-6222-4675-9600-3ef8dd39b606","system_id":"levelo_inurba_marseille","lat":43.269558,"lon":5.386295,"is_reserved":false,"is_disabled":false,"rental_uris":{"android":"levelo://app?vid=81b4b696-6222-4675-9600-3ef8dd39b606","ios":"levelo://app?vid=81b4b696-6222-4675-9600-3ef8dd39b606"},"vehicle_type_id":"4","last_reported":1701439624,"current_range_meters":15200,"station_id":"","pricing_plan_id":"free"},{"bike_id":"07a45750-b4f6-4bcb-98c1-08c14da74297","system_id":"levelo_inurba_marseille","lat":43.269467,"lon":5.386439,"is_reserved":false,"is_disabled":false,"rental_uris":{"android":"levelo://app?vid=07a45750-b4f6-4bcb-98c1-08c14da74297","ios":"levelo://app?vid=07a45750-b4f6-4bcb-98c1-08c14da74297"},"vehicle_type_id":"4","last_reported":1701439624,"current_range_meters":30000,"station_id":"ce4bhh92rcd13ifvqfh0","pricing_plan_id":"free"},{"bike_id":"b394b96b-7141-4dd3-8278-a6b92d790f21","system_id":"levelo_inurba_marseille","lat":43.269467,"lon":5.386439,"is_reserved":false,"is_disabled":false,"rental_uris":{"android":"levelo://app?vid=b394b96b-7141-4dd3-8278-a6b92d790f21","ios":"levelo://app?vid=b394b96b-7141-4dd3-8278-a6b92d790f21"},"vehicle_type_id":"4","last_reported":1701439624,"current_range_meters":19600,"station_id":"ce4bhh92rcd13ifvqfh0","pricing_plan_id":"free"},{"bike_id":"f28d8653-b6af-4258-934b-4265c80d9e1f","system_id":"levelo_inurba_marseille","lat":43.269467,"lon":5.386439,"is_reserved":false,"is_disabled":false,"rental_uris":{"android":"levelo://app?vid=f28d8653-b6af-4258-934b-4265c80d9e1f","ios":"levelo://app?vid=f28d8653-b6af-4258-934b-4265c80d9e1f"},"vehicle_type_id":"4","last_reported":1701439624,"current_range_meters":29200,"station_id":"ce4bhh92rcd13ifvqfh0","pricing_plan_id":"free"},{"bike_id":"5687d575-7d8a-469a-b8e1-e56ebcf01a93","system_id":"levelo_inurba_marseille","lat":43.269467,"lon":5.386439,"is_reserved":false,"is_disabled":false,"rental_uris":{"android":"levelo://app?vid=5687d575-7d8a-469a-b8e1-e56ebcf01a93","ios":"levelo://app?vid=5687d575-7d8a-469a-b8e1-e56ebcf01a93"},"vehicle_type_id":"4","last_reported":1701439624,"current_range_meters":18400,"station_id":"ce4bhh92rcd13ifvqfh0","pricing_plan_id":"free"},{"bike_id":"be784777-ad96-448a-9b37-643aa3e149c0","system_id":"levelo_inurba_marseille","lat":43.27941,"lon":5.41054,"is_reserved":false,"is_disabled":false,"rental_uris":{"android":"levelo://app?vid=be784777-ad96-448a-9b37-643aa3e149c0","ios":"levelo://app?vid=be784777-ad96-448a-9b37-643aa3e149c0"},"vehicle_type_id":"4","last_reported":1701439624,"current_range_meters":800,"station_id":"ce4bhnp2rcd13ifvqh0g","pricing_plan_id":"free"},{"bike_id":"d3e86ee0-25cc-46da-9490-2861495a5777","system_id":"levelo_inurba_marseille","lat":43.269276,"lon":5.389436,"is_reserved":false,"is_disabled":false,"rental_uris":{"android":"levelo://app?vid=d3e86ee0-25cc-46da-9490-2861495a5777","ios":"levelo://app?vid=d3e86ee0-25cc-46da-9490-2861495a5777"},"vehicle_type_id":"4","last_reported":1701439624,"current_range_meters":24000,"station_id":"ce4bhhh2rcd13ifvqfl0","pricing_plan_id":"free"},{"bike_id":"6f2ba546-e1dd-442a-8039-34d9402ccd8f","system_id":"levelo_inurba_marseille","lat":43.26681,"lon":5.382694,"is_reserved":false,"is_disabled":false,"rental_uris":{"android":"levelo://app?vid=6f2ba546-e1dd-442a-8039-34d9402ccd8f","ios":"levelo://app?vid=6f2ba546-e1dd-442a-8039-34d9402ccd8f"},"vehicle_type_id":"4","last_reported":1701439624,"current_range_meters":28000,"station_id":"ce4bhg92rcd13ifvqf90","pricing_plan_id":"free"},{"bike_id":"b286a044-8f4a-4729-bffb-2baa00edc703","system_id":"levelo_inurba_marseille","lat":43.26681,"lon":5.382694,"is_reserved":false,"is_disabled":false,"rental_uris":{"android":"levelo://app?vid=b286a044-8f4a-4729-bffb-2baa00edc703","ios":"levelo://app?vid=b286a044-8f4a-4729-bffb-2baa00edc703"},"vehicle_type_id":"4","last_reported":1701439624,"current_range_meters":28000,"station_id":"ce4bhg92rcd13ifvqf90","pricing_plan_id":"free"},{"bike_id":"63f964bd-79df-4bc5-bef2-d739019979c9","system_id":"levelo_inurba_marseille","lat":43.265714,"lon":5.372891,"is_reserved":false,"is_disabled":false,"rental_uris":{"android":"levelo://app?vid=63f964bd-79df-4bc5-bef2-d739019979c9","ios":"levelo://app?vid=63f964bd-79df-4bc5-bef2-d739019979c9"},"vehicle_type_id":"4","last_reported":1701439624,"current_range_meters":14800,"station_id":"ce4bhg12rcd13ifvqf70","pricing_plan_id":"free"},{"bike_id":"79e7154e-ef5c-4942-b83d-7d6d836d6dfd","system_id":"levelo_inurba_marseille","lat":43.267966,"lon":5.393976,"is_reserved":false,"is_disabled":false,"rental_uris":{"android":"levelo://app?vid=79e7154e-ef5c-4942-b83d-7d6d836d6dfd","ios":"levelo://app?vid=79e7154e-ef5c-4942-b83d-7d6d836d6dfd"},"vehicle_type_id":"4","last_reported":1701439624,"current_range_meters":20000,"station_id":"ce4bhh12rcd13ifvqfg0","pricing_plan_id":"free"},{"bike_id":"cde8804d-87ad-4c08-aa58-1f5ed1ffa321","system_id":"levelo_inurba_marseille","lat":43.265569,"lon":5.390047,"is_reserved":false,"is_disabled":false,"rental_uris":{"android":"levelo://app?vid=cde8804d-87ad-4c08-aa58-1f5ed1ffa321","ios":"levelo://app?vid=cde8804d-87ad-4c08-aa58-1f5ed1ffa321"},"vehicle_type_id":"4","last_reported":1701439624,"current_range_meters":11600,"station_id":"ce4bhe12rcd13ifvqf30","pricing_plan_id":"free"},{"bike_id":"6394474e-85a8-4fc5-ba69-bca97359fd9e","system_id":"levelo_inurba_marseille","lat":43.317104,"lon":5.436818,"is_reserved":false,"is_disabled":false,"rental_uris":{"android":"levelo://app?vid=6394474e-85a8-4fc5-ba69-bca97359fd9e","ios":"levelo://app?vid=6394474e-85a8-4fc5-ba69-bca97359fd9e"},"vehicle_type_id":"4","last_reported":1701439624,"current_range_meters":27600,"station_id":"ce4bhp92rcd13ifvqhcg","pricing_plan_id":"free"},{"bike_id":"0b2f324f-a5d8-4d51-a8fa-6b629dccc78e","system_id":"levelo_inurba_marseille","lat":43.271368,"lon":5.40928,"is_reserved":false,"is_disabled":false,"rental_uris":{"android":"levelo://app?vid=0b2f324f-a5d8-4d51-a8fa-6b629dccc78e","ios":"levelo://app?vid=0b2f324f-a5d8-4d51-a8fa-6b629dccc78e"},"vehicle_type_id":"4","last_reported":1701439624,"current_range_meters":8000,"station_id":"ce4bhl12rcd13ifvqgf0","pricing_plan_id":"free"},{"bike_id":"6d5827bb-e379-4067-bb3f-6136611daee9","system_id":"levelo_inurba_marseille","lat":43.298768,"lon":5.43643,"is_reserved":false,"is_disabled":false,"rental_uris":{"android":"levelo://app?vid=6d5827bb-e379-4067-bb3f-6136611daee9","ios":"levelo://app?vid=6d5827bb-e379-4067-bb3f-6136611daee9"},"vehicle_type_id":"4","last_reported":1701439624,"current_range_meters":29600,"station_id":"ce4bhpp2rcd13ifvqhfg","pricing_plan_id":"free"},{"bike_id":"100ae370-6cba-4ca9-a0bb-2b0f01dee277","system_id":"levelo_inurba_marseille","lat":43.260225,"lon":5.375455,"is_reserved":false,"is_disabled":false,"rental_uris":{"android":"levelo://app?vid=100ae370-6cba-4ca9-a0bb-2b0f01dee277","ios":"levelo://app?vid=100ae370-6cba-4ca9-a0bb-2b0f01dee277"},"vehicle_type_id":"4","last_reported":1701439624,"current_range_meters":28400,"station_id":"ce4bhgh2rcd13ifvqfa0","pricing_plan_id":"free"},{"bike_id":"8162fe4f-c06f-4dcb-aa40-1e6f70395cd9","system_id":"levelo_inurba_marseille","lat":43.260219,"lon":5.37546,"is_reserved":false,"is_disabled":false,"rental_uris":{"android":"levelo://app?vid=8162fe4f-c06f-4dcb-aa40-1e6f70395cd9","ios":"levelo://app?vid=8162fe4f-c06f-4dcb-aa40-1e6f70395cd9"},"vehicle_type_id":"4","last_reported":1701439624,"current_range_meters":30400,"station_id":"ce4bhgh2rcd13ifvqfa0","pricing_plan_id":"free"},{"bike_id":"3e4fb47e-33e8-4ee2-bfc1-1bd948cfa529","system_id":"levelo_inurba_marseille","lat":43.281548,"lon":5.42643,"is_reserved":false,"is_disabled":false,"rental_uris":{"android":"levelo://app?vid=3e4fb47e-33e8-4ee2-bfc1-1bd948cfa529","ios":"levelo://app?vid=3e4fb47e-33e8-4ee2-bfc1-1bd948cfa529"},"vehicle_type_id":"4","last_reported":1701439624,"current_range_meters":31200,"station_id":"ce4bhnh2rcd13ifvqgug","pricing_plan_id":"free"},{"bike_id":"a265f57d-2203-4406-8278-bc194922c399","system_id":"levelo_inurba_marseille","lat":43.28151,"lon":5.42639,"is_reserved":false,"is_disabled":false,"rental_uris":{"android":"levelo://app?vid=a265f57d-2203-4406-8278-bc194922c399","ios":"levelo://app?vid=a265f57d-2203-4406-8278-bc194922c399"},"vehicle_type_id":"4","last_reported":1701439624,"current_range_meters":30800,"station_id":"ce4bhnh2rcd13ifvqgug","pricing_plan_id":"free"},{"bike_id":"5e600f13-8c50-4bf1-9600-8a311d529ba6","system_id":"levelo_inurba_marseille","lat":43.281548,"lon":5.42643,"is_reserved":false,"is_disabled":false,"rental_uris":{"android":"levelo://app?vid=5e600f13-8c50-4bf1-9600-8a311d529ba6","ios":"levelo://app?vid=5e600f13-8c50-4bf1-9600-8a311d529ba6"},"vehicle_type_id":"4","last_reported":1701439624,"current_range_meters":22000,"station_id":"ce4bhnh2rcd13ifvqgug","pricing_plan_id":"free"},{"bike_id":"16e3cf12-314c-4e26-8315-bcc6e17dd084","system_id":"levelo_inurba_marseille","lat":43.281548,"lon":5.42643,"is_reserved":false,"is_disabled":false,"rental_uris":{"android":"levelo://app?vid=16e3cf12-314c-4e26-8315-bcc6e17dd084","ios":"levelo://app?vid=16e3cf12-314c-4e26-8315-bcc6e17dd084"},"vehicle_type_id":"4","last_reported":1701439624,"current_range_meters":7200,"station_id":"ce4bhnh2rcd13ifvqgug","pricing_plan_id":"free"},{"bike_id":"d3df04f1-aa36-401c-b9f0-16ea3bba87de","system_id":"levelo_inurba_marseille","lat":43.281548,"lon":5.42643,"is_reserved":false,"is_disabled":false,"rental_uris":{"android":"levelo://app?vid=d3df04f1-aa36-401c-b9f0-16ea3bba87de","ios":"levelo://app?vid=d3df04f1-aa36-401c-b9f0-16ea3bba87de"},"vehicle_type_id":"4","last_reported":1701439624,"current_range_meters":17600,"station_id":"ce4bhnh2rcd13ifvqgug","pricing_plan_id":"free"},{"bike_id":"b802834e-51f4-41a4-96cb-c31681473515","system_id":"levelo_inurba_marseille","lat":43.281548,"lon":5.42643,"is_reserved":false,"is_disabled":false,"rental_uris":{"android":"levelo://app?vid=b802834e-51f4-41a4-96cb-c31681473515","ios":"levelo://app?vid=b802834e-51f4-41a4-96cb-c31681473515"},"vehicle_type_id":"4","last_reported":1701439624,"current_range_meters":31200,"station_id":"ce4bhnh2rcd13ifvqgug","pricing_plan_id":"free"},{"bike_id":"3532a786-7312-4db1-88be-2e5e8a274941","system_id":"levelo_inurba_marseille","lat":43.281548,"lon":5.42643,"is_reserved":false,"is_disabled":false,"rental_uris":{"android":"levelo://app?vid=3532a786-7312-4db1-88be-2e5e8a274941","ios":"levelo://app?vid=3532a786-7312-4db1-88be-2e5e8a274941"},"vehicle_type_id":"4","last_reported":1701439624,"current_range_meters":27200,"station_id":"ce4bhnh2rcd13ifvqgug","pricing_plan_id":"free"},{"bike_id":"e897c865-d5bf-4bae-b25c-bf70705cfcce","system_id":"levelo_inurba_marseille","lat":43.2607,"lon":5.393983,"is_reserved":false,"is_disabled":false,"rental_uris":{"android":"levelo://app?vid=e897c865-d5bf-4bae-b25c-bf70705cfcce","ios":"levelo://app?vid=e897c865-d5bf-4bae-b25c-bf70705cfcce"},"vehicle_type_id":"4","last_reported":1701439624,"current_range_meters":29200,"station_id":"ce4bhh92rcd13ifvqfj0","pricing_plan_id":"free"},{"bike_id":"2b000e8e-c3d2-499c-96d9-224f0b43c759","system_id":"levelo_inurba_marseille","lat":43.275028,"lon":5.424534,"is_reserved":false,"is_disabled":false,"rental_uris":{"android":"levelo://app?vid=2b000e8e-c3d2-499c-96d9-224f0b43c759","ios":"levelo://app?vid=2b000e8e-c3d2-499c-96d9-224f0b43c759"},"vehicle_type_id":"4","last_reported":1701439624,"current_range_meters":2000,"station_id":"ce4bhn92rcd13ifvqgrg","pricing_plan_id":"free"},{"bike_id":"24ad73db-238b-4aa1-b125-cb08121b39ee","system_id":"levelo_inurba_marseille","lat":43.25586,"lon":5.3824,"is_reserved":false,"is_disabled":false,"rental_uris":{"android":"levelo://app?vid=24ad73db-238b-4aa1-b125-cb08121b39ee","ios":"levelo://app?vid=24ad73db-238b-4aa1-b125-cb08121b39ee"},"vehicle_type_id":"4","last_reported":1701439624,"current_range_meters":6800,"station_id":"ce4bhih2rcd13ifvqfs0","pricing_plan_id":"free"},{"bike_id":"07a7a856-04f3-437c-98e5-d2b42f2af020","system_id":"levelo_inurba_marseille","lat":43.25585,"lon":5.38235,"is_reserved":false,"is_disabled":false,"rental_uris":{"android":"levelo://app?vid=07a7a856-04f3-437c-98e5-d2b42f2af020","ios":"levelo://app?vid=07a7a856-04f3-437c-98e5-d2b42f2af020"},"vehicle_type_id":"4","last_reported":1701439624,"current_range_meters":0,"station_id":"ce4bhih2rcd13ifvqfs0","pricing_plan_id":"free"},{"bike_id":"73e5c775-06e0-47be-a31d-62a6371e75cd","system_id":"levelo_inurba_marseille","lat":43.270721,"lon":5.422764,"is_reserved":false,"is_disabled":false,"rental_uris":{"android":"levelo://app?vid=73e5c775-06e0-47be-a31d-62a6371e75cd","ios":"levelo://app?vid=73e5c775-06e0-47be-a31d-62a6371e75cd"},"vehicle_type_id":"4","last_reported":1701439624,"current_range_meters":21600,"station_id":"ce4bhk92rcd13ifvqgb0","pricing_plan_id":"free"},{"bike_id":"e7c297ee-7be0-477a-9a13-e63a82c1e58d","system_id":"levelo_inurba_marseille","lat":43.258658,"lon":5.398935,"is_reserved":false,"is_disabled":false,"rental_uris":{"android":"levelo://app?vid=e7c297ee-7be0-477a-9a13-e63a82c1e58d","ios":"levelo://app?vid=e7c297ee-7be0-477a-9a13-e63a82c1e58d"},"vehicle_type_id":"4","last_reported":1701439624,"current_range_meters":800,"station_id":"ce4bhl92rcd13ifvqghg","pricing_plan_id":"free"},{"bike_id":"5b4c3cc3-5553-4890-9cc2-4212fb62f085","system_id":"levelo_inurba_marseille","lat":43.258658,"lon":5.398935,"is_reserved":false,"is_disabled":false,"rental_uris":{"android":"levelo://app?vid=5b4c3cc3-5553-4890-9cc2-4212fb62f085","ios":"levelo://app?vid=5b4c3cc3-5553-4890-9cc2-4212fb62f085"},"vehicle_type_id":"4","last_reported":1701439624,"current_range_meters":0,"station_id":"ce4bhl92rcd13ifvqghg","pricing_plan_id":"free"},{"bike_id":"dc650cf6-963c-46bd-9ecf-ef4e317c235a","system_id":"levelo_inurba_marseille","lat":43.258658,"lon":5.398935,"is_reserved":false,"is_disabled":false,"rental_uris":{"android":"levelo://app?vid=dc650cf6-963c-46bd-9ecf-ef4e317c235a","ios":"levelo://app?vid=dc650cf6-963c-46bd-9ecf-ef4e317c235a"},"vehicle_type_id":"4","last_reported":1701439624,"current_range_meters":30000,"station_id":"ce4bhl92rcd13ifvqghg","pricing_plan_id":"free"},{"bike_id":"f43dc8cf-3f0c-4889-a74c-f4b22255ee62","system_id":"levelo_inurba_marseille","lat":43.250009,"lon":5.389195,"is_reserved":false,"is_disabled":false,"rental_uris":{"android":"levelo://app?vid=f43dc8cf-3f0c-4889-a74c-f4b22255ee62","ios":"levelo://app?vid=f43dc8cf-3f0c-4889-a74c-f4b22255ee62"},"vehicle_type_id":"4","last_reported":1701439624,"current_range_meters":22400,"station_id":"ce4bhgp2rcd13ifvqfd0","pricing_plan_id":"free"},{"bike_id":"c136790e-9dfa-4069-95bc-1662afc1d3bc","system_id":"levelo_inurba_marseille","lat":43.250009,"lon":5.389195,"is_reserved":false,"is_disabled":false,"rental_uris":{"android":"levelo://app?vid=c136790e-9dfa-4069-95bc-1662afc1d3bc","ios":"levelo://app?vid=c136790e-9dfa-4069-95bc-1662afc1d3bc"},"vehicle_type_id":"4","last_reported":1701439624,"current_range_meters":12000,"station_id":"ce4bhgp2rcd13ifvqfd0","pricing_plan_id":"free"},{"bike_id":"86073f2d-e122-4f90-b490-8d608613938c","system_id":"levelo_inurba_marseille","lat":43.250023,"lon":5.38919,"is_reserved":false,"is_disabled":false,"rental_uris":{"android":"levelo://app?vid=86073f2d-e122-4f90-b490-8d608613938c","ios":"levelo://app?vid=86073f2d-e122-4f90-b490-8d608613938c"},"vehicle_type_id":"4","last_reported":1701439624,"current_range_meters":10400,"station_id":"ce4bhgp2rcd13ifvqfd0","pricing_plan_id":"free"},{"bike_id":"9266f51b-1038-4368-96ca-2000ba4167ee","system_id":"levelo_inurba_marseille","lat":43.2479,"lon":5.374457,"is_reserved":false,"is_disabled":false,"rental_uris":{"android":"levelo://app?vid=9266f51b-1038-4368-96ca-2000ba4167ee","ios":"levelo://app?vid=9266f51b-1038-4368-96ca-2000ba4167ee"},"vehicle_type_id":"4","last_reported":1701439624,"current_range_meters":21600,"station_id":"ce4bhgh2rcd13ifvqfb0","pricing_plan_id":"free"},{"bike_id":"8c742b65-2b32-483d-8b03-b0830a42d65b","system_id":"levelo_inurba_marseille","lat":43.250009,"lon":5.389195,"is_reserved":false,"is_disabled":false,"rental_uris":{"android":"levelo://app?vid=8c742b65-2b32-483d-8b03-b0830a42d65b","ios":"levelo://app?vid=8c742b65-2b32-483d-8b03-b0830a42d65b"},"vehicle_type_id":"4","last_reported":1701439624,"current_range_meters":16800,"station_id":"ce4bhgp2rcd13ifvqfd0","pricing_plan_id":"free"},{"bike_id":"44c2071e-c208-415b-b839-136309ad79d7","system_id":"levelo_inurba_marseille","lat":43.250009,"lon":5.389195,"is_reserved":false,"is_disabled":false,"rental_uris":{"android":"levelo://app?vid=44c2071e-c208-415b-b839-136309ad79d7","ios":"levelo://app?vid=44c2071e-c208-415b-b839-136309ad79d7"},"vehicle_type_id":"4","last_reported":1701439624,"current_range_meters":20800,"station_id":"ce4bhgp2rcd13ifvqfd0","pricing_plan_id":"free"},{"bike_id":"e78e8cd3-6b4b-45f2-8330-c80ce0324655","system_id":"levelo_inurba_marseille","lat":43.250023,"lon":5.38919,"is_reserved":false,"is_disabled":false,"rental_uris":{"android":"levelo://app?vid=e78e8cd3-6b4b-45f2-8330-c80ce0324655","ios":"levelo://app?vid=e78e8cd3-6b4b-45f2-8330-c80ce0324655"},"vehicle_type_id":"4","last_reported":1701439624,"current_range_meters":30800,"station_id":"ce4bhgp2rcd13ifvqfd0","pricing_plan_id":"free"},{"bike_id":"6592a534-7815-4189-bdc1-5b7b67138438","system_id":"levelo_inurba_marseille","lat":43.24693,"lon":5.382096,"is_reserved":false,"is_disabled":false,"rental_uris":{"android":"levelo://app?vid=6592a534-7815-4189-bdc1-5b7b67138438","ios":"levelo://app?vid=6592a534-7815-4189-bdc1-5b7b67138438"},"vehicle_type_id":"4","last_reported":1701439624,"current_range_meters":30400,"station_id":"ce4bhih2rcd13ifvqfr0","pricing_plan_id":"free"},{"bike_id":"12fa8665-af47-4ea4-9f91-5c935fe5ae43","system_id":"levelo_inurba_marseille","lat":43.24693,"lon":5.382096,"is_reserved":false,"is_disabled":false,"rental_uris":{"android":"levelo://app?vid=12fa8665-af47-4ea4-9f91-5c935fe5ae43","ios":"levelo://app?vid=12fa8665-af47-4ea4-9f91-5c935fe5ae43"},"vehicle_type_id":"4","last_reported":1701439624,"current_range_meters":31200,"station_id":"ce4bhih2rcd13ifvqfr0","pricing_plan_id":"free"},{"bike_id":"59cf6d6b-d7f0-4625-8cd9-7b7a3fc5ea32","system_id":"levelo_inurba_marseille","lat":43.25102,"lon":5.403214,"is_reserved":false,"is_disabled":false,"rental_uris":{"android":"levelo://app?vid=59cf6d6b-d7f0-4625-8cd9-7b7a3fc5ea32","ios":"levelo://app?vid=59cf6d6b-d7f0-4625-8cd9-7b7a3fc5ea32"},"vehicle_type_id":"4","last_reported":1701439624,"current_range_meters":27600,"station_id":"ce4bhlh2rcd13ifvqgig","pricing_plan_id":"free"},{"bike_id":"e791f8d3-8957-42b4-8101-aea576b91388","system_id":"levelo_inurba_marseille","lat":43.25102,"lon":5.403214,"is_reserved":false,"is_disabled":false,"rental_uris":{"android":"levelo://app?vid=e791f8d3-8957-42b4-8101-aea576b91388","ios":"levelo://app?vid=e791f8d3-8957-42b4-8101-aea576b91388"},"vehicle_type_id":"4","last_reported":1701439624,"current_range_meters":30400,"station_id":"ce4bhlh2rcd13ifvqgig","pricing_plan_id":"free"},{"bike_id":"edc0e680-2548-4339-8fb5-1532d40e4393","system_id":"levelo_inurba_marseille","lat":43.25102,"lon":5.403214,"is_reserved":false,"is_disabled":false,"rental_uris":{"android":"levelo://app?vid=edc0e680-2548-4339-8fb5-1532d40e4393","ios":"levelo://app?vid=edc0e680-2548-4339-8fb5-1532d40e4393"},"vehicle_type_id":"4","last_reported":1701439624,"current_range_meters":28800,"station_id":"ce4bhlh2rcd13ifvqgig","pricing_plan_id":"free"},{"bike_id":"a6fb93bb-27c3-4cc3-95bf-e4dbd1c05b01","system_id":"levelo_inurba_marseille","lat":43.25102,"lon":5.403214,"is_reserved":false,"is_disabled":false,"rental_uris":{"android":"levelo://app?vid=a6fb93bb-27c3-4cc3-95bf-e4dbd1c05b01","ios":"levelo://app?vid=a6fb93bb-27c3-4cc3-95bf-e4dbd1c05b01"},"vehicle_type_id":"4","last_reported":1701439624,"current_range_meters":31200,"station_id":"ce4bhlh2rcd13ifvqgig","pricing_plan_id":"free"},{"bike_id":"fd3461e4-1744-459a-9a63-ffaaba8fe639","system_id":"levelo_inurba_marseille","lat":43.25102,"lon":5.403214,"is_reserved":false,"is_disabled":false,"rental_uris":{"android":"levelo://app?vid=fd3461e4-1744-459a-9a63-ffaaba8fe639","ios":"levelo://app?vid=fd3461e4-1744-459a-9a63-ffaaba8fe639"},"vehicle_type_id":"4","last_reported":1701439624,"current_range_meters":4800,"station_id":"ce4bhlh2rcd13ifvqgig","pricing_plan_id":"free"},{"bike_id":"c0e62aaa-5463-40b9-b530-ba2c8260d22b","system_id":"levelo_inurba_marseille","lat":43.25102,"lon":5.403214,"is_reserved":false,"is_disabled":false,"rental_uris":{"android":"levelo://app?vid=c0e62aaa-5463-40b9-b530-ba2c8260d22b","ios":"levelo://app?vid=c0e62aaa-5463-40b9-b530-ba2c8260d22b"},"vehicle_type_id":"4","last_reported":1701439624,"current_range_meters":27600,"station_id":"ce4bhlh2rcd13ifvqgig","pricing_plan_id":"free"},{"bike_id":"e7aad632-367b-4496-9cef-bcfeaf0ec9a0","system_id":"levelo_inurba_marseille","lat":43.246461,"lon":5.389014,"is_reserved":false,"is_disabled":false,"rental_uris":{"android":"levelo://app?vid=e7aad632-367b-4496-9cef-bcfeaf0ec9a0","ios":"levelo://app?vid=e7aad632-367b-4496-9cef-bcfeaf0ec9a0"},"vehicle_type_id":"4","last_reported":1701439624,"current_range_meters":30000,"station_id":"ce4bhg12rcd13ifvqf60","pricing_plan_id":"free"},{"bike_id":"0732e905-8363-4c62-a08b-8028248cfd9d","system_id":"levelo_inurba_marseille","lat":43.246467,"lon":5.388984,"is_reserved":false,"is_disabled":false,"rental_uris":{"android":"levelo://app?vid=0732e905-8363-4c62-a08b-8028248cfd9d","ios":"levelo://app?vid=0732e905-8363-4c62-a08b-8028248cfd9d"},"vehicle_type_id":"4","last_reported":1701439624,"current_range_meters":6800,"station_id":"ce4bhg12rcd13ifvqf60","pricing_plan_id":"free"},{"bike_id":"48120d6f-a5ad-4b77-aa78-a715e967e174","system_id":"levelo_inurba_marseille","lat":43.246467,"lon":5.388984,"is_reserved":false,"is_disabled":false,"rental_uris":{"android":"levelo://app?vid=48120d6f-a5ad-4b77-aa78-a715e967e174","ios":"levelo://app?vid=48120d6f-a5ad-4b77-aa78-a715e967e174"},"vehicle_type_id":"4","last_reported":1701439624,"current_range_meters":18400,"station_id":"ce4bhg12rcd13ifvqf60","pricing_plan_id":"free"},{"bike_id":"55972aea-1e08-41ae-a249-b19d00024dc4","system_id":"levelo_inurba_marseille","lat":43.243883,"lon":5.370578,"is_reserved":false,"is_disabled":false,"rental_uris":{"android":"levelo://app?vid=55972aea-1e08-41ae-a249-b19d00024dc4","ios":"levelo://app?vid=55972aea-1e08-41ae-a249-b19d00024dc4"},"vehicle_type_id":"4","last_reported":1701439624,"current_range_meters":26400,"station_id":"ce4bhnp2rcd13ifvqgvg","pricing_plan_id":"free"},{"bike_id":"2b87974a-d432-4d0d-9e2e-39ef327a82c9","system_id":"levelo_inurba_marseille","lat":43.241782,"lon":5.397261,"is_reserved":false,"is_disabled":false,"rental_uris":{"android":"levelo://app?vid=2b87974a-d432-4d0d-9e2e-39ef327a82c9","ios":"levelo://app?vid=2b87974a-d432-4d0d-9e2e-39ef327a82c9"},"vehicle_type_id":"4","last_reported":1701439624,"current_range_meters":12800,"station_id":"ce4bhn12rcd13ifvqgpg","pricing_plan_id":"free"},{"bike_id":"460ff11d-43d6-4fa0-9381-c598ad26d49a","system_id":"levelo_inurba_marseille","lat":43.241782,"lon":5.397261,"is_reserved":false,"is_disabled":false,"rental_uris":{"android":"levelo://app?vid=460ff11d-43d6-4fa0-9381-c598ad26d49a","ios":"levelo://app?vid=460ff11d-43d6-4fa0-9381-c598ad26d49a"},"vehicle_type_id":"4","last_reported":1701439624,"current_range_meters":31600,"station_id":"ce4bhn12rcd13ifvqgpg","pricing_plan_id":"free"},{"bike_id":"3e57237b-74e2-4cae-a84d-ba9322284682","system_id":"levelo_inurba_marseille","lat":43.241782,"lon":5.397261,"is_reserved":false,"is_disabled":false,"rental_uris":{"android":"levelo://app?vid=3e57237b-74e2-4cae-a84d-ba9322284682","ios":"levelo://app?vid=3e57237b-74e2-4cae-a84d-ba9322284682"},"vehicle_type_id":"4","last_reported":1701439624,"current_range_meters":17600,"station_id":"ce4bhn12rcd13ifvqgpg","pricing_plan_id":"free"},{"bike_id":"a6a8669f-04e5-40a2-a89c-382961c887a6","system_id":"levelo_inurba_marseille","lat":43.24174,"lon":5.39729,"is_reserved":false,"is_disabled":false,"rental_uris":{"android":"levelo://app?vid=a6a8669f-04e5-40a2-a89c-382961c887a6","ios":"levelo://app?vid=a6a8669f-04e5-40a2-a89c-382961c887a6"},"vehicle_type_id":"4","last_reported":1701439624,"current_range_meters":15200,"station_id":"ce4bhn12rcd13ifvqgpg","pricing_plan_id":"free"},{"bike_id":"fc4fa937-e357-4519-bdb5-66a2fca9fe7b","system_id":"levelo_inurba_marseille","lat":43.231919,"lon":5.355532,"is_reserved":false,"is_disabled":false,"rental_uris":{"android":"levelo://app?vid=fc4fa937-e357-4519-bdb5-66a2fca9fe7b","ios":"levelo://app?vid=fc4fa937-e357-4519-bdb5-66a2fca9fe7b"},"vehicle_type_id":"4","last_reported":1701439624,"current_range_meters":12400,"station_id":"ce4bhu92rcd13ifvqi70","pricing_plan_id":"free"},{"bike_id":"6382809b-45d0-4ad2-8be7-697249f82077","system_id":"levelo_inurba_marseille","lat":43.231919,"lon":5.355532,"is_reserved":false,"is_disabled":false,"rental_uris":{"android":"levelo://app?vid=6382809b-45d0-4ad2-8be7-697249f82077","ios":"levelo://app?vid=6382809b-45d0-4ad2-8be7-697249f82077"},"vehicle_type_id":"4","last_reported":1701439624,"current_range_meters":32000,"station_id":"ce4bhu92rcd13ifvqi70","pricing_plan_id":"free"},{"bike_id":"d1703505-b125-4a98-a807-11024241bc04","system_id":"levelo_inurba_marseille","lat":43.231921,"lon":5.355546,"is_reserved":false,"is_disabled":false,"rental_uris":{"android":"levelo://app?vid=d1703505-b125-4a98-a807-11024241bc04","ios":"levelo://app?vid=d1703505-b125-4a98-a807-11024241bc04"},"vehicle_type_id":"4","last_reported":1701439624,"current_range_meters":31200,"station_id":"ce4bhu92rcd13ifvqi70","pricing_plan_id":"free"},{"bike_id":"cf3102c4-88e0-4a41-86b7-69a76932d3e6","system_id":"levelo_inurba_marseille","lat":43.231905,"lon":5.355465,"is_reserved":false,"is_disabled":false,"rental_uris":{"android":"levelo://app?vid=cf3102c4-88e0-4a41-86b7-69a76932d3e6","ios":"levelo://app?vid=cf3102c4-88e0-4a41-86b7-69a76932d3e6"},"vehicle_type_id":"4","last_reported":1701439624,"current_range_meters":31200,"station_id":"ce4bhu92rcd13ifvqi70","pricing_plan_id":"free"},{"bike_id":"3ed8aab0-8075-4621-8453-065c420c9ecf","system_id":"levelo_inurba_marseille","lat":43.2319,"lon":5.35552,"is_reserved":false,"is_disabled":false,"rental_uris":{"android":"levelo://app?vid=3ed8aab0-8075-4621-8453-065c420c9ecf","ios":"levelo://app?vid=3ed8aab0-8075-4621-8453-065c420c9ecf"},"vehicle_type_id":"4","last_reported":1701439624,"current_range_meters":8800,"station_id":"ce4bhu92rcd13ifvqi70","pricing_plan_id":"free"},{"bike_id":"22bd98e3-c33f-4c44-ae2b-f96729d36f4f","system_id":"levelo_inurba_marseille","lat":43.231883,"lon":5.399919,"is_reserved":false,"is_disabled":false,"rental_uris":{"android":"levelo://app?vid=22bd98e3-c33f-4c44-ae2b-f96729d36f4f","ios":"levelo://app?vid=22bd98e3-c33f-4c44-ae2b-f96729d36f4f"},"vehicle_type_id":"4","last_reported":1701439624,"current_range_meters":31200,"station_id":"ce4bhn12rcd13ifvqgqg","pricing_plan_id":"free"},{"bike_id":"d0b35396-6769-42d4-8160-8b44cb829902","system_id":"levelo_inurba_marseille","lat":43.231793,"lon":5.400044,"is_reserved":false,"is_disabled":false,"rental_uris":{"android":"levelo://app?vid=d0b35396-6769-42d4-8160-8b44cb829902","ios":"levelo://app?vid=d0b35396-6769-42d4-8160-8b44cb829902"},"vehicle_type_id":"4","last_reported":1701439624,"current_range_meters":28400,"station_id":"ce4bhn12rcd13ifvqgqg","pricing_plan_id":"free"},{"bike_id":"1eeab9a5-d341-4bc8-8d21-ee151ff9d9b2","system_id":"levelo_inurba_marseille","lat":43.231817,"lon":5.399923,"is_reserved":false,"is_disabled":false,"rental_uris":{"android":"levelo://app?vid=1eeab9a5-d341-4bc8-8d21-ee151ff9d9b2","ios":"levelo://app?vid=1eeab9a5-d341-4bc8-8d21-ee151ff9d9b2"},"vehicle_type_id":"4","last_reported":1701439624,"current_range_meters":23200,"station_id":"ce4bhn12rcd13ifvqgqg","pricing_plan_id":"free"},{"bike_id":"bfb1ccb5-dfa1-425d-901e-02799fedd445","system_id":"levelo_inurba_marseille","lat":43.23179,"lon":5.39997,"is_reserved":false,"is_disabled":false,"rental_uris":{"android":"levelo://app?vid=bfb1ccb5-dfa1-425d-901e-02799fedd445","ios":"levelo://app?vid=bfb1ccb5-dfa1-425d-901e-02799fedd445"},"vehicle_type_id":"4","last_reported":1701439624,"current_range_meters":14000,"station_id":"ce4bhn12rcd13ifvqgqg","pricing_plan_id":"free"},{"bike_id":"a16c4306-025a-4fd8-97c3-2b13abc3d7b4","system_id":"levelo_inurba_marseille","lat":43.231562,"lon":5.436933,"is_reserved":false,"is_disabled":false,"rental_uris":{"android":"levelo://app?vid=a16c4306-025a-4fd8-97c3-2b13abc3d7b4","ios":"levelo://app?vid=a16c4306-025a-4fd8-97c3-2b13abc3d7b4"},"vehicle_type_id":"4","last_reported":1701439624,"current_range_meters":18800,"station_id":"ce4bhmp2rcd13ifvqgog","pricing_plan_id":"free"},{"bike_id":"d3692770-4aae-41e9-88e9-7ad25a696331","system_id":"levelo_inurba_marseille","lat":43.231562,"lon":5.436933,"is_reserved":false,"is_disabled":false,"rental_uris":{"android":"levelo://app?vid=d3692770-4aae-41e9-88e9-7ad25a696331","ios":"levelo://app?vid=d3692770-4aae-41e9-88e9-7ad25a696331"},"vehicle_type_id":"4","last_reported":1701439624,"current_range_meters":31200,"station_id":"ce4bhmp2rcd13ifvqgog","pricing_plan_id":"free"},{"bike_id":"7161324f-2e2a-42a6-8086-e831f0830dc4","system_id":"levelo_inurba_marseille","lat":43.231562,"lon":5.436933,"is_reserved":false,"is_disabled":false,"rental_uris":{"android":"levelo://app?vid=7161324f-2e2a-42a6-8086-e831f0830dc4","ios":"levelo://app?vid=7161324f-2e2a-42a6-8086-e831f0830dc4"},"vehicle_type_id":"4","last_reported":1701439624,"current_range_meters":18400,"station_id":"ce4bhmp2rcd13ifvqgog","pricing_plan_id":"free"},{"bike_id":"16142c69-3ea7-4628-8f42-f75831211f2c","system_id":"levelo_inurba_marseille","lat":43.231562,"lon":5.436933,"is_reserved":false,"is_disabled":false,"rental_uris":{"android":"levelo://app?vid=16142c69-3ea7-4628-8f42-f75831211f2c","ios":"levelo://app?vid=16142c69-3ea7-4628-8f42-f75831211f2c"},"vehicle_type_id":"4","last_reported":1701439624,"current_range_meters":30000,"station_id":"ce4bhmp2rcd13ifvqgog","pricing_plan_id":"free"},{"bike_id":"3981a8fd-24c6-4214-aeb3-6399f0bdb1e3","system_id":"levelo_inurba_marseille","lat":43.231562,"lon":5.436933,"is_reserved":false,"is_disabled":false,"rental_uris":{"android":"levelo://app?vid=3981a8fd-24c6-4214-aeb3-6399f0bdb1e3","ios":"levelo://app?vid=3981a8fd-24c6-4214-aeb3-6399f0bdb1e3"},"vehicle_type_id":"4","last_reported":1701439624,"current_range_meters":32000,"station_id":"ce4bhmp2rcd13ifvqgog","pricing_plan_id":"free"},{"bike_id":"f7319c86-2de0-4be5-9040-58d3b48ad9d2","system_id":"levelo_inurba_marseille","lat":43.23148,"lon":5.43722,"is_reserved":false,"is_disabled":false,"rental_uris":{"android":"levelo://app?vid=f7319c86-2de0-4be5-9040-58d3b48ad9d2","ios":"levelo://app?vid=f7319c86-2de0-4be5-9040-58d3b48ad9d2"},"vehicle_type_id":"4","last_reported":1701439624,"current_range_meters":31200,"station_id":"ce4bhmp2rcd13ifvqgog","pricing_plan_id":"free"},{"bike_id":"8f7bf4bc-06c1-4fe0-9dd1-fbfece98a6a0","system_id":"levelo_inurba_marseille","lat":43.231562,"lon":5.436933,"is_reserved":false,"is_disabled":false,"rental_uris":{"android":"levelo://app?vid=8f7bf4bc-06c1-4fe0-9dd1-fbfece98a6a0","ios":"levelo://app?vid=8f7bf4bc-06c1-4fe0-9dd1-fbfece98a6a0"},"vehicle_type_id":"4","last_reported":1701439624,"current_range_meters":18000,"station_id":"ce4bhmp2rcd13ifvqgog","pricing_plan_id":"free"},{"bike_id":"9b2f92f0-7b31-452f-80c7-f6e0e9fd621d","system_id":"levelo_inurba_marseille","lat":43.231562,"lon":5.436933,"is_reserved":false,"is_disabled":false,"rental_uris":{"android":"levelo://app?vid=9b2f92f0-7b31-452f-80c7-f6e0e9fd621d","ios":"levelo://app?vid=9b2f92f0-7b31-452f-80c7-f6e0e9fd621d"},"vehicle_type_id":"4","last_reported":1701439624,"current_range_meters":17600,"station_id":"ce4bhmp2rcd13ifvqgog","pricing_plan_id":"free"},{"bike_id":"30e17dae-c264-44cb-bcad-5e1d12dcd159","system_id":"levelo_inurba_marseille","lat":43.231562,"lon":5.436933,"is_reserved":false,"is_disabled":false,"rental_uris":{"android":"levelo://app?vid=30e17dae-c264-44cb-bcad-5e1d12dcd159","ios":"levelo://app?vid=30e17dae-c264-44cb-bcad-5e1d12dcd159"},"vehicle_type_id":"4","last_reported":1701439624,"current_range_meters":28800,"station_id":"ce4bhmp2rcd13ifvqgog","pricing_plan_id":"free"},{"bike_id":"8e19b34d-d472-4ef1-b579-647ff7eb6077","system_id":"levelo_inurba_marseille","lat":43.231562,"lon":5.436933,"is_reserved":false,"is_disabled":false,"rental_uris":{"android":"levelo://app?vid=8e19b34d-d472-4ef1-b579-647ff7eb6077","ios":"levelo://app?vid=8e19b34d-d472-4ef1-b579-647ff7eb6077"},"vehicle_type_id":"4","last_reported":1701439624,"current_range_meters":18000,"station_id":"ce4bhmp2rcd13ifvqgog","pricing_plan_id":"free"}]}}