{"last_updated":1740690533,"ttl":60,"version":"2.2","data":{"bikes":[{"bike_id":"fb04da1c-3fe3-48c7-a751-e2022c7f2a4e","system_id":"levelo_inurba_marseille","lat":43.31151,"lon":5.38295,"is_reserved":false,"is_disabled":false,"rental_uris":{"android":"levelo://app?vid=fb04da1c-3fe3-48c7-a751-e2022c7f2a4e","ios":"levelo://app?vid=fb04da1c-3fe3-48c7-a751-e2022c7f2a4e"},"vehicle_type_id":"4","last_reported":1740690533,"current_range_meters":0,"station_id":"","pricing_plan_id":"cebpf4jnsgd1na2vs0mg"},{"bike_id":"fb8e7abc-6f19-4d98-8a8c-f28a96608575","system_id":"levelo_inurba_marseille","lat":43.29857,"lon":5.38381,"is_reserved":false,"is_disabled":true,"rental_uris":{"android":"levelo://app?vid=fb8e7abc-6f19-4d98-8a8c-f28a96608575","ios":"levelo://app?vid=fb8e7abc-6f19-4d98-8a8c-f28a96608575"},"vehicle_type_id":"4","last_reported":1740690533,"current_range_meters":0,"station_id":"","pricing_plan_id":"cebpf4jnsgd1na2vs0mg"},{"bike_id":"32d39ccd-0c40-4cda-a0e5-98cc976b3566","system_id":"levelo_inurba_marseille","lat":43.23696,"lon":5.43593,"is_reserved":false,"is_disabled":true,"rental_uris":{"android":"levelo://app?vid=32d39ccd-0c40-4cda-a0e5-98cc976b3566","ios":"levelo://app?vid=32d39ccd-0c40-4cda-a0e5-98cc976b3566"},"vehicle_type_id":"4","last_reported":1740690533,"current_range_meters":0,"station_id":"","pricing_plan_id":"cebpf4jnsgd1na2vs0mg"},{"bike_id":"c26b32a3-3bd5-46b8-957b-1fcd1a2d5dce","system_id":"levelo_inurba_marseille","lat":43.290194,"lon":5.372834,"is_reserved":false,"is_disabled":true,"rental_uris":{"android":"levelo://app?vid=c26b32a3-3bd5-46b8-957b-1fcd1a2d5dce","ios":"levelo://app?vid=c26b32a3-3bd5-46b8-957b-1fcd1a2d5dce"},"vehicle_type_id":"4","last_reported":1740690533,"current_range_meters":0,"station_id":"","pricing_plan_id":"cebpf4jnsgd1na2vs0mg"},{"bike_id":"b82fe2fa-9f23-4f27-ad25-9ad37cf7aa53","system_id":"levelo_inurba_marseille","lat":43.28365,"lon":5.41345,"is_reserved":false,"is_disabled":true,"rental_uris":{"android":"levelo://app?vid=b82fe2fa-9f23-4f27-ad25-9ad37cf7aa53","ios":"levelo://app?vid=b82fe2fa-9f23-4f27-ad25-9ad37cf7aa53"},"vehicle_type_id":"4","last_reported":1740690533,"current_range_meters":0,"station_id":"","pricing_plan_id":"cebpf4jnsgd1na2vs0mg"},{"bike_id":"6d99bc09-c99a-4a9b-99f9-820af25155d9","system_id":"levelo_inurba_marseille","lat":43.31603,"lon":5.37453,"is_reserved":false,"is_disabled":true,"rental_uris":{"android":"levelo://app?vid=6d99bc09-c99a-4a9b-99f9-820af25155d9","ios":"levelo://app?vid=6d99bc09-c99a-4a9b-99f9-820af25155d9"},"vehicle_type_id":"4","last_reported":1740690533,"current_range_meters":0,"station_id":"","pricing_plan_id":"cebpf4jnsgd1na2vs0mg"},{"bike_id":"1256cf6b-bbdd-43c2-bc99-f4e8e7def67b","system_id":"levelo_inurba_marseille","lat":43.29536,"lon":5.38537,"is_reserved":false,"is_disabled":true,"rental_uris":{"android":"levelo://app?vid=1256cf6b-bbdd-43c2-bc99-f4e8e7def67b","ios":"levelo://app?vid=1256cf6b-bbdd-43c2-bc99-f4e8e7def67b"},"vehicle_type_id":"4","last_reported":1740690533,"current_range_meters":0,"station_id":"ce4bgih2rcd13ifvqba0","pricing_plan_id":"cebpf4jnsgd1na2vs0mg"},{"bike_id":"f6d48448-b43e-447d-a264-f72204304012","system_id":"levelo_inurba_marseille","lat":43.29282,"lon":5.36833,"is_reserved":false,"is_disabled":true,"rental_uris":{"android":"levelo://app?vid=f6d48448-b43e-447d-a264-f72204304012","ios":"levelo://app?vid=f6d48448-b43e-447d-a264-f72204304012"},"vehicle_type_id":"4","last_reported":1740690533,"current_range_meters":0,"station_id":"ce4bhbp2rcd13ifvqesg","pricing_plan_id":"cebpf4jnsgd1na2vs0mg"},{"bike_id":"d817b460-627b-4109-867e-f4bf85ad7676","system_id":"levelo_inurba_marseille","lat":43.27901,"lon":5.38027,"is_reserved":false,"is_disabled":true,"rental_uris":{"android":"levelo://app?vid=d817b460-627b-4109-867e-f4bf85ad7676","ios":"levelo://app?vid=d817b460-627b-4109-867e-f4bf85ad7676"},"vehicle_type_id":"4","last_reported":1740690533,"current_range_meters":0,"station_id":"ce4bhf92rcd13ifvqf50","pricing_plan_id":"cebpf4jnsgd1na2vs0mg"},{"bike_id":"a5006533-0811-4314-822c-b07af9bb96bd","system_id":"levelo_inurba_marseille","lat":43.27951,"lon":5.38692,"is_reserved":false,"is_disabled":true,"rental_uris":{"android":"levelo://app?vid=a5006533-0811-4314-822c-b07af9bb96bd","ios":"levelo://app?vid=a5006533-0811-4314-822c-b07af9bb96bd"},"vehicle_type_id":"4","last_reported":1740690533,"current_range_meters":0,"station_id":"ce4bhg12rcd13ifvqf80","pricing_plan_id":"cebpf4jnsgd1na2vs0mg"},{"bike_id":"2e0bbacf-e875-47f6-b13f-d1e030139f49","system_id":"levelo_inurba_marseille","lat":43.26794,"lon":5.39447,"is_reserved":false,"is_disabled":true,"rental_uris":{"android":"levelo://app?vid=2e0bbacf-e875-47f6-b13f-d1e030139f49","ios":"levelo://app?vid=2e0bbacf-e875-47f6-b13f-d1e030139f49"},"vehicle_type_id":"4","last_reported":1740690533,"current_range_meters":0,"station_id":"ce4bhh12rcd13ifvqfg0","pricing_plan_id":"cebpf4jnsgd1na2vs0mg"},{"bike_id":"5e97a04f-8513-4bd6-9741-0d7a392bf2c5","system_id":"levelo_inurba_marseille","lat":43.23172,"lon":5.43707,"is_reserved":false,"is_disabled":true,"rental_uris":{"android":"levelo://app?vid=5e97a04f-8513-4bd6-9741-0d7a392bf2c5","ios":"levelo://app?vid=5e97a04f-8513-4bd6-9741-0d7a392bf2c5"},"vehicle_type_id":"4","last_reported":1740690533,"current_range_meters":0,"station_id":"ce4bhmp2rcd13ifvqgog","pricing_plan_id":"cebpf4jnsgd1na2vs0mg"},{"bike_id":"b8666058-8969-4572-b4db-2471ee901c00","system_id":"levelo_inurba_marseille","lat":43.30813,"lon":5.43533,"is_reserved":false,"is_disabled":true,"rental_uris":{"android":"levelo://app?vid=b8666058-8969-4572-b4db-2471ee901c00","ios":"levelo://app?vid=b8666058-8969-4572-b4db-2471ee901c00"},"vehicle_type_id":"4","last_reported":1740690533,"current_range_meters":0,"station_id":"ce4bhph2rcd13ifvqheg","pricing_plan_id":"cebpf4jnsgd1na2vs0mg"},{"bike_id":"7a9a1b32-b520-4faa-a550-ba16413583f9","system_id":"levelo_inurba_marseille","lat":43.32343,"lon":5.40614,"is_reserved":false,"is_disabled":false,"rental_uris":{"android":"levelo://app?vid=7a9a1b32-b520-4faa-a550-ba16413583f9","ios":"levelo://app?vid=7a9a1b32-b520-4faa-a550-ba16413583f9"},"vehicle_type_id":"4","last_reported":1740690533,"current_range_meters":0,"station_id":"ce4bhq92rcd13ifvqhjg","pricing_plan_id":"cebpf4jnsgd1na2vs0mg"},{"bike_id":"77d72656-ec37-44f1-ab2b-c05ee9e3e3e9","system_id":"levelo_inurba_marseille","lat":43.2926,"lon":5.37559,"is_reserved":false,"is_disabled":true,"rental_uris":{"android":"levelo://app?vid=77d72656-ec37-44f1-ab2b-c05ee9e3e3e9","ios":"levelo://app?vid=77d72656-ec37-44f1-ab2b-c05ee9e3e3e9"},"vehicle_type_id":"4","last_reported":1740690533,"current_range_meters":400,"station_id":"","pricing_plan_id":"cebpf4jnsgd1na2vs0mg"},{"bike_id":"23aedf73-ef62-4d29-8662-d09c061e3b39","system_id":"levelo_inurba_marseille","lat":43.31075,"lon":5.38208,"is_reserved":false,"is_disabled":true,"rental_uris":{"android":"levelo://app?vid=23aedf73-ef62-4d29-8662-d09c061e3b39","ios":"levelo://app?vid=23aedf73-ef62-4d29-8662-d09c061e3b39"},"vehicle_type_id":"4","last_reported":1740690533,"current_range_meters":800,"station_id":"","pricing_plan_id":"cebpf4jnsgd1na2vs0mg"},{"bike_id":"659a29d8-f81f-46fe-a8a6-7df63f334666","system_id":"levelo_inurba_marseille","lat":43.29938,"lon":5.39702,"is_reserved":false,"is_disabled":true,"rental_uris":{"android":"levelo://app?vid=659a29d8-f81f-46fe-a8a6-7df63f334666","ios":"levelo://app?vid=659a29d8-f81f-46fe-a8a6-7df63f334666"},"vehicle_type_id":"4","last_reported":1740690533,"current_range_meters":800,"station_id":"","pricing_plan_id":"cebpf4jnsgd1na2vs0mg"},{"bike_id":"6b0f40a7-472a-4b92-8011-39a575963157","system_id":"levelo_inurba_marseille","lat":43.28462,"lon":5.35896,"is_reserved":false,"is_disabled":true,"rental_uris":{"android":"levelo://app?vid=6b0f40a7-472a-4b92-8011-39a575963157","ios":"levelo://app?vid=6b0f40a7-472a-4b92-8011-39a575963157"},"vehicle_type_id":"4","last_reported":1740690533,"current_range_meters":800,"station_id":"ce4bhah2rcd13ifvqei0","pricing_plan_id":"cebpf4jnsgd1na2vs0mg"},{"bike_id":"13a2d3e9-8b93-4966-9b3e-92a29a5a031b","system_id":"levelo_inurba_marseille","lat":43.32272,"lon":5.37463,"is_reserved":false,"is_disabled":true,"rental_uris":{"android":"levelo://app?vid=13a2d3e9-8b93-4966-9b3e-92a29a5a031b","ios":"levelo://app?vid=13a2d3e9-8b93-4966-9b3e-92a29a5a031b"},"vehicle_type_id":"4","last_reported":1740690533,"current_range_meters":1200,"station_id":"","pricing_plan_id":"cebpf4jnsgd1na2vs0mg"},{"bike_id":"6aecb31f-da07-4ed5-9147-fb36735747bd","system_id":"levelo_inurba_marseille","lat":43.29521,"lon":5.39401,"is_reserved":false,"is_disabled":true,"rental_uris":{"android":"levelo://app?vid=6aecb31f-da07-4ed5-9147-fb36735747bd","ios":"levelo://app?vid=6aecb31f-da07-4ed5-9147-fb36735747bd"},"vehicle_type_id":"4","last_reported":1740690533,"current_range_meters":1200,"station_id":"ce4bh292rcd13ifvqdf0","pricing_plan_id":"cebpf4jnsgd1na2vs0mg"},{"bike_id":"c66af1dd-252c-4cb5-8b7b-fa1a9fa84d8a","system_id":"levelo_inurba_marseille","lat":43.29342,"lon":5.37048,"is_reserved":false,"is_disabled":true,"rental_uris":{"android":"levelo://app?vid=c66af1dd-252c-4cb5-8b7b-fa1a9fa84d8a","ios":"levelo://app?vid=c66af1dd-252c-4cb5-8b7b-fa1a9fa84d8a"},"vehicle_type_id":"4","last_reported":1740690533,"current_range_meters":1600,"station_id":"ce4bgi92rcd13ifvqb90","pricing_plan_id":"cebpf4jnsgd1na2vs0mg"},{"bike_id":"6be0a58f-3c9c-42b6-a5c9-d67a139cbe07","system_id":"levelo_inurba_marseille","lat":43.29535,"lon":5.39049,"is_reserved":false,"is_disabled":true,"rental_uris":{"android":"levelo://app?vid=6be0a58f-3c9c-42b6-a5c9-d67a139cbe07","ios":"levelo://app?vid=6be0a58f-3c9c-42b6-a5c9-d67a139cbe07"},"vehicle_type_id":"4","last_reported":1740690533,"current_range_meters":1600,"station_id":"ce4bh3p2rcd13ifvqdp0","pricing_plan_id":"cebpf4jnsgd1na2vs0mg"},{"bike_id":"e9c3b984-ee6e-436a-9047-29dceb39b251","system_id":"levelo_inurba_marseille","lat":43.28585,"lon":5.37368,"is_reserved":false,"is_disabled":true,"rental_uris":{"android":"levelo://app?vid=e9c3b984-ee6e-436a-9047-29dceb39b251","ios":"levelo://app?vid=e9c3b984-ee6e-436a-9047-29dceb39b251"},"vehicle_type_id":"4","last_reported":1740690533,"current_range_meters":1600,"station_id":"ce4bh3p2rcd13ifvqdq0","pricing_plan_id":"cebpf4jnsgd1na2vs0mg"},{"bike_id":"b5368874-e19e-4e33-8e44-b3ac25e43af6","system_id":"levelo_inurba_marseille","lat":43.31314,"lon":5.37082,"is_reserved":false,"is_disabled":true,"rental_uris":{"android":"levelo://app?vid=b5368874-e19e-4e33-8e44-b3ac25e43af6","ios":"levelo://app?vid=b5368874-e19e-4e33-8e44-b3ac25e43af6"},"vehicle_type_id":"4","last_reported":1740690533,"current_range_meters":2000,"station_id":"","pricing_plan_id":"cebpf4jnsgd1na2vs0mg"},{"bike_id":"31c923e0-d0eb-4bf9-81fd-6668b4e895e9","system_id":"levelo_inurba_marseille","lat":43.3084,"lon":5.43561,"is_reserved":false,"is_disabled":true,"rental_uris":{"android":"levelo://app?vid=31c923e0-d0eb-4bf9-81fd-6668b4e895e9","ios":"levelo://app?vid=31c923e0-d0eb-4bf9-81fd-6668b4e895e9"},"vehicle_type_id":"4","last_reported":1740690533,"current_range_meters":2000,"station_id":"ce4bhph2rcd13ifvqheg","pricing_plan_id":"cebpf4jnsgd1na2vs0mg"},{"bike_id":"8d106a55-62e0-4c11-8627-92ac9349a131","system_id":"levelo_inurba_marseille","lat":43.32759,"lon":5.39257,"is_reserved":false,"is_disabled":true,"rental_uris":{"android":"levelo://app?vid=8d106a55-62e0-4c11-8627-92ac9349a131","ios":"levelo://app?vid=8d106a55-62e0-4c11-8627-92ac9349a131"},"vehicle_type_id":"4","last_reported":1740690533,"current_range_meters":2800,"station_id":"","pricing_plan_id":"cebpf4jnsgd1na2vs0mg"},{"bike_id":"540ea51c-7ed7-482d-ad9d-31615f7a305f","system_id":"levelo_inurba_marseille","lat":43.28379,"lon":5.3864,"is_reserved":false,"is_disabled":false,"rental_uris":{"android":"levelo://app?vid=540ea51c-7ed7-482d-ad9d-31615f7a305f","ios":"levelo://app?vid=540ea51c-7ed7-482d-ad9d-31615f7a305f"},"vehicle_type_id":"4","last_reported":1740690533,"current_range_meters":2800,"station_id":"ce4bh492rcd13ifvqdvg","pricing_plan_id":"cebpf4jnsgd1na2vs0mg"},{"bike_id":"a821e09e-1a6f-447a-878e-7332384bcc14","system_id":"levelo_inurba_marseille","lat":43.31724,"lon":5.424,"is_reserved":false,"is_disabled":false,"rental_uris":{"android":"levelo://app?vid=a821e09e-1a6f-447a-878e-7332384bcc14","ios":"levelo://app?vid=a821e09e-1a6f-447a-878e-7332384bcc14"},"vehicle_type_id":"4","last_reported":1740690533,"current_range_meters":2800,"station_id":"ce4bhp92rcd13ifvqhbg","pricing_plan_id":"cebpf4jnsgd1na2vs0mg"},{"bike_id":"73379e7e-4229-4855-b7a3-a9ada8e157e4","system_id":"levelo_inurba_marseille","lat":43.32038,"lon":5.41526,"is_reserved":false,"is_disabled":false,"rental_uris":{"android":"levelo://app?vid=73379e7e-4229-4855-b7a3-a9ada8e157e4","ios":"levelo://app?vid=73379e7e-4229-4855-b7a3-a9ada8e157e4"},"vehicle_type_id":"4","last_reported":1740690533,"current_range_meters":2800,"station_id":"ce4bhq92rcd13ifvqhkg","pricing_plan_id":"cebpf4jnsgd1na2vs0mg"},{"bike_id":"1a38be76-5185-43d4-bb50-e29f5849a81a","system_id":"levelo_inurba_marseille","lat":43.32419,"lon":5.39314,"is_reserved":false,"is_disabled":false,"rental_uris":{"android":"levelo://app?vid=1a38be76-5185-43d4-bb50-e29f5849a81a","ios":"levelo://app?vid=1a38be76-5185-43d4-bb50-e29f5849a81a"},"vehicle_type_id":"4","last_reported":1740690533,"current_range_meters":3200,"station_id":"","pricing_plan_id":"cebpf4jnsgd1na2vs0mg"},{"bike_id":"51fc8545-ce20-43ec-9427-fd18e6245853","system_id":"levelo_inurba_marseille","lat":43.29418,"lon":5.38629,"is_reserved":false,"is_disabled":true,"rental_uris":{"android":"levelo://app?vid=51fc8545-ce20-43ec-9427-fd18e6245853","ios":"levelo://app?vid=51fc8545-ce20-43ec-9427-fd18e6245853"},"vehicle_type_id":"4","last_reported":1740690533,"current_range_meters":3200,"station_id":"ce4bh2h2rcd13ifvqdh0","pricing_plan_id":"cebpf4jnsgd1na2vs0mg"},{"bike_id":"4416c391-dcf2-4089-a35f-ac52d0efce94","system_id":"levelo_inurba_marseille","lat":43.29258,"lon":5.40124,"is_reserved":false,"is_disabled":false,"rental_uris":{"android":"levelo://app?vid=4416c391-dcf2-4089-a35f-ac52d0efce94","ios":"levelo://app?vid=4416c391-dcf2-4089-a35f-ac52d0efce94"},"vehicle_type_id":"4","last_reported":1740690533,"current_range_meters":3200,"station_id":"ce4bh312rcd13ifvqdk0","pricing_plan_id":"cebpf4jnsgd1na2vs0mg"},{"bike_id":"adfe8f67-c7c6-4900-9357-803f549ef7d5","system_id":"levelo_inurba_marseille","lat":43.28616,"lon":5.35119,"is_reserved":false,"is_disabled":false,"rental_uris":{"android":"levelo://app?vid=adfe8f67-c7c6-4900-9357-803f549ef7d5","ios":"levelo://app?vid=adfe8f67-c7c6-4900-9357-803f549ef7d5"},"vehicle_type_id":"4","last_reported":1740690533,"current_range_meters":3200,"station_id":"ce4bhch2rcd13ifvqeug","pricing_plan_id":"cebpf4jnsgd1na2vs0mg"},{"bike_id":"f98a804c-537c-41bb-9782-3da5bcf6e43a","system_id":"levelo_inurba_marseille","lat":43.27952,"lon":5.41039,"is_reserved":false,"is_disabled":false,"rental_uris":{"android":"levelo://app?vid=f98a804c-537c-41bb-9782-3da5bcf6e43a","ios":"levelo://app?vid=f98a804c-537c-41bb-9782-3da5bcf6e43a"},"vehicle_type_id":"4","last_reported":1740690533,"current_range_meters":4000,"station_id":"ce4bhnp2rcd13ifvqh0g","pricing_plan_id":"cebpf4jnsgd1na2vs0mg"},{"bike_id":"d742a271-0d63-49a6-be0c-4133c3dfaf43","system_id":"levelo_inurba_marseille","lat":43.29054,"lon":5.35909,"is_reserved":false,"is_disabled":false,"rental_uris":{"android":"levelo://app?vid=d742a271-0d63-49a6-be0c-4133c3dfaf43","ios":"levelo://app?vid=d742a271-0d63-49a6-be0c-4133c3dfaf43"},"vehicle_type_id":"4","last_reported":1740690533,"current_range_meters":4800,"station_id":"ce4bha92rcd13ifvqeg0","pricing_plan_id":"cebpf4jnsgd1na2vs0mg"},{"bike_id":"ae23d63f-1813-4ce3-9f00-de91edb6a690","system_id":"levelo_inurba_marseille","lat":43.29235,"lon":5.36078,"is_reserved":false,"is_disabled":false,"rental_uris":{"android":"levelo://app?vid=ae23d63f-1813-4ce3-9f00-de91edb6a690","ios":"levelo://app?vid=ae23d63f-1813-4ce3-9f00-de91edb6a690"},"vehicle_type_id":"4","last_reported":1740690533,"current_range_meters":4800,"station_id":"ce4bhbh2rcd13ifvqeqg","pricing_plan_id":"cebpf4jnsgd1na2vs0mg"},{"bike_id":"d7f2aadb-2e3d-42b6-9c20-5b008a0b26c3","system_id":"levelo_inurba_marseille","lat":43.31085,"lon":5.42442,"is_reserved":false,"is_disabled":false,"rental_uris":{"android":"levelo://app?vid=d7f2aadb-2e3d-42b6-9c20-5b008a0b26c3","ios":"levelo://app?vid=d7f2aadb-2e3d-42b6-9c20-5b008a0b26c3"},"vehicle_type_id":"4","last_reported":1740690533,"current_range_meters":4800,"station_id":"ce4bhp92rcd13ifvqhag","pricing_plan_id":"cebpf4jnsgd1na2vs0mg"},{"bike_id":"ff4ccc48-a1a0-4c7a-b72d-6a6c4bcc2ea4","system_id":"levelo_inurba_marseille","lat":43.27578,"lon":5.38408,"is_reserved":false,"is_disabled":false,"rental_uris":{"android":"levelo://app?vid=ff4ccc48-a1a0-4c7a-b72d-6a6c4bcc2ea4","ios":"levelo://app?vid=ff4ccc48-a1a0-4c7a-b72d-6a6c4bcc2ea4"},"vehicle_type_id":"4","last_reported":1740690533,"current_range_meters":5600,"station_id":"ce4bhh92rcd13ifvqfi0","pricing_plan_id":"cebpf4jnsgd1na2vs0mg"},{"bike_id":"98c8e854-6aa4-46d5-bf7a-ff22a811574f","system_id":"levelo_inurba_marseille","lat":43.30604,"lon":5.37216,"is_reserved":false,"is_disabled":false,"rental_uris":{"android":"levelo://app?vid=98c8e854-6aa4-46d5-bf7a-ff22a811574f","ios":"levelo://app?vid=98c8e854-6aa4-46d5-bf7a-ff22a811574f"},"vehicle_type_id":"4","last_reported":1740690533,"current_range_meters":6400,"station_id":"ce4bgqh2rcd13ifvqc4g","pricing_plan_id":"cebpf4jnsgd1na2vs0mg"},{"bike_id":"efcdfe96-8261-42a6-9b17-32376c0bcb93","system_id":"levelo_inurba_marseille","lat":43.23187,"lon":5.39978,"is_reserved":false,"is_disabled":false,"rental_uris":{"android":"levelo://app?vid=efcdfe96-8261-42a6-9b17-32376c0bcb93","ios":"levelo://app?vid=efcdfe96-8261-42a6-9b17-32376c0bcb93"},"vehicle_type_id":"4","last_reported":1740690533,"current_range_meters":6400,"station_id":"ce4bhn12rcd13ifvqgqg","pricing_plan_id":"cebpf4jnsgd1na2vs0mg"},{"bike_id":"3aed6401-30fa-417b-b1f4-fed91c185d13","system_id":"levelo_inurba_marseille","lat":43.27927,"lon":5.41048,"is_reserved":false,"is_disabled":false,"rental_uris":{"android":"levelo://app?vid=3aed6401-30fa-417b-b1f4-fed91c185d13","ios":"levelo://app?vid=3aed6401-30fa-417b-b1f4-fed91c185d13"},"vehicle_type_id":"4","last_reported":1740690533,"current_range_meters":6400,"station_id":"ce4bhnp2rcd13ifvqh0g","pricing_plan_id":"cebpf4jnsgd1na2vs0mg"},{"bike_id":"7b23658c-2cbf-41cf-83e4-30d7454caa38","system_id":"levelo_inurba_marseille","lat":43.30789,"lon":5.37642,"is_reserved":false,"is_disabled":false,"rental_uris":{"android":"levelo://app?vid=7b23658c-2cbf-41cf-83e4-30d7454caa38","ios":"levelo://app?vid=7b23658c-2cbf-41cf-83e4-30d7454caa38"},"vehicle_type_id":"4","last_reported":1740690533,"current_range_meters":6800,"station_id":"ce4bgv92rcd13ifvqcq0","pricing_plan_id":"cebpf4jnsgd1na2vs0mg"},{"bike_id":"4a6ddc89-e245-4e1e-8faf-e82fb5d3096f","system_id":"levelo_inurba_marseille","lat":43.28108,"lon":5.37838,"is_reserved":false,"is_disabled":false,"rental_uris":{"android":"levelo://app?vid=4a6ddc89-e245-4e1e-8faf-e82fb5d3096f","ios":"levelo://app?vid=4a6ddc89-e245-4e1e-8faf-e82fb5d3096f"},"vehicle_type_id":"4","last_reported":1740690533,"current_range_meters":6800,"station_id":"ce4bha12rcd13ifvqee0","pricing_plan_id":"cebpf4jnsgd1na2vs0mg"},{"bike_id":"f0333f81-6f9d-4206-a285-bd6e4b0dbfc4","system_id":"levelo_inurba_marseille","lat":43.3234,"lon":5.38871,"is_reserved":false,"is_disabled":false,"rental_uris":{"android":"levelo://app?vid=f0333f81-6f9d-4206-a285-bd6e4b0dbfc4","ios":"levelo://app?vid=f0333f81-6f9d-4206-a285-bd6e4b0dbfc4"},"vehicle_type_id":"4","last_reported":1740690533,"current_range_meters":6800,"station_id":"ce4bhqp2rcd13ifvqhog","pricing_plan_id":"cebpf4jnsgd1na2vs0mg"},{"bike_id":"5eeea2b0-8f91-4bbd-9c59-5d0ccf73194d","system_id":"levelo_inurba_marseille","lat":43.29868,"lon":5.38413,"is_reserved":false,"is_disabled":false,"rental_uris":{"android":"levelo://app?vid=5eeea2b0-8f91-4bbd-9c59-5d0ccf73194d","ios":"levelo://app?vid=5eeea2b0-8f91-4bbd-9c59-5d0ccf73194d"},"vehicle_type_id":"4","last_reported":1740690533,"current_range_meters":7200,"station_id":"","pricing_plan_id":"cebpf4jnsgd1na2vs0mg"},{"bike_id":"f10f9796-7541-497b-b6e6-805f6c2689ac","system_id":"levelo_inurba_marseille","lat":43.24671,"lon":5.3816,"is_reserved":false,"is_disabled":false,"rental_uris":{"android":"levelo://app?vid=f10f9796-7541-497b-b6e6-805f6c2689ac","ios":"levelo://app?vid=f10f9796-7541-497b-b6e6-805f6c2689ac"},"vehicle_type_id":"4","last_reported":1740690533,"current_range_meters":7200,"station_id":"ce4bhih2rcd13ifvqfr0","pricing_plan_id":"cebpf4jnsgd1na2vs0mg"},{"bike_id":"e3adc843-e96a-459a-aa22-fea1af7ce873","system_id":"levelo_inurba_marseille","lat":43.27948,"lon":5.41041,"is_reserved":false,"is_disabled":false,"rental_uris":{"android":"levelo://app?vid=e3adc843-e96a-459a-aa22-fea1af7ce873","ios":"levelo://app?vid=e3adc843-e96a-459a-aa22-fea1af7ce873"},"vehicle_type_id":"4","last_reported":1740690533,"current_range_meters":7200,"station_id":"ce4bhnp2rcd13ifvqh0g","pricing_plan_id":"cebpf4jnsgd1na2vs0mg"},{"bike_id":"38c79992-9d7b-4253-801d-21731130e0e1","system_id":"levelo_inurba_marseille","lat":43.28093,"lon":5.39639,"is_reserved":false,"is_disabled":false,"rental_uris":{"android":"levelo://app?vid=38c79992-9d7b-4253-801d-21731130e0e1","ios":"levelo://app?vid=38c79992-9d7b-4253-801d-21731130e0e1"},"vehicle_type_id":"4","last_reported":1740690533,"current_range_meters":7200,"station_id":"ce4bho12rcd13ifvqh2g","pricing_plan_id":"cebpf4jnsgd1na2vs0mg"},{"bike_id":"cede3cd9-b287-4e84-a051-2feb15a3c91a","system_id":"levelo_inurba_marseille","lat":43.30418,"lon":5.4129,"is_reserved":false,"is_disabled":false,"rental_uris":{"android":"levelo://app?vid=cede3cd9-b287-4e84-a051-2feb15a3c91a","ios":"levelo://app?vid=cede3cd9-b287-4e84-a051-2feb15a3c91a"},"vehicle_type_id":"4","last_reported":1740690533,"current_range_meters":7200,"station_id":"ce4bhop2rcd13ifvqh8g","pricing_plan_id":"cebpf4jnsgd1na2vs0mg"},{"bike_id":"8dc35b1c-a9eb-4bac-8f95-b01bae8ea8df","system_id":"levelo_inurba_marseille","lat":43.30806,"lon":5.43537,"is_reserved":false,"is_disabled":false,"rental_uris":{"android":"levelo://app?vid=8dc35b1c-a9eb-4bac-8f95-b01bae8ea8df","ios":"levelo://app?vid=8dc35b1c-a9eb-4bac-8f95-b01bae8ea8df"},"vehicle_type_id":"4","last_reported":1740690533,"current_range_meters":7200,"station_id":"ce4bhph2rcd13ifvqheg","pricing_plan_id":"cebpf4jnsgd1na2vs0mg"},{"bike_id":"8b12f042-66ff-4f72-8110-b87f1cf65c0b","system_id":"levelo_inurba_marseille","lat":43.33452,"lon":5.40055,"is_reserved":false,"is_disabled":false,"rental_uris":{"android":"levelo://app?vid=8b12f042-66ff-4f72-8110-b87f1cf65c0b","ios":"levelo://app?vid=8b12f042-66ff-4f72-8110-b87f1cf65c0b"},"vehicle_type_id":"4","last_reported":1740690533,"current_range_meters":8000,"station_id":"","pricing_plan_id":"cebpf4jnsgd1na2vs0mg"},{"bike_id":"ea8cb564-d405-42e3-911c-0afdd772ee76","system_id":"levelo_inurba_marseille","lat":43.32776,"lon":5.39199,"is_reserved":false,"is_disabled":false,"rental_uris":{"android":"levelo://app?vid=ea8cb564-d405-42e3-911c-0afdd772ee76","ios":"levelo://app?vid=ea8cb564-d405-42e3-911c-0afdd772ee76"},"vehicle_type_id":"4","last_reported":1740690533,"current_range_meters":8000,"station_id":"","pricing_plan_id":"cebpf4jnsgd1na2vs0mg"},{"bike_id":"d791a742-4738-47cb-9fe6-27aeeea41532","system_id":"levelo_inurba_marseille","lat":43.30659,"lon":5.40076,"is_reserved":false,"is_disabled":false,"rental_uris":{"android":"levelo://app?vid=d791a742-4738-47cb-9fe6-27aeeea41532","ios":"levelo://app?vid=d791a742-4738-47cb-9fe6-27aeeea41532"},"vehicle_type_id":"4","last_reported":1740690533,"current_range_meters":8000,"station_id":"ce4bh112rcd13ifvqda0","pricing_plan_id":"cebpf4jnsgd1na2vs0mg"},{"bike_id":"a154371d-4027-4800-96e4-21c1edbe81a8","system_id":"levelo_inurba_marseille","lat":43.29164,"lon":5.37166,"is_reserved":false,"is_disabled":false,"rental_uris":{"android":"levelo://app?vid=a154371d-4027-4800-96e4-21c1edbe81a8","ios":"levelo://app?vid=a154371d-4027-4800-96e4-21c1edbe81a8"},"vehicle_type_id":"4","last_reported":1740690533,"current_range_meters":8000,"station_id":"ce4bha92rcd13ifvqeh0","pricing_plan_id":"cebpf4jnsgd1na2vs0mg"},{"bike_id":"55c04aa8-dc1a-4fec-96ce-83d98d42f5cd","system_id":"levelo_inurba_marseille","lat":43.27965,"lon":5.38748,"is_reserved":false,"is_disabled":false,"rental_uris":{"android":"levelo://app?vid=55c04aa8-dc1a-4fec-96ce-83d98d42f5cd","ios":"levelo://app?vid=55c04aa8-dc1a-4fec-96ce-83d98d42f5cd"},"vehicle_type_id":"4","last_reported":1740690533,"current_range_meters":8000,"station_id":"ce4bhg12rcd13ifvqf80","pricing_plan_id":"cebpf4jnsgd1na2vs0mg"},{"bike_id":"1617b8e8-97ea-412a-8cce-6e995751ad2d","system_id":"levelo_inurba_marseille","lat":43.26069,"lon":5.39365,"is_reserved":false,"is_disabled":false,"rental_uris":{"android":"levelo://app?vid=1617b8e8-97ea-412a-8cce-6e995751ad2d","ios":"levelo://app?vid=1617b8e8-97ea-412a-8cce-6e995751ad2d"},"vehicle_type_id":"4","last_reported":1740690533,"current_range_meters":8000,"station_id":"ce4bhh92rcd13ifvqfj0","pricing_plan_id":"cebpf4jnsgd1na2vs0mg"},{"bike_id":"9647918c-d815-4482-8c45-927333bd2450","system_id":"levelo_inurba_marseille","lat":43.27838,"lon":5.40758,"is_reserved":false,"is_disabled":false,"rental_uris":{"android":"levelo://app?vid=9647918c-d815-4482-8c45-927333bd2450","ios":"levelo://app?vid=9647918c-d815-4482-8c45-927333bd2450"},"vehicle_type_id":"4","last_reported":1740690533,"current_range_meters":8000,"station_id":"ce4bhnh2rcd13ifvqgtg","pricing_plan_id":"cebpf4jnsgd1na2vs0mg"},{"bike_id":"8ba31a41-541a-4339-863e-1d27a2399440","system_id":"levelo_inurba_marseille","lat":43.2872,"lon":5.36085,"is_reserved":false,"is_disabled":false,"rental_uris":{"android":"levelo://app?vid=8ba31a41-541a-4339-863e-1d27a2399440","ios":"levelo://app?vid=8ba31a41-541a-4339-863e-1d27a2399440"},"vehicle_type_id":"4","last_reported":1740690533,"current_range_meters":8000,"station_id":"cki0cbj6b192h4jlfktg","pricing_plan_id":"cebpf4jnsgd1na2vs0mg"},{"bike_id":"497873c2-fd5a-4f0c-8231-60c907ce6257","system_id":"levelo_inurba_marseille","lat":43.30296,"lon":5.39193,"is_reserved":false,"is_disabled":false,"rental_uris":{"android":"levelo://app?vid=497873c2-fd5a-4f0c-8231-60c907ce6257","ios":"levelo://app?vid=497873c2-fd5a-4f0c-8231-60c907ce6257"},"vehicle_type_id":"4","last_reported":1740690533,"current_range_meters":8400,"station_id":"ce4bgkh2rcd13ifvqbk0","pricing_plan_id":"cebpf4jnsgd1na2vs0mg"},{"bike_id":"8c9a3ee7-664d-49c8-a3ea-02dab608b060","system_id":"levelo_inurba_marseille","lat":43.31712,"lon":5.37695,"is_reserved":false,"is_disabled":false,"rental_uris":{"android":"levelo://app?vid=8c9a3ee7-664d-49c8-a3ea-02dab608b060","ios":"levelo://app?vid=8c9a3ee7-664d-49c8-a3ea-02dab608b060"},"vehicle_type_id":"4","last_reported":1740690533,"current_range_meters":8400,"station_id":"ce4bgth2rcd13ifvqch0","pricing_plan_id":"cebpf4jnsgd1na2vs0mg"},{"bike_id":"5533b775-24b4-46d9-a54c-eec8e2b80f61","system_id":"levelo_inurba_marseille","lat":43.30434,"lon":5.39758,"is_reserved":false,"is_disabled":false,"rental_uris":{"android":"levelo://app?vid=5533b775-24b4-46d9-a54c-eec8e2b80f61","ios":"levelo://app?vid=5533b775-24b4-46d9-a54c-eec8e2b80f61"},"vehicle_type_id":"4","last_reported":1740690533,"current_range_meters":8400,"station_id":"ce4bh092rcd13ifvqd20","pricing_plan_id":"cebpf4jnsgd1na2vs0mg"},{"bike_id":"18e38d1d-a58c-4075-8bbd-f0f6c543d878","system_id":"levelo_inurba_marseille","lat":43.29884,"lon":5.38908,"is_reserved":false,"is_disabled":false,"rental_uris":{"android":"levelo://app?vid=18e38d1d-a58c-4075-8bbd-f0f6c543d878","ios":"levelo://app?vid=18e38d1d-a58c-4075-8bbd-f0f6c543d878"},"vehicle_type_id":"4","last_reported":1740690533,"current_range_meters":8400,"station_id":"ce4bh392rcd13ifvqdl0","pricing_plan_id":"cebpf4jnsgd1na2vs0mg"},{"bike_id":"63adbc39-5fd0-46b7-b919-bd215b41e38e","system_id":"levelo_inurba_marseille","lat":43.28736,"lon":5.37934,"is_reserved":false,"is_disabled":false,"rental_uris":{"android":"levelo://app?vid=63adbc39-5fd0-46b7-b919-bd215b41e38e","ios":"levelo://app?vid=63adbc39-5fd0-46b7-b919-bd215b41e38e"},"vehicle_type_id":"4","last_reported":1740690533,"current_range_meters":8400,"station_id":"ce4bh9p2rcd13ifvqec0","pricing_plan_id":"cebpf4jnsgd1na2vs0mg"},{"bike_id":"d9fbfe98-de68-48fc-a6ac-6e6eaeb5062a","system_id":"levelo_inurba_marseille","lat":43.24817,"lon":5.37461,"is_reserved":false,"is_disabled":false,"rental_uris":{"android":"levelo://app?vid=d9fbfe98-de68-48fc-a6ac-6e6eaeb5062a","ios":"levelo://app?vid=d9fbfe98-de68-48fc-a6ac-6e6eaeb5062a"},"vehicle_type_id":"4","last_reported":1740690533,"current_range_meters":8400,"station_id":"ce4bhgh2rcd13ifvqfb0","pricing_plan_id":"cebpf4jnsgd1na2vs0mg"},{"bike_id":"630fd11f-6f7f-4c85-8f66-c1532752654d","system_id":"levelo_inurba_marseille","lat":43.243538,"lon":5.370748,"is_reserved":false,"is_disabled":false,"rental_uris":{"android":"levelo://app?vid=630fd11f-6f7f-4c85-8f66-c1532752654d","ios":"levelo://app?vid=630fd11f-6f7f-4c85-8f66-c1532752654d"},"vehicle_type_id":"4","last_reported":1740690533,"current_range_meters":8400,"station_id":"ce4bhhh2rcd13ifvqfk0","pricing_plan_id":"cebpf4jnsgd1na2vs0mg"},{"bike_id":"745c5d38-332d-426b-8e7b-acb525d1c540","system_id":"levelo_inurba_marseille","lat":43.250888,"lon":5.39527,"is_reserved":false,"is_disabled":false,"rental_uris":{"android":"levelo://app?vid=745c5d38-332d-426b-8e7b-acb525d1c540","ios":"levelo://app?vid=745c5d38-332d-426b-8e7b-acb525d1c540"},"vehicle_type_id":"4","last_reported":1740690533,"current_range_meters":8400,"station_id":"ce4bhm12rcd13ifvqgkg","pricing_plan_id":"cebpf4jnsgd1na2vs0mg"},{"bike_id":"3505ff5f-dc8f-4404-9f0d-dcbce1b96661","system_id":"levelo_inurba_marseille","lat":43.28443,"lon":5.39216,"is_reserved":false,"is_disabled":false,"rental_uris":{"android":"levelo://app?vid=3505ff5f-dc8f-4404-9f0d-dcbce1b96661","ios":"levelo://app?vid=3505ff5f-dc8f-4404-9f0d-dcbce1b96661"},"vehicle_type_id":"4","last_reported":1740690533,"current_range_meters":8400,"station_id":"ce4bhoh2rcd13ifvqh5g","pricing_plan_id":"cebpf4jnsgd1na2vs0mg"},{"bike_id":"afd98e29-9e65-49b1-96e9-da6c0e62de76","system_id":"levelo_inurba_marseille","lat":43.29282,"lon":5.38246,"is_reserved":false,"is_disabled":false,"rental_uris":{"android":"levelo://app?vid=afd98e29-9e65-49b1-96e9-da6c0e62de76","ios":"levelo://app?vid=afd98e29-9e65-49b1-96e9-da6c0e62de76"},"vehicle_type_id":"4","last_reported":1740690533,"current_range_meters":8800,"station_id":"","pricing_plan_id":"cebpf4jnsgd1na2vs0mg"},{"bike_id":"99c01fc3-ba4a-4568-a4b0-8eb17b27c8cf","system_id":"levelo_inurba_marseille","lat":43.29261,"lon":5.37565,"is_reserved":false,"is_disabled":false,"rental_uris":{"android":"levelo://app?vid=99c01fc3-ba4a-4568-a4b0-8eb17b27c8cf","ios":"levelo://app?vid=99c01fc3-ba4a-4568-a4b0-8eb17b27c8cf"},"vehicle_type_id":"4","last_reported":1740690533,"current_range_meters":8800,"station_id":"","pricing_plan_id":"cebpf4jnsgd1na2vs0mg"},{"bike_id":"c997b30a-bd84-4943-809c-ccf6d5b32c4f","system_id":"levelo_inurba_marseille","lat":43.2758,"lon":5.36049,"is_reserved":false,"is_disabled":false,"rental_uris":{"android":"levelo://app?vid=c997b30a-bd84-4943-809c-ccf6d5b32c4f","ios":"levelo://app?vid=c997b30a-bd84-4943-809c-ccf6d5b32c4f"},"vehicle_type_id":"4","last_reported":1740690533,"current_range_meters":8800,"station_id":"","pricing_plan_id":"cebpf4jnsgd1na2vs0mg"},{"bike_id":"91f909e9-358e-43ed-a45f-822af931a978","system_id":"levelo_inurba_marseille","lat":43.23221,"lon":5.40367,"is_reserved":false,"is_disabled":false,"rental_uris":{"android":"levelo://app?vid=91f909e9-358e-43ed-a45f-822af931a978","ios":"levelo://app?vid=91f909e9-358e-43ed-a45f-822af931a978"},"vehicle_type_id":"4","last_reported":1740690533,"current_range_meters":8800,"station_id":"","pricing_plan_id":"cebpf4jnsgd1na2vs0mg"},{"bike_id":"272efc7d-3f8b-435c-a06e-c8bd069b8f82","system_id":"levelo_inurba_marseille","lat":43.27631,"lon":5.36112,"is_reserved":false,"is_disabled":false,"rental_uris":{"android":"levelo://app?vid=272efc7d-3f8b-435c-a06e-c8bd069b8f82","ios":"levelo://app?vid=272efc7d-3f8b-435c-a06e-c8bd069b8f82"},"vehicle_type_id":"4","last_reported":1740690533,"current_range_meters":8800,"station_id":"ce4bgj92rcd13ifvqbe0","pricing_plan_id":"cebpf4jnsgd1na2vs0mg"},{"bike_id":"7d247310-8ec8-4ba9-a99e-12b668bdbed9","system_id":"levelo_inurba_marseille","lat":43.29904,"lon":5.36533,"is_reserved":false,"is_disabled":false,"rental_uris":{"android":"levelo://app?vid=7d247310-8ec8-4ba9-a99e-12b668bdbed9","ios":"levelo://app?vid=7d247310-8ec8-4ba9-a99e-12b668bdbed9"},"vehicle_type_id":"4","last_reported":1740690533,"current_range_meters":8800,"station_id":"ce4bgjh2rcd13ifvqbf0","pricing_plan_id":"cebpf4jnsgd1na2vs0mg"},{"bike_id":"8c666fd4-f386-4ea5-9d00-f90a3a7f8d51","system_id":"levelo_inurba_marseille","lat":43.28452,"lon":5.3589,"is_reserved":false,"is_disabled":false,"rental_uris":{"android":"levelo://app?vid=8c666fd4-f386-4ea5-9d00-f90a3a7f8d51","ios":"levelo://app?vid=8c666fd4-f386-4ea5-9d00-f90a3a7f8d51"},"vehicle_type_id":"4","last_reported":1740690533,"current_range_meters":8800,"station_id":"ce4bhah2rcd13ifvqei0","pricing_plan_id":"cebpf4jnsgd1na2vs0mg"},{"bike_id":"ab41809d-0839-4146-9c11-f9e1d5038ec6","system_id":"levelo_inurba_marseille","lat":43.25586,"lon":5.38237,"is_reserved":false,"is_disabled":false,"rental_uris":{"android":"levelo://app?vid=ab41809d-0839-4146-9c11-f9e1d5038ec6","ios":"levelo://app?vid=ab41809d-0839-4146-9c11-f9e1d5038ec6"},"vehicle_type_id":"4","last_reported":1740690533,"current_range_meters":8800,"station_id":"ce4bhih2rcd13ifvqfs0","pricing_plan_id":"cebpf4jnsgd1na2vs0mg"},{"bike_id":"8c48f52a-a87f-4b10-9bad-48a387153477","system_id":"levelo_inurba_marseille","lat":43.32363,"lon":5.38882,"is_reserved":false,"is_disabled":false,"rental_uris":{"android":"levelo://app?vid=8c48f52a-a87f-4b10-9bad-48a387153477","ios":"levelo://app?vid=8c48f52a-a87f-4b10-9bad-48a387153477"},"vehicle_type_id":"4","last_reported":1740690533,"current_range_meters":8800,"station_id":"ce4bhqp2rcd13ifvqhog","pricing_plan_id":"cebpf4jnsgd1na2vs0mg"},{"bike_id":"3f0907b3-da2b-41a5-8662-a0489e1a0f25","system_id":"levelo_inurba_marseille","lat":43.32122,"lon":5.36768,"is_reserved":false,"is_disabled":false,"rental_uris":{"android":"levelo://app?vid=3f0907b3-da2b-41a5-8662-a0489e1a0f25","ios":"levelo://app?vid=3f0907b3-da2b-41a5-8662-a0489e1a0f25"},"vehicle_type_id":"4","last_reported":1740690533,"current_range_meters":8800,"station_id":"ce4bhrh2rcd13ifvqhug","pricing_plan_id":"cebpf4jnsgd1na2vs0mg"},{"bike_id":"e4127e72-139a-478c-bc8d-43f39e537533","system_id":"levelo_inurba_marseille","lat":43.29737,"lon":5.36637,"is_reserved":false,"is_disabled":false,"rental_uris":{"android":"levelo://app?vid=e4127e72-139a-478c-bc8d-43f39e537533","ios":"levelo://app?vid=e4127e72-139a-478c-bc8d-43f39e537533"},"vehicle_type_id":"4","last_reported":1740690533,"current_range_meters":9200,"station_id":"ce4bgn12rcd13ifvqbt0","pricing_plan_id":"cebpf4jnsgd1na2vs0mg"},{"bike_id":"cbc022d7-c540-4a75-bd51-64e4459a593b","system_id":"levelo_inurba_marseille","lat":43.28574,"lon":5.39496,"is_reserved":false,"is_disabled":false,"rental_uris":{"android":"levelo://app?vid=cbc022d7-c540-4a75-bd51-64e4459a593b","ios":"levelo://app?vid=cbc022d7-c540-4a75-bd51-64e4459a593b"},"vehicle_type_id":"4","last_reported":1740690533,"current_range_meters":9200,"station_id":"ce4bh292rcd13ifvqdg0","pricing_plan_id":"cebpf4jnsgd1na2vs0mg"},{"bike_id":"5e0e22b0-e973-48d0-8bed-a771273f721a","system_id":"levelo_inurba_marseille","lat":43.2738,"lon":5.36253,"is_reserved":false,"is_disabled":false,"rental_uris":{"android":"levelo://app?vid=5e0e22b0-e973-48d0-8bed-a771273f721a","ios":"levelo://app?vid=5e0e22b0-e973-48d0-8bed-a771273f721a"},"vehicle_type_id":"4","last_reported":1740690533,"current_range_meters":9200,"station_id":"ce4bhbh2rcd13ifvqeo0","pricing_plan_id":"cebpf4jnsgd1na2vs0mg"},{"bike_id":"c6b23046-3dbb-4c24-b439-362e9ad2c23a","system_id":"levelo_inurba_marseille","lat":43.25016,"lon":5.3892,"is_reserved":false,"is_disabled":false,"rental_uris":{"android":"levelo://app?vid=c6b23046-3dbb-4c24-b439-362e9ad2c23a","ios":"levelo://app?vid=c6b23046-3dbb-4c24-b439-362e9ad2c23a"},"vehicle_type_id":"4","last_reported":1740690533,"current_range_meters":9200,"station_id":"ce4bhgp2rcd13ifvqfd0","pricing_plan_id":"cebpf4jnsgd1na2vs0mg"},{"bike_id":"74d4a88d-ad3a-4128-a926-23a749e3d79b","system_id":"levelo_inurba_marseille","lat":43.23189,"lon":5.35564,"is_reserved":false,"is_disabled":false,"rental_uris":{"android":"levelo://app?vid=74d4a88d-ad3a-4128-a926-23a749e3d79b","ios":"levelo://app?vid=74d4a88d-ad3a-4128-a926-23a749e3d79b"},"vehicle_type_id":"4","last_reported":1740690533,"current_range_meters":9200,"station_id":"ce4bhu92rcd13ifvqi70","pricing_plan_id":"cebpf4jnsgd1na2vs0mg"},{"bike_id":"63169410-627e-4274-8002-bfb97a41c985","system_id":"levelo_inurba_marseille","lat":43.29306,"lon":5.37161,"is_reserved":false,"is_disabled":false,"rental_uris":{"android":"levelo://app?vid=63169410-627e-4274-8002-bfb97a41c985","ios":"levelo://app?vid=63169410-627e-4274-8002-bfb97a41c985"},"vehicle_type_id":"4","last_reported":1740690533,"current_range_meters":9600,"station_id":"ce4bgh92rcd13ifvqb40","pricing_plan_id":"cebpf4jnsgd1na2vs0mg"},{"bike_id":"d71e31f7-a32e-43d8-84e0-b56d91680f06","system_id":"levelo_inurba_marseille","lat":43.30326,"lon":5.40442,"is_reserved":false,"is_disabled":false,"rental_uris":{"android":"levelo://app?vid=d71e31f7-a32e-43d8-84e0-b56d91680f06","ios":"levelo://app?vid=d71e31f7-a32e-43d8-84e0-b56d91680f06"},"vehicle_type_id":"4","last_reported":1740690533,"current_range_meters":9600,"station_id":"ce4bh012rcd13ifvqd10","pricing_plan_id":"cebpf4jnsgd1na2vs0mg"},{"bike_id":"325735dc-12f6-48c8-9a05-d378991cdb6c","system_id":"levelo_inurba_marseille","lat":43.29263,"lon":5.38435,"is_reserved":false,"is_disabled":false,"rental_uris":{"android":"levelo://app?vid=325735dc-12f6-48c8-9a05-d378991cdb6c","ios":"levelo://app?vid=325735dc-12f6-48c8-9a05-d378991cdb6c"},"vehicle_type_id":"4","last_reported":1740690533,"current_range_meters":9600,"station_id":"ce4bh692rcd13ifvqea0","pricing_plan_id":"cebpf4jnsgd1na2vs0mg"},{"bike_id":"54d46a8b-8314-471a-98f9-6d86686fc605","system_id":"levelo_inurba_marseille","lat":43.25825,"lon":5.39445,"is_reserved":false,"is_disabled":false,"rental_uris":{"android":"levelo://app?vid=54d46a8b-8314-471a-98f9-6d86686fc605","ios":"levelo://app?vid=54d46a8b-8314-471a-98f9-6d86686fc605"},"vehicle_type_id":"4","last_reported":1740690533,"current_range_meters":9600,"station_id":"ce4bhip2rcd13ifvqft0","pricing_plan_id":"cebpf4jnsgd1na2vs0mg"},{"bike_id":"0684c9b8-68d1-4121-82b2-00c0eebe64db","system_id":"levelo_inurba_marseille","lat":43.27977,"lon":5.41042,"is_reserved":false,"is_disabled":false,"rental_uris":{"android":"levelo://app?vid=0684c9b8-68d1-4121-82b2-00c0eebe64db","ios":"levelo://app?vid=0684c9b8-68d1-4121-82b2-00c0eebe64db"},"vehicle_type_id":"4","last_reported":1740690533,"current_range_meters":9600,"station_id":"ce4bhnp2rcd13ifvqh0g","pricing_plan_id":"cebpf4jnsgd1na2vs0mg"},{"bike_id":"1181ce1e-a248-40b0-9ad6-bb150270a904","system_id":"levelo_inurba_marseille","lat":43.318726,"lon":5.376276,"is_reserved":false,"is_disabled":false,"rental_uris":{"android":"levelo://app?vid=1181ce1e-a248-40b0-9ad6-bb150270a904","ios":"levelo://app?vid=1181ce1e-a248-40b0-9ad6-bb150270a904"},"vehicle_type_id":"4","last_reported":1740690533,"current_range_meters":10000,"station_id":"","pricing_plan_id":"cebpf4jnsgd1na2vs0mg"},{"bike_id":"156d43f7-93cf-4af6-9cfe-5571ff46365a","system_id":"levelo_inurba_marseille","lat":43.30772,"lon":5.42802,"is_reserved":false,"is_disabled":true,"rental_uris":{"android":"levelo://app?vid=156d43f7-93cf-4af6-9cfe-5571ff46365a","ios":"levelo://app?vid=156d43f7-93cf-4af6-9cfe-5571ff46365a"},"vehicle_type_id":"4","last_reported":1740690533,"current_range_meters":10000,"station_id":"","pricing_plan_id":"cebpf4jnsgd1na2vs0mg"},{"bike_id":"64175391-b2b7-47fe-acad-61b673c70e74","system_id":"levelo_inurba_marseille","lat":43.29307,"lon":5.37453,"is_reserved":false,"is_disabled":false,"rental_uris":{"android":"levelo://app?vid=64175391-b2b7-47fe-acad-61b673c70e74","ios":"levelo://app?vid=64175391-b2b7-47fe-acad-61b673c70e74"},"vehicle_type_id":"4","last_reported":1740690533,"current_range_meters":10000,"station_id":"ce4bgi12rcd13ifvqb70","pricing_plan_id":"cebpf4jnsgd1na2vs0mg"},{"bike_id":"90fb112c-63f0-44c0-99c9-fb7e58900147","system_id":"levelo_inurba_marseille","lat":43.30797,"lon":5.38157,"is_reserved":false,"is_disabled":false,"rental_uris":{"android":"levelo://app?vid=90fb112c-63f0-44c0-99c9-fb7e58900147","ios":"levelo://app?vid=90fb112c-63f0-44c0-99c9-fb7e58900147"},"vehicle_type_id":"4","last_reported":1740690533,"current_range_meters":10000,"station_id":"ce4bgt12rcd13ifvqce0","pricing_plan_id":"cebpf4jnsgd1na2vs0mg"},{"bike_id":"17209f80-451e-4586-b620-381cc150687e","system_id":"levelo_inurba_marseille","lat":43.298713,"lon":5.388984,"is_reserved":false,"is_disabled":false,"rental_uris":{"android":"levelo://app?vid=17209f80-451e-4586-b620-381cc150687e","ios":"levelo://app?vid=17209f80-451e-4586-b620-381cc150687e"},"vehicle_type_id":"4","last_reported":1740690533,"current_range_meters":10000,"station_id":"ce4bh392rcd13ifvqdl0","pricing_plan_id":"cebpf4jnsgd1na2vs0mg"},{"bike_id":"09189191-0290-4085-bd78-6dc2e166cac0","system_id":"levelo_inurba_marseille","lat":43.28943,"lon":5.36636,"is_reserved":false,"is_disabled":false,"rental_uris":{"android":"levelo://app?vid=09189191-0290-4085-bd78-6dc2e166cac0","ios":"levelo://app?vid=09189191-0290-4085-bd78-6dc2e166cac0"},"vehicle_type_id":"4","last_reported":1740690533,"current_range_meters":10000,"station_id":"ce4bhap2rcd13ifvqek0","pricing_plan_id":"cebpf4jnsgd1na2vs0mg"},{"bike_id":"d8994050-39f7-4aaa-af77-5e87c12121df","system_id":"levelo_inurba_marseille","lat":43.28997,"lon":5.35611,"is_reserved":false,"is_disabled":false,"rental_uris":{"android":"levelo://app?vid=d8994050-39f7-4aaa-af77-5e87c12121df","ios":"levelo://app?vid=d8994050-39f7-4aaa-af77-5e87c12121df"},"vehicle_type_id":"4","last_reported":1740690533,"current_range_meters":10000,"station_id":"ce4bhb92rcd13ifvqen0","pricing_plan_id":"cebpf4jnsgd1na2vs0mg"},{"bike_id":"9c16f73b-d883-4318-9d54-d8eb1fe44c91","system_id":"levelo_inurba_marseille","lat":43.27803,"lon":5.40734,"is_reserved":false,"is_disabled":false,"rental_uris":{"android":"levelo://app?vid=9c16f73b-d883-4318-9d54-d8eb1fe44c91","ios":"levelo://app?vid=9c16f73b-d883-4318-9d54-d8eb1fe44c91"},"vehicle_type_id":"4","last_reported":1740690533,"current_range_meters":10000,"station_id":"ce4bhnh2rcd13ifvqgtg","pricing_plan_id":"cebpf4jnsgd1na2vs0mg"},{"bike_id":"2d7d4d42-7ecd-49cd-a62f-3f204f180034","system_id":"levelo_inurba_marseille","lat":43.29315,"lon":5.37206,"is_reserved":false,"is_disabled":false,"rental_uris":{"android":"levelo://app?vid=2d7d4d42-7ecd-49cd-a62f-3f204f180034","ios":"levelo://app?vid=2d7d4d42-7ecd-49cd-a62f-3f204f180034"},"vehicle_type_id":"4","last_reported":1740690533,"current_range_meters":10800,"station_id":"ce4bgh92rcd13ifvqb40","pricing_plan_id":"cebpf4jnsgd1na2vs0mg"},{"bike_id":"d1ae0e91-81cf-415b-a952-b8fb420cebd2","system_id":"levelo_inurba_marseille","lat":43.31343,"lon":5.39686,"is_reserved":false,"is_disabled":false,"rental_uris":{"android":"levelo://app?vid=d1ae0e91-81cf-415b-a952-b8fb420cebd2","ios":"levelo://app?vid=d1ae0e91-81cf-415b-a952-b8fb420cebd2"},"vehicle_type_id":"4","last_reported":1740690533,"current_range_meters":10800,"station_id":"ce4bgvp2rcd13ifvqcu0","pricing_plan_id":"cebpf4jnsgd1na2vs0mg"},{"bike_id":"eea25fa1-2db0-4cb4-901f-2535ea4c664c","system_id":"levelo_inurba_marseille","lat":43.30322,"lon":5.40436,"is_reserved":false,"is_disabled":false,"rental_uris":{"android":"levelo://app?vid=eea25fa1-2db0-4cb4-901f-2535ea4c664c","ios":"levelo://app?vid=eea25fa1-2db0-4cb4-901f-2535ea4c664c"},"vehicle_type_id":"4","last_reported":1740690533,"current_range_meters":10800,"station_id":"ce4bh012rcd13ifvqd10","pricing_plan_id":"cebpf4jnsgd1na2vs0mg"},{"bike_id":"177a6597-5f20-4398-8f94-eb617b863bb1","system_id":"levelo_inurba_marseille","lat":43.29521,"lon":5.39408,"is_reserved":false,"is_disabled":false,"rental_uris":{"android":"levelo://app?vid=177a6597-5f20-4398-8f94-eb617b863bb1","ios":"levelo://app?vid=177a6597-5f20-4398-8f94-eb617b863bb1"},"vehicle_type_id":"4","last_reported":1740690533,"current_range_meters":10800,"station_id":"ce4bh292rcd13ifvqdf0","pricing_plan_id":"cebpf4jnsgd1na2vs0mg"},{"bike_id":"041a0406-b6e3-4ac0-869d-66ff0912b33d","system_id":"levelo_inurba_marseille","lat":43.29512,"lon":5.39052,"is_reserved":false,"is_disabled":false,"rental_uris":{"android":"levelo://app?vid=041a0406-b6e3-4ac0-869d-66ff0912b33d","ios":"levelo://app?vid=041a0406-b6e3-4ac0-869d-66ff0912b33d"},"vehicle_type_id":"4","last_reported":1740690533,"current_range_meters":10800,"station_id":"ce4bh3p2rcd13ifvqdp0","pricing_plan_id":"cebpf4jnsgd1na2vs0mg"},{"bike_id":"8503da11-4bc5-4afb-a848-1b8b1b8085c0","system_id":"levelo_inurba_marseille","lat":43.2841,"lon":5.37518,"is_reserved":false,"is_disabled":false,"rental_uris":{"android":"levelo://app?vid=8503da11-4bc5-4afb-a848-1b8b1b8085c0","ios":"levelo://app?vid=8503da11-4bc5-4afb-a848-1b8b1b8085c0"},"vehicle_type_id":"4","last_reported":1740690533,"current_range_meters":10800,"station_id":"ce4bh412rcd13ifvqds0","pricing_plan_id":"cebpf4jnsgd1na2vs0mg"},{"bike_id":"00726e8e-454c-472c-a9cc-43e220543290","system_id":"levelo_inurba_marseille","lat":43.29038,"lon":5.38646,"is_reserved":false,"is_disabled":false,"rental_uris":{"android":"levelo://app?vid=00726e8e-454c-472c-a9cc-43e220543290","ios":"levelo://app?vid=00726e8e-454c-472c-a9cc-43e220543290"},"vehicle_type_id":"4","last_reported":1740690533,"current_range_meters":10800,"station_id":"ce4bh4p2rcd13ifvqe0g","pricing_plan_id":"cebpf4jnsgd1na2vs0mg"},{"bike_id":"2f218cd9-6dc2-4509-acc5-b6e8dd4cef8b","system_id":"levelo_inurba_marseille","lat":43.28451,"lon":5.35875,"is_reserved":false,"is_disabled":false,"rental_uris":{"android":"levelo://app?vid=2f218cd9-6dc2-4509-acc5-b6e8dd4cef8b","ios":"levelo://app?vid=2f218cd9-6dc2-4509-acc5-b6e8dd4cef8b"},"vehicle_type_id":"4","last_reported":1740690533,"current_range_meters":10800,"station_id":"ce4bhah2rcd13ifvqei0","pricing_plan_id":"cebpf4jnsgd1na2vs0mg"},{"bike_id":"a566d505-b045-4a65-ba7a-d918659d6e2a","system_id":"levelo_inurba_marseille","lat":43.28663,"lon":5.36353,"is_reserved":false,"is_disabled":false,"rental_uris":{"android":"levelo://app?vid=a566d505-b045-4a65-ba7a-d918659d6e2a","ios":"levelo://app?vid=a566d505-b045-4a65-ba7a-d918659d6e2a"},"vehicle_type_id":"4","last_reported":1740690533,"current_range_meters":10800,"station_id":"ce4bhah2rcd13ifvqej0","pricing_plan_id":"cebpf4jnsgd1na2vs0mg"},{"bike_id":"5cdf1157-258e-4dbe-9eac-97f9742be378","system_id":"levelo_inurba_marseille","lat":43.27383,"lon":5.36249,"is_reserved":false,"is_disabled":false,"rental_uris":{"android":"levelo://app?vid=5cdf1157-258e-4dbe-9eac-97f9742be378","ios":"levelo://app?vid=5cdf1157-258e-4dbe-9eac-97f9742be378"},"vehicle_type_id":"4","last_reported":1740690533,"current_range_meters":10800,"station_id":"ce4bhbh2rcd13ifvqeo0","pricing_plan_id":"cebpf4jnsgd1na2vs0mg"},{"bike_id":"907b990b-0a8a-4924-acec-37622f347ce1","system_id":"levelo_inurba_marseille","lat":43.2864,"lon":5.35115,"is_reserved":false,"is_disabled":false,"rental_uris":{"android":"levelo://app?vid=907b990b-0a8a-4924-acec-37622f347ce1","ios":"levelo://app?vid=907b990b-0a8a-4924-acec-37622f347ce1"},"vehicle_type_id":"4","last_reported":1740690533,"current_range_meters":10800,"station_id":"ce4bhch2rcd13ifvqeug","pricing_plan_id":"cebpf4jnsgd1na2vs0mg"},{"bike_id":"f1a78d36-3238-49ba-9adf-3cca1cbcf4be","system_id":"levelo_inurba_marseille","lat":43.25006,"lon":5.38931,"is_reserved":false,"is_disabled":false,"rental_uris":{"android":"levelo://app?vid=f1a78d36-3238-49ba-9adf-3cca1cbcf4be","ios":"levelo://app?vid=f1a78d36-3238-49ba-9adf-3cca1cbcf4be"},"vehicle_type_id":"4","last_reported":1740690533,"current_range_meters":10800,"station_id":"ce4bhgp2rcd13ifvqfd0","pricing_plan_id":"cebpf4jnsgd1na2vs0mg"},{"bike_id":"ab3ae644-bc74-4779-9d00-afaab1721981","system_id":"levelo_inurba_marseille","lat":43.26216,"lon":5.37914,"is_reserved":false,"is_disabled":false,"rental_uris":{"android":"levelo://app?vid=ab3ae644-bc74-4779-9d00-afaab1721981","ios":"levelo://app?vid=ab3ae644-bc74-4779-9d00-afaab1721981"},"vehicle_type_id":"4","last_reported":1740690533,"current_range_meters":10800,"station_id":"ce4bhjp2rcd13ifvqg90","pricing_plan_id":"cebpf4jnsgd1na2vs0mg"},{"bike_id":"fac65774-dadd-4c56-a405-fae0993686a7","system_id":"levelo_inurba_marseille","lat":43.2979,"lon":5.39353,"is_reserved":false,"is_disabled":false,"rental_uris":{"android":"levelo://app?vid=fac65774-dadd-4c56-a405-fae0993686a7","ios":"levelo://app?vid=fac65774-dadd-4c56-a405-fae0993686a7"},"vehicle_type_id":"4","last_reported":1740690533,"current_range_meters":10800,"station_id":"chh1huq6cuj3fo74tm60","pricing_plan_id":"cebpf4jnsgd1na2vs0mg"},{"bike_id":"026e178e-412a-49e0-9772-e5f6d0abaab4","system_id":"levelo_inurba_marseille","lat":43.30855,"lon":5.37093,"is_reserved":false,"is_disabled":false,"rental_uris":{"android":"levelo://app?vid=026e178e-412a-49e0-9772-e5f6d0abaab4","ios":"levelo://app?vid=026e178e-412a-49e0-9772-e5f6d0abaab4"},"vehicle_type_id":"4","last_reported":1740690533,"current_range_meters":11200,"station_id":"","pricing_plan_id":"cebpf4jnsgd1na2vs0mg"},{"bike_id":"d0571995-2e4f-4882-91c5-3cfb73162c39","system_id":"levelo_inurba_marseille","lat":43.29708,"lon":5.36619,"is_reserved":false,"is_disabled":false,"rental_uris":{"android":"levelo://app?vid=d0571995-2e4f-4882-91c5-3cfb73162c39","ios":"levelo://app?vid=d0571995-2e4f-4882-91c5-3cfb73162c39"},"vehicle_type_id":"4","last_reported":1740690533,"current_range_meters":11200,"station_id":"ce4bgn12rcd13ifvqbt0","pricing_plan_id":"cebpf4jnsgd1na2vs0mg"},{"bike_id":"3d40c7de-ae33-4f47-a9ec-ad6761202c40","system_id":"levelo_inurba_marseille","lat":43.2842,"lon":5.3755,"is_reserved":false,"is_disabled":false,"rental_uris":{"android":"levelo://app?vid=3d40c7de-ae33-4f47-a9ec-ad6761202c40","ios":"levelo://app?vid=3d40c7de-ae33-4f47-a9ec-ad6761202c40"},"vehicle_type_id":"4","last_reported":1740690533,"current_range_meters":11200,"station_id":"ce4bh412rcd13ifvqds0","pricing_plan_id":"cebpf4jnsgd1na2vs0mg"},{"bike_id":"9ad5b63c-3414-4ea4-baac-7d4b6cddc47a","system_id":"levelo_inurba_marseille","lat":43.29088,"lon":5.37182,"is_reserved":false,"is_disabled":false,"rental_uris":{"android":"levelo://app?vid=9ad5b63c-3414-4ea4-baac-7d4b6cddc47a","ios":"levelo://app?vid=9ad5b63c-3414-4ea4-baac-7d4b6cddc47a"},"vehicle_type_id":"4","last_reported":1740690533,"current_range_meters":11200,"station_id":"ce4bh5p2rcd13ifvqe4g","pricing_plan_id":"cebpf4jnsgd1na2vs0mg"},{"bike_id":"443370dd-f8b8-457a-b6f8-389b804ff6fc","system_id":"levelo_inurba_marseille","lat":43.32369,"lon":5.38895,"is_reserved":false,"is_disabled":false,"rental_uris":{"android":"levelo://app?vid=443370dd-f8b8-457a-b6f8-389b804ff6fc","ios":"levelo://app?vid=443370dd-f8b8-457a-b6f8-389b804ff6fc"},"vehicle_type_id":"4","last_reported":1740690533,"current_range_meters":11200,"station_id":"ce4bhqp2rcd13ifvqhog","pricing_plan_id":"cebpf4jnsgd1na2vs0mg"},{"bike_id":"3b9aef5e-93a2-4f89-8d9a-316afa51da0f","system_id":"levelo_inurba_marseille","lat":43.29209,"lon":5.39322,"is_reserved":false,"is_disabled":false,"rental_uris":{"android":"levelo://app?vid=3b9aef5e-93a2-4f89-8d9a-316afa51da0f","ios":"levelo://app?vid=3b9aef5e-93a2-4f89-8d9a-316afa51da0f"},"vehicle_type_id":"4","last_reported":1740690533,"current_range_meters":11600,"station_id":"ce4bh192rcd13ifvqdd0","pricing_plan_id":"cebpf4jnsgd1na2vs0mg"},{"bike_id":"f84d7596-4c47-4c18-a4f9-ba218eafea6d","system_id":"levelo_inurba_marseille","lat":43.284073,"lon":5.375124,"is_reserved":false,"is_disabled":false,"rental_uris":{"android":"levelo://app?vid=f84d7596-4c47-4c18-a4f9-ba218eafea6d","ios":"levelo://app?vid=f84d7596-4c47-4c18-a4f9-ba218eafea6d"},"vehicle_type_id":"4","last_reported":1740690533,"current_range_meters":11600,"station_id":"ce4bh412rcd13ifvqds0","pricing_plan_id":"cebpf4jnsgd1na2vs0mg"},{"bike_id":"44fa9e9b-7e4d-4332-bde5-fd92c0efcb2c","system_id":"levelo_inurba_marseille","lat":43.29058,"lon":5.35907,"is_reserved":false,"is_disabled":false,"rental_uris":{"android":"levelo://app?vid=44fa9e9b-7e4d-4332-bde5-fd92c0efcb2c","ios":"levelo://app?vid=44fa9e9b-7e4d-4332-bde5-fd92c0efcb2c"},"vehicle_type_id":"4","last_reported":1740690533,"current_range_meters":11600,"station_id":"ce4bha92rcd13ifvqeg0","pricing_plan_id":"cebpf4jnsgd1na2vs0mg"},{"bike_id":"e89404bc-b67d-4aa0-b5b9-0d5adc52fc30","system_id":"levelo_inurba_marseille","lat":43.28614,"lon":5.35093,"is_reserved":false,"is_disabled":false,"rental_uris":{"android":"levelo://app?vid=e89404bc-b67d-4aa0-b5b9-0d5adc52fc30","ios":"levelo://app?vid=e89404bc-b67d-4aa0-b5b9-0d5adc52fc30"},"vehicle_type_id":"4","last_reported":1740690533,"current_range_meters":11600,"station_id":"ce4bhch2rcd13ifvqeug","pricing_plan_id":"cebpf4jnsgd1na2vs0mg"},{"bike_id":"7e39a11b-8f65-41f7-8757-965e69193dbe","system_id":"levelo_inurba_marseille","lat":43.29561,"lon":5.39968,"is_reserved":false,"is_disabled":false,"rental_uris":{"android":"levelo://app?vid=7e39a11b-8f65-41f7-8757-965e69193dbe","ios":"levelo://app?vid=7e39a11b-8f65-41f7-8757-965e69193dbe"},"vehicle_type_id":"4","last_reported":1740690533,"current_range_meters":12000,"station_id":"ce4bh312rcd13ifvqdj0","pricing_plan_id":"cebpf4jnsgd1na2vs0mg"},{"bike_id":"4e2e11f8-e9a3-4f3a-9372-23488c564b9c","system_id":"levelo_inurba_marseille","lat":43.28471,"lon":5.35891,"is_reserved":false,"is_disabled":false,"rental_uris":{"android":"levelo://app?vid=4e2e11f8-e9a3-4f3a-9372-23488c564b9c","ios":"levelo://app?vid=4e2e11f8-e9a3-4f3a-9372-23488c564b9c"},"vehicle_type_id":"4","last_reported":1740690533,"current_range_meters":12000,"station_id":"ce4bhah2rcd13ifvqei0","pricing_plan_id":"cebpf4jnsgd1na2vs0mg"},{"bike_id":"7470ebdf-96fe-4da7-b039-5ca23f630bc0","system_id":"levelo_inurba_marseille","lat":43.31761,"lon":5.39013,"is_reserved":false,"is_disabled":false,"rental_uris":{"android":"levelo://app?vid=7470ebdf-96fe-4da7-b039-5ca23f630bc0","ios":"levelo://app?vid=7470ebdf-96fe-4da7-b039-5ca23f630bc0"},"vehicle_type_id":"4","last_reported":1740690533,"current_range_meters":12000,"station_id":"ce4bhqp2rcd13ifvqhng","pricing_plan_id":"cebpf4jnsgd1na2vs0mg"},{"bike_id":"3de9aeda-1f9a-4bbc-8b90-e02a49e56ca9","system_id":"levelo_inurba_marseille","lat":43.23212,"lon":5.35571,"is_reserved":false,"is_disabled":false,"rental_uris":{"android":"levelo://app?vid=3de9aeda-1f9a-4bbc-8b90-e02a49e56ca9","ios":"levelo://app?vid=3de9aeda-1f9a-4bbc-8b90-e02a49e56ca9"},"vehicle_type_id":"4","last_reported":1740690533,"current_range_meters":12000,"station_id":"ce4bhu92rcd13ifvqi70","pricing_plan_id":"cebpf4jnsgd1na2vs0mg"},{"bike_id":"6bf62df5-9f2c-4676-be2e-3425368f3119","system_id":"levelo_inurba_marseille","lat":43.2935,"lon":5.38262,"is_reserved":false,"is_disabled":false,"rental_uris":{"android":"levelo://app?vid=6bf62df5-9f2c-4676-be2e-3425368f3119","ios":"levelo://app?vid=6bf62df5-9f2c-4676-be2e-3425368f3119"},"vehicle_type_id":"4","last_reported":1740690533,"current_range_meters":12400,"station_id":"","pricing_plan_id":"cebpf4jnsgd1na2vs0mg"},{"bike_id":"409a385b-f084-4a05-a438-87b0c694f773","system_id":"levelo_inurba_marseille","lat":43.3134,"lon":5.39696,"is_reserved":false,"is_disabled":false,"rental_uris":{"android":"levelo://app?vid=409a385b-f084-4a05-a438-87b0c694f773","ios":"levelo://app?vid=409a385b-f084-4a05-a438-87b0c694f773"},"vehicle_type_id":"4","last_reported":1740690533,"current_range_meters":12400,"station_id":"ce4bgvp2rcd13ifvqcu0","pricing_plan_id":"cebpf4jnsgd1na2vs0mg"},{"bike_id":"06f46088-86dd-4f85-a76e-b4e1ebe0acc7","system_id":"levelo_inurba_marseille","lat":43.28615,"lon":5.35105,"is_reserved":false,"is_disabled":false,"rental_uris":{"android":"levelo://app?vid=06f46088-86dd-4f85-a76e-b4e1ebe0acc7","ios":"levelo://app?vid=06f46088-86dd-4f85-a76e-b4e1ebe0acc7"},"vehicle_type_id":"4","last_reported":1740690533,"current_range_meters":12400,"station_id":"ce4bhch2rcd13ifvqeug","pricing_plan_id":"cebpf4jnsgd1na2vs0mg"},{"bike_id":"1393e48a-5096-48c2-8ef4-ef737b7b43ae","system_id":"levelo_inurba_marseille","lat":43.25105,"lon":5.39529,"is_reserved":false,"is_disabled":false,"rental_uris":{"android":"levelo://app?vid=1393e48a-5096-48c2-8ef4-ef737b7b43ae","ios":"levelo://app?vid=1393e48a-5096-48c2-8ef4-ef737b7b43ae"},"vehicle_type_id":"4","last_reported":1740690533,"current_range_meters":12400,"station_id":"ce4bhm12rcd13ifvqgkg","pricing_plan_id":"cebpf4jnsgd1na2vs0mg"},{"bike_id":"3d06ad03-608d-41a3-9db1-86aaa1692ce2","system_id":"levelo_inurba_marseille","lat":43.29712,"lon":5.36603,"is_reserved":false,"is_disabled":false,"rental_uris":{"android":"levelo://app?vid=3d06ad03-608d-41a3-9db1-86aaa1692ce2","ios":"levelo://app?vid=3d06ad03-608d-41a3-9db1-86aaa1692ce2"},"vehicle_type_id":"4","last_reported":1740690533,"current_range_meters":12800,"station_id":"ce4bgn12rcd13ifvqbt0","pricing_plan_id":"cebpf4jnsgd1na2vs0mg"},{"bike_id":"d53fb70a-6708-4ff2-a2f4-4d1115ea53f1","system_id":"levelo_inurba_marseille","lat":43.29708,"lon":5.36603,"is_reserved":false,"is_disabled":false,"rental_uris":{"android":"levelo://app?vid=d53fb70a-6708-4ff2-a2f4-4d1115ea53f1","ios":"levelo://app?vid=d53fb70a-6708-4ff2-a2f4-4d1115ea53f1"},"vehicle_type_id":"4","last_reported":1740690533,"current_range_meters":12800,"station_id":"ce4bgn12rcd13ifvqbt0","pricing_plan_id":"cebpf4jnsgd1na2vs0mg"},{"bike_id":"e5877467-ac14-4714-911d-07d8e5080f2c","system_id":"levelo_inurba_marseille","lat":43.31077,"lon":5.38365,"is_reserved":false,"is_disabled":false,"rental_uris":{"android":"levelo://app?vid=e5877467-ac14-4714-911d-07d8e5080f2c","ios":"levelo://app?vid=e5877467-ac14-4714-911d-07d8e5080f2c"},"vehicle_type_id":"4","last_reported":1740690533,"current_range_meters":12800,"station_id":"ce4bgv92rcd13ifvqcr0","pricing_plan_id":"cebpf4jnsgd1na2vs0mg"},{"bike_id":"074c2cfc-d4ac-4214-9099-40034921ab92","system_id":"levelo_inurba_marseille","lat":43.294216,"lon":5.386238,"is_reserved":false,"is_disabled":false,"rental_uris":{"android":"levelo://app?vid=074c2cfc-d4ac-4214-9099-40034921ab92","ios":"levelo://app?vid=074c2cfc-d4ac-4214-9099-40034921ab92"},"vehicle_type_id":"4","last_reported":1740690533,"current_range_meters":12800,"station_id":"ce4bh2h2rcd13ifvqdh0","pricing_plan_id":"cebpf4jnsgd1na2vs0mg"},{"bike_id":"efef6990-182b-4cc0-900e-a761f2e8e563","system_id":"levelo_inurba_marseille","lat":43.287012,"lon":5.385125,"is_reserved":false,"is_disabled":false,"rental_uris":{"android":"levelo://app?vid=efef6990-182b-4cc0-900e-a761f2e8e563","ios":"levelo://app?vid=efef6990-182b-4cc0-900e-a761f2e8e563"},"vehicle_type_id":"4","last_reported":1740690533,"current_range_meters":12800,"station_id":"ce4bh9p2rcd13ifvqec0","pricing_plan_id":"cebpf4jnsgd1na2vs0mg"},{"bike_id":"a7b92317-a250-457d-b1f9-966527ab7b9f","system_id":"levelo_inurba_marseille","lat":43.293237,"lon":5.371655,"is_reserved":false,"is_disabled":false,"rental_uris":{"android":"levelo://app?vid=a7b92317-a250-457d-b1f9-966527ab7b9f","ios":"levelo://app?vid=a7b92317-a250-457d-b1f9-966527ab7b9f"},"vehicle_type_id":"4","last_reported":1740690533,"current_range_meters":12800,"station_id":"ce4bha92rcd13ifvqeg0","pricing_plan_id":"cebpf4jnsgd1na2vs0mg"},{"bike_id":"dd056faa-2771-4c25-b712-8ececdb8e421","system_id":"levelo_inurba_marseille","lat":43.28461,"lon":5.35889,"is_reserved":false,"is_disabled":false,"rental_uris":{"android":"levelo://app?vid=dd056faa-2771-4c25-b712-8ececdb8e421","ios":"levelo://app?vid=dd056faa-2771-4c25-b712-8ececdb8e421"},"vehicle_type_id":"4","last_reported":1740690533,"current_range_meters":12800,"station_id":"ce4bhah2rcd13ifvqei0","pricing_plan_id":"cebpf4jnsgd1na2vs0mg"},{"bike_id":"31ea299c-126e-4c44-ba30-62ae97c92186","system_id":"levelo_inurba_marseille","lat":43.2895,"lon":5.36639,"is_reserved":false,"is_disabled":false,"rental_uris":{"android":"levelo://app?vid=31ea299c-126e-4c44-ba30-62ae97c92186","ios":"levelo://app?vid=31ea299c-126e-4c44-ba30-62ae97c92186"},"vehicle_type_id":"4","last_reported":1740690533,"current_range_meters":12800,"station_id":"ce4bhap2rcd13ifvqek0","pricing_plan_id":"cebpf4jnsgd1na2vs0mg"},{"bike_id":"07a70f40-d064-434b-83aa-228acdf7dd53","system_id":"levelo_inurba_marseille","lat":43.23198,"lon":5.39992,"is_reserved":false,"is_disabled":false,"rental_uris":{"android":"levelo://app?vid=07a70f40-d064-434b-83aa-228acdf7dd53","ios":"levelo://app?vid=07a70f40-d064-434b-83aa-228acdf7dd53"},"vehicle_type_id":"4","last_reported":1740690533,"current_range_meters":12800,"station_id":"ce4bhn12rcd13ifvqgqg","pricing_plan_id":"cebpf4jnsgd1na2vs0mg"},{"bike_id":"ef77bf7f-5b88-41c9-8d3b-c8c9c0447dd9","system_id":"levelo_inurba_marseille","lat":43.28087,"lon":5.35043,"is_reserved":false,"is_disabled":false,"rental_uris":{"android":"levelo://app?vid=ef77bf7f-5b88-41c9-8d3b-c8c9c0447dd9","ios":"levelo://app?vid=ef77bf7f-5b88-41c9-8d3b-c8c9c0447dd9"},"vehicle_type_id":"4","last_reported":1740690533,"current_range_meters":13600,"station_id":"","pricing_plan_id":"cebpf4jnsgd1na2vs0mg"},{"bike_id":"912bec2e-70f3-43fa-8cc7-6832b37b8212","system_id":"levelo_inurba_marseille","lat":43.31489,"lon":5.37309,"is_reserved":false,"is_disabled":false,"rental_uris":{"android":"levelo://app?vid=912bec2e-70f3-43fa-8cc7-6832b37b8212","ios":"levelo://app?vid=912bec2e-70f3-43fa-8cc7-6832b37b8212"},"vehicle_type_id":"4","last_reported":1740690533,"current_range_meters":13600,"station_id":"ce4bgk12rcd13ifvqbi0","pricing_plan_id":"cebpf4jnsgd1na2vs0mg"},{"bike_id":"45bcdd61-a600-4686-95d9-f2003a49bdbc","system_id":"levelo_inurba_marseille","lat":43.29947,"lon":5.36558,"is_reserved":false,"is_disabled":false,"rental_uris":{"android":"levelo://app?vid=45bcdd61-a600-4686-95d9-f2003a49bdbc","ios":"levelo://app?vid=45bcdd61-a600-4686-95d9-f2003a49bdbc"},"vehicle_type_id":"4","last_reported":1740690533,"current_range_meters":13600,"station_id":"ce4bgm92rcd13ifvqbr0","pricing_plan_id":"cebpf4jnsgd1na2vs0mg"},{"bike_id":"ad4be5aa-fd82-4257-8f58-a35444e33855","system_id":"levelo_inurba_marseille","lat":43.30646,"lon":5.40089,"is_reserved":false,"is_disabled":false,"rental_uris":{"android":"levelo://app?vid=ad4be5aa-fd82-4257-8f58-a35444e33855","ios":"levelo://app?vid=ad4be5aa-fd82-4257-8f58-a35444e33855"},"vehicle_type_id":"4","last_reported":1740690533,"current_range_meters":13600,"station_id":"ce4bh112rcd13ifvqda0","pricing_plan_id":"cebpf4jnsgd1na2vs0mg"},{"bike_id":"10b6c0d0-a3ef-460e-ad30-22fe050ad6b8","system_id":"levelo_inurba_marseille","lat":43.28852,"lon":5.3585,"is_reserved":false,"is_disabled":false,"rental_uris":{"android":"levelo://app?vid=10b6c0d0-a3ef-460e-ad30-22fe050ad6b8","ios":"levelo://app?vid=10b6c0d0-a3ef-460e-ad30-22fe050ad6b8"},"vehicle_type_id":"4","last_reported":1740690533,"current_range_meters":13600,"station_id":"ce4bhb12rcd13ifvqem0","pricing_plan_id":"cebpf4jnsgd1na2vs0mg"},{"bike_id":"20d08730-d04f-482a-9ed2-1d3e29b92784","system_id":"levelo_inurba_marseille","lat":43.32372,"lon":5.38885,"is_reserved":false,"is_disabled":false,"rental_uris":{"android":"levelo://app?vid=20d08730-d04f-482a-9ed2-1d3e29b92784","ios":"levelo://app?vid=20d08730-d04f-482a-9ed2-1d3e29b92784"},"vehicle_type_id":"4","last_reported":1740690533,"current_range_meters":13600,"station_id":"ce4bhqp2rcd13ifvqhog","pricing_plan_id":"cebpf4jnsgd1na2vs0mg"},{"bike_id":"d4918d6a-5525-4be8-b0c4-7af64b54343d","system_id":"levelo_inurba_marseille","lat":43.24168,"lon":5.36406,"is_reserved":false,"is_disabled":false,"rental_uris":{"android":"levelo://app?vid=d4918d6a-5525-4be8-b0c4-7af64b54343d","ios":"levelo://app?vid=d4918d6a-5525-4be8-b0c4-7af64b54343d"},"vehicle_type_id":"4","last_reported":1740690533,"current_range_meters":13600,"station_id":"cpo36qri1sfpv3e86is0","pricing_plan_id":"cebpf4jnsgd1na2vs0mg"},{"bike_id":"21d163b0-76d6-433d-af00-7c1303f28c95","system_id":"levelo_inurba_marseille","lat":43.28453,"lon":5.37543,"is_reserved":false,"is_disabled":false,"rental_uris":{"android":"levelo://app?vid=21d163b0-76d6-433d-af00-7c1303f28c95","ios":"levelo://app?vid=21d163b0-76d6-433d-af00-7c1303f28c95"},"vehicle_type_id":"4","last_reported":1740690533,"current_range_meters":14000,"station_id":"","pricing_plan_id":"cebpf4jnsgd1na2vs0mg"},{"bike_id":"c89159fd-89c3-484a-a59e-eea3dd155eea","system_id":"levelo_inurba_marseille","lat":43.30901,"lon":5.39653,"is_reserved":false,"is_disabled":false,"rental_uris":{"android":"levelo://app?vid=c89159fd-89c3-484a-a59e-eea3dd155eea","ios":"levelo://app?vid=c89159fd-89c3-484a-a59e-eea3dd155eea"},"vehicle_type_id":"4","last_reported":1740690533,"current_range_meters":14000,"station_id":"ce4bh012rcd13ifvqcv0","pricing_plan_id":"cebpf4jnsgd1na2vs0mg"},{"bike_id":"31ab6c8e-6a24-4836-b44b-8f5e5299fcb8","system_id":"levelo_inurba_marseille","lat":43.29191,"lon":5.39334,"is_reserved":false,"is_disabled":false,"rental_uris":{"android":"levelo://app?vid=31ab6c8e-6a24-4836-b44b-8f5e5299fcb8","ios":"levelo://app?vid=31ab6c8e-6a24-4836-b44b-8f5e5299fcb8"},"vehicle_type_id":"4","last_reported":1740690533,"current_range_meters":14000,"station_id":"ce4bh192rcd13ifvqdd0","pricing_plan_id":"cebpf4jnsgd1na2vs0mg"},{"bike_id":"5ad848ed-b1b0-4141-8495-beb1b5851ac9","system_id":"levelo_inurba_marseille","lat":43.2952,"lon":5.39399,"is_reserved":false,"is_disabled":false,"rental_uris":{"android":"levelo://app?vid=5ad848ed-b1b0-4141-8495-beb1b5851ac9","ios":"levelo://app?vid=5ad848ed-b1b0-4141-8495-beb1b5851ac9"},"vehicle_type_id":"4","last_reported":1740690533,"current_range_meters":14000,"station_id":"ce4bh292rcd13ifvqdf0","pricing_plan_id":"cebpf4jnsgd1na2vs0mg"},{"bike_id":"b6adb13a-669f-4b70-afbd-4e0b7fa4b1fc","system_id":"levelo_inurba_marseille","lat":43.29254,"lon":5.38452,"is_reserved":false,"is_disabled":false,"rental_uris":{"android":"levelo://app?vid=b6adb13a-669f-4b70-afbd-4e0b7fa4b1fc","ios":"levelo://app?vid=b6adb13a-669f-4b70-afbd-4e0b7fa4b1fc"},"vehicle_type_id":"4","last_reported":1740690533,"current_range_meters":14000,"station_id":"ce4bh692rcd13ifvqea0","pricing_plan_id":"cebpf4jnsgd1na2vs0mg"},{"bike_id":"87f4694a-7002-40c0-9a0e-2123fd36309b","system_id":"levelo_inurba_marseille","lat":43.29029,"lon":5.35622,"is_reserved":false,"is_disabled":false,"rental_uris":{"android":"levelo://app?vid=87f4694a-7002-40c0-9a0e-2123fd36309b","ios":"levelo://app?vid=87f4694a-7002-40c0-9a0e-2123fd36309b"},"vehicle_type_id":"4","last_reported":1740690533,"current_range_meters":14000,"station_id":"ce4bhb92rcd13ifvqen0","pricing_plan_id":"cebpf4jnsgd1na2vs0mg"},{"bike_id":"0771be02-e3e2-47da-b3c9-86df7888c832","system_id":"levelo_inurba_marseille","lat":43.29252,"lon":5.36031,"is_reserved":false,"is_disabled":false,"rental_uris":{"android":"levelo://app?vid=0771be02-e3e2-47da-b3c9-86df7888c832","ios":"levelo://app?vid=0771be02-e3e2-47da-b3c9-86df7888c832"},"vehicle_type_id":"4","last_reported":1740690533,"current_range_meters":14000,"station_id":"ce4bhbh2rcd13ifvqeqg","pricing_plan_id":"cebpf4jnsgd1na2vs0mg"},{"bike_id":"a4c22857-6480-465b-b474-1cc963b1061a","system_id":"levelo_inurba_marseille","lat":43.26077,"lon":5.39397,"is_reserved":false,"is_disabled":false,"rental_uris":{"android":"levelo://app?vid=a4c22857-6480-465b-b474-1cc963b1061a","ios":"levelo://app?vid=a4c22857-6480-465b-b474-1cc963b1061a"},"vehicle_type_id":"4","last_reported":1740690533,"current_range_meters":14000,"station_id":"ce4bhh92rcd13ifvqfj0","pricing_plan_id":"cebpf4jnsgd1na2vs0mg"},{"bike_id":"199d096e-ca37-47f9-963f-1f0656cac9e4","system_id":"levelo_inurba_marseille","lat":43.25814,"lon":5.39421,"is_reserved":false,"is_disabled":false,"rental_uris":{"android":"levelo://app?vid=199d096e-ca37-47f9-963f-1f0656cac9e4","ios":"levelo://app?vid=199d096e-ca37-47f9-963f-1f0656cac9e4"},"vehicle_type_id":"4","last_reported":1740690533,"current_range_meters":14000,"station_id":"ce4bhip2rcd13ifvqft0","pricing_plan_id":"cebpf4jnsgd1na2vs0mg"},{"bike_id":"6f08793c-0e13-4755-8250-eb14e46e9c0b","system_id":"levelo_inurba_marseille","lat":43.23198,"lon":5.39993,"is_reserved":false,"is_disabled":false,"rental_uris":{"android":"levelo://app?vid=6f08793c-0e13-4755-8250-eb14e46e9c0b","ios":"levelo://app?vid=6f08793c-0e13-4755-8250-eb14e46e9c0b"},"vehicle_type_id":"4","last_reported":1740690533,"current_range_meters":14000,"station_id":"ce4bhn12rcd13ifvqgqg","pricing_plan_id":"cebpf4jnsgd1na2vs0mg"},{"bike_id":"1a7f842a-010c-4d46-acbd-012bb45b2d25","system_id":"levelo_inurba_marseille","lat":43.29269,"lon":5.38443,"is_reserved":false,"is_disabled":false,"rental_uris":{"android":"levelo://app?vid=1a7f842a-010c-4d46-acbd-012bb45b2d25","ios":"levelo://app?vid=1a7f842a-010c-4d46-acbd-012bb45b2d25"},"vehicle_type_id":"4","last_reported":1740690533,"current_range_meters":14400,"station_id":"ce4bh692rcd13ifvqea0","pricing_plan_id":"cebpf4jnsgd1na2vs0mg"},{"bike_id":"50540a5c-fc68-4a18-9672-b04ab8127526","system_id":"levelo_inurba_marseille","lat":43.28038,"lon":5.36948,"is_reserved":false,"is_disabled":false,"rental_uris":{"android":"levelo://app?vid=50540a5c-fc68-4a18-9672-b04ab8127526","ios":"levelo://app?vid=50540a5c-fc68-4a18-9672-b04ab8127526"},"vehicle_type_id":"4","last_reported":1740690533,"current_range_meters":14400,"station_id":"ce4bha12rcd13ifvqef0","pricing_plan_id":"cebpf4jnsgd1na2vs0mg"},{"bike_id":"07e562af-4bef-47f8-a85e-d84ded116372","system_id":"levelo_inurba_marseille","lat":43.28082,"lon":5.39657,"is_reserved":false,"is_disabled":false,"rental_uris":{"android":"levelo://app?vid=07e562af-4bef-47f8-a85e-d84ded116372","ios":"levelo://app?vid=07e562af-4bef-47f8-a85e-d84ded116372"},"vehicle_type_id":"4","last_reported":1740690533,"current_range_meters":14400,"station_id":"ce4bho12rcd13ifvqh2g","pricing_plan_id":"cebpf4jnsgd1na2vs0mg"},{"bike_id":"7f813861-dc21-44f2-975d-21a8e426f2c4","system_id":"levelo_inurba_marseille","lat":43.29322,"lon":5.37185,"is_reserved":false,"is_disabled":false,"rental_uris":{"android":"levelo://app?vid=7f813861-dc21-44f2-975d-21a8e426f2c4","ios":"levelo://app?vid=7f813861-dc21-44f2-975d-21a8e426f2c4"},"vehicle_type_id":"4","last_reported":1740690533,"current_range_meters":14800,"station_id":"ce4bgh92rcd13ifvqb40","pricing_plan_id":"cebpf4jnsgd1na2vs0mg"},{"bike_id":"d9deb9e3-9c42-4cc1-82a8-c2423f9658e8","system_id":"levelo_inurba_marseille","lat":43.284604,"lon":5.358785,"is_reserved":false,"is_disabled":false,"rental_uris":{"android":"levelo://app?vid=d9deb9e3-9c42-4cc1-82a8-c2423f9658e8","ios":"levelo://app?vid=d9deb9e3-9c42-4cc1-82a8-c2423f9658e8"},"vehicle_type_id":"4","last_reported":1740690533,"current_range_meters":14800,"station_id":"ce4bgjh2rcd13ifvqbf0","pricing_plan_id":"cebpf4jnsgd1na2vs0mg"},{"bike_id":"ed16f406-eba4-4393-830a-65e0ff2d290d","system_id":"levelo_inurba_marseille","lat":43.29951,"lon":5.36557,"is_reserved":false,"is_disabled":false,"rental_uris":{"android":"levelo://app?vid=ed16f406-eba4-4393-830a-65e0ff2d290d","ios":"levelo://app?vid=ed16f406-eba4-4393-830a-65e0ff2d290d"},"vehicle_type_id":"4","last_reported":1740690533,"current_range_meters":14800,"station_id":"ce4bgm92rcd13ifvqbr0","pricing_plan_id":"cebpf4jnsgd1na2vs0mg"},{"bike_id":"de5c6abf-7a31-46f4-95e0-bfe5b2448cc6","system_id":"levelo_inurba_marseille","lat":43.28465,"lon":5.35883,"is_reserved":false,"is_disabled":false,"rental_uris":{"android":"levelo://app?vid=de5c6abf-7a31-46f4-95e0-bfe5b2448cc6","ios":"levelo://app?vid=de5c6abf-7a31-46f4-95e0-bfe5b2448cc6"},"vehicle_type_id":"4","last_reported":1740690533,"current_range_meters":14800,"station_id":"ce4bhah2rcd13ifvqei0","pricing_plan_id":"cebpf4jnsgd1na2vs0mg"},{"bike_id":"7562303f-eb2b-41bb-be54-db23a576d5e8","system_id":"levelo_inurba_marseille","lat":43.28633,"lon":5.35115,"is_reserved":false,"is_disabled":false,"rental_uris":{"android":"levelo://app?vid=7562303f-eb2b-41bb-be54-db23a576d5e8","ios":"levelo://app?vid=7562303f-eb2b-41bb-be54-db23a576d5e8"},"vehicle_type_id":"4","last_reported":1740690533,"current_range_meters":14800,"station_id":"ce4bhch2rcd13ifvqeug","pricing_plan_id":"cebpf4jnsgd1na2vs0mg"},{"bike_id":"d6eac1e4-94c7-4b0a-b122-2daa16ebae64","system_id":"levelo_inurba_marseille","lat":43.32367,"lon":5.38888,"is_reserved":false,"is_disabled":false,"rental_uris":{"android":"levelo://app?vid=d6eac1e4-94c7-4b0a-b122-2daa16ebae64","ios":"levelo://app?vid=d6eac1e4-94c7-4b0a-b122-2daa16ebae64"},"vehicle_type_id":"4","last_reported":1740690533,"current_range_meters":14800,"station_id":"ce4bhqp2rcd13ifvqhog","pricing_plan_id":"cebpf4jnsgd1na2vs0mg"},{"bike_id":"8d7ba270-802d-436d-9cbd-7991cd781834","system_id":"levelo_inurba_marseille","lat":43.298131,"lon":5.382222,"is_reserved":false,"is_disabled":false,"rental_uris":{"android":"levelo://app?vid=8d7ba270-802d-436d-9cbd-7991cd781834","ios":"levelo://app?vid=8d7ba270-802d-436d-9cbd-7991cd781834"},"vehicle_type_id":"4","last_reported":1740690533,"current_range_meters":15200,"station_id":"ce4bgn12rcd13ifvqbt0","pricing_plan_id":"cebpf4jnsgd1na2vs0mg"},{"bike_id":"53959cb4-1d86-4d69-bb95-f029c8d84d27","system_id":"levelo_inurba_marseille","lat":43.2997,"lon":5.3718,"is_reserved":false,"is_disabled":false,"rental_uris":{"android":"levelo://app?vid=53959cb4-1d86-4d69-bb95-f029c8d84d27","ios":"levelo://app?vid=53959cb4-1d86-4d69-bb95-f029c8d84d27"},"vehicle_type_id":"4","last_reported":1740690533,"current_range_meters":15200,"station_id":"ce4bgr92rcd13ifvqc7g","pricing_plan_id":"cebpf4jnsgd1na2vs0mg"},{"bike_id":"ee4e455a-1291-4cf5-8fad-df353dd3d7e2","system_id":"levelo_inurba_marseille","lat":43.313584,"lon":5.384721,"is_reserved":false,"is_disabled":false,"rental_uris":{"android":"levelo://app?vid=ee4e455a-1291-4cf5-8fad-df353dd3d7e2","ios":"levelo://app?vid=ee4e455a-1291-4cf5-8fad-df353dd3d7e2"},"vehicle_type_id":"4","last_reported":1740690533,"current_range_meters":15200,"station_id":"ce4bh312rcd13ifvqdj0","pricing_plan_id":"cebpf4jnsgd1na2vs0mg"},{"bike_id":"6f0b6b23-2c88-4b98-8081-d25ac90a1a8b","system_id":"levelo_inurba_marseille","lat":43.284135,"lon":5.37514,"is_reserved":false,"is_disabled":false,"rental_uris":{"android":"levelo://app?vid=6f0b6b23-2c88-4b98-8081-d25ac90a1a8b","ios":"levelo://app?vid=6f0b6b23-2c88-4b98-8081-d25ac90a1a8b"},"vehicle_type_id":"4","last_reported":1740690533,"current_range_meters":15200,"station_id":"ce4bh412rcd13ifvqds0","pricing_plan_id":"cebpf4jnsgd1na2vs0mg"},{"bike_id":"7e9d22d9-ba51-4803-b02f-7c33cef12f33","system_id":"levelo_inurba_marseille","lat":43.2843,"lon":5.3751,"is_reserved":false,"is_disabled":false,"rental_uris":{"android":"levelo://app?vid=7e9d22d9-ba51-4803-b02f-7c33cef12f33","ios":"levelo://app?vid=7e9d22d9-ba51-4803-b02f-7c33cef12f33"},"vehicle_type_id":"4","last_reported":1740690533,"current_range_meters":15200,"station_id":"ce4bh412rcd13ifvqds0","pricing_plan_id":"cebpf4jnsgd1na2vs0mg"},{"bike_id":"2f9f99a2-13fd-4e67-b6f6-cde754ec372e","system_id":"levelo_inurba_marseille","lat":43.29011,"lon":5.35624,"is_reserved":false,"is_disabled":false,"rental_uris":{"android":"levelo://app?vid=2f9f99a2-13fd-4e67-b6f6-cde754ec372e","ios":"levelo://app?vid=2f9f99a2-13fd-4e67-b6f6-cde754ec372e"},"vehicle_type_id":"4","last_reported":1740690533,"current_range_meters":15200,"station_id":"ce4bhb92rcd13ifvqen0","pricing_plan_id":"cebpf4jnsgd1na2vs0mg"},{"bike_id":"3f5e4c77-943b-4a46-b257-614bf13afec4","system_id":"levelo_inurba_marseille","lat":43.24179,"lon":5.3642,"is_reserved":false,"is_disabled":false,"rental_uris":{"android":"levelo://app?vid=3f5e4c77-943b-4a46-b257-614bf13afec4","ios":"levelo://app?vid=3f5e4c77-943b-4a46-b257-614bf13afec4"},"vehicle_type_id":"4","last_reported":1740690533,"current_range_meters":15200,"station_id":"cpo36qri1sfpv3e86is0","pricing_plan_id":"cebpf4jnsgd1na2vs0mg"},{"bike_id":"43d6aa6f-20c7-4a1b-bcb8-31b660876567","system_id":"levelo_inurba_marseille","lat":43.26571,"lon":5.37207,"is_reserved":false,"is_disabled":false,"rental_uris":{"android":"levelo://app?vid=43d6aa6f-20c7-4a1b-bcb8-31b660876567","ios":"levelo://app?vid=43d6aa6f-20c7-4a1b-bcb8-31b660876567"},"vehicle_type_id":"4","last_reported":1740690533,"current_range_meters":16000,"station_id":"","pricing_plan_id":"cebpf4jnsgd1na2vs0mg"},{"bike_id":"f583a369-2157-4aa6-8cbb-e692ddb23a4d","system_id":"levelo_inurba_marseille","lat":43.29038,"lon":5.38638,"is_reserved":false,"is_disabled":false,"rental_uris":{"android":"levelo://app?vid=f583a369-2157-4aa6-8cbb-e692ddb23a4d","ios":"levelo://app?vid=f583a369-2157-4aa6-8cbb-e692ddb23a4d"},"vehicle_type_id":"4","last_reported":1740690533,"current_range_meters":16000,"station_id":"ce4bh4p2rcd13ifvqe0g","pricing_plan_id":"cebpf4jnsgd1na2vs0mg"},{"bike_id":"0ebffcee-3697-4987-8cfd-ce56c427abfe","system_id":"levelo_inurba_marseille","lat":43.28445,"lon":5.3592,"is_reserved":false,"is_disabled":false,"rental_uris":{"android":"levelo://app?vid=0ebffcee-3697-4987-8cfd-ce56c427abfe","ios":"levelo://app?vid=0ebffcee-3697-4987-8cfd-ce56c427abfe"},"vehicle_type_id":"4","last_reported":1740690533,"current_range_meters":16000,"station_id":"ce4bhah2rcd13ifvqei0","pricing_plan_id":"cebpf4jnsgd1na2vs0mg"},{"bike_id":"8ba7ff61-f483-48a3-88de-37fa6d3c56ce","system_id":"levelo_inurba_marseille","lat":43.33616,"lon":5.4102,"is_reserved":false,"is_disabled":false,"rental_uris":{"android":"levelo://app?vid=8ba7ff61-f483-48a3-88de-37fa6d3c56ce","ios":"levelo://app?vid=8ba7ff61-f483-48a3-88de-37fa6d3c56ce"},"vehicle_type_id":"4","last_reported":1740690533,"current_range_meters":16000,"station_id":"ce4bhqh2rcd13ifvqhmg","pricing_plan_id":"cebpf4jnsgd1na2vs0mg"},{"bike_id":"07716cd5-aa06-4ec2-be21-a681b685518f","system_id":"levelo_inurba_marseille","lat":43.26192,"lon":5.4206,"is_reserved":false,"is_disabled":false,"rental_uris":{"android":"levelo://app?vid=07716cd5-aa06-4ec2-be21-a681b685518f","ios":"levelo://app?vid=07716cd5-aa06-4ec2-be21-a681b685518f"},"vehicle_type_id":"4","last_reported":1740690533,"current_range_meters":16400,"station_id":"","pricing_plan_id":"cebpf4jnsgd1na2vs0mg"},{"bike_id":"b0d76a98-c732-491c-a755-eed962dfdf16","system_id":"levelo_inurba_marseille","lat":43.295737,"lon":5.375094,"is_reserved":false,"is_disabled":false,"rental_uris":{"android":"levelo://app?vid=b0d76a98-c732-491c-a755-eed962dfdf16","ios":"levelo://app?vid=b0d76a98-c732-491c-a755-eed962dfdf16"},"vehicle_type_id":"4","last_reported":1740690533,"current_range_meters":16400,"station_id":"ce4bgh92rcd13ifvqb50","pricing_plan_id":"cebpf4jnsgd1na2vs0mg"},{"bike_id":"b6ab9a61-8985-4d83-8f2e-45b4984d4c17","system_id":"levelo_inurba_marseille","lat":43.29256,"lon":5.37622,"is_reserved":false,"is_disabled":false,"rental_uris":{"android":"levelo://app?vid=b6ab9a61-8985-4d83-8f2e-45b4984d4c17","ios":"levelo://app?vid=b6ab9a61-8985-4d83-8f2e-45b4984d4c17"},"vehicle_type_id":"4","last_reported":1740690533,"current_range_meters":16400,"station_id":"ce4bgi12rcd13ifvqb80","pricing_plan_id":"cebpf4jnsgd1na2vs0mg"},{"bike_id":"14c4922f-5219-41e5-8af2-1c1a2fab132d","system_id":"levelo_inurba_marseille","lat":43.28667,"lon":5.38648,"is_reserved":false,"is_disabled":false,"rental_uris":{"android":"levelo://app?vid=14c4922f-5219-41e5-8af2-1c1a2fab132d","ios":"levelo://app?vid=14c4922f-5219-41e5-8af2-1c1a2fab132d"},"vehicle_type_id":"4","last_reported":1740690533,"current_range_meters":16400,"station_id":"ce4bh492rcd13ifvqdug","pricing_plan_id":"cebpf4jnsgd1na2vs0mg"},{"bike_id":"391583ed-c46f-40d1-a64d-a8b6249aa710","system_id":"levelo_inurba_marseille","lat":43.28618,"lon":5.35114,"is_reserved":false,"is_disabled":false,"rental_uris":{"android":"levelo://app?vid=391583ed-c46f-40d1-a64d-a8b6249aa710","ios":"levelo://app?vid=391583ed-c46f-40d1-a64d-a8b6249aa710"},"vehicle_type_id":"4","last_reported":1740690533,"current_range_meters":16400,"station_id":"ce4bhch2rcd13ifvqeug","pricing_plan_id":"cebpf4jnsgd1na2vs0mg"},{"bike_id":"9d34808e-89cc-44d6-93b0-38765f282b14","system_id":"levelo_inurba_marseille","lat":43.242718,"lon":5.394113,"is_reserved":false,"is_disabled":false,"rental_uris":{"android":"levelo://app?vid=9d34808e-89cc-44d6-93b0-38765f282b14","ios":"levelo://app?vid=9d34808e-89cc-44d6-93b0-38765f282b14"},"vehicle_type_id":"4","last_reported":1740690533,"current_range_meters":16400,"station_id":"ce4bhg12rcd13ifvqf60","pricing_plan_id":"cebpf4jnsgd1na2vs0mg"},{"bike_id":"a9757b2e-0188-4e2f-9062-079c74f7d4d4","system_id":"levelo_inurba_marseille","lat":43.25583,"lon":5.38233,"is_reserved":false,"is_disabled":false,"rental_uris":{"android":"levelo://app?vid=a9757b2e-0188-4e2f-9062-079c74f7d4d4","ios":"levelo://app?vid=a9757b2e-0188-4e2f-9062-079c74f7d4d4"},"vehicle_type_id":"4","last_reported":1740690533,"current_range_meters":16400,"station_id":"ce4bhih2rcd13ifvqfs0","pricing_plan_id":"cebpf4jnsgd1na2vs0mg"},{"bike_id":"41ae3cba-df90-47eb-9185-828aeb3d2ccd","system_id":"levelo_inurba_marseille","lat":43.2559,"lon":5.38252,"is_reserved":false,"is_disabled":false,"rental_uris":{"android":"levelo://app?vid=41ae3cba-df90-47eb-9185-828aeb3d2ccd","ios":"levelo://app?vid=41ae3cba-df90-47eb-9185-828aeb3d2ccd"},"vehicle_type_id":"4","last_reported":1740690533,"current_range_meters":16400,"station_id":"ce4bhih2rcd13ifvqfs0","pricing_plan_id":"cebpf4jnsgd1na2vs0mg"},{"bike_id":"1aea0dde-a7bb-4730-8e2c-695419b49399","system_id":"levelo_inurba_marseille","lat":43.323687,"lon":5.38885,"is_reserved":false,"is_disabled":false,"rental_uris":{"android":"levelo://app?vid=1aea0dde-a7bb-4730-8e2c-695419b49399","ios":"levelo://app?vid=1aea0dde-a7bb-4730-8e2c-695419b49399"},"vehicle_type_id":"4","last_reported":1740690533,"current_range_meters":16400,"station_id":"ce4bhqp2rcd13ifvqhog","pricing_plan_id":"cebpf4jnsgd1na2vs0mg"},{"bike_id":"eb97a3ca-1c7c-4951-9c36-2cbd0fa605da","system_id":"levelo_inurba_marseille","lat":43.32483,"lon":5.36575,"is_reserved":false,"is_disabled":false,"rental_uris":{"android":"levelo://app?vid=eb97a3ca-1c7c-4951-9c36-2cbd0fa605da","ios":"levelo://app?vid=eb97a3ca-1c7c-4951-9c36-2cbd0fa605da"},"vehicle_type_id":"4","last_reported":1740690533,"current_range_meters":16400,"station_id":"ce4bhs12rcd13ifvqhvg","pricing_plan_id":"cebpf4jnsgd1na2vs0mg"},{"bike_id":"c4100ae5-6c9c-4b52-8ffc-447469ddb7a2","system_id":"levelo_inurba_marseille","lat":43.29319,"lon":5.37169,"is_reserved":false,"is_disabled":false,"rental_uris":{"android":"levelo://app?vid=c4100ae5-6c9c-4b52-8ffc-447469ddb7a2","ios":"levelo://app?vid=c4100ae5-6c9c-4b52-8ffc-447469ddb7a2"},"vehicle_type_id":"4","last_reported":1740690533,"current_range_meters":16800,"station_id":"ce4bgh92rcd13ifvqb40","pricing_plan_id":"cebpf4jnsgd1na2vs0mg"},{"bike_id":"be0a0040-611b-489c-8331-1af3b12c4a6d","system_id":"levelo_inurba_marseille","lat":43.30311,"lon":5.4044,"is_reserved":false,"is_disabled":false,"rental_uris":{"android":"levelo://app?vid=be0a0040-611b-489c-8331-1af3b12c4a6d","ios":"levelo://app?vid=be0a0040-611b-489c-8331-1af3b12c4a6d"},"vehicle_type_id":"4","last_reported":1740690533,"current_range_meters":16800,"station_id":"ce4bh012rcd13ifvqd10","pricing_plan_id":"cebpf4jnsgd1na2vs0mg"},{"bike_id":"c6b5f9f2-a258-4f07-9a3b-85dd6cf998c0","system_id":"levelo_inurba_marseille","lat":43.30644,"lon":5.40078,"is_reserved":false,"is_disabled":false,"rental_uris":{"android":"levelo://app?vid=c6b5f9f2-a258-4f07-9a3b-85dd6cf998c0","ios":"levelo://app?vid=c6b5f9f2-a258-4f07-9a3b-85dd6cf998c0"},"vehicle_type_id":"4","last_reported":1740690533,"current_range_meters":16800,"station_id":"ce4bh112rcd13ifvqda0","pricing_plan_id":"cebpf4jnsgd1na2vs0mg"},{"bike_id":"99958513-d686-4bf4-8ea8-80f2bc63f98a","system_id":"levelo_inurba_marseille","lat":43.29076,"lon":5.37176,"is_reserved":false,"is_disabled":false,"rental_uris":{"android":"levelo://app?vid=99958513-d686-4bf4-8ea8-80f2bc63f98a","ios":"levelo://app?vid=99958513-d686-4bf4-8ea8-80f2bc63f98a"},"vehicle_type_id":"4","last_reported":1740690533,"current_range_meters":16800,"station_id":"ce4bh5p2rcd13ifvqe4g","pricing_plan_id":"cebpf4jnsgd1na2vs0mg"},{"bike_id":"24476cb6-9c12-4997-ab8d-8cfe9d8b4bb4","system_id":"levelo_inurba_marseille","lat":43.28629,"lon":5.35103,"is_reserved":false,"is_disabled":false,"rental_uris":{"android":"levelo://app?vid=24476cb6-9c12-4997-ab8d-8cfe9d8b4bb4","ios":"levelo://app?vid=24476cb6-9c12-4997-ab8d-8cfe9d8b4bb4"},"vehicle_type_id":"4","last_reported":1740690533,"current_range_meters":16800,"station_id":"ce4bhch2rcd13ifvqeug","pricing_plan_id":"cebpf4jnsgd1na2vs0mg"},{"bike_id":"7cb5f9ac-368b-45e9-8b10-ae7e339a0f63","system_id":"levelo_inurba_marseille","lat":43.28702,"lon":5.39997,"is_reserved":false,"is_disabled":false,"rental_uris":{"android":"levelo://app?vid=7cb5f9ac-368b-45e9-8b10-ae7e339a0f63","ios":"levelo://app?vid=7cb5f9ac-368b-45e9-8b10-ae7e339a0f63"},"vehicle_type_id":"4","last_reported":1740690533,"current_range_meters":16800,"station_id":"ce4bho92rcd13ifvqh3g","pricing_plan_id":"cebpf4jnsgd1na2vs0mg"},{"bike_id":"28aa6b62-1966-499c-9c1f-09f1e20fdff5","system_id":"levelo_inurba_marseille","lat":43.29261,"lon":5.3843,"is_reserved":false,"is_disabled":false,"rental_uris":{"android":"levelo://app?vid=28aa6b62-1966-499c-9c1f-09f1e20fdff5","ios":"levelo://app?vid=28aa6b62-1966-499c-9c1f-09f1e20fdff5"},"vehicle_type_id":"4","last_reported":1740690533,"current_range_meters":17200,"station_id":"ce4bh692rcd13ifvqea0","pricing_plan_id":"cebpf4jnsgd1na2vs0mg"},{"bike_id":"209b10e5-a543-4592-99a0-1f174c38bb7f","system_id":"levelo_inurba_marseille","lat":43.2925,"lon":5.36859,"is_reserved":false,"is_disabled":false,"rental_uris":{"android":"levelo://app?vid=209b10e5-a543-4592-99a0-1f174c38bb7f","ios":"levelo://app?vid=209b10e5-a543-4592-99a0-1f174c38bb7f"},"vehicle_type_id":"4","last_reported":1740690533,"current_range_meters":17200,"station_id":"ce4bhbp2rcd13ifvqesg","pricing_plan_id":"cebpf4jnsgd1na2vs0mg"},{"bike_id":"7c373590-3fd6-44dc-a774-01671497b545","system_id":"levelo_inurba_marseille","lat":43.28603,"lon":5.35081,"is_reserved":false,"is_disabled":false,"rental_uris":{"android":"levelo://app?vid=7c373590-3fd6-44dc-a774-01671497b545","ios":"levelo://app?vid=7c373590-3fd6-44dc-a774-01671497b545"},"vehicle_type_id":"4","last_reported":1740690533,"current_range_meters":17200,"station_id":"ce4bhch2rcd13ifvqeug","pricing_plan_id":"cebpf4jnsgd1na2vs0mg"},{"bike_id":"bbafa82b-56a1-4533-a6ca-e53725f29c42","system_id":"levelo_inurba_marseille","lat":43.27178,"lon":5.40996,"is_reserved":false,"is_disabled":false,"rental_uris":{"android":"levelo://app?vid=bbafa82b-56a1-4533-a6ca-e53725f29c42","ios":"levelo://app?vid=bbafa82b-56a1-4533-a6ca-e53725f29c42"},"vehicle_type_id":"4","last_reported":1740690533,"current_range_meters":17200,"station_id":"ce4bhl12rcd13ifvqgf0","pricing_plan_id":"cebpf4jnsgd1na2vs0mg"},{"bike_id":"1ec95ae8-47b1-46be-ab6f-633627e7d180","system_id":"levelo_inurba_marseille","lat":43.25099,"lon":5.39545,"is_reserved":false,"is_disabled":false,"rental_uris":{"android":"levelo://app?vid=1ec95ae8-47b1-46be-ab6f-633627e7d180","ios":"levelo://app?vid=1ec95ae8-47b1-46be-ab6f-633627e7d180"},"vehicle_type_id":"4","last_reported":1740690533,"current_range_meters":17200,"station_id":"ce4bhm12rcd13ifvqgkg","pricing_plan_id":"cebpf4jnsgd1na2vs0mg"},{"bike_id":"382d557d-8024-4f45-8140-482a40d06b19","system_id":"levelo_inurba_marseille","lat":43.27823,"lon":5.40722,"is_reserved":false,"is_disabled":false,"rental_uris":{"android":"levelo://app?vid=382d557d-8024-4f45-8140-482a40d06b19","ios":"levelo://app?vid=382d557d-8024-4f45-8140-482a40d06b19"},"vehicle_type_id":"4","last_reported":1740690533,"current_range_meters":17200,"station_id":"ce4bhnh2rcd13ifvqgtg","pricing_plan_id":"cebpf4jnsgd1na2vs0mg"},{"bike_id":"3ef19255-5c1c-4038-9633-81456dc4addd","system_id":"levelo_inurba_marseille","lat":43.28716,"lon":5.39998,"is_reserved":false,"is_disabled":false,"rental_uris":{"android":"levelo://app?vid=3ef19255-5c1c-4038-9633-81456dc4addd","ios":"levelo://app?vid=3ef19255-5c1c-4038-9633-81456dc4addd"},"vehicle_type_id":"4","last_reported":1740690533,"current_range_meters":17200,"station_id":"ce4bho92rcd13ifvqh3g","pricing_plan_id":"cebpf4jnsgd1na2vs0mg"},{"bike_id":"3eb49bd9-33e7-49d0-96db-e399467b7f23","system_id":"levelo_inurba_marseille","lat":43.2955,"lon":5.38543,"is_reserved":false,"is_disabled":false,"rental_uris":{"android":"levelo://app?vid=3eb49bd9-33e7-49d0-96db-e399467b7f23","ios":"levelo://app?vid=3eb49bd9-33e7-49d0-96db-e399467b7f23"},"vehicle_type_id":"4","last_reported":1740690533,"current_range_meters":17600,"station_id":"ce4bgih2rcd13ifvqba0","pricing_plan_id":"cebpf4jnsgd1na2vs0mg"},{"bike_id":"ab7fea1f-90ab-42c3-8a7d-29ca104bfade","system_id":"levelo_inurba_marseille","lat":43.29912,"lon":5.38152,"is_reserved":false,"is_disabled":false,"rental_uris":{"android":"levelo://app?vid=ab7fea1f-90ab-42c3-8a7d-29ca104bfade","ios":"levelo://app?vid=ab7fea1f-90ab-42c3-8a7d-29ca104bfade"},"vehicle_type_id":"4","last_reported":1740690533,"current_range_meters":17600,"station_id":"ce4bgj12rcd13ifvqbc0","pricing_plan_id":"cebpf4jnsgd1na2vs0mg"},{"bike_id":"b11c48e7-41ee-4526-90fa-a977cc78ce41","system_id":"levelo_inurba_marseille","lat":43.29924,"lon":5.37472,"is_reserved":false,"is_disabled":false,"rental_uris":{"android":"levelo://app?vid=b11c48e7-41ee-4526-90fa-a977cc78ce41","ios":"levelo://app?vid=b11c48e7-41ee-4526-90fa-a977cc78ce41"},"vehicle_type_id":"4","last_reported":1740690533,"current_range_meters":17600,"station_id":"ce4bgjh2rcd13ifvqbg0","pricing_plan_id":"cebpf4jnsgd1na2vs0mg"},{"bike_id":"8257347b-29cc-4d11-a952-5c3b319819e9","system_id":"levelo_inurba_marseille","lat":43.30336,"lon":5.40448,"is_reserved":false,"is_disabled":false,"rental_uris":{"android":"levelo://app?vid=8257347b-29cc-4d11-a952-5c3b319819e9","ios":"levelo://app?vid=8257347b-29cc-4d11-a952-5c3b319819e9"},"vehicle_type_id":"4","last_reported":1740690533,"current_range_meters":17600,"station_id":"ce4bh012rcd13ifvqd10","pricing_plan_id":"cebpf4jnsgd1na2vs0mg"},{"bike_id":"a1902ff5-75e2-435a-a1d3-538e8a5a3280","system_id":"levelo_inurba_marseille","lat":43.29434,"lon":5.38641,"is_reserved":false,"is_disabled":false,"rental_uris":{"android":"levelo://app?vid=a1902ff5-75e2-435a-a1d3-538e8a5a3280","ios":"levelo://app?vid=a1902ff5-75e2-435a-a1d3-538e8a5a3280"},"vehicle_type_id":"4","last_reported":1740690533,"current_range_meters":17600,"station_id":"ce4bh2h2rcd13ifvqdh0","pricing_plan_id":"cebpf4jnsgd1na2vs0mg"},{"bike_id":"3e4abcf6-ec74-4d4d-8722-1baf5799169b","system_id":"levelo_inurba_marseille","lat":43.28426,"lon":5.37536,"is_reserved":false,"is_disabled":false,"rental_uris":{"android":"levelo://app?vid=3e4abcf6-ec74-4d4d-8722-1baf5799169b","ios":"levelo://app?vid=3e4abcf6-ec74-4d4d-8722-1baf5799169b"},"vehicle_type_id":"4","last_reported":1740690533,"current_range_meters":17600,"station_id":"ce4bh412rcd13ifvqds0","pricing_plan_id":"cebpf4jnsgd1na2vs0mg"},{"bike_id":"c8862c8f-d4a1-484f-860a-ed0c76a479eb","system_id":"levelo_inurba_marseille","lat":43.29297,"lon":5.3846,"is_reserved":false,"is_disabled":false,"rental_uris":{"android":"levelo://app?vid=c8862c8f-d4a1-484f-860a-ed0c76a479eb","ios":"levelo://app?vid=c8862c8f-d4a1-484f-860a-ed0c76a479eb"},"vehicle_type_id":"4","last_reported":1740690533,"current_range_meters":17600,"station_id":"ce4bh692rcd13ifvqea0","pricing_plan_id":"cebpf4jnsgd1na2vs0mg"},{"bike_id":"f217c498-3769-42df-8f26-abced3d7bd76","system_id":"levelo_inurba_marseille","lat":43.29259,"lon":5.38437,"is_reserved":false,"is_disabled":false,"rental_uris":{"android":"levelo://app?vid=f217c498-3769-42df-8f26-abced3d7bd76","ios":"levelo://app?vid=f217c498-3769-42df-8f26-abced3d7bd76"},"vehicle_type_id":"4","last_reported":1740690533,"current_range_meters":17600,"station_id":"ce4bh692rcd13ifvqea0","pricing_plan_id":"cebpf4jnsgd1na2vs0mg"},{"bike_id":"281d7738-86f4-4aa7-840a-a2682cf951a3","system_id":"levelo_inurba_marseille","lat":43.29253,"lon":5.38452,"is_reserved":false,"is_disabled":false,"rental_uris":{"android":"levelo://app?vid=281d7738-86f4-4aa7-840a-a2682cf951a3","ios":"levelo://app?vid=281d7738-86f4-4aa7-840a-a2682cf951a3"},"vehicle_type_id":"4","last_reported":1740690533,"current_range_meters":17600,"station_id":"ce4bh692rcd13ifvqea0","pricing_plan_id":"cebpf4jnsgd1na2vs0mg"},{"bike_id":"ee137681-0010-4a60-9633-c2b6b9d43f5a","system_id":"levelo_inurba_marseille","lat":43.29014,"lon":5.35612,"is_reserved":false,"is_disabled":false,"rental_uris":{"android":"levelo://app?vid=ee137681-0010-4a60-9633-c2b6b9d43f5a","ios":"levelo://app?vid=ee137681-0010-4a60-9633-c2b6b9d43f5a"},"vehicle_type_id":"4","last_reported":1740690533,"current_range_meters":17600,"station_id":"ce4bhb92rcd13ifvqen0","pricing_plan_id":"cebpf4jnsgd1na2vs0mg"},{"bike_id":"049aa399-0559-45fc-81f5-576d62da6c27","system_id":"levelo_inurba_marseille","lat":43.23184,"lon":5.39992,"is_reserved":false,"is_disabled":false,"rental_uris":{"android":"levelo://app?vid=049aa399-0559-45fc-81f5-576d62da6c27","ios":"levelo://app?vid=049aa399-0559-45fc-81f5-576d62da6c27"},"vehicle_type_id":"4","last_reported":1740690533,"current_range_meters":17600,"station_id":"ce4bhn12rcd13ifvqgqg","pricing_plan_id":"cebpf4jnsgd1na2vs0mg"},{"bike_id":"364b209e-752e-45ea-b26c-06b2552c1833","system_id":"levelo_inurba_marseille","lat":43.23192,"lon":5.35559,"is_reserved":false,"is_disabled":false,"rental_uris":{"android":"levelo://app?vid=364b209e-752e-45ea-b26c-06b2552c1833","ios":"levelo://app?vid=364b209e-752e-45ea-b26c-06b2552c1833"},"vehicle_type_id":"4","last_reported":1740690533,"current_range_meters":17600,"station_id":"ce4bhu92rcd13ifvqi70","pricing_plan_id":"cebpf4jnsgd1na2vs0mg"},{"bike_id":"f0af65c5-52cc-45fa-a42a-7be9f56d0084","system_id":"levelo_inurba_marseille","lat":43.2681,"lon":5.40275,"is_reserved":false,"is_disabled":false,"rental_uris":{"android":"levelo://app?vid=f0af65c5-52cc-45fa-a42a-7be9f56d0084","ios":"levelo://app?vid=f0af65c5-52cc-45fa-a42a-7be9f56d0084"},"vehicle_type_id":"4","last_reported":1740690533,"current_range_meters":17600,"station_id":"ce501612rcd8frsf0b60","pricing_plan_id":"cebpf4jnsgd1na2vs0mg"},{"bike_id":"c644d78d-53cf-4737-bbed-357656164c7f","system_id":"levelo_inurba_marseille","lat":43.2694,"lon":5.40252,"is_reserved":false,"is_disabled":false,"rental_uris":{"android":"levelo://app?vid=c644d78d-53cf-4737-bbed-357656164c7f","ios":"levelo://app?vid=c644d78d-53cf-4737-bbed-357656164c7f"},"vehicle_type_id":"4","last_reported":1740690533,"current_range_meters":17600,"station_id":"cjm6bp8fraef2m0cb0m0","pricing_plan_id":"cebpf4jnsgd1na2vs0mg"},{"bike_id":"49e9cdc7-76a5-4b66-ae2d-61c73beb73a8","system_id":"levelo_inurba_marseille","lat":43.24176,"lon":5.36417,"is_reserved":false,"is_disabled":false,"rental_uris":{"android":"levelo://app?vid=49e9cdc7-76a5-4b66-ae2d-61c73beb73a8","ios":"levelo://app?vid=49e9cdc7-76a5-4b66-ae2d-61c73beb73a8"},"vehicle_type_id":"4","last_reported":1740690533,"current_range_meters":17600,"station_id":"cpo36qri1sfpv3e86is0","pricing_plan_id":"cebpf4jnsgd1na2vs0mg"},{"bike_id":"ee641f6b-b968-4ac7-8422-c096dd19cc13","system_id":"levelo_inurba_marseille","lat":43.31667,"lon":5.37732,"is_reserved":false,"is_disabled":false,"rental_uris":{"android":"levelo://app?vid=ee641f6b-b968-4ac7-8422-c096dd19cc13","ios":"levelo://app?vid=ee641f6b-b968-4ac7-8422-c096dd19cc13"},"vehicle_type_id":"4","last_reported":1740690533,"current_range_meters":18000,"station_id":"ce4bgth2rcd13ifvqch0","pricing_plan_id":"cebpf4jnsgd1na2vs0mg"},{"bike_id":"09b9b1ba-a68b-4280-a86f-7f7da4e66a6c","system_id":"levelo_inurba_marseille","lat":43.30879,"lon":5.3963,"is_reserved":false,"is_disabled":false,"rental_uris":{"android":"levelo://app?vid=09b9b1ba-a68b-4280-a86f-7f7da4e66a6c","ios":"levelo://app?vid=09b9b1ba-a68b-4280-a86f-7f7da4e66a6c"},"vehicle_type_id":"4","last_reported":1740690533,"current_range_meters":18000,"station_id":"ce4bh012rcd13ifvqcv0","pricing_plan_id":"cebpf4jnsgd1na2vs0mg"},{"bike_id":"8f6ce07a-cb80-4a7d-becc-27f1982f064d","system_id":"levelo_inurba_marseille","lat":43.30142,"lon":5.39878,"is_reserved":false,"is_disabled":false,"rental_uris":{"android":"levelo://app?vid=8f6ce07a-cb80-4a7d-becc-27f1982f064d","ios":"levelo://app?vid=8f6ce07a-cb80-4a7d-becc-27f1982f064d"},"vehicle_type_id":"4","last_reported":1740690533,"current_range_meters":18000,"station_id":"ce4bh0h2rcd13ifvqd40","pricing_plan_id":"cebpf4jnsgd1na2vs0mg"},{"bike_id":"b1fb4062-260d-4bc1-8eb4-2ceabe847377","system_id":"levelo_inurba_marseille","lat":43.29268,"lon":5.38445,"is_reserved":false,"is_disabled":false,"rental_uris":{"android":"levelo://app?vid=b1fb4062-260d-4bc1-8eb4-2ceabe847377","ios":"levelo://app?vid=b1fb4062-260d-4bc1-8eb4-2ceabe847377"},"vehicle_type_id":"4","last_reported":1740690533,"current_range_meters":18000,"station_id":"ce4bh692rcd13ifvqea0","pricing_plan_id":"cebpf4jnsgd1na2vs0mg"},{"bike_id":"f919809d-dd9d-4e14-85ef-be2db1b8dd2e","system_id":"levelo_inurba_marseille","lat":43.28466,"lon":5.35894,"is_reserved":false,"is_disabled":false,"rental_uris":{"android":"levelo://app?vid=f919809d-dd9d-4e14-85ef-be2db1b8dd2e","ios":"levelo://app?vid=f919809d-dd9d-4e14-85ef-be2db1b8dd2e"},"vehicle_type_id":"4","last_reported":1740690533,"current_range_meters":18000,"station_id":"ce4bhah2rcd13ifvqei0","pricing_plan_id":"cebpf4jnsgd1na2vs0mg"},{"bike_id":"f28c4288-325e-4856-b985-47228e87aa11","system_id":"levelo_inurba_marseille","lat":43.28943,"lon":5.36621,"is_reserved":false,"is_disabled":false,"rental_uris":{"android":"levelo://app?vid=f28c4288-325e-4856-b985-47228e87aa11","ios":"levelo://app?vid=f28c4288-325e-4856-b985-47228e87aa11"},"vehicle_type_id":"4","last_reported":1740690533,"current_range_meters":18000,"station_id":"ce4bhap2rcd13ifvqek0","pricing_plan_id":"cebpf4jnsgd1na2vs0mg"},{"bike_id":"021be2e4-031c-47cd-87d2-fad59fe1dabd","system_id":"levelo_inurba_marseille","lat":43.24656,"lon":5.38167,"is_reserved":false,"is_disabled":false,"rental_uris":{"android":"levelo://app?vid=021be2e4-031c-47cd-87d2-fad59fe1dabd","ios":"levelo://app?vid=021be2e4-031c-47cd-87d2-fad59fe1dabd"},"vehicle_type_id":"4","last_reported":1740690533,"current_range_meters":18000,"station_id":"ce4bhih2rcd13ifvqfr0","pricing_plan_id":"cebpf4jnsgd1na2vs0mg"},{"bike_id":"d79774a6-7426-41ac-b7c6-85789974d608","system_id":"levelo_inurba_marseille","lat":43.25587,"lon":5.38224,"is_reserved":false,"is_disabled":false,"rental_uris":{"android":"levelo://app?vid=d79774a6-7426-41ac-b7c6-85789974d608","ios":"levelo://app?vid=d79774a6-7426-41ac-b7c6-85789974d608"},"vehicle_type_id":"4","last_reported":1740690533,"current_range_meters":18000,"station_id":"ce4bhih2rcd13ifvqfs0","pricing_plan_id":"cebpf4jnsgd1na2vs0mg"},{"bike_id":"7931403b-4b79-4cdd-b272-ac84f9be8465","system_id":"levelo_inurba_marseille","lat":43.27178,"lon":5.40988,"is_reserved":false,"is_disabled":false,"rental_uris":{"android":"levelo://app?vid=7931403b-4b79-4cdd-b272-ac84f9be8465","ios":"levelo://app?vid=7931403b-4b79-4cdd-b272-ac84f9be8465"},"vehicle_type_id":"4","last_reported":1740690533,"current_range_meters":18000,"station_id":"ce4bhl12rcd13ifvqgf0","pricing_plan_id":"cebpf4jnsgd1na2vs0mg"},{"bike_id":"a14475c5-c9f2-43c4-a8b1-58cee6abeacb","system_id":"levelo_inurba_marseille","lat":43.30795,"lon":5.38176,"is_reserved":false,"is_disabled":false,"rental_uris":{"android":"levelo://app?vid=a14475c5-c9f2-43c4-a8b1-58cee6abeacb","ios":"levelo://app?vid=a14475c5-c9f2-43c4-a8b1-58cee6abeacb"},"vehicle_type_id":"4","last_reported":1740690533,"current_range_meters":18800,"station_id":"ce4bgt12rcd13ifvqce0","pricing_plan_id":"cebpf4jnsgd1na2vs0mg"},