{"last_updated":1706295883,"ttl":30,"version":"2.2","data":{"bikes":[{"bike_id":"c082e976-17d3-4b42-ba55-1162934e2c37","system_id":"levelo_inurba_marseille","lat":43.31341,"lon":5.367098,"is_reserved":false,"is_disabled":false,"rental_uris":{"android":"levelo://app?vid=c082e976-17d3-4b42-ba55-1162934e2c37","ios":"levelo://app?vid=c082e976-17d3-4b42-ba55-1162934e2c37"},"vehicle_type_id":"4","last_reported":1706295883,"current_range_meters":28800,"station_id":"ce4bgr92rcd13ifvqc6g","pricing_plan_id":"free"},{"bike_id":"ebc629f8-5aa6-40c4-ab91-6f4a5c3e7a69","system_id":"levelo_inurba_marseille","lat":43.313391,"lon":5.36706,"is_reserved":false,"is_disabled":false,"rental_uris":{"android":"levelo://app?vid=ebc629f8-5aa6-40c4-ab91-6f4a5c3e7a69","ios":"levelo://app?vid=ebc629f8-5aa6-40c4-ab91-6f4a5c3e7a69"},"vehicle_type_id":"4","last_reported":1706295883,"current_range_meters":4400,"station_id":"ce4bgr92rcd13ifvqc6g","pricing_plan_id":"free"},{"bike_id":"97c8f79d-bbb1-40a7-8db2-11bc5f9bf0ca","system_id":"levelo_inurba_marseille","lat":43.312239,"lon":5.368562,"is_reserved":false,"is_disabled":false,"rental_uris":{"android":"levelo://app?vid=97c8f79d-bbb1-40a7-8db2-11bc5f9bf0ca","ios":"levelo://app?vid=97c8f79d-bbb1-40a7-8db2-11bc5f9bf0ca"},"vehicle_type_id":"4","last_reported":1706295883,"current_range_meters":28800,"station_id":"ce4bgl92rcd13ifvqbq0","pricing_plan_id":"free"},{"bike_id":"13cede98-507f-4fcd-815c-9d27c1bdbddf","system_id":"levelo_inurba_marseille","lat":43.312239,"lon":5.368562,"is_reserved":false,"is_disabled":false,"rental_uris":{"android":"levelo://app?vid=13cede98-507f-4fcd-815c-9d27c1bdbddf","ios":"levelo://app?vid=13cede98-507f-4fcd-815c-9d27c1bdbddf"},"vehicle_type_id":"4","last_reported":1706295883,"current_range_meters":29200,"station_id":"ce4bgl92rcd13ifvqbq0","pricing_plan_id":"free"},{"bike_id":"580bb0e3-70ae-4151-bf44-1a3eae8feab4","system_id":"levelo_inurba_marseille","lat":43.312239,"lon":5.368562,"is_reserved":false,"is_disabled":false,"rental_uris":{"android":"levelo://app?vid=580bb0e3-70ae-4151-bf44-1a3eae8feab4","ios":"levelo://app?vid=580bb0e3-70ae-4151-bf44-1a3eae8feab4"},"vehicle_type_id":"4","last_reported":1706295883,"current_range_meters":20800,"station_id":"ce4bgl92rcd13ifvqbq0","pricing_plan_id":"free"},{"bike_id":"3f5f5ef1-c30b-41ba-914a-d10e75e7ad8f","system_id":"levelo_inurba_marseille","lat":43.312239,"lon":5.368562,"is_reserved":false,"is_disabled":false,"rental_uris":{"android":"levelo://app?vid=3f5f5ef1-c30b-41ba-914a-d10e75e7ad8f","ios":"levelo://app?vid=3f5f5ef1-c30b-41ba-914a-d10e75e7ad8f"},"vehicle_type_id":"4","last_reported":1706295883,"current_range_meters":31200,"station_id":"ce4bgl92rcd13ifvqbq0","pricing_plan_id":"free"},{"bike_id":"43857cb6-fa50-4513-90f5-f4ba949b80a2","system_id":"levelo_inurba_marseille","lat":43.312239,"lon":5.368562,"is_reserved":false,"is_disabled":false,"rental_uris":{"android":"levelo://app?vid=43857cb6-fa50-4513-90f5-f4ba949b80a2","ios":"levelo://app?vid=43857cb6-fa50-4513-90f5-f4ba949b80a2"},"vehicle_type_id":"4","last_reported":1706295883,"current_range_meters":23200,"station_id":"ce4bgl92rcd13ifvqbq0","pricing_plan_id":"free"},{"bike_id":"e72d0881-a2f6-4a86-8b7e-382be4a3190b","system_id":"levelo_inurba_marseille","lat":43.312239,"lon":5.368562,"is_reserved":false,"is_disabled":false,"rental_uris":{"android":"levelo://app?vid=e72d0881-a2f6-4a86-8b7e-382be4a3190b","ios":"levelo://app?vid=e72d0881-a2f6-4a86-8b7e-382be4a3190b"},"vehicle_type_id":"4","last_reported":1706295883,"current_range_meters":31200,"station_id":"ce4bgl92rcd13ifvqbq0","pricing_plan_id":"free"},{"bike_id":"a2dae924-a926-4d64-b1d0-4a401368e23a","system_id":"levelo_inurba_marseille","lat":43.309076,"lon":5.368465,"is_reserved":false,"is_disabled":false,"rental_uris":{"android":"levelo://app?vid=a2dae924-a926-4d64-b1d0-4a401368e23a","ios":"levelo://app?vid=a2dae924-a926-4d64-b1d0-4a401368e23a"},"vehicle_type_id":"4","last_reported":1706295883,"current_range_meters":0,"station_id":"ce4bgn92rcd13ifvqbvg","pricing_plan_id":"free"},{"bike_id":"45007c02-cd25-44d1-a9a1-5478e82313cb","system_id":"levelo_inurba_marseille","lat":43.314811,"lon":5.373104,"is_reserved":false,"is_disabled":false,"rental_uris":{"android":"levelo://app?vid=45007c02-cd25-44d1-a9a1-5478e82313cb","ios":"levelo://app?vid=45007c02-cd25-44d1-a9a1-5478e82313cb"},"vehicle_type_id":"4","last_reported":1706295883,"current_range_meters":18000,"station_id":"ce4bgt12rcd13ifvqcd0","pricing_plan_id":"free"},{"bike_id":"0f98a6e5-13fc-43c5-ab8f-e38207e81745","system_id":"levelo_inurba_marseille","lat":43.309039,"lon":5.371797,"is_reserved":false,"is_disabled":false,"rental_uris":{"android":"levelo://app?vid=0f98a6e5-13fc-43c5-ab8f-e38207e81745","ios":"levelo://app?vid=0f98a6e5-13fc-43c5-ab8f-e38207e81745"},"vehicle_type_id":"4","last_reported":1706295883,"current_range_meters":4000,"station_id":"ce4bguh2rcd13ifvqckg","pricing_plan_id":"free"},{"bike_id":"43f2e9a3-4e4c-4d41-8a34-9514a3e6c5d3","system_id":"levelo_inurba_marseille","lat":43.316055,"lon":5.37306,"is_reserved":false,"is_disabled":false,"rental_uris":{"android":"levelo://app?vid=43f2e9a3-4e4c-4d41-8a34-9514a3e6c5d3","ios":"levelo://app?vid=43f2e9a3-4e4c-4d41-8a34-9514a3e6c5d3"},"vehicle_type_id":"4","last_reported":1706295883,"current_range_meters":8800,"station_id":"","pricing_plan_id":"free"},{"bike_id":"9443e511-2e2d-41e7-a2cd-4c95bf03992f","system_id":"levelo_inurba_marseille","lat":43.31356,"lon":5.37622,"is_reserved":false,"is_disabled":false,"rental_uris":{"android":"levelo://app?vid=9443e511-2e2d-41e7-a2cd-4c95bf03992f","ios":"levelo://app?vid=9443e511-2e2d-41e7-a2cd-4c95bf03992f"},"vehicle_type_id":"4","last_reported":1706295883,"current_range_meters":10400,"station_id":"","pricing_plan_id":"free"},{"bike_id":"c7ce385f-76b2-41f6-ae05-cae5605b7d76","system_id":"levelo_inurba_marseille","lat":43.30549,"lon":5.36529,"is_reserved":false,"is_disabled":false,"rental_uris":{"android":"levelo://app?vid=c7ce385f-76b2-41f6-ae05-cae5605b7d76","ios":"levelo://app?vid=c7ce385f-76b2-41f6-ae05-cae5605b7d76"},"vehicle_type_id":"4","last_reported":1706295883,"current_range_meters":0,"station_id":"ce4bgs12rcd13ifvqcag","pricing_plan_id":"free"},{"bike_id":"babb9706-e766-4764-92fc-8c252d809aef","system_id":"levelo_inurba_marseille","lat":43.305712,"lon":5.365641,"is_reserved":false,"is_disabled":false,"rental_uris":{"android":"levelo://app?vid=babb9706-e766-4764-92fc-8c252d809aef","ios":"levelo://app?vid=babb9706-e766-4764-92fc-8c252d809aef"},"vehicle_type_id":"4","last_reported":1706295883,"current_range_meters":0,"station_id":"ce4bgs12rcd13ifvqcag","pricing_plan_id":"free"},{"bike_id":"42c4f669-217f-435a-ab1e-b23c519b4fdd","system_id":"levelo_inurba_marseille","lat":43.30541,"lon":5.3654,"is_reserved":false,"is_disabled":false,"rental_uris":{"android":"levelo://app?vid=42c4f669-217f-435a-ab1e-b23c519b4fdd","ios":"levelo://app?vid=42c4f669-217f-435a-ab1e-b23c519b4fdd"},"vehicle_type_id":"4","last_reported":1706295883,"current_range_meters":20000,"station_id":"ce4bgs12rcd13ifvqcag","pricing_plan_id":"free"},{"bike_id":"6321a585-6197-49df-8472-020750facfb9","system_id":"levelo_inurba_marseille","lat":43.3054,"lon":5.36532,"is_reserved":false,"is_disabled":false,"rental_uris":{"android":"levelo://app?vid=6321a585-6197-49df-8472-020750facfb9","ios":"levelo://app?vid=6321a585-6197-49df-8472-020750facfb9"},"vehicle_type_id":"4","last_reported":1706295883,"current_range_meters":0,"station_id":"ce4bgs12rcd13ifvqcag","pricing_plan_id":"free"},{"bike_id":"b9f6ac85-c92a-431c-bc36-81aa9b4e5293","system_id":"levelo_inurba_marseille","lat":43.30494,"lon":5.36709,"is_reserved":false,"is_disabled":false,"rental_uris":{"android":"levelo://app?vid=b9f6ac85-c92a-431c-bc36-81aa9b4e5293","ios":"levelo://app?vid=b9f6ac85-c92a-431c-bc36-81aa9b4e5293"},"vehicle_type_id":"4","last_reported":1706295883,"current_range_meters":0,"station_id":"","pricing_plan_id":"free"},{"bike_id":"79fabada-136e-4926-9b9e-ddd3b214f6b0","system_id":"levelo_inurba_marseille","lat":43.305989,"lon":5.37225,"is_reserved":false,"is_disabled":false,"rental_uris":{"android":"levelo://app?vid=79fabada-136e-4926-9b9e-ddd3b214f6b0","ios":"levelo://app?vid=79fabada-136e-4926-9b9e-ddd3b214f6b0"},"vehicle_type_id":"4","last_reported":1706295883,"current_range_meters":27200,"station_id":"ce4bgqh2rcd13ifvqc4g","pricing_plan_id":"free"},{"bike_id":"7c81727c-5265-4d7c-9735-708db1b3fe50","system_id":"levelo_inurba_marseille","lat":43.311265,"lon":5.377568,"is_reserved":false,"is_disabled":false,"rental_uris":{"android":"levelo://app?vid=7c81727c-5265-4d7c-9735-708db1b3fe50","ios":"levelo://app?vid=7c81727c-5265-4d7c-9735-708db1b3fe50"},"vehicle_type_id":"4","last_reported":1706295883,"current_range_meters":0,"station_id":"ce4bgt92rcd13ifvqcg0","pricing_plan_id":"free"},{"bike_id":"dab81cdb-bc10-4db4-883c-f9ebc32f6768","system_id":"levelo_inurba_marseille","lat":43.305989,"lon":5.37225,"is_reserved":false,"is_disabled":false,"rental_uris":{"android":"levelo://app?vid=dab81cdb-bc10-4db4-883c-f9ebc32f6768","ios":"levelo://app?vid=dab81cdb-bc10-4db4-883c-f9ebc32f6768"},"vehicle_type_id":"4","last_reported":1706295883,"current_range_meters":16000,"station_id":"ce4bgqh2rcd13ifvqc4g","pricing_plan_id":"free"},{"bike_id":"0e11932e-17b7-4146-8e63-2f6f24b1e8ce","system_id":"levelo_inurba_marseille","lat":43.30784,"lon":5.37651,"is_reserved":false,"is_disabled":false,"rental_uris":{"android":"levelo://app?vid=0e11932e-17b7-4146-8e63-2f6f24b1e8ce","ios":"levelo://app?vid=0e11932e-17b7-4146-8e63-2f6f24b1e8ce"},"vehicle_type_id":"4","last_reported":1706295883,"current_range_meters":0,"station_id":"ce4bgv92rcd13ifvqcq0","pricing_plan_id":"free"},{"bike_id":"b7b60819-8423-4acd-a48e-3e86ce2635a7","system_id":"levelo_inurba_marseille","lat":43.317075,"lon":5.377367,"is_reserved":false,"is_disabled":false,"rental_uris":{"android":"levelo://app?vid=b7b60819-8423-4acd-a48e-3e86ce2635a7","ios":"levelo://app?vid=b7b60819-8423-4acd-a48e-3e86ce2635a7"},"vehicle_type_id":"4","last_reported":1706295883,"current_range_meters":26000,"station_id":"ce4bgth2rcd13ifvqch0","pricing_plan_id":"free"},{"bike_id":"52a9a8b6-e56d-4bcd-a558-12044da36464","system_id":"levelo_inurba_marseille","lat":43.317063,"lon":5.3774,"is_reserved":false,"is_disabled":false,"rental_uris":{"android":"levelo://app?vid=52a9a8b6-e56d-4bcd-a558-12044da36464","ios":"levelo://app?vid=52a9a8b6-e56d-4bcd-a558-12044da36464"},"vehicle_type_id":"4","last_reported":1706295883,"current_range_meters":6800,"station_id":"ce4bgth2rcd13ifvqch0","pricing_plan_id":"free"},{"bike_id":"183bb1c1-398f-466c-b05d-327ac4efc436","system_id":"levelo_inurba_marseille","lat":43.31719,"lon":5.37754,"is_reserved":false,"is_disabled":false,"rental_uris":{"android":"levelo://app?vid=183bb1c1-398f-466c-b05d-327ac4efc436","ios":"levelo://app?vid=183bb1c1-398f-466c-b05d-327ac4efc436"},"vehicle_type_id":"4","last_reported":1706295883,"current_range_meters":17600,"station_id":"ce4bgth2rcd13ifvqch0","pricing_plan_id":"free"},{"bike_id":"5b0a56ae-3d70-40f6-ad3f-78c604f89c73","system_id":"levelo_inurba_marseille","lat":43.312513,"lon":5.379905,"is_reserved":false,"is_disabled":false,"rental_uris":{"android":"levelo://app?vid=5b0a56ae-3d70-40f6-ad3f-78c604f89c73","ios":"levelo://app?vid=5b0a56ae-3d70-40f6-ad3f-78c604f89c73"},"vehicle_type_id":"4","last_reported":1706295883,"current_range_meters":16000,"station_id":"","pricing_plan_id":"free"},{"bike_id":"cd421b02-40af-4f1c-938d-2e4b4fcf780b","system_id":"levelo_inurba_marseille","lat":43.303046,"lon":5.368981,"is_reserved":false,"is_disabled":false,"rental_uris":{"android":"levelo://app?vid=cd421b02-40af-4f1c-938d-2e4b4fcf780b","ios":"levelo://app?vid=cd421b02-40af-4f1c-938d-2e4b4fcf780b"},"vehicle_type_id":"4","last_reported":1706295883,"current_range_meters":2400,"station_id":"ce4bgqh2rcd13ifvqc5g","pricing_plan_id":"free"},{"bike_id":"d4ad2f71-ba25-445b-906b-77386692d586","system_id":"levelo_inurba_marseille","lat":43.301939,"lon":5.366286,"is_reserved":false,"is_disabled":false,"rental_uris":{"android":"levelo://app?vid=d4ad2f71-ba25-445b-906b-77386692d586","ios":"levelo://app?vid=d4ad2f71-ba25-445b-906b-77386692d586"},"vehicle_type_id":"4","last_reported":1706295883,"current_range_meters":23600,"station_id":"ce4bgrh2rcd13ifvqc8g","pricing_plan_id":"free"},{"bike_id":"401de5aa-59ac-4310-a928-f7f0ea69f5c5","system_id":"levelo_inurba_marseille","lat":43.301939,"lon":5.366286,"is_reserved":false,"is_disabled":false,"rental_uris":{"android":"levelo://app?vid=401de5aa-59ac-4310-a928-f7f0ea69f5c5","ios":"levelo://app?vid=401de5aa-59ac-4310-a928-f7f0ea69f5c5"},"vehicle_type_id":"4","last_reported":1706295883,"current_range_meters":400,"station_id":"ce4bgrh2rcd13ifvqc8g","pricing_plan_id":"free"},{"bike_id":"bb27076b-a58d-48c4-8410-9fe4f5874f2e","system_id":"levelo_inurba_marseille","lat":43.301939,"lon":5.366286,"is_reserved":false,"is_disabled":false,"rental_uris":{"android":"levelo://app?vid=bb27076b-a58d-48c4-8410-9fe4f5874f2e","ios":"levelo://app?vid=bb27076b-a58d-48c4-8410-9fe4f5874f2e"},"vehicle_type_id":"4","last_reported":1706295883,"current_range_meters":21600,"station_id":"ce4bgrh2rcd13ifvqc8g","pricing_plan_id":"free"},{"bike_id":"b10b8257-da82-4103-a35a-149a4b51fd60","system_id":"levelo_inurba_marseille","lat":43.308012,"lon":5.381511,"is_reserved":false,"is_disabled":false,"rental_uris":{"android":"levelo://app?vid=b10b8257-da82-4103-a35a-149a4b51fd60","ios":"levelo://app?vid=b10b8257-da82-4103-a35a-149a4b51fd60"},"vehicle_type_id":"4","last_reported":1706295883,"current_range_meters":0,"station_id":"ce4bgt12rcd13ifvqce0","pricing_plan_id":"free"},{"bike_id":"a098c1b5-a753-48ea-a8fd-2a8c640c479c","system_id":"levelo_inurba_marseille","lat":43.304606,"lon":5.379026,"is_reserved":false,"is_disabled":false,"rental_uris":{"android":"levelo://app?vid=a098c1b5-a753-48ea-a8fd-2a8c640c479c","ios":"levelo://app?vid=a098c1b5-a753-48ea-a8fd-2a8c640c479c"},"vehicle_type_id":"4","last_reported":1706295883,"current_range_meters":2800,"station_id":"ce4bgup2rcd13ifvqcn0","pricing_plan_id":"free"},{"bike_id":"f5e53298-ffe6-4097-93c4-e7d28e749268","system_id":"levelo_inurba_marseille","lat":43.304606,"lon":5.379026,"is_reserved":false,"is_disabled":false,"rental_uris":{"android":"levelo://app?vid=f5e53298-ffe6-4097-93c4-e7d28e749268","ios":"levelo://app?vid=f5e53298-ffe6-4097-93c4-e7d28e749268"},"vehicle_type_id":"4","last_reported":1706295883,"current_range_meters":4800,"station_id":"ce4bgup2rcd13ifvqcn0","pricing_plan_id":"free"},{"bike_id":"62bed114-0fed-4ddf-b207-16e3733a813c","system_id":"levelo_inurba_marseille","lat":43.308012,"lon":5.381511,"is_reserved":false,"is_disabled":false,"rental_uris":{"android":"levelo://app?vid=62bed114-0fed-4ddf-b207-16e3733a813c","ios":"levelo://app?vid=62bed114-0fed-4ddf-b207-16e3733a813c"},"vehicle_type_id":"4","last_reported":1706295883,"current_range_meters":14000,"station_id":"ce4bgt12rcd13ifvqce0","pricing_plan_id":"free"},{"bike_id":"d20eb7e9-cf29-463d-9e73-0bc301e970b5","system_id":"levelo_inurba_marseille","lat":43.324771,"lon":5.36557,"is_reserved":false,"is_disabled":false,"rental_uris":{"android":"levelo://app?vid=d20eb7e9-cf29-463d-9e73-0bc301e970b5","ios":"levelo://app?vid=d20eb7e9-cf29-463d-9e73-0bc301e970b5"},"vehicle_type_id":"4","last_reported":1706295883,"current_range_meters":24400,"station_id":"ce4bhs12rcd13ifvqhvg","pricing_plan_id":"free"},{"bike_id":"e3cfa974-2663-4965-a96a-f55f3013619c","system_id":"levelo_inurba_marseille","lat":43.324771,"lon":5.36557,"is_reserved":false,"is_disabled":false,"rental_uris":{"android":"levelo://app?vid=e3cfa974-2663-4965-a96a-f55f3013619c","ios":"levelo://app?vid=e3cfa974-2663-4965-a96a-f55f3013619c"},"vehicle_type_id":"4","last_reported":1706295883,"current_range_meters":7600,"station_id":"ce4bhs12rcd13ifvqhvg","pricing_plan_id":"free"},{"bike_id":"ec40115e-0430-4944-8ece-51306c67ea7e","system_id":"levelo_inurba_marseille","lat":43.324771,"lon":5.36557,"is_reserved":false,"is_disabled":false,"rental_uris":{"android":"levelo://app?vid=ec40115e-0430-4944-8ece-51306c67ea7e","ios":"levelo://app?vid=ec40115e-0430-4944-8ece-51306c67ea7e"},"vehicle_type_id":"4","last_reported":1706295883,"current_range_meters":18400,"station_id":"ce4bhs12rcd13ifvqhvg","pricing_plan_id":"free"},{"bike_id":"fc51b747-b33f-40c9-9c2c-bd6f886bc3e2","system_id":"levelo_inurba_marseille","lat":43.319888,"lon":5.381428,"is_reserved":false,"is_disabled":false,"rental_uris":{"android":"levelo://app?vid=fc51b747-b33f-40c9-9c2c-bd6f886bc3e2","ios":"levelo://app?vid=fc51b747-b33f-40c9-9c2c-bd6f886bc3e2"},"vehicle_type_id":"4","last_reported":1706295883,"current_range_meters":13600,"station_id":"ce4bhr12rcd13ifvqhpg","pricing_plan_id":"free"},{"bike_id":"01533f59-2c23-4279-b5fa-c0608335cf09","system_id":"levelo_inurba_marseille","lat":43.319934,"lon":5.381394,"is_reserved":false,"is_disabled":false,"rental_uris":{"android":"levelo://app?vid=01533f59-2c23-4279-b5fa-c0608335cf09","ios":"levelo://app?vid=01533f59-2c23-4279-b5fa-c0608335cf09"},"vehicle_type_id":"4","last_reported":1706295883,"current_range_meters":1200,"station_id":"ce4bhr12rcd13ifvqhpg","pricing_plan_id":"free"},{"bike_id":"fd388e30-6c90-4fbf-abdf-dd15ef425659","system_id":"levelo_inurba_marseille","lat":43.319967,"lon":5.381565,"is_reserved":false,"is_disabled":false,"rental_uris":{"android":"levelo://app?vid=fd388e30-6c90-4fbf-abdf-dd15ef425659","ios":"levelo://app?vid=fd388e30-6c90-4fbf-abdf-dd15ef425659"},"vehicle_type_id":"4","last_reported":1706295883,"current_range_meters":9600,"station_id":"ce4bhr12rcd13ifvqhpg","pricing_plan_id":"free"},{"bike_id":"5f7ec9ca-defa-4048-96f4-b62ebd1a927a","system_id":"levelo_inurba_marseille","lat":43.319935,"lon":5.381699,"is_reserved":false,"is_disabled":false,"rental_uris":{"android":"levelo://app?vid=5f7ec9ca-defa-4048-96f4-b62ebd1a927a","ios":"levelo://app?vid=5f7ec9ca-defa-4048-96f4-b62ebd1a927a"},"vehicle_type_id":"4","last_reported":1706295883,"current_range_meters":22000,"station_id":"ce4bhr12rcd13ifvqhpg","pricing_plan_id":"free"},{"bike_id":"fbd1c7c8-59f4-40f3-bd13-92a41198f404","system_id":"levelo_inurba_marseille","lat":43.319935,"lon":5.381699,"is_reserved":false,"is_disabled":false,"rental_uris":{"android":"levelo://app?vid=fbd1c7c8-59f4-40f3-bd13-92a41198f404","ios":"levelo://app?vid=fbd1c7c8-59f4-40f3-bd13-92a41198f404"},"vehicle_type_id":"4","last_reported":1706295883,"current_range_meters":19600,"station_id":"ce4bhr12rcd13ifvqhpg","pricing_plan_id":"free"},{"bike_id":"ae7ab608-8fac-4c0d-9f43-8ffacb07a49d","system_id":"levelo_inurba_marseille","lat":43.319935,"lon":5.381699,"is_reserved":false,"is_disabled":false,"rental_uris":{"android":"levelo://app?vid=ae7ab608-8fac-4c0d-9f43-8ffacb07a49d","ios":"levelo://app?vid=ae7ab608-8fac-4c0d-9f43-8ffacb07a49d"},"vehicle_type_id":"4","last_reported":1706295883,"current_range_meters":10800,"station_id":"ce4bhr12rcd13ifvqhpg","pricing_plan_id":"free"},{"bike_id":"8b046161-6dc9-460f-b134-2023dde79010","system_id":"levelo_inurba_marseille","lat":43.30008,"lon":5.37143,"is_reserved":false,"is_disabled":false,"rental_uris":{"android":"levelo://app?vid=8b046161-6dc9-460f-b134-2023dde79010","ios":"levelo://app?vid=8b046161-6dc9-460f-b134-2023dde79010"},"vehicle_type_id":"4","last_reported":1706295883,"current_range_meters":16000,"station_id":"","pricing_plan_id":"free"},{"bike_id":"b2c50230-cc4d-4dad-92cb-6de6eaacfbb6","system_id":"levelo_inurba_marseille","lat":43.299222,"lon":5.365554,"is_reserved":false,"is_disabled":false,"rental_uris":{"android":"levelo://app?vid=b2c50230-cc4d-4dad-92cb-6de6eaacfbb6","ios":"levelo://app?vid=b2c50230-cc4d-4dad-92cb-6de6eaacfbb6"},"vehicle_type_id":"4","last_reported":1706295883,"current_range_meters":12400,"station_id":"ce4bgm92rcd13ifvqbr0","pricing_plan_id":"free"},{"bike_id":"86ca605a-48b3-433c-9666-07c3c5ac4379","system_id":"levelo_inurba_marseille","lat":43.318431,"lon":5.384275,"is_reserved":false,"is_disabled":false,"rental_uris":{"android":"levelo://app?vid=86ca605a-48b3-433c-9666-07c3c5ac4379","ios":"levelo://app?vid=86ca605a-48b3-433c-9666-07c3c5ac4379"},"vehicle_type_id":"4","last_reported":1706295883,"current_range_meters":1200,"station_id":"","pricing_plan_id":"free"},{"bike_id":"3360088d-7d29-4438-a74e-2c11fc02724b","system_id":"levelo_inurba_marseille","lat":43.305364,"lon":5.384119,"is_reserved":false,"is_disabled":false,"rental_uris":{"android":"levelo://app?vid=3360088d-7d29-4438-a74e-2c11fc02724b","ios":"levelo://app?vid=3360088d-7d29-4438-a74e-2c11fc02724b"},"vehicle_type_id":"4","last_reported":1706295883,"current_range_meters":24800,"station_id":"ce4bgg92rcd13ifvqb30","pricing_plan_id":"free"},{"bike_id":"1e539be3-60d3-43d3-b1b0-af89381afdba","system_id":"levelo_inurba_marseille","lat":43.299243,"lon":5.37481,"is_reserved":false,"is_disabled":false,"rental_uris":{"android":"levelo://app?vid=1e539be3-60d3-43d3-b1b0-af89381afdba","ios":"levelo://app?vid=1e539be3-60d3-43d3-b1b0-af89381afdba"},"vehicle_type_id":"4","last_reported":1706295883,"current_range_meters":0,"station_id":"ce4bgjh2rcd13ifvqbg0","pricing_plan_id":"free"},{"bike_id":"f0de8c17-3dc0-43ef-b8ae-ce7da35c61df","system_id":"levelo_inurba_marseille","lat":43.299028,"lon":5.381509,"is_reserved":false,"is_disabled":false,"rental_uris":{"android":"levelo://app?vid=f0de8c17-3dc0-43ef-b8ae-ce7da35c61df","ios":"levelo://app?vid=f0de8c17-3dc0-43ef-b8ae-ce7da35c61df"},"vehicle_type_id":"4","last_reported":1706295883,"current_range_meters":21200,"station_id":"ce4bgj12rcd13ifvqbc0","pricing_plan_id":"free"},{"bike_id":"987d31d6-d49e-438a-a771-ffb48eff198f","system_id":"levelo_inurba_marseille","lat":43.297794,"lon":5.370888,"is_reserved":false,"is_disabled":false,"rental_uris":{"android":"levelo://app?vid=987d31d6-d49e-438a-a771-ffb48eff198f","ios":"levelo://app?vid=987d31d6-d49e-438a-a771-ffb48eff198f"},"vehicle_type_id":"4","last_reported":1706295883,"current_range_meters":22000,"station_id":"ce4bgop2rcd13ifvqc1g","pricing_plan_id":"free"},{"bike_id":"954978ec-5c69-45bc-8603-a76c94a9ea2f","system_id":"levelo_inurba_marseille","lat":43.322872,"lon":5.382756,"is_reserved":false,"is_disabled":false,"rental_uris":{"android":"levelo://app?vid=954978ec-5c69-45bc-8603-a76c94a9ea2f","ios":"levelo://app?vid=954978ec-5c69-45bc-8603-a76c94a9ea2f"},"vehicle_type_id":"4","last_reported":1706295883,"current_range_meters":15600,"station_id":"ce4bhr12rcd13ifvqhqg","pricing_plan_id":"free"},{"bike_id":"f214340b-fc6d-45b4-9d29-cd6d0825c5a2","system_id":"levelo_inurba_marseille","lat":43.322872,"lon":5.382756,"is_reserved":false,"is_disabled":false,"rental_uris":{"android":"levelo://app?vid=f214340b-fc6d-45b4-9d29-cd6d0825c5a2","ios":"levelo://app?vid=f214340b-fc6d-45b4-9d29-cd6d0825c5a2"},"vehicle_type_id":"4","last_reported":1706295883,"current_range_meters":22000,"station_id":"ce4bhr12rcd13ifvqhqg","pricing_plan_id":"free"},{"bike_id":"8889a62b-f08d-43d6-bbc3-74d3cb3d445f","system_id":"levelo_inurba_marseille","lat":43.322872,"lon":5.382756,"is_reserved":false,"is_disabled":false,"rental_uris":{"android":"levelo://app?vid=8889a62b-f08d-43d6-bbc3-74d3cb3d445f","ios":"levelo://app?vid=8889a62b-f08d-43d6-bbc3-74d3cb3d445f"},"vehicle_type_id":"4","last_reported":1706295883,"current_range_meters":30000,"station_id":"ce4bhr12rcd13ifvqhqg","pricing_plan_id":"free"},{"bike_id":"bb5cc78f-0a25-43e2-927a-9d5a0eeb06b6","system_id":"levelo_inurba_marseille","lat":43.32292,"lon":5.38268,"is_reserved":false,"is_disabled":false,"rental_uris":{"android":"levelo://app?vid=bb5cc78f-0a25-43e2-927a-9d5a0eeb06b6","ios":"levelo://app?vid=bb5cc78f-0a25-43e2-927a-9d5a0eeb06b6"},"vehicle_type_id":"4","last_reported":1706295883,"current_range_meters":20000,"station_id":"ce4bhr12rcd13ifvqhqg","pricing_plan_id":"free"},{"bike_id":"ef5c6378-e000-405f-ab30-38f17e98c38f","system_id":"levelo_inurba_marseille","lat":43.322872,"lon":5.382756,"is_reserved":false,"is_disabled":false,"rental_uris":{"android":"levelo://app?vid=ef5c6378-e000-405f-ab30-38f17e98c38f","ios":"levelo://app?vid=ef5c6378-e000-405f-ab30-38f17e98c38f"},"vehicle_type_id":"4","last_reported":1706295883,"current_range_meters":10400,"station_id":"ce4bhr12rcd13ifvqhqg","pricing_plan_id":"free"},{"bike_id":"531fcb4a-669a-4e43-9f9f-b21295ec1570","system_id":"levelo_inurba_marseille","lat":43.29679,"lon":5.36576,"is_reserved":false,"is_disabled":false,"rental_uris":{"android":"levelo://app?vid=531fcb4a-669a-4e43-9f9f-b21295ec1570","ios":"levelo://app?vid=531fcb4a-669a-4e43-9f9f-b21295ec1570"},"vehicle_type_id":"4","last_reported":1706295883,"current_range_meters":5600,"station_id":"ce4bgn12rcd13ifvqbt0","pricing_plan_id":"free"},{"bike_id":"101d3380-ece7-47ef-9682-1a2d65abf6fe","system_id":"levelo_inurba_marseille","lat":43.296129,"lon":5.370777,"is_reserved":false,"is_disabled":false,"rental_uris":{"android":"levelo://app?vid=101d3380-ece7-47ef-9682-1a2d65abf6fe","ios":"levelo://app?vid=101d3380-ece7-47ef-9682-1a2d65abf6fe"},"vehicle_type_id":"4","last_reported":1706295883,"current_range_meters":31200,"station_id":"ce4bgnh2rcd13ifvqc0g","pricing_plan_id":"free"},{"bike_id":"d08da0c7-dd85-4a37-93b4-eb33b7279545","system_id":"levelo_inurba_marseille","lat":43.296129,"lon":5.370777,"is_reserved":false,"is_disabled":false,"rental_uris":{"android":"levelo://app?vid=d08da0c7-dd85-4a37-93b4-eb33b7279545","ios":"levelo://app?vid=d08da0c7-dd85-4a37-93b4-eb33b7279545"},"vehicle_type_id":"4","last_reported":1706295883,"current_range_meters":31200,"station_id":"ce4bgnh2rcd13ifvqc0g","pricing_plan_id":"free"},{"bike_id":"ce81dbdf-122e-47ac-b411-289e2d4c0a85","system_id":"levelo_inurba_marseille","lat":43.29573,"lon":5.367355,"is_reserved":false,"is_disabled":false,"rental_uris":{"android":"levelo://app?vid=ce81dbdf-122e-47ac-b411-289e2d4c0a85","ios":"levelo://app?vid=ce81dbdf-122e-47ac-b411-289e2d4c0a85"},"vehicle_type_id":"4","last_reported":1706295883,"current_range_meters":29200,"station_id":"ce4bgph2rcd13ifvqc2g","pricing_plan_id":"free"},{"bike_id":"6cb34488-bbb4-478f-9ae2-366ef13ddea8","system_id":"levelo_inurba_marseille","lat":43.29573,"lon":5.367355,"is_reserved":false,"is_disabled":false,"rental_uris":{"android":"levelo://app?vid=6cb34488-bbb4-478f-9ae2-366ef13ddea8","ios":"levelo://app?vid=6cb34488-bbb4-478f-9ae2-366ef13ddea8"},"vehicle_type_id":"4","last_reported":1706295883,"current_range_meters":24400,"station_id":"ce4bgph2rcd13ifvqc2g","pricing_plan_id":"free"},{"bike_id":"3464839f-cce0-4ad9-b7cc-def95e159fce","system_id":"levelo_inurba_marseille","lat":43.299028,"lon":5.381509,"is_reserved":false,"is_disabled":false,"rental_uris":{"android":"levelo://app?vid=3464839f-cce0-4ad9-b7cc-def95e159fce","ios":"levelo://app?vid=3464839f-cce0-4ad9-b7cc-def95e159fce"},"vehicle_type_id":"4","last_reported":1706295883,"current_range_meters":7200,"station_id":"ce4bgj12rcd13ifvqbc0","pricing_plan_id":"free"},{"bike_id":"d1933566-0777-4d37-bbd1-b844df82be9e","system_id":"levelo_inurba_marseille","lat":43.299028,"lon":5.381509,"is_reserved":false,"is_disabled":false,"rental_uris":{"android":"levelo://app?vid=d1933566-0777-4d37-bbd1-b844df82be9e","ios":"levelo://app?vid=d1933566-0777-4d37-bbd1-b844df82be9e"},"vehicle_type_id":"4","last_reported":1706295883,"current_range_meters":2000,"station_id":"ce4bgj12rcd13ifvqbc0","pricing_plan_id":"free"},{"bike_id":"cd1d7e21-a063-44a3-8f50-c5fa4946e4e8","system_id":"levelo_inurba_marseille","lat":43.296935,"lon":5.376544,"is_reserved":false,"is_disabled":false,"rental_uris":{"android":"levelo://app?vid=cd1d7e21-a063-44a3-8f50-c5fa4946e4e8","ios":"levelo://app?vid=cd1d7e21-a063-44a3-8f50-c5fa4946e4e8"},"vehicle_type_id":"4","last_reported":1706295883,"current_range_meters":11600,"station_id":"ce4bgkh2rcd13ifvqbl0","pricing_plan_id":"free"},{"bike_id":"30cc74d4-c9c0-4879-bc5b-4ed675ea12fc","system_id":"levelo_inurba_marseille","lat":43.317557,"lon":5.390173,"is_reserved":false,"is_disabled":false,"rental_uris":{"android":"levelo://app?vid=30cc74d4-c9c0-4879-bc5b-4ed675ea12fc","ios":"levelo://app?vid=30cc74d4-c9c0-4879-bc5b-4ed675ea12fc"},"vehicle_type_id":"4","last_reported":1706295883,"current_range_meters":16400,"station_id":"ce4bhqp2rcd13ifvqhng","pricing_plan_id":"free"},{"bike_id":"9eee8bba-9f6c-4442-90f7-b9b7f8a147bb","system_id":"levelo_inurba_marseille","lat":43.317557,"lon":5.390173,"is_reserved":false,"is_disabled":false,"rental_uris":{"android":"levelo://app?vid=9eee8bba-9f6c-4442-90f7-b9b7f8a147bb","ios":"levelo://app?vid=9eee8bba-9f6c-4442-90f7-b9b7f8a147bb"},"vehicle_type_id":"4","last_reported":1706295883,"current_range_meters":22400,"station_id":"ce4bhqp2rcd13ifvqhng","pricing_plan_id":"free"},{"bike_id":"39475547-4374-426a-84c3-16554e0c49d2","system_id":"levelo_inurba_marseille","lat":43.317557,"lon":5.390173,"is_reserved":false,"is_disabled":false,"rental_uris":{"android":"levelo://app?vid=39475547-4374-426a-84c3-16554e0c49d2","ios":"levelo://app?vid=39475547-4374-426a-84c3-16554e0c49d2"},"vehicle_type_id":"4","last_reported":1706295883,"current_range_meters":3600,"station_id":"ce4bhqp2rcd13ifvqhng","pricing_plan_id":"free"},{"bike_id":"110504c4-9181-4917-abad-9a87ed972aeb","system_id":"levelo_inurba_marseille","lat":43.317557,"lon":5.390173,"is_reserved":false,"is_disabled":false,"rental_uris":{"android":"levelo://app?vid=110504c4-9181-4917-abad-9a87ed972aeb","ios":"levelo://app?vid=110504c4-9181-4917-abad-9a87ed972aeb"},"vehicle_type_id":"4","last_reported":1706295883,"current_range_meters":6000,"station_id":"ce4bhqp2rcd13ifvqhng","pricing_plan_id":"free"},{"bike_id":"af9f98fc-1b38-483c-9bb8-cf5dbd0ec1e8","system_id":"levelo_inurba_marseille","lat":43.317557,"lon":5.390173,"is_reserved":false,"is_disabled":false,"rental_uris":{"android":"levelo://app?vid=af9f98fc-1b38-483c-9bb8-cf5dbd0ec1e8","ios":"levelo://app?vid=af9f98fc-1b38-483c-9bb8-cf5dbd0ec1e8"},"vehicle_type_id":"4","last_reported":1706295883,"current_range_meters":22400,"station_id":"ce4bhqp2rcd13ifvqhng","pricing_plan_id":"free"},{"bike_id":"0f595ef8-b51a-4472-959d-bab2e4ed27f5","system_id":"levelo_inurba_marseille","lat":43.317557,"lon":5.390173,"is_reserved":false,"is_disabled":false,"rental_uris":{"android":"levelo://app?vid=0f595ef8-b51a-4472-959d-bab2e4ed27f5","ios":"levelo://app?vid=0f595ef8-b51a-4472-959d-bab2e4ed27f5"},"vehicle_type_id":"4","last_reported":1706295883,"current_range_meters":7200,"station_id":"ce4bhqp2rcd13ifvqhng","pricing_plan_id":"free"},{"bike_id":"2ceb589a-5d1f-4b41-8731-91dde3244961","system_id":"levelo_inurba_marseille","lat":43.317557,"lon":5.390173,"is_reserved":false,"is_disabled":false,"rental_uris":{"android":"levelo://app?vid=2ceb589a-5d1f-4b41-8731-91dde3244961","ios":"levelo://app?vid=2ceb589a-5d1f-4b41-8731-91dde3244961"},"vehicle_type_id":"4","last_reported":1706295883,"current_range_meters":17600,"station_id":"ce4bhqp2rcd13ifvqhng","pricing_plan_id":"free"},{"bike_id":"f693ccb3-7257-4942-8e63-8db6091362ad","system_id":"levelo_inurba_marseille","lat":43.298037,"lon":5.381066,"is_reserved":false,"is_disabled":false,"rental_uris":{"android":"levelo://app?vid=f693ccb3-7257-4942-8e63-8db6091362ad","ios":"levelo://app?vid=f693ccb3-7257-4942-8e63-8db6091362ad"},"vehicle_type_id":"4","last_reported":1706295883,"current_range_meters":25600,"station_id":"ce4bgip2rcd13ifvqbb0","pricing_plan_id":"free"},{"bike_id":"2eaba406-37c7-4f27-b4c9-cf5359601760","system_id":"levelo_inurba_marseille","lat":43.298037,"lon":5.381066,"is_reserved":false,"is_disabled":false,"rental_uris":{"android":"levelo://app?vid=2eaba406-37c7-4f27-b4c9-cf5359601760","ios":"levelo://app?vid=2eaba406-37c7-4f27-b4c9-cf5359601760"},"vehicle_type_id":"4","last_reported":1706295883,"current_range_meters":12400,"station_id":"ce4bgip2rcd13ifvqbb0","pricing_plan_id":"free"},{"bike_id":"47a71a9c-b311-4860-b9f5-f5c8c602d445","system_id":"levelo_inurba_marseille","lat":43.298037,"lon":5.381066,"is_reserved":false,"is_disabled":false,"rental_uris":{"android":"levelo://app?vid=47a71a9c-b311-4860-b9f5-f5c8c602d445","ios":"levelo://app?vid=47a71a9c-b311-4860-b9f5-f5c8c602d445"},"vehicle_type_id":"4","last_reported":1706295883,"current_range_meters":4800,"station_id":"ce4bgip2rcd13ifvqbb0","pricing_plan_id":"free"},{"bike_id":"7e4e9b7b-75c8-4f38-88b9-243eb1c0e82f","system_id":"levelo_inurba_marseille","lat":43.298037,"lon":5.381066,"is_reserved":false,"is_disabled":false,"rental_uris":{"android":"levelo://app?vid=7e4e9b7b-75c8-4f38-88b9-243eb1c0e82f","ios":"levelo://app?vid=7e4e9b7b-75c8-4f38-88b9-243eb1c0e82f"},"vehicle_type_id":"4","last_reported":1706295883,"current_range_meters":1200,"station_id":"ce4bgip2rcd13ifvqbb0","pricing_plan_id":"free"},{"bike_id":"15c31257-91f8-4ede-b4c8-125ddbd06af1","system_id":"levelo_inurba_marseille","lat":43.298037,"lon":5.381066,"is_reserved":false,"is_disabled":false,"rental_uris":{"android":"levelo://app?vid=15c31257-91f8-4ede-b4c8-125ddbd06af1","ios":"levelo://app?vid=15c31257-91f8-4ede-b4c8-125ddbd06af1"},"vehicle_type_id":"4","last_reported":1706295883,"current_range_meters":1600,"station_id":"ce4bgip2rcd13ifvqbb0","pricing_plan_id":"free"},{"bike_id":"8c91030f-7383-4dca-a1dd-4f3502281b8d","system_id":"levelo_inurba_marseille","lat":43.298037,"lon":5.381066,"is_reserved":false,"is_disabled":false,"rental_uris":{"android":"levelo://app?vid=8c91030f-7383-4dca-a1dd-4f3502281b8d","ios":"levelo://app?vid=8c91030f-7383-4dca-a1dd-4f3502281b8d"},"vehicle_type_id":"4","last_reported":1706295883,"current_range_meters":800,"station_id":"ce4bgip2rcd13ifvqbb0","pricing_plan_id":"free"},{"bike_id":"00873d03-51db-4ad9-bb5a-892f0860cf86","system_id":"levelo_inurba_marseille","lat":43.298037,"lon":5.381066,"is_reserved":false,"is_disabled":false,"rental_uris":{"android":"levelo://app?vid=00873d03-51db-4ad9-bb5a-892f0860cf86","ios":"levelo://app?vid=00873d03-51db-4ad9-bb5a-892f0860cf86"},"vehicle_type_id":"4","last_reported":1706295883,"current_range_meters":800,"station_id":"ce4bgip2rcd13ifvqbb0","pricing_plan_id":"free"},{"bike_id":"7e582ba8-4001-445a-9e3a-7708340d357e","system_id":"levelo_inurba_marseille","lat":43.304274,"lon":5.388873,"is_reserved":false,"is_disabled":false,"rental_uris":{"android":"levelo://app?vid=7e582ba8-4001-445a-9e3a-7708340d357e","ios":"levelo://app?vid=7e582ba8-4001-445a-9e3a-7708340d357e"},"vehicle_type_id":"4","last_reported":1706295883,"current_range_meters":400,"station_id":"ce4bgk12rcd13ifvqbi0","pricing_plan_id":"free"},{"bike_id":"4aa4a4fb-3803-4e16-b545-8c8908248ed7","system_id":"levelo_inurba_marseille","lat":43.304274,"lon":5.388873,"is_reserved":false,"is_disabled":false,"rental_uris":{"android":"levelo://app?vid=4aa4a4fb-3803-4e16-b545-8c8908248ed7","ios":"levelo://app?vid=4aa4a4fb-3803-4e16-b545-8c8908248ed7"},"vehicle_type_id":"4","last_reported":1706295883,"current_range_meters":3200,"station_id":"ce4bgk12rcd13ifvqbi0","pricing_plan_id":"free"},{"bike_id":"def90c73-aa40-4b1f-9bd2-76f057fea907","system_id":"levelo_inurba_marseille","lat":43.298037,"lon":5.381066,"is_reserved":false,"is_disabled":false,"rental_uris":{"android":"levelo://app?vid=def90c73-aa40-4b1f-9bd2-76f057fea907","ios":"levelo://app?vid=def90c73-aa40-4b1f-9bd2-76f057fea907"},"vehicle_type_id":"4","last_reported":1706295883,"current_range_meters":7200,"station_id":"ce4bgip2rcd13ifvqbb0","pricing_plan_id":"free"},{"bike_id":"5aaf6aff-1bfd-4043-bc5a-c5a1b6083666","system_id":"levelo_inurba_marseille","lat":43.30433,"lon":5.3889,"is_reserved":false,"is_disabled":false,"rental_uris":{"android":"levelo://app?vid=5aaf6aff-1bfd-4043-bc5a-c5a1b6083666","ios":"levelo://app?vid=5aaf6aff-1bfd-4043-bc5a-c5a1b6083666"},"vehicle_type_id":"4","last_reported":1706295883,"current_range_meters":0,"station_id":"ce4bgk12rcd13ifvqbi0","pricing_plan_id":"free"},{"bike_id":"a480c54f-802e-4097-93b1-bce6e8498687","system_id":"levelo_inurba_marseille","lat":43.298037,"lon":5.381066,"is_reserved":false,"is_disabled":false,"rental_uris":{"android":"levelo://app?vid=a480c54f-802e-4097-93b1-bce6e8498687","ios":"levelo://app?vid=a480c54f-802e-4097-93b1-bce6e8498687"},"vehicle_type_id":"4","last_reported":1706295883,"current_range_meters":5600,"station_id":"ce4bgip2rcd13ifvqbb0","pricing_plan_id":"free"},{"bike_id":"48bd6dd4-c622-4b05-829b-84f4cd7f8ef7","system_id":"levelo_inurba_marseille","lat":43.298037,"lon":5.381066,"is_reserved":false,"is_disabled":false,"rental_uris":{"android":"levelo://app?vid=48bd6dd4-c622-4b05-829b-84f4cd7f8ef7","ios":"levelo://app?vid=48bd6dd4-c622-4b05-829b-84f4cd7f8ef7"},"vehicle_type_id":"4","last_reported":1706295883,"current_range_meters":0,"station_id":"ce4bgip2rcd13ifvqbb0","pricing_plan_id":"free"},{"bike_id":"5ee9672b-bb24-4079-b405-13dfe548b052","system_id":"levelo_inurba_marseille","lat":43.299707,"lon":5.384859,"is_reserved":false,"is_disabled":false,"rental_uris":{"android":"levelo://app?vid=5ee9672b-bb24-4079-b405-13dfe548b052","ios":"levelo://app?vid=5ee9672b-bb24-4079-b405-13dfe548b052"},"vehicle_type_id":"4","last_reported":1706295883,"current_range_meters":2400,"station_id":"ce4bgj92rcd13ifvqbd0","pricing_plan_id":"free"},{"bike_id":"bd48da63-8906-4fc2-aab7-3c71898cfd07","system_id":"levelo_inurba_marseille","lat":43.295279,"lon":5.375048,"is_reserved":false,"is_disabled":false,"rental_uris":{"android":"levelo://app?vid=bd48da63-8906-4fc2-aab7-3c71898cfd07","ios":"levelo://app?vid=bd48da63-8906-4fc2-aab7-3c71898cfd07"},"vehicle_type_id":"4","last_reported":1706295883,"current_range_meters":11200,"station_id":"ce4bgkp2rcd13ifvqbmg","pricing_plan_id":"free"},{"bike_id":"3f98de08-727d-47de-a113-9e013af2e9f7","system_id":"levelo_inurba_marseille","lat":43.29973,"lon":5.38498,"is_reserved":false,"is_disabled":false,"rental_uris":{"android":"levelo://app?vid=3f98de08-727d-47de-a113-9e013af2e9f7","ios":"levelo://app?vid=3f98de08-727d-47de-a113-9e013af2e9f7"},"vehicle_type_id":"4","last_reported":1706295883,"current_range_meters":2000,"station_id":"ce4bgj92rcd13ifvqbd0","pricing_plan_id":"free"},{"bike_id":"aae6d514-8349-49c5-b4cd-d5f519b363e4","system_id":"levelo_inurba_marseille","lat":43.2997,"lon":5.38496,"is_reserved":false,"is_disabled":false,"rental_uris":{"android":"levelo://app?vid=aae6d514-8349-49c5-b4cd-d5f519b363e4","ios":"levelo://app?vid=aae6d514-8349-49c5-b4cd-d5f519b363e4"},"vehicle_type_id":"4","last_reported":1706295883,"current_range_meters":10000,"station_id":"ce4bgj92rcd13ifvqbd0","pricing_plan_id":"free"},{"bike_id":"189c52b6-1101-4eba-aab0-23419d026b4d","system_id":"levelo_inurba_marseille","lat":43.29971,"lon":5.38504,"is_reserved":false,"is_disabled":false,"rental_uris":{"android":"levelo://app?vid=189c52b6-1101-4eba-aab0-23419d026b4d","ios":"levelo://app?vid=189c52b6-1101-4eba-aab0-23419d026b4d"},"vehicle_type_id":"4","last_reported":1706295883,"current_range_meters":0,"station_id":"ce4bgj92rcd13ifvqbd0","pricing_plan_id":"free"},{"bike_id":"bc266df6-0325-427c-bd46-7b669b533743","system_id":"levelo_inurba_marseille","lat":43.29958,"lon":5.38504,"is_reserved":false,"is_disabled":false,"rental_uris":{"android":"levelo://app?vid=bc266df6-0325-427c-bd46-7b669b533743","ios":"levelo://app?vid=bc266df6-0325-427c-bd46-7b669b533743"},"vehicle_type_id":"4","last_reported":1706295883,"current_range_meters":2400,"station_id":"ce4bgj92rcd13ifvqbd0","pricing_plan_id":"free"},{"bike_id":"e381c7e8-d010-45cc-9024-eb5220f2e071","system_id":"levelo_inurba_marseille","lat":43.29644,"lon":5.37955,"is_reserved":false,"is_disabled":false,"rental_uris":{"android":"levelo://app?vid=e381c7e8-d010-45cc-9024-eb5220f2e071","ios":"levelo://app?vid=e381c7e8-d010-45cc-9024-eb5220f2e071"},"vehicle_type_id":"4","last_reported":1706295883,"current_range_meters":0,"station_id":"","pricing_plan_id":"free"},{"bike_id":"40996b4a-fac6-4cc2-a8e8-9a9ba72f10c9","system_id":"levelo_inurba_marseille","lat":43.298614,"lon":5.383962,"is_reserved":false,"is_disabled":false,"rental_uris":{"android":"levelo://app?vid=40996b4a-fac6-4cc2-a8e8-9a9ba72f10c9","ios":"levelo://app?vid=40996b4a-fac6-4cc2-a8e8-9a9ba72f10c9"},"vehicle_type_id":"4","last_reported":1706295883,"current_range_meters":12000,"station_id":"","pricing_plan_id":"free"},{"bike_id":"0ea3fd81-3f73-43eb-a24e-cc7fa2617f9d","system_id":"levelo_inurba_marseille","lat":43.32367,"lon":5.388836,"is_reserved":false,"is_disabled":false,"rental_uris":{"android":"levelo://app?vid=0ea3fd81-3f73-43eb-a24e-cc7fa2617f9d","ios":"levelo://app?vid=0ea3fd81-3f73-43eb-a24e-cc7fa2617f9d"},"vehicle_type_id":"4","last_reported":1706295883,"current_range_meters":8000,"station_id":"ce4bhqp2rcd13ifvqhog","pricing_plan_id":"free"},{"bike_id":"d7803bed-fb47-4ba6-b32d-728fc496b369","system_id":"levelo_inurba_marseille","lat":43.32367,"lon":5.388836,"is_reserved":false,"is_disabled":false,"rental_uris":{"android":"levelo://app?vid=d7803bed-fb47-4ba6-b32d-728fc496b369","ios":"levelo://app?vid=d7803bed-fb47-4ba6-b32d-728fc496b369"},"vehicle_type_id":"4","last_reported":1706295883,"current_range_meters":16400,"station_id":"ce4bhqp2rcd13ifvqhog","pricing_plan_id":"free"},{"bike_id":"cec4ad59-07b9-4fac-98fd-7e0e4d5c0fc2","system_id":"levelo_inurba_marseille","lat":43.32367,"lon":5.388836,"is_reserved":false,"is_disabled":false,"rental_uris":{"android":"levelo://app?vid=cec4ad59-07b9-4fac-98fd-7e0e4d5c0fc2","ios":"levelo://app?vid=cec4ad59-07b9-4fac-98fd-7e0e4d5c0fc2"},"vehicle_type_id":"4","last_reported":1706295883,"current_range_meters":13200,"station_id":"ce4bhqp2rcd13ifvqhog","pricing_plan_id":"free"},{"bike_id":"def703ed-e78e-4412-a809-c10b7fb945a5","system_id":"levelo_inurba_marseille","lat":43.323709,"lon":5.388823,"is_reserved":false,"is_disabled":false,"rental_uris":{"android":"levelo://app?vid=def703ed-e78e-4412-a809-c10b7fb945a5","ios":"levelo://app?vid=def703ed-e78e-4412-a809-c10b7fb945a5"},"vehicle_type_id":"4","last_reported":1706295883,"current_range_meters":27600,"station_id":"ce4bhqp2rcd13ifvqhog","pricing_plan_id":"free"},{"bike_id":"439458f2-c468-43ac-8531-4372a5b8883a","system_id":"levelo_inurba_marseille","lat":43.32367,"lon":5.388836,"is_reserved":false,"is_disabled":false,"rental_uris":{"android":"levelo://app?vid=439458f2-c468-43ac-8531-4372a5b8883a","ios":"levelo://app?vid=439458f2-c468-43ac-8531-4372a5b8883a"},"vehicle_type_id":"4","last_reported":1706295883,"current_range_meters":21600,"station_id":"ce4bhqp2rcd13ifvqhog","pricing_plan_id":"free"},{"bike_id":"6d4e98a9-3b8c-4251-9bc4-f50fadfe25a7","system_id":"levelo_inurba_marseille","lat":43.32364,"lon":5.38891,"is_reserved":false,"is_disabled":false,"rental_uris":{"android":"levelo://app?vid=6d4e98a9-3b8c-4251-9bc4-f50fadfe25a7","ios":"levelo://app?vid=6d4e98a9-3b8c-4251-9bc4-f50fadfe25a7"},"vehicle_type_id":"4","last_reported":1706295883,"current_range_meters":24000,"station_id":"ce4bhqp2rcd13ifvqhog","pricing_plan_id":"free"},{"bike_id":"9a27fa92-0583-44e1-956a-f5cb72e69303","system_id":"levelo_inurba_marseille","lat":43.298037,"lon":5.381066,"is_reserved":false,"is_disabled":false,"rental_uris":{"android":"levelo://app?vid=9a27fa92-0583-44e1-956a-f5cb72e69303","ios":"levelo://app?vid=9a27fa92-0583-44e1-956a-f5cb72e69303"},"vehicle_type_id":"4","last_reported":1706295883,"current_range_meters":2400,"station_id":"ce4bgip2rcd13ifvqbb0","pricing_plan_id":"free"},{"bike_id":"80d7c5ba-3aac-4201-9d99-72291eb6af25","system_id":"levelo_inurba_marseille","lat":43.29602,"lon":5.381084,"is_reserved":false,"is_disabled":false,"rental_uris":{"android":"levelo://app?vid=80d7c5ba-3aac-4201-9d99-72291eb6af25","ios":"levelo://app?vid=80d7c5ba-3aac-4201-9d99-72291eb6af25"},"vehicle_type_id":"4","last_reported":1706295883,"current_range_meters":1200,"station_id":"ce4bgl12rcd13ifvqbo0","pricing_plan_id":"free"},{"bike_id":"b4be59da-49d2-4507-80f6-5795cae50be1","system_id":"levelo_inurba_marseille","lat":43.292749,"lon":5.368402,"is_reserved":false,"is_disabled":false,"rental_uris":{"android":"levelo://app?vid=b4be59da-49d2-4507-80f6-5795cae50be1","ios":"levelo://app?vid=b4be59da-49d2-4507-80f6-5795cae50be1"},"vehicle_type_id":"4","last_reported":1706295883,"current_range_meters":7600,"station_id":"ce4bhbp2rcd13ifvqesg","pricing_plan_id":"free"},{"bike_id":"1a646f1d-cbf7-4940-b996-9a5b858bd5f6","system_id":"levelo_inurba_marseille","lat":43.293259,"lon":5.371586,"is_reserved":false,"is_disabled":false,"rental_uris":{"android":"levelo://app?vid=1a646f1d-cbf7-4940-b996-9a5b858bd5f6","ios":"levelo://app?vid=1a646f1d-cbf7-4940-b996-9a5b858bd5f6"},"vehicle_type_id":"4","last_reported":1706295883,"current_range_meters":26800,"station_id":"ce4bgh92rcd13ifvqb40","pricing_plan_id":"free"},{"bike_id":"d64364d6-34ce-462e-9712-e557eaaef86b","system_id":"levelo_inurba_marseille","lat":43.292749,"lon":5.368402,"is_reserved":false,"is_disabled":false,"rental_uris":{"android":"levelo://app?vid=d64364d6-34ce-462e-9712-e557eaaef86b","ios":"levelo://app?vid=d64364d6-34ce-462e-9712-e557eaaef86b"},"vehicle_type_id":"4","last_reported":1706295883,"current_range_meters":8000,"station_id":"ce4bhbp2rcd13ifvqesg","pricing_plan_id":"free"},{"bike_id":"1fd2498e-5a67-4d28-b7a7-9f1e9b787e69","system_id":"levelo_inurba_marseille","lat":43.293259,"lon":5.371586,"is_reserved":false,"is_disabled":false,"rental_uris":{"android":"levelo://app?vid=1fd2498e-5a67-4d28-b7a7-9f1e9b787e69","ios":"levelo://app?vid=1fd2498e-5a67-4d28-b7a7-9f1e9b787e69"},"vehicle_type_id":"4","last_reported":1706295883,"current_range_meters":14000,"station_id":"ce4bgh92rcd13ifvqb40","pricing_plan_id":"free"},{"bike_id":"ffacff0b-e58c-4e64-bf67-6ea1a82ee503","system_id":"levelo_inurba_marseille","lat":43.29277,"lon":5.3685,"is_reserved":false,"is_disabled":false,"rental_uris":{"android":"levelo://app?vid=ffacff0b-e58c-4e64-bf67-6ea1a82ee503","ios":"levelo://app?vid=ffacff0b-e58c-4e64-bf67-6ea1a82ee503"},"vehicle_type_id":"4","last_reported":1706295883,"current_range_meters":0,"station_id":"ce4bhbp2rcd13ifvqesg","pricing_plan_id":"free"},{"bike_id":"98515c28-1437-494c-b5ce-b5155777ce45","system_id":"levelo_inurba_marseille","lat":43.292749,"lon":5.368402,"is_reserved":false,"is_disabled":false,"rental_uris":{"android":"levelo://app?vid=98515c28-1437-494c-b5ce-b5155777ce45","ios":"levelo://app?vid=98515c28-1437-494c-b5ce-b5155777ce45"},"vehicle_type_id":"4","last_reported":1706295883,"current_range_meters":24800,"station_id":"ce4bhbp2rcd13ifvqesg","pricing_plan_id":"free"},{"bike_id":"2e6d94b4-2107-408c-8a37-d43238142c23","system_id":"levelo_inurba_marseille","lat":43.293259,"lon":5.371586,"is_reserved":false,"is_disabled":false,"rental_uris":{"android":"levelo://app?vid=2e6d94b4-2107-408c-8a37-d43238142c23","ios":"levelo://app?vid=2e6d94b4-2107-408c-8a37-d43238142c23"},"vehicle_type_id":"4","last_reported":1706295883,"current_range_meters":5600,"station_id":"ce4bgh92rcd13ifvqb40","pricing_plan_id":"free"},{"bike_id":"28eea537-9e3b-4bd1-ba84-24ead2f61096","system_id":"levelo_inurba_marseille","lat":43.293259,"lon":5.371586,"is_reserved":false,"is_disabled":false,"rental_uris":{"android":"levelo://app?vid=28eea537-9e3b-4bd1-ba84-24ead2f61096","ios":"levelo://app?vid=28eea537-9e3b-4bd1-ba84-24ead2f61096"},"vehicle_type_id":"4","last_reported":1706295883,"current_range_meters":18400,"station_id":"ce4bgh92rcd13ifvqb40","pricing_plan_id":"free"},{"bike_id":"4c462c5e-6a85-4758-b322-08a1b0356425","system_id":"levelo_inurba_marseille","lat":43.293009,"lon":5.374584,"is_reserved":false,"is_disabled":false,"rental_uris":{"android":"levelo://app?vid=4c462c5e-6a85-4758-b322-08a1b0356425","ios":"levelo://app?vid=4c462c5e-6a85-4758-b322-08a1b0356425"},"vehicle_type_id":"4","last_reported":1706295883,"current_range_meters":9200,"station_id":"ce4bgi12rcd13ifvqb70","pricing_plan_id":"free"},{"bike_id":"1bbe0ae4-93ff-4277-bcb6-633386e6776b","system_id":"levelo_inurba_marseille","lat":43.293009,"lon":5.374584,"is_reserved":false,"is_disabled":false,"rental_uris":{"android":"levelo://app?vid=1bbe0ae4-93ff-4277-bcb6-633386e6776b","ios":"levelo://app?vid=1bbe0ae4-93ff-4277-bcb6-633386e6776b"},"vehicle_type_id":"4","last_reported":1706295883,"current_range_meters":23200,"station_id":"ce4bgi12rcd13ifvqb70","pricing_plan_id":"free"},{"bike_id":"0316f98f-f5f6-436f-9435-886832a2879d","system_id":"levelo_inurba_marseille","lat":43.29305,"lon":5.37478,"is_reserved":false,"is_disabled":false,"rental_uris":{"android":"levelo://app?vid=0316f98f-f5f6-436f-9435-886832a2879d","ios":"levelo://app?vid=0316f98f-f5f6-436f-9435-886832a2879d"},"vehicle_type_id":"4","last_reported":1706295883,"current_range_meters":0,"station_id":"ce4bgi12rcd13ifvqb70","pricing_plan_id":"free"},{"bike_id":"74662186-9e1c-4330-8133-c6b7012e034c","system_id":"levelo_inurba_marseille","lat":43.30598,"lon":5.39358,"is_reserved":false,"is_disabled":false,"rental_uris":{"android":"levelo://app?vid=74662186-9e1c-4330-8133-c6b7012e034c","ios":"levelo://app?vid=74662186-9e1c-4330-8133-c6b7012e034c"},"vehicle_type_id":"4","last_reported":1706295883,"current_range_meters":0,"station_id":"ce4bh0p2rcd13ifvqd80","pricing_plan_id":"free"},{"bike_id":"21ad017d-fab2-46ef-8788-a128caad2db0","system_id":"levelo_inurba_marseille","lat":43.303002,"lon":5.392142,"is_reserved":false,"is_disabled":false,"rental_uris":{"android":"levelo://app?vid=21ad017d-fab2-46ef-8788-a128caad2db0","ios":"levelo://app?vid=21ad017d-fab2-46ef-8788-a128caad2db0"},"vehicle_type_id":"4","last_reported":1706295883,"current_range_meters":0,"station_id":"ce4bgkh2rcd13ifvqbk0","pricing_plan_id":"free"},{"bike_id":"33eb5899-2263-4601-8070-0871b2140d8c","system_id":"levelo_inurba_marseille","lat":43.292311,"lon":5.360731,"is_reserved":false,"is_disabled":false,"rental_uris":{"android":"levelo://app?vid=33eb5899-2263-4601-8070-0871b2140d8c","ios":"levelo://app?vid=33eb5899-2263-4601-8070-0871b2140d8c"},"vehicle_type_id":"4","last_reported":1706295883,"current_range_meters":0,"station_id":"ce4bhbh2rcd13ifvqeqg","pricing_plan_id":"free"},{"bike_id":"f43bc4b9-69b4-4c2e-a7f1-390317b11d36","system_id":"levelo_inurba_marseille","lat":43.292707,"lon":5.376247,"is_reserved":false,"is_disabled":false,"rental_uris":{"android":"levelo://app?vid=f43bc4b9-69b4-4c2e-a7f1-390317b11d36","ios":"levelo://app?vid=f43bc4b9-69b4-4c2e-a7f1-390317b11d36"},"vehicle_type_id":"4","last_reported":1706295883,"current_range_meters":20000,"station_id":"ce4bgi12rcd13ifvqb70","pricing_plan_id":"free"},{"bike_id":"13cf27f8-28f9-4b4a-b5e8-82b20cc64a86","system_id":"levelo_inurba_marseille","lat":43.291757,"lon":5.371477,"is_reserved":false,"is_disabled":false,"rental_uris":{"android":"levelo://app?vid=13cf27f8-28f9-4b4a-b5e8-82b20cc64a86","ios":"levelo://app?vid=13cf27f8-28f9-4b4a-b5e8-82b20cc64a86"},"vehicle_type_id":"4","last_reported":1706295883,"current_range_meters":0,"station_id":"ce4bha92rcd13ifvqeh0","pricing_plan_id":"free"},{"bike_id":"9955799a-36ee-4f8c-9d05-12c2efd3c6ca","system_id":"levelo_inurba_marseille","lat":43.298764,"lon":5.388973,"is_reserved":false,"is_disabled":false,"rental_uris":{"android":"levelo://app?vid=9955799a-36ee-4f8c-9d05-12c2efd3c6ca","ios":"levelo://app?vid=9955799a-36ee-4f8c-9d05-12c2efd3c6ca"},"vehicle_type_id":"4","last_reported":1706295883,"current_range_meters":16400,"station_id":"ce4bh392rcd13ifvqdl0","pricing_plan_id":"free"},{"bike_id":"2cdd5039-e8ec-441b-9bd5-4c34b690b828","system_id":"levelo_inurba_marseille","lat":43.304918,"lon":5.394226,"is_reserved":false,"is_disabled":false,"rental_uris":{"android":"levelo://app?vid=2cdd5039-e8ec-441b-9bd5-4c34b690b828","ios":"levelo://app?vid=2cdd5039-e8ec-441b-9bd5-4c34b690b828"},"vehicle_type_id":"4","last_reported":1706295883,"current_range_meters":23600,"station_id":"","pricing_plan_id":"free"},{"bike_id":"4e9dbc2d-409c-4276-b157-481753298c6e","system_id":"levelo_inurba_marseille","lat":43.295169,"lon":5.390426,"is_reserved":false,"is_disabled":false,"rental_uris":{"android":"levelo://app?vid=4e9dbc2d-409c-4276-b157-481753298c6e","ios":"levelo://app?vid=4e9dbc2d-409c-4276-b157-481753298c6e"},"vehicle_type_id":"4","last_reported":1706295883,"current_range_meters":19600,"station_id":"ce4bh3p2rcd13ifvqdp0","pricing_plan_id":"free"},{"bike_id":"a489cf93-9385-46fc-84ee-61627977fad6","system_id":"levelo_inurba_marseille","lat":43.291994,"lon":5.357886,"is_reserved":false,"is_disabled":false,"rental_uris":{"android":"levelo://app?vid=a489cf93-9385-46fc-84ee-61627977fad6","ios":"levelo://app?vid=a489cf93-9385-46fc-84ee-61627977fad6"},"vehicle_type_id":"4","last_reported":1706295883,"current_range_meters":4400,"station_id":"ce4bhb12rcd13ifvqel0","pricing_plan_id":"free"},{"bike_id":"985d9eeb-7ece-4940-b1a0-2e7dbf6e4e1d","system_id":"levelo_inurba_marseille","lat":43.313291,"lon":5.396838,"is_reserved":false,"is_disabled":false,"rental_uris":{"android":"levelo://app?vid=985d9eeb-7ece-4940-b1a0-2e7dbf6e4e1d","ios":"levelo://app?vid=985d9eeb-7ece-4940-b1a0-2e7dbf6e4e1d"},"vehicle_type_id":"4","last_reported":1706295883,"current_range_meters":25200,"station_id":"ce4bgvp2rcd13ifvqcu0","pricing_plan_id":"free"},{"bike_id":"09034d29-bd11-43d9-a640-3dee314c0041","system_id":"levelo_inurba_marseille","lat":43.313291,"lon":5.396838,"is_reserved":false,"is_disabled":false,"rental_uris":{"android":"levelo://app?vid=09034d29-bd11-43d9-a640-3dee314c0041","ios":"levelo://app?vid=09034d29-bd11-43d9-a640-3dee314c0041"},"vehicle_type_id":"4","last_reported":1706295883,"current_range_meters":0,"station_id":"ce4bgvp2rcd13ifvqcu0","pricing_plan_id":"free"},{"bike_id":"79d7ff83-c2b9-4ebe-8885-65db23ebaec8","system_id":"levelo_inurba_marseille","lat":43.29534,"lon":5.38541,"is_reserved":false,"is_disabled":false,"rental_uris":{"android":"levelo://app?vid=79d7ff83-c2b9-4ebe-8885-65db23ebaec8","ios":"levelo://app?vid=79d7ff83-c2b9-4ebe-8885-65db23ebaec8"},"vehicle_type_id":"4","last_reported":1706295883,"current_range_meters":13200,"station_id":"ce4bgih2rcd13ifvqba0","pricing_plan_id":"free"},{"bike_id":"df841c5b-49b4-4f77-9484-be315608ede4","system_id":"levelo_inurba_marseille","lat":43.295169,"lon":5.390426,"is_reserved":false,"is_disabled":false,"rental_uris":{"android":"levelo://app?vid=df841c5b-49b4-4f77-9484-be315608ede4","ios":"levelo://app?vid=df841c5b-49b4-4f77-9484-be315608ede4"},"vehicle_type_id":"4","last_reported":1706295883,"current_range_meters":30400,"station_id":"ce4bh3p2rcd13ifvqdp0","pricing_plan_id":"free"},{"bike_id":"a944e142-1e7d-4c0a-b56d-b585b3a0e090","system_id":"levelo_inurba_marseille","lat":43.30211,"lon":5.39465,"is_reserved":false,"is_disabled":false,"rental_uris":{"android":"levelo://app?vid=a944e142-1e7d-4c0a-b56d-b585b3a0e090","ios":"levelo://app?vid=a944e142-1e7d-4c0a-b56d-b585b3a0e090"},"vehicle_type_id":"4","last_reported":1706295883,"current_range_meters":0,"station_id":"ce4bh0p2rcd13ifvqd70","pricing_plan_id":"free"},{"bike_id":"0264aaa1-05aa-4741-99f7-5c02dc4732a4","system_id":"levelo_inurba_marseille","lat":43.29427,"lon":5.38618,"is_reserved":false,"is_disabled":false,"rental_uris":{"android":"levelo://app?vid=0264aaa1-05aa-4741-99f7-5c02dc4732a4","ios":"levelo://app?vid=0264aaa1-05aa-4741-99f7-5c02dc4732a4"},"vehicle_type_id":"4","last_reported":1706295883,"current_range_meters":0,"station_id":"ce4bh2h2rcd13ifvqdh0","pricing_plan_id":"free"},{"bike_id":"6e835958-dcab-4edd-82e4-d1e20ab895e9","system_id":"levelo_inurba_marseille","lat":43.29424,"lon":5.38615,"is_reserved":false,"is_disabled":false,"rental_uris":{"android":"levelo://app?vid=6e835958-dcab-4edd-82e4-d1e20ab895e9","ios":"levelo://app?vid=6e835958-dcab-4edd-82e4-d1e20ab895e9"},"vehicle_type_id":"4","last_reported":1706295883,"current_range_meters":18400,"station_id":"ce4bh2h2rcd13ifvqdh0","pricing_plan_id":"free"},{"bike_id":"33a30f4c-d79d-43af-8be4-c009bf80cb11","system_id":"levelo_inurba_marseille","lat":43.29422,"lon":5.38618,"is_reserved":false,"is_disabled":false,"rental_uris":{"android":"levelo://app?vid=33a30f4c-d79d-43af-8be4-c009bf80cb11","ios":"levelo://app?vid=33a30f4c-d79d-43af-8be4-c009bf80cb11"},"vehicle_type_id":"4","last_reported":1706295883,"current_range_meters":2800,"station_id":"ce4bh2h2rcd13ifvqdh0","pricing_plan_id":"free"},{"bike_id":"78af63d3-4741-448b-a8a4-b1155e872b56","system_id":"levelo_inurba_marseille","lat":43.29421,"lon":5.38618,"is_reserved":false,"is_disabled":false,"rental_uris":{"android":"levelo://app?vid=78af63d3-4741-448b-a8a4-b1155e872b56","ios":"levelo://app?vid=78af63d3-4741-448b-a8a4-b1155e872b56"},"vehicle_type_id":"4","last_reported":1706295883,"current_range_meters":30400,"station_id":"ce4bh2h2rcd13ifvqdh0","pricing_plan_id":"free"},{"bike_id":"f63ef7ba-35e1-414c-b98c-cbbed88e567d","system_id":"levelo_inurba_marseille","lat":43.29427,"lon":5.3863,"is_reserved":false,"is_disabled":false,"rental_uris":{"android":"levelo://app?vid=f63ef7ba-35e1-414c-b98c-cbbed88e567d","ios":"levelo://app?vid=f63ef7ba-35e1-414c-b98c-cbbed88e567d"},"vehicle_type_id":"4","last_reported":1706295883,"current_range_meters":21200,"station_id":"ce4bh2h2rcd13ifvqdh0","pricing_plan_id":"free"},{"bike_id":"c50be3de-f928-41c5-a818-9e1fc7095fde","system_id":"levelo_inurba_marseille","lat":43.29422,"lon":5.38625,"is_reserved":false,"is_disabled":false,"rental_uris":{"android":"levelo://app?vid=c50be3de-f928-41c5-a818-9e1fc7095fde","ios":"levelo://app?vid=c50be3de-f928-41c5-a818-9e1fc7095fde"},"vehicle_type_id":"4","last_reported":1706295883,"current_range_meters":5200,"station_id":"ce4bh2h2rcd13ifvqdh0","pricing_plan_id":"free"},{"bike_id":"861b5040-1e47-4cb7-824a-b37a1820c00a","system_id":"levelo_inurba_marseille","lat":43.29418,"lon":5.38619,"is_reserved":false,"is_disabled":false,"rental_uris":{"android":"levelo://app?vid=861b5040-1e47-4cb7-824a-b37a1820c00a","ios":"levelo://app?vid=861b5040-1e47-4cb7-824a-b37a1820c00a"},"vehicle_type_id":"4","last_reported":1706295883,"current_range_meters":6400,"station_id":"ce4bh2h2rcd13ifvqdh0","pricing_plan_id":"free"},{"bike_id":"6284ed12-8138-4921-a60c-80627cdec6df","system_id":"levelo_inurba_marseille","lat":43.29418,"lon":5.3862,"is_reserved":false,"is_disabled":false,"rental_uris":{"android":"levelo://app?vid=6284ed12-8138-4921-a60c-80627cdec6df","ios":"levelo://app?vid=6284ed12-8138-4921-a60c-80627cdec6df"},"vehicle_type_id":"4","last_reported":1706295883,"current_range_meters":0,"station_id":"ce4bh2h2rcd13ifvqdh0","pricing_plan_id":"free"},{"bike_id":"724857a1-1cfe-424f-87a5-c341a543568e","system_id":"levelo_inurba_marseille","lat":43.294182,"lon":5.386204,"is_reserved":false,"is_disabled":false,"rental_uris":{"android":"levelo://app?vid=724857a1-1cfe-424f-87a5-c341a543568e","ios":"levelo://app?vid=724857a1-1cfe-424f-87a5-c341a543568e"},"vehicle_type_id":"4","last_reported":1706295883,"current_range_meters":1600,"station_id":"ce4bh2h2rcd13ifvqdh0","pricing_plan_id":"free"},{"bike_id":"b2ae7889-923d-4424-9d59-99afe6d2bc9f","system_id":"levelo_inurba_marseille","lat":43.29421,"lon":5.38626,"is_reserved":false,"is_disabled":false,"rental_uris":{"android":"levelo://app?vid=b2ae7889-923d-4424-9d59-99afe6d2bc9f","ios":"levelo://app?vid=b2ae7889-923d-4424-9d59-99afe6d2bc9f"},"vehicle_type_id":"4","last_reported":1706295883,"current_range_meters":2800,"station_id":"ce4bh2h2rcd13ifvqdh0","pricing_plan_id":"free"},{"bike_id":"4d208789-705a-4a3a-9bef-b45e33f1bc43","system_id":"levelo_inurba_marseille","lat":43.29421,"lon":5.38626,"is_reserved":false,"is_disabled":false,"rental_uris":{"android":"levelo://app?vid=4d208789-705a-4a3a-9bef-b45e33f1bc43","ios":"levelo://app?vid=4d208789-705a-4a3a-9bef-b45e33f1bc43"},"vehicle_type_id":"4","last_reported":1706295883,"current_range_meters":0,"station_id":"ce4bh2h2rcd13ifvqdh0","pricing_plan_id":"free"},{"bike_id":"e83e7ab8-64aa-45e4-89ce-f01b4f31202f","system_id":"levelo_inurba_marseille","lat":43.29419,"lon":5.38624,"is_reserved":false,"is_disabled":false,"rental_uris":{"android":"levelo://app?vid=e83e7ab8-64aa-45e4-89ce-f01b4f31202f","ios":"levelo://app?vid=e83e7ab8-64aa-45e4-89ce-f01b4f31202f"},"vehicle_type_id":"4","last_reported":1706295883,"current_range_meters":0,"station_id":"ce4bh2h2rcd13ifvqdh0","pricing_plan_id":"free"},{"bike_id":"69da052d-2fb6-4286-9816-13c3166396ec","system_id":"levelo_inurba_marseille","lat":43.29417,"lon":5.38621,"is_reserved":false,"is_disabled":false,"rental_uris":{"android":"levelo://app?vid=69da052d-2fb6-4286-9816-13c3166396ec","ios":"levelo://app?vid=69da052d-2fb6-4286-9816-13c3166396ec"},"vehicle_type_id":"4","last_reported":1706295883,"current_range_meters":14800,"station_id":"ce4bh2h2rcd13ifvqdh0","pricing_plan_id":"free"},{"bike_id":"ce8fada0-7931-4536-8aff-72d84b4c9cc2","system_id":"levelo_inurba_marseille","lat":43.29421,"lon":5.3863,"is_reserved":false,"is_disabled":false,"rental_uris":{"android":"levelo://app?vid=ce8fada0-7931-4536-8aff-72d84b4c9cc2","ios":"levelo://app?vid=ce8fada0-7931-4536-8aff-72d84b4c9cc2"},"vehicle_type_id":"4","last_reported":1706295883,"current_range_meters":2000,"station_id":"ce4bh2h2rcd13ifvqdh0","pricing_plan_id":"free"},{"bike_id":"7d89177a-dce6-4e6e-9268-dc148abb7786","system_id":"levelo_inurba_marseille","lat":43.29416,"lon":5.38622,"is_reserved":false,"is_disabled":false,"rental_uris":{"android":"levelo://app?vid=7d89177a-dce6-4e6e-9268-dc148abb7786","ios":"levelo://app?vid=7d89177a-dce6-4e6e-9268-dc148abb7786"},"vehicle_type_id":"4","last_reported":1706295883,"current_range_meters":22800,"station_id":"ce4bh2h2rcd13ifvqdh0","pricing_plan_id":"free"},{"bike_id":"90ce4775-8389-443e-95ae-63cdd0659565","system_id":"levelo_inurba_marseille","lat":43.29421,"lon":5.38632,"is_reserved":false,"is_disabled":false,"rental_uris":{"android":"levelo://app?vid=90ce4775-8389-443e-95ae-63cdd0659565","ios":"levelo://app?vid=90ce4775-8389-443e-95ae-63cdd0659565"},"vehicle_type_id":"4","last_reported":1706295883,"current_range_meters":18400,"station_id":"ce4bh2h2rcd13ifvqdh0","pricing_plan_id":"free"},{"bike_id":"2d8c2b3a-1f2e-47db-af87-a568b534a1f5","system_id":"levelo_inurba_marseille","lat":43.29417,"lon":5.38625,"is_reserved":false,"is_disabled":false,"rental_uris":{"android":"levelo://app?vid=2d8c2b3a-1f2e-47db-af87-a568b534a1f5","ios":"levelo://app?vid=2d8c2b3a-1f2e-47db-af87-a568b534a1f5"},"vehicle_type_id":"4","last_reported":1706295883,"current_range_meters":0,"station_id":"ce4bh2h2rcd13ifvqdh0","pricing_plan_id":"free"},{"bike_id":"e3a1161a-cf29-4ca4-adfc-9b1c1cf9390b","system_id":"levelo_inurba_marseille","lat":43.29419,"lon":5.3863,"is_reserved":false,"is_disabled":false,"rental_uris":{"android":"levelo://app?vid=e3a1161a-cf29-4ca4-adfc-9b1c1cf9390b","ios":"levelo://app?vid=e3a1161a-cf29-4ca4-adfc-9b1c1cf9390b"},"vehicle_type_id":"4","last_reported":1706295883,"current_range_meters":8800,"station_id":"ce4bh2h2rcd13ifvqdh0","pricing_plan_id":"free"},{"bike_id":"570595b4-893f-4664-9d67-6709033c8fe2","system_id":"levelo_inurba_marseille","lat":43.29418,"lon":5.38629,"is_reserved":false,"is_disabled":false,"rental_uris":{"android":"levelo://app?vid=570595b4-893f-4664-9d67-6709033c8fe2","ios":"levelo://app?vid=570595b4-893f-4664-9d67-6709033c8fe2"},"vehicle_type_id":"4","last_reported":1706295883,"current_range_meters":13200,"station_id":"ce4bh2h2rcd13ifvqdh0","pricing_plan_id":"free"},{"bike_id":"6f4c0f2c-b830-42ea-b3f9-a88133cb9715","system_id":"levelo_inurba_marseille","lat":43.29418,"lon":5.38632,"is_reserved":false,"is_disabled":false,"rental_uris":{"android":"levelo://app?vid=6f4c0f2c-b830-42ea-b3f9-a88133cb9715","ios":"levelo://app?vid=6f4c0f2c-b830-42ea-b3f9-a88133cb9715"},"vehicle_type_id":"4","last_reported":1706295883,"current_range_meters":14000,"station_id":"ce4bh2h2rcd13ifvqdh0","pricing_plan_id":"free"},{"bike_id":"ae0d9f63-45b2-4077-8dfe-b3b289516ea0","system_id":"levelo_inurba_marseille","lat":43.29416,"lon":5.386285,"is_reserved":false,"is_disabled":false,"rental_uris":{"android":"levelo://app?vid=ae0d9f63-45b2-4077-8dfe-b3b289516ea0","ios":"levelo://app?vid=ae0d9f63-45b2-4077-8dfe-b3b289516ea0"},"vehicle_type_id":"4","last_reported":1706295883,"current_range_meters":24000,"station_id":"ce4bh2h2rcd13ifvqdh0","pricing_plan_id":"free"},{"bike_id":"09bcd00a-bd82-4311-9b4d-ce95bfd83a15","system_id":"levelo_inurba_marseille","lat":43.289184,"lon":5.366408,"is_reserved":false,"is_disabled":false,"rental_uris":{"android":"levelo://app?vid=09bcd00a-bd82-4311-9b4d-ce95bfd83a15","ios":"levelo://app?vid=09bcd00a-bd82-4311-9b4d-ce95bfd83a15"},"vehicle_type_id":"4","last_reported":1706295883,"current_range_meters":3200,"station_id":"ce4bhap2rcd13ifvqek0","pricing_plan_id":"free"},{"bike_id":"f270460c-98bd-48c8-b4d3-e45f525329e8","system_id":"levelo_inurba_marseille","lat":43.289468,"lon":5.363719,"is_reserved":false,"is_disabled":false,"rental_uris":{"android":"levelo://app?vid=f270460c-98bd-48c8-b4d3-e45f525329e8","ios":"levelo://app?vid=f270460c-98bd-48c8-b4d3-e45f525329e8"},"vehicle_type_id":"4","last_reported":1706295883,"current_range_meters":17600,"station_id":"ce4bhc92rcd13ifvqetg","pricing_plan_id":"free"},{"bike_id":"94584752-591b-4646-8db6-d925940b91ca","system_id":"levelo_inurba_marseille","lat":43.289184,"lon":5.366408,"is_reserved":false,"is_disabled":false,"rental_uris":{"android":"levelo://app?vid=94584752-591b-4646-8db6-d925940b91ca","ios":"levelo://app?vid=94584752-591b-4646-8db6-d925940b91ca"},"vehicle_type_id":"4","last_reported":1706295883,"current_range_meters":5600,"station_id":"ce4bhap2rcd13ifvqek0","pricing_plan_id":"free"},{"bike_id":"8c5b010b-1ce3-4e75-be3f-d7dc510c1aff","system_id":"levelo_inurba_marseille","lat":43.289184,"lon":5.366408,"is_reserved":false,"is_disabled":false,"rental_uris":{"android":"levelo://app?vid=8c5b010b-1ce3-4e75-be3f-d7dc510c1aff","ios":"levelo://app?vid=8c5b010b-1ce3-4e75-be3f-d7dc510c1aff"},"vehicle_type_id":"4","last_reported":1706295883,"current_range_meters":13200,"station_id":"ce4bhap2rcd13ifvqek0","pricing_plan_id":"free"},{"bike_id":"e7fd9064-3948-431c-a51a-0aa9bb8aa8b5","system_id":"levelo_inurba_marseille","lat":43.292762,"lon":5.384448,"is_reserved":false,"is_disabled":false,"rental_uris":{"android":"levelo://app?vid=e7fd9064-3948-431c-a51a-0aa9bb8aa8b5","ios":"levelo://app?vid=e7fd9064-3948-431c-a51a-0aa9bb8aa8b5"},"vehicle_type_id":"4","last_reported":1706295883,"current_range_meters":17600,"station_id":"ce4bh692rcd13ifvqea0","pricing_plan_id":"free"},{"bike_id":"2b785604-68d3-4590-88db-a2c1c9c43cb2","system_id":"levelo_inurba_marseille","lat":43.29266,"lon":5.38424,"is_reserved":false,"is_disabled":false,"rental_uris":{"android":"levelo://app?vid=2b785604-68d3-4590-88db-a2c1c9c43cb2","ios":"levelo://app?vid=2b785604-68d3-4590-88db-a2c1c9c43cb2"},"vehicle_type_id":"4","last_reported":1706295883,"current_range_meters":27600,"station_id":"ce4bh692rcd13ifvqea0","pricing_plan_id":"free"},{"bike_id":"45f575a5-8a4a-4fae-b528-25897027153c","system_id":"levelo_inurba_marseille","lat":43.29262,"lon":5.38422,"is_reserved":false,"is_disabled":false,"rental_uris":{"android":"levelo://app?vid=45f575a5-8a4a-4fae-b528-25897027153c","ios":"levelo://app?vid=45f575a5-8a4a-4fae-b528-25897027153c"},"vehicle_type_id":"4","last_reported":1706295883,"current_range_meters":16000,"station_id":"ce4bh692rcd13ifvqea0","pricing_plan_id":"free"},{"bike_id":"5d0631dc-d1f9-4876-9df7-b2b20351a1cc","system_id":"levelo_inurba_marseille","lat":43.292644,"lon":5.384257,"is_reserved":false,"is_disabled":false,"rental_uris":{"android":"levelo://app?vid=5d0631dc-d1f9-4876-9df7-b2b20351a1cc","ios":"levelo://app?vid=5d0631dc-d1f9-4876-9df7-b2b20351a1cc"},"vehicle_type_id":"4","last_reported":1706295883,"current_range_meters":19600,"station_id":"ce4bh692rcd13ifvqea0","pricing_plan_id":"free"},{"bike_id":"e5124d7a-8776-41d2-aeb8-a83def1aaec8","system_id":"levelo_inurba_marseille","lat":43.292642,"lon":5.384254,"is_reserved":false,"is_disabled":false,"rental_uris":{"android":"levelo://app?vid=e5124d7a-8776-41d2-aeb8-a83def1aaec8","ios":"levelo://app?vid=e5124d7a-8776-41d2-aeb8-a83def1aaec8"},"vehicle_type_id":"4","last_reported":1706295883,"current_range_meters":26000,"station_id":"ce4bh692rcd13ifvqea0","pricing_plan_id":"free"},{"bike_id":"cae040c5-9506-4d75-ab08-828f9de8f6ce","system_id":"levelo_inurba_marseille","lat":43.2927,"lon":5.38455,"is_reserved":false,"is_disabled":false,"rental_uris":{"android":"levelo://app?vid=cae040c5-9506-4d75-ab08-828f9de8f6ce","ios":"levelo://app?vid=cae040c5-9506-4d75-ab08-828f9de8f6ce"},"vehicle_type_id":"4","last_reported":1706295883,"current_range_meters":800,"station_id":"ce4bh692rcd13ifvqea0","pricing_plan_id":"free"},{"bike_id":"96f22199-e468-42e2-966b-13d791b2efce","system_id":"levelo_inurba_marseille","lat":43.292644,"lon":5.384257,"is_reserved":false,"is_disabled":false,"rental_uris":{"android":"levelo://app?vid=96f22199-e468-42e2-966b-13d791b2efce","ios":"levelo://app?vid=96f22199-e468-42e2-966b-13d791b2efce"},"vehicle_type_id":"4","last_reported":1706295883,"current_range_meters":25200,"station_id":"ce4bh692rcd13ifvqea0","pricing_plan_id":"free"},{"bike_id":"c307ddfd-3837-4730-bff0-a5f187ae1424","system_id":"levelo_inurba_marseille","lat":43.292644,"lon":5.384257,"is_reserved":false,"is_disabled":false,"rental_uris":{"android":"levelo://app?vid=c307ddfd-3837-4730-bff0-a5f187ae1424","ios":"levelo://app?vid=c307ddfd-3837-4730-bff0-a5f187ae1424"},"vehicle_type_id":"4","last_reported":1706295883,"current_range_meters":24800,"station_id":"ce4bh692rcd13ifvqea0","pricing_plan_id":"free"},{"bike_id":"05fdb446-dc55-4b53-b7ef-5b9950545f86","system_id":"levelo_inurba_marseille","lat":43.29261,"lon":5.38441,"is_reserved":false,"is_disabled":false,"rental_uris":{"android":"levelo://app?vid=05fdb446-dc55-4b53-b7ef-5b9950545f86","ios":"levelo://app?vid=05fdb446-dc55-4b53-b7ef-5b9950545f86"},"vehicle_type_id":"4","last_reported":1706295883,"current_range_meters":7600,"station_id":"ce4bh692rcd13ifvqea0","pricing_plan_id":"free"},{"bike_id":"740ca010-defd-48ae-a7f1-71154afba5b7","system_id":"levelo_inurba_marseille","lat":43.2926,"lon":5.38442,"is_reserved":false,"is_disabled":false,"rental_uris":{"android":"levelo://app?vid=740ca010-defd-48ae-a7f1-71154afba5b7","ios":"levelo://app?vid=740ca010-defd-48ae-a7f1-71154afba5b7"},"vehicle_type_id":"4","last_reported":1706295883,"current_range_meters":0,"station_id":"ce4bh692rcd13ifvqea0","pricing_plan_id":"free"},{"bike_id":"98c2ed8a-28f1-4f78-bed7-952f9926eb8f","system_id":"levelo_inurba_marseille","lat":43.292642,"lon":5.384254,"is_reserved":false,"is_disabled":false,"rental_uris":{"android":"levelo://app?vid=98c2ed8a-28f1-4f78-bed7-952f9926eb8f","ios":"levelo://app?vid=98c2ed8a-28f1-4f78-bed7-952f9926eb8f"},"vehicle_type_id":"4","last_reported":1706295883,"current_range_meters":10000,"station_id":"ce4bh692rcd13ifvqea0","pricing_plan_id":"free"},{"bike_id":"30428ad1-7e04-4f13-a62c-c8ea21428728","system_id":"levelo_inurba_marseille","lat":43.292642,"lon":5.384254,"is_reserved":false,"is_disabled":false,"rental_uris":{"android":"levelo://app?vid=30428ad1-7e04-4f13-a62c-c8ea21428728","ios":"levelo://app?vid=30428ad1-7e04-4f13-a62c-c8ea21428728"},"vehicle_type_id":"4","last_reported":1706295883,"current_range_meters":0,"station_id":"ce4bh692rcd13ifvqea0","pricing_plan_id":"free"},{"bike_id":"5b00d265-65f6-4493-be58-edfbb0878a42","system_id":"levelo_inurba_marseille","lat":43.290104,"lon":5.356111,"is_reserved":false,"is_disabled":false,"rental_uris":{"android":"levelo://app?vid=5b00d265-65f6-4493-be58-edfbb0878a42","ios":"levelo://app?vid=5b00d265-65f6-4493-be58-edfbb0878a42"},"vehicle_type_id":"4","last_reported":1706295883,"current_range_meters":7600,"station_id":"ce4bhb92rcd13ifvqen0","pricing_plan_id":"free"},{"bike_id":"ed905f4f-4dcf-425a-94b3-d63f844c89fd","system_id":"levelo_inurba_marseille","lat":43.29005,"lon":5.35611,"is_reserved":false,"is_disabled":false,"rental_uris":{"android":"levelo://app?vid=ed905f4f-4dcf-425a-94b3-d63f844c89fd","ios":"levelo://app?vid=ed905f4f-4dcf-425a-94b3-d63f844c89fd"},"vehicle_type_id":"4","last_reported":1706295883,"current_range_meters":3600,"station_id":"ce4bhb92rcd13ifvqen0","pricing_plan_id":"free"},{"bike_id":"39b63f7b-a679-4687-884f-726ee72ea099","system_id":"levelo_inurba_marseille","lat":43.29013,"lon":5.37831,"is_reserved":false,"is_disabled":false,"rental_uris":{"android":"levelo://app?vid=39b63f7b-a679-4687-884f-726ee72ea099","ios":"levelo://app?vid=39b63f7b-a679-4687-884f-726ee72ea099"},"vehicle_type_id":"4","last_reported":1706295883,"current_range_meters":16000,"station_id":"","pricing_plan_id":"free"},{"bike_id":"6470b96e-be55-4d59-81c3-89e63cdc0a3f","system_id":"levelo_inurba_marseille","lat":43.28985,"lon":5.35653,"is_reserved":false,"is_disabled":false,"rental_uris":{"android":"levelo://app?vid=6470b96e-be55-4d59-81c3-89e63cdc0a3f","ios":"levelo://app?vid=6470b96e-be55-4d59-81c3-89e63cdc0a3f"},"vehicle_type_id":"4","last_reported":1706295883,"current_range_meters":0,"station_id":"ce4bhb92rcd13ifvqen0","pricing_plan_id":"free"},{"bike_id":"756cd2ae-8b3c-4724-8429-5202555e729a","system_id":"levelo_inurba_marseille","lat":43.29537,"lon":5.390286,"is_reserved":false,"is_disabled":false,"rental_uris":{"android":"levelo://app?vid=756cd2ae-8b3c-4724-8429-5202555e729a","ios":"levelo://app?vid=756cd2ae-8b3c-4724-8429-5202555e729a"},"vehicle_type_id":"4","last_reported":1706295883,"current_range_meters":0,"station_id":"ce4bh3p2rcd13ifvqdp0","pricing_plan_id":"free"},{"bike_id":"f0e56acb-6151-448c-a2cf-747f4ced63ff","system_id":"levelo_inurba_marseille","lat":43.29793,"lon":5.39352,"is_reserved":false,"is_disabled":false,"rental_uris":{"android":"levelo://app?vid=f0e56acb-6151-448c-a2cf-747f4ced63ff","ios":"levelo://app?vid=f0e56acb-6151-448c-a2cf-747f4ced63ff"},"vehicle_type_id":"4","last_reported":1706295883,"current_range_meters":400,"station_id":"chh1huq6cuj3fo74tm60","pricing_plan_id":"free"},{"bike_id":"00f0ce73-62e0-4481-9116-1dfe0ba11879","system_id":"levelo_inurba_marseille","lat":43.297917,"lon":5.39359,"is_reserved":false,"is_disabled":false,"rental_uris":{"android":"levelo://app?vid=00f0ce73-62e0-4481-9116-1dfe0ba11879","ios":"levelo://app?vid=00f0ce73-62e0-4481-9116-1dfe0ba11879"},"vehicle_type_id":"4","last_reported":1706295883,"current_range_meters":0,"station_id":"chh1huq6cuj3fo74tm60","pricing_plan_id":"free"},{"bike_id":"3f03f5fa-03bf-4b30-9042-2390357179a1","system_id":"levelo_inurba_marseille","lat":43.330442,"lon":5.389148,"is_reserved":false,"is_disabled":false,"rental_uris":{"android":"levelo://app?vid=3f03f5fa-03bf-4b30-9042-2390357179a1","ios":"levelo://app?vid=3f03f5fa-03bf-4b30-9042-2390357179a1"},"vehicle_type_id":"4","last_reported":1706295883,"current_range_meters":14000,"station_id":"ce4bhr92rcd13ifvqhrg","pricing_plan_id":"free"},{"bike_id":"03ae5233-d364-40c5-b9c4-8937dfb30aa2","system_id":"levelo_inurba_marseille","lat":43.330442,"lon":5.389148,"is_reserved":false,"is_disabled":false,"rental_uris":{"android":"levelo://app?vid=03ae5233-d364-40c5-b9c4-8937dfb30aa2","ios":"levelo://app?vid=03ae5233-d364-40c5-b9c4-8937dfb30aa2"},"vehicle_type_id":"4","last_reported":1706295883,"current_range_meters":4000,"station_id":"ce4bhr92rcd13ifvqhrg","pricing_plan_id":"free"},{"bike_id":"5cac4158-935d-4fb7-9950-b41309d3eaf8","system_id":"levelo_inurba_marseille","lat":43.33029,"lon":5.39043,"is_reserved":false,"is_disabled":false,"rental_uris":{"android":"levelo://app?vid=5cac4158-935d-4fb7-9950-b41309d3eaf8","ios":"levelo://app?vid=5cac4158-935d-4fb7-9950-b41309d3eaf8"},"vehicle_type_id":"4","last_reported":1706295883,"current_range_meters":11600,"station_id":"ce4bhr92rcd13ifvqhrg","pricing_plan_id":"free"},{"bike_id":"cb024f31-d738-42d6-832b-8e0b233984f8","system_id":"levelo_inurba_marseille","lat":43.330442,"lon":5.389148,"is_reserved":false,"is_disabled":false,"rental_uris":{"android":"levelo://app?vid=cb024f31-d738-42d6-832b-8e0b233984f8","ios":"levelo://app?vid=cb024f31-d738-42d6-832b-8e0b233984f8"},"vehicle_type_id":"4","last_reported":1706295883,"current_range_meters":10800,"station_id":"ce4bhr92rcd13ifvqhrg","pricing_plan_id":"free"},{"bike_id":"f306a0e2-548c-45e2-a5e9-cd3b3c079095","system_id":"levelo_inurba_marseille","lat":43.2901,"lon":5.381269,"is_reserved":false,"is_disabled":false,"rental_uris":{"android":"levelo://app?vid=f306a0e2-548c-45e2-a5e9-cd3b3c079095","ios":"levelo://app?vid=f306a0e2-548c-45e2-a5e9-cd3b3c079095"},"vehicle_type_id":"4","last_reported":1706295883,"current_range_meters":800,"station_id":"ce4bh4p2rcd13ifvqe1g","pricing_plan_id":"free"},{"bike_id":"406d56f7-24b1-4559-80a3-463bbbea7572","system_id":"levelo_inurba_marseille","lat":43.2901,"lon":5.381269,"is_reserved":false,"is_disabled":false,"rental_uris":{"android":"levelo://app?vid=406d56f7-24b1-4559-80a3-463bbbea7572","ios":"levelo://app?vid=406d56f7-24b1-4559-80a3-463bbbea7572"},"vehicle_type_id":"4","last_reported":1706295883,"current_range_meters":26800,"station_id":"ce4bh4p2rcd13ifvqe1g","pricing_plan_id":"free"},{"bike_id":"3405e203-a74f-4e2f-afe7-05da97f61a62","system_id":"levelo_inurba_marseille","lat":43.28938,"lon":5.35492,"is_reserved":false,"is_disabled":false,"rental_uris":{"android":"levelo://app?vid=3405e203-a74f-4e2f-afe7-05da97f61a62","ios":"levelo://app?vid=3405e203-a74f-4e2f-afe7-05da97f61a62"},"vehicle_type_id":"4","last_reported":1706295883,"current_range_meters":0,"station_id":"","pricing_plan_id":"free"},{"bike_id":"77a2d1ab-267b-47e7-b7ef-cfe8365b1da8","system_id":"levelo_inurba_marseille","lat":43.28856,"lon":5.358371,"is_reserved":false,"is_disabled":false,"rental_uris":{"android":"levelo://app?vid=77a2d1ab-267b-47e7-b7ef-cfe8365b1da8","ios":"levelo://app?vid=77a2d1ab-267b-47e7-b7ef-cfe8365b1da8"},"vehicle_type_id":"4","last_reported":1706295883,"current_range_meters":4000,"station_id":"ce4bhb12rcd13ifvqem0","pricing_plan_id":"free"},{"bike_id":"48c1fa8b-ed72-4d16-a653-ad54f91e9dca","system_id":"levelo_inurba_marseille","lat":43.309371,"lon":5.401449,"is_reserved":false,"is_disabled":false,"rental_uris":{"android":"levelo://app?vid=48c1fa8b-ed72-4d16-a653-ad54f91e9dca","ios":"levelo://app?vid=48c1fa8b-ed72-4d16-a653-ad54f91e9dca"},"vehicle_type_id":"4","last_reported":1706295883,"current_range_meters":400,"station_id":"ce4bgvp2rcd13ifvqct0","pricing_plan_id":"free"},{"bike_id":"6fd4c079-968d-4536-a499-53b3ca80b8c3","system_id":"levelo_inurba_marseille","lat":43.312609,"lon":5.401662,"is_reserved":false,"is_disabled":false,"rental_uris":{"android":"levelo://app?vid=6fd4c079-968d-4536-a499-53b3ca80b8c3","ios":"levelo://app?vid=6fd4c079-968d-4536-a499-53b3ca80b8c3"},"vehicle_type_id":"4","last_reported":1706295883,"current_range_meters":18800,"station_id":"ce4bh092rcd13ifvqd30","pricing_plan_id":"free"},{"bike_id":"fda524f8-75bf-4d70-8344-cc9c6910f150","system_id":"levelo_inurba_marseille","lat":43.309371,"lon":5.401449,"is_reserved":false,"is_disabled":false,"rental_uris":{"android":"levelo://app?vid=fda524f8-75bf-4d70-8344-cc9c6910f150","ios":"levelo://app?vid=fda524f8-75bf-4d70-8344-cc9c6910f150"},"vehicle_type_id":"4","last_reported":1706295883,"current_range_meters":4000,"station_id":"ce4bgvp2rcd13ifvqct0","pricing_plan_id":"free"},{"bike_id":"a797ffc5-c458-40ba-9bc9-6560dd2a2969","system_id":"levelo_inurba_marseille","lat":43.312609,"lon":5.401662,"is_reserved":false,"is_disabled":false,"rental_uris":{"android":"levelo://app?vid=a797ffc5-c458-40ba-9bc9-6560dd2a2969","ios":"levelo://app?vid=a797ffc5-c458-40ba-9bc9-6560dd2a2969"},"vehicle_type_id":"4","last_reported":1706295883,"current_range_meters":0,"station_id":"ce4bh092rcd13ifvqd30","pricing_plan_id":"free"},{"bike_id":"b7f12eab-e0a6-499e-87ec-2b4381c4602a","system_id":"levelo_inurba_marseille","lat":43.337534,"lon":5.374771,"is_reserved":false,"is_disabled":false,"rental_uris":{"android":"levelo://app?vid=b7f12eab-e0a6-499e-87ec-2b4381c4602a","ios":"levelo://app?vid=b7f12eab-e0a6-499e-87ec-2b4381c4602a"},"vehicle_type_id":"4","last_reported":1706295883,"current_range_meters":27600,"station_id":"","pricing_plan_id":"free"},{"bike_id":"e9835281-b24c-464b-ab7e-1abfbee90a6b","system_id":"levelo_inurba_marseille","lat":43.306412,"lon":5.401035,"is_reserved":false,"is_disabled":false,"rental_uris":{"android":"levelo://app?vid=e9835281-b24c-464b-ab7e-1abfbee90a6b","ios":"levelo://app?vid=e9835281-b24c-464b-ab7e-1abfbee90a6b"},"vehicle_type_id":"4","last_reported":1706295883,"current_range_meters":0,"station_id":"ce4bh112rcd13ifvqda0","pricing_plan_id":"free"},{"bike_id":"5b216a91-6d46-41fe-82f2-f1be5fab3351","system_id":"levelo_inurba_marseille","lat":43.28727,"lon":5.36078,"is_reserved":false,"is_disabled":false,"rental_uris":{"android":"levelo://app?vid=5b216a91-6d46-41fe-82f2-f1be5fab3351","ios":"levelo://app?vid=5b216a91-6d46-41fe-82f2-f1be5fab3351"},"vehicle_type_id":"4","last_reported":1706295883,"current_range_meters":18800,"station_id":"cki0cbj6b192h4jlfktg","pricing_plan_id":"free"},{"bike_id":"8654f22f-02b1-4475-9a3c-92c9ebd72632","system_id":"levelo_inurba_marseille","lat":43.286591,"lon":5.363346,"is_reserved":false,"is_disabled":false,"rental_uris":{"android":"levelo://app?vid=8654f22f-02b1-4475-9a3c-92c9ebd72632","ios":"levelo://app?vid=8654f22f-02b1-4475-9a3c-92c9ebd72632"},"vehicle_type_id":"4","last_reported":1706295883,"current_range_meters":24000,"station_id":"ce4bhah2rcd13ifvqej0","pricing_plan_id":"free"},{"bike_id":"98782f34-e4b8-4ee5-ad50-86d8259ea5ab","system_id":"levelo_inurba_marseille","lat":43.298681,"lon":5.397225,"is_reserved":false,"is_disabled":false,"rental_uris":{"android":"levelo://app?vid=98782f34-e4b8-4ee5-ad50-86d8259ea5ab","ios":"levelo://app?vid=98782f34-e4b8-4ee5-ad50-86d8259ea5ab"},"vehicle_type_id":"4","last_reported":1706295883,"current_range_meters":22400,"station_id":"ce4bh0h2rcd13ifvqd50","pricing_plan_id":"free"},{"bike_id":"952fc18b-7e36-416a-9a5e-70263189a9c6","system_id":"levelo_inurba_marseille","lat":43.286591,"lon":5.363346,"is_reserved":false,"is_disabled":false,"rental_uris":{"android":"levelo://app?vid=952fc18b-7e36-416a-9a5e-70263189a9c6","ios":"levelo://app?vid=952fc18b-7e36-416a-9a5e-70263189a9c6"},"vehicle_type_id":"4","last_reported":1706295883,"current_range_meters":9200,"station_id":"ce4bhah2rcd13ifvqej0","pricing_plan_id":"free"},{"bike_id":"8bdd40ae-363c-41d9-8cb9-c9f1ae6f7cd5","system_id":"levelo_inurba_marseille","lat":43.298681,"lon":5.397225,"is_reserved":false,"is_disabled":false,"rental_uris":{"android":"levelo://app?vid=8bdd40ae-363c-41d9-8cb9-c9f1ae6f7cd5","ios":"levelo://app?vid=8bdd40ae-363c-41d9-8cb9-c9f1ae6f7cd5"},"vehicle_type_id":"4","last_reported":1706295883,"current_range_meters":16000,"station_id":"ce4bh0h2rcd13ifvqd50","pricing_plan_id":"free"},{"bike_id":"bf309f91-04e8-4a16-8f56-694f49e0e337","system_id":"levelo_inurba_marseille","lat":43.286593,"lon":5.363346,"is_reserved":false,"is_disabled":false,"rental_uris":{"android":"levelo://app?vid=bf309f91-04e8-4a16-8f56-694f49e0e337","ios":"levelo://app?vid=bf309f91-04e8-4a16-8f56-694f49e0e337"},"vehicle_type_id":"4","last_reported":1706295883,"current_range_meters":400,"station_id":"ce4bhah2rcd13ifvqej0","pricing_plan_id":"free"},{"bike_id":"f3860d6e-fe6a-472a-8887-4053c1162f54","system_id":"levelo_inurba_marseille","lat":43.28654,"lon":5.36361,"is_reserved":false,"is_disabled":false,"rental_uris":{"android":"levelo://app?vid=f3860d6e-fe6a-472a-8887-4053c1162f54","ios":"levelo://app?vid=f3860d6e-fe6a-472a-8887-4053c1162f54"},"vehicle_type_id":"4","last_reported":1706295883,"current_range_meters":0,"station_id":"ce4bhah2rcd13ifvqej0","pricing_plan_id":"free"},{"bike_id":"5f288a63-a870-4c9b-912d-f1e9fe870b71","system_id":"levelo_inurba_marseille","lat":43.286961,"lon":5.373785,"is_reserved":false,"is_disabled":false,"rental_uris":{"android":"levelo://app?vid=5f288a63-a870-4c9b-912d-f1e9fe870b71","ios":"levelo://app?vid=5f288a63-a870-4c9b-912d-f1e9fe870b71"},"vehicle_type_id":"4","last_reported":1706295883,"current_range_meters":1600,"station_id":"ce4bh3p2rcd13ifvqdq0","pricing_plan_id":"free"},{"bike_id":"7e64d1bc-ad62-4832-948f-251da94869bc","system_id":"levelo_inurba_marseille","lat":43.295194,"lon":5.39397,"is_reserved":false,"is_disabled":false,"rental_uris":{"android":"levelo://app?vid=7e64d1bc-ad62-4832-948f-251da94869bc","ios":"levelo://app?vid=7e64d1bc-ad62-4832-948f-251da94869bc"},"vehicle_type_id":"4","last_reported":1706295883,"current_range_meters":10400,"station_id":"ce4bh292rcd13ifvqdf0","pricing_plan_id":"free"},{"bike_id":"6ca98324-dca6-4df4-b3a4-54270a11b66c","system_id":"levelo_inurba_marseille","lat":43.289307,"lon":5.38406,"is_reserved":false,"is_disabled":false,"rental_uris":{"android":"levelo://app?vid=6ca98324-dca6-4df4-b3a4-54270a11b66c","ios":"levelo://app?vid=6ca98324-dca6-4df4-b3a4-54270a11b66c"},"vehicle_type_id":"4","last_reported":1706295883,"current_range_meters":4800,"station_id":"ce4bh612rcd13ifvqe6g","pricing_plan_id":"free"},{"bike_id":"f6201ce6-921f-4fe5-8cba-8cf513a6be21","system_id":"levelo_inurba_marseille","lat":43.290345,"lon":5.38646,"is_reserved":false,"is_disabled":false,"rental_uris":{"android":"levelo://app?vid=f6201ce6-921f-4fe5-8cba-8cf513a6be21","ios":"levelo://app?vid=f6201ce6-921f-4fe5-8cba-8cf513a6be21"},"vehicle_type_id":"4","last_reported":1706295883,"current_range_meters":7600,"station_id":"ce4bh4p2rcd13ifvqe0g","pricing_plan_id":"free"},{"bike_id":"dc337c56-32d1-44fa-b023-7b56a8a95dce","system_id":"levelo_inurba_marseille","lat":43.289307,"lon":5.38406,"is_reserved":false,"is_disabled":false,"rental_uris":{"android":"levelo://app?vid=dc337c56-32d1-44fa-b023-7b56a8a95dce","ios":"levelo://app?vid=dc337c56-32d1-44fa-b023-7b56a8a95dce"},"vehicle_type_id":"4","last_reported":1706295883,"current_range_meters":4400,"station_id":"ce4bh612rcd13ifvqe6g","pricing_plan_id":"free"},{"bike_id":"db769e02-ec79-4482-9a7d-eea96273299a","system_id":"levelo_inurba_marseille","lat":43.290345,"lon":5.38646,"is_reserved":false,"is_disabled":false,"rental_uris":{"android":"levelo://app?vid=db769e02-ec79-4482-9a7d-eea96273299a","ios":"levelo://app?vid=db769e02-ec79-4482-9a7d-eea96273299a"},"vehicle_type_id":"4","last_reported":1706295883,"current_range_meters":4400,"station_id":"ce4bh4p2rcd13ifvqe0g","pricing_plan_id":"free"},{"bike_id":"6e6b7dae-e7a0-412e-9acc-b59ce41bd9b5","system_id":"levelo_inurba_marseille","lat":43.290336,"lon":5.386425,"is_reserved":false,"is_disabled":false,"rental_uris":{"android":"levelo://app?vid=6e6b7dae-e7a0-412e-9acc-b59ce41bd9b5","ios":"levelo://app?vid=6e6b7dae-e7a0-412e-9acc-b59ce41bd9b5"},"vehicle_type_id":"4","last_reported":1706295883,"current_range_meters":3600,"station_id":"ce4bh4p2rcd13ifvqe0g","pricing_plan_id":"free"},{"bike_id":"a7a14f66-bb70-47de-8390-1135926c5007","system_id":"levelo_inurba_marseille","lat":43.290345,"lon":5.38646,"is_reserved":false,"is_disabled":false,"rental_uris":{"android":"levelo://app?vid=a7a14f66-bb70-47de-8390-1135926c5007","ios":"levelo://app?vid=a7a14f66-bb70-47de-8390-1135926c5007"},"vehicle_type_id":"4","last_reported":1706295883,"current_range_meters":0,"station_id":"ce4bh4p2rcd13ifvqe0g","pricing_plan_id":"free"},{"bike_id":"3c8209ab-08b5-4300-86c3-11650bf39c39","system_id":"levelo_inurba_marseille","lat":43.28924,"lon":5.38404,"is_reserved":false,"is_disabled":false,"rental_uris":{"android":"levelo://app?vid=3c8209ab-08b5-4300-86c3-11650bf39c39","ios":"levelo://app?vid=3c8209ab-08b5-4300-86c3-11650bf39c39"},"vehicle_type_id":"4","last_reported":1706295883,"current_range_meters":26400,"station_id":"ce4bh612rcd13ifvqe6g","pricing_plan_id":"free"},{"bike_id":"01558ba2-8104-4de7-80a1-8a0fedbc2942","system_id":"levelo_inurba_marseille","lat":43.290345,"lon":5.38646,"is_reserved":false,"is_disabled":false,"rental_uris":{"android":"levelo://app?vid=01558ba2-8104-4de7-80a1-8a0fedbc2942","ios":"levelo://app?vid=01558ba2-8104-4de7-80a1-8a0fedbc2942"},"vehicle_type_id":"4","last_reported":1706295883,"current_range_meters":10800,"station_id":"ce4bh4p2rcd13ifvqe0g","pricing_plan_id":"free"},{"bike_id":"83352b6f-cf10-4f61-b5f8-8ffeb5bd4cf2","system_id":"levelo_inurba_marseille","lat":43.287184,"lon":5.37937,"is_reserved":false,"is_disabled":false,"rental_uris":{"android":"levelo://app?vid=83352b6f-cf10-4f61-b5f8-8ffeb5bd4cf2","ios":"levelo://app?vid=83352b6f-cf10-4f61-b5f8-8ffeb5bd4cf2"},"vehicle_type_id":"4","last_reported":1706295883,"current_range_meters":10000,"station_id":"ce4bh9p2rcd13ifvqec0","pricing_plan_id":"free"},{"bike_id":"25e89ddc-6741-44d6-8d3d-7aacdef0a63d","system_id":"levelo_inurba_marseille","lat":43.287185,"lon":5.379373,"is_reserved":false,"is_disabled":false,"rental_uris":{"android":"levelo://app?vid=25e89ddc-6741-44d6-8d3d-7aacdef0a63d","ios":"levelo://app?vid=25e89ddc-6741-44d6-8d3d-7aacdef0a63d"},"vehicle_type_id":"4","last_reported":1706295883,"current_range_meters":0,"station_id":"ce4bh9p2rcd13ifvqec0","pricing_plan_id":"free"},{"bike_id":"3f45a083-100a-4d88-887f-025813082689","system_id":"levelo_inurba_marseille","lat":43.287185,"lon":5.379373,"is_reserved":false,"is_disabled":false,"rental_uris":{"android":"levelo://app?vid=3f45a083-100a-4d88-887f-025813082689","ios":"levelo://app?vid=3f45a083-100a-4d88-887f-025813082689"},"vehicle_type_id":"4","last_reported":1706295883,"current_range_meters":2400,"station_id":"ce4bh9p2rcd13ifvqec0","pricing_plan_id":"free"},{"bike_id":"a7c0a6dc-1328-4b04-9722-b7d2ce2eb3b1","system_id":"levelo_inurba_marseille","lat":43.287185,"lon":5.379373,"is_reserved":false,"is_disabled":false,"rental_uris":{"android":"levelo://app?vid=a7c0a6dc-1328-4b04-9722-b7d2ce2eb3b1","ios":"levelo://app?vid=a7c0a6dc-1328-4b04-9722-b7d2ce2eb3b1"},"vehicle_type_id":"4","last_reported":1706295883,"current_range_meters":1600,"station_id":"ce4bh9p2rcd13ifvqec0","pricing_plan_id":"free"},{"bike_id":"04012bf1-3eef-402d-a38a-d9b3c5eb35fb","system_id":"levelo_inurba_marseille","lat":43.31693,"lon":5.40475,"is_reserved":false,"is_disabled":false,"rental_uris":{"android":"levelo://app?vid=04012bf1-3eef-402d-a38a-d9b3c5eb35fb","ios":"levelo://app?vid=04012bf1-3eef-402d-a38a-d9b3c5eb35fb"},"vehicle_type_id":"4","last_reported":1706295883,"current_range_meters":0,"station_id":"ce4bh012rcd13ifvqd00","pricing_plan_id":"free"},{"bike_id":"9f4fb5ff-c2e2-4540-8f57-773bbebac505","system_id":"levelo_inurba_marseille","lat":43.291994,"lon":5.392907,"is_reserved":false,"is_disabled":false,"rental_uris":{"android":"levelo://app?vid=9f4fb5ff-c2e2-4540-8f57-773bbebac505","ios":"levelo://app?vid=9f4fb5ff-c2e2-4540-8f57-773bbebac505"},"vehicle_type_id":"4","last_reported":1706295883,"current_range_meters":0,"station_id":"ce4bh192rcd13ifvqdd0","pricing_plan_id":"free"},{"bike_id":"60012d89-dbef-4f2a-9b25-1598019debe7","system_id":"levelo_inurba_marseille","lat":43.291994,"lon":5.392907,"is_reserved":false,"is_disabled":false,"rental_uris":{"android":"levelo://app?vid=60012d89-dbef-4f2a-9b25-1598019debe7","ios":"levelo://app?vid=60012d89-dbef-4f2a-9b25-1598019debe7"},"vehicle_type_id":"4","last_reported":1706295883,"current_range_meters":6400,"station_id":"ce4bh192rcd13ifvqdd0","pricing_plan_id":"free"},{"bike_id":"84aeb844-fc68-45b3-81c3-2c6e406e4376","system_id":"levelo_inurba_marseille","lat":43.284538,"lon":5.358657,"is_reserved":false,"is_disabled":false,"rental_uris":{"android":"levelo://app?vid=84aeb844-fc68-45b3-81c3-2c6e406e4376","ios":"levelo://app?vid=84aeb844-fc68-45b3-81c3-2c6e406e4376"},"vehicle_type_id":"4","last_reported":1706295883,"current_range_meters":20800,"station_id":"ce4bhah2rcd13ifvqei0","pricing_plan_id":"free"},{"bike_id":"5430a45a-ecf4-46c6-bed6-5ed8018ea80d","system_id":"levelo_inurba_marseille","lat":43.284538,"lon":5.358657,"is_reserved":false,"is_disabled":false,"rental_uris":{"android":"levelo://app?vid=5430a45a-ecf4-46c6-bed6-5ed8018ea80d","ios":"levelo://app?vid=5430a45a-ecf4-46c6-bed6-5ed8018ea80d"},"vehicle_type_id":"4","last_reported":1706295883,"current_range_meters":2000,"station_id":"ce4bhah2rcd13ifvqei0","pricing_plan_id":"free"},{"bike_id":"83a7b252-288e-446c-aa8d-2f2a2319200d","system_id":"levelo_inurba_marseille","lat":43.28467,"lon":5.35902,"is_reserved":false,"is_disabled":false,"rental_uris":{"android":"levelo://app?vid=83a7b252-288e-446c-aa8d-2f2a2319200d","ios":"levelo://app?vid=83a7b252-288e-446c-aa8d-2f2a2319200d"},"vehicle_type_id":"4","last_reported":1706295883,"current_range_meters":0,"station_id":"ce4bhah2rcd13ifvqei0","pricing_plan_id":"free"},{"bike_id":"48b66954-7608-4036-b576-2bafca3b2240","system_id":"levelo_inurba_marseille","lat":43.284538,"lon":5.358657,"is_reserved":false,"is_disabled":false,"rental_uris":{"android":"levelo://app?vid=48b66954-7608-4036-b576-2bafca3b2240","ios":"levelo://app?vid=48b66954-7608-4036-b576-2bafca3b2240"},"vehicle_type_id":"4","last_reported":1706295883,"current_range_meters":0,"station_id":"ce4bhah2rcd13ifvqei0","pricing_plan_id":"free"},{"bike_id":"e41d00ba-c096-48ea-811a-0690ae2133b3","system_id":"levelo_inurba_marseille","lat":43.284683,"lon":5.358907,"is_reserved":false,"is_disabled":false,"rental_uris":{"android":"levelo://app?vid=e41d00ba-c096-48ea-811a-0690ae2133b3","ios":"levelo://app?vid=e41d00ba-c096-48ea-811a-0690ae2133b3"},"vehicle_type_id":"4","last_reported":1706295883,"current_range_meters":0,"station_id":"ce4bhah2rcd13ifvqei0","pricing_plan_id":"free"},{"bike_id":"33dbf104-7571-456d-b382-a455a90d7bf6","system_id":"levelo_inurba_marseille","lat":43.28458,"lon":5.35891,"is_reserved":false,"is_disabled":false,"rental_uris":{"android":"levelo://app?vid=33dbf104-7571-456d-b382-a455a90d7bf6","ios":"levelo://app?vid=33dbf104-7571-456d-b382-a455a90d7bf6"},"vehicle_type_id":"4","last_reported":1706295883,"current_range_meters":0,"station_id":"ce4bhah2rcd13ifvqei0","pricing_plan_id":"free"},{"bike_id":"0543638d-2d72-4ced-abc7-c2d81e487c70","system_id":"levelo_inurba_marseille","lat":43.294314,"lon":5.397498,"is_reserved":false,"is_disabled":false,"rental_uris":{"android":"levelo://app?vid=0543638d-2d72-4ced-abc7-c2d81e487c70","ios":"levelo://app?vid=0543638d-2d72-4ced-abc7-c2d81e487c70"},"vehicle_type_id":"4","last_reported":1706295883,"current_range_meters":2400,"station_id":"ce4bh3h2rcd13ifvqdo0","pricing_plan_id":"free"},{"bike_id":"439081e3-1710-4f82-b4db-df5bdc1f5bb2","system_id":"levelo_inurba_marseille","lat":43.294314,"lon":5.397498,"is_reserved":false,"is_disabled":false,"rental_uris":{"android":"levelo://app?vid=439081e3-1710-4f82-b4db-df5bdc1f5bb2","ios":"levelo://app?vid=439081e3-1710-4f82-b4db-df5bdc1f5bb2"},"vehicle_type_id":"4","last_reported":1706295883,"current_range_meters":20800,"station_id":"ce4bh3h2rcd13ifvqdo0","pricing_plan_id":"free"},{"bike_id":"b21b77fb-b8a6-46e8-bcbc-5297880eba72","system_id":"levelo_inurba_marseille","lat":43.28619,"lon":5.35101,"is_reserved":false,"is_disabled":false,"rental_uris":{"android":"levelo://app?vid=b21b77fb-b8a6-46e8-bcbc-5297880eba72","ios":"levelo://app?vid=b21b77fb-b8a6-46e8-bcbc-5297880eba72"},"vehicle_type_id":"4","last_reported":1706295883,"current_range_meters":0,"station_id":"ce4bhch2rcd13ifvqeug","pricing_plan_id":"free"},{"bike_id":"8eeede94-02c4-49eb-b418-db1de6a0ad89","system_id":"levelo_inurba_marseille","lat":43.285848,"lon":5.350787,"is_reserved":false,"is_disabled":false,"rental_uris":{"android":"levelo://app?vid=8eeede94-02c4-49eb-b418-db1de6a0ad89","ios":"levelo://app?vid=8eeede94-02c4-49eb-b418-db1de6a0ad89"},"vehicle_type_id":"4","last_reported":1706295883,"current_range_meters":0,"station_id":"ce4bhch2rcd13ifvqeug","pricing_plan_id":"free"},{"bike_id":"aa52849a-0e37-4363-88c8-fb54e8e8cc59","system_id":"levelo_inurba_marseille","lat":43.28615,"lon":5.35104,"is_reserved":false,"is_disabled":false,"rental_uris":{"android":"levelo://app?vid=aa52849a-0e37-4363-88c8-fb54e8e8cc59","ios":"levelo://app?vid=aa52849a-0e37-4363-88c8-fb54e8e8cc59"},"vehicle_type_id":"4","last_reported":1706295883,"current_range_meters":0,"station_id":"ce4bhch2rcd13ifvqeug","pricing_plan_id":"free"},{"bike_id":"aa0c00fc-60f0-411b-80fa-49677be1811c","system_id":"levelo_inurba_marseille","lat":43.285848,"lon":5.350787,"is_reserved":false,"is_disabled":false,"rental_uris":{"android":"levelo://app?vid=aa0c00fc-60f0-411b-80fa-49677be1811c","ios":"levelo://app?vid=aa0c00fc-60f0-411b-80fa-49677be1811c"},"vehicle_type_id":"4","last_reported":1706295883,"current_range_meters":9200,"station_id":"ce4bhch2rcd13ifvqeug","pricing_plan_id":"free"},{"bike_id":"b6ede0b5-da9e-4c42-b771-ebda8bb0f2a5","system_id":"levelo_inurba_marseille","lat":43.28613,"lon":5.35096,"is_reserved":false,"is_disabled":false,"rental_uris":{"android":"levelo://app?vid=b6ede0b5-da9e-4c42-b771-ebda8bb0f2a5","ios":"levelo://app?vid=b6ede0b5-da9e-4c42-b771-ebda8bb0f2a5"},"vehicle_type_id":"4","last_reported":1706295883,"current_range_meters":22000,"station_id":"ce4bhch2rcd13ifvqeug","pricing_plan_id":"free"},{"bike_id":"de977253-3fc4-4670-a50b-f0352470faf5","system_id":"levelo_inurba_marseille","lat":43.2839,"lon":5.3615,"is_reserved":false,"is_disabled":false,"rental_uris":{"android":"levelo://app?vid=de977253-3fc4-4670-a50b-f0352470faf5","ios":"levelo://app?vid=de977253-3fc4-4670-a50b-f0352470faf5"},"vehicle_type_id":"4","last_reported":1706295883,"current_range_meters":6800,"station_id":"","pricing_plan_id":"free"},{"bike_id":"c0e41574-ed2c-4232-81e9-795b6431d43d","system_id":"levelo_inurba_marseille","lat":43.319179,"lon":5.407725,"is_reserved":false,"is_disabled":false,"rental_uris":{"android":"levelo://app?vid=c0e41574-ed2c-4232-81e9-795b6431d43d","ios":"levelo://app?vid=c0e41574-ed2c-4232-81e9-795b6431d43d"},"vehicle_type_id":"4","last_reported":1706295883,"current_range_meters":400,"station_id":"ce4bhq12rcd13ifvqhig","pricing_plan_id":"free"},{"bike_id":"1cb3d67c-bb05-4459-9744-d7963b18023f","system_id":"levelo_inurba_marseille","lat":43.286595,"lon":5.386795,"is_reserved":false,"is_disabled":false,"rental_uris":{"android":"levelo://app?vid=1cb3d67c-bb05-4459-9744-d7963b18023f","ios":"levelo://app?vid=1cb3d67c-bb05-4459-9744-d7963b18023f"},"vehicle_type_id":"4","last_reported":1706295883,"current_range_meters":22400,"station_id":"ce4bh492rcd13ifvqdug","pricing_plan_id":"free"},{"bike_id":"39d5b51b-a3f0-48bd-b347-a780de53c69b","system_id":"levelo_inurba_marseille","lat":43.323464,"lon":5.406297,"is_reserved":false,"is_disabled":false,"rental_uris":{"android":"levelo://app?vid=39d5b51b-a3f0-48bd-b347-a780de53c69b","ios":"levelo://app?vid=39d5b51b-a3f0-48bd-b347-a780de53c69b"},"vehicle_type_id":"4","last_reported":1706295883,"current_range_meters":28400,"station_id":"ce4bhq92rcd13ifvqhjg","pricing_plan_id":"free"},{"bike_id":"b4bd1ce7-26ad-41db-a915-a3b476b9e02e","system_id":"levelo_inurba_marseille","lat":43.323464,"lon":5.406297,"is_reserved":false,"is_disabled":false,"rental_uris":{"android":"levelo://app?vid=b4bd1ce7-26ad-41db-a915-a3b476b9e02e","ios":"levelo://app?vid=b4bd1ce7-26ad-41db-a915-a3b476b9e02e"},"vehicle_type_id":"4","last_reported":1706295883,"current_range_meters":31200,"station_id":"ce4bhq92rcd13ifvqhjg","pricing_plan_id":"free"},{"bike_id":"29c971f3-912e-4f79-8c22-d20e1f4b5d74","system_id":"levelo_inurba_marseille","lat":43.337168,"lon":5.391825,"is_reserved":false,"is_disabled":false,"rental_uris":{"android":"levelo://app?vid=29c971f3-912e-4f79-8c22-d20e1f4b5d74","ios":"levelo://app?vid=29c971f3-912e-4f79-8c22-d20e1f4b5d74"},"vehicle_type_id":"4","last_reported":1706295883,"current_range_meters":23600,"station_id":"ce4bhr92rcd13ifvqhsg","pricing_plan_id":"free"},{"bike_id":"c62d8f55-c33f-4fec-85ec-096f36f5b912","system_id":"levelo_inurba_marseille","lat":43.28476,"lon":5.38406,"is_reserved":false,"is_disabled":false,"rental_uris":{"android":"levelo://app?vid=c62d8f55-c33f-4fec-85ec-096f36f5b912","ios":"levelo://app?vid=c62d8f55-c33f-4fec-85ec-096f36f5b912"},"vehicle_type_id":"4","last_reported":1706295883,"current_range_meters":23200,"station_id":"ce4bh512rcd13ifvqe3g","pricing_plan_id":"free"},{"bike_id":"1bb8c121-5f92-44ed-aa91-b85a3ab7e556","system_id":"levelo_inurba_marseille","lat":43.28474,"lon":5.38417,"is_reserved":false,"is_disabled":false,"rental_uris":{"android":"levelo://app?vid=1bb8c121-5f92-44ed-aa91-b85a3ab7e556","ios":"levelo://app?vid=1bb8c121-5f92-44ed-aa91-b85a3ab7e556"},"vehicle_type_id":"4","last_reported":1706295883,"current_range_meters":0,"station_id":"ce4bh512rcd13ifvqe3g","pricing_plan_id":"free"},