{"last_updated":1701104797,"ttl":30,"version":"2.2","data":{"bikes":[{"bike_id":"f51fe9fd-4279-44cb-8049-f49fa432c2b0","system_id":"levelo_inurba_marseille","lat":43.312239,"lon":5.368562,"is_reserved":false,"is_disabled":false,"rental_uris":{"android":"levelo://app?vid=f51fe9fd-4279-44cb-8049-f49fa432c2b0","ios":"levelo://app?vid=f51fe9fd-4279-44cb-8049-f49fa432c2b0"},"vehicle_type_id":"4","last_reported":1701104798,"current_range_meters":31600,"station_id":"ce4bgl92rcd13ifvqbq0","pricing_plan_id":"free"},{"bike_id":"afe55381-cae8-46ba-b2dd-57a0f8f100f4","system_id":"levelo_inurba_marseille","lat":43.31353,"lon":5.36713,"is_reserved":false,"is_disabled":false,"rental_uris":{"android":"levelo://app?vid=afe55381-cae8-46ba-b2dd-57a0f8f100f4","ios":"levelo://app?vid=afe55381-cae8-46ba-b2dd-57a0f8f100f4"},"vehicle_type_id":"4","last_reported":1701104798,"current_range_meters":20000,"station_id":"ce4bgr92rcd13ifvqc6g","pricing_plan_id":"free"},{"bike_id":"f79e56b7-07fc-4cbb-8c5f-1219abdbaaa0","system_id":"levelo_inurba_marseille","lat":43.31362,"lon":5.36706,"is_reserved":false,"is_disabled":false,"rental_uris":{"android":"levelo://app?vid=f79e56b7-07fc-4cbb-8c5f-1219abdbaaa0","ios":"levelo://app?vid=f79e56b7-07fc-4cbb-8c5f-1219abdbaaa0"},"vehicle_type_id":"4","last_reported":1701104798,"current_range_meters":28800,"station_id":"ce4bgr92rcd13ifvqc6g","pricing_plan_id":"free"},{"bike_id":"df7f1710-213d-4be5-86a8-93f4a5b41e94","system_id":"levelo_inurba_marseille","lat":43.312239,"lon":5.368562,"is_reserved":false,"is_disabled":false,"rental_uris":{"android":"levelo://app?vid=df7f1710-213d-4be5-86a8-93f4a5b41e94","ios":"levelo://app?vid=df7f1710-213d-4be5-86a8-93f4a5b41e94"},"vehicle_type_id":"4","last_reported":1701104798,"current_range_meters":31200,"station_id":"ce4bgl92rcd13ifvqbq0","pricing_plan_id":"free"},{"bike_id":"ec23ce75-aca3-4739-b1fe-5b6216530996","system_id":"levelo_inurba_marseille","lat":43.312239,"lon":5.368562,"is_reserved":false,"is_disabled":false,"rental_uris":{"android":"levelo://app?vid=ec23ce75-aca3-4739-b1fe-5b6216530996","ios":"levelo://app?vid=ec23ce75-aca3-4739-b1fe-5b6216530996"},"vehicle_type_id":"4","last_reported":1701104798,"current_range_meters":16800,"station_id":"ce4bgl92rcd13ifvqbq0","pricing_plan_id":"free"},{"bike_id":"f8ce07bd-74a2-449d-a36f-cb40f7c8a45f","system_id":"levelo_inurba_marseille","lat":43.312239,"lon":5.368562,"is_reserved":false,"is_disabled":false,"rental_uris":{"android":"levelo://app?vid=f8ce07bd-74a2-449d-a36f-cb40f7c8a45f","ios":"levelo://app?vid=f8ce07bd-74a2-449d-a36f-cb40f7c8a45f"},"vehicle_type_id":"4","last_reported":1701104798,"current_range_meters":7200,"station_id":"ce4bgl92rcd13ifvqbq0","pricing_plan_id":"free"},{"bike_id":"5126b0aa-d865-4589-8d50-8d8600ba8782","system_id":"levelo_inurba_marseille","lat":43.30848,"lon":5.368759,"is_reserved":false,"is_disabled":false,"rental_uris":{"android":"levelo://app?vid=5126b0aa-d865-4589-8d50-8d8600ba8782","ios":"levelo://app?vid=5126b0aa-d865-4589-8d50-8d8600ba8782"},"vehicle_type_id":"4","last_reported":1701104798,"current_range_meters":26000,"station_id":"","pricing_plan_id":"free"},{"bike_id":"8cc4af17-6959-4b10-b7b0-0892cf3527dd","system_id":"levelo_inurba_marseille","lat":43.314811,"lon":5.373103,"is_reserved":false,"is_disabled":false,"rental_uris":{"android":"levelo://app?vid=8cc4af17-6959-4b10-b7b0-0892cf3527dd","ios":"levelo://app?vid=8cc4af17-6959-4b10-b7b0-0892cf3527dd"},"vehicle_type_id":"4","last_reported":1701104798,"current_range_meters":22000,"station_id":"ce4bgt12rcd13ifvqcd0","pricing_plan_id":"free"},{"bike_id":"755702a1-4712-4ed5-8867-9cf273d8bd31","system_id":"levelo_inurba_marseille","lat":43.314811,"lon":5.373103,"is_reserved":false,"is_disabled":false,"rental_uris":{"android":"levelo://app?vid=755702a1-4712-4ed5-8867-9cf273d8bd31","ios":"levelo://app?vid=755702a1-4712-4ed5-8867-9cf273d8bd31"},"vehicle_type_id":"4","last_reported":1701104798,"current_range_meters":18800,"station_id":"ce4bgt12rcd13ifvqcd0","pricing_plan_id":"free"},{"bike_id":"2da78528-807f-47e5-8f9f-0d4da51682b2","system_id":"levelo_inurba_marseille","lat":43.314811,"lon":5.373103,"is_reserved":false,"is_disabled":false,"rental_uris":{"android":"levelo://app?vid=2da78528-807f-47e5-8f9f-0d4da51682b2","ios":"levelo://app?vid=2da78528-807f-47e5-8f9f-0d4da51682b2"},"vehicle_type_id":"4","last_reported":1701104798,"current_range_meters":21600,"station_id":"ce4bgt12rcd13ifvqcd0","pricing_plan_id":"free"},{"bike_id":"0bcbbf81-e0f6-46d7-bea7-ede0bd0bb938","system_id":"levelo_inurba_marseille","lat":43.314811,"lon":5.373103,"is_reserved":false,"is_disabled":false,"rental_uris":{"android":"levelo://app?vid=0bcbbf81-e0f6-46d7-bea7-ede0bd0bb938","ios":"levelo://app?vid=0bcbbf81-e0f6-46d7-bea7-ede0bd0bb938"},"vehicle_type_id":"4","last_reported":1701104798,"current_range_meters":1200,"station_id":"ce4bgt12rcd13ifvqcd0","pricing_plan_id":"free"},{"bike_id":"d1eae855-f397-4ad1-851d-e9b176ae3ef5","system_id":"levelo_inurba_marseille","lat":43.309039,"lon":5.371797,"is_reserved":false,"is_disabled":false,"rental_uris":{"android":"levelo://app?vid=d1eae855-f397-4ad1-851d-e9b176ae3ef5","ios":"levelo://app?vid=d1eae855-f397-4ad1-851d-e9b176ae3ef5"},"vehicle_type_id":"4","last_reported":1701104798,"current_range_meters":0,"station_id":"ce4bguh2rcd13ifvqckg","pricing_plan_id":"free"},{"bike_id":"fa4c08a8-f79b-4419-8791-02374ece74c7","system_id":"levelo_inurba_marseille","lat":43.316892,"lon":5.372798,"is_reserved":false,"is_disabled":false,"rental_uris":{"android":"levelo://app?vid=fa4c08a8-f79b-4419-8791-02374ece74c7","ios":"levelo://app?vid=fa4c08a8-f79b-4419-8791-02374ece74c7"},"vehicle_type_id":"4","last_reported":1701104798,"current_range_meters":5200,"station_id":"","pricing_plan_id":"free"},{"bike_id":"58fa7a2c-3aca-437c-bc95-2a2d30e62ebf","system_id":"levelo_inurba_marseille","lat":43.306009,"lon":5.365649,"is_reserved":false,"is_disabled":false,"rental_uris":{"android":"levelo://app?vid=58fa7a2c-3aca-437c-bc95-2a2d30e62ebf","ios":"levelo://app?vid=58fa7a2c-3aca-437c-bc95-2a2d30e62ebf"},"vehicle_type_id":"4","last_reported":1701104798,"current_range_meters":0,"station_id":"ce4bgs12rcd13ifvqcag","pricing_plan_id":"free"},{"bike_id":"06a59350-4215-47d0-8423-88976245ca0c","system_id":"levelo_inurba_marseille","lat":43.31194,"lon":5.37622,"is_reserved":false,"is_disabled":false,"rental_uris":{"android":"levelo://app?vid=06a59350-4215-47d0-8423-88976245ca0c","ios":"levelo://app?vid=06a59350-4215-47d0-8423-88976245ca0c"},"vehicle_type_id":"4","last_reported":1701104798,"current_range_meters":19600,"station_id":"","pricing_plan_id":"free"},{"bike_id":"54c107f7-659f-45bf-ad54-1341c4c99501","system_id":"levelo_inurba_marseille","lat":43.305714,"lon":5.365633,"is_reserved":false,"is_disabled":false,"rental_uris":{"android":"levelo://app?vid=54c107f7-659f-45bf-ad54-1341c4c99501","ios":"levelo://app?vid=54c107f7-659f-45bf-ad54-1341c4c99501"},"vehicle_type_id":"4","last_reported":1701104798,"current_range_meters":0,"station_id":"ce4bgs12rcd13ifvqcag","pricing_plan_id":"free"},{"bike_id":"961774e7-8d81-4ba9-a296-1f0e3964b74f","system_id":"levelo_inurba_marseille","lat":43.305714,"lon":5.365633,"is_reserved":false,"is_disabled":false,"rental_uris":{"android":"levelo://app?vid=961774e7-8d81-4ba9-a296-1f0e3964b74f","ios":"levelo://app?vid=961774e7-8d81-4ba9-a296-1f0e3964b74f"},"vehicle_type_id":"4","last_reported":1701104798,"current_range_meters":24800,"station_id":"ce4bgs12rcd13ifvqcag","pricing_plan_id":"free"},{"bike_id":"042bcbe0-bac8-4351-9fac-81a109b0ed2c","system_id":"levelo_inurba_marseille","lat":43.30533,"lon":5.36705,"is_reserved":false,"is_disabled":false,"rental_uris":{"android":"levelo://app?vid=042bcbe0-bac8-4351-9fac-81a109b0ed2c","ios":"levelo://app?vid=042bcbe0-bac8-4351-9fac-81a109b0ed2c"},"vehicle_type_id":"4","last_reported":1701104798,"current_range_meters":12000,"station_id":"ce4bgrp2rcd13ifvqc9g","pricing_plan_id":"free"},{"bike_id":"6d01ee39-f5ff-41ca-964e-3f141ac564ea","system_id":"levelo_inurba_marseille","lat":43.305714,"lon":5.365633,"is_reserved":false,"is_disabled":false,"rental_uris":{"android":"levelo://app?vid=6d01ee39-f5ff-41ca-964e-3f141ac564ea","ios":"levelo://app?vid=6d01ee39-f5ff-41ca-964e-3f141ac564ea"},"vehicle_type_id":"4","last_reported":1701104798,"current_range_meters":28000,"station_id":"ce4bgs12rcd13ifvqcag","pricing_plan_id":"free"},{"bike_id":"9c72fccf-b9b6-4eae-a693-94fec8e761c6","system_id":"levelo_inurba_marseille","lat":43.305706,"lon":5.365654,"is_reserved":false,"is_disabled":false,"rental_uris":{"android":"levelo://app?vid=9c72fccf-b9b6-4eae-a693-94fec8e761c6","ios":"levelo://app?vid=9c72fccf-b9b6-4eae-a693-94fec8e761c6"},"vehicle_type_id":"4","last_reported":1701104798,"current_range_meters":20800,"station_id":"ce4bgs12rcd13ifvqcag","pricing_plan_id":"free"},{"bike_id":"6b069bd8-7eb9-483f-90b8-a5944de2c58a","system_id":"levelo_inurba_marseille","lat":43.305706,"lon":5.365654,"is_reserved":false,"is_disabled":false,"rental_uris":{"android":"levelo://app?vid=6b069bd8-7eb9-483f-90b8-a5944de2c58a","ios":"levelo://app?vid=6b069bd8-7eb9-483f-90b8-a5944de2c58a"},"vehicle_type_id":"4","last_reported":1701104798,"current_range_meters":26400,"station_id":"ce4bgs12rcd13ifvqcag","pricing_plan_id":"free"},{"bike_id":"c34ef399-7ed7-4df4-a0cf-dc6c5f32e869","system_id":"levelo_inurba_marseille","lat":43.305706,"lon":5.365654,"is_reserved":false,"is_disabled":false,"rental_uris":{"android":"levelo://app?vid=c34ef399-7ed7-4df4-a0cf-dc6c5f32e869","ios":"levelo://app?vid=c34ef399-7ed7-4df4-a0cf-dc6c5f32e869"},"vehicle_type_id":"4","last_reported":1701104798,"current_range_meters":11600,"station_id":"ce4bgs12rcd13ifvqcag","pricing_plan_id":"free"},{"bike_id":"0525c228-cd5d-40c2-ac67-edd6915961b7","system_id":"levelo_inurba_marseille","lat":43.308115,"lon":5.376593,"is_reserved":false,"is_disabled":false,"rental_uris":{"android":"levelo://app?vid=0525c228-cd5d-40c2-ac67-edd6915961b7","ios":"levelo://app?vid=0525c228-cd5d-40c2-ac67-edd6915961b7"},"vehicle_type_id":"4","last_reported":1701104798,"current_range_meters":5200,"station_id":"ce4bgv92rcd13ifvqcq0","pricing_plan_id":"free"},{"bike_id":"fc415d5e-6575-4d37-9a53-1372d544d6af","system_id":"levelo_inurba_marseille","lat":43.30811,"lon":5.37665,"is_reserved":false,"is_disabled":false,"rental_uris":{"android":"levelo://app?vid=fc415d5e-6575-4d37-9a53-1372d544d6af","ios":"levelo://app?vid=fc415d5e-6575-4d37-9a53-1372d544d6af"},"vehicle_type_id":"4","last_reported":1701104798,"current_range_meters":24800,"station_id":"ce4bgv92rcd13ifvqcq0","pricing_plan_id":"free"},{"bike_id":"f427a2c3-6e4a-446b-ae2f-9be8aa7f4122","system_id":"levelo_inurba_marseille","lat":43.31719,"lon":5.376813,"is_reserved":false,"is_disabled":false,"rental_uris":{"android":"levelo://app?vid=f427a2c3-6e4a-446b-ae2f-9be8aa7f4122","ios":"levelo://app?vid=f427a2c3-6e4a-446b-ae2f-9be8aa7f4122"},"vehicle_type_id":"4","last_reported":1701104798,"current_range_meters":16400,"station_id":"ce4bgth2rcd13ifvqch0","pricing_plan_id":"free"},{"bike_id":"e913f328-1e31-4c22-bd87-f809ea246de4","system_id":"levelo_inurba_marseille","lat":43.317168,"lon":5.376883,"is_reserved":false,"is_disabled":false,"rental_uris":{"android":"levelo://app?vid=e913f328-1e31-4c22-bd87-f809ea246de4","ios":"levelo://app?vid=e913f328-1e31-4c22-bd87-f809ea246de4"},"vehicle_type_id":"4","last_reported":1701104798,"current_range_meters":18800,"station_id":"ce4bgth2rcd13ifvqch0","pricing_plan_id":"free"},{"bike_id":"d0aeb06d-4cab-437f-acc6-b30730ffe861","system_id":"levelo_inurba_marseille","lat":43.30597,"lon":5.37497,"is_reserved":false,"is_disabled":false,"rental_uris":{"android":"levelo://app?vid=d0aeb06d-4cab-437f-acc6-b30730ffe861","ios":"levelo://app?vid=d0aeb06d-4cab-437f-acc6-b30730ffe861"},"vehicle_type_id":"4","last_reported":1701104798,"current_range_meters":15200,"station_id":"","pricing_plan_id":"free"},{"bike_id":"c43dfa65-6ea9-44b4-bfbd-29a4ee9da93f","system_id":"levelo_inurba_marseille","lat":43.31538,"lon":5.38033,"is_reserved":false,"is_disabled":false,"rental_uris":{"android":"levelo://app?vid=c43dfa65-6ea9-44b4-bfbd-29a4ee9da93f","ios":"levelo://app?vid=c43dfa65-6ea9-44b4-bfbd-29a4ee9da93f"},"vehicle_type_id":"4","last_reported":1701104798,"current_range_meters":16400,"station_id":"ce4bhsp2rcd13ifvqi50","pricing_plan_id":"free"},{"bike_id":"74c61186-5a22-47b0-9c3e-c78231c21522","system_id":"levelo_inurba_marseille","lat":43.304667,"lon":5.378963,"is_reserved":false,"is_disabled":false,"rental_uris":{"android":"levelo://app?vid=74c61186-5a22-47b0-9c3e-c78231c21522","ios":"levelo://app?vid=74c61186-5a22-47b0-9c3e-c78231c21522"},"vehicle_type_id":"4","last_reported":1701104798,"current_range_meters":18800,"station_id":"","pricing_plan_id":"free"},{"bike_id":"449a3610-717f-4252-aaf3-23dc084a9e6d","system_id":"levelo_inurba_marseille","lat":43.304606,"lon":5.379026,"is_reserved":false,"is_disabled":false,"rental_uris":{"android":"levelo://app?vid=449a3610-717f-4252-aaf3-23dc084a9e6d","ios":"levelo://app?vid=449a3610-717f-4252-aaf3-23dc084a9e6d"},"vehicle_type_id":"4","last_reported":1701104798,"current_range_meters":30400,"station_id":"ce4bgup2rcd13ifvqcn0","pricing_plan_id":"free"},{"bike_id":"fe0ec282-ffcc-49e8-a2e5-02b903d43919","system_id":"levelo_inurba_marseille","lat":43.304606,"lon":5.379026,"is_reserved":false,"is_disabled":false,"rental_uris":{"android":"levelo://app?vid=fe0ec282-ffcc-49e8-a2e5-02b903d43919","ios":"levelo://app?vid=fe0ec282-ffcc-49e8-a2e5-02b903d43919"},"vehicle_type_id":"4","last_reported":1701104798,"current_range_meters":30000,"station_id":"ce4bgup2rcd13ifvqcn0","pricing_plan_id":"free"},{"bike_id":"ffd93a4c-0f36-4c9e-a1f1-3d19f25a3cd6","system_id":"levelo_inurba_marseille","lat":43.31283,"lon":5.38437,"is_reserved":false,"is_disabled":false,"rental_uris":{"android":"levelo://app?vid=ffd93a4c-0f36-4c9e-a1f1-3d19f25a3cd6","ios":"levelo://app?vid=ffd93a4c-0f36-4c9e-a1f1-3d19f25a3cd6"},"vehicle_type_id":"4","last_reported":1701104798,"current_range_meters":16400,"station_id":"","pricing_plan_id":"free"},{"bike_id":"b6e29183-fa0d-44d9-890b-ab85b98c082f","system_id":"levelo_inurba_marseille","lat":43.313571,"lon":5.384829,"is_reserved":false,"is_disabled":false,"rental_uris":{"android":"levelo://app?vid=b6e29183-fa0d-44d9-890b-ab85b98c082f","ios":"levelo://app?vid=b6e29183-fa0d-44d9-890b-ab85b98c082f"},"vehicle_type_id":"4","last_reported":1701104798,"current_range_meters":30400,"station_id":"ce4bgt92rcd13ifvqcf0","pricing_plan_id":"free"},{"bike_id":"60a022a7-fb84-4435-9883-0c4413e9b63b","system_id":"levelo_inurba_marseille","lat":43.299724,"lon":5.371829,"is_reserved":false,"is_disabled":false,"rental_uris":{"android":"levelo://app?vid=60a022a7-fb84-4435-9883-0c4413e9b63b","ios":"levelo://app?vid=60a022a7-fb84-4435-9883-0c4413e9b63b"},"vehicle_type_id":"4","last_reported":1701104798,"current_range_meters":400,"station_id":"ce4bgr92rcd13ifvqc7g","pricing_plan_id":"free"},{"bike_id":"b2cbec35-ea5d-4752-8ecf-f309c877c287","system_id":"levelo_inurba_marseille","lat":43.297774,"lon":5.370875,"is_reserved":false,"is_disabled":false,"rental_uris":{"android":"levelo://app?vid=b2cbec35-ea5d-4752-8ecf-f309c877c287","ios":"levelo://app?vid=b2cbec35-ea5d-4752-8ecf-f309c877c287"},"vehicle_type_id":"4","last_reported":1701104798,"current_range_meters":20000,"station_id":"ce4bgop2rcd13ifvqc1g","pricing_plan_id":"free"},{"bike_id":"ea81c7a7-10cd-4f6b-b0a5-a3d91306bc0f","system_id":"levelo_inurba_marseille","lat":43.322872,"lon":5.382756,"is_reserved":false,"is_disabled":false,"rental_uris":{"android":"levelo://app?vid=ea81c7a7-10cd-4f6b-b0a5-a3d91306bc0f","ios":"levelo://app?vid=ea81c7a7-10cd-4f6b-b0a5-a3d91306bc0f"},"vehicle_type_id":"4","last_reported":1701104798,"current_range_meters":21200,"station_id":"ce4bhr12rcd13ifvqhqg","pricing_plan_id":"free"},{"bike_id":"e17a7de5-ebd4-42fc-8860-6e511f77b829","system_id":"levelo_inurba_marseille","lat":43.32809,"lon":5.366972,"is_reserved":false,"is_disabled":false,"rental_uris":{"android":"levelo://app?vid=e17a7de5-ebd4-42fc-8860-6e511f77b829","ios":"levelo://app?vid=e17a7de5-ebd4-42fc-8860-6e511f77b829"},"vehicle_type_id":"4","last_reported":1701104798,"current_range_meters":27600,"station_id":"","pricing_plan_id":"free"},{"bike_id":"35d17bd9-a3c4-47ea-96a3-a9a37b243ab9","system_id":"levelo_inurba_marseille","lat":43.328371,"lon":5.366912,"is_reserved":false,"is_disabled":false,"rental_uris":{"android":"levelo://app?vid=35d17bd9-a3c4-47ea-96a3-a9a37b243ab9","ios":"levelo://app?vid=35d17bd9-a3c4-47ea-96a3-a9a37b243ab9"},"vehicle_type_id":"4","last_reported":1701104798,"current_range_meters":22000,"station_id":"ce4bhs92rcd13ifvqi0g","pricing_plan_id":"free"},{"bike_id":"226310b2-638c-444c-a15f-247c16471cee","system_id":"levelo_inurba_marseille","lat":43.323587,"lon":5.382457,"is_reserved":false,"is_disabled":false,"rental_uris":{"android":"levelo://app?vid=226310b2-638c-444c-a15f-247c16471cee","ios":"levelo://app?vid=226310b2-638c-444c-a15f-247c16471cee"},"vehicle_type_id":"4","last_reported":1701104798,"current_range_meters":14800,"station_id":"","pricing_plan_id":"free"},{"bike_id":"9dfc1be4-40e0-479e-8a23-39504815e756","system_id":"levelo_inurba_marseille","lat":43.324467,"lon":5.383496,"is_reserved":false,"is_disabled":false,"rental_uris":{"android":"levelo://app?vid=9dfc1be4-40e0-479e-8a23-39504815e756","ios":"levelo://app?vid=9dfc1be4-40e0-479e-8a23-39504815e756"},"vehicle_type_id":"4","last_reported":1701104798,"current_range_meters":31200,"station_id":"","pricing_plan_id":"free"},{"bike_id":"4c95beac-a5ce-4bfa-b22f-3c47a7c86e4e","system_id":"levelo_inurba_marseille","lat":43.29585,"lon":5.367823,"is_reserved":false,"is_disabled":false,"rental_uris":{"android":"levelo://app?vid=4c95beac-a5ce-4bfa-b22f-3c47a7c86e4e","ios":"levelo://app?vid=4c95beac-a5ce-4bfa-b22f-3c47a7c86e4e"},"vehicle_type_id":"4","last_reported":1701104798,"current_range_meters":23200,"station_id":"ce4bgph2rcd13ifvqc2g","pricing_plan_id":"free"},{"bike_id":"be01a09d-5e07-4ade-9efc-f3255e80bd8d","system_id":"levelo_inurba_marseille","lat":43.296935,"lon":5.376544,"is_reserved":false,"is_disabled":false,"rental_uris":{"android":"levelo://app?vid=be01a09d-5e07-4ade-9efc-f3255e80bd8d","ios":"levelo://app?vid=be01a09d-5e07-4ade-9efc-f3255e80bd8d"},"vehicle_type_id":"4","last_reported":1701104798,"current_range_meters":0,"station_id":"ce4bgkh2rcd13ifvqbl0","pricing_plan_id":"free"},{"bike_id":"1f73df99-5dff-4ae3-8653-51f7adee487b","system_id":"levelo_inurba_marseille","lat":43.317557,"lon":5.390173,"is_reserved":false,"is_disabled":false,"rental_uris":{"android":"levelo://app?vid=1f73df99-5dff-4ae3-8653-51f7adee487b","ios":"levelo://app?vid=1f73df99-5dff-4ae3-8653-51f7adee487b"},"vehicle_type_id":"4","last_reported":1701104798,"current_range_meters":17600,"station_id":"ce4bhqp2rcd13ifvqhng","pricing_plan_id":"free"},{"bike_id":"9ddde3a4-08b1-4e42-934d-3be8f3225b29","system_id":"levelo_inurba_marseille","lat":43.317557,"lon":5.390173,"is_reserved":false,"is_disabled":false,"rental_uris":{"android":"levelo://app?vid=9ddde3a4-08b1-4e42-934d-3be8f3225b29","ios":"levelo://app?vid=9ddde3a4-08b1-4e42-934d-3be8f3225b29"},"vehicle_type_id":"4","last_reported":1701104798,"current_range_meters":16800,"station_id":"ce4bhqp2rcd13ifvqhng","pricing_plan_id":"free"},{"bike_id":"8b9590c9-59ac-425f-9bd4-6127d37e1cfa","system_id":"levelo_inurba_marseille","lat":43.298037,"lon":5.381066,"is_reserved":false,"is_disabled":false,"rental_uris":{"android":"levelo://app?vid=8b9590c9-59ac-425f-9bd4-6127d37e1cfa","ios":"levelo://app?vid=8b9590c9-59ac-425f-9bd4-6127d37e1cfa"},"vehicle_type_id":"4","last_reported":1701104798,"current_range_meters":17200,"station_id":"ce4bgip2rcd13ifvqbb0","pricing_plan_id":"free"},{"bike_id":"e890f88c-9ab5-4ca0-b499-e646fb1c9e8a","system_id":"levelo_inurba_marseille","lat":43.296085,"lon":5.37719,"is_reserved":false,"is_disabled":false,"rental_uris":{"android":"levelo://app?vid=e890f88c-9ab5-4ca0-b499-e646fb1c9e8a","ios":"levelo://app?vid=e890f88c-9ab5-4ca0-b499-e646fb1c9e8a"},"vehicle_type_id":"4","last_reported":1701104798,"current_range_meters":12800,"station_id":"ce4bgi92rcd13ifvqb90","pricing_plan_id":"free"},{"bike_id":"76ba3efb-2c20-4548-bed3-7b50094df32c","system_id":"levelo_inurba_marseille","lat":43.295279,"lon":5.375048,"is_reserved":false,"is_disabled":false,"rental_uris":{"android":"levelo://app?vid=76ba3efb-2c20-4548-bed3-7b50094df32c","ios":"levelo://app?vid=76ba3efb-2c20-4548-bed3-7b50094df32c"},"vehicle_type_id":"4","last_reported":1701104798,"current_range_meters":24000,"station_id":"ce4bgkp2rcd13ifvqbmg","pricing_plan_id":"free"},{"bike_id":"6b621983-5e9e-42f7-990d-ad5a093820d2","system_id":"levelo_inurba_marseille","lat":43.293801,"lon":5.363066,"is_reserved":false,"is_disabled":false,"rental_uris":{"android":"levelo://app?vid=6b621983-5e9e-42f7-990d-ad5a093820d2","ios":"levelo://app?vid=6b621983-5e9e-42f7-990d-ad5a093820d2"},"vehicle_type_id":"4","last_reported":1701104798,"current_range_meters":0,"station_id":"","pricing_plan_id":"free"},{"bike_id":"77942dbf-4723-4aa6-b3eb-18bdd3ecae96","system_id":"levelo_inurba_marseille","lat":43.32367,"lon":5.388836,"is_reserved":false,"is_disabled":false,"rental_uris":{"android":"levelo://app?vid=77942dbf-4723-4aa6-b3eb-18bdd3ecae96","ios":"levelo://app?vid=77942dbf-4723-4aa6-b3eb-18bdd3ecae96"},"vehicle_type_id":"4","last_reported":1701104798,"current_range_meters":400,"station_id":"ce4bhqp2rcd13ifvqhog","pricing_plan_id":"free"},{"bike_id":"ddd61bce-03d4-4f1e-8020-8ef45188a057","system_id":"levelo_inurba_marseille","lat":43.300018,"lon":5.387976,"is_reserved":false,"is_disabled":false,"rental_uris":{"android":"levelo://app?vid=ddd61bce-03d4-4f1e-8020-8ef45188a057","ios":"levelo://app?vid=ddd61bce-03d4-4f1e-8020-8ef45188a057"},"vehicle_type_id":"4","last_reported":1701104798,"current_range_meters":14800,"station_id":"","pricing_plan_id":"free"},{"bike_id":"9c18e568-09a4-4aa5-87ae-7a2093c1ae54","system_id":"levelo_inurba_marseille","lat":43.287185,"lon":5.379373,"is_reserved":false,"is_disabled":false,"rental_uris":{"android":"levelo://app?vid=9c18e568-09a4-4aa5-87ae-7a2093c1ae54","ios":"levelo://app?vid=9c18e568-09a4-4aa5-87ae-7a2093c1ae54"},"vehicle_type_id":"4","last_reported":1701104798,"current_range_meters":24000,"station_id":"ce4bh9p2rcd13ifvqec0","pricing_plan_id":"free"},{"bike_id":"f530069e-c163-421e-accf-b4d70bfe7c61","system_id":"levelo_inurba_marseille","lat":43.29277,"lon":5.36853,"is_reserved":false,"is_disabled":false,"rental_uris":{"android":"levelo://app?vid=f530069e-c163-421e-accf-b4d70bfe7c61","ios":"levelo://app?vid=f530069e-c163-421e-accf-b4d70bfe7c61"},"vehicle_type_id":"4","last_reported":1701104798,"current_range_meters":22400,"station_id":"ce4bhbp2rcd13ifvqesg","pricing_plan_id":"free"},{"bike_id":"fe634186-e7fb-4d15-94f5-0f30bb2d86d0","system_id":"levelo_inurba_marseille","lat":43.29274,"lon":5.36847,"is_reserved":false,"is_disabled":false,"rental_uris":{"android":"levelo://app?vid=fe634186-e7fb-4d15-94f5-0f30bb2d86d0","ios":"levelo://app?vid=fe634186-e7fb-4d15-94f5-0f30bb2d86d0"},"vehicle_type_id":"4","last_reported":1701104798,"current_range_meters":9200,"station_id":"ce4bhbp2rcd13ifvqesg","pricing_plan_id":"free"},{"bike_id":"723dd14b-8f9a-4ec7-953b-ba2ce5608189","system_id":"levelo_inurba_marseille","lat":43.305994,"lon":5.393687,"is_reserved":false,"is_disabled":false,"rental_uris":{"android":"levelo://app?vid=723dd14b-8f9a-4ec7-953b-ba2ce5608189","ios":"levelo://app?vid=723dd14b-8f9a-4ec7-953b-ba2ce5608189"},"vehicle_type_id":"4","last_reported":1701104798,"current_range_meters":25200,"station_id":"ce4bh0p2rcd13ifvqd80","pricing_plan_id":"free"},{"bike_id":"e03f1633-6146-4f37-8dfb-713effa06f72","system_id":"levelo_inurba_marseille","lat":43.305994,"lon":5.393687,"is_reserved":false,"is_disabled":false,"rental_uris":{"android":"levelo://app?vid=e03f1633-6146-4f37-8dfb-713effa06f72","ios":"levelo://app?vid=e03f1633-6146-4f37-8dfb-713effa06f72"},"vehicle_type_id":"4","last_reported":1701104798,"current_range_meters":24400,"station_id":"ce4bh0p2rcd13ifvqd80","pricing_plan_id":"free"},{"bike_id":"549d7d3d-9d98-4784-af59-7667377786f5","system_id":"levelo_inurba_marseille","lat":43.29217,"lon":5.36058,"is_reserved":false,"is_disabled":false,"rental_uris":{"android":"levelo://app?vid=549d7d3d-9d98-4784-af59-7667377786f5","ios":"levelo://app?vid=549d7d3d-9d98-4784-af59-7667377786f5"},"vehicle_type_id":"4","last_reported":1701104798,"current_range_meters":25600,"station_id":"ce4bhbh2rcd13ifvqeqg","pricing_plan_id":"free"},{"bike_id":"bda056b3-917b-460f-9d43-b61ea9eec687","system_id":"levelo_inurba_marseille","lat":43.291685,"lon":5.371465,"is_reserved":false,"is_disabled":false,"rental_uris":{"android":"levelo://app?vid=bda056b3-917b-460f-9d43-b61ea9eec687","ios":"levelo://app?vid=bda056b3-917b-460f-9d43-b61ea9eec687"},"vehicle_type_id":"4","last_reported":1701104798,"current_range_meters":20400,"station_id":"ce4bha92rcd13ifvqeh0","pricing_plan_id":"free"},{"bike_id":"f2e7533f-807d-4008-803e-979b23a6f127","system_id":"levelo_inurba_marseille","lat":43.2988,"lon":5.38913,"is_reserved":false,"is_disabled":false,"rental_uris":{"android":"levelo://app?vid=f2e7533f-807d-4008-803e-979b23a6f127","ios":"levelo://app?vid=f2e7533f-807d-4008-803e-979b23a6f127"},"vehicle_type_id":"4","last_reported":1701104798,"current_range_meters":31200,"station_id":"ce4bh392rcd13ifvqdl0","pricing_plan_id":"free"},{"bike_id":"20004e16-1ca4-432a-a09f-ad1c3246a7b7","system_id":"levelo_inurba_marseille","lat":43.31327,"lon":5.39686,"is_reserved":false,"is_disabled":false,"rental_uris":{"android":"levelo://app?vid=20004e16-1ca4-432a-a09f-ad1c3246a7b7","ios":"levelo://app?vid=20004e16-1ca4-432a-a09f-ad1c3246a7b7"},"vehicle_type_id":"4","last_reported":1701104798,"current_range_meters":16800,"station_id":"ce4bgvp2rcd13ifvqcu0","pricing_plan_id":"free"},{"bike_id":"9f40f2c0-bf56-40a9-9c3b-066f94c2f775","system_id":"levelo_inurba_marseille","lat":43.31324,"lon":5.39688,"is_reserved":false,"is_disabled":false,"rental_uris":{"android":"levelo://app?vid=9f40f2c0-bf56-40a9-9c3b-066f94c2f775","ios":"levelo://app?vid=9f40f2c0-bf56-40a9-9c3b-066f94c2f775"},"vehicle_type_id":"4","last_reported":1701104798,"current_range_meters":0,"station_id":"ce4bgvp2rcd13ifvqcu0","pricing_plan_id":"free"},{"bike_id":"057f13b3-0c9e-4db7-b96d-17db74239602","system_id":"levelo_inurba_marseille","lat":43.3133,"lon":5.39688,"is_reserved":false,"is_disabled":false,"rental_uris":{"android":"levelo://app?vid=057f13b3-0c9e-4db7-b96d-17db74239602","ios":"levelo://app?vid=057f13b3-0c9e-4db7-b96d-17db74239602"},"vehicle_type_id":"4","last_reported":1701104798,"current_range_meters":23200,"station_id":"ce4bgvp2rcd13ifvqcu0","pricing_plan_id":"free"},{"bike_id":"56ad2269-85c7-4d30-be00-ea7f396034d5","system_id":"levelo_inurba_marseille","lat":43.31326,"lon":5.3969,"is_reserved":false,"is_disabled":false,"rental_uris":{"android":"levelo://app?vid=56ad2269-85c7-4d30-be00-ea7f396034d5","ios":"levelo://app?vid=56ad2269-85c7-4d30-be00-ea7f396034d5"},"vehicle_type_id":"4","last_reported":1701104798,"current_range_meters":21600,"station_id":"ce4bgvp2rcd13ifvqcu0","pricing_plan_id":"free"},{"bike_id":"032c87bf-4765-455c-953b-78850913c6bf","system_id":"levelo_inurba_marseille","lat":43.309038,"lon":5.396546,"is_reserved":false,"is_disabled":false,"rental_uris":{"android":"levelo://app?vid=032c87bf-4765-455c-953b-78850913c6bf","ios":"levelo://app?vid=032c87bf-4765-455c-953b-78850913c6bf"},"vehicle_type_id":"4","last_reported":1701104798,"current_range_meters":20800,"station_id":"ce4bh012rcd13ifvqcv0","pricing_plan_id":"free"},{"bike_id":"58650c30-e1f2-4ad8-84fb-bce1f3ea32d5","system_id":"levelo_inurba_marseille","lat":43.29527,"lon":5.38543,"is_reserved":false,"is_disabled":false,"rental_uris":{"android":"levelo://app?vid=58650c30-e1f2-4ad8-84fb-bce1f3ea32d5","ios":"levelo://app?vid=58650c30-e1f2-4ad8-84fb-bce1f3ea32d5"},"vehicle_type_id":"4","last_reported":1701104798,"current_range_meters":0,"station_id":"ce4bgih2rcd13ifvqba0","pricing_plan_id":"free"},{"bike_id":"02f8506c-16b4-44c0-bc64-041ad1eaddf7","system_id":"levelo_inurba_marseille","lat":43.290624,"lon":5.359245,"is_reserved":false,"is_disabled":false,"rental_uris":{"android":"levelo://app?vid=02f8506c-16b4-44c0-bc64-041ad1eaddf7","ios":"levelo://app?vid=02f8506c-16b4-44c0-bc64-041ad1eaddf7"},"vehicle_type_id":"4","last_reported":1701104798,"current_range_meters":16400,"station_id":"ce4bha92rcd13ifvqeg0","pricing_plan_id":"free"},{"bike_id":"012d30d1-3066-40d1-9f31-60f29d152dfe","system_id":"levelo_inurba_marseille","lat":43.290624,"lon":5.359245,"is_reserved":false,"is_disabled":false,"rental_uris":{"android":"levelo://app?vid=012d30d1-3066-40d1-9f31-60f29d152dfe","ios":"levelo://app?vid=012d30d1-3066-40d1-9f31-60f29d152dfe"},"vehicle_type_id":"4","last_reported":1701104798,"current_range_meters":4000,"station_id":"ce4bha92rcd13ifvqeg0","pricing_plan_id":"free"},{"bike_id":"5cf6f811-8816-4fc8-aeb3-ad1b8ecbde80","system_id":"levelo_inurba_marseille","lat":43.294162,"lon":5.386292,"is_reserved":false,"is_disabled":false,"rental_uris":{"android":"levelo://app?vid=5cf6f811-8816-4fc8-aeb3-ad1b8ecbde80","ios":"levelo://app?vid=5cf6f811-8816-4fc8-aeb3-ad1b8ecbde80"},"vehicle_type_id":"4","last_reported":1701104798,"current_range_meters":14400,"station_id":"ce4bh2h2rcd13ifvqdh0","pricing_plan_id":"free"},{"bike_id":"bc1820f9-ce24-47c2-b647-2c30bdd77c16","system_id":"levelo_inurba_marseille","lat":43.292644,"lon":5.384257,"is_reserved":false,"is_disabled":false,"rental_uris":{"android":"levelo://app?vid=bc1820f9-ce24-47c2-b647-2c30bdd77c16","ios":"levelo://app?vid=bc1820f9-ce24-47c2-b647-2c30bdd77c16"},"vehicle_type_id":"4","last_reported":1701104798,"current_range_meters":13600,"station_id":"ce4bh692rcd13ifvqea0","pricing_plan_id":"free"},{"bike_id":"d1db7709-4548-4b92-aa4c-b736d35415d6","system_id":"levelo_inurba_marseille","lat":43.292644,"lon":5.384257,"is_reserved":false,"is_disabled":false,"rental_uris":{"android":"levelo://app?vid=d1db7709-4548-4b92-aa4c-b736d35415d6","ios":"levelo://app?vid=d1db7709-4548-4b92-aa4c-b736d35415d6"},"vehicle_type_id":"4","last_reported":1701104798,"current_range_meters":24800,"station_id":"ce4bh692rcd13ifvqea0","pricing_plan_id":"free"},{"bike_id":"0e8b74c5-db88-4ede-90fd-1c86c15e2e8f","system_id":"levelo_inurba_marseille","lat":43.33039,"lon":5.38919,"is_reserved":false,"is_disabled":false,"rental_uris":{"android":"levelo://app?vid=0e8b74c5-db88-4ede-90fd-1c86c15e2e8f","ios":"levelo://app?vid=0e8b74c5-db88-4ede-90fd-1c86c15e2e8f"},"vehicle_type_id":"4","last_reported":1701104798,"current_range_meters":14400,"station_id":"ce4bhr92rcd13ifvqhrg","pricing_plan_id":"free"},{"bike_id":"a351cab0-10a9-4df4-953c-4fd50466a12b","system_id":"levelo_inurba_marseille","lat":43.323464,"lon":5.406297,"is_reserved":false,"is_disabled":false,"rental_uris":{"android":"levelo://app?vid=a351cab0-10a9-4df4-953c-4fd50466a12b","ios":"levelo://app?vid=a351cab0-10a9-4df4-953c-4fd50466a12b"},"vehicle_type_id":"4","last_reported":1701104798,"current_range_meters":6000,"station_id":"ce4bhq92rcd13ifvqhjg","pricing_plan_id":"free"},{"bike_id":"d31dca54-e024-4936-bf1e-1a49ed9b1597","system_id":"levelo_inurba_marseille","lat":43.290104,"lon":5.356111,"is_reserved":false,"is_disabled":false,"rental_uris":{"android":"levelo://app?vid=d31dca54-e024-4936-bf1e-1a49ed9b1597","ios":"levelo://app?vid=d31dca54-e024-4936-bf1e-1a49ed9b1597"},"vehicle_type_id":"4","last_reported":1701104798,"current_range_meters":14400,"station_id":"ce4bhb92rcd13ifvqen0","pricing_plan_id":"free"},{"bike_id":"f0aad47d-0417-4ef8-850e-d5180120f4a0","system_id":"levelo_inurba_marseille","lat":43.297815,"lon":5.393548,"is_reserved":false,"is_disabled":false,"rental_uris":{"android":"levelo://app?vid=f0aad47d-0417-4ef8-850e-d5180120f4a0","ios":"levelo://app?vid=f0aad47d-0417-4ef8-850e-d5180120f4a0"},"vehicle_type_id":"4","last_reported":1701104798,"current_range_meters":10400,"station_id":"chh1huq6cuj3fo74tm60","pricing_plan_id":"free"},{"bike_id":"c56ba330-5066-4490-961c-62a45a6c4d43","system_id":"levelo_inurba_marseille","lat":43.28856,"lon":5.358371,"is_reserved":false,"is_disabled":false,"rental_uris":{"android":"levelo://app?vid=c56ba330-5066-4490-961c-62a45a6c4d43","ios":"levelo://app?vid=c56ba330-5066-4490-961c-62a45a6c4d43"},"vehicle_type_id":"4","last_reported":1701104798,"current_range_meters":20800,"station_id":"ce4bhb12rcd13ifvqem0","pricing_plan_id":"free"},{"bike_id":"cdbeb2b6-ea8b-4b0a-81aa-f88218f27a8e","system_id":"levelo_inurba_marseille","lat":43.28856,"lon":5.358371,"is_reserved":false,"is_disabled":false,"rental_uris":{"android":"levelo://app?vid=cdbeb2b6-ea8b-4b0a-81aa-f88218f27a8e","ios":"levelo://app?vid=cdbeb2b6-ea8b-4b0a-81aa-f88218f27a8e"},"vehicle_type_id":"4","last_reported":1701104798,"current_range_meters":20000,"station_id":"ce4bhb12rcd13ifvqem0","pricing_plan_id":"free"},{"bike_id":"0f959fab-e60b-48e5-8f68-469f8d1935ad","system_id":"levelo_inurba_marseille","lat":43.306412,"lon":5.401035,"is_reserved":false,"is_disabled":false,"rental_uris":{"android":"levelo://app?vid=0f959fab-e60b-48e5-8f68-469f8d1935ad","ios":"levelo://app?vid=0f959fab-e60b-48e5-8f68-469f8d1935ad"},"vehicle_type_id":"4","last_reported":1701104798,"current_range_meters":800,"station_id":"ce4bh112rcd13ifvqda0","pricing_plan_id":"free"},{"bike_id":"cf3b36af-2c00-4833-a3dd-afc17ed25d2f","system_id":"levelo_inurba_marseille","lat":43.30642,"lon":5.40172,"is_reserved":false,"is_disabled":false,"rental_uris":{"android":"levelo://app?vid=cf3b36af-2c00-4833-a3dd-afc17ed25d2f","ios":"levelo://app?vid=cf3b36af-2c00-4833-a3dd-afc17ed25d2f"},"vehicle_type_id":"4","last_reported":1701104798,"current_range_meters":25600,"station_id":"","pricing_plan_id":"free"},{"bike_id":"5e35799d-7619-4312-9e0a-b35831b3312f","system_id":"levelo_inurba_marseille","lat":43.286591,"lon":5.363346,"is_reserved":false,"is_disabled":false,"rental_uris":{"android":"levelo://app?vid=5e35799d-7619-4312-9e0a-b35831b3312f","ios":"levelo://app?vid=5e35799d-7619-4312-9e0a-b35831b3312f"},"vehicle_type_id":"4","last_reported":1701104798,"current_range_meters":25200,"station_id":"ce4bhah2rcd13ifvqej0","pricing_plan_id":"free"},{"bike_id":"8711ad70-d9b1-4194-a8fa-e7b99e1f70a8","system_id":"levelo_inurba_marseille","lat":43.286961,"lon":5.373785,"is_reserved":false,"is_disabled":false,"rental_uris":{"android":"levelo://app?vid=8711ad70-d9b1-4194-a8fa-e7b99e1f70a8","ios":"levelo://app?vid=8711ad70-d9b1-4194-a8fa-e7b99e1f70a8"},"vehicle_type_id":"4","last_reported":1701104798,"current_range_meters":400,"station_id":"ce4bh3p2rcd13ifvqdq0","pricing_plan_id":"free"},{"bike_id":"5b709f5f-b084-49b7-9561-7b8a8465154e","system_id":"levelo_inurba_marseille","lat":43.298681,"lon":5.397225,"is_reserved":false,"is_disabled":false,"rental_uris":{"android":"levelo://app?vid=5b709f5f-b084-49b7-9561-7b8a8465154e","ios":"levelo://app?vid=5b709f5f-b084-49b7-9561-7b8a8465154e"},"vehicle_type_id":"4","last_reported":1701104798,"current_range_meters":18000,"station_id":"ce4bh0h2rcd13ifvqd50","pricing_plan_id":"free"},{"bike_id":"0533f40b-ed12-47bf-bb35-837f73f80cf3","system_id":"levelo_inurba_marseille","lat":43.295082,"lon":5.394016,"is_reserved":false,"is_disabled":false,"rental_uris":{"android":"levelo://app?vid=0533f40b-ed12-47bf-bb35-837f73f80cf3","ios":"levelo://app?vid=0533f40b-ed12-47bf-bb35-837f73f80cf3"},"vehicle_type_id":"4","last_reported":1701104798,"current_range_meters":27200,"station_id":"ce4bh292rcd13ifvqdf0","pricing_plan_id":"free"},{"bike_id":"5837c121-6514-4e4d-9066-5bce401bf040","system_id":"levelo_inurba_marseille","lat":43.289307,"lon":5.38406,"is_reserved":false,"is_disabled":false,"rental_uris":{"android":"levelo://app?vid=5837c121-6514-4e4d-9066-5bce401bf040","ios":"levelo://app?vid=5837c121-6514-4e4d-9066-5bce401bf040"},"vehicle_type_id":"4","last_reported":1701104798,"current_range_meters":800,"station_id":"ce4bh612rcd13ifvqe6g","pricing_plan_id":"free"},{"bike_id":"28fe5d78-fe78-41e6-a3b5-fd96c09f5b17","system_id":"levelo_inurba_marseille","lat":43.288193,"lon":5.384677,"is_reserved":false,"is_disabled":false,"rental_uris":{"android":"levelo://app?vid=28fe5d78-fe78-41e6-a3b5-fd96c09f5b17","ios":"levelo://app?vid=28fe5d78-fe78-41e6-a3b5-fd96c09f5b17"},"vehicle_type_id":"4","last_reported":1701104798,"current_range_meters":0,"station_id":"","pricing_plan_id":"free"},{"bike_id":"28eaa163-7fcb-44f4-85b2-5670c224f35e","system_id":"levelo_inurba_marseille","lat":43.29189,"lon":5.39318,"is_reserved":false,"is_disabled":false,"rental_uris":{"android":"levelo://app?vid=28eaa163-7fcb-44f4-85b2-5670c224f35e","ios":"levelo://app?vid=28eaa163-7fcb-44f4-85b2-5670c224f35e"},"vehicle_type_id":"4","last_reported":1701104798,"current_range_meters":24400,"station_id":"ce4bh192rcd13ifvqdd0","pricing_plan_id":"free"},{"bike_id":"63866e8d-f7a1-438a-aaa2-3ffef2a6d95c","system_id":"levelo_inurba_marseille","lat":43.29194,"lon":5.39327,"is_reserved":false,"is_disabled":false,"rental_uris":{"android":"levelo://app?vid=63866e8d-f7a1-438a-aaa2-3ffef2a6d95c","ios":"levelo://app?vid=63866e8d-f7a1-438a-aaa2-3ffef2a6d95c"},"vehicle_type_id":"4","last_reported":1701104798,"current_range_meters":8800,"station_id":"ce4bh192rcd13ifvqdd0","pricing_plan_id":"free"},{"bike_id":"133469e0-6899-4538-83db-9fc816004c1a","system_id":"levelo_inurba_marseille","lat":43.31604,"lon":5.40585,"is_reserved":false,"is_disabled":false,"rental_uris":{"android":"levelo://app?vid=133469e0-6899-4538-83db-9fc816004c1a","ios":"levelo://app?vid=133469e0-6899-4538-83db-9fc816004c1a"},"vehicle_type_id":"4","last_reported":1701104798,"current_range_meters":20000,"station_id":"","pricing_plan_id":"free"},{"bike_id":"fdfc44ee-48d9-4c8c-99e0-fa5e6a889c82","system_id":"levelo_inurba_marseille","lat":43.284538,"lon":5.358657,"is_reserved":false,"is_disabled":false,"rental_uris":{"android":"levelo://app?vid=fdfc44ee-48d9-4c8c-99e0-fa5e6a889c82","ios":"levelo://app?vid=fdfc44ee-48d9-4c8c-99e0-fa5e6a889c82"},"vehicle_type_id":"4","last_reported":1701104798,"current_range_meters":22800,"station_id":"ce4bhah2rcd13ifvqei0","pricing_plan_id":"free"},{"bike_id":"b6100263-f929-4080-bc9a-5326e14d71ef","system_id":"levelo_inurba_marseille","lat":43.284538,"lon":5.358657,"is_reserved":false,"is_disabled":false,"rental_uris":{"android":"levelo://app?vid=b6100263-f929-4080-bc9a-5326e14d71ef","ios":"levelo://app?vid=b6100263-f929-4080-bc9a-5326e14d71ef"},"vehicle_type_id":"4","last_reported":1701104798,"current_range_meters":23600,"station_id":"ce4bhah2rcd13ifvqei0","pricing_plan_id":"free"},{"bike_id":"4af40f77-f710-4071-be3c-2d0d395effca","system_id":"levelo_inurba_marseille","lat":43.284534,"lon":5.358662,"is_reserved":false,"is_disabled":false,"rental_uris":{"android":"levelo://app?vid=4af40f77-f710-4071-be3c-2d0d395effca","ios":"levelo://app?vid=4af40f77-f710-4071-be3c-2d0d395effca"},"vehicle_type_id":"4","last_reported":1701104798,"current_range_meters":21600,"station_id":"ce4bhah2rcd13ifvqei0","pricing_plan_id":"free"},{"bike_id":"f9f5b656-8db4-43bb-a082-09a8bd135263","system_id":"levelo_inurba_marseille","lat":43.284538,"lon":5.358657,"is_reserved":false,"is_disabled":false,"rental_uris":{"android":"levelo://app?vid=f9f5b656-8db4-43bb-a082-09a8bd135263","ios":"levelo://app?vid=f9f5b656-8db4-43bb-a082-09a8bd135263"},"vehicle_type_id":"4","last_reported":1701104798,"current_range_meters":20400,"station_id":"ce4bhah2rcd13ifvqei0","pricing_plan_id":"free"},{"bike_id":"c2b59919-4a58-4ef8-9c49-1240b5fdbcf3","system_id":"levelo_inurba_marseille","lat":43.283998,"lon":5.375062,"is_reserved":false,"is_disabled":false,"rental_uris":{"android":"levelo://app?vid=c2b59919-4a58-4ef8-9c49-1240b5fdbcf3","ios":"levelo://app?vid=c2b59919-4a58-4ef8-9c49-1240b5fdbcf3"},"vehicle_type_id":"4","last_reported":1701104798,"current_range_meters":0,"station_id":"ce4bh412rcd13ifvqds0","pricing_plan_id":"free"},{"bike_id":"775ab042-b15c-492f-a566-979b8a723bec","system_id":"levelo_inurba_marseille","lat":43.283998,"lon":5.375062,"is_reserved":false,"is_disabled":false,"rental_uris":{"android":"levelo://app?vid=775ab042-b15c-492f-a566-979b8a723bec","ios":"levelo://app?vid=775ab042-b15c-492f-a566-979b8a723bec"},"vehicle_type_id":"4","last_reported":1701104798,"current_range_meters":6400,"station_id":"ce4bh412rcd13ifvqds0","pricing_plan_id":"free"},{"bike_id":"801be9d0-2b94-4572-b74d-211532a0d357","system_id":"levelo_inurba_marseille","lat":43.283998,"lon":5.375062,"is_reserved":false,"is_disabled":false,"rental_uris":{"android":"levelo://app?vid=801be9d0-2b94-4572-b74d-211532a0d357","ios":"levelo://app?vid=801be9d0-2b94-4572-b74d-211532a0d357"},"vehicle_type_id":"4","last_reported":1701104798,"current_range_meters":19600,"station_id":"ce4bh412rcd13ifvqds0","pricing_plan_id":"free"},{"bike_id":"2ef6a675-4e3f-4bc8-b5af-6dd2de7be8d7","system_id":"levelo_inurba_marseille","lat":43.283998,"lon":5.375062,"is_reserved":false,"is_disabled":false,"rental_uris":{"android":"levelo://app?vid=2ef6a675-4e3f-4bc8-b5af-6dd2de7be8d7","ios":"levelo://app?vid=2ef6a675-4e3f-4bc8-b5af-6dd2de7be8d7"},"vehicle_type_id":"4","last_reported":1701104798,"current_range_meters":0,"station_id":"ce4bh412rcd13ifvqds0","pricing_plan_id":"free"},{"bike_id":"ba909a36-e82f-4b81-962a-9a5b1c1b4047","system_id":"levelo_inurba_marseille","lat":43.286595,"lon":5.386795,"is_reserved":false,"is_disabled":false,"rental_uris":{"android":"levelo://app?vid=ba909a36-e82f-4b81-962a-9a5b1c1b4047","ios":"levelo://app?vid=ba909a36-e82f-4b81-962a-9a5b1c1b4047"},"vehicle_type_id":"4","last_reported":1701104798,"current_range_meters":3200,"station_id":"ce4bh492rcd13ifvqdug","pricing_plan_id":"free"},{"bike_id":"d3b7b605-c182-41fe-8ebb-5227bb75c414","system_id":"levelo_inurba_marseille","lat":43.286595,"lon":5.386795,"is_reserved":false,"is_disabled":false,"rental_uris":{"android":"levelo://app?vid=d3b7b605-c182-41fe-8ebb-5227bb75c414","ios":"levelo://app?vid=d3b7b605-c182-41fe-8ebb-5227bb75c414"},"vehicle_type_id":"4","last_reported":1701104798,"current_range_meters":18000,"station_id":"ce4bh492rcd13ifvqdug","pricing_plan_id":"free"},{"bike_id":"7d91096c-f31b-4f6e-ba53-c97161d142c4","system_id":"levelo_inurba_marseille","lat":43.286595,"lon":5.386795,"is_reserved":false,"is_disabled":false,"rental_uris":{"android":"levelo://app?vid=7d91096c-f31b-4f6e-ba53-c97161d142c4","ios":"levelo://app?vid=7d91096c-f31b-4f6e-ba53-c97161d142c4"},"vehicle_type_id":"4","last_reported":1701104798,"current_range_meters":19200,"station_id":"ce4bh492rcd13ifvqdug","pricing_plan_id":"free"},{"bike_id":"6e5fc2ab-e680-4453-a607-400458212688","system_id":"levelo_inurba_marseille","lat":43.323464,"lon":5.406297,"is_reserved":false,"is_disabled":false,"rental_uris":{"android":"levelo://app?vid=6e5fc2ab-e680-4453-a607-400458212688","ios":"levelo://app?vid=6e5fc2ab-e680-4453-a607-400458212688"},"vehicle_type_id":"4","last_reported":1701104798,"current_range_meters":12000,"station_id":"ce4bhq92rcd13ifvqhjg","pricing_plan_id":"free"},{"bike_id":"abe3b4b9-3c23-4bdf-aa21-bedfad5eaea6","system_id":"levelo_inurba_marseille","lat":43.33717,"lon":5.391857,"is_reserved":false,"is_disabled":false,"rental_uris":{"android":"levelo://app?vid=abe3b4b9-3c23-4bdf-aa21-bedfad5eaea6","ios":"levelo://app?vid=abe3b4b9-3c23-4bdf-aa21-bedfad5eaea6"},"vehicle_type_id":"4","last_reported":1701104798,"current_range_meters":30000,"station_id":"ce4bhr92rcd13ifvqhsg","pricing_plan_id":"free"},{"bike_id":"3bf5ca41-8577-4333-b378-e86b24c2fa5b","system_id":"levelo_inurba_marseille","lat":43.297946,"lon":5.404063,"is_reserved":false,"is_disabled":false,"rental_uris":{"android":"levelo://app?vid=3bf5ca41-8577-4333-b378-e86b24c2fa5b","ios":"levelo://app?vid=3bf5ca41-8577-4333-b378-e86b24c2fa5b"},"vehicle_type_id":"4","last_reported":1701104798,"current_range_meters":28000,"station_id":"ce4bh112rcd13ifvqd90","pricing_plan_id":"free"},{"bike_id":"fe3aa4e8-cfd6-4cf5-bb6d-7a3859219464","system_id":"levelo_inurba_marseille","lat":43.28862,"lon":5.39314,"is_reserved":false,"is_disabled":false,"rental_uris":{"android":"levelo://app?vid=fe3aa4e8-cfd6-4cf5-bb6d-7a3859219464","ios":"levelo://app?vid=fe3aa4e8-cfd6-4cf5-bb6d-7a3859219464"},"vehicle_type_id":"4","last_reported":1701104798,"current_range_meters":4000,"station_id":"ce4bh2p2rcd13ifvqdi0","pricing_plan_id":"free"},{"bike_id":"9dc40fee-3a14-4d72-be70-286de4f39318","system_id":"levelo_inurba_marseille","lat":43.297946,"lon":5.404063,"is_reserved":false,"is_disabled":false,"rental_uris":{"android":"levelo://app?vid=9dc40fee-3a14-4d72-be70-286de4f39318","ios":"levelo://app?vid=9dc40fee-3a14-4d72-be70-286de4f39318"},"vehicle_type_id":"4","last_reported":1701104798,"current_range_meters":7600,"station_id":"ce4bh112rcd13ifvqd90","pricing_plan_id":"free"},{"bike_id":"7635af8f-2101-4856-842d-969da8eada51","system_id":"levelo_inurba_marseille","lat":43.288501,"lon":5.393087,"is_reserved":false,"is_disabled":false,"rental_uris":{"android":"levelo://app?vid=7635af8f-2101-4856-842d-969da8eada51","ios":"levelo://app?vid=7635af8f-2101-4856-842d-969da8eada51"},"vehicle_type_id":"4","last_reported":1701104798,"current_range_meters":21200,"station_id":"ce4bh2p2rcd13ifvqdi0","pricing_plan_id":"free"},{"bike_id":"e7bc67a5-4cc2-4f63-889c-c589098866ac","system_id":"levelo_inurba_marseille","lat":43.288501,"lon":5.393087,"is_reserved":false,"is_disabled":false,"rental_uris":{"android":"levelo://app?vid=e7bc67a5-4cc2-4f63-889c-c589098866ac","ios":"levelo://app?vid=e7bc67a5-4cc2-4f63-889c-c589098866ac"},"vehicle_type_id":"4","last_reported":1701104798,"current_range_meters":22400,"station_id":"ce4bh2p2rcd13ifvqdi0","pricing_plan_id":"free"},{"bike_id":"31df2638-09d2-4d35-9f94-8fc537254376","system_id":"levelo_inurba_marseille","lat":43.288501,"lon":5.393087,"is_reserved":false,"is_disabled":false,"rental_uris":{"android":"levelo://app?vid=31df2638-09d2-4d35-9f94-8fc537254376","ios":"levelo://app?vid=31df2638-09d2-4d35-9f94-8fc537254376"},"vehicle_type_id":"4","last_reported":1701104798,"current_range_meters":16400,"station_id":"ce4bh2p2rcd13ifvqdi0","pricing_plan_id":"free"},{"bike_id":"e2284003-4e46-4e0a-93e7-73d05c3666d9","system_id":"levelo_inurba_marseille","lat":43.33508,"lon":5.397755,"is_reserved":false,"is_disabled":false,"rental_uris":{"android":"levelo://app?vid=e2284003-4e46-4e0a-93e7-73d05c3666d9","ios":"levelo://app?vid=e2284003-4e46-4e0a-93e7-73d05c3666d9"},"vehicle_type_id":"4","last_reported":1701104798,"current_range_meters":14400,"station_id":"","pricing_plan_id":"free"},{"bike_id":"1d561437-c66c-42f5-88ff-e5782267c3d4","system_id":"levelo_inurba_marseille","lat":43.283502,"lon":5.386471,"is_reserved":false,"is_disabled":false,"rental_uris":{"android":"levelo://app?vid=1d561437-c66c-42f5-88ff-e5782267c3d4","ios":"levelo://app?vid=1d561437-c66c-42f5-88ff-e5782267c3d4"},"vehicle_type_id":"4","last_reported":1701104798,"current_range_meters":29200,"station_id":"ce4bh492rcd13ifvqdvg","pricing_plan_id":"free"},{"bike_id":"2d884891-2722-4f44-8072-8fada83a090e","system_id":"levelo_inurba_marseille","lat":43.28039,"lon":5.369297,"is_reserved":false,"is_disabled":false,"rental_uris":{"android":"levelo://app?vid=2d884891-2722-4f44-8072-8fada83a090e","ios":"levelo://app?vid=2d884891-2722-4f44-8072-8fada83a090e"},"vehicle_type_id":"4","last_reported":1701104798,"current_range_meters":20000,"station_id":"ce4bha12rcd13ifvqef0","pricing_plan_id":"free"},{"bike_id":"d7c7b04a-7702-4af4-ba6c-26a5e8bfa1c2","system_id":"levelo_inurba_marseille","lat":43.28039,"lon":5.369297,"is_reserved":false,"is_disabled":false,"rental_uris":{"android":"levelo://app?vid=d7c7b04a-7702-4af4-ba6c-26a5e8bfa1c2","ios":"levelo://app?vid=d7c7b04a-7702-4af4-ba6c-26a5e8bfa1c2"},"vehicle_type_id":"4","last_reported":1701104798,"current_range_meters":18800,"station_id":"ce4bha12rcd13ifvqef0","pricing_plan_id":"free"},{"bike_id":"6526cad1-2f4b-4db1-8d6b-ce04bc407b31","system_id":"levelo_inurba_marseille","lat":43.346897,"lon":5.37683,"is_reserved":false,"is_disabled":false,"rental_uris":{"android":"levelo://app?vid=6526cad1-2f4b-4db1-8d6b-ce04bc407b31","ios":"levelo://app?vid=6526cad1-2f4b-4db1-8d6b-ce04bc407b31"},"vehicle_type_id":"4","last_reported":1701104798,"current_range_meters":0,"station_id":"","pricing_plan_id":"free"},{"bike_id":"49eb250d-7efb-448c-a95a-27f23bebc7d2","system_id":"levelo_inurba_marseille","lat":43.287154,"lon":5.399979,"is_reserved":false,"is_disabled":false,"rental_uris":{"android":"levelo://app?vid=49eb250d-7efb-448c-a95a-27f23bebc7d2","ios":"levelo://app?vid=49eb250d-7efb-448c-a95a-27f23bebc7d2"},"vehicle_type_id":"4","last_reported":1701104798,"current_range_meters":22800,"station_id":"ce4bho92rcd13ifvqh3g","pricing_plan_id":"free"},{"bike_id":"69f29ead-eddb-48d2-949b-ba37ce89072d","system_id":"levelo_inurba_marseille","lat":43.292571,"lon":5.409107,"is_reserved":false,"is_disabled":false,"rental_uris":{"android":"levelo://app?vid=69f29ead-eddb-48d2-949b-ba37ce89072d","ios":"levelo://app?vid=69f29ead-eddb-48d2-949b-ba37ce89072d"},"vehicle_type_id":"4","last_reported":1701104798,"current_range_meters":19600,"station_id":"ce4bh192rcd13ifvqdc0","pricing_plan_id":"free"},{"bike_id":"5c9cc44d-5101-485d-b981-1ad13a603c33","system_id":"levelo_inurba_marseille","lat":43.292617,"lon":5.40907,"is_reserved":false,"is_disabled":false,"rental_uris":{"android":"levelo://app?vid=5c9cc44d-5101-485d-b981-1ad13a603c33","ios":"levelo://app?vid=5c9cc44d-5101-485d-b981-1ad13a603c33"},"vehicle_type_id":"4","last_reported":1701104798,"current_range_meters":0,"station_id":"ce4bh192rcd13ifvqdc0","pricing_plan_id":"free"},{"bike_id":"be9690c5-c7a1-4c76-a31f-e0ecc29f7955","system_id":"levelo_inurba_marseille","lat":43.28082,"lon":5.39662,"is_reserved":false,"is_disabled":false,"rental_uris":{"android":"levelo://app?vid=be9690c5-c7a1-4c76-a31f-e0ecc29f7955","ios":"levelo://app?vid=be9690c5-c7a1-4c76-a31f-e0ecc29f7955"},"vehicle_type_id":"4","last_reported":1701104798,"current_range_meters":13200,"station_id":"ce4bho12rcd13ifvqh2g","pricing_plan_id":"free"},{"bike_id":"952a5902-5470-43da-b650-b3fd1f57a439","system_id":"levelo_inurba_marseille","lat":43.280784,"lon":5.396622,"is_reserved":false,"is_disabled":false,"rental_uris":{"android":"levelo://app?vid=952a5902-5470-43da-b650-b3fd1f57a439","ios":"levelo://app?vid=952a5902-5470-43da-b650-b3fd1f57a439"},"vehicle_type_id":"4","last_reported":1701104798,"current_range_meters":9600,"station_id":"ce4bho12rcd13ifvqh2g","pricing_plan_id":"free"},{"bike_id":"d464b2b8-5592-4801-9285-e083cee75ba1","system_id":"levelo_inurba_marseille","lat":43.28076,"lon":5.3966,"is_reserved":false,"is_disabled":false,"rental_uris":{"android":"levelo://app?vid=d464b2b8-5592-4801-9285-e083cee75ba1","ios":"levelo://app?vid=d464b2b8-5592-4801-9285-e083cee75ba1"},"vehicle_type_id":"4","last_reported":1701104798,"current_range_meters":10800,"station_id":"ce4bho12rcd13ifvqh2g","pricing_plan_id":"free"},{"bike_id":"2541b4da-3874-4eb7-9d5f-ca2470fb617c","system_id":"levelo_inurba_marseille","lat":43.280784,"lon":5.396622,"is_reserved":false,"is_disabled":false,"rental_uris":{"android":"levelo://app?vid=2541b4da-3874-4eb7-9d5f-ca2470fb617c","ios":"levelo://app?vid=2541b4da-3874-4eb7-9d5f-ca2470fb617c"},"vehicle_type_id":"4","last_reported":1701104798,"current_range_meters":7600,"station_id":"ce4bho12rcd13ifvqh2g","pricing_plan_id":"free"},{"bike_id":"39739d30-32b5-4135-8aa0-1bc5b0fc9bac","system_id":"levelo_inurba_marseille","lat":43.280784,"lon":5.396622,"is_reserved":false,"is_disabled":false,"rental_uris":{"android":"levelo://app?vid=39739d30-32b5-4135-8aa0-1bc5b0fc9bac","ios":"levelo://app?vid=39739d30-32b5-4135-8aa0-1bc5b0fc9bac"},"vehicle_type_id":"4","last_reported":1701104798,"current_range_meters":4400,"station_id":"ce4bho12rcd13ifvqh2g","pricing_plan_id":"free"},{"bike_id":"69e3d658-1c26-483f-b90d-8379037eb245","system_id":"levelo_inurba_marseille","lat":43.303837,"lon":5.418724,"is_reserved":false,"is_disabled":false,"rental_uris":{"android":"levelo://app?vid=69e3d658-1c26-483f-b90d-8379037eb245","ios":"levelo://app?vid=69e3d658-1c26-483f-b90d-8379037eb245"},"vehicle_type_id":"4","last_reported":1701104798,"current_range_meters":21600,"station_id":"ce4bhop2rcd13ifvqh7g","pricing_plan_id":"free"},{"bike_id":"43a0b753-fb47-4881-91d9-d29a0815f06e","system_id":"levelo_inurba_marseille","lat":43.273609,"lon":5.362708,"is_reserved":false,"is_disabled":false,"rental_uris":{"android":"levelo://app?vid=43a0b753-fb47-4881-91d9-d29a0815f06e","ios":"levelo://app?vid=43a0b753-fb47-4881-91d9-d29a0815f06e"},"vehicle_type_id":"4","last_reported":1701104798,"current_range_meters":30400,"station_id":"ce4bhbh2rcd13ifvqeo0","pricing_plan_id":"free"},{"bike_id":"3d955af7-b7d1-4f39-8a2f-4096fce89c61","system_id":"levelo_inurba_marseille","lat":43.273609,"lon":5.362708,"is_reserved":false,"is_disabled":false,"rental_uris":{"android":"levelo://app?vid=3d955af7-b7d1-4f39-8a2f-4096fce89c61","ios":"levelo://app?vid=3d955af7-b7d1-4f39-8a2f-4096fce89c61"},"vehicle_type_id":"4","last_reported":1701104798,"current_range_meters":26000,"station_id":"ce4bhbh2rcd13ifvqeo0","pricing_plan_id":"free"},{"bike_id":"038890be-bccb-4466-bf62-d8a292701dd6","system_id":"levelo_inurba_marseille","lat":43.27996,"lon":5.40012,"is_reserved":false,"is_disabled":false,"rental_uris":{"android":"levelo://app?vid=038890be-bccb-4466-bf62-d8a292701dd6","ios":"levelo://app?vid=038890be-bccb-4466-bf62-d8a292701dd6"},"vehicle_type_id":"4","last_reported":1701104798,"current_range_meters":12000,"station_id":"ce4bho92rcd13ifvqh4g","pricing_plan_id":"free"},{"bike_id":"e3aea119-83f0-4bbf-89c2-a8b642088937","system_id":"levelo_inurba_marseille","lat":43.27998,"lon":5.40019,"is_reserved":false,"is_disabled":false,"rental_uris":{"android":"levelo://app?vid=e3aea119-83f0-4bbf-89c2-a8b642088937","ios":"levelo://app?vid=e3aea119-83f0-4bbf-89c2-a8b642088937"},"vehicle_type_id":"4","last_reported":1701104798,"current_range_meters":12800,"station_id":"ce4bho92rcd13ifvqh4g","pricing_plan_id":"free"},{"bike_id":"89b9a57b-3c62-4bcd-a510-245ba6546272","system_id":"levelo_inurba_marseille","lat":43.317121,"lon":5.423936,"is_reserved":false,"is_disabled":false,"rental_uris":{"android":"levelo://app?vid=89b9a57b-3c62-4bcd-a510-245ba6546272","ios":"levelo://app?vid=89b9a57b-3c62-4bcd-a510-245ba6546272"},"vehicle_type_id":"4","last_reported":1701104798,"current_range_meters":2400,"station_id":"ce4bhp92rcd13ifvqhbg","pricing_plan_id":"free"},{"bike_id":"460d5063-5d7a-4405-ba58-f7ba9110acb2","system_id":"levelo_inurba_marseille","lat":43.31718,"lon":5.42403,"is_reserved":false,"is_disabled":false,"rental_uris":{"android":"levelo://app?vid=460d5063-5d7a-4405-ba58-f7ba9110acb2","ios":"levelo://app?vid=460d5063-5d7a-4405-ba58-f7ba9110acb2"},"vehicle_type_id":"4","last_reported":1701104798,"current_range_meters":8000,"station_id":"ce4bhp92rcd13ifvqhbg","pricing_plan_id":"free"},{"bike_id":"177119fa-77bc-4b45-9076-05ca3e223bc7","system_id":"levelo_inurba_marseille","lat":43.340804,"lon":5.410219,"is_reserved":false,"is_disabled":false,"rental_uris":{"android":"levelo://app?vid=177119fa-77bc-4b45-9076-05ca3e223bc7","ios":"levelo://app?vid=177119fa-77bc-4b45-9076-05ca3e223bc7"},"vehicle_type_id":"4","last_reported":1701104798,"current_range_meters":16000,"station_id":"ce4bhqh2rcd13ifvqhlg","pricing_plan_id":"free"},{"bike_id":"38605ce9-a0d7-4561-a428-2969313090c5","system_id":"levelo_inurba_marseille","lat":43.29555,"lon":5.42285,"is_reserved":false,"is_disabled":false,"rental_uris":{"android":"levelo://app?vid=38605ce9-a0d7-4561-a428-2969313090c5","ios":"levelo://app?vid=38605ce9-a0d7-4561-a428-2969313090c5"},"vehicle_type_id":"4","last_reported":1701104798,"current_range_meters":30400,"station_id":"ce4bhph2rcd13ifvqhdg","pricing_plan_id":"free"},{"bike_id":"76c54cc3-5f25-4fd7-a417-9afa50fb9df9","system_id":"levelo_inurba_marseille","lat":43.295523,"lon":5.422926,"is_reserved":false,"is_disabled":false,"rental_uris":{"android":"levelo://app?vid=76c54cc3-5f25-4fd7-a417-9afa50fb9df9","ios":"levelo://app?vid=76c54cc3-5f25-4fd7-a417-9afa50fb9df9"},"vehicle_type_id":"4","last_reported":1701104798,"current_range_meters":15600,"station_id":"ce4bhph2rcd13ifvqhdg","pricing_plan_id":"free"},{"bike_id":"b5345938-438d-49b4-a969-d1562d2f1280","system_id":"levelo_inurba_marseille","lat":43.295523,"lon":5.422926,"is_reserved":false,"is_disabled":false,"rental_uris":{"android":"levelo://app?vid=b5345938-438d-49b4-a969-d1562d2f1280","ios":"levelo://app?vid=b5345938-438d-49b4-a969-d1562d2f1280"},"vehicle_type_id":"4","last_reported":1701104798,"current_range_meters":28800,"station_id":"ce4bhph2rcd13ifvqhdg","pricing_plan_id":"free"},{"bike_id":"487e8935-2222-4e65-8507-6d483307a42a","system_id":"levelo_inurba_marseille","lat":43.295511,"lon":5.422926,"is_reserved":false,"is_disabled":false,"rental_uris":{"android":"levelo://app?vid=487e8935-2222-4e65-8507-6d483307a42a","ios":"levelo://app?vid=487e8935-2222-4e65-8507-6d483307a42a"},"vehicle_type_id":"4","last_reported":1701104798,"current_range_meters":31200,"station_id":"ce4bhph2rcd13ifvqhdg","pricing_plan_id":"free"},{"bike_id":"6b00c00a-acab-4a0b-825e-4b6c2ea383bc","system_id":"levelo_inurba_marseille","lat":43.295523,"lon":5.422926,"is_reserved":false,"is_disabled":false,"rental_uris":{"android":"levelo://app?vid=6b00c00a-acab-4a0b-825e-4b6c2ea383bc","ios":"levelo://app?vid=6b00c00a-acab-4a0b-825e-4b6c2ea383bc"},"vehicle_type_id":"4","last_reported":1701104798,"current_range_meters":28800,"station_id":"ce4bhph2rcd13ifvqhdg","pricing_plan_id":"free"},{"bike_id":"fe1a0da7-ac78-4623-9b9d-9ec231e567e0","system_id":"levelo_inurba_marseille","lat":43.295491,"lon":5.422887,"is_reserved":false,"is_disabled":false,"rental_uris":{"android":"levelo://app?vid=fe1a0da7-ac78-4623-9b9d-9ec231e567e0","ios":"levelo://app?vid=fe1a0da7-ac78-4623-9b9d-9ec231e567e0"},"vehicle_type_id":"4","last_reported":1701104798,"current_range_meters":24800,"station_id":"ce4bhph2rcd13ifvqhdg","pricing_plan_id":"free"},{"bike_id":"60d68696-e37a-4397-b24a-012f516bc63c","system_id":"levelo_inurba_marseille","lat":43.295523,"lon":5.422926,"is_reserved":false,"is_disabled":false,"rental_uris":{"android":"levelo://app?vid=60d68696-e37a-4397-b24a-012f516bc63c","ios":"levelo://app?vid=60d68696-e37a-4397-b24a-012f516bc63c"},"vehicle_type_id":"4","last_reported":1701104798,"current_range_meters":18000,"station_id":"ce4bhph2rcd13ifvqhdg","pricing_plan_id":"free"},{"bike_id":"08fe44e4-201e-4497-b2af-1597ca570ac3","system_id":"levelo_inurba_marseille","lat":43.295511,"lon":5.422926,"is_reserved":false,"is_disabled":false,"rental_uris":{"android":"levelo://app?vid=08fe44e4-201e-4497-b2af-1597ca570ac3","ios":"levelo://app?vid=08fe44e4-201e-4497-b2af-1597ca570ac3"},"vehicle_type_id":"4","last_reported":1701104798,"current_range_meters":22800,"station_id":"ce4bhph2rcd13ifvqhdg","pricing_plan_id":"free"},{"bike_id":"96661c5e-90e7-498e-8229-323d527ddcf5","system_id":"levelo_inurba_marseille","lat":43.295523,"lon":5.422926,"is_reserved":false,"is_disabled":false,"rental_uris":{"android":"levelo://app?vid=96661c5e-90e7-498e-8229-323d527ddcf5","ios":"levelo://app?vid=96661c5e-90e7-498e-8229-323d527ddcf5"},"vehicle_type_id":"4","last_reported":1701104798,"current_range_meters":20400,"station_id":"ce4bhph2rcd13ifvqhdg","pricing_plan_id":"free"},{"bike_id":"62cfa572-51d4-4a04-9e45-ea785883caeb","system_id":"levelo_inurba_marseille","lat":43.27215,"lon":5.39261,"is_reserved":false,"is_disabled":false,"rental_uris":{"android":"levelo://app?vid=62cfa572-51d4-4a04-9e45-ea785883caeb","ios":"levelo://app?vid=62cfa572-51d4-4a04-9e45-ea785883caeb"},"vehicle_type_id":"4","last_reported":1701104798,"current_range_meters":14800,"station_id":"","pricing_plan_id":"free"},{"bike_id":"9aa3c30e-33a5-4f2c-98d1-6a5b6fa9c215","system_id":"levelo_inurba_marseille","lat":43.278128,"lon":5.407195,"is_reserved":false,"is_disabled":false,"rental_uris":{"android":"levelo://app?vid=9aa3c30e-33a5-4f2c-98d1-6a5b6fa9c215","ios":"levelo://app?vid=9aa3c30e-33a5-4f2c-98d1-6a5b6fa9c215"},"vehicle_type_id":"4","last_reported":1701104798,"current_range_meters":13200,"station_id":"ce4bhnh2rcd13ifvqgtg","pricing_plan_id":"free"},{"bike_id":"a406769d-10f5-467c-8ed6-5951f6adcf7e","system_id":"levelo_inurba_marseille","lat":43.278128,"lon":5.407195,"is_reserved":false,"is_disabled":false,"rental_uris":{"android":"levelo://app?vid=a406769d-10f5-467c-8ed6-5951f6adcf7e","ios":"levelo://app?vid=a406769d-10f5-467c-8ed6-5951f6adcf7e"},"vehicle_type_id":"4","last_reported":1701104798,"current_range_meters":22400,"station_id":"ce4bhnh2rcd13ifvqgtg","pricing_plan_id":"free"},{"bike_id":"c0da9d5f-85f3-4852-83d6-346997b768b7","system_id":"levelo_inurba_marseille","lat":43.278128,"lon":5.407195,"is_reserved":false,"is_disabled":false,"rental_uris":{"android":"levelo://app?vid=c0da9d5f-85f3-4852-83d6-346997b768b7","ios":"levelo://app?vid=c0da9d5f-85f3-4852-83d6-346997b768b7"},"vehicle_type_id":"4","last_reported":1701104798,"current_range_meters":16400,"station_id":"ce4bhnh2rcd13ifvqgtg","pricing_plan_id":"free"},{"bike_id":"9efe761d-4b17-4e3f-a49f-4e76c8ea96ba","system_id":"levelo_inurba_marseille","lat":43.26911,"lon":5.38627,"is_reserved":false,"is_disabled":false,"rental_uris":{"android":"levelo://app?vid=9efe761d-4b17-4e3f-a49f-4e76c8ea96ba","ios":"levelo://app?vid=9efe761d-4b17-4e3f-a49f-4e76c8ea96ba"},"vehicle_type_id":"4","last_reported":1701104798,"current_range_meters":21200,"station_id":"ce4bhh92rcd13ifvqfh0","pricing_plan_id":"free"},{"bike_id":"c8268e82-32de-476d-b43b-a0fe479b442d","system_id":"levelo_inurba_marseille","lat":43.27912,"lon":5.41222,"is_reserved":false,"is_disabled":false,"rental_uris":{"android":"levelo://app?vid=c8268e82-32de-476d-b43b-a0fe479b442d","ios":"levelo://app?vid=c8268e82-32de-476d-b43b-a0fe479b442d"},"vehicle_type_id":"4","last_reported":1701104798,"current_range_meters":12000,"station_id":"","pricing_plan_id":"free"},{"bike_id":"037156c7-a88c-4596-a3d5-0d4f249b58d0","system_id":"levelo_inurba_marseille","lat":43.26553,"lon":5.37284,"is_reserved":false,"is_disabled":false,"rental_uris":{"android":"levelo://app?vid=037156c7-a88c-4596-a3d5-0d4f249b58d0","ios":"levelo://app?vid=037156c7-a88c-4596-a3d5-0d4f249b58d0"},"vehicle_type_id":"4","last_reported":1701104798,"current_range_meters":22000,"station_id":"ce4bhg12rcd13ifvqf70","pricing_plan_id":"free"},{"bike_id":"f23d8119-b478-4639-98c5-6883279f9f84","system_id":"levelo_inurba_marseille","lat":43.32592,"lon":5.43067,"is_reserved":false,"is_disabled":false,"rental_uris":{"android":"levelo://app?vid=f23d8119-b478-4639-98c5-6883279f9f84","ios":"levelo://app?vid=f23d8119-b478-4639-98c5-6883279f9f84"},"vehicle_type_id":"4","last_reported":1701104798,"current_range_meters":18400,"station_id":"","pricing_plan_id":"free"},{"bike_id":"ed30d6a1-b23a-49e5-9c83-5546be72a734","system_id":"levelo_inurba_marseille","lat":43.3259,"lon":5.43075,"is_reserved":false,"is_disabled":false,"rental_uris":{"android":"levelo://app?vid=ed30d6a1-b23a-49e5-9c83-5546be72a734","ios":"levelo://app?vid=ed30d6a1-b23a-49e5-9c83-5546be72a734"},"vehicle_type_id":"4","last_reported":1701104798,"current_range_meters":13200,"station_id":"","pricing_plan_id":"free"},{"bike_id":"d67469ee-5362-4610-a163-fe05ae3cf4f7","system_id":"levelo_inurba_marseille","lat":43.32604,"lon":5.430817,"is_reserved":false,"is_disabled":false,"rental_uris":{"android":"levelo://app?vid=d67469ee-5362-4610-a163-fe05ae3cf4f7","ios":"levelo://app?vid=d67469ee-5362-4610-a163-fe05ae3cf4f7"},"vehicle_type_id":"4","last_reported":1701104798,"current_range_meters":1600,"station_id":"","pricing_plan_id":"free"},{"bike_id":"5986dab0-7b77-4674-8135-17288066df9b","system_id":"levelo_inurba_marseille","lat":43.27541,"lon":5.40951,"is_reserved":false,"is_disabled":false,"rental_uris":{"android":"levelo://app?vid=5986dab0-7b77-4674-8135-17288066df9b","ios":"levelo://app?vid=5986dab0-7b77-4674-8135-17288066df9b"},"vehicle_type_id":"4","last_reported":1701104798,"current_range_meters":17200,"station_id":"","pricing_plan_id":"free"},{"bike_id":"90cbab28-a875-4d11-98d3-9d382568c5c8","system_id":"levelo_inurba_marseille","lat":43.27996,"lon":5.416624,"is_reserved":false,"is_disabled":false,"rental_uris":{"android":"levelo://app?vid=90cbab28-a875-4d11-98d3-9d382568c5c8","ios":"levelo://app?vid=90cbab28-a875-4d11-98d3-9d382568c5c8"},"vehicle_type_id":"4","last_reported":1701104798,"current_range_meters":26800,"station_id":"ce4bho12rcd13ifvqh1g","pricing_plan_id":"free"},{"bike_id":"e5ac7006-99bd-4a7c-b8d4-34b705f9c4ee","system_id":"levelo_inurba_marseille","lat":43.265714,"lon":5.372891,"is_reserved":false,"is_disabled":false,"rental_uris":{"android":"levelo://app?vid=e5ac7006-99bd-4a7c-b8d4-34b705f9c4ee","ios":"levelo://app?vid=e5ac7006-99bd-4a7c-b8d4-34b705f9c4ee"},"vehicle_type_id":"4","last_reported":1701104798,"current_range_meters":3600,"station_id":"ce4bhg12rcd13ifvqf70","pricing_plan_id":"free"},{"bike_id":"cad86e4e-58f1-42ee-b325-d0f3bd8010db","system_id":"levelo_inurba_marseille","lat":43.267966,"lon":5.393976,"is_reserved":false,"is_disabled":false,"rental_uris":{"android":"levelo://app?vid=cad86e4e-58f1-42ee-b325-d0f3bd8010db","ios":"levelo://app?vid=cad86e4e-58f1-42ee-b325-d0f3bd8010db"},"vehicle_type_id":"4","last_reported":1701104798,"current_range_meters":12000,"station_id":"ce4bhh12rcd13ifvqfg0","pricing_plan_id":"free"},{"bike_id":"daf6da52-496e-47c8-82f4-7379a7b15f6c","system_id":"levelo_inurba_marseille","lat":43.267966,"lon":5.393976,"is_reserved":false,"is_disabled":false,"rental_uris":{"android":"levelo://app?vid=daf6da52-496e-47c8-82f4-7379a7b15f6c","ios":"levelo://app?vid=daf6da52-496e-47c8-82f4-7379a7b15f6c"},"vehicle_type_id":"4","last_reported":1701104798,"current_range_meters":26400,"station_id":"ce4bhh12rcd13ifvqfg0","pricing_plan_id":"free"},{"bike_id":"7e5e78d8-615c-4a97-9af2-bb9d4c9de4f9","system_id":"levelo_inurba_marseille","lat":43.26777,"lon":5.394162,"is_reserved":false,"is_disabled":false,"rental_uris":{"android":"levelo://app?vid=7e5e78d8-615c-4a97-9af2-bb9d4c9de4f9","ios":"levelo://app?vid=7e5e78d8-615c-4a97-9af2-bb9d4c9de4f9"},"vehicle_type_id":"4","last_reported":1701104798,"current_range_meters":30000,"station_id":"ce4bhh12rcd13ifvqfg0","pricing_plan_id":"free"},{"bike_id":"de1df4ee-4ac8-4bf2-95a0-4a7efb35acd0","system_id":"levelo_inurba_marseille","lat":43.265714,"lon":5.372891,"is_reserved":false,"is_disabled":false,"rental_uris":{"android":"levelo://app?vid=de1df4ee-4ac8-4bf2-95a0-4a7efb35acd0","ios":"levelo://app?vid=de1df4ee-4ac8-4bf2-95a0-4a7efb35acd0"},"vehicle_type_id":"4","last_reported":1701104798,"current_range_meters":28000,"station_id":"ce4bhg12rcd13ifvqf70","pricing_plan_id":"free"},{"bike_id":"df6285bc-f1db-462c-a2dc-81443bdad91f","system_id":"levelo_inurba_marseille","lat":43.308051,"lon":5.43527,"is_reserved":false,"is_disabled":false,"rental_uris":{"android":"levelo://app?vid=df6285bc-f1db-462c-a2dc-81443bdad91f","ios":"levelo://app?vid=df6285bc-f1db-462c-a2dc-81443bdad91f"},"vehicle_type_id":"4","last_reported":1701104798,"current_range_meters":7200,"station_id":"ce4bhph2rcd13ifvqheg","pricing_plan_id":"free"},{"bike_id":"8b74d3bd-d40e-4453-992f-9b4deed5beb4","system_id":"levelo_inurba_marseille","lat":43.308051,"lon":5.43527,"is_reserved":false,"is_disabled":false,"rental_uris":{"android":"levelo://app?vid=8b74d3bd-d40e-4453-992f-9b4deed5beb4","ios":"levelo://app?vid=8b74d3bd-d40e-4453-992f-9b4deed5beb4"},"vehicle_type_id":"4","last_reported":1701104798,"current_range_meters":27600,"station_id":"ce4bhph2rcd13ifvqheg","pricing_plan_id":"free"},{"bike_id":"9c95276d-23a6-4432-bdd2-0e7cd5b1ff61","system_id":"levelo_inurba_marseille","lat":43.26565,"lon":5.39024,"is_reserved":false,"is_disabled":false,"rental_uris":{"android":"levelo://app?vid=9c95276d-23a6-4432-bdd2-0e7cd5b1ff61","ios":"levelo://app?vid=9c95276d-23a6-4432-bdd2-0e7cd5b1ff61"},"vehicle_type_id":"4","last_reported":1701104798,"current_range_meters":0,"station_id":"ce4bhe12rcd13ifvqf30","pricing_plan_id":"free"},{"bike_id":"1feaf962-976f-4c2d-a111-ed01413ac7a2","system_id":"levelo_inurba_marseille","lat":43.26949,"lon":5.40262,"is_reserved":false,"is_disabled":false,"rental_uris":{"android":"levelo://app?vid=1feaf962-976f-4c2d-a111-ed01413ac7a2","ios":"levelo://app?vid=1feaf962-976f-4c2d-a111-ed01413ac7a2"},"vehicle_type_id":"4","last_reported":1701104798,"current_range_meters":17600,"station_id":"cjm6bp8fraef2m0cb0m0","pricing_plan_id":"free"},{"bike_id":"a5295a81-4685-489b-8351-44351a8110f9","system_id":"levelo_inurba_marseille","lat":43.26949,"lon":5.40262,"is_reserved":false,"is_disabled":false,"rental_uris":{"android":"levelo://app?vid=a5295a81-4685-489b-8351-44351a8110f9","ios":"levelo://app?vid=a5295a81-4685-489b-8351-44351a8110f9"},"vehicle_type_id":"4","last_reported":1701104798,"current_range_meters":2400,"station_id":"cjm6bp8fraef2m0cb0m0","pricing_plan_id":"free"},{"bike_id":"8f0e0158-4d6a-4b1e-a680-cc3645f6c28d","system_id":"levelo_inurba_marseille","lat":43.26949,"lon":5.40262,"is_reserved":false,"is_disabled":false,"rental_uris":{"android":"levelo://app?vid=8f0e0158-4d6a-4b1e-a680-cc3645f6c28d","ios":"levelo://app?vid=8f0e0158-4d6a-4b1e-a680-cc3645f6c28d"},"vehicle_type_id":"4","last_reported":1701104798,"current_range_meters":10000,"station_id":"cjm6bp8fraef2m0cb0m0","pricing_plan_id":"free"},{"bike_id":"d2e989fa-38dc-43b1-ba08-12ab74122c34","system_id":"levelo_inurba_marseille","lat":43.27178,"lon":5.41003,"is_reserved":false,"is_disabled":false,"rental_uris":{"android":"levelo://app?vid=d2e989fa-38dc-43b1-ba08-12ab74122c34","ios":"levelo://app?vid=d2e989fa-38dc-43b1-ba08-12ab74122c34"},"vehicle_type_id":"4","last_reported":1701104798,"current_range_meters":12000,"station_id":"ce4bhl12rcd13ifvqgf0","pricing_plan_id":"free"},{"bike_id":"6bed0cef-1ebf-4ca3-b222-4fe96326d9d5","system_id":"levelo_inurba_marseille","lat":43.271368,"lon":5.40928,"is_reserved":false,"is_disabled":false,"rental_uris":{"android":"levelo://app?vid=6bed0cef-1ebf-4ca3-b222-4fe96326d9d5","ios":"levelo://app?vid=6bed0cef-1ebf-4ca3-b222-4fe96326d9d5"},"vehicle_type_id":"4","last_reported":1701104798,"current_range_meters":14000,"station_id":"ce4bhl12rcd13ifvqgf0","pricing_plan_id":"free"},{"bike_id":"f402eb07-5ea7-4fca-9f20-20a4a8922775","system_id":"levelo_inurba_marseille","lat":43.267959,"lon":5.402687,"is_reserved":false,"is_disabled":false,"rental_uris":{"android":"levelo://app?vid=f402eb07-5ea7-4fca-9f20-20a4a8922775","ios":"levelo://app?vid=f402eb07-5ea7-4fca-9f20-20a4a8922775"},"vehicle_type_id":"4","last_reported":1701104798,"current_range_meters":13600,"station_id":"ce501612rcd8frsf0b60","pricing_plan_id":"free"},{"bike_id":"cfda26ad-2514-4384-b546-e184328a5c3e","system_id":"levelo_inurba_marseille","lat":43.267959,"lon":5.402687,"is_reserved":false,"is_disabled":false,"rental_uris":{"android":"levelo://app?vid=cfda26ad-2514-4384-b546-e184328a5c3e","ios":"levelo://app?vid=cfda26ad-2514-4384-b546-e184328a5c3e"},"vehicle_type_id":"4","last_reported":1701104798,"current_range_meters":3600,"station_id":"ce501612rcd8frsf0b60","pricing_plan_id":"free"},{"bike_id":"7c5a83ac-336c-4b91-a5ea-82b3c6d6127d","system_id":"levelo_inurba_marseille","lat":43.298768,"lon":5.43643,"is_reserved":false,"is_disabled":false,"rental_uris":{"android":"levelo://app?vid=7c5a83ac-336c-4b91-a5ea-82b3c6d6127d","ios":"levelo://app?vid=7c5a83ac-336c-4b91-a5ea-82b3c6d6127d"},"vehicle_type_id":"4","last_reported":1701104798,"current_range_meters":31600,"station_id":"ce4bhpp2rcd13ifvqhfg","pricing_plan_id":"free"},{"bike_id":"3865e87c-590e-474f-b570-8a1ace950d6b","system_id":"levelo_inurba_marseille","lat":43.298768,"lon":5.43643,"is_reserved":false,"is_disabled":false,"rental_uris":{"android":"levelo://app?vid=3865e87c-590e-474f-b570-8a1ace950d6b","ios":"levelo://app?vid=3865e87c-590e-474f-b570-8a1ace950d6b"},"vehicle_type_id":"4","last_reported":1701104798,"current_range_meters":25200,"station_id":"ce4bhpp2rcd13ifvqhfg","pricing_plan_id":"free"},{"bike_id":"9713bde9-c9a7-4d76-bb95-dac32047e32a","system_id":"levelo_inurba_marseille","lat":43.298768,"lon":5.43643,"is_reserved":false,"is_disabled":false,"rental_uris":{"android":"levelo://app?vid=9713bde9-c9a7-4d76-bb95-dac32047e32a","ios":"levelo://app?vid=9713bde9-c9a7-4d76-bb95-dac32047e32a"},"vehicle_type_id":"4","last_reported":1701104798,"current_range_meters":30400,"station_id":"ce4bhpp2rcd13ifvqhfg","pricing_plan_id":"free"},{"bike_id":"3e469c88-1717-4aca-bd5e-1ec315470d14","system_id":"levelo_inurba_marseille","lat":43.298768,"lon":5.43643,"is_reserved":false,"is_disabled":false,"rental_uris":{"android":"levelo://app?vid=3e469c88-1717-4aca-bd5e-1ec315470d14","ios":"levelo://app?vid=3e469c88-1717-4aca-bd5e-1ec315470d14"},"vehicle_type_id":"4","last_reported":1701104798,"current_range_meters":11600,"station_id":"ce4bhpp2rcd13ifvqhfg","pricing_plan_id":"free"},{"bike_id":"f4f2e1d5-dafa-412d-9b3a-3611814786ce","system_id":"levelo_inurba_marseille","lat":43.298768,"lon":5.43643,"is_reserved":false,"is_disabled":false,"rental_uris":{"android":"levelo://app?vid=f4f2e1d5-dafa-412d-9b3a-3611814786ce","ios":"levelo://app?vid=f4f2e1d5-dafa-412d-9b3a-3611814786ce"},"vehicle_type_id":"4","last_reported":1701104798,"current_range_meters":31600,"station_id":"ce4bhpp2rcd13ifvqhfg","pricing_plan_id":"free"},{"bike_id":"df86183c-2087-436f-9bdd-29ed82a32076","system_id":"levelo_inurba_marseille","lat":43.298768,"lon":5.43643,"is_reserved":false,"is_disabled":false,"rental_uris":{"android":"levelo://app?vid=df86183c-2087-436f-9bdd-29ed82a32076","ios":"levelo://app?vid=df86183c-2087-436f-9bdd-29ed82a32076"},"vehicle_type_id":"4","last_reported":1701104798,"current_range_meters":30400,"station_id":"ce4bhpp2rcd13ifvqhfg","pricing_plan_id":"free"},{"bike_id":"66c5017d-9747-4fe3-95ee-d539317d6c18","system_id":"levelo_inurba_marseille","lat":43.26028,"lon":5.37556,"is_reserved":false,"is_disabled":false,"rental_uris":{"android":"levelo://app?vid=66c5017d-9747-4fe3-95ee-d539317d6c18","ios":"levelo://app?vid=66c5017d-9747-4fe3-95ee-d539317d6c18"},"vehicle_type_id":"4","last_reported":1701104798,"current_range_meters":25600,"station_id":"ce4bhgh2rcd13ifvqfa0","pricing_plan_id":"free"},{"bike_id":"b7ab09ae-f787-4d2c-a739-86e1b66152d5","system_id":"levelo_inurba_marseille","lat":43.28158,"lon":5.4264,"is_reserved":false,"is_disabled":false,"rental_uris":{"android":"levelo://app?vid=b7ab09ae-f787-4d2c-a739-86e1b66152d5","ios":"levelo://app?vid=b7ab09ae-f787-4d2c-a739-86e1b66152d5"},"vehicle_type_id":"4","last_reported":1701104798,"current_range_meters":0,"station_id":"ce4bhnh2rcd13ifvqgug","pricing_plan_id":"free"},{"bike_id":"346aaafb-1a91-418c-9c42-f58941f3b624","system_id":"levelo_inurba_marseille","lat":43.281548,"lon":5.42643,"is_reserved":false,"is_disabled":false,"rental_uris":{"android":"levelo://app?vid=346aaafb-1a91-418c-9c42-f58941f3b624","ios":"levelo://app?vid=346aaafb-1a91-418c-9c42-f58941f3b624"},"vehicle_type_id":"4","last_reported":1701104798,"current_range_meters":4400,"station_id":"ce4bhnh2rcd13ifvqgug","pricing_plan_id":"free"},{"bike_id":"0c65cba6-717b-430d-99b1-82b10bf243b3","system_id":"levelo_inurba_marseille","lat":43.2607,"lon":5.393983,"is_reserved":false,"is_disabled":false,"rental_uris":{"android":"levelo://app?vid=0c65cba6-717b-430d-99b1-82b10bf243b3","ios":"levelo://app?vid=0c65cba6-717b-430d-99b1-82b10bf243b3"},"vehicle_type_id":"4","last_reported":1701104798,"current_range_meters":27600,"station_id":"ce4bhh92rcd13ifvqfj0","pricing_plan_id":"free"},{"bike_id":"c85f7616-3a9e-47a4-ae16-28a03e51ab4f","system_id":"levelo_inurba_marseille","lat":43.28929,"lon":5.438754,"is_reserved":false,"is_disabled":false,"rental_uris":{"android":"levelo://app?vid=c85f7616-3a9e-47a4-ae16-28a03e51ab4f","ios":"levelo://app?vid=c85f7616-3a9e-47a4-ae16-28a03e51ab4f"},"vehicle_type_id":"4","last_reported":1701104798,"current_range_meters":6800,"station_id":"","pricing_plan_id":"free"},{"bike_id":"a200de64-5a83-4c5c-9a4a-37358ef876c4","system_id":"levelo_inurba_marseille","lat":43.258311,"lon":5.394354,"is_reserved":false,"is_disabled":false,"rental_uris":{"android":"levelo://app?vid=a200de64-5a83-4c5c-9a4a-37358ef876c4","ios":"levelo://app?vid=a200de64-5a83-4c5c-9a4a-37358ef876c4"},"vehicle_type_id":"4","last_reported":1701104798,"current_range_meters":3600,"station_id":"ce4bhip2rcd13ifvqft0","pricing_plan_id":"free"},{"bike_id":"370d0558-5b34-4052-b258-b86676cebe50","system_id":"levelo_inurba_marseille","lat":43.258224,"lon":5.394369,"is_reserved":false,"is_disabled":false,"rental_uris":{"android":"levelo://app?vid=370d0558-5b34-4052-b258-b86676cebe50","ios":"levelo://app?vid=370d0558-5b34-4052-b258-b86676cebe50"},"vehicle_type_id":"4","last_reported":1701104798,"current_range_meters":30000,"station_id":"ce4bhip2rcd13ifvqft0","pricing_plan_id":"free"},{"bike_id":"b7c63160-ae28-40ef-a3a9-a6f97125d231","system_id":"levelo_inurba_marseille","lat":43.2479,"lon":5.374457,"is_reserved":false,"is_disabled":false,"rental_uris":{"android":"levelo://app?vid=b7c63160-ae28-40ef-a3a9-a6f97125d231","ios":"levelo://app?vid=b7c63160-ae28-40ef-a3a9-a6f97125d231"},"vehicle_type_id":"4","last_reported":1701104798,"current_range_meters":24400,"station_id":"ce4bhgh2rcd13ifvqfb0","pricing_plan_id":"free"},{"bike_id":"f4a0a2ca-5dd4-4058-9d5a-8ea4a5069620","system_id":"levelo_inurba_marseille","lat":43.2479,"lon":5.374457,"is_reserved":false,"is_disabled":false,"rental_uris":{"android":"levelo://app?vid=f4a0a2ca-5dd4-4058-9d5a-8ea4a5069620","ios":"levelo://app?vid=f4a0a2ca-5dd4-4058-9d5a-8ea4a5069620"},"vehicle_type_id":"4","last_reported":1701104798,"current_range_meters":19600,"station_id":"ce4bhgh2rcd13ifvqfb0","pricing_plan_id":"free"},{"bike_id":"4c0c3118-7eaa-4ebd-8d87-d449bea3e021","system_id":"levelo_inurba_marseille","lat":43.250897,"lon":5.395161,"is_reserved":false,"is_disabled":false,"rental_uris":{"android":"levelo://app?vid=4c0c3118-7eaa-4ebd-8d87-d449bea3e021","ios":"levelo://app?vid=4c0c3118-7eaa-4ebd-8d87-d449bea3e021"},"vehicle_type_id":"4","last_reported":1701104798,"current_range_meters":19600,"station_id":"ce4bhm12rcd13ifvqgkg","pricing_plan_id":"free"},{"bike_id":"6ec47fb9-7f4c-4d8b-8761-810cb9b0e8e3","system_id":"levelo_inurba_marseille","lat":43.250966,"lon":5.395186,"is_reserved":false,"is_disabled":false,"rental_uris":{"android":"levelo://app?vid=6ec47fb9-7f4c-4d8b-8761-810cb9b0e8e3","ios":"levelo://app?vid=6ec47fb9-7f4c-4d8b-8761-810cb9b0e8e3"},"vehicle_type_id":"4","last_reported":1701104798,"current_range_meters":28000,"station_id":"ce4bhm12rcd13ifvqgkg","pricing_plan_id":"free"},{"bike_id":"3e30ae6a-daca-4eb9-94fd-ebdb8e2e6e1a","system_id":"levelo_inurba_marseille","lat":43.250966,"lon":5.395186,"is_reserved":false,"is_disabled":false,"rental_uris":{"android":"levelo://app?vid=3e30ae6a-daca-4eb9-94fd-ebdb8e2e6e1a","ios":"levelo://app?vid=3e30ae6a-daca-4eb9-94fd-ebdb8e2e6e1a"},"vehicle_type_id":"4","last_reported":1701104798,"current_range_meters":23200,"station_id":"ce4bhm12rcd13ifvqgkg","pricing_plan_id":"free"},{"bike_id":"3fd87900-14a2-4f2e-887c-a05e68cf5cc6","system_id":"levelo_inurba_marseille","lat":43.24693,"lon":5.382096,"is_reserved":false,"is_disabled":false,"rental_uris":{"android":"levelo://app?vid=3fd87900-14a2-4f2e-887c-a05e68cf5cc6","ios":"levelo://app?vid=3fd87900-14a2-4f2e-887c-a05e68cf5cc6"},"vehicle_type_id":"4","last_reported":1701104798,"current_range_meters":1200,"station_id":"ce4bhih2rcd13ifvqfr0","pricing_plan_id":"free"},{"bike_id":"27751617-b247-4876-94c1-89ae8d550213","system_id":"levelo_inurba_marseille","lat":43.24693,"lon":5.382096,"is_reserved":false,"is_disabled":false,"rental_uris":{"android":"levelo://app?vid=27751617-b247-4876-94c1-89ae8d550213","ios":"levelo://app?vid=27751617-b247-4876-94c1-89ae8d550213"},"vehicle_type_id":"4","last_reported":1701104798,"current_range_meters":3600,"station_id":"ce4bhih2rcd13ifvqfr0","pricing_plan_id":"free"},{"bike_id":"edc11133-df97-4cb7-912e-0c0d8c7d5283","system_id":"levelo_inurba_marseille","lat":43.25111,"lon":5.40319,"is_reserved":false,"is_disabled":false,"rental_uris":{"android":"levelo://app?vid=edc11133-df97-4cb7-912e-0c0d8c7d5283","ios":"levelo://app?vid=edc11133-df97-4cb7-912e-0c0d8c7d5283"},"vehicle_type_id":"4","last_reported":1701104798,"current_range_meters":11600,"station_id":"ce4bhlh2rcd13ifvqgig","pricing_plan_id":"free"},{"bike_id":"e7467027-80c6-4166-92c8-012cec55c28b","system_id":"levelo_inurba_marseille","lat":43.246467,"lon":5.388984,"is_reserved":false,"is_disabled":false,"rental_uris":{"android":"levelo://app?vid=e7467027-80c6-4166-92c8-012cec55c28b","ios":"levelo://app?vid=e7467027-80c6-4166-92c8-012cec55c28b"},"vehicle_type_id":"4","last_reported":1701104798,"current_range_meters":10800,"station_id":"ce4bhg12rcd13ifvqf60","pricing_plan_id":"free"},{"bike_id":"b7523dca-0728-4bd2-8501-19fd1c1ed728","system_id":"levelo_inurba_marseille","lat":43.243884,"lon":5.370737,"is_reserved":false,"is_disabled":false,"rental_uris":{"android":"levelo://app?vid=b7523dca-0728-4bd2-8501-19fd1c1ed728","ios":"levelo://app?vid=b7523dca-0728-4bd2-8501-19fd1c1ed728"},"vehicle_type_id":"4","last_reported":1701104798,"current_range_meters":12800,"station_id":"ce4bhhh2rcd13ifvqfk0","pricing_plan_id":"free"},{"bike_id":"b5f63d26-a2ac-4640-8d46-f945ff7fdeea","system_id":"levelo_inurba_marseille","lat":43.240754,"lon":5.37764,"is_reserved":false,"is_disabled":false,"rental_uris":{"android":"levelo://app?vid=b5f63d26-a2ac-4640-8d46-f945ff7fdeea","ios":"levelo://app?vid=b5f63d26-a2ac-4640-8d46-f945ff7fdeea"},"vehicle_type_id":"4","last_reported":1701104798,"current_range_meters":20000,"station_id":"","pricing_plan_id":"free"},{"bike_id":"a413eca6-e2d0-455f-91bf-5a68b2f98ac8","system_id":"levelo_inurba_marseille","lat":43.239588,"lon":5.366238,"is_reserved":false,"is_disabled":false,"rental_uris":{"android":"levelo://app?vid=a413eca6-e2d0-455f-91bf-5a68b2f98ac8","ios":"levelo://app?vid=a413eca6-e2d0-455f-91bf-5a68b2f98ac8"},"vehicle_type_id":"4","last_reported":1701104798,"current_range_meters":31200,"station_id":"ce4bhi12rcd13ifvqfp0","pricing_plan_id":"free"},{"bike_id":"78beb498-941e-4b61-b145-508ca1a45a4e","system_id":"levelo_inurba_marseille","lat":43.239588,"lon":5.366238,"is_reserved":false,"is_disabled":false,"rental_uris":{"android":"levelo://app?vid=78beb498-941e-4b61-b145-508ca1a45a4e","ios":"levelo://app?vid=78beb498-941e-4b61-b145-508ca1a45a4e"},"vehicle_type_id":"4","last_reported":1701104798,"current_range_meters":18000,"station_id":"ce4bhi12rcd13ifvqfp0","pricing_plan_id":"free"},{"bike_id":"97ad8c4d-85c1-4c67-b660-3eb9d9cf0a0b","system_id":"levelo_inurba_marseille","lat":43.241796,"lon":5.397261,"is_reserved":false,"is_disabled":false,"rental_uris":{"android":"levelo://app?vid=97ad8c4d-85c1-4c67-b660-3eb9d9cf0a0b","ios":"levelo://app?vid=97ad8c4d-85c1-4c67-b660-3eb9d9cf0a0b"},"vehicle_type_id":"4","last_reported":1701104798,"current_range_meters":0,"station_id":"","pricing_plan_id":"free"},{"bike_id":"075253a0-f018-47aa-acd4-c289c4c6096a","system_id":"levelo_inurba_marseille","lat":43.231919,"lon":5.355532,"is_reserved":false,"is_disabled":false,"rental_uris":{"android":"levelo://app?vid=075253a0-f018-47aa-acd4-c289c4c6096a","ios":"levelo://app?vid=075253a0-f018-47aa-acd4-c289c4c6096a"},"vehicle_type_id":"4","last_reported":1701104798,"current_range_meters":30400,"station_id":"ce4bhu92rcd13ifvqi70","pricing_plan_id":"free"},{"bike_id":"bf4977e1-afe1-4532-a2f2-c0606c96864d","system_id":"levelo_inurba_marseille","lat":43.231923,"lon":5.355545,"is_reserved":false,"is_disabled":false,"rental_uris":{"android":"levelo://app?vid=bf4977e1-afe1-4532-a2f2-c0606c96864d","ios":"levelo://app?vid=bf4977e1-afe1-4532-a2f2-c0606c96864d"},"vehicle_type_id":"4","last_reported":1701104798,"current_range_meters":28400,"station_id":"ce4bhu92rcd13ifvqi70","pricing_plan_id":"free"},{"bike_id":"945820d5-0863-4546-95ce-7bc71f7ca369","system_id":"levelo_inurba_marseille","lat":43.231793,"lon":5.400044,"is_reserved":false,"is_disabled":false,"rental_uris":{"android":"levelo://app?vid=945820d5-0863-4546-95ce-7bc71f7ca369","ios":"levelo://app?vid=945820d5-0863-4546-95ce-7bc71f7ca369"},"vehicle_type_id":"4","last_reported":1701104798,"current_range_meters":28000,"station_id":"ce4bhn12rcd13ifvqgqg","pricing_plan_id":"free"},{"bike_id":"01d7dcce-f4dd-437a-8e68-a8c15da9bd36","system_id":"levelo_inurba_marseille","lat":43.231794,"lon":5.400052,"is_reserved":false,"is_disabled":false,"rental_uris":{"android":"levelo://app?vid=01d7dcce-f4dd-437a-8e68-a8c15da9bd36","ios":"levelo://app?vid=01d7dcce-f4dd-437a-8e68-a8c15da9bd36"},"vehicle_type_id":"4","last_reported":1701104798,"current_range_meters":25600,"station_id":"ce4bhn12rcd13ifvqgqg","pricing_plan_id":"free"},{"bike_id":"3b1f2a99-886f-4668-9a74-6ec15bdc8e2e","system_id":"levelo_inurba_marseille","lat":43.231794,"lon":5.400052,"is_reserved":false,"is_disabled":false,"rental_uris":{"android":"levelo://app?vid=3b1f2a99-886f-4668-9a74-6ec15bdc8e2e","ios":"levelo://app?vid=3b1f2a99-886f-4668-9a74-6ec15bdc8e2e"},"vehicle_type_id":"4","last_reported":1701104798,"current_range_meters":9200,"station_id":"ce4bhn12rcd13ifvqgqg","pricing_plan_id":"free"},{"bike_id":"e5c0b752-139d-4664-93e3-0643c6fcdf2e","system_id":"levelo_inurba_marseille","lat":43.231794,"lon":5.400052,"is_reserved":false,"is_disabled":false,"rental_uris":{"android":"levelo://app?vid=e5c0b752-139d-4664-93e3-0643c6fcdf2e","ios":"levelo://app?vid=e5c0b752-139d-4664-93e3-0643c6fcdf2e"},"vehicle_type_id":"4","last_reported":1701104798,"current_range_meters":2400,"station_id":"ce4bhn12rcd13ifvqgqg","pricing_plan_id":"free"},{"bike_id":"e2d1e01b-9a52-49a5-87e4-6d09865761b4","system_id":"levelo_inurba_marseille","lat":43.231794,"lon":5.400052,"is_reserved":false,"is_disabled":false,"rental_uris":{"android":"levelo://app?vid=e2d1e01b-9a52-49a5-87e4-6d09865761b4","ios":"levelo://app?vid=e2d1e01b-9a52-49a5-87e4-6d09865761b4"},"vehicle_type_id":"4","last_reported":1701104798,"current_range_meters":7600,"station_id":"ce4bhn12rcd13ifvqgqg","pricing_plan_id":"free"},{"bike_id":"f583a60f-a15e-490d-b8af-915b7bc6e58b","system_id":"levelo_inurba_marseille","lat":43.231794,"lon":5.400052,"is_reserved":false,"is_disabled":false,"rental_uris":{"android":"levelo://app?vid=f583a60f-a15e-490d-b8af-915b7bc6e58b","ios":"levelo://app?vid=f583a60f-a15e-490d-b8af-915b7bc6e58b"},"vehicle_type_id":"4","last_reported":1701104798,"current_range_meters":28800,"station_id":"ce4bhn12rcd13ifvqgqg","pricing_plan_id":"free"}]}}