{"last_updated":1738084067,"ttl":60,"version":"2.2","data":{"bikes":[{"bike_id":"c98c10ad-2c59-465b-9626-e2f31164a824","system_id":"levelo_inurba_marseille","lat":43.23201,"lon":5.35547,"is_reserved":false,"is_disabled":false,"rental_uris":{"android":"levelo://app?vid=c98c10ad-2c59-465b-9626-e2f31164a824","ios":"levelo://app?vid=c98c10ad-2c59-465b-9626-e2f31164a824"},"vehicle_type_id":"4","last_reported":1738084067,"current_range_meters":28400,"station_id":"ce4bhu92rcd13ifvqi70","pricing_plan_id":"cebpf4jnsgd1na2vs0mg"},{"bike_id":"11f0f1b4-de32-4860-8b9c-91c9cd760569","system_id":"levelo_inurba_marseille","lat":43.31328,"lon":5.39692,"is_reserved":false,"is_disabled":false,"rental_uris":{"android":"levelo://app?vid=11f0f1b4-de32-4860-8b9c-91c9cd760569","ios":"levelo://app?vid=11f0f1b4-de32-4860-8b9c-91c9cd760569"},"vehicle_type_id":"4","last_reported":1738084067,"current_range_meters":22800,"station_id":"ce4bgvp2rcd13ifvqcu0","pricing_plan_id":"cebpf4jnsgd1na2vs0mg"},{"bike_id":"8e650e52-700a-42f9-a1a6-468cb3f9711b","system_id":"levelo_inurba_marseille","lat":43.28517,"lon":5.38401,"is_reserved":false,"is_disabled":true,"rental_uris":{"android":"levelo://app?vid=8e650e52-700a-42f9-a1a6-468cb3f9711b","ios":"levelo://app?vid=8e650e52-700a-42f9-a1a6-468cb3f9711b"},"vehicle_type_id":"4","last_reported":1738084067,"current_range_meters":2000,"station_id":"ce4bh512rcd13ifvqe3g","pricing_plan_id":"cebpf4jnsgd1na2vs0mg"},{"bike_id":"f7f8117f-03ef-415e-85c6-2eeaf165e4f2","system_id":"levelo_inurba_marseille","lat":43.26234,"lon":5.40445,"is_reserved":false,"is_disabled":true,"rental_uris":{"android":"levelo://app?vid=f7f8117f-03ef-415e-85c6-2eeaf165e4f2","ios":"levelo://app?vid=f7f8117f-03ef-415e-85c6-2eeaf165e4f2"},"vehicle_type_id":"4","last_reported":1738084067,"current_range_meters":32400,"station_id":"ce4bhmh2rcd13ifvqgmg","pricing_plan_id":"cebpf4jnsgd1na2vs0mg"},{"bike_id":"45226d1a-6602-4547-9f5f-cb36e591a81b","system_id":"levelo_inurba_marseille","lat":43.26062,"lon":5.394,"is_reserved":false,"is_disabled":false,"rental_uris":{"android":"levelo://app?vid=45226d1a-6602-4547-9f5f-cb36e591a81b","ios":"levelo://app?vid=45226d1a-6602-4547-9f5f-cb36e591a81b"},"vehicle_type_id":"4","last_reported":1738084067,"current_range_meters":38800,"station_id":"ce4bhh92rcd13ifvqfj0","pricing_plan_id":"cebpf4jnsgd1na2vs0mg"},{"bike_id":"f7eeff0b-3639-4079-b20d-6264b393d68b","system_id":"levelo_inurba_marseille","lat":43.27813,"lon":5.40716,"is_reserved":false,"is_disabled":false,"rental_uris":{"android":"levelo://app?vid=f7eeff0b-3639-4079-b20d-6264b393d68b","ios":"levelo://app?vid=f7eeff0b-3639-4079-b20d-6264b393d68b"},"vehicle_type_id":"4","last_reported":1738084067,"current_range_meters":30400,"station_id":"ce4bhnh2rcd13ifvqgtg","pricing_plan_id":"cebpf4jnsgd1na2vs0mg"},{"bike_id":"51b0ee7e-ba5b-4c68-ad0d-f0f6ee817f8e","system_id":"levelo_inurba_marseille","lat":43.23964,"lon":5.36633,"is_reserved":false,"is_disabled":false,"rental_uris":{"android":"levelo://app?vid=51b0ee7e-ba5b-4c68-ad0d-f0f6ee817f8e","ios":"levelo://app?vid=51b0ee7e-ba5b-4c68-ad0d-f0f6ee817f8e"},"vehicle_type_id":"4","last_reported":1738084067,"current_range_meters":8000,"station_id":"ce4bhi12rcd13ifvqfp0","pricing_plan_id":"cebpf4jnsgd1na2vs0mg"},{"bike_id":"d77faba5-2b0c-430f-ad22-bcf40b90e74c","system_id":"levelo_inurba_marseille","lat":43.27825,"lon":5.40739,"is_reserved":false,"is_disabled":true,"rental_uris":{"android":"levelo://app?vid=d77faba5-2b0c-430f-ad22-bcf40b90e74c","ios":"levelo://app?vid=d77faba5-2b0c-430f-ad22-bcf40b90e74c"},"vehicle_type_id":"4","last_reported":1738084067,"current_range_meters":38000,"station_id":"ce4bhnh2rcd13ifvqgtg","pricing_plan_id":"cebpf4jnsgd1na2vs0mg"},{"bike_id":"71d83b14-b5ea-4f7d-aeab-5ac59c101897","system_id":"levelo_inurba_marseille","lat":43.29103,"lon":5.38138,"is_reserved":false,"is_disabled":false,"rental_uris":{"android":"levelo://app?vid=71d83b14-b5ea-4f7d-aeab-5ac59c101897","ios":"levelo://app?vid=71d83b14-b5ea-4f7d-aeab-5ac59c101897"},"vehicle_type_id":"4","last_reported":1738084067,"current_range_meters":38800,"station_id":"ce4bh512rcd13ifvqe2g","pricing_plan_id":"cebpf4jnsgd1na2vs0mg"},{"bike_id":"8df2db50-4daa-47a5-9ab9-8a9fa8fdc263","system_id":"levelo_inurba_marseille","lat":43.26501,"lon":5.39549,"is_reserved":false,"is_disabled":false,"rental_uris":{"android":"levelo://app?vid=8df2db50-4daa-47a5-9ab9-8a9fa8fdc263","ios":"levelo://app?vid=8df2db50-4daa-47a5-9ab9-8a9fa8fdc263"},"vehicle_type_id":"4","last_reported":1738084067,"current_range_meters":32000,"station_id":"ce4bhi12rcd13ifvqfq0","pricing_plan_id":"cebpf4jnsgd1na2vs0mg"},{"bike_id":"58e72295-f362-4387-8a27-14a7c991b4f9","system_id":"levelo_inurba_marseille","lat":43.27375,"lon":5.36256,"is_reserved":false,"is_disabled":false,"rental_uris":{"android":"levelo://app?vid=58e72295-f362-4387-8a27-14a7c991b4f9","ios":"levelo://app?vid=58e72295-f362-4387-8a27-14a7c991b4f9"},"vehicle_type_id":"4","last_reported":1738084067,"current_range_meters":6000,"station_id":"ce4bhbh2rcd13ifvqeo0","pricing_plan_id":"cebpf4jnsgd1na2vs0mg"},{"bike_id":"96c6d005-88bb-4fd6-98f4-0a014c553eb8","system_id":"levelo_inurba_marseille","lat":43.33031,"lon":5.39035,"is_reserved":false,"is_disabled":false,"rental_uris":{"android":"levelo://app?vid=96c6d005-88bb-4fd6-98f4-0a014c553eb8","ios":"levelo://app?vid=96c6d005-88bb-4fd6-98f4-0a014c553eb8"},"vehicle_type_id":"4","last_reported":1738084067,"current_range_meters":38000,"station_id":"ce4bhr92rcd13ifvqhrg","pricing_plan_id":"cebpf4jnsgd1na2vs0mg"},{"bike_id":"5c388708-e3f2-4bbd-88d9-c199a31e81f9","system_id":"levelo_inurba_marseille","lat":43.28734,"lon":5.40023,"is_reserved":false,"is_disabled":true,"rental_uris":{"android":"levelo://app?vid=5c388708-e3f2-4bbd-88d9-c199a31e81f9","ios":"levelo://app?vid=5c388708-e3f2-4bbd-88d9-c199a31e81f9"},"vehicle_type_id":"4","last_reported":1738084067,"current_range_meters":35600,"station_id":"ce4bho92rcd13ifvqh3g","pricing_plan_id":"cebpf4jnsgd1na2vs0mg"},{"bike_id":"99f052ce-e5d4-4959-9f96-077a48f3f1c5","system_id":"levelo_inurba_marseille","lat":43.271858,"lon":5.409983,"is_reserved":false,"is_disabled":false,"rental_uris":{"android":"levelo://app?vid=99f052ce-e5d4-4959-9f96-077a48f3f1c5","ios":"levelo://app?vid=99f052ce-e5d4-4959-9f96-077a48f3f1c5"},"vehicle_type_id":"4","last_reported":1738084067,"current_range_meters":37600,"station_id":"ce4bhl12rcd13ifvqgf0","pricing_plan_id":"cebpf4jnsgd1na2vs0mg"},{"bike_id":"7b62b85f-9007-4e0f-99b3-202add6535db","system_id":"levelo_inurba_marseille","lat":43.26938,"lon":5.40247,"is_reserved":false,"is_disabled":false,"rental_uris":{"android":"levelo://app?vid=7b62b85f-9007-4e0f-99b3-202add6535db","ios":"levelo://app?vid=7b62b85f-9007-4e0f-99b3-202add6535db"},"vehicle_type_id":"4","last_reported":1738084067,"current_range_meters":30400,"station_id":"cjm6bp8fraef2m0cb0m0","pricing_plan_id":"cebpf4jnsgd1na2vs0mg"},{"bike_id":"d302b16d-f581-4992-9151-b0c15c078cdc","system_id":"levelo_inurba_marseille","lat":43.268084,"lon":5.402639,"is_reserved":false,"is_disabled":false,"rental_uris":{"android":"levelo://app?vid=d302b16d-f581-4992-9151-b0c15c078cdc","ios":"levelo://app?vid=d302b16d-f581-4992-9151-b0c15c078cdc"},"vehicle_type_id":"4","last_reported":1738084067,"current_range_meters":38800,"station_id":"ce501612rcd8frsf0b60","pricing_plan_id":"cebpf4jnsgd1na2vs0mg"},{"bike_id":"f7dbd7c4-7033-43ce-b8a8-91687507514d","system_id":"levelo_inurba_marseille","lat":43.31119,"lon":5.37763,"is_reserved":false,"is_disabled":false,"rental_uris":{"android":"levelo://app?vid=f7dbd7c4-7033-43ce-b8a8-91687507514d","ios":"levelo://app?vid=f7dbd7c4-7033-43ce-b8a8-91687507514d"},"vehicle_type_id":"4","last_reported":1738084067,"current_range_meters":31200,"station_id":"ce4bgt92rcd13ifvqcg0","pricing_plan_id":"cebpf4jnsgd1na2vs0mg"},{"bike_id":"dbcf9345-9e80-4135-b0dc-bb17cbea3844","system_id":"levelo_inurba_marseille","lat":43.30142,"lon":5.39874,"is_reserved":false,"is_disabled":false,"rental_uris":{"android":"levelo://app?vid=dbcf9345-9e80-4135-b0dc-bb17cbea3844","ios":"levelo://app?vid=dbcf9345-9e80-4135-b0dc-bb17cbea3844"},"vehicle_type_id":"4","last_reported":1738084067,"current_range_meters":16800,"station_id":"ce4bh0h2rcd13ifvqd40","pricing_plan_id":"cebpf4jnsgd1na2vs0mg"},{"bike_id":"caa1aa31-d2ce-4888-b071-8162594442e0","system_id":"levelo_inurba_marseille","lat":43.33022,"lon":5.39042,"is_reserved":false,"is_disabled":false,"rental_uris":{"android":"levelo://app?vid=caa1aa31-d2ce-4888-b071-8162594442e0","ios":"levelo://app?vid=caa1aa31-d2ce-4888-b071-8162594442e0"},"vehicle_type_id":"4","last_reported":1738084067,"current_range_meters":16400,"station_id":"ce4bhr92rcd13ifvqhrg","pricing_plan_id":"cebpf4jnsgd1na2vs0mg"},{"bike_id":"069b705e-258c-450c-88dc-0d2ac3a8269c","system_id":"levelo_inurba_marseille","lat":43.31376,"lon":5.384967,"is_reserved":false,"is_disabled":false,"rental_uris":{"android":"levelo://app?vid=069b705e-258c-450c-88dc-0d2ac3a8269c","ios":"levelo://app?vid=069b705e-258c-450c-88dc-0d2ac3a8269c"},"vehicle_type_id":"4","last_reported":1738084067,"current_range_meters":38800,"station_id":"ce4bgt92rcd13ifvqcf0","pricing_plan_id":"cebpf4jnsgd1na2vs0mg"},{"bike_id":"5d4915e0-4a9f-4c36-821a-8bde58abc3cd","system_id":"levelo_inurba_marseille","lat":43.25111,"lon":5.40332,"is_reserved":false,"is_disabled":true,"rental_uris":{"android":"levelo://app?vid=5d4915e0-4a9f-4c36-821a-8bde58abc3cd","ios":"levelo://app?vid=5d4915e0-4a9f-4c36-821a-8bde58abc3cd"},"vehicle_type_id":"4","last_reported":1738084067,"current_range_meters":14000,"station_id":"ce4bhlh2rcd13ifvqgig","pricing_plan_id":"cebpf4jnsgd1na2vs0mg"},{"bike_id":"75f78423-7bb1-46bc-9291-8f61438106b2","system_id":"levelo_inurba_marseille","lat":43.33034,"lon":5.39043,"is_reserved":false,"is_disabled":false,"rental_uris":{"android":"levelo://app?vid=75f78423-7bb1-46bc-9291-8f61438106b2","ios":"levelo://app?vid=75f78423-7bb1-46bc-9291-8f61438106b2"},"vehicle_type_id":"4","last_reported":1738084067,"current_range_meters":28800,"station_id":"ce4bhr92rcd13ifvqhrg","pricing_plan_id":"cebpf4jnsgd1na2vs0mg"},{"bike_id":"5b093e90-300a-4b0a-a15d-ae22ef06f7a6","system_id":"levelo_inurba_marseille","lat":43.30535,"lon":5.36546,"is_reserved":false,"is_disabled":false,"rental_uris":{"android":"levelo://app?vid=5b093e90-300a-4b0a-a15d-ae22ef06f7a6","ios":"levelo://app?vid=5b093e90-300a-4b0a-a15d-ae22ef06f7a6"},"vehicle_type_id":"4","last_reported":1738084067,"current_range_meters":31200,"station_id":"ce4bgs12rcd13ifvqcag","pricing_plan_id":"cebpf4jnsgd1na2vs0mg"},{"bike_id":"8906b01c-c546-42d8-8a71-d3e4c23c32f6","system_id":"levelo_inurba_marseille","lat":43.24399,"lon":5.37056,"is_reserved":false,"is_disabled":false,"rental_uris":{"android":"levelo://app?vid=8906b01c-c546-42d8-8a71-d3e4c23c32f6","ios":"levelo://app?vid=8906b01c-c546-42d8-8a71-d3e4c23c32f6"},"vehicle_type_id":"4","last_reported":1738084067,"current_range_meters":38800,"station_id":"ce4bhhh2rcd13ifvqfk0","pricing_plan_id":"cebpf4jnsgd1na2vs0mg"},{"bike_id":"6dc46f7b-097e-4bed-b74a-5bab6b23ccc2","system_id":"levelo_inurba_marseille","lat":43.31328,"lon":5.39694,"is_reserved":false,"is_disabled":false,"rental_uris":{"android":"levelo://app?vid=6dc46f7b-097e-4bed-b74a-5bab6b23ccc2","ios":"levelo://app?vid=6dc46f7b-097e-4bed-b74a-5bab6b23ccc2"},"vehicle_type_id":"4","last_reported":1738084067,"current_range_meters":29600,"station_id":"ce4bgvp2rcd13ifvqcu0","pricing_plan_id":"cebpf4jnsgd1na2vs0mg"},{"bike_id":"da7ba8e5-f778-4ede-91e7-c38d6ca8bff8","system_id":"levelo_inurba_marseille","lat":43.28722,"lon":5.36085,"is_reserved":false,"is_disabled":false,"rental_uris":{"android":"levelo://app?vid=da7ba8e5-f778-4ede-91e7-c38d6ca8bff8","ios":"levelo://app?vid=da7ba8e5-f778-4ede-91e7-c38d6ca8bff8"},"vehicle_type_id":"4","last_reported":1738084067,"current_range_meters":16800,"station_id":"cki0cbj6b192h4jlfktg","pricing_plan_id":"cebpf4jnsgd1na2vs0mg"},{"bike_id":"f34da461-f61f-4178-8b83-f173480586de","system_id":"levelo_inurba_marseille","lat":43.29867,"lon":5.39765,"is_reserved":false,"is_disabled":false,"rental_uris":{"android":"levelo://app?vid=f34da461-f61f-4178-8b83-f173480586de","ios":"levelo://app?vid=f34da461-f61f-4178-8b83-f173480586de"},"vehicle_type_id":"4","last_reported":1738084067,"current_range_meters":39200,"station_id":"ce4bh0h2rcd13ifvqd50","pricing_plan_id":"cebpf4jnsgd1na2vs0mg"},{"bike_id":"b6147258-acd6-47ba-840c-8b5d132bf0bf","system_id":"levelo_inurba_marseille","lat":43.27997,"lon":5.38701,"is_reserved":false,"is_disabled":false,"rental_uris":{"android":"levelo://app?vid=b6147258-acd6-47ba-840c-8b5d132bf0bf","ios":"levelo://app?vid=b6147258-acd6-47ba-840c-8b5d132bf0bf"},"vehicle_type_id":"4","last_reported":1738084067,"current_range_meters":10800,"station_id":"ce4bhg12rcd13ifvqf80","pricing_plan_id":"cebpf4jnsgd1na2vs0mg"},{"bike_id":"1a5ecc0e-5686-47f0-be8e-fa07ac67d399","system_id":"levelo_inurba_marseille","lat":43.30637,"lon":5.40095,"is_reserved":false,"is_disabled":false,"rental_uris":{"android":"levelo://app?vid=1a5ecc0e-5686-47f0-be8e-fa07ac67d399","ios":"levelo://app?vid=1a5ecc0e-5686-47f0-be8e-fa07ac67d399"},"vehicle_type_id":"4","last_reported":1738084067,"current_range_meters":15200,"station_id":"ce4bh112rcd13ifvqda0","pricing_plan_id":"cebpf4jnsgd1na2vs0mg"},{"bike_id":"d443175e-c838-4f0e-90a6-eae26a0b1d17","system_id":"levelo_inurba_marseille","lat":43.26942,"lon":5.40242,"is_reserved":false,"is_disabled":false,"rental_uris":{"android":"levelo://app?vid=d443175e-c838-4f0e-90a6-eae26a0b1d17","ios":"levelo://app?vid=d443175e-c838-4f0e-90a6-eae26a0b1d17"},"vehicle_type_id":"4","last_reported":1738084067,"current_range_meters":30400,"station_id":"cjm6bp8fraef2m0cb0m0","pricing_plan_id":"cebpf4jnsgd1na2vs0mg"},{"bike_id":"c58bf58b-b1b4-4ce9-81c6-8af9d1aa61db","system_id":"levelo_inurba_marseille","lat":43.295249,"lon":5.374314,"is_reserved":false,"is_disabled":false,"rental_uris":{"android":"levelo://app?vid=c58bf58b-b1b4-4ce9-81c6-8af9d1aa61db","ios":"levelo://app?vid=c58bf58b-b1b4-4ce9-81c6-8af9d1aa61db"},"vehicle_type_id":"4","last_reported":1738084067,"current_range_meters":30400,"station_id":"ce4bgh92rcd13ifvqb40","pricing_plan_id":"cebpf4jnsgd1na2vs0mg"},{"bike_id":"c8a3a0ed-dff2-4f3c-87dc-2e6b47b1ad28","system_id":"levelo_inurba_marseille","lat":43.337444,"lon":5.374475,"is_reserved":false,"is_disabled":true,"rental_uris":{"android":"levelo://app?vid=c8a3a0ed-dff2-4f3c-87dc-2e6b47b1ad28","ios":"levelo://app?vid=c8a3a0ed-dff2-4f3c-87dc-2e6b47b1ad28"},"vehicle_type_id":"4","last_reported":1738084067,"current_range_meters":4400,"station_id":"","pricing_plan_id":"cebpf4jnsgd1na2vs0mg"},{"bike_id":"061a807c-1db8-46c7-beec-da6308b151ea","system_id":"levelo_inurba_marseille","lat":43.29602,"lon":5.38086,"is_reserved":false,"is_disabled":true,"rental_uris":{"android":"levelo://app?vid=061a807c-1db8-46c7-beec-da6308b151ea","ios":"levelo://app?vid=061a807c-1db8-46c7-beec-da6308b151ea"},"vehicle_type_id":"4","last_reported":1738084067,"current_range_meters":31200,"station_id":"ce4bgl12rcd13ifvqbo0","pricing_plan_id":"cebpf4jnsgd1na2vs0mg"},{"bike_id":"6f1a6b73-8f3b-4f8b-a4cd-dabae2d269e7","system_id":"levelo_inurba_marseille","lat":43.28349,"lon":5.381,"is_reserved":false,"is_disabled":false,"rental_uris":{"android":"levelo://app?vid=6f1a6b73-8f3b-4f8b-a4cd-dabae2d269e7","ios":"levelo://app?vid=6f1a6b73-8f3b-4f8b-a4cd-dabae2d269e7"},"vehicle_type_id":"4","last_reported":1738084067,"current_range_meters":36800,"station_id":"ce4bh412rcd13ifvqdr0","pricing_plan_id":"cebpf4jnsgd1na2vs0mg"},{"bike_id":"93969f84-b7a4-4a5f-afc6-f1429a4ca071","system_id":"levelo_inurba_marseille","lat":43.30138,"lon":5.39879,"is_reserved":false,"is_disabled":false,"rental_uris":{"android":"levelo://app?vid=93969f84-b7a4-4a5f-afc6-f1429a4ca071","ios":"levelo://app?vid=93969f84-b7a4-4a5f-afc6-f1429a4ca071"},"vehicle_type_id":"4","last_reported":1738084067,"current_range_meters":30400,"station_id":"ce4bh0h2rcd13ifvqd40","pricing_plan_id":"cebpf4jnsgd1na2vs0mg"},{"bike_id":"317641f9-e35e-4cc5-8468-c17053a33f25","system_id":"levelo_inurba_marseille","lat":43.29892,"lon":5.39744,"is_reserved":false,"is_disabled":false,"rental_uris":{"android":"levelo://app?vid=317641f9-e35e-4cc5-8468-c17053a33f25","ios":"levelo://app?vid=317641f9-e35e-4cc5-8468-c17053a33f25"},"vehicle_type_id":"4","last_reported":1738084067,"current_range_meters":28000,"station_id":"ce4bh0h2rcd13ifvqd50","pricing_plan_id":"cebpf4jnsgd1na2vs0mg"},{"bike_id":"ff67a65d-1277-4b56-8157-a6de3808f59c","system_id":"levelo_inurba_marseille","lat":43.26197,"lon":5.37456,"is_reserved":false,"is_disabled":false,"rental_uris":{"android":"levelo://app?vid=ff67a65d-1277-4b56-8157-a6de3808f59c","ios":"levelo://app?vid=ff67a65d-1277-4b56-8157-a6de3808f59c"},"vehicle_type_id":"4","last_reported":1738084067,"current_range_meters":11200,"station_id":"ce4bhgp2rcd13ifvqfc0","pricing_plan_id":"cebpf4jnsgd1na2vs0mg"},{"bike_id":"878dfc93-a59a-462b-b8a9-67361a235037","system_id":"levelo_inurba_marseille","lat":43.28563,"lon":5.39483,"is_reserved":false,"is_disabled":false,"rental_uris":{"android":"levelo://app?vid=878dfc93-a59a-462b-b8a9-67361a235037","ios":"levelo://app?vid=878dfc93-a59a-462b-b8a9-67361a235037"},"vehicle_type_id":"4","last_reported":1738084067,"current_range_meters":39200,"station_id":"ce4bh292rcd13ifvqdg0","pricing_plan_id":"cebpf4jnsgd1na2vs0mg"},{"bike_id":"93d7c713-e486-4ac5-8444-e075cc775918","system_id":"levelo_inurba_marseille","lat":43.31484,"lon":5.37307,"is_reserved":false,"is_disabled":false,"rental_uris":{"android":"levelo://app?vid=93d7c713-e486-4ac5-8444-e075cc775918","ios":"levelo://app?vid=93d7c713-e486-4ac5-8444-e075cc775918"},"vehicle_type_id":"4","last_reported":1738084067,"current_range_meters":26800,"station_id":"ce4bgt12rcd13ifvqcd0","pricing_plan_id":"cebpf4jnsgd1na2vs0mg"},{"bike_id":"24776794-e86c-4071-a5bc-621af311ac4d","system_id":"levelo_inurba_marseille","lat":43.27944,"lon":5.41046,"is_reserved":false,"is_disabled":true,"rental_uris":{"android":"levelo://app?vid=24776794-e86c-4071-a5bc-621af311ac4d","ios":"levelo://app?vid=24776794-e86c-4071-a5bc-621af311ac4d"},"vehicle_type_id":"4","last_reported":1738084067,"current_range_meters":0,"station_id":"ce4bhnp2rcd13ifvqh0g","pricing_plan_id":"cebpf4jnsgd1na2vs0mg"},{"bike_id":"304671ee-d3db-4725-b698-15e5f144fe70","system_id":"levelo_inurba_marseille","lat":43.27792,"lon":5.40717,"is_reserved":false,"is_disabled":false,"rental_uris":{"android":"levelo://app?vid=304671ee-d3db-4725-b698-15e5f144fe70","ios":"levelo://app?vid=304671ee-d3db-4725-b698-15e5f144fe70"},"vehicle_type_id":"4","last_reported":1738084067,"current_range_meters":36400,"station_id":"ce4bhnh2rcd13ifvqgtg","pricing_plan_id":"cebpf4jnsgd1na2vs0mg"},{"bike_id":"998336a5-b978-4ff6-a31d-563f9c74e918","system_id":"levelo_inurba_marseille","lat":43.31687,"lon":5.40478,"is_reserved":false,"is_disabled":false,"rental_uris":{"android":"levelo://app?vid=998336a5-b978-4ff6-a31d-563f9c74e918","ios":"levelo://app?vid=998336a5-b978-4ff6-a31d-563f9c74e918"},"vehicle_type_id":"4","last_reported":1738084067,"current_range_meters":38000,"station_id":"ce4bh012rcd13ifvqd00","pricing_plan_id":"cebpf4jnsgd1na2vs0mg"},{"bike_id":"38d64a1a-8556-4110-b6f2-4082444db6c6","system_id":"levelo_inurba_marseille","lat":43.28351,"lon":5.38122,"is_reserved":false,"is_disabled":false,"rental_uris":{"android":"levelo://app?vid=38d64a1a-8556-4110-b6f2-4082444db6c6","ios":"levelo://app?vid=38d64a1a-8556-4110-b6f2-4082444db6c6"},"vehicle_type_id":"4","last_reported":1738084067,"current_range_meters":30000,"station_id":"ce4bh412rcd13ifvqdr0","pricing_plan_id":"cebpf4jnsgd1na2vs0mg"},{"bike_id":"ece1c51d-d854-4523-ab4d-ec36ed60fd30","system_id":"levelo_inurba_marseille","lat":43.2842,"lon":5.34994,"is_reserved":false,"is_disabled":false,"rental_uris":{"android":"levelo://app?vid=ece1c51d-d854-4523-ab4d-ec36ed60fd30","ios":"levelo://app?vid=ece1c51d-d854-4523-ab4d-ec36ed60fd30"},"vehicle_type_id":"4","last_reported":1738084067,"current_range_meters":38800,"station_id":"ce4bhbh2rcd13ifvqepg","pricing_plan_id":"cebpf4jnsgd1na2vs0mg"},{"bike_id":"9838cc78-2b53-49d3-ae13-82df62c4fd64","system_id":"levelo_inurba_marseille","lat":43.28412,"lon":5.40934,"is_reserved":false,"is_disabled":true,"rental_uris":{"android":"levelo://app?vid=9838cc78-2b53-49d3-ae13-82df62c4fd64","ios":"levelo://app?vid=9838cc78-2b53-49d3-ae13-82df62c4fd64"},"vehicle_type_id":"4","last_reported":1738084067,"current_range_meters":0,"station_id":"","pricing_plan_id":"cebpf4jnsgd1na2vs0mg"},{"bike_id":"11f70921-b04a-4cdd-83e2-24b869bfe246","system_id":"levelo_inurba_marseille","lat":43.28974,"lon":5.37871,"is_reserved":false,"is_disabled":true,"rental_uris":{"android":"levelo://app?vid=11f70921-b04a-4cdd-83e2-24b869bfe246","ios":"levelo://app?vid=11f70921-b04a-4cdd-83e2-24b869bfe246"},"vehicle_type_id":"4","last_reported":1738084067,"current_range_meters":38800,"station_id":"ce4bh9p2rcd13ifvqed0","pricing_plan_id":"cebpf4jnsgd1na2vs0mg"},{"bike_id":"61ac3e69-6b09-41d4-a1b8-84745cc43cb7","system_id":"levelo_inurba_marseille","lat":43.23182,"lon":5.39984,"is_reserved":false,"is_disabled":false,"rental_uris":{"android":"levelo://app?vid=61ac3e69-6b09-41d4-a1b8-84745cc43cb7","ios":"levelo://app?vid=61ac3e69-6b09-41d4-a1b8-84745cc43cb7"},"vehicle_type_id":"4","last_reported":1738084067,"current_range_meters":29600,"station_id":"ce4bhn12rcd13ifvqgqg","pricing_plan_id":"cebpf4jnsgd1na2vs0mg"},{"bike_id":"44d70056-f722-4d8f-80f9-afd89c389591","system_id":"levelo_inurba_marseille","lat":43.33031,"lon":5.39046,"is_reserved":false,"is_disabled":false,"rental_uris":{"android":"levelo://app?vid=44d70056-f722-4d8f-80f9-afd89c389591","ios":"levelo://app?vid=44d70056-f722-4d8f-80f9-afd89c389591"},"vehicle_type_id":"4","last_reported":1738084067,"current_range_meters":20800,"station_id":"ce4bhr92rcd13ifvqhrg","pricing_plan_id":"cebpf4jnsgd1na2vs0mg"},{"bike_id":"cb4b9878-96ef-4892-8d93-336dc7a1cc89","system_id":"levelo_inurba_marseille","lat":43.34037,"lon":5.35379,"is_reserved":false,"is_disabled":false,"rental_uris":{"android":"levelo://app?vid=cb4b9878-96ef-4892-8d93-336dc7a1cc89","ios":"levelo://app?vid=cb4b9878-96ef-4892-8d93-336dc7a1cc89"},"vehicle_type_id":"4","last_reported":1738084067,"current_range_meters":36000,"station_id":"","pricing_plan_id":"cebpf4jnsgd1na2vs0mg"},{"bike_id":"58101d95-a4cf-4bac-9526-961f9b76b2f5","system_id":"levelo_inurba_marseille","lat":43.30796,"lon":5.43532,"is_reserved":false,"is_disabled":false,"rental_uris":{"android":"levelo://app?vid=58101d95-a4cf-4bac-9526-961f9b76b2f5","ios":"levelo://app?vid=58101d95-a4cf-4bac-9526-961f9b76b2f5"},"vehicle_type_id":"4","last_reported":1738084067,"current_range_meters":32800,"station_id":"ce4bhph2rcd13ifvqheg","pricing_plan_id":"cebpf4jnsgd1na2vs0mg"},{"bike_id":"248ee11a-a195-45b1-979c-c98069d77678","system_id":"levelo_inurba_marseille","lat":43.279147,"lon":5.39576,"is_reserved":false,"is_disabled":true,"rental_uris":{"android":"levelo://app?vid=248ee11a-a195-45b1-979c-c98069d77678","ios":"levelo://app?vid=248ee11a-a195-45b1-979c-c98069d77678"},"vehicle_type_id":"4","last_reported":1738084067,"current_range_meters":800,"station_id":"ce4bhf92rcd13ifvqf40","pricing_plan_id":"cebpf4jnsgd1na2vs0mg"},{"bike_id":"8d198b1c-d183-4e75-867d-bee140abe05c","system_id":"levelo_inurba_marseille","lat":43.30805,"lon":5.43535,"is_reserved":false,"is_disabled":false,"rental_uris":{"android":"levelo://app?vid=8d198b1c-d183-4e75-867d-bee140abe05c","ios":"levelo://app?vid=8d198b1c-d183-4e75-867d-bee140abe05c"},"vehicle_type_id":"4","last_reported":1738084067,"current_range_meters":16800,"station_id":"ce4bhph2rcd13ifvqheg","pricing_plan_id":"cebpf4jnsgd1na2vs0mg"},{"bike_id":"bb90c609-67d1-4b74-83a4-10fcaeb78122","system_id":"levelo_inurba_marseille","lat":43.27615,"lon":5.36117,"is_reserved":false,"is_disabled":false,"rental_uris":{"android":"levelo://app?vid=bb90c609-67d1-4b74-83a4-10fcaeb78122","ios":"levelo://app?vid=bb90c609-67d1-4b74-83a4-10fcaeb78122"},"vehicle_type_id":"4","last_reported":1738084067,"current_range_meters":24400,"station_id":"ce4bgj92rcd13ifvqbe0","pricing_plan_id":"cebpf4jnsgd1na2vs0mg"},{"bike_id":"95a48d4c-6415-4c25-ad8c-f819e28a304b","system_id":"levelo_inurba_marseille","lat":43.29897,"lon":5.38887,"is_reserved":false,"is_disabled":false,"rental_uris":{"android":"levelo://app?vid=95a48d4c-6415-4c25-ad8c-f819e28a304b","ios":"levelo://app?vid=95a48d4c-6415-4c25-ad8c-f819e28a304b"},"vehicle_type_id":"4","last_reported":1738084067,"current_range_meters":37600,"station_id":"ce4bh392rcd13ifvqdl0","pricing_plan_id":"cebpf4jnsgd1na2vs0mg"},{"bike_id":"2e0a8b86-b457-48a0-8577-213b01080398","system_id":"levelo_inurba_marseille","lat":43.2321,"lon":5.35553,"is_reserved":false,"is_disabled":false,"rental_uris":{"android":"levelo://app?vid=2e0a8b86-b457-48a0-8577-213b01080398","ios":"levelo://app?vid=2e0a8b86-b457-48a0-8577-213b01080398"},"vehicle_type_id":"4","last_reported":1738084067,"current_range_meters":38800,"station_id":"ce4bhu92rcd13ifvqi70","pricing_plan_id":"cebpf4jnsgd1na2vs0mg"},{"bike_id":"5804285d-81c3-4ebe-a786-d954b5f1b298","system_id":"levelo_inurba_marseille","lat":43.33025,"lon":5.39051,"is_reserved":false,"is_disabled":false,"rental_uris":{"android":"levelo://app?vid=5804285d-81c3-4ebe-a786-d954b5f1b298","ios":"levelo://app?vid=5804285d-81c3-4ebe-a786-d954b5f1b298"},"vehicle_type_id":"4","last_reported":1738084067,"current_range_meters":3600,"station_id":"ce4bhr92rcd13ifvqhrg","pricing_plan_id":"cebpf4jnsgd1na2vs0mg"},{"bike_id":"d979d8d2-ec65-47af-9229-e4270aab279a","system_id":"levelo_inurba_marseille","lat":43.23078,"lon":5.35492,"is_reserved":false,"is_disabled":false,"rental_uris":{"android":"levelo://app?vid=d979d8d2-ec65-47af-9229-e4270aab279a","ios":"levelo://app?vid=d979d8d2-ec65-47af-9229-e4270aab279a"},"vehicle_type_id":"4","last_reported":1738084067,"current_range_meters":24000,"station_id":"cpo3342slgdg3j2ifvpg","pricing_plan_id":"cebpf4jnsgd1na2vs0mg"},{"bike_id":"beec82ff-6bac-4064-befa-4bdf4421761b","system_id":"levelo_inurba_marseille","lat":43.31714,"lon":5.42421,"is_reserved":false,"is_disabled":false,"rental_uris":{"android":"levelo://app?vid=beec82ff-6bac-4064-befa-4bdf4421761b","ios":"levelo://app?vid=beec82ff-6bac-4064-befa-4bdf4421761b"},"vehicle_type_id":"4","last_reported":1738084067,"current_range_meters":7200,"station_id":"ce4bhp92rcd13ifvqhbg","pricing_plan_id":"cebpf4jnsgd1na2vs0mg"},{"bike_id":"809d19dd-8b78-4c8c-9077-c6b78688e456","system_id":"levelo_inurba_marseille","lat":43.28264,"lon":5.35073,"is_reserved":false,"is_disabled":false,"rental_uris":{"android":"levelo://app?vid=809d19dd-8b78-4c8c-9077-c6b78688e456","ios":"levelo://app?vid=809d19dd-8b78-4c8c-9077-c6b78688e456"},"vehicle_type_id":"4","last_reported":1738084067,"current_range_meters":14400,"station_id":"ce4bhbp2rcd13ifvqerg","pricing_plan_id":"cebpf4jnsgd1na2vs0mg"},{"bike_id":"c92f3ed1-1832-45b1-95ae-e066a3c304bb","system_id":"levelo_inurba_marseille","lat":43.33049,"lon":5.39029,"is_reserved":false,"is_disabled":false,"rental_uris":{"android":"levelo://app?vid=c92f3ed1-1832-45b1-95ae-e066a3c304bb","ios":"levelo://app?vid=c92f3ed1-1832-45b1-95ae-e066a3c304bb"},"vehicle_type_id":"4","last_reported":1738084067,"current_range_meters":38000,"station_id":"ce4bhr92rcd13ifvqhrg","pricing_plan_id":"cebpf4jnsgd1na2vs0mg"},{"bike_id":"18fb057a-c0db-45a2-a11a-4d3a33668186","system_id":"levelo_inurba_marseille","lat":43.30937,"lon":5.40162,"is_reserved":false,"is_disabled":false,"rental_uris":{"android":"levelo://app?vid=18fb057a-c0db-45a2-a11a-4d3a33668186","ios":"levelo://app?vid=18fb057a-c0db-45a2-a11a-4d3a33668186"},"vehicle_type_id":"4","last_reported":1738084067,"current_range_meters":12000,"station_id":"ce4bgvp2rcd13ifvqct0","pricing_plan_id":"cebpf4jnsgd1na2vs0mg"},{"bike_id":"3935c449-3b92-46f4-bf8b-00d1fb7c092c","system_id":"levelo_inurba_marseille","lat":43.29902,"lon":5.38156,"is_reserved":false,"is_disabled":false,"rental_uris":{"android":"levelo://app?vid=3935c449-3b92-46f4-bf8b-00d1fb7c092c","ios":"levelo://app?vid=3935c449-3b92-46f4-bf8b-00d1fb7c092c"},"vehicle_type_id":"4","last_reported":1738084067,"current_range_meters":21600,"station_id":"ce4bgj12rcd13ifvqbc0","pricing_plan_id":"cebpf4jnsgd1na2vs0mg"},{"bike_id":"1e005473-318a-400b-bef3-7ccd836f3527","system_id":"levelo_inurba_marseille","lat":43.3117,"lon":5.38719,"is_reserved":false,"is_disabled":false,"rental_uris":{"android":"levelo://app?vid=1e005473-318a-400b-bef3-7ccd836f3527","ios":"levelo://app?vid=1e005473-318a-400b-bef3-7ccd836f3527"},"vehicle_type_id":"4","last_reported":1738084067,"current_range_meters":22000,"station_id":"ce4bgv12rcd13ifvqcp0","pricing_plan_id":"cebpf4jnsgd1na2vs0mg"},{"bike_id":"f4a17775-edf2-4d35-986a-637a1de151a9","system_id":"levelo_inurba_marseille","lat":43.30892,"lon":5.39655,"is_reserved":false,"is_disabled":false,"rental_uris":{"android":"levelo://app?vid=f4a17775-edf2-4d35-986a-637a1de151a9","ios":"levelo://app?vid=f4a17775-edf2-4d35-986a-637a1de151a9"},"vehicle_type_id":"4","last_reported":1738084067,"current_range_meters":8400,"station_id":"ce4bh012rcd13ifvqcv0","pricing_plan_id":"cebpf4jnsgd1na2vs0mg"},{"bike_id":"75214a19-3086-4aab-8ba6-a177978da634","system_id":"levelo_inurba_marseille","lat":43.29899,"lon":5.43667,"is_reserved":false,"is_disabled":false,"rental_uris":{"android":"levelo://app?vid=75214a19-3086-4aab-8ba6-a177978da634","ios":"levelo://app?vid=75214a19-3086-4aab-8ba6-a177978da634"},"vehicle_type_id":"4","last_reported":1738084067,"current_range_meters":35600,"station_id":"ce4bhpp2rcd13ifvqhfg","pricing_plan_id":"cebpf4jnsgd1na2vs0mg"},{"bike_id":"9f47c8a8-8b96-4697-bbe1-21be71e87159","system_id":"levelo_inurba_marseille","lat":43.33722,"lon":5.39188,"is_reserved":false,"is_disabled":false,"rental_uris":{"android":"levelo://app?vid=9f47c8a8-8b96-4697-bbe1-21be71e87159","ios":"levelo://app?vid=9f47c8a8-8b96-4697-bbe1-21be71e87159"},"vehicle_type_id":"4","last_reported":1738084067,"current_range_meters":38800,"station_id":"ce4bhr92rcd13ifvqhsg","pricing_plan_id":"cebpf4jnsgd1na2vs0mg"},{"bike_id":"ec4e1b41-004b-4ba0-8815-2155424efc7c","system_id":"levelo_inurba_marseille","lat":43.26057,"lon":5.394,"is_reserved":false,"is_disabled":false,"rental_uris":{"android":"levelo://app?vid=ec4e1b41-004b-4ba0-8815-2155424efc7c","ios":"levelo://app?vid=ec4e1b41-004b-4ba0-8815-2155424efc7c"},"vehicle_type_id":"4","last_reported":1738084067,"current_range_meters":16000,"station_id":"ce4bhh92rcd13ifvqfj0","pricing_plan_id":"cebpf4jnsgd1na2vs0mg"},{"bike_id":"b5409e27-250f-4525-8058-ef21c8db7076","system_id":"levelo_inurba_marseille","lat":43.2737,"lon":5.36261,"is_reserved":false,"is_disabled":false,"rental_uris":{"android":"levelo://app?vid=b5409e27-250f-4525-8058-ef21c8db7076","ios":"levelo://app?vid=b5409e27-250f-4525-8058-ef21c8db7076"},"vehicle_type_id":"4","last_reported":1738084067,"current_range_meters":24400,"station_id":"ce4bhbh2rcd13ifvqeo0","pricing_plan_id":"cebpf4jnsgd1na2vs0mg"},{"bike_id":"ddeeb021-3aa5-4692-ac65-d696b9db8d28","system_id":"levelo_inurba_marseille","lat":43.33012,"lon":5.39038,"is_reserved":false,"is_disabled":false,"rental_uris":{"android":"levelo://app?vid=ddeeb021-3aa5-4692-ac65-d696b9db8d28","ios":"levelo://app?vid=ddeeb021-3aa5-4692-ac65-d696b9db8d28"},"vehicle_type_id":"4","last_reported":1738084067,"current_range_meters":38800,"station_id":"ce4bhr92rcd13ifvqhrg","pricing_plan_id":"cebpf4jnsgd1na2vs0mg"},{"bike_id":"af721f4e-7a43-4ca7-b439-ce7407c250b4","system_id":"levelo_inurba_marseille","lat":43.30789,"lon":5.37628,"is_reserved":false,"is_disabled":false,"rental_uris":{"android":"levelo://app?vid=af721f4e-7a43-4ca7-b439-ce7407c250b4","ios":"levelo://app?vid=af721f4e-7a43-4ca7-b439-ce7407c250b4"},"vehicle_type_id":"4","last_reported":1738084067,"current_range_meters":32400,"station_id":"ce4bgv92rcd13ifvqcq0","pricing_plan_id":"cebpf4jnsgd1na2vs0mg"},{"bike_id":"cdcb1999-fb57-497d-8d2c-3c25bb4a91e8","system_id":"levelo_inurba_marseille","lat":43.28936,"lon":5.39626,"is_reserved":false,"is_disabled":false,"rental_uris":{"android":"levelo://app?vid=cdcb1999-fb57-497d-8d2c-3c25bb4a91e8","ios":"levelo://app?vid=cdcb1999-fb57-497d-8d2c-3c25bb4a91e8"},"vehicle_type_id":"4","last_reported":1738084067,"current_range_meters":32800,"station_id":"ce4bh3h2rcd13ifvqdn0","pricing_plan_id":"cebpf4jnsgd1na2vs0mg"},{"bike_id":"abcd9a26-2d00-465c-8bc2-b5c60fea6834","system_id":"levelo_inurba_marseille","lat":43.2963,"lon":5.37142,"is_reserved":false,"is_disabled":false,"rental_uris":{"android":"levelo://app?vid=abcd9a26-2d00-465c-8bc2-b5c60fea6834","ios":"levelo://app?vid=abcd9a26-2d00-465c-8bc2-b5c60fea6834"},"vehicle_type_id":"4","last_reported":1738084067,"current_range_meters":39200,"station_id":"ce4bgnh2rcd13ifvqc0g","pricing_plan_id":"cebpf4jnsgd1na2vs0mg"},{"bike_id":"3c9c9088-9c27-4609-bc62-8218c0dc2be8","system_id":"levelo_inurba_marseille","lat":43.23193,"lon":5.35558,"is_reserved":false,"is_disabled":false,"rental_uris":{"android":"levelo://app?vid=3c9c9088-9c27-4609-bc62-8218c0dc2be8","ios":"levelo://app?vid=3c9c9088-9c27-4609-bc62-8218c0dc2be8"},"vehicle_type_id":"4","last_reported":1738084067,"current_range_meters":32400,"station_id":"ce4bhu92rcd13ifvqi70","pricing_plan_id":"cebpf4jnsgd1na2vs0mg"},{"bike_id":"f7123e5f-3421-43de-92e2-b4f0d638a982","system_id":"levelo_inurba_marseille","lat":43.28707,"lon":5.39993,"is_reserved":false,"is_disabled":false,"rental_uris":{"android":"levelo://app?vid=f7123e5f-3421-43de-92e2-b4f0d638a982","ios":"levelo://app?vid=f7123e5f-3421-43de-92e2-b4f0d638a982"},"vehicle_type_id":"4","last_reported":1738084067,"current_range_meters":4800,"station_id":"ce4bho92rcd13ifvqh3g","pricing_plan_id":"cebpf4jnsgd1na2vs0mg"},{"bike_id":"1672a0cd-2a68-4581-bf36-fe2b0d644157","system_id":"levelo_inurba_marseille","lat":43.28443,"lon":5.39208,"is_reserved":false,"is_disabled":false,"rental_uris":{"android":"levelo://app?vid=1672a0cd-2a68-4581-bf36-fe2b0d644157","ios":"levelo://app?vid=1672a0cd-2a68-4581-bf36-fe2b0d644157"},"vehicle_type_id":"4","last_reported":1738084067,"current_range_meters":30000,"station_id":"ce4bhoh2rcd13ifvqh5g","pricing_plan_id":"cebpf4jnsgd1na2vs0mg"},{"bike_id":"7b2b703e-05da-49b7-a279-939b79518acc","system_id":"levelo_inurba_marseille","lat":43.25865,"lon":5.39896,"is_reserved":false,"is_disabled":false,"rental_uris":{"android":"levelo://app?vid=7b2b703e-05da-49b7-a279-939b79518acc","ios":"levelo://app?vid=7b2b703e-05da-49b7-a279-939b79518acc"},"vehicle_type_id":"4","last_reported":1738084067,"current_range_meters":38000,"station_id":"ce4bhl92rcd13ifvqghg","pricing_plan_id":"cebpf4jnsgd1na2vs0mg"},{"bike_id":"15af56a0-50cc-4287-938a-57061c15f0c6","system_id":"levelo_inurba_marseille","lat":43.33022,"lon":5.3904,"is_reserved":false,"is_disabled":false,"rental_uris":{"android":"levelo://app?vid=15af56a0-50cc-4287-938a-57061c15f0c6","ios":"levelo://app?vid=15af56a0-50cc-4287-938a-57061c15f0c6"},"vehicle_type_id":"4","last_reported":1738084067,"current_range_meters":35600,"station_id":"ce4bhr92rcd13ifvqhrg","pricing_plan_id":"cebpf4jnsgd1na2vs0mg"},{"bike_id":"025df344-3087-4c00-a2af-50b9af0be7f4","system_id":"levelo_inurba_marseille","lat":43.33026,"lon":5.39037,"is_reserved":false,"is_disabled":false,"rental_uris":{"android":"levelo://app?vid=025df344-3087-4c00-a2af-50b9af0be7f4","ios":"levelo://app?vid=025df344-3087-4c00-a2af-50b9af0be7f4"},"vehicle_type_id":"4","last_reported":1738084067,"current_range_meters":30000,"station_id":"ce4bhr92rcd13ifvqhrg","pricing_plan_id":"cebpf4jnsgd1na2vs0mg"},{"bike_id":"23dda3fc-6648-4cd1-8580-9152f66125d0","system_id":"levelo_inurba_marseille","lat":43.27422,"lon":5.39422,"is_reserved":false,"is_disabled":false,"rental_uris":{"android":"levelo://app?vid=23dda3fc-6648-4cd1-8580-9152f66125d0","ios":"levelo://app?vid=23dda3fc-6648-4cd1-8580-9152f66125d0"},"vehicle_type_id":"4","last_reported":1738084067,"current_range_meters":4800,"station_id":"ce4bhdp2rcd13ifvqf20","pricing_plan_id":"cebpf4jnsgd1na2vs0mg"},{"bike_id":"63b05f00-dc7d-4015-9936-cfd314e274a1","system_id":"levelo_inurba_marseille","lat":43.2767,"lon":5.38885,"is_reserved":false,"is_disabled":false,"rental_uris":{"android":"levelo://app?vid=63b05f00-dc7d-4015-9936-cfd314e274a1","ios":"levelo://app?vid=63b05f00-dc7d-4015-9936-cfd314e274a1"},"vehicle_type_id":"4","last_reported":1738084067,"current_range_meters":20400,"station_id":"ce4bhi12rcd13ifvqfo0","pricing_plan_id":"cebpf4jnsgd1na2vs0mg"},{"bike_id":"8045e5a5-32d5-4b9b-9f1d-8444be5eb7af","system_id":"levelo_inurba_marseille","lat":43.3372,"lon":5.39194,"is_reserved":false,"is_disabled":false,"rental_uris":{"android":"levelo://app?vid=8045e5a5-32d5-4b9b-9f1d-8444be5eb7af","ios":"levelo://app?vid=8045e5a5-32d5-4b9b-9f1d-8444be5eb7af"},"vehicle_type_id":"4","last_reported":1738084067,"current_range_meters":19200,"station_id":"ce4bhr92rcd13ifvqhsg","pricing_plan_id":"cebpf4jnsgd1na2vs0mg"},{"bike_id":"6da47834-7d2e-4774-9bb3-2602319ea12c","system_id":"levelo_inurba_marseille","lat":43.3303,"lon":5.39042,"is_reserved":false,"is_disabled":false,"rental_uris":{"android":"levelo://app?vid=6da47834-7d2e-4774-9bb3-2602319ea12c","ios":"levelo://app?vid=6da47834-7d2e-4774-9bb3-2602319ea12c"},"vehicle_type_id":"4","last_reported":1738084067,"current_range_meters":9600,"station_id":"ce4bhr92rcd13ifvqhrg","pricing_plan_id":"cebpf4jnsgd1na2vs0mg"},{"bike_id":"0928d7c6-291b-465e-a26d-59a12315b1a9","system_id":"levelo_inurba_marseille","lat":43.31329,"lon":5.39708,"is_reserved":false,"is_disabled":false,"rental_uris":{"android":"levelo://app?vid=0928d7c6-291b-465e-a26d-59a12315b1a9","ios":"levelo://app?vid=0928d7c6-291b-465e-a26d-59a12315b1a9"},"vehicle_type_id":"4","last_reported":1738084067,"current_range_meters":29600,"station_id":"ce4bgvp2rcd13ifvqcu0","pricing_plan_id":"cebpf4jnsgd1na2vs0mg"},{"bike_id":"c3e95f46-ecbc-49dd-ade4-e7a461172f37","system_id":"levelo_inurba_marseille","lat":43.29172,"lon":5.39324,"is_reserved":false,"is_disabled":false,"rental_uris":{"android":"levelo://app?vid=c3e95f46-ecbc-49dd-ade4-e7a461172f37","ios":"levelo://app?vid=c3e95f46-ecbc-49dd-ade4-e7a461172f37"},"vehicle_type_id":"4","last_reported":1738084067,"current_range_meters":38800,"station_id":"ce4bh192rcd13ifvqdd0","pricing_plan_id":"cebpf4jnsgd1na2vs0mg"},{"bike_id":"4055047e-0c4f-4698-b155-f0ccf6649608","system_id":"levelo_inurba_marseille","lat":43.29512,"lon":5.39402,"is_reserved":false,"is_disabled":true,"rental_uris":{"android":"levelo://app?vid=4055047e-0c4f-4698-b155-f0ccf6649608","ios":"levelo://app?vid=4055047e-0c4f-4698-b155-f0ccf6649608"},"vehicle_type_id":"4","last_reported":1738084067,"current_range_meters":32800,"station_id":"ce4bh292rcd13ifvqdf0","pricing_plan_id":"cebpf4jnsgd1na2vs0mg"},{"bike_id":"2256710f-428a-4b6c-afaf-f485da875c48","system_id":"levelo_inurba_marseille","lat":43.28623,"lon":5.35073,"is_reserved":false,"is_disabled":false,"rental_uris":{"android":"levelo://app?vid=2256710f-428a-4b6c-afaf-f485da875c48","ios":"levelo://app?vid=2256710f-428a-4b6c-afaf-f485da875c48"},"vehicle_type_id":"4","last_reported":1738084067,"current_range_meters":14400,"station_id":"ce4bhch2rcd13ifvqeug","pricing_plan_id":"cebpf4jnsgd1na2vs0mg"},{"bike_id":"ab2c796a-c23b-4a3a-9534-777b873d6a05","system_id":"levelo_inurba_marseille","lat":43.24178,"lon":5.36384,"is_reserved":false,"is_disabled":false,"rental_uris":{"android":"levelo://app?vid=ab2c796a-c23b-4a3a-9534-777b873d6a05","ios":"levelo://app?vid=ab2c796a-c23b-4a3a-9534-777b873d6a05"},"vehicle_type_id":"4","last_reported":1738084067,"current_range_meters":20000,"station_id":"cpo36qri1sfpv3e86is0","pricing_plan_id":"cebpf4jnsgd1na2vs0mg"},{"bike_id":"68e34f77-241b-4365-bae3-3f86c64c156a","system_id":"levelo_inurba_marseille","lat":43.25826,"lon":5.39426,"is_reserved":false,"is_disabled":false,"rental_uris":{"android":"levelo://app?vid=68e34f77-241b-4365-bae3-3f86c64c156a","ios":"levelo://app?vid=68e34f77-241b-4365-bae3-3f86c64c156a"},"vehicle_type_id":"4","last_reported":1738084067,"current_range_meters":12000,"station_id":"ce4bhip2rcd13ifvqft0","pricing_plan_id":"cebpf4jnsgd1na2vs0mg"},{"bike_id":"500e253a-32b0-4245-b9ee-cd94ae95da90","system_id":"levelo_inurba_marseille","lat":43.31169,"lon":5.38726,"is_reserved":false,"is_disabled":false,"rental_uris":{"android":"levelo://app?vid=500e253a-32b0-4245-b9ee-cd94ae95da90","ios":"levelo://app?vid=500e253a-32b0-4245-b9ee-cd94ae95da90"},"vehicle_type_id":"4","last_reported":1738084067,"current_range_meters":16400,"station_id":"ce4bgv12rcd13ifvqcp0","pricing_plan_id":"cebpf4jnsgd1na2vs0mg"},{"bike_id":"529f1ab7-390e-41c3-9180-30692697770e","system_id":"levelo_inurba_marseille","lat":43.28619,"lon":5.35099,"is_reserved":false,"is_disabled":false,"rental_uris":{"android":"levelo://app?vid=529f1ab7-390e-41c3-9180-30692697770e","ios":"levelo://app?vid=529f1ab7-390e-41c3-9180-30692697770e"},"vehicle_type_id":"4","last_reported":1738084067,"current_range_meters":12400,"station_id":"ce4bhch2rcd13ifvqeug","pricing_plan_id":"cebpf4jnsgd1na2vs0mg"},{"bike_id":"580b2dc9-33ce-4c28-af70-d048b9cfdee7","system_id":"levelo_inurba_marseille","lat":43.29624,"lon":5.37174,"is_reserved":false,"is_disabled":false,"rental_uris":{"android":"levelo://app?vid=580b2dc9-33ce-4c28-af70-d048b9cfdee7","ios":"levelo://app?vid=580b2dc9-33ce-4c28-af70-d048b9cfdee7"},"vehicle_type_id":"4","last_reported":1738084067,"current_range_meters":36800,"station_id":"ce4bgnh2rcd13ifvqc0g","pricing_plan_id":"cebpf4jnsgd1na2vs0mg"},{"bike_id":"72fc636e-7404-4c33-8e71-f21897665da5","system_id":"levelo_inurba_marseille","lat":43.27207,"lon":5.39181,"is_reserved":false,"is_disabled":false,"rental_uris":{"android":"levelo://app?vid=72fc636e-7404-4c33-8e71-f21897665da5","ios":"levelo://app?vid=72fc636e-7404-4c33-8e71-f21897665da5"},"vehicle_type_id":"4","last_reported":1738084067,"current_range_meters":35600,"station_id":"ce4bhhp2rcd13ifvqfm0","pricing_plan_id":"cebpf4jnsgd1na2vs0mg"},{"bike_id":"53e8ecef-a562-47ee-94cd-93dd8302fe24","system_id":"levelo_inurba_marseille","lat":43.30891,"lon":5.39654,"is_reserved":false,"is_disabled":false,"rental_uris":{"android":"levelo://app?vid=53e8ecef-a562-47ee-94cd-93dd8302fe24","ios":"levelo://app?vid=53e8ecef-a562-47ee-94cd-93dd8302fe24"},"vehicle_type_id":"4","last_reported":1738084067,"current_range_meters":8000,"station_id":"ce4bh012rcd13ifvqcv0","pricing_plan_id":"cebpf4jnsgd1na2vs0mg"},{"bike_id":"cbacff53-b569-4358-8d11-4b56096865df","system_id":"levelo_inurba_marseille","lat":43.30795,"lon":5.43528,"is_reserved":false,"is_disabled":false,"rental_uris":{"android":"levelo://app?vid=cbacff53-b569-4358-8d11-4b56096865df","ios":"levelo://app?vid=cbacff53-b569-4358-8d11-4b56096865df"},"vehicle_type_id":"4","last_reported":1738084067,"current_range_meters":9600,"station_id":"ce4bhph2rcd13ifvqheg","pricing_plan_id":"cebpf4jnsgd1na2vs0mg"},{"bike_id":"4807c682-c371-46b3-ab79-b24aee656edf","system_id":"levelo_inurba_marseille","lat":43.30721,"lon":5.40112,"is_reserved":false,"is_disabled":false,"rental_uris":{"android":"levelo://app?vid=4807c682-c371-46b3-ab79-b24aee656edf","ios":"levelo://app?vid=4807c682-c371-46b3-ab79-b24aee656edf"},"vehicle_type_id":"4","last_reported":1738084067,"current_range_meters":32800,"station_id":"","pricing_plan_id":"cebpf4jnsgd1na2vs0mg"},{"bike_id":"ac1881d9-633c-4566-8fe5-c62ed811c640","system_id":"levelo_inurba_marseille","lat":43.29525,"lon":5.39405,"is_reserved":false,"is_disabled":false,"rental_uris":{"android":"levelo://app?vid=ac1881d9-633c-4566-8fe5-c62ed811c640","ios":"levelo://app?vid=ac1881d9-633c-4566-8fe5-c62ed811c640"},"vehicle_type_id":"4","last_reported":1738084067,"current_range_meters":36400,"station_id":"ce4bh292rcd13ifvqdf0","pricing_plan_id":"cebpf4jnsgd1na2vs0mg"},{"bike_id":"3afe2907-14fe-40b0-8ce8-247215ed16c8","system_id":"levelo_inurba_marseille","lat":43.26945,"lon":5.38925,"is_reserved":false,"is_disabled":true,"rental_uris":{"android":"levelo://app?vid=3afe2907-14fe-40b0-8ce8-247215ed16c8","ios":"levelo://app?vid=3afe2907-14fe-40b0-8ce8-247215ed16c8"},"vehicle_type_id":"4","last_reported":1738084067,"current_range_meters":8400,"station_id":"ce4bhhh2rcd13ifvqfl0","pricing_plan_id":"cebpf4jnsgd1na2vs0mg"},{"bike_id":"e8e1f7c6-d773-4c38-bfcc-4a6d773355ce","system_id":"levelo_inurba_marseille","lat":43.22938,"lon":5.35382,"is_reserved":false,"is_disabled":false,"rental_uris":{"android":"levelo://app?vid=e8e1f7c6-d773-4c38-bfcc-4a6d773355ce","ios":"levelo://app?vid=e8e1f7c6-d773-4c38-bfcc-4a6d773355ce"},"vehicle_type_id":"4","last_reported":1738084067,"current_range_meters":37600,"station_id":"cpo3532slgdg3j2ikp40","pricing_plan_id":"cebpf4jnsgd1na2vs0mg"},{"bike_id":"6e13d7e6-6125-4607-a74e-8c283ddeee20","system_id":"levelo_inurba_marseille","lat":43.29539,"lon":5.38547,"is_reserved":false,"is_disabled":false,"rental_uris":{"android":"levelo://app?vid=6e13d7e6-6125-4607-a74e-8c283ddeee20","ios":"levelo://app?vid=6e13d7e6-6125-4607-a74e-8c283ddeee20"},"vehicle_type_id":"4","last_reported":1738084067,"current_range_meters":31200,"station_id":"ce4bgih2rcd13ifvqba0","pricing_plan_id":"cebpf4jnsgd1na2vs0mg"},{"bike_id":"ce083113-46ef-48fe-b4fa-8944c608e412","system_id":"levelo_inurba_marseille","lat":43.28082,"lon":5.39604,"is_reserved":false,"is_disabled":false,"rental_uris":{"android":"levelo://app?vid=ce083113-46ef-48fe-b4fa-8944c608e412","ios":"levelo://app?vid=ce083113-46ef-48fe-b4fa-8944c608e412"},"vehicle_type_id":"4","last_reported":1738084067,"current_range_meters":28400,"station_id":"ce4bho12rcd13ifvqh2g","pricing_plan_id":"cebpf4jnsgd1na2vs0mg"},{"bike_id":"efd255fb-2c58-4922-ba1d-908f02e0e9e4","system_id":"levelo_inurba_marseille","lat":43.29705,"lon":5.36603,"is_reserved":false,"is_disabled":false,"rental_uris":{"android":"levelo://app?vid=efd255fb-2c58-4922-ba1d-908f02e0e9e4","ios":"levelo://app?vid=efd255fb-2c58-4922-ba1d-908f02e0e9e4"},"vehicle_type_id":"4","last_reported":1738084067,"current_range_meters":36800,"station_id":"ce4bgn12rcd13ifvqbt0","pricing_plan_id":"cebpf4jnsgd1na2vs0mg"},{"bike_id":"cc26c524-9981-41d6-9e25-17cb40d9e550","system_id":"levelo_inurba_marseille","lat":43.24812,"lon":5.37464,"is_reserved":false,"is_disabled":false,"rental_uris":{"android":"levelo://app?vid=cc26c524-9981-41d6-9e25-17cb40d9e550","ios":"levelo://app?vid=cc26c524-9981-41d6-9e25-17cb40d9e550"},"vehicle_type_id":"4","last_reported":1738084067,"current_range_meters":26800,"station_id":"ce4bhgh2rcd13ifvqfb0","pricing_plan_id":"cebpf4jnsgd1na2vs0mg"},{"bike_id":"5da1167f-1189-47af-9efd-f7fbba0f5cf5","system_id":"levelo_inurba_marseille","lat":43.2842,"lon":5.34982,"is_reserved":false,"is_disabled":true,"rental_uris":{"android":"levelo://app?vid=5da1167f-1189-47af-9efd-f7fbba0f5cf5","ios":"levelo://app?vid=5da1167f-1189-47af-9efd-f7fbba0f5cf5"},"vehicle_type_id":"4","last_reported":1738084067,"current_range_meters":1600,"station_id":"ce4bhbh2rcd13ifvqepg","pricing_plan_id":"cebpf4jnsgd1na2vs0mg"},{"bike_id":"b2dd9a15-cd61-4fc7-9f3a-c245487d7093","system_id":"levelo_inurba_marseille","lat":43.28415,"lon":5.37502,"is_reserved":false,"is_disabled":false,"rental_uris":{"android":"levelo://app?vid=b2dd9a15-cd61-4fc7-9f3a-c245487d7093","ios":"levelo://app?vid=b2dd9a15-cd61-4fc7-9f3a-c245487d7093"},"vehicle_type_id":"4","last_reported":1738084067,"current_range_meters":3600,"station_id":"ce4bh412rcd13ifvqds0","pricing_plan_id":"cebpf4jnsgd1na2vs0mg"},{"bike_id":"979afcab-47cc-4ca6-85fa-98c2a022da48","system_id":"levelo_inurba_marseille","lat":43.31069,"lon":5.3834,"is_reserved":false,"is_disabled":false,"rental_uris":{"android":"levelo://app?vid=979afcab-47cc-4ca6-85fa-98c2a022da48","ios":"levelo://app?vid=979afcab-47cc-4ca6-85fa-98c2a022da48"},"vehicle_type_id":"4","last_reported":1738084067,"current_range_meters":20000,"station_id":"ce4bgv92rcd13ifvqcr0","pricing_plan_id":"cebpf4jnsgd1na2vs0mg"},{"bike_id":"dd195832-ff3f-4763-a260-74003ef7ff4c","system_id":"levelo_inurba_marseille","lat":43.29221,"lon":5.36052,"is_reserved":false,"is_disabled":true,"rental_uris":{"android":"levelo://app?vid=dd195832-ff3f-4763-a260-74003ef7ff4c","ios":"levelo://app?vid=dd195832-ff3f-4763-a260-74003ef7ff4c"},"vehicle_type_id":"4","last_reported":1738084067,"current_range_meters":37600,"station_id":"ce4bhbh2rcd13ifvqeqg","pricing_plan_id":"cebpf4jnsgd1na2vs0mg"},{"bike_id":"504dea5b-3c2a-489e-8275-d8db04b04cbd","system_id":"levelo_inurba_marseille","lat":43.287186,"lon":5.383942,"is_reserved":false,"is_disabled":false,"rental_uris":{"android":"levelo://app?vid=504dea5b-3c2a-489e-8275-d8db04b04cbd","ios":"levelo://app?vid=504dea5b-3c2a-489e-8275-d8db04b04cbd"},"vehicle_type_id":"4","last_reported":1738084067,"current_range_meters":37600,"station_id":"","pricing_plan_id":"cebpf4jnsgd1na2vs0mg"},{"bike_id":"f8c93b50-4562-477f-af2e-306300c8ea1a","system_id":"levelo_inurba_marseille","lat":43.24648,"lon":5.38892,"is_reserved":false,"is_disabled":false,"rental_uris":{"android":"levelo://app?vid=f8c93b50-4562-477f-af2e-306300c8ea1a","ios":"levelo://app?vid=f8c93b50-4562-477f-af2e-306300c8ea1a"},"vehicle_type_id":"4","last_reported":1738084067,"current_range_meters":28000,"station_id":"ce4bhg12rcd13ifvqf60","pricing_plan_id":"cebpf4jnsgd1na2vs0mg"},{"bike_id":"6f7b2e61-3ffa-40d5-a44b-75e9d523720d","system_id":"levelo_inurba_marseille","lat":43.28148,"lon":5.42639,"is_reserved":false,"is_disabled":false,"rental_uris":{"android":"levelo://app?vid=6f7b2e61-3ffa-40d5-a44b-75e9d523720d","ios":"levelo://app?vid=6f7b2e61-3ffa-40d5-a44b-75e9d523720d"},"vehicle_type_id":"4","last_reported":1738084067,"current_range_meters":12800,"station_id":"ce4bhnh2rcd13ifvqgug","pricing_plan_id":"cebpf4jnsgd1na2vs0mg"},{"bike_id":"3397293d-065b-495f-a994-abeeb6ac01b9","system_id":"levelo_inurba_marseille","lat":43.2467,"lon":5.38171,"is_reserved":false,"is_disabled":false,"rental_uris":{"android":"levelo://app?vid=3397293d-065b-495f-a994-abeeb6ac01b9","ios":"levelo://app?vid=3397293d-065b-495f-a994-abeeb6ac01b9"},"vehicle_type_id":"4","last_reported":1738084067,"current_range_meters":11200,"station_id":"ce4bhih2rcd13ifvqfr0","pricing_plan_id":"cebpf4jnsgd1na2vs0mg"},{"bike_id":"71f34f72-d3b7-46a5-9bd4-1fe057b3152f","system_id":"levelo_inurba_marseille","lat":43.22937,"lon":5.35394,"is_reserved":false,"is_disabled":false,"rental_uris":{"android":"levelo://app?vid=71f34f72-d3b7-46a5-9bd4-1fe057b3152f","ios":"levelo://app?vid=71f34f72-d3b7-46a5-9bd4-1fe057b3152f"},"vehicle_type_id":"4","last_reported":1738084067,"current_range_meters":38800,"station_id":"cpo3532slgdg3j2ikp40","pricing_plan_id":"cebpf4jnsgd1na2vs0mg"},{"bike_id":"266b2562-7b17-46e7-a7f7-8f153a41cbdf","system_id":"levelo_inurba_marseille","lat":43.31489,"lon":5.37327,"is_reserved":false,"is_disabled":false,"rental_uris":{"android":"levelo://app?vid=266b2562-7b17-46e7-a7f7-8f153a41cbdf","ios":"levelo://app?vid=266b2562-7b17-46e7-a7f7-8f153a41cbdf"},"vehicle_type_id":"4","last_reported":1738084067,"current_range_meters":35600,"station_id":"ce4bgt12rcd13ifvqcd0","pricing_plan_id":"cebpf4jnsgd1na2vs0mg"},{"bike_id":"20029bdd-9f9c-4ff9-86e4-5ba6ed30f46a","system_id":"levelo_inurba_marseille","lat":43.23146,"lon":5.43713,"is_reserved":false,"is_disabled":true,"rental_uris":{"android":"levelo://app?vid=20029bdd-9f9c-4ff9-86e4-5ba6ed30f46a","ios":"levelo://app?vid=20029bdd-9f9c-4ff9-86e4-5ba6ed30f46a"},"vehicle_type_id":"4","last_reported":1738084067,"current_range_meters":0,"station_id":"ce4bhmp2rcd13ifvqgog","pricing_plan_id":"cebpf4jnsgd1na2vs0mg"},{"bike_id":"2e003583-b2a5-4f99-ba64-ee4456cc2f4c","system_id":"levelo_inurba_marseille","lat":43.26513,"lon":5.39539,"is_reserved":false,"is_disabled":false,"rental_uris":{"android":"levelo://app?vid=2e003583-b2a5-4f99-ba64-ee4456cc2f4c","ios":"levelo://app?vid=2e003583-b2a5-4f99-ba64-ee4456cc2f4c"},"vehicle_type_id":"4","last_reported":1738084067,"current_range_meters":36800,"station_id":"ce4bhi12rcd13ifvqfq0","pricing_plan_id":"cebpf4jnsgd1na2vs0mg"},{"bike_id":"01c346e4-7211-4b0a-9252-8b8a59a9b82f","system_id":"levelo_inurba_marseille","lat":43.28857,"lon":5.35844,"is_reserved":false,"is_disabled":true,"rental_uris":{"android":"levelo://app?vid=01c346e4-7211-4b0a-9252-8b8a59a9b82f","ios":"levelo://app?vid=01c346e4-7211-4b0a-9252-8b8a59a9b82f"},"vehicle_type_id":"4","last_reported":1738084067,"current_range_meters":38000,"station_id":"ce4bhb12rcd13ifvqem0","pricing_plan_id":"cebpf4jnsgd1na2vs0mg"},{"bike_id":"ebcc7e60-9a2d-48ec-8339-8c55602c465f","system_id":"levelo_inurba_marseille","lat":43.29262,"lon":5.38442,"is_reserved":false,"is_disabled":true,"rental_uris":{"android":"levelo://app?vid=ebcc7e60-9a2d-48ec-8339-8c55602c465f","ios":"levelo://app?vid=ebcc7e60-9a2d-48ec-8339-8c55602c465f"},"vehicle_type_id":"4","last_reported":1738084067,"current_range_meters":1200,"station_id":"ce4bh692rcd13ifvqea0","pricing_plan_id":"cebpf4jnsgd1na2vs0mg"},{"bike_id":"1deb9f83-7def-49a4-a7ec-4fa7f01e7960","system_id":"levelo_inurba_marseille","lat":43.313313,"lon":5.397008,"is_reserved":false,"is_disabled":false,"rental_uris":{"android":"levelo://app?vid=1deb9f83-7def-49a4-a7ec-4fa7f01e7960","ios":"levelo://app?vid=1deb9f83-7def-49a4-a7ec-4fa7f01e7960"},"vehicle_type_id":"4","last_reported":1738084067,"current_range_meters":28000,"station_id":"ce4bgvp2rcd13ifvqcu0","pricing_plan_id":"cebpf4jnsgd1na2vs0mg"},{"bike_id":"3fb74e29-7f1d-4c67-8af5-0bb8332df870","system_id":"levelo_inurba_marseille","lat":43.2437,"lon":5.37018,"is_reserved":false,"is_disabled":false,"rental_uris":{"android":"levelo://app?vid=3fb74e29-7f1d-4c67-8af5-0bb8332df870","ios":"levelo://app?vid=3fb74e29-7f1d-4c67-8af5-0bb8332df870"},"vehicle_type_id":"4","last_reported":1738084067,"current_range_meters":25200,"station_id":"ce4bhhh2rcd13ifvqfk0","pricing_plan_id":"cebpf4jnsgd1na2vs0mg"},{"bike_id":"a46ccd01-4766-4748-90aa-1713e7b76fe4","system_id":"levelo_inurba_marseille","lat":43.30246,"lon":5.40071,"is_reserved":false,"is_disabled":false,"rental_uris":{"android":"levelo://app?vid=a46ccd01-4766-4748-90aa-1713e7b76fe4","ios":"levelo://app?vid=a46ccd01-4766-4748-90aa-1713e7b76fe4"},"vehicle_type_id":"4","last_reported":1738084067,"current_range_meters":7200,"station_id":"ce4bgvh2rcd13ifvqcs0","pricing_plan_id":"cebpf4jnsgd1na2vs0mg"},{"bike_id":"a1f25abd-5197-4524-ac53-ad8743bef105","system_id":"levelo_inurba_marseille","lat":43.29899,"lon":5.43668,"is_reserved":false,"is_disabled":true,"rental_uris":{"android":"levelo://app?vid=a1f25abd-5197-4524-ac53-ad8743bef105","ios":"levelo://app?vid=a1f25abd-5197-4524-ac53-ad8743bef105"},"vehicle_type_id":"4","last_reported":1738084067,"current_range_meters":37600,"station_id":"ce4bhpp2rcd13ifvqhfg","pricing_plan_id":"cebpf4jnsgd1na2vs0mg"},{"bike_id":"d4c4823e-dc30-4194-9ee5-9575cfd62441","system_id":"levelo_inurba_marseille","lat":43.27816,"lon":5.40707,"is_reserved":false,"is_disabled":false,"rental_uris":{"android":"levelo://app?vid=d4c4823e-dc30-4194-9ee5-9575cfd62441","ios":"levelo://app?vid=d4c4823e-dc30-4194-9ee5-9575cfd62441"},"vehicle_type_id":"4","last_reported":1738084067,"current_range_meters":20800,"station_id":"ce4bhnh2rcd13ifvqgtg","pricing_plan_id":"cebpf4jnsgd1na2vs0mg"},{"bike_id":"d2720e1a-503c-493a-a400-fc47b5a1c2f3","system_id":"levelo_inurba_marseille","lat":43.283507,"lon":5.382325,"is_reserved":false,"is_disabled":false,"rental_uris":{"android":"levelo://app?vid=d2720e1a-503c-493a-a400-fc47b5a1c2f3","ios":"levelo://app?vid=d2720e1a-503c-493a-a400-fc47b5a1c2f3"},"vehicle_type_id":"4","last_reported":1738084067,"current_range_meters":32000,"station_id":"","pricing_plan_id":"cebpf4jnsgd1na2vs0mg"},{"bike_id":"ff68af14-5554-4f8d-a3de-4549d987f602","system_id":"levelo_inurba_marseille","lat":43.29902,"lon":5.43688,"is_reserved":false,"is_disabled":false,"rental_uris":{"android":"levelo://app?vid=ff68af14-5554-4f8d-a3de-4549d987f602","ios":"levelo://app?vid=ff68af14-5554-4f8d-a3de-4549d987f602"},"vehicle_type_id":"4","last_reported":1738084067,"current_range_meters":35600,"station_id":"ce4bhpp2rcd13ifvqhfg","pricing_plan_id":"cebpf4jnsgd1na2vs0mg"},{"bike_id":"296acca2-a355-4830-bc97-a6939a85f573","system_id":"levelo_inurba_marseille","lat":43.25572,"lon":5.38243,"is_reserved":false,"is_disabled":false,"rental_uris":{"android":"levelo://app?vid=296acca2-a355-4830-bc97-a6939a85f573","ios":"levelo://app?vid=296acca2-a355-4830-bc97-a6939a85f573"},"vehicle_type_id":"4","last_reported":1738084067,"current_range_meters":27600,"station_id":"ce4bhih2rcd13ifvqfs0","pricing_plan_id":"cebpf4jnsgd1na2vs0mg"},{"bike_id":"e2aa4144-f725-4497-81a8-6271243a9220","system_id":"levelo_inurba_marseille","lat":43.28272,"lon":5.40817,"is_reserved":false,"is_disabled":false,"rental_uris":{"android":"levelo://app?vid=e2aa4144-f725-4497-81a8-6271243a9220","ios":"levelo://app?vid=e2aa4144-f725-4497-81a8-6271243a9220"},"vehicle_type_id":"4","last_reported":1738084067,"current_range_meters":30400,"station_id":"","pricing_plan_id":"cebpf4jnsgd1na2vs0mg"},{"bike_id":"59b30219-10f1-4c23-bb8c-b1a42621c49a","system_id":"levelo_inurba_marseille","lat":43.30246,"lon":5.40068,"is_reserved":false,"is_disabled":false,"rental_uris":{"android":"levelo://app?vid=59b30219-10f1-4c23-bb8c-b1a42621c49a","ios":"levelo://app?vid=59b30219-10f1-4c23-bb8c-b1a42621c49a"},"vehicle_type_id":"4","last_reported":1738084067,"current_range_meters":28400,"station_id":"ce4bgvh2rcd13ifvqcs0","pricing_plan_id":"cebpf4jnsgd1na2vs0mg"},{"bike_id":"b02537d3-b5df-4f3e-a29c-3943d1a0a885","system_id":"levelo_inurba_marseille","lat":43.27826,"lon":5.40688,"is_reserved":false,"is_disabled":false,"rental_uris":{"android":"levelo://app?vid=b02537d3-b5df-4f3e-a29c-3943d1a0a885","ios":"levelo://app?vid=b02537d3-b5df-4f3e-a29c-3943d1a0a885"},"vehicle_type_id":"4","last_reported":1738084067,"current_range_meters":32000,"station_id":"ce4bhnh2rcd13ifvqgtg","pricing_plan_id":"cebpf4jnsgd1na2vs0mg"},{"bike_id":"c397554f-7f1c-4747-af9f-1b3a2425620c","system_id":"levelo_inurba_marseille","lat":43.29528,"lon":5.39401,"is_reserved":false,"is_disabled":false,"rental_uris":{"android":"levelo://app?vid=c397554f-7f1c-4747-af9f-1b3a2425620c","ios":"levelo://app?vid=c397554f-7f1c-4747-af9f-1b3a2425620c"},"vehicle_type_id":"4","last_reported":1738084067,"current_range_meters":17200,"station_id":"ce4bh292rcd13ifvqdf0","pricing_plan_id":"cebpf4jnsgd1na2vs0mg"},{"bike_id":"5526541f-39db-487a-9358-243cf4cf44b8","system_id":"levelo_inurba_marseille","lat":43.28842,"lon":5.39309,"is_reserved":false,"is_disabled":false,"rental_uris":{"android":"levelo://app?vid=5526541f-39db-487a-9358-243cf4cf44b8","ios":"levelo://app?vid=5526541f-39db-487a-9358-243cf4cf44b8"},"vehicle_type_id":"4","last_reported":1738084067,"current_range_meters":29600,"station_id":"ce4bh2p2rcd13ifvqdi0","pricing_plan_id":"cebpf4jnsgd1na2vs0mg"},{"bike_id":"56ac0516-0228-4ef5-b69d-88e3ae6ba16c","system_id":"levelo_inurba_marseille","lat":43.26786,"lon":5.39419,"is_reserved":false,"is_disabled":false,"rental_uris":{"android":"levelo://app?vid=56ac0516-0228-4ef5-b69d-88e3ae6ba16c","ios":"levelo://app?vid=56ac0516-0228-4ef5-b69d-88e3ae6ba16c"},"vehicle_type_id":"4","last_reported":1738084067,"current_range_meters":9200,"station_id":"ce4bhh12rcd13ifvqfg0","pricing_plan_id":"cebpf4jnsgd1na2vs0mg"},{"bike_id":"e3c5a10e-948d-477c-91ce-8c835a7fe362","system_id":"levelo_inurba_marseille","lat":43.28084,"lon":5.39673,"is_reserved":false,"is_disabled":true,"rental_uris":{"android":"levelo://app?vid=e3c5a10e-948d-477c-91ce-8c835a7fe362","ios":"levelo://app?vid=e3c5a10e-948d-477c-91ce-8c835a7fe362"},"vehicle_type_id":"4","last_reported":1738084067,"current_range_meters":0,"station_id":"ce4bho12rcd13ifvqh2g","pricing_plan_id":"cebpf4jnsgd1na2vs0mg"},{"bike_id":"9f018113-1138-458d-9938-2357ae09399b","system_id":"levelo_inurba_marseille","lat":43.28609,"lon":5.35104,"is_reserved":false,"is_disabled":false,"rental_uris":{"android":"levelo://app?vid=9f018113-1138-458d-9938-2357ae09399b","ios":"levelo://app?vid=9f018113-1138-458d-9938-2357ae09399b"},"vehicle_type_id":"4","last_reported":1738084067,"current_range_meters":38000,"station_id":"ce4bhch2rcd13ifvqeug","pricing_plan_id":"cebpf4jnsgd1na2vs0mg"},{"bike_id":"4875908d-a1db-4b12-a377-dcb908c27fae","system_id":"levelo_inurba_marseille","lat":43.29528,"lon":5.38531,"is_reserved":false,"is_disabled":false,"rental_uris":{"android":"levelo://app?vid=4875908d-a1db-4b12-a377-dcb908c27fae","ios":"levelo://app?vid=4875908d-a1db-4b12-a377-dcb908c27fae"},"vehicle_type_id":"4","last_reported":1738084067,"current_range_meters":36400,"station_id":"ce4bgih2rcd13ifvqba0","pricing_plan_id":"cebpf4jnsgd1na2vs0mg"},{"bike_id":"f846d495-effa-4e8f-ae39-f2d7b1fc0ba3","system_id":"levelo_inurba_marseille","lat":43.26801,"lon":5.4027,"is_reserved":false,"is_disabled":false,"rental_uris":{"android":"levelo://app?vid=f846d495-effa-4e8f-ae39-f2d7b1fc0ba3","ios":"levelo://app?vid=f846d495-effa-4e8f-ae39-f2d7b1fc0ba3"},"vehicle_type_id":"4","last_reported":1738084067,"current_range_meters":38800,"station_id":"ce501612rcd8frsf0b60","pricing_plan_id":"cebpf4jnsgd1na2vs0mg"},{"bike_id":"78bc61bf-426e-4c8b-af21-b3b451435e49","system_id":"levelo_inurba_marseille","lat":43.29188,"lon":5.35804,"is_reserved":false,"is_disabled":false,"rental_uris":{"android":"levelo://app?vid=78bc61bf-426e-4c8b-af21-b3b451435e49","ios":"levelo://app?vid=78bc61bf-426e-4c8b-af21-b3b451435e49"},"vehicle_type_id":"4","last_reported":1738084067,"current_range_meters":17600,"station_id":"ce4bhb12rcd13ifvqel0","pricing_plan_id":"cebpf4jnsgd1na2vs0mg"},{"bike_id":"aba83af9-f003-40af-88cf-b5b6cd209e6b","system_id":"levelo_inurba_marseille","lat":43.29227,"lon":5.36071,"is_reserved":false,"is_disabled":false,"rental_uris":{"android":"levelo://app?vid=aba83af9-f003-40af-88cf-b5b6cd209e6b","ios":"levelo://app?vid=aba83af9-f003-40af-88cf-b5b6cd209e6b"},"vehicle_type_id":"4","last_reported":1738084067,"current_range_meters":2800,"station_id":"ce4bhbh2rcd13ifvqeqg","pricing_plan_id":"cebpf4jnsgd1na2vs0mg"},{"bike_id":"352e3806-5290-416f-bc00-4855a8b65e96","system_id":"levelo_inurba_marseille","lat":43.3153,"lon":5.38037,"is_reserved":false,"is_disabled":false,"rental_uris":{"android":"levelo://app?vid=352e3806-5290-416f-bc00-4855a8b65e96","ios":"levelo://app?vid=352e3806-5290-416f-bc00-4855a8b65e96"},"vehicle_type_id":"4","last_reported":1738084067,"current_range_meters":34000,"station_id":"ce4bhsp2rcd13ifvqi50","pricing_plan_id":"cebpf4jnsgd1na2vs0mg"},{"bike_id":"607b294c-43fa-486a-b244-44c4a76eff71","system_id":"levelo_inurba_marseille","lat":43.29871,"lon":5.38921,"is_reserved":false,"is_disabled":false,"rental_uris":{"android":"levelo://app?vid=607b294c-43fa-486a-b244-44c4a76eff71","ios":"levelo://app?vid=607b294c-43fa-486a-b244-44c4a76eff71"},"vehicle_type_id":"4","last_reported":1738084067,"current_range_meters":37600,"station_id":"ce4bh392rcd13ifvqdl0","pricing_plan_id":"cebpf4jnsgd1na2vs0mg"},{"bike_id":"c9430917-b09e-4ef2-9dd9-887903dcf7a6","system_id":"levelo_inurba_marseille","lat":43.29965,"lon":5.38498,"is_reserved":false,"is_disabled":false,"rental_uris":{"android":"levelo://app?vid=c9430917-b09e-4ef2-9dd9-887903dcf7a6","ios":"levelo://app?vid=c9430917-b09e-4ef2-9dd9-887903dcf7a6"},"vehicle_type_id":"4","last_reported":1738084067,"current_range_meters":25200,"station_id":"ce4bgj92rcd13ifvqbd0","pricing_plan_id":"cebpf4jnsgd1na2vs0mg"},{"bike_id":"f9173de2-2fa5-436f-a76b-3c96bd571284","system_id":"levelo_inurba_marseille","lat":43.29807,"lon":5.40415,"is_reserved":false,"is_disabled":true,"rental_uris":{"android":"levelo://app?vid=f9173de2-2fa5-436f-a76b-3c96bd571284","ios":"levelo://app?vid=f9173de2-2fa5-436f-a76b-3c96bd571284"},"vehicle_type_id":"4","last_reported":1738084067,"current_range_meters":36400,"station_id":"ce4bh112rcd13ifvqd90","pricing_plan_id":"cebpf4jnsgd1na2vs0mg"},{"bike_id":"efd80fd0-328b-4dc4-bd09-ca853fed1175","system_id":"levelo_inurba_marseille","lat":43.3109,"lon":5.42425,"is_reserved":false,"is_disabled":false,"rental_uris":{"android":"levelo://app?vid=efd80fd0-328b-4dc4-bd09-ca853fed1175","ios":"levelo://app?vid=efd80fd0-328b-4dc4-bd09-ca853fed1175"},"vehicle_type_id":"4","last_reported":1738084067,"current_range_meters":38800,"station_id":"ce4bhp92rcd13ifvqhag","pricing_plan_id":"cebpf4jnsgd1na2vs0mg"},{"bike_id":"1932502a-a386-4bd4-8041-b68d3b661876","system_id":"levelo_inurba_marseille","lat":43.231955,"lon":5.355467,"is_reserved":false,"is_disabled":false,"rental_uris":{"android":"levelo://app?vid=1932502a-a386-4bd4-8041-b68d3b661876","ios":"levelo://app?vid=1932502a-a386-4bd4-8041-b68d3b661876"},"vehicle_type_id":"4","last_reported":1738084067,"current_range_meters":24800,"station_id":"ce4bhu92rcd13ifvqi70","pricing_plan_id":"cebpf4jnsgd1na2vs0mg"},{"bike_id":"6374062a-2ccf-4675-b6cf-087b6f31bf0b","system_id":"levelo_inurba_marseille","lat":43.27928,"lon":5.41035,"is_reserved":false,"is_disabled":false,"rental_uris":{"android":"levelo://app?vid=6374062a-2ccf-4675-b6cf-087b6f31bf0b","ios":"levelo://app?vid=6374062a-2ccf-4675-b6cf-087b6f31bf0b"},"vehicle_type_id":"4","last_reported":1738084067,"current_range_meters":19200,"station_id":"ce4bhnp2rcd13ifvqh0g","pricing_plan_id":"cebpf4jnsgd1na2vs0mg"},{"bike_id":"2439324f-e12b-48c1-b9e5-c041bd330315","system_id":"levelo_inurba_marseille","lat":43.29101,"lon":5.38112,"is_reserved":false,"is_disabled":false,"rental_uris":{"android":"levelo://app?vid=2439324f-e12b-48c1-b9e5-c041bd330315","ios":"levelo://app?vid=2439324f-e12b-48c1-b9e5-c041bd330315"},"vehicle_type_id":"4","last_reported":1738084067,"current_range_meters":32000,"station_id":"ce4bh512rcd13ifvqe2g","pricing_plan_id":"cebpf4jnsgd1na2vs0mg"},{"bike_id":"c71d9a58-79c2-4121-bc4b-958cbabc75f1","system_id":"levelo_inurba_marseille","lat":43.29271,"lon":5.40048,"is_reserved":false,"is_disabled":true,"rental_uris":{"android":"levelo://app?vid=c71d9a58-79c2-4121-bc4b-958cbabc75f1","ios":"levelo://app?vid=c71d9a58-79c2-4121-bc4b-958cbabc75f1"},"vehicle_type_id":"4","last_reported":1738084067,"current_range_meters":6800,"station_id":"ce4bh312rcd13ifvqdk0","pricing_plan_id":"cebpf4jnsgd1na2vs0mg"},{"bike_id":"cd68e35b-e291-4244-8751-8931f1c888e6","system_id":"levelo_inurba_marseille","lat":43.2439,"lon":5.37059,"is_reserved":false,"is_disabled":false,"rental_uris":{"android":"levelo://app?vid=cd68e35b-e291-4244-8751-8931f1c888e6","ios":"levelo://app?vid=cd68e35b-e291-4244-8751-8931f1c888e6"},"vehicle_type_id":"4","last_reported":1738084067,"current_range_meters":16800,"station_id":"ce4bhhh2rcd13ifvqfk0","pricing_plan_id":"cebpf4jnsgd1na2vs0mg"},{"bike_id":"071a895d-d87c-4b68-8f1b-51c06548d4a2","system_id":"levelo_inurba_marseille","lat":43.3117,"lon":5.38716,"is_reserved":false,"is_disabled":false,"rental_uris":{"android":"levelo://app?vid=071a895d-d87c-4b68-8f1b-51c06548d4a2","ios":"levelo://app?vid=071a895d-d87c-4b68-8f1b-51c06548d4a2"},"vehicle_type_id":"4","last_reported":1738084067,"current_range_meters":28400,"station_id":"ce4bgv12rcd13ifvqcp0","pricing_plan_id":"cebpf4jnsgd1na2vs0mg"},{"bike_id":"8b89029b-ae91-40c5-85ae-0b0bcb66edeb","system_id":"levelo_inurba_marseille","lat":43.29579,"lon":5.36741,"is_reserved":false,"is_disabled":false,"rental_uris":{"android":"levelo://app?vid=8b89029b-ae91-40c5-85ae-0b0bcb66edeb","ios":"levelo://app?vid=8b89029b-ae91-40c5-85ae-0b0bcb66edeb"},"vehicle_type_id":"4","last_reported":1738084067,"current_range_meters":35200,"station_id":"ce4bgph2rcd13ifvqc2g","pricing_plan_id":"cebpf4jnsgd1na2vs0mg"},{"bike_id":"aeb52962-1fe5-4ed8-99b7-f0690979f4d3","system_id":"levelo_inurba_marseille","lat":43.28535,"lon":5.38634,"is_reserved":false,"is_disabled":false,"rental_uris":{"android":"levelo://app?vid=aeb52962-1fe5-4ed8-99b7-f0690979f4d3","ios":"levelo://app?vid=aeb52962-1fe5-4ed8-99b7-f0690979f4d3"},"vehicle_type_id":"4","last_reported":1738084067,"current_range_meters":27600,"station_id":"","pricing_plan_id":"cebpf4jnsgd1na2vs0mg"},{"bike_id":"87479f9b-8efa-4460-8351-79d6c2829104","system_id":"levelo_inurba_marseille","lat":43.30548,"lon":5.36541,"is_reserved":false,"is_disabled":false,"rental_uris":{"android":"levelo://app?vid=87479f9b-8efa-4460-8351-79d6c2829104","ios":"levelo://app?vid=87479f9b-8efa-4460-8351-79d6c2829104"},"vehicle_type_id":"4","last_reported":1738084067,"current_range_meters":17200,"station_id":"ce4bgs12rcd13ifvqcag","pricing_plan_id":"cebpf4jnsgd1na2vs0mg"},{"bike_id":"283c25d8-9fc5-495b-9825-5a72a68442bd","system_id":"levelo_inurba_marseille","lat":43.29263,"lon":5.40909,"is_reserved":false,"is_disabled":true,"rental_uris":{"android":"levelo://app?vid=283c25d8-9fc5-495b-9825-5a72a68442bd","ios":"levelo://app?vid=283c25d8-9fc5-495b-9825-5a72a68442bd"},"vehicle_type_id":"4","last_reported":1738084067,"current_range_meters":0,"station_id":"ce4bh192rcd13ifvqdc0","pricing_plan_id":"cebpf4jnsgd1na2vs0mg"},{"bike_id":"77f3bf21-63b8-49a8-935c-8a5687b8349a","system_id":"levelo_inurba_marseille","lat":43.32898,"lon":5.39073,"is_reserved":false,"is_disabled":false,"rental_uris":{"android":"levelo://app?vid=77f3bf21-63b8-49a8-935c-8a5687b8349a","ios":"levelo://app?vid=77f3bf21-63b8-49a8-935c-8a5687b8349a"},"vehicle_type_id":"4","last_reported":1738084067,"current_range_meters":16400,"station_id":"","pricing_plan_id":"cebpf4jnsgd1na2vs0mg"},{"bike_id":"e3e26aee-15e1-425c-a48f-db58aa520742","system_id":"levelo_inurba_marseille","lat":43.23071,"lon":5.35502,"is_reserved":false,"is_disabled":false,"rental_uris":{"android":"levelo://app?vid=e3e26aee-15e1-425c-a48f-db58aa520742","ios":"levelo://app?vid=e3e26aee-15e1-425c-a48f-db58aa520742"},"vehicle_type_id":"4","last_reported":1738084067,"current_range_meters":36800,"station_id":"cpo3342slgdg3j2ifvpg","pricing_plan_id":"cebpf4jnsgd1na2vs0mg"},{"bike_id":"a9185266-0a2d-41c6-a5ff-a3f575ade1bd","system_id":"levelo_inurba_marseille","lat":43.29578,"lon":5.3674,"is_reserved":false,"is_disabled":false,"rental_uris":{"android":"levelo://app?vid=a9185266-0a2d-41c6-a5ff-a3f575ade1bd","ios":"levelo://app?vid=a9185266-0a2d-41c6-a5ff-a3f575ade1bd"},"vehicle_type_id":"4","last_reported":1738084067,"current_range_meters":38400,"station_id":"ce4bgph2rcd13ifvqc2g","pricing_plan_id":"cebpf4jnsgd1na2vs0mg"},{"bike_id":"22ece8d6-ae08-4007-9d95-4ab4df0dfa49","system_id":"levelo_inurba_marseille","lat":43.32377,"lon":5.3888,"is_reserved":false,"is_disabled":false,"rental_uris":{"android":"levelo://app?vid=22ece8d6-ae08-4007-9d95-4ab4df0dfa49","ios":"levelo://app?vid=22ece8d6-ae08-4007-9d95-4ab4df0dfa49"},"vehicle_type_id":"4","last_reported":1738084067,"current_range_meters":38400,"station_id":"ce4bhqp2rcd13ifvqhog","pricing_plan_id":"cebpf4jnsgd1na2vs0mg"},{"bike_id":"df2653fe-4fdf-43fd-a7c1-0f1c8d8556c5","system_id":"levelo_inurba_marseille","lat":43.3302,"lon":5.39047,"is_reserved":false,"is_disabled":false,"rental_uris":{"android":"levelo://app?vid=df2653fe-4fdf-43fd-a7c1-0f1c8d8556c5","ios":"levelo://app?vid=df2653fe-4fdf-43fd-a7c1-0f1c8d8556c5"},"vehicle_type_id":"4","last_reported":1738084067,"current_range_meters":38800,"station_id":"ce4bhr92rcd13ifvqhrg","pricing_plan_id":"cebpf4jnsgd1na2vs0mg"},{"bike_id":"7c78a755-c7f5-4f07-a96b-621451d47948","system_id":"levelo_inurba_marseille","lat":43.29902,"lon":5.43651,"is_reserved":false,"is_disabled":false,"rental_uris":{"android":"levelo://app?vid=7c78a755-c7f5-4f07-a96b-621451d47948","ios":"levelo://app?vid=7c78a755-c7f5-4f07-a96b-621451d47948"},"vehicle_type_id":"4","last_reported":1738084067,"current_range_meters":22800,"station_id":"ce4bhpp2rcd13ifvqhfg","pricing_plan_id":"cebpf4jnsgd1na2vs0mg"},{"bike_id":"4ebc8090-1105-4905-bf9f-56879aa1cf25","system_id":"levelo_inurba_marseille","lat":43.31363,"lon":5.38493,"is_reserved":false,"is_disabled":false,"rental_uris":{"android":"levelo://app?vid=4ebc8090-1105-4905-bf9f-56879aa1cf25","ios":"levelo://app?vid=4ebc8090-1105-4905-bf9f-56879aa1cf25"},"vehicle_type_id":"4","last_reported":1738084067,"current_range_meters":38800,"station_id":"ce4bgt92rcd13ifvqcf0","pricing_plan_id":"cebpf4jnsgd1na2vs0mg"},{"bike_id":"96455e66-c221-4248-bbbd-8eb7cd817475","system_id":"levelo_inurba_marseille","lat":43.26566,"lon":5.39012,"is_reserved":false,"is_disabled":false,"rental_uris":{"android":"levelo://app?vid=96455e66-c221-4248-bbbd-8eb7cd817475","ios":"levelo://app?vid=96455e66-c221-4248-bbbd-8eb7cd817475"},"vehicle_type_id":"4","last_reported":1738084067,"current_range_meters":26000,"station_id":"ce4bhe12rcd13ifvqf30","pricing_plan_id":"cebpf4jnsgd1na2vs0mg"},{"bike_id":"3823bc50-d7bb-485f-bd35-e396c4922804","system_id":"levelo_inurba_marseille","lat":43.26232,"lon":5.41364,"is_reserved":false,"is_disabled":false,"rental_uris":{"android":"levelo://app?vid=3823bc50-d7bb-485f-bd35-e396c4922804","ios":"levelo://app?vid=3823bc50-d7bb-485f-bd35-e396c4922804"},"vehicle_type_id":"4","last_reported":1738084067,"current_range_meters":8400,"station_id":"ce4bhgp2rcd13ifvqfe0","pricing_plan_id":"cebpf4jnsgd1na2vs0mg"},{"bike_id":"fb6c6a95-8503-4fb4-98ac-aa04a6bf00b6","system_id":"levelo_inurba_marseille","lat":43.28723,"lon":5.36089,"is_reserved":false,"is_disabled":true,"rental_uris":{"android":"levelo://app?vid=fb6c6a95-8503-4fb4-98ac-aa04a6bf00b6","ios":"levelo://app?vid=fb6c6a95-8503-4fb4-98ac-aa04a6bf00b6"},"vehicle_type_id":"4","last_reported":1738084067,"current_range_meters":1600,"station_id":"cki0cbj6b192h4jlfktg","pricing_plan_id":"cebpf4jnsgd1na2vs0mg"},{"bike_id":"803e03d8-7d2e-4feb-ac46-774902d16dee","system_id":"levelo_inurba_marseille","lat":43.33767,"lon":5.37417,"is_reserved":false,"is_disabled":true,"rental_uris":{"android":"levelo://app?vid=803e03d8-7d2e-4feb-ac46-774902d16dee","ios":"levelo://app?vid=803e03d8-7d2e-4feb-ac46-774902d16dee"},"vehicle_type_id":"4","last_reported":1738084067,"current_range_meters":37600,"station_id":"","pricing_plan_id":"cebpf4jnsgd1na2vs0mg"},{"bike_id":"8814f2c9-63a0-43bb-bace-b191ba1c6648","system_id":"levelo_inurba_marseille","lat":43.27943,"lon":5.41043,"is_reserved":false,"is_disabled":false,"rental_uris":{"android":"levelo://app?vid=8814f2c9-63a0-43bb-bace-b191ba1c6648","ios":"levelo://app?vid=8814f2c9-63a0-43bb-bace-b191ba1c6648"},"vehicle_type_id":"4","last_reported":1738084067,"current_range_meters":26800,"station_id":"ce4bhnp2rcd13ifvqh0g","pricing_plan_id":"cebpf4jnsgd1na2vs0mg"},{"bike_id":"ff1e303e-f01b-45b4-953d-3439c6552787","system_id":"levelo_inurba_marseille","lat":43.26931,"lon":5.40244,"is_reserved":false,"is_disabled":false,"rental_uris":{"android":"levelo://app?vid=ff1e303e-f01b-45b4-953d-3439c6552787","ios":"levelo://app?vid=ff1e303e-f01b-45b4-953d-3439c6552787"},"vehicle_type_id":"4","last_reported":1738084067,"current_range_meters":32800,"station_id":"cjm6bp8fraef2m0cb0m0","pricing_plan_id":"cebpf4jnsgd1na2vs0mg"},{"bike_id":"8170e07f-3107-4427-86ca-3064d86ac84e","system_id":"levelo_inurba_marseille","lat":43.31525,"lon":5.38037,"is_reserved":false,"is_disabled":false,"rental_uris":{"android":"levelo://app?vid=8170e07f-3107-4427-86ca-3064d86ac84e","ios":"levelo://app?vid=8170e07f-3107-4427-86ca-3064d86ac84e"},"vehicle_type_id":"4","last_reported":1738084067,"current_range_meters":32800,"station_id":"ce4bhsp2rcd13ifvqi50","pricing_plan_id":"cebpf4jnsgd1na2vs0mg"},{"bike_id":"7f762cad-14d3-4378-9c59-c304651b7679","system_id":"levelo_inurba_marseille","lat":43.29566,"lon":5.39957,"is_reserved":false,"is_disabled":true,"rental_uris":{"android":"levelo://app?vid=7f762cad-14d3-4378-9c59-c304651b7679","ios":"levelo://app?vid=7f762cad-14d3-4378-9c59-c304651b7679"},"vehicle_type_id":"4","last_reported":1738084067,"current_range_meters":28800,"station_id":"ce4bh312rcd13ifvqdj0","pricing_plan_id":"cebpf4jnsgd1na2vs0mg"},{"bike_id":"672ce823-4e4d-4ba7-8226-3e890a5da9f1","system_id":"levelo_inurba_marseille","lat":43.26026,"lon":5.37545,"is_reserved":false,"is_disabled":false,"rental_uris":{"android":"levelo://app?vid=672ce823-4e4d-4ba7-8226-3e890a5da9f1","ios":"levelo://app?vid=672ce823-4e4d-4ba7-8226-3e890a5da9f1"},"vehicle_type_id":"4","last_reported":1738084067,"current_range_meters":35600,"station_id":"ce4bhgh2rcd13ifvqfa0","pricing_plan_id":"cebpf4jnsgd1na2vs0mg"},{"bike_id":"5054b824-0214-4f5f-a1ac-959a37e3db40","system_id":"levelo_inurba_marseille","lat":43.29531,"lon":5.38539,"is_reserved":false,"is_disabled":false,"rental_uris":{"android":"levelo://app?vid=5054b824-0214-4f5f-a1ac-959a37e3db40","ios":"levelo://app?vid=5054b824-0214-4f5f-a1ac-959a37e3db40"},"vehicle_type_id":"4","last_reported":1738084067,"current_range_meters":34000,"station_id":"ce4bgih2rcd13ifvqba0","pricing_plan_id":"cebpf4jnsgd1na2vs0mg"},{"bike_id":"2f51dca0-112b-4f39-a252-39d5e12cce5c","system_id":"levelo_inurba_marseille","lat":43.30135,"lon":5.39873,"is_reserved":false,"is_disabled":false,"rental_uris":{"android":"levelo://app?vid=2f51dca0-112b-4f39-a252-39d5e12cce5c","ios":"levelo://app?vid=2f51dca0-112b-4f39-a252-39d5e12cce5c"},"vehicle_type_id":"4","last_reported":1738084067,"current_range_meters":26000,"station_id":"ce4bh0h2rcd13ifvqd40","pricing_plan_id":"cebpf4jnsgd1na2vs0mg"},{"bike_id":"a1a01cb8-efd4-4d3f-828b-da9838b3a25b","system_id":"levelo_inurba_marseille","lat":43.29523,"lon":5.39404,"is_reserved":false,"is_disabled":false,"rental_uris":{"android":"levelo://app?vid=a1a01cb8-efd4-4d3f-828b-da9838b3a25b","ios":"levelo://app?vid=a1a01cb8-efd4-4d3f-828b-da9838b3a25b"},"vehicle_type_id":"4","last_reported":1738084067,"current_range_meters":35200,"station_id":"ce4bh292rcd13ifvqdf0","pricing_plan_id":"cebpf4jnsgd1na2vs0mg"},{"bike_id":"9daff7be-41bd-4b2a-9f7b-565f6c80a22b","system_id":"levelo_inurba_marseille","lat":43.27809,"lon":5.40701,"is_reserved":false,"is_disabled":false,"rental_uris":{"android":"levelo://app?vid=9daff7be-41bd-4b2a-9f7b-565f6c80a22b","ios":"levelo://app?vid=9daff7be-41bd-4b2a-9f7b-565f6c80a22b"},"vehicle_type_id":"4","last_reported":1738084067,"current_range_meters":30800,"station_id":"ce4bhnh2rcd13ifvqgtg","pricing_plan_id":"cebpf4jnsgd1na2vs0mg"},{"bike_id":"e18bb136-0d4b-4436-937c-ec2658dd31b4","system_id":"levelo_inurba_marseille","lat":43.30137,"lon":5.39874,"is_reserved":false,"is_disabled":false,"rental_uris":{"android":"levelo://app?vid=e18bb136-0d4b-4436-937c-ec2658dd31b4","ios":"levelo://app?vid=e18bb136-0d4b-4436-937c-ec2658dd31b4"},"vehicle_type_id":"4","last_reported":1738084067,"current_range_meters":28400,"station_id":"ce4bh0h2rcd13ifvqd40","pricing_plan_id":"cebpf4jnsgd1na2vs0mg"},{"bike_id":"6a3d1c30-828f-4670-a94d-b8ba0dd1a370","system_id":"levelo_inurba_marseille","lat":43.296218,"lon":5.371696,"is_reserved":false,"is_disabled":false,"rental_uris":{"android":"levelo://app?vid=6a3d1c30-828f-4670-a94d-b8ba0dd1a370","ios":"levelo://app?vid=6a3d1c30-828f-4670-a94d-b8ba0dd1a370"},"vehicle_type_id":"4","last_reported":1738084067,"current_range_meters":28000,"station_id":"ce4bgnh2rcd13ifvqc0g","pricing_plan_id":"cebpf4jnsgd1na2vs0mg"},{"bike_id":"86255055-5d6c-4828-8dde-818efa7f469e","system_id":"levelo_inurba_marseille","lat":43.30947,"lon":5.37833,"is_reserved":false,"is_disabled":false,"rental_uris":{"android":"levelo://app?vid=86255055-5d6c-4828-8dde-818efa7f469e","ios":"levelo://app?vid=86255055-5d6c-4828-8dde-818efa7f469e"},"vehicle_type_id":"4","last_reported":1738084067,"current_range_meters":8800,"station_id":"","pricing_plan_id":"cebpf4jnsgd1na2vs0mg"},{"bike_id":"c438c788-2c8f-4eda-8233-a8485c23c4af","system_id":"levelo_inurba_marseille","lat":43.30329,"lon":5.41376,"is_reserved":false,"is_disabled":true,"rental_uris":{"android":"levelo://app?vid=c438c788-2c8f-4eda-8233-a8485c23c4af","ios":"levelo://app?vid=c438c788-2c8f-4eda-8233-a8485c23c4af"},"vehicle_type_id":"4","last_reported":1738084067,"current_range_meters":0,"station_id":"","pricing_plan_id":"cebpf4jnsgd1na2vs0mg"},{"bike_id":"cb612114-1e24-4bea-84d2-21a6eb59375d","system_id":"levelo_inurba_marseille","lat":43.27371,"lon":5.36263,"is_reserved":false,"is_disabled":false,"rental_uris":{"android":"levelo://app?vid=cb612114-1e24-4bea-84d2-21a6eb59375d","ios":"levelo://app?vid=cb612114-1e24-4bea-84d2-21a6eb59375d"},"vehicle_type_id":"4","last_reported":1738084067,"current_range_meters":32000,"station_id":"ce4bhbh2rcd13ifvqeo0","pricing_plan_id":"cebpf4jnsgd1na2vs0mg"},{"bike_id":"85af6c92-372c-4cd2-84da-c4ec61fa470d","system_id":"levelo_inurba_marseille","lat":43.2571,"lon":5.41108,"is_reserved":false,"is_disabled":true,"rental_uris":{"android":"levelo://app?vid=85af6c92-372c-4cd2-84da-c4ec61fa470d","ios":"levelo://app?vid=85af6c92-372c-4cd2-84da-c4ec61fa470d"},"vehicle_type_id":"4","last_reported":1738084067,"current_range_meters":38800,"station_id":"ce4bhkp2rcd13ifvqgd0","pricing_plan_id":"cebpf4jnsgd1na2vs0mg"},{"bike_id":"5230fa13-9506-4373-b27c-3abb9b550c07","system_id":"levelo_inurba_marseille","lat":43.29604,"lon":5.38106,"is_reserved":false,"is_disabled":false,"rental_uris":{"android":"levelo://app?vid=5230fa13-9506-4373-b27c-3abb9b550c07","ios":"levelo://app?vid=5230fa13-9506-4373-b27c-3abb9b550c07"},"vehicle_type_id":"4","last_reported":1738084067,"current_range_meters":38400,"station_id":"ce4bgl12rcd13ifvqbo0","pricing_plan_id":"cebpf4jnsgd1na2vs0mg"},{"bike_id":"3837e02f-4f2b-466e-851f-37182c4971a0","system_id":"levelo_inurba_marseille","lat":43.31521,"lon":5.38029,"is_reserved":false,"is_disabled":false,"rental_uris":{"android":"levelo://app?vid=3837e02f-4f2b-466e-851f-37182c4971a0","ios":"levelo://app?vid=3837e02f-4f2b-466e-851f-37182c4971a0"},"vehicle_type_id":"4","last_reported":1738084067,"current_range_meters":36800,"station_id":"ce4bhsp2rcd13ifvqi50","pricing_plan_id":"cebpf4jnsgd1na2vs0mg"},{"bike_id":"dd0cc133-0d17-46c8-8f5c-8de4d6eeb9e2","system_id":"levelo_inurba_marseille","lat":43.30551,"lon":5.36546,"is_reserved":false,"is_disabled":false,"rental_uris":{"android":"levelo://app?vid=dd0cc133-0d17-46c8-8f5c-8de4d6eeb9e2","ios":"levelo://app?vid=dd0cc133-0d17-46c8-8f5c-8de4d6eeb9e2"},"vehicle_type_id":"4","last_reported":1738084067,"current_range_meters":12800,"station_id":"ce4bgs12rcd13ifvqcag","pricing_plan_id":"cebpf4jnsgd1na2vs0mg"},{"bike_id":"3d98c6ce-e80d-46e8-b577-648cd8c28632","system_id":"levelo_inurba_marseille","lat":43.34699,"lon":5.34741,"is_reserved":false,"is_disabled":true,"rental_uris":{"android":"levelo://app?vid=3d98c6ce-e80d-46e8-b577-648cd8c28632","ios":"levelo://app?vid=3d98c6ce-e80d-46e8-b577-648cd8c28632"},"vehicle_type_id":"4","last_reported":1738084067,"current_range_meters":0,"station_id":"","pricing_plan_id":"cebpf4jnsgd1na2vs0mg"},{"bike_id":"e482fefe-d3aa-497a-b3e6-d5db4230f3de","system_id":"levelo_inurba_marseille","lat":43.29301,"lon":5.37462,"is_reserved":false,"is_disabled":false,"rental_uris":{"android":"levelo://app?vid=e482fefe-d3aa-497a-b3e6-d5db4230f3de","ios":"levelo://app?vid=e482fefe-d3aa-497a-b3e6-d5db4230f3de"},"vehicle_type_id":"4","last_reported":1738084067,"current_range_meters":20400,"station_id":"ce4bgi12rcd13ifvqb70","pricing_plan_id":"cebpf4jnsgd1na2vs0mg"},{"bike_id":"4bb4f2ad-32f7-4de4-aefe-944acff7c8f5","system_id":"levelo_inurba_marseille","lat":43.26802,"lon":5.40259,"is_reserved":false,"is_disabled":true,"rental_uris":{"android":"levelo://app?vid=4bb4f2ad-32f7-4de4-aefe-944acff7c8f5","ios":"levelo://app?vid=4bb4f2ad-32f7-4de4-aefe-944acff7c8f5"},"vehicle_type_id":"4","last_reported":1738084067,"current_range_meters":18800,"station_id":"ce501612rcd8frsf0b60","pricing_plan_id":"cebpf4jnsgd1na2vs0mg"},{"bike_id":"9c6c808c-2344-4484-b654-8a68fb115aa6","system_id":"levelo_inurba_marseille","lat":43.314549,"lon":5.373879,"is_reserved":false,"is_disabled":false,"rental_uris":{"android":"levelo://app?vid=9c6c808c-2344-4484-b654-8a68fb115aa6","ios":"levelo://app?vid=9c6c808c-2344-4484-b654-8a68fb115aa6"},"vehicle_type_id":"4","last_reported":1738084067,"current_range_meters":33200,"station_id":"","pricing_plan_id":"cebpf4jnsgd1na2vs0mg"},{"bike_id":"deb89397-5ba4-4c45-8ba3-e75e8e8a5ca7","system_id":"levelo_inurba_marseille","lat":43.2861,"lon":5.35104,"is_reserved":false,"is_disabled":false,"rental_uris":{"android":"levelo://app?vid=deb89397-5ba4-4c45-8ba3-e75e8e8a5ca7","ios":"levelo://app?vid=deb89397-5ba4-4c45-8ba3-e75e8e8a5ca7"},"vehicle_type_id":"4","last_reported":1738084067,"current_range_meters":28400,"station_id":"ce4bhch2rcd13ifvqeug","pricing_plan_id":"cebpf4jnsgd1na2vs0mg"},{"bike_id":"cff6aca4-ed84-4d71-af76-8b2f7a6a0dbc","system_id":"levelo_inurba_marseille","lat":43.29596,"lon":5.38098,"is_reserved":false,"is_disabled":false,"rental_uris":{"android":"levelo://app?vid=cff6aca4-ed84-4d71-af76-8b2f7a6a0dbc","ios":"levelo://app?vid=cff6aca4-ed84-4d71-af76-8b2f7a6a0dbc"},"vehicle_type_id":"4","last_reported":1738084067,"current_range_meters":37600,"station_id":"ce4bgl12rcd13ifvqbo0","pricing_plan_id":"cebpf4jnsgd1na2vs0mg"},{"bike_id":"d70461f1-bcba-4660-8f3e-22f44266130c","system_id":"levelo_inurba_marseille","lat":43.26785,"lon":5.39422,"is_reserved":false,"is_disabled":false,"rental_uris":{"android":"levelo://app?vid=d70461f1-bcba-4660-8f3e-22f44266130c","ios":"levelo://app?vid=d70461f1-bcba-4660-8f3e-22f44266130c"},"vehicle_type_id":"4","last_reported":1738084067,"current_range_meters":32800,"station_id":"ce4bhh12rcd13ifvqfg0","pricing_plan_id":"cebpf4jnsgd1na2vs0mg"},{"bike_id":"84716017-3abf-4541-964f-00992a267434","system_id":"levelo_inurba_marseille","lat":43.2987,"lon":5.39735,"is_reserved":false,"is_disabled":false,"rental_uris":{"android":"levelo://app?vid=84716017-3abf-4541-964f-00992a267434","ios":"levelo://app?vid=84716017-3abf-4541-964f-00992a267434"},"vehicle_type_id":"4","last_reported":1738084067,"current_range_meters":28800,"station_id":"ce4bh0h2rcd13ifvqd50","pricing_plan_id":"cebpf4jnsgd1na2vs0mg"},{"bike_id":"ec098f85-99c2-4496-85ac-8004e92e052c","system_id":"levelo_inurba_marseille","lat":43.31363,"lon":5.385,"is_reserved":false,"is_disabled":false,"rental_uris":{"android":"levelo://app?vid=ec098f85-99c2-4496-85ac-8004e92e052c","ios":"levelo://app?vid=ec098f85-99c2-4496-85ac-8004e92e052c"},"vehicle_type_id":"4","last_reported":1738084067,"current_range_meters":17200,"station_id":"ce4bgt92rcd13ifvqcf0","pricing_plan_id":"cebpf4jnsgd1na2vs0mg"},{"bike_id":"8044f381-534a-4724-92ae-6abc977e8e9a","system_id":"levelo_inurba_marseille","lat":43.28931,"lon":5.36646,"is_reserved":false,"is_disabled":false,"rental_uris":{"android":"levelo://app?vid=8044f381-534a-4724-92ae-6abc977e8e9a","ios":"levelo://app?vid=8044f381-534a-4724-92ae-6abc977e8e9a"},"vehicle_type_id":"4","last_reported":1738084067,"current_range_meters":17200,"station_id":"ce4bhap2rcd13ifvqek0","pricing_plan_id":"cebpf4jnsgd1na2vs0mg"},{"bike_id":"34dbb63a-57de-4db0-805b-7f8db253ddda","system_id":"levelo_inurba_marseille","lat":43.254491,"lon":5.376779,"is_reserved":false,"is_disabled":false,"rental_uris":{"android":"levelo://app?vid=34dbb63a-57de-4db0-805b-7f8db253ddda","ios":"levelo://app?vid=34dbb63a-57de-4db0-805b-7f8db253ddda"},"vehicle_type_id":"4","last_reported":1738084067,"current_range_meters":15200,"station_id":"ce4bhh12rcd13ifvqff0","pricing_plan_id":"cebpf4jnsgd1na2vs0mg"},{"bike_id":"5cf038e3-da9e-4312-b06d-c741f4cb7f67","system_id":"levelo_inurba_marseille","lat":43.26954,"lon":5.38636,"is_reserved":false,"is_disabled":true,"rental_uris":{"android":"levelo://app?vid=5cf038e3-da9e-4312-b06d-c741f4cb7f67","ios":"levelo://app?vid=5cf038e3-da9e-4312-b06d-c741f4cb7f67"},"vehicle_type_id":"4","last_reported":1738084067,"current_range_meters":37600,"station_id":"ce4bhh92rcd13ifvqfh0","pricing_plan_id":"cebpf4jnsgd1na2vs0mg"},{"bike_id":"26ddf70b-c40b-4183-8900-82d1942dd9f6","system_id":"levelo_inurba_marseille","lat":43.29531,"lon":5.38539,"is_reserved":false,"is_disabled":false,"rental_uris":{"android":"levelo://app?vid=26ddf70b-c40b-4183-8900-82d1942dd9f6","ios":"levelo://app?vid=26ddf70b-c40b-4183-8900-82d1942dd9f6"},"vehicle_type_id":"4","last_reported":1738084067,"current_range_meters":14400,"station_id":"ce4bgih2rcd13ifvqba0","pricing_plan_id":"cebpf4jnsgd1na2vs0mg"},{"bike_id":"e5810821-cf33-4942-aa45-d834b95ee046","system_id":"levelo_inurba_marseille","lat":43.29878,"lon":5.38918,"is_reserved":false,"is_disabled":false,"rental_uris":{"android":"levelo://app?vid=e5810821-cf33-4942-aa45-d834b95ee046","ios":"levelo://app?vid=e5810821-cf33-4942-aa45-d834b95ee046"},"vehicle_type_id":"4","last_reported":1738084067,"current_range_meters":17200,"station_id":"ce4bh392rcd13ifvqdl0","pricing_plan_id":"cebpf4jnsgd1na2vs0mg"},{"bike_id":"916d12d4-934e-46e8-a8a1-82654fa32511","system_id":"levelo_inurba_marseille","lat":43.27816,"lon":5.4071,"is_reserved":false,"is_disabled":false,"rental_uris":{"android":"levelo://app?vid=916d12d4-934e-46e8-a8a1-82654fa32511","ios":"levelo://app?vid=916d12d4-934e-46e8-a8a1-82654fa32511"},"vehicle_type_id":"4","last_reported":1738084067,"current_range_meters":19600,"station_id":"ce4bhnh2rcd13ifvqgtg","pricing_plan_id":"cebpf4jnsgd1na2vs0mg"},{"bike_id":"4008c5d4-accb-4981-8933-9e85f4cde128","system_id":"levelo_inurba_marseille","lat":43.23184,"lon":5.3556,"is_reserved":false,"is_disabled":false,"rental_uris":{"android":"levelo://app?vid=4008c5d4-accb-4981-8933-9e85f4cde128","ios":"levelo://app?vid=4008c5d4-accb-4981-8933-9e85f4cde128"},"vehicle_type_id":"4","last_reported":1738084067,"current_range_meters":11200,"station_id":"ce4bhu92rcd13ifvqi70","pricing_plan_id":"cebpf4jnsgd1na2vs0mg"},{"bike_id":"7f7e898a-3071-42c7-bc00-ea1835347453","system_id":"levelo_inurba_marseille","lat":43.27566,"lon":5.38423,"is_reserved":false,"is_disabled":false,"rental_uris":{"android":"levelo://app?vid=7f7e898a-3071-42c7-bc00-ea1835347453","ios":"levelo://app?vid=7f7e898a-3071-42c7-bc00-ea1835347453"},"vehicle_type_id":"4","last_reported":1738084067,"current_range_meters":39200,"station_id":"ce4bhh92rcd13ifvqfi0","pricing_plan_id":"cebpf4jnsgd1na2vs0mg"},{"bike_id":"d3a84b9d-23f8-4307-bca2-2e918934ae13","system_id":"levelo_inurba_marseille","lat":43.29522,"lon":5.394,"is_reserved":false,"is_disabled":false,"rental_uris":{"android":"levelo://app?vid=d3a84b9d-23f8-4307-bca2-2e918934ae13","ios":"levelo://app?vid=d3a84b9d-23f8-4307-bca2-2e918934ae13"},"vehicle_type_id":"4","last_reported":1738084067,"current_range_meters":12400,"station_id":"ce4bh292rcd13ifvqdf0","pricing_plan_id":"cebpf4jnsgd1na2vs0mg"},{"bike_id":"0e29aebb-96cc-458d-b413-6d65edc88e19","system_id":"levelo_inurba_marseille","lat":43.3136,"lon":5.3915,"is_reserved":false,"is_disabled":false,"rental_uris":{"android":"levelo://app?vid=0e29aebb-96cc-458d-b413-6d65edc88e19","ios":"levelo://app?vid=0e29aebb-96cc-458d-b413-6d65edc88e19"},"vehicle_type_id":"4","last_reported":1738084067,"current_range_meters":27200,"station_id":"","pricing_plan_id":"cebpf4jnsgd1na2vs0mg"},{"bike_id":"cef336cc-7db5-4799-b9ce-ade1b7d270e4","system_id":"levelo_inurba_marseille","lat":43.29589,"lon":5.36737,"is_reserved":false,"is_disabled":false,"rental_uris":{"android":"levelo://app?vid=cef336cc-7db5-4799-b9ce-ade1b7d270e4","ios":"levelo://app?vid=cef336cc-7db5-4799-b9ce-ade1b7d270e4"},"vehicle_type_id":"4","last_reported":1738084067,"current_range_meters":37600,"station_id":"ce4bgph2rcd13ifvqc2g","pricing_plan_id":"cebpf4jnsgd1na2vs0mg"},{"bike_id":"0b4d62d5-3c08-4c64-b9c1-ce8d7e200aec","system_id":"levelo_inurba_marseille","lat":43.28462,"lon":5.3589,"is_reserved":false,"is_disabled":false,"rental_uris":{"android":"levelo://app?vid=0b4d62d5-3c08-4c64-b9c1-ce8d7e200aec","ios":"levelo://app?vid=0b4d62d5-3c08-4c64-b9c1-ce8d7e200aec"},"vehicle_type_id":"4","last_reported":1738084067,"current_range_meters":22800,"station_id":"ce4bhah2rcd13ifvqei0","pricing_plan_id":"cebpf4jnsgd1na2vs0mg"},{"bike_id":"a34b3f1b-58c8-4bcf-aec0-8751a6ffec2f","system_id":"levelo_inurba_marseille","lat":43.3171,"lon":5.43705,"is_reserved":false,"is_disabled":false,"rental_uris":{"android":"levelo://app?vid=a34b3f1b-58c8-4bcf-aec0-8751a6ffec2f","ios":"levelo://app?vid=a34b3f1b-58c8-4bcf-aec0-8751a6ffec2f"},"vehicle_type_id":"4","last_reported":1738084067,"current_range_meters":14400,"station_id":"ce4bhp92rcd13ifvqhcg","pricing_plan_id":"cebpf4jnsgd1na2vs0mg"},{"bike_id":"af27571c-dbd9-4da4-85f4-96f3d0a1f3af","system_id":"levelo_inurba_marseille","lat":43.25019,"lon":5.38938,"is_reserved":false,"is_disabled":false,"rental_uris":{"android":"levelo://app?vid=af27571c-dbd9-4da4-85f4-96f3d0a1f3af","ios":"levelo://app?vid=af27571c-dbd9-4da4-85f4-96f3d0a1f3af"},"vehicle_type_id":"4","last_reported":1738084067,"current_range_meters":36800,"station_id":"ce4bhgp2rcd13ifvqfd0","pricing_plan_id":"cebpf4jnsgd1na2vs0mg"},{"bike_id":"fe6052ce-9491-43b1-9234-80684e635226","system_id":"levelo_inurba_marseille","lat":43.3291,"lon":5.42788,"is_reserved":false,"is_disabled":false,"rental_uris":{"android":"levelo://app?vid=fe6052ce-9491-43b1-9234-80684e635226","ios":"levelo://app?vid=fe6052ce-9491-43b1-9234-80684e635226"},"vehicle_type_id":"4","last_reported":1738084067,"current_range_meters":25600,"station_id":"","pricing_plan_id":"cebpf4jnsgd1na2vs0mg"},{"bike_id":"6045f66b-1c36-49f8-b469-203d7220eca3","system_id":"levelo_inurba_marseille","lat":43.28575,"lon":5.39491,"is_reserved":false,"is_disabled":false,"rental_uris":{"android":"levelo://app?vid=6045f66b-1c36-49f8-b469-203d7220eca3","ios":"levelo://app?vid=6045f66b-1c36-49f8-b469-203d7220eca3"},"vehicle_type_id":"4","last_reported":1738084067,"current_range_meters":39200,"station_id":"ce4bh292rcd13ifvqdg0","pricing_plan_id":"cebpf4jnsgd1na2vs0mg"},{"bike_id":"2612007e-cbff-42a4-96e7-b845ea86e3b1","system_id":"levelo_inurba_marseille","lat":43.23171,"lon":5.39999,"is_reserved":false,"is_disabled":false,"rental_uris":{"android":"levelo://app?vid=2612007e-cbff-42a4-96e7-b845ea86e3b1","ios":"levelo://app?vid=2612007e-cbff-42a4-96e7-b845ea86e3b1"},"vehicle_type_id":"4","last_reported":1738084067,"current_range_meters":36400,"station_id":"ce4bhn12rcd13ifvqgqg","pricing_plan_id":"cebpf4jnsgd1na2vs0mg"},{"bike_id":"073a10c1-fad9-4084-b754-ee450944601c","system_id":"levelo_inurba_marseille","lat":43.30126,"lon":5.39875,"is_reserved":false,"is_disabled":false,"rental_uris":{"android":"levelo://app?vid=073a10c1-fad9-4084-b754-ee450944601c","ios":"levelo://app?vid=073a10c1-fad9-4084-b754-ee450944601c"},"vehicle_type_id":"4","last_reported":1738084067,"current_range_meters":22800,"station_id":"ce4bh0h2rcd13ifvqd40","pricing_plan_id":"cebpf4jnsgd1na2vs0mg"},{"bike_id":"0149f8c0-d241-405c-9d52-3d839e80a0f6","system_id":"levelo_inurba_marseille","lat":43.29228,"lon":5.36072,"is_reserved":false,"is_disabled":true,"rental_uris":{"android":"levelo://app?vid=0149f8c0-d241-405c-9d52-3d839e80a0f6","ios":"levelo://app?vid=0149f8c0-d241-405c-9d52-3d839e80a0f6"},"vehicle_type_id":"4","last_reported":1738084067,"current_range_meters":0,"station_id":"ce4bhbh2rcd13ifvqeqg","pricing_plan_id":"cebpf4jnsgd1na2vs0mg"},{"bike_id":"f2360c48-4869-40be-b641-cb7ada732a8f","system_id":"levelo_inurba_marseille","lat":43.25722,"lon":5.41102,"is_reserved":false,"is_disabled":false,"rental_uris":{"android":"levelo://app?vid=f2360c48-4869-40be-b641-cb7ada732a8f","ios":"levelo://app?vid=f2360c48-4869-40be-b641-cb7ada732a8f"},"vehicle_type_id":"4","last_reported":1738084067,"current_range_meters":38800,"station_id":"ce4bhkp2rcd13ifvqgd0","pricing_plan_id":"cebpf4jnsgd1na2vs0mg"},{"bike_id":"ff93f9bb-d3cd-47e0-84c3-278d488ce1e5","system_id":"levelo_inurba_marseille","lat":43.27814,"lon":5.40723,"is_reserved":false,"is_disabled":false,"rental_uris":{"android":"levelo://app?vid=ff93f9bb-d3cd-47e0-84c3-278d488ce1e5","ios":"levelo://app?vid=ff93f9bb-d3cd-47e0-84c3-278d488ce1e5"},"vehicle_type_id":"4","last_reported":1738084067,"current_range_meters":16400,"station_id":"ce4bhnh2rcd13ifvqgtg","pricing_plan_id":"cebpf4jnsgd1na2vs0mg"},{"bike_id":"61170dc4-87ab-4fb7-b828-f575aef158f7","system_id":"levelo_inurba_marseille","lat":43.31178,"lon":5.38714,"is_reserved":false,"is_disabled":false,"rental_uris":{"android":"levelo://app?vid=61170dc4-87ab-4fb7-b828-f575aef158f7","ios":"levelo://app?vid=61170dc4-87ab-4fb7-b828-f575aef158f7"},"vehicle_type_id":"4","last_reported":1738084067,"current_range_meters":38800,"station_id":"ce4bgv12rcd13ifvqcp0","pricing_plan_id":"cebpf4jnsgd1na2vs0mg"},{"bike_id":"5a3a9f5f-8d0d-4eb4-b036-11ee538e749f","system_id":"levelo_inurba_marseille","lat":43.29785,"lon":5.3934,"is_reserved":false,"is_disabled":false,"rental_uris":{"android":"levelo://app?vid=5a3a9f5f-8d0d-4eb4-b036-11ee538e749f","ios":"levelo://app?vid=5a3a9f5f-8d0d-4eb4-b036-11ee538e749f"},"vehicle_type_id":"4","last_reported":1738084067,"current_range_meters":12000,"station_id":"chh1huq6cuj3fo74tm60","pricing_plan_id":"cebpf4jnsgd1na2vs0mg"},{"bike_id":"a6f939f0-b6f7-4d7b-9411-baa37ed919aa","system_id":"levelo_inurba_marseille","lat":43.27432,"lon":5.39402,"is_reserved":false,"is_disabled":false,"rental_uris":{"android":"levelo://app?vid=a6f939f0-b6f7-4d7b-9411-baa37ed919aa","ios":"levelo://app?vid=a6f939f0-b6f7-4d7b-9411-baa37ed919aa"},"vehicle_type_id":"4","last_reported":1738084067,"current_range_meters":32000,"station_id":"ce4bhdp2rcd13ifvqf20","pricing_plan_id":"cebpf4jnsgd1na2vs0mg"},{"bike_id":"887251ee-8e74-442b-90f1-902a0925f702","system_id":"levelo_inurba_marseille","lat":43.30321,"lon":5.36903,"is_reserved":false,"is_disabled":false,"rental_uris":{"android":"levelo://app?vid=887251ee-8e74-442b-90f1-902a0925f702","ios":"levelo://app?vid=887251ee-8e74-442b-90f1-902a0925f702"},"vehicle_type_id":"4","last_reported":1738084067,"current_range_meters":19600,"station_id":"ce4bgqh2rcd13ifvqc5g","pricing_plan_id":"cebpf4jnsgd1na2vs0mg"},{"bike_id":"095c2889-a724-4b49-a8f8-08a2cd6b520d","system_id":"levelo_inurba_marseille","lat":43.28572,"lon":5.39497,"is_reserved":false,"is_disabled":false,"rental_uris":{"android":"levelo://app?vid=095c2889-a724-4b49-a8f8-08a2cd6b520d","ios":"levelo://app?vid=095c2889-a724-4b49-a8f8-08a2cd6b520d"},"vehicle_type_id":"4","last_reported":1738084067,"current_range_meters":39200,"station_id":"ce4bh292rcd13ifvqdg0","pricing_plan_id":"cebpf4jnsgd1na2vs0mg"},{"bike_id":"39d19cad-7062-41d2-b1e5-f12547e3773e","system_id":"levelo_inurba_marseille","lat":43.28667,"lon":5.36335,"is_reserved":false,"is_disabled":false,"rental_uris":{"android":"levelo://app?vid=39d19cad-7062-41d2-b1e5-f12547e3773e","ios":"levelo://app?vid=39d19cad-7062-41d2-b1e5-f12547e3773e"},"vehicle_type_id":"4","last_reported":1738084067,"current_range_meters":39200,"station_id":"ce4bhah2rcd13ifvqej0","pricing_plan_id":"cebpf4jnsgd1na2vs0mg"},{"bike_id":"5c45c6f4-4375-4bd7-a53d-e05786a87072","system_id":"levelo_inurba_marseille","lat":43.31991,"lon":5.38142,"is_reserved":false,"is_disabled":false,"rental_uris":{"android":"levelo://app?vid=5c45c6f4-4375-4bd7-a53d-e05786a87072","ios":"levelo://app?vid=5c45c6f4-4375-4bd7-a53d-e05786a87072"},"vehicle_type_id":"4","last_reported":1738084067,"current_range_meters":39200,"station_id":"ce4bhr12rcd13ifvqhpg","pricing_plan_id":"cebpf4jnsgd1na2vs0mg"},{"bike_id":"b72a9aa2-da49-43ce-b1db-1642b66953a2","system_id":"levelo_inurba_marseille","lat":43.298592,"lon":5.362812,"is_reserved":false,"is_disabled":false,"rental_uris":{"android":"levelo://app?vid=b72a9aa2-da49-43ce-b1db-1642b66953a2","ios":"levelo://app?vid=b72a9aa2-da49-43ce-b1db-1642b66953a2"},"vehicle_type_id":"4","last_reported":1738084067,"current_range_meters":33600,"station_id":"ce4bgpp2rcd13ifvqc3g","pricing_plan_id":"cebpf4jnsgd1na2vs0mg"},{"bike_id":"bd87143e-90fb-48c6-b879-355b336f6ac0","system_id":"levelo_inurba_marseille","lat":43.2872,"lon":5.360812,"is_reserved":false,"is_disabled":false,"rental_uris":{"android":"levelo://app?vid=bd87143e-90fb-48c6-b879-355b336f6ac0","ios":"levelo://app?vid=bd87143e-90fb-48c6-b879-355b336f6ac0"},"vehicle_type_id":"4","last_reported":1738084067,"current_range_meters":38800,"station_id":"cki0cbj6b192h4jlfktg","pricing_plan_id":"cebpf4jnsgd1na2vs0mg"},