{"last_updated":1733159276,"ttl":60,"version":"2.2","data":{"bikes":[{"bike_id":"89c317dc-b498-4092-ab46-a64988b6ed0e","system_id":"levelo_inurba_marseille","lat":43.32286,"lon":5.38268,"is_reserved":false,"is_disabled":false,"rental_uris":{"android":"levelo://app?vid=89c317dc-b498-4092-ab46-a64988b6ed0e","ios":"levelo://app?vid=89c317dc-b498-4092-ab46-a64988b6ed0e"},"vehicle_type_id":"4","last_reported":1733159277,"current_range_meters":27600,"station_id":"ce4bhr12rcd13ifvqhqg","pricing_plan_id":"cebpf4jnsgd1na2vs0mg"},{"bike_id":"68323531-aaf0-49bb-b1ce-a4a06613995d","system_id":"levelo_inurba_marseille","lat":43.28079,"lon":5.39661,"is_reserved":false,"is_disabled":false,"rental_uris":{"android":"levelo://app?vid=68323531-aaf0-49bb-b1ce-a4a06613995d","ios":"levelo://app?vid=68323531-aaf0-49bb-b1ce-a4a06613995d"},"vehicle_type_id":"4","last_reported":1733159277,"current_range_meters":13600,"station_id":"ce4bho12rcd13ifvqh2g","pricing_plan_id":"cebpf4jnsgd1na2vs0mg"},{"bike_id":"f5db7637-6c0d-4b93-a23c-1c7a2704af77","system_id":"levelo_inurba_marseille","lat":43.28702,"lon":5.37391,"is_reserved":false,"is_disabled":false,"rental_uris":{"android":"levelo://app?vid=f5db7637-6c0d-4b93-a23c-1c7a2704af77","ios":"levelo://app?vid=f5db7637-6c0d-4b93-a23c-1c7a2704af77"},"vehicle_type_id":"4","last_reported":1733159277,"current_range_meters":10000,"station_id":"ce4bh3p2rcd13ifvqdq0","pricing_plan_id":"cebpf4jnsgd1na2vs0mg"},{"bike_id":"3189274c-3748-46b4-b1c6-a90c6f5da891","system_id":"levelo_inurba_marseille","lat":43.30152,"lon":5.38102,"is_reserved":false,"is_disabled":true,"rental_uris":{"android":"levelo://app?vid=3189274c-3748-46b4-b1c6-a90c6f5da891","ios":"levelo://app?vid=3189274c-3748-46b4-b1c6-a90c6f5da891"},"vehicle_type_id":"4","last_reported":1733159277,"current_range_meters":0,"station_id":"ce4bgjp2rcd13ifvqbh0","pricing_plan_id":"cebpf4jnsgd1na2vs0mg"},{"bike_id":"df479c2c-35ac-44ad-b9d6-81c89ed769ce","system_id":"levelo_inurba_marseille","lat":43.29677,"lon":5.37076,"is_reserved":false,"is_disabled":true,"rental_uris":{"android":"levelo://app?vid=df479c2c-35ac-44ad-b9d6-81c89ed769ce","ios":"levelo://app?vid=df479c2c-35ac-44ad-b9d6-81c89ed769ce"},"vehicle_type_id":"4","last_reported":1733159277,"current_range_meters":0,"station_id":"","pricing_plan_id":"cebpf4jnsgd1na2vs0mg"},{"bike_id":"8e029eaf-e104-4c5d-858d-6cd39de73d09","system_id":"levelo_inurba_marseille","lat":43.24182,"lon":5.36396,"is_reserved":false,"is_disabled":false,"rental_uris":{"android":"levelo://app?vid=8e029eaf-e104-4c5d-858d-6cd39de73d09","ios":"levelo://app?vid=8e029eaf-e104-4c5d-858d-6cd39de73d09"},"vehicle_type_id":"4","last_reported":1733159277,"current_range_meters":20000,"station_id":"cpo36qri1sfpv3e86is0","pricing_plan_id":"cebpf4jnsgd1na2vs0mg"},{"bike_id":"b50bdd49-511c-41d8-aa75-068657fa8c47","system_id":"levelo_inurba_marseille","lat":43.32471,"lon":5.38985,"is_reserved":false,"is_disabled":false,"rental_uris":{"android":"levelo://app?vid=b50bdd49-511c-41d8-aa75-068657fa8c47","ios":"levelo://app?vid=b50bdd49-511c-41d8-aa75-068657fa8c47"},"vehicle_type_id":"4","last_reported":1733159277,"current_range_meters":12000,"station_id":"","pricing_plan_id":"cebpf4jnsgd1na2vs0mg"},{"bike_id":"bd8cd1c7-abef-42cd-bb74-c23362a9f370","system_id":"levelo_inurba_marseille","lat":43.29411,"lon":5.38608,"is_reserved":false,"is_disabled":true,"rental_uris":{"android":"levelo://app?vid=bd8cd1c7-abef-42cd-bb74-c23362a9f370","ios":"levelo://app?vid=bd8cd1c7-abef-42cd-bb74-c23362a9f370"},"vehicle_type_id":"4","last_reported":1733159277,"current_range_meters":22400,"station_id":"ce4bh2h2rcd13ifvqdh0","pricing_plan_id":"cebpf4jnsgd1na2vs0mg"},{"bike_id":"709ecc1f-b45c-4ae2-a6bb-953ee5c99147","system_id":"levelo_inurba_marseille","lat":43.29197,"lon":5.39319,"is_reserved":false,"is_disabled":false,"rental_uris":{"android":"levelo://app?vid=709ecc1f-b45c-4ae2-a6bb-953ee5c99147","ios":"levelo://app?vid=709ecc1f-b45c-4ae2-a6bb-953ee5c99147"},"vehicle_type_id":"4","last_reported":1733159277,"current_range_meters":6800,"station_id":"ce4bh192rcd13ifvqdd0","pricing_plan_id":"cebpf4jnsgd1na2vs0mg"},{"bike_id":"12652c73-7b25-4805-92ca-4c9bb1159096","system_id":"levelo_inurba_marseille","lat":43.27618,"lon":5.36119,"is_reserved":false,"is_disabled":true,"rental_uris":{"android":"levelo://app?vid=12652c73-7b25-4805-92ca-4c9bb1159096","ios":"levelo://app?vid=12652c73-7b25-4805-92ca-4c9bb1159096"},"vehicle_type_id":"4","last_reported":1733159277,"current_range_meters":38800,"station_id":"ce4bgj92rcd13ifvqbe0","pricing_plan_id":"cebpf4jnsgd1na2vs0mg"},{"bike_id":"d824aefa-ec49-40de-83a3-b4bed2073c6c","system_id":"levelo_inurba_marseille","lat":43.33024,"lon":5.39041,"is_reserved":false,"is_disabled":false,"rental_uris":{"android":"levelo://app?vid=d824aefa-ec49-40de-83a3-b4bed2073c6c","ios":"levelo://app?vid=d824aefa-ec49-40de-83a3-b4bed2073c6c"},"vehicle_type_id":"4","last_reported":1733159277,"current_range_meters":28800,"station_id":"ce4bhr92rcd13ifvqhrg","pricing_plan_id":"cebpf4jnsgd1na2vs0mg"},{"bike_id":"9dfb3ae0-2ee3-42e6-bc73-2b1ac76e82bc","system_id":"levelo_inurba_marseille","lat":43.3046,"lon":5.379,"is_reserved":false,"is_disabled":true,"rental_uris":{"android":"levelo://app?vid=9dfb3ae0-2ee3-42e6-bc73-2b1ac76e82bc","ios":"levelo://app?vid=9dfb3ae0-2ee3-42e6-bc73-2b1ac76e82bc"},"vehicle_type_id":"4","last_reported":1733159277,"current_range_meters":0,"station_id":"ce4bgup2rcd13ifvqcn0","pricing_plan_id":"cebpf4jnsgd1na2vs0mg"},{"bike_id":"b81226b0-d7dc-4213-8de7-ddec7d23b0a8","system_id":"levelo_inurba_marseille","lat":43.28434,"lon":5.39186,"is_reserved":false,"is_disabled":false,"rental_uris":{"android":"levelo://app?vid=b81226b0-d7dc-4213-8de7-ddec7d23b0a8","ios":"levelo://app?vid=b81226b0-d7dc-4213-8de7-ddec7d23b0a8"},"vehicle_type_id":"4","last_reported":1733159277,"current_range_meters":38800,"station_id":"ce4bhoh2rcd13ifvqh5g","pricing_plan_id":"cebpf4jnsgd1na2vs0mg"},{"bike_id":"9e4bdf33-b5f4-4d1a-b758-f27f893f11f4","system_id":"levelo_inurba_marseille","lat":43.28484,"lon":5.38408,"is_reserved":false,"is_disabled":true,"rental_uris":{"android":"levelo://app?vid=9e4bdf33-b5f4-4d1a-b758-f27f893f11f4","ios":"levelo://app?vid=9e4bdf33-b5f4-4d1a-b758-f27f893f11f4"},"vehicle_type_id":"4","last_reported":1733159277,"current_range_meters":0,"station_id":"ce4bh512rcd13ifvqe3g","pricing_plan_id":"cebpf4jnsgd1na2vs0mg"},{"bike_id":"8bd642b2-0279-44c7-9ee2-fc3b57332c83","system_id":"levelo_inurba_marseille","lat":43.27455,"lon":5.40073,"is_reserved":false,"is_disabled":true,"rental_uris":{"android":"levelo://app?vid=8bd642b2-0279-44c7-9ee2-fc3b57332c83","ios":"levelo://app?vid=8bd642b2-0279-44c7-9ee2-fc3b57332c83"},"vehicle_type_id":"4","last_reported":1733159277,"current_range_meters":0,"station_id":"","pricing_plan_id":"cebpf4jnsgd1na2vs0mg"},{"bike_id":"553b60a9-4eea-44ca-8b57-3cfa32de5e45","system_id":"levelo_inurba_marseille","lat":43.29799,"lon":5.40404,"is_reserved":false,"is_disabled":false,"rental_uris":{"android":"levelo://app?vid=553b60a9-4eea-44ca-8b57-3cfa32de5e45","ios":"levelo://app?vid=553b60a9-4eea-44ca-8b57-3cfa32de5e45"},"vehicle_type_id":"4","last_reported":1733159277,"current_range_meters":25200,"station_id":"ce4bh112rcd13ifvqd90","pricing_plan_id":"cebpf4jnsgd1na2vs0mg"},{"bike_id":"2880fc22-f02c-42ee-97cb-1c545bca8afb","system_id":"levelo_inurba_marseille","lat":43.305875,"lon":5.372278,"is_reserved":false,"is_disabled":false,"rental_uris":{"android":"levelo://app?vid=2880fc22-f02c-42ee-97cb-1c545bca8afb","ios":"levelo://app?vid=2880fc22-f02c-42ee-97cb-1c545bca8afb"},"vehicle_type_id":"4","last_reported":1733159277,"current_range_meters":32800,"station_id":"ce4bgqh2rcd13ifvqc4g","pricing_plan_id":"cebpf4jnsgd1na2vs0mg"},{"bike_id":"08e6e41d-88aa-4cfe-a22f-c7b5bb5aecee","system_id":"levelo_inurba_marseille","lat":43.29842,"lon":5.36269,"is_reserved":false,"is_disabled":false,"rental_uris":{"android":"levelo://app?vid=08e6e41d-88aa-4cfe-a22f-c7b5bb5aecee","ios":"levelo://app?vid=08e6e41d-88aa-4cfe-a22f-c7b5bb5aecee"},"vehicle_type_id":"4","last_reported":1733159277,"current_range_meters":17200,"station_id":"ce4bgpp2rcd13ifvqc3g","pricing_plan_id":"cebpf4jnsgd1na2vs0mg"},{"bike_id":"cdae1156-1604-438f-896f-94e22311416b","system_id":"levelo_inurba_marseille","lat":43.27057,"lon":5.40261,"is_reserved":false,"is_disabled":false,"rental_uris":{"android":"levelo://app?vid=cdae1156-1604-438f-896f-94e22311416b","ios":"levelo://app?vid=cdae1156-1604-438f-896f-94e22311416b"},"vehicle_type_id":"4","last_reported":1733159277,"current_range_meters":35600,"station_id":"ce4bhk92rcd13ifvqgc0","pricing_plan_id":"cebpf4jnsgd1na2vs0mg"},{"bike_id":"c0bec7ea-31af-49de-8a97-a7d6bf5d8bb8","system_id":"levelo_inurba_marseille","lat":43.29039,"lon":5.35904,"is_reserved":false,"is_disabled":true,"rental_uris":{"android":"levelo://app?vid=c0bec7ea-31af-49de-8a97-a7d6bf5d8bb8","ios":"levelo://app?vid=c0bec7ea-31af-49de-8a97-a7d6bf5d8bb8"},"vehicle_type_id":"4","last_reported":1733159277,"current_range_meters":16800,"station_id":"ce4bha92rcd13ifvqeg0","pricing_plan_id":"cebpf4jnsgd1na2vs0mg"},{"bike_id":"f9752e82-4438-4882-a3c3-c7c0578a03f9","system_id":"levelo_inurba_marseille","lat":43.28032,"lon":5.36949,"is_reserved":false,"is_disabled":false,"rental_uris":{"android":"levelo://app?vid=f9752e82-4438-4882-a3c3-c7c0578a03f9","ios":"levelo://app?vid=f9752e82-4438-4882-a3c3-c7c0578a03f9"},"vehicle_type_id":"4","last_reported":1733159277,"current_range_meters":6800,"station_id":"ce4bha12rcd13ifvqef0","pricing_plan_id":"cebpf4jnsgd1na2vs0mg"},{"bike_id":"cda4a0ce-5d0d-4c65-86db-721f3fad4c95","system_id":"levelo_inurba_marseille","lat":43.3014,"lon":5.39858,"is_reserved":false,"is_disabled":false,"rental_uris":{"android":"levelo://app?vid=cda4a0ce-5d0d-4c65-86db-721f3fad4c95","ios":"levelo://app?vid=cda4a0ce-5d0d-4c65-86db-721f3fad4c95"},"vehicle_type_id":"4","last_reported":1733159277,"current_range_meters":38800,"station_id":"ce4bh0h2rcd13ifvqd40","pricing_plan_id":"cebpf4jnsgd1na2vs0mg"},{"bike_id":"475b0e62-d2b9-43a0-a896-2541e3d26116","system_id":"levelo_inurba_marseille","lat":43.24647,"lon":5.3889,"is_reserved":false,"is_disabled":true,"rental_uris":{"android":"levelo://app?vid=475b0e62-d2b9-43a0-a896-2541e3d26116","ios":"levelo://app?vid=475b0e62-d2b9-43a0-a896-2541e3d26116"},"vehicle_type_id":"4","last_reported":1733159277,"current_range_meters":0,"station_id":"ce4bhg12rcd13ifvqf60","pricing_plan_id":"cebpf4jnsgd1na2vs0mg"},{"bike_id":"58ff5ef4-5e8b-42b4-baea-f7cffbb7644c","system_id":"levelo_inurba_marseille","lat":43.27986,"lon":5.41662,"is_reserved":false,"is_disabled":false,"rental_uris":{"android":"levelo://app?vid=58ff5ef4-5e8b-42b4-baea-f7cffbb7644c","ios":"levelo://app?vid=58ff5ef4-5e8b-42b4-baea-f7cffbb7644c"},"vehicle_type_id":"4","last_reported":1733159277,"current_range_meters":6400,"station_id":"ce4bho12rcd13ifvqh1g","pricing_plan_id":"cebpf4jnsgd1na2vs0mg"},{"bike_id":"b3f478ac-3b05-4edf-bdbf-76399090f8e9","system_id":"levelo_inurba_marseille","lat":43.29984,"lon":5.37648,"is_reserved":false,"is_disabled":true,"rental_uris":{"android":"levelo://app?vid=b3f478ac-3b05-4edf-bdbf-76399090f8e9","ios":"levelo://app?vid=b3f478ac-3b05-4edf-bdbf-76399090f8e9"},"vehicle_type_id":"4","last_reported":1733159277,"current_range_meters":0,"station_id":"","pricing_plan_id":"cebpf4jnsgd1na2vs0mg"},{"bike_id":"c3587c28-5435-41c6-a9b7-aa468e6b19aa","system_id":"levelo_inurba_marseille","lat":43.29748,"lon":5.37918,"is_reserved":false,"is_disabled":true,"rental_uris":{"android":"levelo://app?vid=c3587c28-5435-41c6-a9b7-aa468e6b19aa","ios":"levelo://app?vid=c3587c28-5435-41c6-a9b7-aa468e6b19aa"},"vehicle_type_id":"4","last_reported":1733159277,"current_range_meters":0,"station_id":"","pricing_plan_id":"cebpf4jnsgd1na2vs0mg"},{"bike_id":"6a007c65-768a-4349-b995-e091a5fb8238","system_id":"levelo_inurba_marseille","lat":43.23176,"lon":5.39985,"is_reserved":false,"is_disabled":false,"rental_uris":{"android":"levelo://app?vid=6a007c65-768a-4349-b995-e091a5fb8238","ios":"levelo://app?vid=6a007c65-768a-4349-b995-e091a5fb8238"},"vehicle_type_id":"4","last_reported":1733159277,"current_range_meters":16400,"station_id":"ce4bhn12rcd13ifvqgqg","pricing_plan_id":"cebpf4jnsgd1na2vs0mg"},{"bike_id":"718b523b-ec24-4a14-806f-175249ea1c88","system_id":"levelo_inurba_marseille","lat":43.29785,"lon":5.39347,"is_reserved":false,"is_disabled":false,"rental_uris":{"android":"levelo://app?vid=718b523b-ec24-4a14-806f-175249ea1c88","ios":"levelo://app?vid=718b523b-ec24-4a14-806f-175249ea1c88"},"vehicle_type_id":"4","last_reported":1733159277,"current_range_meters":24000,"station_id":"chh1huq6cuj3fo74tm60","pricing_plan_id":"cebpf4jnsgd1na2vs0mg"},{"bike_id":"e8d9fcd3-6c4c-4c2e-a87e-41c5e4dfa6d0","system_id":"levelo_inurba_marseille","lat":43.25438,"lon":5.38158,"is_reserved":false,"is_disabled":true,"rental_uris":{"android":"levelo://app?vid=e8d9fcd3-6c4c-4c2e-a87e-41c5e4dfa6d0","ios":"levelo://app?vid=e8d9fcd3-6c4c-4c2e-a87e-41c5e4dfa6d0"},"vehicle_type_id":"4","last_reported":1733159277,"current_range_meters":0,"station_id":"","pricing_plan_id":"cebpf4jnsgd1na2vs0mg"},{"bike_id":"9e4ed454-42e6-4088-a463-3af3d1983d77","system_id":"levelo_inurba_marseille","lat":43.29954,"lon":5.4036,"is_reserved":false,"is_disabled":true,"rental_uris":{"android":"levelo://app?vid=9e4ed454-42e6-4088-a463-3af3d1983d77","ios":"levelo://app?vid=9e4ed454-42e6-4088-a463-3af3d1983d77"},"vehicle_type_id":"4","last_reported":1733159277,"current_range_meters":0,"station_id":"","pricing_plan_id":"cebpf4jnsgd1na2vs0mg"},{"bike_id":"101e72cb-5bc1-49ec-be2d-1e8628e565f6","system_id":"levelo_inurba_marseille","lat":43.31498,"lon":5.37308,"is_reserved":false,"is_disabled":true,"rental_uris":{"android":"levelo://app?vid=101e72cb-5bc1-49ec-be2d-1e8628e565f6","ios":"levelo://app?vid=101e72cb-5bc1-49ec-be2d-1e8628e565f6"},"vehicle_type_id":"4","last_reported":1733159277,"current_range_meters":36800,"station_id":"ce4bgt12rcd13ifvqcd0","pricing_plan_id":"cebpf4jnsgd1na2vs0mg"},{"bike_id":"b3b31257-686d-44bc-a3e5-534f680952c8","system_id":"levelo_inurba_marseille","lat":43.29603,"lon":5.36742,"is_reserved":false,"is_disabled":false,"rental_uris":{"android":"levelo://app?vid=b3b31257-686d-44bc-a3e5-534f680952c8","ios":"levelo://app?vid=b3b31257-686d-44bc-a3e5-534f680952c8"},"vehicle_type_id":"4","last_reported":1733159277,"current_range_meters":34000,"station_id":"ce4bgph2rcd13ifvqc2g","pricing_plan_id":"cebpf4jnsgd1na2vs0mg"},{"bike_id":"0a081414-1571-4fba-8c83-fe3438cc1403","system_id":"levelo_inurba_marseille","lat":43.29871,"lon":5.3973,"is_reserved":false,"is_disabled":false,"rental_uris":{"android":"levelo://app?vid=0a081414-1571-4fba-8c83-fe3438cc1403","ios":"levelo://app?vid=0a081414-1571-4fba-8c83-fe3438cc1403"},"vehicle_type_id":"4","last_reported":1733159277,"current_range_meters":28000,"station_id":"ce4bh0h2rcd13ifvqd50","pricing_plan_id":"cebpf4jnsgd1na2vs0mg"},{"bike_id":"48aeeb9b-8c72-4988-964e-5eb127805ef4","system_id":"levelo_inurba_marseille","lat":43.33018,"lon":5.39048,"is_reserved":false,"is_disabled":false,"rental_uris":{"android":"levelo://app?vid=48aeeb9b-8c72-4988-964e-5eb127805ef4","ios":"levelo://app?vid=48aeeb9b-8c72-4988-964e-5eb127805ef4"},"vehicle_type_id":"4","last_reported":1733159277,"current_range_meters":22400,"station_id":"ce4bhr92rcd13ifvqhrg","pricing_plan_id":"cebpf4jnsgd1na2vs0mg"},{"bike_id":"d86eed37-e31a-4b9c-9508-765166a30e71","system_id":"levelo_inurba_marseille","lat":43.29627,"lon":5.406,"is_reserved":false,"is_disabled":false,"rental_uris":{"android":"levelo://app?vid=d86eed37-e31a-4b9c-9508-765166a30e71","ios":"levelo://app?vid=d86eed37-e31a-4b9c-9508-765166a30e71"},"vehicle_type_id":"4","last_reported":1733159277,"current_range_meters":19600,"station_id":"ce4bh0h2rcd13ifvqd60","pricing_plan_id":"cebpf4jnsgd1na2vs0mg"},{"bike_id":"8549f9f9-fda1-4504-81be-1e19b4459613","system_id":"levelo_inurba_marseille","lat":43.30137,"lon":5.39855,"is_reserved":false,"is_disabled":false,"rental_uris":{"android":"levelo://app?vid=8549f9f9-fda1-4504-81be-1e19b4459613","ios":"levelo://app?vid=8549f9f9-fda1-4504-81be-1e19b4459613"},"vehicle_type_id":"4","last_reported":1733159277,"current_range_meters":16800,"station_id":"ce4bh0h2rcd13ifvqd40","pricing_plan_id":"cebpf4jnsgd1na2vs0mg"},{"bike_id":"6520bb86-df1e-4e89-9db8-bef330dcb9d3","system_id":"levelo_inurba_marseille","lat":43.25121,"lon":5.40322,"is_reserved":false,"is_disabled":false,"rental_uris":{"android":"levelo://app?vid=6520bb86-df1e-4e89-9db8-bef330dcb9d3","ios":"levelo://app?vid=6520bb86-df1e-4e89-9db8-bef330dcb9d3"},"vehicle_type_id":"4","last_reported":1733159277,"current_range_meters":9200,"station_id":"ce4bhlh2rcd13ifvqgig","pricing_plan_id":"cebpf4jnsgd1na2vs0mg"},{"bike_id":"052a1e58-88fa-43c4-a493-9df8526488c7","system_id":"levelo_inurba_marseille","lat":43.29188,"lon":5.39322,"is_reserved":false,"is_disabled":true,"rental_uris":{"android":"levelo://app?vid=052a1e58-88fa-43c4-a493-9df8526488c7","ios":"levelo://app?vid=052a1e58-88fa-43c4-a493-9df8526488c7"},"vehicle_type_id":"4","last_reported":1733159277,"current_range_meters":11600,"station_id":"ce4bh192rcd13ifvqdd0","pricing_plan_id":"cebpf4jnsgd1na2vs0mg"},{"bike_id":"34ed7b16-e707-4c30-bb65-0c88ea055863","system_id":"levelo_inurba_marseille","lat":43.30806,"lon":5.43522,"is_reserved":false,"is_disabled":true,"rental_uris":{"android":"levelo://app?vid=34ed7b16-e707-4c30-bb65-0c88ea055863","ios":"levelo://app?vid=34ed7b16-e707-4c30-bb65-0c88ea055863"},"vehicle_type_id":"4","last_reported":1733159277,"current_range_meters":14000,"station_id":"ce4bhph2rcd13ifvqheg","pricing_plan_id":"cebpf4jnsgd1na2vs0mg"},{"bike_id":"28efc3c0-71b5-428d-bc84-79249c886552","system_id":"levelo_inurba_marseille","lat":43.30885,"lon":5.39649,"is_reserved":false,"is_disabled":false,"rental_uris":{"android":"levelo://app?vid=28efc3c0-71b5-428d-bc84-79249c886552","ios":"levelo://app?vid=28efc3c0-71b5-428d-bc84-79249c886552"},"vehicle_type_id":"4","last_reported":1733159277,"current_range_meters":28800,"station_id":"ce4bh012rcd13ifvqcv0","pricing_plan_id":"cebpf4jnsgd1na2vs0mg"},{"bike_id":"3a8634cd-3c6a-485c-9685-056acdafee46","system_id":"levelo_inurba_marseille","lat":43.26945,"lon":5.4025,"is_reserved":false,"is_disabled":false,"rental_uris":{"android":"levelo://app?vid=3a8634cd-3c6a-485c-9685-056acdafee46","ios":"levelo://app?vid=3a8634cd-3c6a-485c-9685-056acdafee46"},"vehicle_type_id":"4","last_reported":1733159277,"current_range_meters":18800,"station_id":"cjm6bp8fraef2m0cb0m0","pricing_plan_id":"cebpf4jnsgd1na2vs0mg"},{"bike_id":"d277d2bb-25cc-4561-b3f6-c162b4bfe130","system_id":"levelo_inurba_marseille","lat":43.24543,"lon":5.39527,"is_reserved":false,"is_disabled":false,"rental_uris":{"android":"levelo://app?vid=d277d2bb-25cc-4561-b3f6-c162b4bfe130","ios":"levelo://app?vid=d277d2bb-25cc-4561-b3f6-c162b4bfe130"},"vehicle_type_id":"4","last_reported":1733159277,"current_range_meters":33600,"station_id":"ce4bhlp2rcd13ifvqgjg","pricing_plan_id":"cebpf4jnsgd1na2vs0mg"},{"bike_id":"b5564233-4394-4cf6-9f80-c4efe5f9ea42","system_id":"levelo_inurba_marseille","lat":43.31103,"lon":5.37781,"is_reserved":false,"is_disabled":false,"rental_uris":{"android":"levelo://app?vid=b5564233-4394-4cf6-9f80-c4efe5f9ea42","ios":"levelo://app?vid=b5564233-4394-4cf6-9f80-c4efe5f9ea42"},"vehicle_type_id":"4","last_reported":1733159277,"current_range_meters":14800,"station_id":"ce4bgt92rcd13ifvqcg0","pricing_plan_id":"cebpf4jnsgd1na2vs0mg"},{"bike_id":"249cb016-6779-4a55-9679-eb1c11b97cf4","system_id":"levelo_inurba_marseille","lat":43.27942,"lon":5.41049,"is_reserved":false,"is_disabled":false,"rental_uris":{"android":"levelo://app?vid=249cb016-6779-4a55-9679-eb1c11b97cf4","ios":"levelo://app?vid=249cb016-6779-4a55-9679-eb1c11b97cf4"},"vehicle_type_id":"4","last_reported":1733159277,"current_range_meters":18000,"station_id":"ce4bhnp2rcd13ifvqh0g","pricing_plan_id":"cebpf4jnsgd1na2vs0mg"},{"bike_id":"16bea42d-3248-41fd-8b51-39fb3d7ec2c4","system_id":"levelo_inurba_marseille","lat":43.26471,"lon":5.38535,"is_reserved":false,"is_disabled":true,"rental_uris":{"android":"levelo://app?vid=16bea42d-3248-41fd-8b51-39fb3d7ec2c4","ios":"levelo://app?vid=16bea42d-3248-41fd-8b51-39fb3d7ec2c4"},"vehicle_type_id":"4","last_reported":1733159277,"current_range_meters":0,"station_id":"","pricing_plan_id":"cebpf4jnsgd1na2vs0mg"},{"bike_id":"70ca5e26-16d9-4205-b146-4b63843d8c62","system_id":"levelo_inurba_marseille","lat":43.30798,"lon":5.38158,"is_reserved":false,"is_disabled":false,"rental_uris":{"android":"levelo://app?vid=70ca5e26-16d9-4205-b146-4b63843d8c62","ios":"levelo://app?vid=70ca5e26-16d9-4205-b146-4b63843d8c62"},"vehicle_type_id":"4","last_reported":1733159277,"current_range_meters":28800,"station_id":"ce4bgt12rcd13ifvqce0","pricing_plan_id":"cebpf4jnsgd1na2vs0mg"},{"bike_id":"29e34376-1403-4ab2-9991-c557af49d547","system_id":"levelo_inurba_marseille","lat":43.337444,"lon":5.374475,"is_reserved":false,"is_disabled":false,"rental_uris":{"android":"levelo://app?vid=29e34376-1403-4ab2-9991-c557af49d547","ios":"levelo://app?vid=29e34376-1403-4ab2-9991-c557af49d547"},"vehicle_type_id":"4","last_reported":1733159277,"current_range_meters":39200,"station_id":"","pricing_plan_id":"cebpf4jnsgd1na2vs0mg"},{"bike_id":"1c832794-0e84-48c4-824a-273066b59290","system_id":"levelo_inurba_marseille","lat":43.26684,"lon":5.38274,"is_reserved":false,"is_disabled":true,"rental_uris":{"android":"levelo://app?vid=1c832794-0e84-48c4-824a-273066b59290","ios":"levelo://app?vid=1c832794-0e84-48c4-824a-273066b59290"},"vehicle_type_id":"4","last_reported":1733159277,"current_range_meters":30000,"station_id":"ce4bhg92rcd13ifvqf90","pricing_plan_id":"cebpf4jnsgd1na2vs0mg"},{"bike_id":"eaa73896-04a8-4ef6-a4c7-4d4e56920b82","system_id":"levelo_inurba_marseille","lat":43.292969,"lon":5.374658,"is_reserved":false,"is_disabled":true,"rental_uris":{"android":"levelo://app?vid=eaa73896-04a8-4ef6-a4c7-4d4e56920b82","ios":"levelo://app?vid=eaa73896-04a8-4ef6-a4c7-4d4e56920b82"},"vehicle_type_id":"4","last_reported":1733159277,"current_range_meters":0,"station_id":"ce4bgi12rcd13ifvqb70","pricing_plan_id":"cebpf4jnsgd1na2vs0mg"},{"bike_id":"3418be4f-03ce-4b15-8c72-c86fb14e06a8","system_id":"levelo_inurba_marseille","lat":43.28456,"lon":5.35895,"is_reserved":false,"is_disabled":true,"rental_uris":{"android":"levelo://app?vid=3418be4f-03ce-4b15-8c72-c86fb14e06a8","ios":"levelo://app?vid=3418be4f-03ce-4b15-8c72-c86fb14e06a8"},"vehicle_type_id":"4","last_reported":1733159277,"current_range_meters":400,"station_id":"ce4bhah2rcd13ifvqei0","pricing_plan_id":"cebpf4jnsgd1na2vs0mg"},{"bike_id":"9a8a6467-f61f-4778-aa1b-3ff61f03c2d7","system_id":"levelo_inurba_marseille","lat":43.30779,"lon":5.37651,"is_reserved":false,"is_disabled":false,"rental_uris":{"android":"levelo://app?vid=9a8a6467-f61f-4778-aa1b-3ff61f03c2d7","ios":"levelo://app?vid=9a8a6467-f61f-4778-aa1b-3ff61f03c2d7"},"vehicle_type_id":"4","last_reported":1733159277,"current_range_meters":21600,"station_id":"ce4bgv92rcd13ifvqcq0","pricing_plan_id":"cebpf4jnsgd1na2vs0mg"},{"bike_id":"e27b2ecd-d51c-4f25-aad7-70c3f50c9d76","system_id":"levelo_inurba_marseille","lat":43.28348,"lon":5.38103,"is_reserved":false,"is_disabled":false,"rental_uris":{"android":"levelo://app?vid=e27b2ecd-d51c-4f25-aad7-70c3f50c9d76","ios":"levelo://app?vid=e27b2ecd-d51c-4f25-aad7-70c3f50c9d76"},"vehicle_type_id":"4","last_reported":1733159277,"current_range_meters":22400,"station_id":"ce4bh412rcd13ifvqdr0","pricing_plan_id":"cebpf4jnsgd1na2vs0mg"},{"bike_id":"749cb1cb-4d4c-4e48-bab8-f0f8d049f6fc","system_id":"levelo_inurba_marseille","lat":43.26686,"lon":5.38269,"is_reserved":false,"is_disabled":true,"rental_uris":{"android":"levelo://app?vid=749cb1cb-4d4c-4e48-bab8-f0f8d049f6fc","ios":"levelo://app?vid=749cb1cb-4d4c-4e48-bab8-f0f8d049f6fc"},"vehicle_type_id":"4","last_reported":1733159277,"current_range_meters":10000,"station_id":"ce4bhg92rcd13ifvqf90","pricing_plan_id":"cebpf4jnsgd1na2vs0mg"},{"bike_id":"27cac916-3aeb-4169-9096-1125a54ca1b2","system_id":"levelo_inurba_marseille","lat":43.26936,"lon":5.40259,"is_reserved":false,"is_disabled":false,"rental_uris":{"android":"levelo://app?vid=27cac916-3aeb-4169-9096-1125a54ca1b2","ios":"levelo://app?vid=27cac916-3aeb-4169-9096-1125a54ca1b2"},"vehicle_type_id":"4","last_reported":1733159277,"current_range_meters":29600,"station_id":"cjm6bp8fraef2m0cb0m0","pricing_plan_id":"cebpf4jnsgd1na2vs0mg"},{"bike_id":"bd12d2c0-65f1-4f51-bfc2-c60adc9faa31","system_id":"levelo_inurba_marseille","lat":43.29843,"lon":5.38354,"is_reserved":false,"is_disabled":false,"rental_uris":{"android":"levelo://app?vid=bd12d2c0-65f1-4f51-bfc2-c60adc9faa31","ios":"levelo://app?vid=bd12d2c0-65f1-4f51-bfc2-c60adc9faa31"},"vehicle_type_id":"4","last_reported":1733159277,"current_range_meters":26800,"station_id":"","pricing_plan_id":"cebpf4jnsgd1na2vs0mg"},{"bike_id":"5551aff9-725d-483b-8d9d-d7ba1bcf5e86","system_id":"levelo_inurba_marseille","lat":43.28673,"lon":5.3634,"is_reserved":false,"is_disabled":false,"rental_uris":{"android":"levelo://app?vid=5551aff9-725d-483b-8d9d-d7ba1bcf5e86","ios":"levelo://app?vid=5551aff9-725d-483b-8d9d-d7ba1bcf5e86"},"vehicle_type_id":"4","last_reported":1733159277,"current_range_meters":17600,"station_id":"ce4bhah2rcd13ifvqej0","pricing_plan_id":"cebpf4jnsgd1na2vs0mg"},{"bike_id":"d8b8b415-ab17-4b19-a269-7b3d9ecd3479","system_id":"levelo_inurba_marseille","lat":43.29506,"lon":5.3905,"is_reserved":false,"is_disabled":false,"rental_uris":{"android":"levelo://app?vid=d8b8b415-ab17-4b19-a269-7b3d9ecd3479","ios":"levelo://app?vid=d8b8b415-ab17-4b19-a269-7b3d9ecd3479"},"vehicle_type_id":"4","last_reported":1733159277,"current_range_meters":12000,"station_id":"ce4bh3p2rcd13ifvqdp0","pricing_plan_id":"cebpf4jnsgd1na2vs0mg"},{"bike_id":"f53ba71f-a86c-4804-8174-08e5ca9e4d96","system_id":"levelo_inurba_marseille","lat":43.26495,"lon":5.39538,"is_reserved":false,"is_disabled":true,"rental_uris":{"android":"levelo://app?vid=f53ba71f-a86c-4804-8174-08e5ca9e4d96","ios":"levelo://app?vid=f53ba71f-a86c-4804-8174-08e5ca9e4d96"},"vehicle_type_id":"4","last_reported":1733159277,"current_range_meters":800,"station_id":"ce4bhi12rcd13ifvqfq0","pricing_plan_id":"cebpf4jnsgd1na2vs0mg"},{"bike_id":"7932e894-60e4-4259-ad2b-e25a6bbb7ae7","system_id":"levelo_inurba_marseille","lat":43.28398,"lon":5.3751,"is_reserved":false,"is_disabled":false,"rental_uris":{"android":"levelo://app?vid=7932e894-60e4-4259-ad2b-e25a6bbb7ae7","ios":"levelo://app?vid=7932e894-60e4-4259-ad2b-e25a6bbb7ae7"},"vehicle_type_id":"4","last_reported":1733159277,"current_range_meters":28000,"station_id":"ce4bh412rcd13ifvqds0","pricing_plan_id":"cebpf4jnsgd1na2vs0mg"},{"bike_id":"560d7c7a-afe7-40ab-8881-10b4001d79ee","system_id":"levelo_inurba_marseille","lat":43.30785,"lon":5.3766,"is_reserved":false,"is_disabled":false,"rental_uris":{"android":"levelo://app?vid=560d7c7a-afe7-40ab-8881-10b4001d79ee","ios":"levelo://app?vid=560d7c7a-afe7-40ab-8881-10b4001d79ee"},"vehicle_type_id":"4","last_reported":1733159277,"current_range_meters":19600,"station_id":"ce4bgv92rcd13ifvqcq0","pricing_plan_id":"cebpf4jnsgd1na2vs0mg"},{"bike_id":"344bfede-3ede-4e0b-81e7-7f98304da6f5","system_id":"levelo_inurba_marseille","lat":43.28574,"lon":5.39496,"is_reserved":false,"is_disabled":false,"rental_uris":{"android":"levelo://app?vid=344bfede-3ede-4e0b-81e7-7f98304da6f5","ios":"levelo://app?vid=344bfede-3ede-4e0b-81e7-7f98304da6f5"},"vehicle_type_id":"4","last_reported":1733159277,"current_range_meters":30400,"station_id":"ce4bh292rcd13ifvqdg0","pricing_plan_id":"cebpf4jnsgd1na2vs0mg"},{"bike_id":"a35c7100-9024-4fb4-b667-f663717a8474","system_id":"levelo_inurba_marseille","lat":43.31108,"lon":5.37768,"is_reserved":false,"is_disabled":false,"rental_uris":{"android":"levelo://app?vid=a35c7100-9024-4fb4-b667-f663717a8474","ios":"levelo://app?vid=a35c7100-9024-4fb4-b667-f663717a8474"},"vehicle_type_id":"4","last_reported":1733159277,"current_range_meters":9200,"station_id":"ce4bgt92rcd13ifvqcg0","pricing_plan_id":"cebpf4jnsgd1na2vs0mg"},{"bike_id":"907a4510-a014-48d8-9f51-c730731fd7f0","system_id":"levelo_inurba_marseille","lat":43.272851,"lon":5.392029,"is_reserved":false,"is_disabled":false,"rental_uris":{"android":"levelo://app?vid=907a4510-a014-48d8-9f51-c730731fd7f0","ios":"levelo://app?vid=907a4510-a014-48d8-9f51-c730731fd7f0"},"vehicle_type_id":"4","last_reported":1733159277,"current_range_meters":36400,"station_id":"ce4bhdp2rcd13ifvqf20","pricing_plan_id":"cebpf4jnsgd1na2vs0mg"},{"bike_id":"0b7a5d71-bb71-4b7d-8b42-0ebfc1a18067","system_id":"levelo_inurba_marseille","lat":43.26926,"lon":5.38928,"is_reserved":false,"is_disabled":true,"rental_uris":{"android":"levelo://app?vid=0b7a5d71-bb71-4b7d-8b42-0ebfc1a18067","ios":"levelo://app?vid=0b7a5d71-bb71-4b7d-8b42-0ebfc1a18067"},"vehicle_type_id":"4","last_reported":1733159277,"current_range_meters":0,"station_id":"ce4bhhh2rcd13ifvqfl0","pricing_plan_id":"cebpf4jnsgd1na2vs0mg"},{"bike_id":"ec455ba2-2e3d-49b0-a1dd-93aec1191b8d","system_id":"levelo_inurba_marseille","lat":43.31168,"lon":5.38721,"is_reserved":false,"is_disabled":false,"rental_uris":{"android":"levelo://app?vid=ec455ba2-2e3d-49b0-a1dd-93aec1191b8d","ios":"levelo://app?vid=ec455ba2-2e3d-49b0-a1dd-93aec1191b8d"},"vehicle_type_id":"4","last_reported":1733159277,"current_range_meters":17200,"station_id":"ce4bgv12rcd13ifvqcp0","pricing_plan_id":"cebpf4jnsgd1na2vs0mg"},{"bike_id":"24fdc168-ebb3-455e-9a84-fc7b79cc9f1c","system_id":"levelo_inurba_marseille","lat":43.29275,"lon":5.36853,"is_reserved":false,"is_disabled":true,"rental_uris":{"android":"levelo://app?vid=24fdc168-ebb3-455e-9a84-fc7b79cc9f1c","ios":"levelo://app?vid=24fdc168-ebb3-455e-9a84-fc7b79cc9f1c"},"vehicle_type_id":"4","last_reported":1733159277,"current_range_meters":26000,"station_id":"","pricing_plan_id":"cebpf4jnsgd1na2vs0mg"},{"bike_id":"f37a8a8d-abc9-41f1-9925-3b2702b22381","system_id":"levelo_inurba_marseille","lat":43.23149,"lon":5.43721,"is_reserved":false,"is_disabled":true,"rental_uris":{"android":"levelo://app?vid=f37a8a8d-abc9-41f1-9925-3b2702b22381","ios":"levelo://app?vid=f37a8a8d-abc9-41f1-9925-3b2702b22381"},"vehicle_type_id":"4","last_reported":1733159277,"current_range_meters":14800,"station_id":"ce4bhmp2rcd13ifvqgog","pricing_plan_id":"cebpf4jnsgd1na2vs0mg"},{"bike_id":"3a883c6a-0c8d-4023-a564-89cfa71ac2db","system_id":"levelo_inurba_marseille","lat":43.26507,"lon":5.3953,"is_reserved":false,"is_disabled":false,"rental_uris":{"android":"levelo://app?vid=3a883c6a-0c8d-4023-a564-89cfa71ac2db","ios":"levelo://app?vid=3a883c6a-0c8d-4023-a564-89cfa71ac2db"},"vehicle_type_id":"4","last_reported":1733159277,"current_range_meters":26800,"station_id":"ce4bhi12rcd13ifvqfq0","pricing_plan_id":"cebpf4jnsgd1na2vs0mg"},{"bike_id":"cdfe6590-4984-4014-86c8-6dd70747c27a","system_id":"levelo_inurba_marseille","lat":43.2974,"lon":5.37418,"is_reserved":false,"is_disabled":true,"rental_uris":{"android":"levelo://app?vid=cdfe6590-4984-4014-86c8-6dd70747c27a","ios":"levelo://app?vid=cdfe6590-4984-4014-86c8-6dd70747c27a"},"vehicle_type_id":"4","last_reported":1733159277,"current_range_meters":0,"station_id":"","pricing_plan_id":"cebpf4jnsgd1na2vs0mg"},{"bike_id":"05cecbbc-d928-48d6-bb9e-6db3f5e00983","system_id":"levelo_inurba_marseille","lat":43.23192,"lon":5.35546,"is_reserved":false,"is_disabled":false,"rental_uris":{"android":"levelo://app?vid=05cecbbc-d928-48d6-bb9e-6db3f5e00983","ios":"levelo://app?vid=05cecbbc-d928-48d6-bb9e-6db3f5e00983"},"vehicle_type_id":"4","last_reported":1733159277,"current_range_meters":37600,"station_id":"ce4bhu92rcd13ifvqi70","pricing_plan_id":"cebpf4jnsgd1na2vs0mg"},{"bike_id":"2d223975-18c1-4337-9b66-de44fe6788f3","system_id":"levelo_inurba_marseille","lat":43.30782,"lon":5.37657,"is_reserved":false,"is_disabled":true,"rental_uris":{"android":"levelo://app?vid=2d223975-18c1-4337-9b66-de44fe6788f3","ios":"levelo://app?vid=2d223975-18c1-4337-9b66-de44fe6788f3"},"vehicle_type_id":"4","last_reported":1733159277,"current_range_meters":0,"station_id":"","pricing_plan_id":"cebpf4jnsgd1na2vs0mg"},{"bike_id":"36142e23-8ff6-4096-ad19-b039c8156b69","system_id":"levelo_inurba_marseille","lat":43.28659,"lon":5.36351,"is_reserved":false,"is_disabled":true,"rental_uris":{"android":"levelo://app?vid=36142e23-8ff6-4096-ad19-b039c8156b69","ios":"levelo://app?vid=36142e23-8ff6-4096-ad19-b039c8156b69"},"vehicle_type_id":"4","last_reported":1733159277,"current_range_meters":36800,"station_id":"ce4bhah2rcd13ifvqej0","pricing_plan_id":"cebpf4jnsgd1na2vs0mg"},{"bike_id":"3e762295-e52d-483f-8654-ca00b8495b74","system_id":"levelo_inurba_marseille","lat":43.27439,"lon":5.40717,"is_reserved":false,"is_disabled":false,"rental_uris":{"android":"levelo://app?vid=3e762295-e52d-483f-8654-ca00b8495b74","ios":"levelo://app?vid=3e762295-e52d-483f-8654-ca00b8495b74"},"vehicle_type_id":"4","last_reported":1733159277,"current_range_meters":12000,"station_id":"","pricing_plan_id":"cebpf4jnsgd1na2vs0mg"},{"bike_id":"e0449ad3-6fa0-4664-b0f3-6ea1dced967e","system_id":"levelo_inurba_marseille","lat":43.28151,"lon":5.42637,"is_reserved":false,"is_disabled":true,"rental_uris":{"android":"levelo://app?vid=e0449ad3-6fa0-4664-b0f3-6ea1dced967e","ios":"levelo://app?vid=e0449ad3-6fa0-4664-b0f3-6ea1dced967e"},"vehicle_type_id":"4","last_reported":1733159277,"current_range_meters":24400,"station_id":"ce4bhnh2rcd13ifvqgug","pricing_plan_id":"cebpf4jnsgd1na2vs0mg"},{"bike_id":"b733979c-ef4d-41e7-8907-d84681a13675","system_id":"levelo_inurba_marseille","lat":43.29904,"lon":5.38151,"is_reserved":false,"is_disabled":false,"rental_uris":{"android":"levelo://app?vid=b733979c-ef4d-41e7-8907-d84681a13675","ios":"levelo://app?vid=b733979c-ef4d-41e7-8907-d84681a13675"},"vehicle_type_id":"4","last_reported":1733159277,"current_range_meters":35200,"station_id":"ce4bgj12rcd13ifvqbc0","pricing_plan_id":"cebpf4jnsgd1na2vs0mg"},{"bike_id":"4c3fb316-febe-4764-b0a1-d58fd67e3e9a","system_id":"levelo_inurba_marseille","lat":43.28191,"lon":5.3829,"is_reserved":false,"is_disabled":true,"rental_uris":{"android":"levelo://app?vid=4c3fb316-febe-4764-b0a1-d58fd67e3e9a","ios":"levelo://app?vid=4c3fb316-febe-4764-b0a1-d58fd67e3e9a"},"vehicle_type_id":"4","last_reported":1733159277,"current_range_meters":30000,"station_id":"","pricing_plan_id":"cebpf4jnsgd1na2vs0mg"},{"bike_id":"987a5ab4-d60c-480c-94b6-7cab38975402","system_id":"levelo_inurba_marseille","lat":43.29748,"lon":5.37971,"is_reserved":false,"is_disabled":true,"rental_uris":{"android":"levelo://app?vid=987a5ab4-d60c-480c-94b6-7cab38975402","ios":"levelo://app?vid=987a5ab4-d60c-480c-94b6-7cab38975402"},"vehicle_type_id":"4","last_reported":1733159277,"current_range_meters":0,"station_id":"","pricing_plan_id":"cebpf4jnsgd1na2vs0mg"},{"bike_id":"c971ede0-41c7-461a-bc29-ae50a8251821","system_id":"levelo_inurba_marseille","lat":43.32295,"lon":5.38266,"is_reserved":false,"is_disabled":false,"rental_uris":{"android":"levelo://app?vid=c971ede0-41c7-461a-bc29-ae50a8251821","ios":"levelo://app?vid=c971ede0-41c7-461a-bc29-ae50a8251821"},"vehicle_type_id":"4","last_reported":1733159277,"current_range_meters":18000,"station_id":"ce4bhr12rcd13ifvqhqg","pricing_plan_id":"cebpf4jnsgd1na2vs0mg"},{"bike_id":"2c4596ad-0ad9-4016-b92b-0093349de2b4","system_id":"levelo_inurba_marseille","lat":43.30718,"lon":5.38239,"is_reserved":false,"is_disabled":true,"rental_uris":{"android":"levelo://app?vid=2c4596ad-0ad9-4016-b92b-0093349de2b4","ios":"levelo://app?vid=2c4596ad-0ad9-4016-b92b-0093349de2b4"},"vehicle_type_id":"4","last_reported":1733159277,"current_range_meters":0,"station_id":"","pricing_plan_id":"cebpf4jnsgd1na2vs0mg"},{"bike_id":"1f28300c-d8be-4d08-b5ea-d3aadf1e301d","system_id":"levelo_inurba_marseille","lat":43.26247,"lon":5.4212,"is_reserved":false,"is_disabled":false,"rental_uris":{"android":"levelo://app?vid=1f28300c-d8be-4d08-b5ea-d3aadf1e301d","ios":"levelo://app?vid=1f28300c-d8be-4d08-b5ea-d3aadf1e301d"},"vehicle_type_id":"4","last_reported":1733159277,"current_range_meters":22800,"station_id":"","pricing_plan_id":"cebpf4jnsgd1na2vs0mg"},{"bike_id":"b7ab8c01-033f-4395-8276-23c850ad3d02","system_id":"levelo_inurba_marseille","lat":43.30299,"lon":5.36584,"is_reserved":false,"is_disabled":true,"rental_uris":{"android":"levelo://app?vid=b7ab8c01-033f-4395-8276-23c850ad3d02","ios":"levelo://app?vid=b7ab8c01-033f-4395-8276-23c850ad3d02"},"vehicle_type_id":"4","last_reported":1733159277,"current_range_meters":0,"station_id":"","pricing_plan_id":"cebpf4jnsgd1na2vs0mg"},{"bike_id":"1c59a97a-dd22-4e62-abbd-b52e2896c6a3","system_id":"levelo_inurba_marseille","lat":43.28713,"lon":5.37386,"is_reserved":false,"is_disabled":false,"rental_uris":{"android":"levelo://app?vid=1c59a97a-dd22-4e62-abbd-b52e2896c6a3","ios":"levelo://app?vid=1c59a97a-dd22-4e62-abbd-b52e2896c6a3"},"vehicle_type_id":"4","last_reported":1733159277,"current_range_meters":29600,"station_id":"ce4bh3p2rcd13ifvqdq0","pricing_plan_id":"cebpf4jnsgd1na2vs0mg"},{"bike_id":"4c1f4d35-89df-4abc-bb7d-02cc1be67725","system_id":"levelo_inurba_marseille","lat":43.23191,"lon":5.39986,"is_reserved":false,"is_disabled":true,"rental_uris":{"android":"levelo://app?vid=4c1f4d35-89df-4abc-bb7d-02cc1be67725","ios":"levelo://app?vid=4c1f4d35-89df-4abc-bb7d-02cc1be67725"},"vehicle_type_id":"4","last_reported":1733159277,"current_range_meters":0,"station_id":"ce4bhn12rcd13ifvqgqg","pricing_plan_id":"cebpf4jnsgd1na2vs0mg"},{"bike_id":"8841290c-9943-48b3-a378-55d841c40a21","system_id":"levelo_inurba_marseille","lat":43.302673,"lon":5.364754,"is_reserved":false,"is_disabled":false,"rental_uris":{"android":"levelo://app?vid=8841290c-9943-48b3-a378-55d841c40a21","ios":"levelo://app?vid=8841290c-9943-48b3-a378-55d841c40a21"},"vehicle_type_id":"4","last_reported":1733159277,"current_range_meters":35600,"station_id":"ce4bgrh2rcd13ifvqc8g","pricing_plan_id":"cebpf4jnsgd1na2vs0mg"},{"bike_id":"6b2b901e-5d96-4afc-b9a5-a7594ae72748","system_id":"levelo_inurba_marseille","lat":43.27277,"lon":5.39192,"is_reserved":false,"is_disabled":true,"rental_uris":{"android":"levelo://app?vid=6b2b901e-5d96-4afc-b9a5-a7594ae72748","ios":"levelo://app?vid=6b2b901e-5d96-4afc-b9a5-a7594ae72748"},"vehicle_type_id":"4","last_reported":1733159277,"current_range_meters":0,"station_id":"","pricing_plan_id":"cebpf4jnsgd1na2vs0mg"},{"bike_id":"8541f5e8-a26a-4f77-a3f1-f8a24ed6e312","system_id":"levelo_inurba_marseille","lat":43.24652,"lon":5.38891,"is_reserved":false,"is_disabled":false,"rental_uris":{"android":"levelo://app?vid=8541f5e8-a26a-4f77-a3f1-f8a24ed6e312","ios":"levelo://app?vid=8541f5e8-a26a-4f77-a3f1-f8a24ed6e312"},"vehicle_type_id":"4","last_reported":1733159277,"current_range_meters":20400,"station_id":"ce4bhg12rcd13ifvqf60","pricing_plan_id":"cebpf4jnsgd1na2vs0mg"},{"bike_id":"52dc60e8-593a-4919-9fa2-6ff28a9f8e54","system_id":"levelo_inurba_marseille","lat":43.30785,"lon":5.37644,"is_reserved":false,"is_disabled":false,"rental_uris":{"android":"levelo://app?vid=52dc60e8-593a-4919-9fa2-6ff28a9f8e54","ios":"levelo://app?vid=52dc60e8-593a-4919-9fa2-6ff28a9f8e54"},"vehicle_type_id":"4","last_reported":1733159277,"current_range_meters":33600,"station_id":"ce4bgv92rcd13ifvqcq0","pricing_plan_id":"cebpf4jnsgd1na2vs0mg"},{"bike_id":"a6e6e874-b651-4a4c-a844-2b09214a31dc","system_id":"levelo_inurba_marseille","lat":43.28156,"lon":5.4264,"is_reserved":false,"is_disabled":false,"rental_uris":{"android":"levelo://app?vid=a6e6e874-b651-4a4c-a844-2b09214a31dc","ios":"levelo://app?vid=a6e6e874-b651-4a4c-a844-2b09214a31dc"},"vehicle_type_id":"4","last_reported":1733159277,"current_range_meters":18800,"station_id":"ce4bhnh2rcd13ifvqgug","pricing_plan_id":"cebpf4jnsgd1na2vs0mg"},{"bike_id":"1e21ee7c-ab02-4877-817e-5d83de000297","system_id":"levelo_inurba_marseille","lat":43.30909,"lon":5.36849,"is_reserved":false,"is_disabled":true,"rental_uris":{"android":"levelo://app?vid=1e21ee7c-ab02-4877-817e-5d83de000297","ios":"levelo://app?vid=1e21ee7c-ab02-4877-817e-5d83de000297"},"vehicle_type_id":"4","last_reported":1733159277,"current_range_meters":38800,"station_id":"ce4bgn92rcd13ifvqbvg","pricing_plan_id":"cebpf4jnsgd1na2vs0mg"},{"bike_id":"8d1c8b92-79bb-4181-b0d2-5e94db1a14d0","system_id":"levelo_inurba_marseille","lat":43.3001,"lon":5.38272,"is_reserved":false,"is_disabled":true,"rental_uris":{"android":"levelo://app?vid=8d1c8b92-79bb-4181-b0d2-5e94db1a14d0","ios":"levelo://app?vid=8d1c8b92-79bb-4181-b0d2-5e94db1a14d0"},"vehicle_type_id":"4","last_reported":1733159277,"current_range_meters":0,"station_id":"","pricing_plan_id":"cebpf4jnsgd1na2vs0mg"},{"bike_id":"b393e343-ccc2-4e09-a3d5-b33fb6d87dbf","system_id":"levelo_inurba_marseille","lat":43.30126,"lon":5.38782,"is_reserved":false,"is_disabled":true,"rental_uris":{"android":"levelo://app?vid=b393e343-ccc2-4e09-a3d5-b33fb6d87dbf","ios":"levelo://app?vid=b393e343-ccc2-4e09-a3d5-b33fb6d87dbf"},"vehicle_type_id":"4","last_reported":1733159277,"current_range_meters":33200,"station_id":"ce4bghh2rcd13ifvqb60","pricing_plan_id":"cebpf4jnsgd1na2vs0mg"},{"bike_id":"cdef5d84-d026-46c1-88e4-6b64829c94ca","system_id":"levelo_inurba_marseille","lat":43.26939,"lon":5.40247,"is_reserved":false,"is_disabled":false,"rental_uris":{"android":"levelo://app?vid=cdef5d84-d026-46c1-88e4-6b64829c94ca","ios":"levelo://app?vid=cdef5d84-d026-46c1-88e4-6b64829c94ca"},"vehicle_type_id":"4","last_reported":1733159277,"current_range_meters":12000,"station_id":"cjm6bp8fraef2m0cb0m0","pricing_plan_id":"cebpf4jnsgd1na2vs0mg"},{"bike_id":"333a4992-e537-4493-b4c6-4dcfd2486ca8","system_id":"levelo_inurba_marseille","lat":43.29256,"lon":5.38444,"is_reserved":false,"is_disabled":false,"rental_uris":{"android":"levelo://app?vid=333a4992-e537-4493-b4c6-4dcfd2486ca8","ios":"levelo://app?vid=333a4992-e537-4493-b4c6-4dcfd2486ca8"},"vehicle_type_id":"4","last_reported":1733159277,"current_range_meters":26800,"station_id":"ce4bh692rcd13ifvqea0","pricing_plan_id":"cebpf4jnsgd1na2vs0mg"},{"bike_id":"5769e854-2db3-42a5-a331-e94c3cf8aeb8","system_id":"levelo_inurba_marseille","lat":43.30419,"lon":5.41288,"is_reserved":false,"is_disabled":false,"rental_uris":{"android":"levelo://app?vid=5769e854-2db3-42a5-a331-e94c3cf8aeb8","ios":"levelo://app?vid=5769e854-2db3-42a5-a331-e94c3cf8aeb8"},"vehicle_type_id":"4","last_reported":1733159277,"current_range_meters":34000,"station_id":"ce4bhop2rcd13ifvqh8g","pricing_plan_id":"cebpf4jnsgd1na2vs0mg"},{"bike_id":"1c7ae222-8f70-4487-a2f7-9ce97d44aead","system_id":"levelo_inurba_marseille","lat":43.26549,"lon":5.37291,"is_reserved":false,"is_disabled":false,"rental_uris":{"android":"levelo://app?vid=1c7ae222-8f70-4487-a2f7-9ce97d44aead","ios":"levelo://app?vid=1c7ae222-8f70-4487-a2f7-9ce97d44aead"},"vehicle_type_id":"4","last_reported":1733159277,"current_range_meters":38800,"station_id":"ce4bhg12rcd13ifvqf70","pricing_plan_id":"cebpf4jnsgd1na2vs0mg"},{"bike_id":"d5ad7d28-47b1-46b2-b0eb-b7f96a03c22a","system_id":"levelo_inurba_marseille","lat":43.29851,"lon":5.36272,"is_reserved":false,"is_disabled":true,"rental_uris":{"android":"levelo://app?vid=d5ad7d28-47b1-46b2-b0eb-b7f96a03c22a","ios":"levelo://app?vid=d5ad7d28-47b1-46b2-b0eb-b7f96a03c22a"},"vehicle_type_id":"4","last_reported":1733159277,"current_range_meters":38000,"station_id":"ce4bgpp2rcd13ifvqc3g","pricing_plan_id":"cebpf4jnsgd1na2vs0mg"},{"bike_id":"45891de7-8812-4ec2-a7c4-56ca81dd5332","system_id":"levelo_inurba_marseille","lat":43.23062,"lon":5.3549,"is_reserved":false,"is_disabled":false,"rental_uris":{"android":"levelo://app?vid=45891de7-8812-4ec2-a7c4-56ca81dd5332","ios":"levelo://app?vid=45891de7-8812-4ec2-a7c4-56ca81dd5332"},"vehicle_type_id":"4","last_reported":1733159277,"current_range_meters":27600,"station_id":"cpo3342slgdg3j2ifvpg","pricing_plan_id":"cebpf4jnsgd1na2vs0mg"},{"bike_id":"a79d3deb-4fb8-4e3e-8555-dfa46134ae86","system_id":"levelo_inurba_marseille","lat":43.28034,"lon":5.36954,"is_reserved":false,"is_disabled":true,"rental_uris":{"android":"levelo://app?vid=a79d3deb-4fb8-4e3e-8555-dfa46134ae86","ios":"levelo://app?vid=a79d3deb-4fb8-4e3e-8555-dfa46134ae86"},"vehicle_type_id":"4","last_reported":1733159277,"current_range_meters":0,"station_id":"ce4bha12rcd13ifvqef0","pricing_plan_id":"cebpf4jnsgd1na2vs0mg"},{"bike_id":"9b40ab06-c69c-4438-9be2-00426377ac8d","system_id":"levelo_inurba_marseille","lat":43.29431,"lon":5.39748,"is_reserved":false,"is_disabled":false,"rental_uris":{"android":"levelo://app?vid=9b40ab06-c69c-4438-9be2-00426377ac8d","ios":"levelo://app?vid=9b40ab06-c69c-4438-9be2-00426377ac8d"},"vehicle_type_id":"4","last_reported":1733159277,"current_range_meters":36400,"station_id":"ce4bh3h2rcd13ifvqdo0","pricing_plan_id":"cebpf4jnsgd1na2vs0mg"},{"bike_id":"119b135c-e584-4e81-9455-f9ffe6d38b9d","system_id":"levelo_inurba_marseille","lat":43.305607,"lon":5.365508,"is_reserved":false,"is_disabled":false,"rental_uris":{"android":"levelo://app?vid=119b135c-e584-4e81-9455-f9ffe6d38b9d","ios":"levelo://app?vid=119b135c-e584-4e81-9455-f9ffe6d38b9d"},"vehicle_type_id":"4","last_reported":1733159277,"current_range_meters":12000,"station_id":"ce4bgs12rcd13ifvqcag","pricing_plan_id":"cebpf4jnsgd1na2vs0mg"},{"bike_id":"502a96ab-17c2-4054-85b0-d3158c661de7","system_id":"levelo_inurba_marseille","lat":43.29192,"lon":5.39318,"is_reserved":false,"is_disabled":true,"rental_uris":{"android":"levelo://app?vid=502a96ab-17c2-4054-85b0-d3158c661de7","ios":"levelo://app?vid=502a96ab-17c2-4054-85b0-d3158c661de7"},"vehicle_type_id":"4","last_reported":1733159277,"current_range_meters":18000,"station_id":"ce4bh192rcd13ifvqdd0","pricing_plan_id":"cebpf4jnsgd1na2vs0mg"},{"bike_id":"f78a695f-1e51-496d-a80d-f5757164d6e4","system_id":"levelo_inurba_marseille","lat":43.26681,"lon":5.3827,"is_reserved":false,"is_disabled":true,"rental_uris":{"android":"levelo://app?vid=f78a695f-1e51-496d-a80d-f5757164d6e4","ios":"levelo://app?vid=f78a695f-1e51-496d-a80d-f5757164d6e4"},"vehicle_type_id":"4","last_reported":1733159277,"current_range_meters":37600,"station_id":"ce4bhg92rcd13ifvqf90","pricing_plan_id":"cebpf4jnsgd1na2vs0mg"},{"bike_id":"1c0bf2c0-5885-48f0-9338-19b7b3a8ca02","system_id":"levelo_inurba_marseille","lat":43.31878,"lon":5.40735,"is_reserved":false,"is_disabled":false,"rental_uris":{"android":"levelo://app?vid=1c0bf2c0-5885-48f0-9338-19b7b3a8ca02","ios":"levelo://app?vid=1c0bf2c0-5885-48f0-9338-19b7b3a8ca02"},"vehicle_type_id":"4","last_reported":1733159277,"current_range_meters":38800,"station_id":"ce4bhq12rcd13ifvqhig","pricing_plan_id":"cebpf4jnsgd1na2vs0mg"},{"bike_id":"e1ba463b-52b2-4147-af51-e11d1b5833d5","system_id":"levelo_inurba_marseille","lat":43.29779,"lon":5.39351,"is_reserved":false,"is_disabled":false,"rental_uris":{"android":"levelo://app?vid=e1ba463b-52b2-4147-af51-e11d1b5833d5","ios":"levelo://app?vid=e1ba463b-52b2-4147-af51-e11d1b5833d5"},"vehicle_type_id":"4","last_reported":1733159277,"current_range_meters":38000,"station_id":"chh1huq6cuj3fo74tm60","pricing_plan_id":"cebpf4jnsgd1na2vs0mg"},{"bike_id":"21984cfa-bdff-4ce6-b4b6-0519802e35d0","system_id":"levelo_inurba_marseille","lat":43.29201,"lon":5.39336,"is_reserved":false,"is_disabled":false,"rental_uris":{"android":"levelo://app?vid=21984cfa-bdff-4ce6-b4b6-0519802e35d0","ios":"levelo://app?vid=21984cfa-bdff-4ce6-b4b6-0519802e35d0"},"vehicle_type_id":"4","last_reported":1733159277,"current_range_meters":21600,"station_id":"ce4bh192rcd13ifvqdd0","pricing_plan_id":"cebpf4jnsgd1na2vs0mg"},{"bike_id":"85fe14bc-9058-4590-9383-c754db341aac","system_id":"levelo_inurba_marseille","lat":43.29528,"lon":5.38547,"is_reserved":false,"is_disabled":false,"rental_uris":{"android":"levelo://app?vid=85fe14bc-9058-4590-9383-c754db341aac","ios":"levelo://app?vid=85fe14bc-9058-4590-9383-c754db341aac"},"vehicle_type_id":"4","last_reported":1733159277,"current_range_meters":32000,"station_id":"ce4bgih2rcd13ifvqba0","pricing_plan_id":"cebpf4jnsgd1na2vs0mg"},{"bike_id":"705280ab-b373-400d-a3c1-50a70512fec8","system_id":"levelo_inurba_marseille","lat":43.31341,"lon":5.37038,"is_reserved":false,"is_disabled":true,"rental_uris":{"android":"levelo://app?vid=705280ab-b373-400d-a3c1-50a70512fec8","ios":"levelo://app?vid=705280ab-b373-400d-a3c1-50a70512fec8"},"vehicle_type_id":"4","last_reported":1733159277,"current_range_meters":38800,"station_id":"","pricing_plan_id":"cebpf4jnsgd1na2vs0mg"},{"bike_id":"178fce27-6c6b-4c90-af63-c2206215ea48","system_id":"levelo_inurba_marseille","lat":43.26564,"lon":5.39022,"is_reserved":false,"is_disabled":false,"rental_uris":{"android":"levelo://app?vid=178fce27-6c6b-4c90-af63-c2206215ea48","ios":"levelo://app?vid=178fce27-6c6b-4c90-af63-c2206215ea48"},"vehicle_type_id":"4","last_reported":1733159277,"current_range_meters":17600,"station_id":"ce4bhe12rcd13ifvqf30","pricing_plan_id":"cebpf4jnsgd1na2vs0mg"},{"bike_id":"a2deffe7-0f2a-415a-9989-c1ed5a87f1ff","system_id":"levelo_inurba_marseille","lat":43.28563,"lon":5.39491,"is_reserved":false,"is_disabled":false,"rental_uris":{"android":"levelo://app?vid=a2deffe7-0f2a-415a-9989-c1ed5a87f1ff","ios":"levelo://app?vid=a2deffe7-0f2a-415a-9989-c1ed5a87f1ff"},"vehicle_type_id":"4","last_reported":1733159277,"current_range_meters":5600,"station_id":"ce4bh292rcd13ifvqdg0","pricing_plan_id":"cebpf4jnsgd1na2vs0mg"},{"bike_id":"fdd60b63-eff3-4d39-90e4-741a6608f6f2","system_id":"levelo_inurba_marseille","lat":43.28438,"lon":5.39189,"is_reserved":false,"is_disabled":false,"rental_uris":{"android":"levelo://app?vid=fdd60b63-eff3-4d39-90e4-741a6608f6f2","ios":"levelo://app?vid=fdd60b63-eff3-4d39-90e4-741a6608f6f2"},"vehicle_type_id":"4","last_reported":1733159277,"current_range_meters":35600,"station_id":"ce4bhoh2rcd13ifvqh5g","pricing_plan_id":"cebpf4jnsgd1na2vs0mg"},{"bike_id":"1ad1c1c4-5d06-4d0c-af90-58e0b45a7218","system_id":"levelo_inurba_marseille","lat":43.27924,"lon":5.39571,"is_reserved":false,"is_disabled":false,"rental_uris":{"android":"levelo://app?vid=1ad1c1c4-5d06-4d0c-af90-58e0b45a7218","ios":"levelo://app?vid=1ad1c1c4-5d06-4d0c-af90-58e0b45a7218"},"vehicle_type_id":"4","last_reported":1733159277,"current_range_meters":38800,"station_id":"ce4bhf92rcd13ifvqf40","pricing_plan_id":"cebpf4jnsgd1na2vs0mg"},{"bike_id":"9c77a68d-2e99-44e9-b903-950fb6644d35","system_id":"levelo_inurba_marseille","lat":43.25291,"lon":5.39451,"is_reserved":false,"is_disabled":true,"rental_uris":{"android":"levelo://app?vid=9c77a68d-2e99-44e9-b903-950fb6644d35","ios":"levelo://app?vid=9c77a68d-2e99-44e9-b903-950fb6644d35"},"vehicle_type_id":"4","last_reported":1733159277,"current_range_meters":0,"station_id":"","pricing_plan_id":"cebpf4jnsgd1na2vs0mg"},{"bike_id":"518691a5-448b-4ddf-b764-1a35b42e3659","system_id":"levelo_inurba_marseille","lat":43.2586,"lon":5.39903,"is_reserved":false,"is_disabled":true,"rental_uris":{"android":"levelo://app?vid=518691a5-448b-4ddf-b764-1a35b42e3659","ios":"levelo://app?vid=518691a5-448b-4ddf-b764-1a35b42e3659"},"vehicle_type_id":"4","last_reported":1733159277,"current_range_meters":0,"station_id":"ce4bhl92rcd13ifvqghg","pricing_plan_id":"cebpf4jnsgd1na2vs0mg"},{"bike_id":"ef21c035-bb49-424f-9bea-f5275d76500c","system_id":"levelo_inurba_marseille","lat":43.29844,"lon":5.36271,"is_reserved":false,"is_disabled":false,"rental_uris":{"android":"levelo://app?vid=ef21c035-bb49-424f-9bea-f5275d76500c","ios":"levelo://app?vid=ef21c035-bb49-424f-9bea-f5275d76500c"},"vehicle_type_id":"4","last_reported":1733159277,"current_range_meters":24800,"station_id":"ce4bgpp2rcd13ifvqc3g","pricing_plan_id":"cebpf4jnsgd1na2vs0mg"},{"bike_id":"d343be82-d45b-4580-9267-ab2a574eac02","system_id":"levelo_inurba_marseille","lat":43.30801,"lon":5.43524,"is_reserved":false,"is_disabled":true,"rental_uris":{"android":"levelo://app?vid=d343be82-d45b-4580-9267-ab2a574eac02","ios":"levelo://app?vid=d343be82-d45b-4580-9267-ab2a574eac02"},"vehicle_type_id":"4","last_reported":1733159277,"current_range_meters":1600,"station_id":"ce4bhph2rcd13ifvqheg","pricing_plan_id":"cebpf4jnsgd1na2vs0mg"},{"bike_id":"b506175b-e3b3-4ff6-94de-89fbcaee662e","system_id":"levelo_inurba_marseille","lat":43.30839,"lon":5.38174,"is_reserved":false,"is_disabled":false,"rental_uris":{"android":"levelo://app?vid=b506175b-e3b3-4ff6-94de-89fbcaee662e","ios":"levelo://app?vid=b506175b-e3b3-4ff6-94de-89fbcaee662e"},"vehicle_type_id":"4","last_reported":1733159277,"current_range_meters":19600,"station_id":"ce4bgt12rcd13ifvqce0","pricing_plan_id":"cebpf4jnsgd1na2vs0mg"},{"bike_id":"4ea402f6-45b0-4846-84f5-29270e62c818","system_id":"levelo_inurba_marseille","lat":43.30828,"lon":5.37403,"is_reserved":false,"is_disabled":true,"rental_uris":{"android":"levelo://app?vid=4ea402f6-45b0-4846-84f5-29270e62c818","ios":"levelo://app?vid=4ea402f6-45b0-4846-84f5-29270e62c818"},"vehicle_type_id":"4","last_reported":1733159277,"current_range_meters":0,"station_id":"","pricing_plan_id":"cebpf4jnsgd1na2vs0mg"},{"bike_id":"ab7e3165-00d1-49f7-b682-44b14bb70d7c","system_id":"levelo_inurba_marseille","lat":43.31365,"lon":5.38496,"is_reserved":false,"is_disabled":false,"rental_uris":{"android":"levelo://app?vid=ab7e3165-00d1-49f7-b682-44b14bb70d7c","ios":"levelo://app?vid=ab7e3165-00d1-49f7-b682-44b14bb70d7c"},"vehicle_type_id":"4","last_reported":1733159277,"current_range_meters":20000,"station_id":"ce4bgt92rcd13ifvqcf0","pricing_plan_id":"cebpf4jnsgd1na2vs0mg"},{"bike_id":"b3d7f1be-aa57-47bb-bc22-2e37c968eecf","system_id":"levelo_inurba_marseille","lat":43.31995,"lon":5.38169,"is_reserved":false,"is_disabled":false,"rental_uris":{"android":"levelo://app?vid=b3d7f1be-aa57-47bb-bc22-2e37c968eecf","ios":"levelo://app?vid=b3d7f1be-aa57-47bb-bc22-2e37c968eecf"},"vehicle_type_id":"4","last_reported":1733159277,"current_range_meters":36800,"station_id":"ce4bhr12rcd13ifvqhpg","pricing_plan_id":"cebpf4jnsgd1na2vs0mg"},{"bike_id":"264d7fd4-94b2-4865-b7b9-82bc3212525c","system_id":"levelo_inurba_marseille","lat":43.29021,"lon":5.38649,"is_reserved":false,"is_disabled":false,"rental_uris":{"android":"levelo://app?vid=264d7fd4-94b2-4865-b7b9-82bc3212525c","ios":"levelo://app?vid=264d7fd4-94b2-4865-b7b9-82bc3212525c"},"vehicle_type_id":"4","last_reported":1733159277,"current_range_meters":36400,"station_id":"ce4bh4p2rcd13ifvqe0g","pricing_plan_id":"cebpf4jnsgd1na2vs0mg"},{"bike_id":"4f5e55ea-1124-4dd0-8efa-8ecf5c9aca9e","system_id":"levelo_inurba_marseille","lat":43.32309,"lon":5.38351,"is_reserved":false,"is_disabled":false,"rental_uris":{"android":"levelo://app?vid=4f5e55ea-1124-4dd0-8efa-8ecf5c9aca9e","ios":"levelo://app?vid=4f5e55ea-1124-4dd0-8efa-8ecf5c9aca9e"},"vehicle_type_id":"4","last_reported":1733159277,"current_range_meters":39200,"station_id":"ce4bhr12rcd13ifvqhqg","pricing_plan_id":"cebpf4jnsgd1na2vs0mg"},{"bike_id":"941eeae1-8936-4a86-b31a-ea87d84b2048","system_id":"levelo_inurba_marseille","lat":43.2806,"lon":5.35632,"is_reserved":false,"is_disabled":false,"rental_uris":{"android":"levelo://app?vid=941eeae1-8936-4a86-b31a-ea87d84b2048","ios":"levelo://app?vid=941eeae1-8936-4a86-b31a-ea87d84b2048"},"vehicle_type_id":"4","last_reported":1733159277,"current_range_meters":10800,"station_id":"","pricing_plan_id":"cebpf4jnsgd1na2vs0mg"},{"bike_id":"fbf196aa-b1d3-4543-a4a3-ba949cee7fd8","system_id":"levelo_inurba_marseille","lat":43.27174,"lon":5.40996,"is_reserved":false,"is_disabled":false,"rental_uris":{"android":"levelo://app?vid=fbf196aa-b1d3-4543-a4a3-ba949cee7fd8","ios":"levelo://app?vid=fbf196aa-b1d3-4543-a4a3-ba949cee7fd8"},"vehicle_type_id":"4","last_reported":1733159277,"current_range_meters":3600,"station_id":"ce4bhl12rcd13ifvqgf0","pricing_plan_id":"cebpf4jnsgd1na2vs0mg"},{"bike_id":"0eac61b2-1cab-460b-a056-98e380530d28","system_id":"levelo_inurba_marseille","lat":43.32363,"lon":5.38887,"is_reserved":false,"is_disabled":false,"rental_uris":{"android":"levelo://app?vid=0eac61b2-1cab-460b-a056-98e380530d28","ios":"levelo://app?vid=0eac61b2-1cab-460b-a056-98e380530d28"},"vehicle_type_id":"4","last_reported":1733159277,"current_range_meters":28400,"station_id":"ce4bhqp2rcd13ifvqhog","pricing_plan_id":"cebpf4jnsgd1na2vs0mg"},{"bike_id":"1176e033-efc4-474e-af61-8d3a0d5f5ccf","system_id":"levelo_inurba_marseille","lat":43.25886,"lon":5.39954,"is_reserved":false,"is_disabled":true,"rental_uris":{"android":"levelo://app?vid=1176e033-efc4-474e-af61-8d3a0d5f5ccf","ios":"levelo://app?vid=1176e033-efc4-474e-af61-8d3a0d5f5ccf"},"vehicle_type_id":"4","last_reported":1733159277,"current_range_meters":0,"station_id":"","pricing_plan_id":"cebpf4jnsgd1na2vs0mg"},{"bike_id":"b1869e3b-1a4c-4f62-9ea4-5be100c11777","system_id":"levelo_inurba_marseille","lat":43.29424,"lon":5.38639,"is_reserved":false,"is_disabled":false,"rental_uris":{"android":"levelo://app?vid=b1869e3b-1a4c-4f62-9ea4-5be100c11777","ios":"levelo://app?vid=b1869e3b-1a4c-4f62-9ea4-5be100c11777"},"vehicle_type_id":"4","last_reported":1733159277,"current_range_meters":38800,"station_id":"ce4bh2h2rcd13ifvqdh0","pricing_plan_id":"cebpf4jnsgd1na2vs0mg"},{"bike_id":"d968385f-de2b-44eb-96a8-54efc707caa9","system_id":"levelo_inurba_marseille","lat":43.2319,"lon":5.35544,"is_reserved":false,"is_disabled":false,"rental_uris":{"android":"levelo://app?vid=d968385f-de2b-44eb-96a8-54efc707caa9","ios":"levelo://app?vid=d968385f-de2b-44eb-96a8-54efc707caa9"},"vehicle_type_id":"4","last_reported":1733159277,"current_range_meters":39200,"station_id":"ce4bhu92rcd13ifvqi70","pricing_plan_id":"cebpf4jnsgd1na2vs0mg"},{"bike_id":"81f5a7d3-6d69-4596-b318-ba7bca7bcf44","system_id":"levelo_inurba_marseille","lat":43.29251,"lon":5.38454,"is_reserved":false,"is_disabled":true,"rental_uris":{"android":"levelo://app?vid=81f5a7d3-6d69-4596-b318-ba7bca7bcf44","ios":"levelo://app?vid=81f5a7d3-6d69-4596-b318-ba7bca7bcf44"},"vehicle_type_id":"4","last_reported":1733159277,"current_range_meters":1200,"station_id":"ce4bh692rcd13ifvqea0","pricing_plan_id":"cebpf4jnsgd1na2vs0mg"},{"bike_id":"e218f52a-3c8a-490a-99d9-5af7196625b0","system_id":"levelo_inurba_marseille","lat":43.23193,"lon":5.35545,"is_reserved":false,"is_disabled":false,"rental_uris":{"android":"levelo://app?vid=e218f52a-3c8a-490a-99d9-5af7196625b0","ios":"levelo://app?vid=e218f52a-3c8a-490a-99d9-5af7196625b0"},"vehicle_type_id":"4","last_reported":1733159277,"current_range_meters":16000,"station_id":"ce4bhu92rcd13ifvqi70","pricing_plan_id":"cebpf4jnsgd1na2vs0mg"},{"bike_id":"506c09f4-6c9b-4fb3-996c-4c7f86dd75a8","system_id":"levelo_inurba_marseille","lat":43.24555,"lon":5.37354,"is_reserved":false,"is_disabled":true,"rental_uris":{"android":"levelo://app?vid=506c09f4-6c9b-4fb3-996c-4c7f86dd75a8","ios":"levelo://app?vid=506c09f4-6c9b-4fb3-996c-4c7f86dd75a8"},"vehicle_type_id":"4","last_reported":1733159277,"current_range_meters":0,"station_id":"","pricing_plan_id":"cebpf4jnsgd1na2vs0mg"},{"bike_id":"9211c3d1-be1f-4677-9a82-b98349c83108","system_id":"levelo_inurba_marseille","lat":43.29451,"lon":5.3976,"is_reserved":false,"is_disabled":true,"rental_uris":{"android":"levelo://app?vid=9211c3d1-be1f-4677-9a82-b98349c83108","ios":"levelo://app?vid=9211c3d1-be1f-4677-9a82-b98349c83108"},"vehicle_type_id":"4","last_reported":1733159277,"current_range_meters":10800,"station_id":"ce4bh3h2rcd13ifvqdo0","pricing_plan_id":"cebpf4jnsgd1na2vs0mg"},{"bike_id":"9202c63e-372c-4469-a5c1-8e35757d1940","system_id":"levelo_inurba_marseille","lat":43.30053,"lon":5.38832,"is_reserved":false,"is_disabled":true,"rental_uris":{"android":"levelo://app?vid=9202c63e-372c-4469-a5c1-8e35757d1940","ios":"levelo://app?vid=9202c63e-372c-4469-a5c1-8e35757d1940"},"vehicle_type_id":"4","last_reported":1733159277,"current_range_meters":0,"station_id":"","pricing_plan_id":"cebpf4jnsgd1na2vs0mg"},{"bike_id":"7ce87540-068e-40a8-8b73-bc4713996526","system_id":"levelo_inurba_marseille","lat":43.30258,"lon":5.37719,"is_reserved":false,"is_disabled":true,"rental_uris":{"android":"levelo://app?vid=7ce87540-068e-40a8-8b73-bc4713996526","ios":"levelo://app?vid=7ce87540-068e-40a8-8b73-bc4713996526"},"vehicle_type_id":"4","last_reported":1733159277,"current_range_meters":39200,"station_id":"ce4bguh2rcd13ifvqcj0","pricing_plan_id":"cebpf4jnsgd1na2vs0mg"},{"bike_id":"692691a9-bd4a-4c62-91e1-a89a2833f61b","system_id":"levelo_inurba_marseille","lat":43.26793,"lon":5.40274,"is_reserved":false,"is_disabled":false,"rental_uris":{"android":"levelo://app?vid=692691a9-bd4a-4c62-91e1-a89a2833f61b","ios":"levelo://app?vid=692691a9-bd4a-4c62-91e1-a89a2833f61b"},"vehicle_type_id":"4","last_reported":1733159277,"current_range_meters":38800,"station_id":"ce501612rcd8frsf0b60","pricing_plan_id":"cebpf4jnsgd1na2vs0mg"},{"bike_id":"c60adda5-892d-4c27-89ba-5261cfbacea9","system_id":"levelo_inurba_marseille","lat":43.30149,"lon":5.381,"is_reserved":false,"is_disabled":false,"rental_uris":{"android":"levelo://app?vid=c60adda5-892d-4c27-89ba-5261cfbacea9","ios":"levelo://app?vid=c60adda5-892d-4c27-89ba-5261cfbacea9"},"vehicle_type_id":"4","last_reported":1733159277,"current_range_meters":32400,"station_id":"ce4bgjp2rcd13ifvqbh0","pricing_plan_id":"cebpf4jnsgd1na2vs0mg"},{"bike_id":"e543a3b0-1616-4880-b71e-6174b811b328","system_id":"levelo_inurba_marseille","lat":43.3127,"lon":5.40166,"is_reserved":false,"is_disabled":false,"rental_uris":{"android":"levelo://app?vid=e543a3b0-1616-4880-b71e-6174b811b328","ios":"levelo://app?vid=e543a3b0-1616-4880-b71e-6174b811b328"},"vehicle_type_id":"4","last_reported":1733159277,"current_range_meters":16800,"station_id":"ce4bh092rcd13ifvqd30","pricing_plan_id":"cebpf4jnsgd1na2vs0mg"},{"bike_id":"dd6cad31-8801-4a6a-ab13-69ee4690be64","system_id":"levelo_inurba_marseille","lat":43.26936,"lon":5.40243,"is_reserved":false,"is_disabled":false,"rental_uris":{"android":"levelo://app?vid=dd6cad31-8801-4a6a-ab13-69ee4690be64","ios":"levelo://app?vid=dd6cad31-8801-4a6a-ab13-69ee4690be64"},"vehicle_type_id":"4","last_reported":1733159277,"current_range_meters":16400,"station_id":"cjm6bp8fraef2m0cb0m0","pricing_plan_id":"cebpf4jnsgd1na2vs0mg"},{"bike_id":"16ebf7b5-f5c0-4627-80b2-c506facfa757","system_id":"levelo_inurba_marseille","lat":43.27812,"lon":5.40716,"is_reserved":false,"is_disabled":true,"rental_uris":{"android":"levelo://app?vid=16ebf7b5-f5c0-4627-80b2-c506facfa757","ios":"levelo://app?vid=16ebf7b5-f5c0-4627-80b2-c506facfa757"},"vehicle_type_id":"4","last_reported":1733159277,"current_range_meters":0,"station_id":"","pricing_plan_id":"cebpf4jnsgd1na2vs0mg"},{"bike_id":"719e509a-25e4-4b1b-9830-f708d85d7593","system_id":"levelo_inurba_marseille","lat":43.29569,"lon":5.37512,"is_reserved":false,"is_disabled":true,"rental_uris":{"android":"levelo://app?vid=719e509a-25e4-4b1b-9830-f708d85d7593","ios":"levelo://app?vid=719e509a-25e4-4b1b-9830-f708d85d7593"},"vehicle_type_id":"4","last_reported":1733159277,"current_range_meters":0,"station_id":"ce4bgh92rcd13ifvqb50","pricing_plan_id":"cebpf4jnsgd1na2vs0mg"},{"bike_id":"a932f99e-ee27-4b7c-823f-9baba72b4def","system_id":"levelo_inurba_marseille","lat":43.23179,"lon":5.39991,"is_reserved":false,"is_disabled":false,"rental_uris":{"android":"levelo://app?vid=a932f99e-ee27-4b7c-823f-9baba72b4def","ios":"levelo://app?vid=a932f99e-ee27-4b7c-823f-9baba72b4def"},"vehicle_type_id":"4","last_reported":1733159277,"current_range_meters":38800,"station_id":"ce4bhn12rcd13ifvqgqg","pricing_plan_id":"cebpf4jnsgd1na2vs0mg"},{"bike_id":"30b6b84f-2823-4e05-9290-54e3cd970159","system_id":"levelo_inurba_marseille","lat":43.33026,"lon":5.39046,"is_reserved":false,"is_disabled":false,"rental_uris":{"android":"levelo://app?vid=30b6b84f-2823-4e05-9290-54e3cd970159","ios":"levelo://app?vid=30b6b84f-2823-4e05-9290-54e3cd970159"},"vehicle_type_id":"4","last_reported":1733159277,"current_range_meters":32800,"station_id":"ce4bhr92rcd13ifvqhrg","pricing_plan_id":"cebpf4jnsgd1na2vs0mg"},{"bike_id":"2cf65095-36e5-4949-abae-c54c2895d97b","system_id":"levelo_inurba_marseille","lat":43.3254,"lon":5.41446,"is_reserved":false,"is_disabled":true,"rental_uris":{"android":"levelo://app?vid=2cf65095-36e5-4949-abae-c54c2895d97b","ios":"levelo://app?vid=2cf65095-36e5-4949-abae-c54c2895d97b"},"vehicle_type_id":"4","last_reported":1733159277,"current_range_meters":800,"station_id":"ce4bhq12rcd13ifvqhhg","pricing_plan_id":"cebpf4jnsgd1na2vs0mg"},{"bike_id":"f8de6c35-1a81-4bd1-a68b-12d685bb1cb2","system_id":"levelo_inurba_marseille","lat":43.31508,"lon":5.37497,"is_reserved":false,"is_disabled":false,"rental_uris":{"android":"levelo://app?vid=f8de6c35-1a81-4bd1-a68b-12d685bb1cb2","ios":"levelo://app?vid=f8de6c35-1a81-4bd1-a68b-12d685bb1cb2"},"vehicle_type_id":"4","last_reported":1733159277,"current_range_meters":34000,"station_id":"","pricing_plan_id":"cebpf4jnsgd1na2vs0mg"},{"bike_id":"86718fe3-3c2c-4acb-a501-db0ba655ba20","system_id":"levelo_inurba_marseille","lat":43.27945,"lon":5.41046,"is_reserved":false,"is_disabled":true,"rental_uris":{"android":"levelo://app?vid=86718fe3-3c2c-4acb-a501-db0ba655ba20","ios":"levelo://app?vid=86718fe3-3c2c-4acb-a501-db0ba655ba20"},"vehicle_type_id":"4","last_reported":1733159277,"current_range_meters":2000,"station_id":"ce4bhnp2rcd13ifvqh0g","pricing_plan_id":"cebpf4jnsgd1na2vs0mg"},{"bike_id":"da73eeee-3e29-49aa-9428-1e84dbb61de4","system_id":"levelo_inurba_marseille","lat":43.30929,"lon":5.40143,"is_reserved":false,"is_disabled":false,"rental_uris":{"android":"levelo://app?vid=da73eeee-3e29-49aa-9428-1e84dbb61de4","ios":"levelo://app?vid=da73eeee-3e29-49aa-9428-1e84dbb61de4"},"vehicle_type_id":"4","last_reported":1733159277,"current_range_meters":16400,"station_id":"ce4bgvp2rcd13ifvqct0","pricing_plan_id":"cebpf4jnsgd1na2vs0mg"},{"bike_id":"1765576d-ad21-4bb0-85a8-4c7cde4f5294","system_id":"levelo_inurba_marseille","lat":43.29622,"lon":5.37151,"is_reserved":false,"is_disabled":true,"rental_uris":{"android":"levelo://app?vid=1765576d-ad21-4bb0-85a8-4c7cde4f5294","ios":"levelo://app?vid=1765576d-ad21-4bb0-85a8-4c7cde4f5294"},"vehicle_type_id":"4","last_reported":1733159277,"current_range_meters":9200,"station_id":"ce4bgnh2rcd13ifvqc0g","pricing_plan_id":"cebpf4jnsgd1na2vs0mg"},{"bike_id":"f14d1153-657b-478e-9ea5-75740c7bb469","system_id":"levelo_inurba_marseille","lat":43.2706,"lon":5.40258,"is_reserved":false,"is_disabled":false,"rental_uris":{"android":"levelo://app?vid=f14d1153-657b-478e-9ea5-75740c7bb469","ios":"levelo://app?vid=f14d1153-657b-478e-9ea5-75740c7bb469"},"vehicle_type_id":"4","last_reported":1733159277,"current_range_meters":15200,"station_id":"ce4bhk92rcd13ifvqgc0","pricing_plan_id":"cebpf4jnsgd1na2vs0mg"},{"bike_id":"65d23b83-ead9-450f-a3aa-fba7fed37848","system_id":"levelo_inurba_marseille","lat":43.28455,"lon":5.35888,"is_reserved":false,"is_disabled":true,"rental_uris":{"android":"levelo://app?vid=65d23b83-ead9-450f-a3aa-fba7fed37848","ios":"levelo://app?vid=65d23b83-ead9-450f-a3aa-fba7fed37848"},"vehicle_type_id":"4","last_reported":1733159277,"current_range_meters":0,"station_id":"ce4bhah2rcd13ifvqei0","pricing_plan_id":"cebpf4jnsgd1na2vs0mg"},{"bike_id":"ab648af1-44fe-4601-8535-7560b069d3e3","system_id":"levelo_inurba_marseille","lat":43.30607,"lon":5.37221,"is_reserved":false,"is_disabled":false,"rental_uris":{"android":"levelo://app?vid=ab648af1-44fe-4601-8535-7560b069d3e3","ios":"levelo://app?vid=ab648af1-44fe-4601-8535-7560b069d3e3"},"vehicle_type_id":"4","last_reported":1733159277,"current_range_meters":27600,"station_id":"ce4bgqh2rcd13ifvqc4g","pricing_plan_id":"cebpf4jnsgd1na2vs0mg"},{"bike_id":"91e0619d-9262-4274-9b85-caaf77faff4f","system_id":"levelo_inurba_marseille","lat":43.2925,"lon":5.3845,"is_reserved":false,"is_disabled":false,"rental_uris":{"android":"levelo://app?vid=91e0619d-9262-4274-9b85-caaf77faff4f","ios":"levelo://app?vid=91e0619d-9262-4274-9b85-caaf77faff4f"},"vehicle_type_id":"4","last_reported":1733159277,"current_range_meters":15200,"station_id":"ce4bh692rcd13ifvqea0","pricing_plan_id":"cebpf4jnsgd1na2vs0mg"},{"bike_id":"002548be-3ab8-4aaa-83d8-775f32e30876","system_id":"levelo_inurba_marseille","lat":43.2987,"lon":5.38905,"is_reserved":false,"is_disabled":false,"rental_uris":{"android":"levelo://app?vid=002548be-3ab8-4aaa-83d8-775f32e30876","ios":"levelo://app?vid=002548be-3ab8-4aaa-83d8-775f32e30876"},"vehicle_type_id":"4","last_reported":1733159277,"current_range_meters":30000,"station_id":"ce4bh392rcd13ifvqdl0","pricing_plan_id":"cebpf4jnsgd1na2vs0mg"},{"bike_id":"de9fae33-eb2b-4ab2-b626-494bb9245131","system_id":"levelo_inurba_marseille","lat":43.30613,"lon":5.37237,"is_reserved":false,"is_disabled":false,"rental_uris":{"android":"levelo://app?vid=de9fae33-eb2b-4ab2-b626-494bb9245131","ios":"levelo://app?vid=de9fae33-eb2b-4ab2-b626-494bb9245131"},"vehicle_type_id":"4","last_reported":1733159277,"current_range_meters":29600,"station_id":"ce4bgqh2rcd13ifvqc4g","pricing_plan_id":"cebpf4jnsgd1na2vs0mg"},{"bike_id":"acac69db-e559-4095-91fc-619558388874","system_id":"levelo_inurba_marseille","lat":43.29258,"lon":5.38447,"is_reserved":false,"is_disabled":false,"rental_uris":{"android":"levelo://app?vid=acac69db-e559-4095-91fc-619558388874","ios":"levelo://app?vid=acac69db-e559-4095-91fc-619558388874"},"vehicle_type_id":"4","last_reported":1733159277,"current_range_meters":26800,"station_id":"ce4bh692rcd13ifvqea0","pricing_plan_id":"cebpf4jnsgd1na2vs0mg"},{"bike_id":"fbea491b-7a53-4808-8ebe-d322f1f74651","system_id":"levelo_inurba_marseille","lat":43.27377,"lon":5.36247,"is_reserved":false,"is_disabled":true,"rental_uris":{"android":"levelo://app?vid=fbea491b-7a53-4808-8ebe-d322f1f74651","ios":"levelo://app?vid=fbea491b-7a53-4808-8ebe-d322f1f74651"},"vehicle_type_id":"4","last_reported":1733159277,"current_range_meters":0,"station_id":"ce4bhbh2rcd13ifvqeo0","pricing_plan_id":"cebpf4jnsgd1na2vs0mg"},{"bike_id":"ce7dd36e-7854-4ef2-96f6-1e4edaba1aec","system_id":"levelo_inurba_marseille","lat":43.26685,"lon":5.38272,"is_reserved":false,"is_disabled":true,"rental_uris":{"android":"levelo://app?vid=ce7dd36e-7854-4ef2-96f6-1e4edaba1aec","ios":"levelo://app?vid=ce7dd36e-7854-4ef2-96f6-1e4edaba1aec"},"vehicle_type_id":"4","last_reported":1733159277,"current_range_meters":32800,"station_id":"ce4bhg92rcd13ifvqf90","pricing_plan_id":"cebpf4jnsgd1na2vs0mg"},{"bike_id":"196c653b-5e9c-47f8-a71a-d3aa9e42f5b7","system_id":"levelo_inurba_marseille","lat":43.29255,"lon":5.40915,"is_reserved":false,"is_disabled":false,"rental_uris":{"android":"levelo://app?vid=196c653b-5e9c-47f8-a71a-d3aa9e42f5b7","ios":"levelo://app?vid=196c653b-5e9c-47f8-a71a-d3aa9e42f5b7"},"vehicle_type_id":"4","last_reported":1733159277,"current_range_meters":30400,"station_id":"ce4bh192rcd13ifvqdc0","pricing_plan_id":"cebpf4jnsgd1na2vs0mg"},{"bike_id":"884007ec-b710-40bc-b43d-d0857fdb6830","system_id":"levelo_inurba_marseille","lat":43.2978,"lon":5.38058,"is_reserved":false,"is_disabled":false,"rental_uris":{"android":"levelo://app?vid=884007ec-b710-40bc-b43d-d0857fdb6830","ios":"levelo://app?vid=884007ec-b710-40bc-b43d-d0857fdb6830"},"vehicle_type_id":"4","last_reported":1733159277,"current_range_meters":3200,"station_id":"ce4bgip2rcd13ifvqbb0","pricing_plan_id":"cebpf4jnsgd1na2vs0mg"},{"bike_id":"a6fcf14f-e057-40f5-8c35-9e32f79140fc","system_id":"levelo_inurba_marseille","lat":43.23175,"lon":5.39988,"is_reserved":false,"is_disabled":false,"rental_uris":{"android":"levelo://app?vid=a6fcf14f-e057-40f5-8c35-9e32f79140fc","ios":"levelo://app?vid=a6fcf14f-e057-40f5-8c35-9e32f79140fc"},"vehicle_type_id":"4","last_reported":1733159277,"current_range_meters":11200,"station_id":"ce4bhn12rcd13ifvqgqg","pricing_plan_id":"cebpf4jnsgd1na2vs0mg"},{"bike_id":"6b5625c7-7481-4493-960e-8cc99ee50b4b","system_id":"levelo_inurba_marseille","lat":43.2869,"lon":5.37395,"is_reserved":false,"is_disabled":false,"rental_uris":{"android":"levelo://app?vid=6b5625c7-7481-4493-960e-8cc99ee50b4b","ios":"levelo://app?vid=6b5625c7-7481-4493-960e-8cc99ee50b4b"},"vehicle_type_id":"4","last_reported":1733159277,"current_range_meters":10800,"station_id":"ce4bh3p2rcd13ifvqdq0","pricing_plan_id":"cebpf4jnsgd1na2vs0mg"},{"bike_id":"a51eaee3-6d45-4a0f-8913-08bf9c6d8655","system_id":"levelo_inurba_marseille","lat":43.2942,"lon":5.38617,"is_reserved":false,"is_disabled":false,"rental_uris":{"android":"levelo://app?vid=a51eaee3-6d45-4a0f-8913-08bf9c6d8655","ios":"levelo://app?vid=a51eaee3-6d45-4a0f-8913-08bf9c6d8655"},"vehicle_type_id":"4","last_reported":1733159277,"current_range_meters":36000,"station_id":"ce4bh2h2rcd13ifvqdh0","pricing_plan_id":"cebpf4jnsgd1na2vs0mg"},{"bike_id":"342df896-e414-46ef-9f7c-cf3806337fc2","system_id":"levelo_inurba_marseille","lat":43.26064,"lon":5.39397,"is_reserved":false,"is_disabled":false,"rental_uris":{"android":"levelo://app?vid=342df896-e414-46ef-9f7c-cf3806337fc2","ios":"levelo://app?vid=342df896-e414-46ef-9f7c-cf3806337fc2"},"vehicle_type_id":"4","last_reported":1733159277,"current_range_meters":34000,"station_id":"ce4bhh92rcd13ifvqfj0","pricing_plan_id":"cebpf4jnsgd1na2vs0mg"},{"bike_id":"79c8ea6d-5102-4a1e-b941-afdabc095945","system_id":"levelo_inurba_marseille","lat":43.29067,"lon":5.38337,"is_reserved":false,"is_disabled":true,"rental_uris":{"android":"levelo://app?vid=79c8ea6d-5102-4a1e-b941-afdabc095945","ios":"levelo://app?vid=79c8ea6d-5102-4a1e-b941-afdabc095945"},"vehicle_type_id":"4","last_reported":1733159277,"current_range_meters":28400,"station_id":"","pricing_plan_id":"cebpf4jnsgd1na2vs0mg"},{"bike_id":"072d616d-73ce-43a5-a0c5-7f5366897302","system_id":"levelo_inurba_marseille","lat":43.2979,"lon":5.38115,"is_reserved":false,"is_disabled":true,"rental_uris":{"android":"levelo://app?vid=072d616d-73ce-43a5-a0c5-7f5366897302","ios":"levelo://app?vid=072d616d-73ce-43a5-a0c5-7f5366897302"},"vehicle_type_id":"4","last_reported":1733159277,"current_range_meters":38000,"station_id":"ce4bgip2rcd13ifvqbb0","pricing_plan_id":"cebpf4jnsgd1na2vs0mg"},{"bike_id":"691fee9c-3068-426e-a5fb-8cb61b1041ce","system_id":"levelo_inurba_marseille","lat":43.28403,"lon":5.37513,"is_reserved":false,"is_disabled":false,"rental_uris":{"android":"levelo://app?vid=691fee9c-3068-426e-a5fb-8cb61b1041ce","ios":"levelo://app?vid=691fee9c-3068-426e-a5fb-8cb61b1041ce"},"vehicle_type_id":"4","last_reported":1733159277,"current_range_meters":30000,"station_id":"ce4bh412rcd13ifvqds0","pricing_plan_id":"cebpf4jnsgd1na2vs0mg"},{"bike_id":"20dba706-1e05-4ffc-ab13-4859fcdabff2","system_id":"levelo_inurba_marseille","lat":43.27831,"lon":5.3921,"is_reserved":false,"is_disabled":false,"rental_uris":{"android":"levelo://app?vid=20dba706-1e05-4ffc-ab13-4859fcdabff2","ios":"levelo://app?vid=20dba706-1e05-4ffc-ab13-4859fcdabff2"},"vehicle_type_id":"4","last_reported":1733159277,"current_range_meters":14800,"station_id":"ce4bhjp2rcd13ifvqga0","pricing_plan_id":"cebpf4jnsgd1na2vs0mg"},{"bike_id":"58745024-055b-4c1b-b90f-3161671a49a0","system_id":"levelo_inurba_marseille","lat":43.25792,"lon":5.41043,"is_reserved":false,"is_disabled":true,"rental_uris":{"android":"levelo://app?vid=58745024-055b-4c1b-b90f-3161671a49a0","ios":"levelo://app?vid=58745024-055b-4c1b-b90f-3161671a49a0"},"vehicle_type_id":"4","last_reported":1733159277,"current_range_meters":0,"station_id":"ce4bhkp2rcd13ifvqgd0","pricing_plan_id":"cebpf4jnsgd1na2vs0mg"},{"bike_id":"a4b9e425-64b8-4ce2-a5ab-5fcc5d1230a4","system_id":"levelo_inurba_marseille","lat":43.3211,"lon":5.36771,"is_reserved":false,"is_disabled":false,"rental_uris":{"android":"levelo://app?vid=a4b9e425-64b8-4ce2-a5ab-5fcc5d1230a4","ios":"levelo://app?vid=a4b9e425-64b8-4ce2-a5ab-5fcc5d1230a4"},"vehicle_type_id":"4","last_reported":1733159277,"current_range_meters":16400,"station_id":"ce4bhrh2rcd13ifvqhug","pricing_plan_id":"cebpf4jnsgd1na2vs0mg"},{"bike_id":"2bcee0a3-6161-4327-a343-7c8d8d06983b","system_id":"levelo_inurba_marseille","lat":43.28654,"lon":5.36359,"is_reserved":false,"is_disabled":false,"rental_uris":{"android":"levelo://app?vid=2bcee0a3-6161-4327-a343-7c8d8d06983b","ios":"levelo://app?vid=2bcee0a3-6161-4327-a343-7c8d8d06983b"},"vehicle_type_id":"4","last_reported":1733159277,"current_range_meters":20000,"station_id":"ce4bhah2rcd13ifvqej0","pricing_plan_id":"cebpf4jnsgd1na2vs0mg"},{"bike_id":"03006c7c-3951-4569-a995-2c76158304e1","system_id":"levelo_inurba_marseille","lat":43.30295,"lon":5.3921,"is_reserved":false,"is_disabled":false,"rental_uris":{"android":"levelo://app?vid=03006c7c-3951-4569-a995-2c76158304e1","ios":"levelo://app?vid=03006c7c-3951-4569-a995-2c76158304e1"},"vehicle_type_id":"4","last_reported":1733159277,"current_range_meters":28000,"station_id":"ce4bgkh2rcd13ifvqbk0","pricing_plan_id":"cebpf4jnsgd1na2vs0mg"},{"bike_id":"a1b6114f-a1e8-478f-b3d0-43518b7184c5","system_id":"levelo_inurba_marseille","lat":43.309235,"lon":5.40141,"is_reserved":false,"is_disabled":false,"rental_uris":{"android":"levelo://app?vid=a1b6114f-a1e8-478f-b3d0-43518b7184c5","ios":"levelo://app?vid=a1b6114f-a1e8-478f-b3d0-43518b7184c5"},"vehicle_type_id":"4","last_reported":1733159277,"current_range_meters":16000,"station_id":"ce4bgvp2rcd13ifvqct0","pricing_plan_id":"cebpf4jnsgd1na2vs0mg"},{"bike_id":"216616ff-f59a-4303-9300-a50b08bc08b0","system_id":"levelo_inurba_marseille","lat":43.30296,"lon":5.39197,"is_reserved":false,"is_disabled":true,"rental_uris":{"android":"levelo://app?vid=216616ff-f59a-4303-9300-a50b08bc08b0","ios":"levelo://app?vid=216616ff-f59a-4303-9300-a50b08bc08b0"},"vehicle_type_id":"4","last_reported":1733159277,"current_range_meters":6800,"station_id":"ce4bgkh2rcd13ifvqbk0","pricing_plan_id":"cebpf4jnsgd1na2vs0mg"},{"bike_id":"cf411c2a-cc80-4aeb-9c99-a3d88fef5d8f","system_id":"levelo_inurba_marseille","lat":43.29603,"lon":5.37723,"is_reserved":false,"is_disabled":true,"rental_uris":{"android":"levelo://app?vid=cf411c2a-cc80-4aeb-9c99-a3d88fef5d8f","ios":"levelo://app?vid=cf411c2a-cc80-4aeb-9c99-a3d88fef5d8f"},"vehicle_type_id":"4","last_reported":1733159277,"current_range_meters":12800,"station_id":"ce4bgi92rcd13ifvqb90","pricing_plan_id":"cebpf4jnsgd1na2vs0mg"},{"bike_id":"d44b0368-00be-4d57-a135-fbc6d4303bca","system_id":"levelo_inurba_marseille","lat":43.26687,"lon":5.38274,"is_reserved":false,"is_disabled":true,"rental_uris":{"android":"levelo://app?vid=d44b0368-00be-4d57-a135-fbc6d4303bca","ios":"levelo://app?vid=d44b0368-00be-4d57-a135-fbc6d4303bca"},"vehicle_type_id":"4","last_reported":1733159277,"current_range_meters":11600,"station_id":"ce4bhg92rcd13ifvqf90","pricing_plan_id":"cebpf4jnsgd1na2vs0mg"},{"bike_id":"b6d6b07e-4688-45f1-857e-88e0c9f71088","system_id":"levelo_inurba_marseille","lat":43.29565,"lon":5.375,"is_reserved":false,"is_disabled":true,"rental_uris":{"android":"levelo://app?vid=b6d6b07e-4688-45f1-857e-88e0c9f71088","ios":"levelo://app?vid=b6d6b07e-4688-45f1-857e-88e0c9f71088"},"vehicle_type_id":"4","last_reported":1733159277,"current_range_meters":36800,"station_id":"ce4bgh92rcd13ifvqb50","pricing_plan_id":"cebpf4jnsgd1na2vs0mg"},{"bike_id":"be490ce8-38ec-4505-8943-3aa66f28c593","system_id":"levelo_inurba_marseille","lat":43.25874,"lon":5.39904,"is_reserved":false,"is_disabled":false,"rental_uris":{"android":"levelo://app?vid=be490ce8-38ec-4505-8943-3aa66f28c593","ios":"levelo://app?vid=be490ce8-38ec-4505-8943-3aa66f28c593"},"vehicle_type_id":"4","last_reported":1733159277,"current_range_meters":28800,"station_id":"ce4bhl92rcd13ifvqghg","pricing_plan_id":"cebpf4jnsgd1na2vs0mg"},{"bike_id":"e9e7398b-e7d9-4b3e-96c1-8b827c7b537e","system_id":"levelo_inurba_marseille","lat":43.30714,"lon":5.38195,"is_reserved":false,"is_disabled":false,"rental_uris":{"android":"levelo://app?vid=e9e7398b-e7d9-4b3e-96c1-8b827c7b537e","ios":"levelo://app?vid=e9e7398b-e7d9-4b3e-96c1-8b827c7b537e"},"vehicle_type_id":"4","last_reported":1733159277,"current_range_meters":30000,"station_id":"","pricing_plan_id":"cebpf4jnsgd1na2vs0mg"},{"bike_id":"9725ee5d-bd47-447d-bc60-8d3609137de3","system_id":"levelo_inurba_marseille","lat":43.29565,"lon":5.39956,"is_reserved":false,"is_disabled":true,"rental_uris":{"android":"levelo://app?vid=9725ee5d-bd47-447d-bc60-8d3609137de3","ios":"levelo://app?vid=9725ee5d-bd47-447d-bc60-8d3609137de3"},"vehicle_type_id":"4","last_reported":1733159277,"current_range_meters":1600,"station_id":"ce4bh312rcd13ifvqdj0","pricing_plan_id":"cebpf4jnsgd1na2vs0mg"},{"bike_id":"13b522c6-2451-4718-982c-f9ce1342f93f","system_id":"levelo_inurba_marseille","lat":43.28461,"lon":5.35886,"is_reserved":false,"is_disabled":false,"rental_uris":{"android":"levelo://app?vid=13b522c6-2451-4718-982c-f9ce1342f93f","ios":"levelo://app?vid=13b522c6-2451-4718-982c-f9ce1342f93f"},"vehicle_type_id":"4","last_reported":1733159277,"current_range_meters":27600,"station_id":"ce4bhah2rcd13ifvqei0","pricing_plan_id":"cebpf4jnsgd1na2vs0mg"},{"bike_id":"9f6372a6-065a-4e4e-a232-8f126a87f16a","system_id":"levelo_inurba_marseille","lat":43.2792,"lon":5.39575,"is_reserved":false,"is_disabled":false,"rental_uris":{"android":"levelo://app?vid=9f6372a6-065a-4e4e-a232-8f126a87f16a","ios":"levelo://app?vid=9f6372a6-065a-4e4e-a232-8f126a87f16a"},"vehicle_type_id":"4","last_reported":1733159277,"current_range_meters":38800,"station_id":"ce4bhf92rcd13ifvqf40","pricing_plan_id":"cebpf4jnsgd1na2vs0mg"},{"bike_id":"c27578c6-1a29-4e6f-84f9-8cf84e38d611","system_id":"levelo_inurba_marseille","lat":43.30124,"lon":5.39865,"is_reserved":false,"is_disabled":false,"rental_uris":{"android":"levelo://app?vid=c27578c6-1a29-4e6f-84f9-8cf84e38d611","ios":"levelo://app?vid=c27578c6-1a29-4e6f-84f9-8cf84e38d611"},"vehicle_type_id":"4","last_reported":1733159277,"current_range_meters":38400,"station_id":"ce4bh0h2rcd13ifvqd40","pricing_plan_id":"cebpf4jnsgd1na2vs0mg"},{"bike_id":"971f64f0-0525-42bc-923c-87c42f7ec653","system_id":"levelo_inurba_marseille","lat":43.26206,"lon":5.3793,"is_reserved":false,"is_disabled":false,"rental_uris":{"android":"levelo://app?vid=971f64f0-0525-42bc-923c-87c42f7ec653","ios":"levelo://app?vid=971f64f0-0525-42bc-923c-87c42f7ec653"},"vehicle_type_id":"4","last_reported":1733159277,"current_range_meters":6800,"station_id":"ce4bhjp2rcd13ifvqg90","pricing_plan_id":"cebpf4jnsgd1na2vs0mg"},{"bike_id":"d1ffa682-d1a4-427e-959d-4c47f057ecd9","system_id":"levelo_inurba_marseille","lat":43.2589,"lon":5.39904,"is_reserved":false,"is_disabled":false,"rental_uris":{"android":"levelo://app?vid=d1ffa682-d1a4-427e-959d-4c47f057ecd9","ios":"levelo://app?vid=d1ffa682-d1a4-427e-959d-4c47f057ecd9"},"vehicle_type_id":"4","last_reported":1733159277,"current_range_meters":8400,"station_id":"ce4bhl92rcd13ifvqghg","pricing_plan_id":"cebpf4jnsgd1na2vs0mg"},{"bike_id":"7caca3ca-4ad5-4e41-ba66-df02bee491aa","system_id":"levelo_inurba_marseille","lat":43.29934,"lon":5.36539,"is_reserved":false,"is_disabled":true,"rental_uris":{"android":"levelo://app?vid=7caca3ca-4ad5-4e41-ba66-df02bee491aa","ios":"levelo://app?vid=7caca3ca-4ad5-4e41-ba66-df02bee491aa"},"vehicle_type_id":"4","last_reported":1733159277,"current_range_meters":8800,"station_id":"ce4bgm92rcd13ifvqbr0","pricing_plan_id":"cebpf4jnsgd1na2vs0mg"},{"bike_id":"f76e48f6-3306-4656-a4b4-640a6d3772c4","system_id":"levelo_inurba_marseille","lat":43.25093,"lon":5.39521,"is_reserved":false,"is_disabled":false,"rental_uris":{"android":"levelo://app?vid=f76e48f6-3306-4656-a4b4-640a6d3772c4","ios":"levelo://app?vid=f76e48f6-3306-4656-a4b4-640a6d3772c4"},"vehicle_type_id":"4","last_reported":1733159277,"current_range_meters":6400,"station_id":"ce4bhm12rcd13ifvqgkg","pricing_plan_id":"cebpf4jnsgd1na2vs0mg"},{"bike_id":"b5a03233-d31f-4598-84c4-07d6d6043f52","system_id":"levelo_inurba_marseille","lat":43.28157,"lon":5.4264,"is_reserved":false,"is_disabled":true,"rental_uris":{"android":"levelo://app?vid=b5a03233-d31f-4598-84c4-07d6d6043f52","ios":"levelo://app?vid=b5a03233-d31f-4598-84c4-07d6d6043f52"},"vehicle_type_id":"4","last_reported":1733159277,"current_range_meters":0,"station_id":"ce4bhnh2rcd13ifvqgug","pricing_plan_id":"cebpf4jnsgd1na2vs0mg"},{"bike_id":"5e160b8e-5c83-4423-b051-bd2cf577003d","system_id":"levelo_inurba_marseille","lat":43.23193,"lon":5.35547,"is_reserved":false,"is_disabled":false,"rental_uris":{"android":"levelo://app?vid=5e160b8e-5c83-4423-b051-bd2cf577003d","ios":"levelo://app?vid=5e160b8e-5c83-4423-b051-bd2cf577003d"},"vehicle_type_id":"4","last_reported":1733159277,"current_range_meters":38800,"station_id":"ce4bhu92rcd13ifvqi70","pricing_plan_id":"cebpf4jnsgd1na2vs0mg"},{"bike_id":"322cf6fe-0822-422b-95a4-35c4bd952f62","system_id":"levelo_inurba_marseille","lat":43.27181,"lon":5.40995,"is_reserved":false,"is_disabled":false,"rental_uris":{"android":"levelo://app?vid=322cf6fe-0822-422b-95a4-35c4bd952f62","ios":"levelo://app?vid=322cf6fe-0822-422b-95a4-35c4bd952f62"},"vehicle_type_id":"4","last_reported":1733159277,"current_range_meters":28000,"station_id":"ce4bhl12rcd13ifvqgf0","pricing_plan_id":"cebpf4jnsgd1na2vs0mg"},{"bike_id":"df282ba8-17eb-4fce-abd3-e1ba704dcef4","system_id":"levelo_inurba_marseille","lat":43.295723,"lon":5.399681,"is_reserved":false,"is_disabled":true,"rental_uris":{"android":"levelo://app?vid=df282ba8-17eb-4fce-abd3-e1ba704dcef4","ios":"levelo://app?vid=df282ba8-17eb-4fce-abd3-e1ba704dcef4"},"vehicle_type_id":"4","last_reported":1733159277,"current_range_meters":19200,"station_id":"ce4bh312rcd13ifvqdj0","pricing_plan_id":"cebpf4jnsgd1na2vs0mg"},{"bike_id":"1103644e-ff14-4e55-ac9e-23195a80e8cc","system_id":"levelo_inurba_marseille","lat":43.29585,"lon":5.37493,"is_reserved":false,"is_disabled":false,"rental_uris":{"android":"levelo://app?vid=1103644e-ff14-4e55-ac9e-23195a80e8cc","ios":"levelo://app?vid=1103644e-ff14-4e55-ac9e-23195a80e8cc"},"vehicle_type_id":"4","last_reported":1733159277,"current_range_meters":22800,"station_id":"ce4bgh92rcd13ifvqb50","pricing_plan_id":"cebpf4jnsgd1na2vs0mg"},{"bike_id":"6e08baef-a2bb-4b1d-9a19-01405d5ec8d0","system_id":"levelo_inurba_marseille","lat":43.25584,"lon":5.38245,"is_reserved":false,"is_disabled":false,"rental_uris":{"android":"levelo://app?vid=6e08baef-a2bb-4b1d-9a19-01405d5ec8d0","ios":"levelo://app?vid=6e08baef-a2bb-4b1d-9a19-01405d5ec8d0"},"vehicle_type_id":"4","last_reported":1733159277,"current_range_meters":37600,"station_id":"ce4bhih2rcd13ifvqfs0","pricing_plan_id":"cebpf4jnsgd1na2vs0mg"},{"bike_id":"7b843911-c95f-4942-acc8-5fe398c1adb2","system_id":"levelo_inurba_marseille","lat":43.26939,"lon":5.40256,"is_reserved":false,"is_disabled":false,"rental_uris":{"android":"levelo://app?vid=7b843911-c95f-4942-acc8-5fe398c1adb2","ios":"levelo://app?vid=7b843911-c95f-4942-acc8-5fe398c1adb2"},"vehicle_type_id":"4","last_reported":1733159277,"current_range_meters":39200,"station_id":"cjm6bp8fraef2m0cb0m0","pricing_plan_id":"cebpf4jnsgd1na2vs0mg"},{"bike_id":"21bd0b69-696e-4676-97c7-9e937111794f","system_id":"levelo_inurba_marseille","lat":43.31109,"lon":5.37767,"is_reserved":false,"is_disabled":false,"rental_uris":{"android":"levelo://app?vid=21bd0b69-696e-4676-97c7-9e937111794f","ios":"levelo://app?vid=21bd0b69-696e-4676-97c7-9e937111794f"},"vehicle_type_id":"4","last_reported":1733159277,"current_range_meters":36800,"station_id":"ce4bgt92rcd13ifvqcg0","pricing_plan_id":"cebpf4jnsgd1na2vs0mg"},{"bike_id":"b2b52eed-b6b0-423f-b350-b37dd95fe81c","system_id":"levelo_inurba_marseille","lat":43.29872,"lon":5.36277,"is_reserved":false,"is_disabled":false,"rental_uris":{"android":"levelo://app?vid=b2b52eed-b6b0-423f-b350-b37dd95fe81c","ios":"levelo://app?vid=b2b52eed-b6b0-423f-b350-b37dd95fe81c"},"vehicle_type_id":"4","last_reported":1733159277,"current_range_meters":38800,"station_id":"ce4bgpp2rcd13ifvqc3g","pricing_plan_id":"cebpf4jnsgd1na2vs0mg"},{"bike_id":"e63aa962-a242-44bd-8328-31cf6c0d9d3d","system_id":"levelo_inurba_marseille","lat":43.29307,"lon":5.37185,"is_reserved":false,"is_disabled":true,"rental_uris":{"android":"levelo://app?vid=e63aa962-a242-44bd-8328-31cf6c0d9d3d","ios":"levelo://app?vid=e63aa962-a242-44bd-8328-31cf6c0d9d3d"},"vehicle_type_id":"4","last_reported":1733159277,"current_range_meters":0,"station_id":"ce4bgh92rcd13ifvqb40","pricing_plan_id":"cebpf4jnsgd1na2vs0mg"},{"bike_id":"4b959530-7810-4702-b74a-a19678b70d2c","system_id":"levelo_inurba_marseille","lat":43.29183,"lon":5.39326,"is_reserved":false,"is_disabled":false,"rental_uris":{"android":"levelo://app?vid=4b959530-7810-4702-b74a-a19678b70d2c","ios":"levelo://app?vid=4b959530-7810-4702-b74a-a19678b70d2c"},"vehicle_type_id":"4","last_reported":1733159277,"current_range_meters":30400,"station_id":"ce4bh192rcd13ifvqdd0","pricing_plan_id":"cebpf4jnsgd1na2vs0mg"},{"bike_id":"ea3106cb-0d51-4c9d-a4ad-a91b724fe177","system_id":"levelo_inurba_marseille","lat":43.29568,"lon":5.39959,"is_reserved":false,"is_disabled":true,"rental_uris":{"android":"levelo://app?vid=ea3106cb-0d51-4c9d-a4ad-a91b724fe177","ios":"levelo://app?vid=ea3106cb-0d51-4c9d-a4ad-a91b724fe177"},"vehicle_type_id":"4","last_reported":1733159277,"current_range_meters":31200,"station_id":"ce4bh312rcd13ifvqdj0","pricing_plan_id":"cebpf4jnsgd1na2vs0mg"},{"bike_id":"7162aa44-86d7-4628-93e4-c9d3f5365eb9","system_id":"levelo_inurba_marseille","lat":43.29631,"lon":5.40028,"is_reserved":false,"is_disabled":true,"rental_uris":{"android":"levelo://app?vid=7162aa44-86d7-4628-93e4-c9d3f5365eb9","ios":"levelo://app?vid=7162aa44-86d7-4628-93e4-c9d3f5365eb9"},"vehicle_type_id":"4","last_reported":1733159277,"current_range_meters":36800,"station_id":"","pricing_plan_id":"cebpf4jnsgd1na2vs0mg"},{"bike_id":"8564107b-4c5f-48f9-a8fe-2cf2332c218d","system_id":"levelo_inurba_marseille","lat":43.28426,"lon":5.34989,"is_reserved":false,"is_disabled":true,"rental_uris":{"android":"levelo://app?vid=8564107b-4c5f-48f9-a8fe-2cf2332c218d","ios":"levelo://app?vid=8564107b-4c5f-48f9-a8fe-2cf2332c218d"},"vehicle_type_id":"4","last_reported":1733159277,"current_range_meters":27600,"station_id":"ce4bhbh2rcd13ifvqepg","pricing_plan_id":"cebpf4jnsgd1na2vs0mg"},{"bike_id":"9eb19c11-fdfe-4984-aa2c-7744cd497bd8","system_id":"levelo_inurba_marseille","lat":43.28001,"lon":5.41663,"is_reserved":false,"is_disabled":false,"rental_uris":{"android":"levelo://app?vid=9eb19c11-fdfe-4984-aa2c-7744cd497bd8","ios":"levelo://app?vid=9eb19c11-fdfe-4984-aa2c-7744cd497bd8"},"vehicle_type_id":"4","last_reported":1733159277,"current_range_meters":19200,"station_id":"ce4bho12rcd13ifvqh1g","pricing_plan_id":"cebpf4jnsgd1na2vs0mg"},{"bike_id":"da6a7a1d-e653-4950-af8c-8137b06f7d40","system_id":"levelo_inurba_marseille","lat":43.3004,"lon":5.37551,"is_reserved":false,"is_disabled":true,"rental_uris":{"android":"levelo://app?vid=da6a7a1d-e653-4950-af8c-8137b06f7d40","ios":"levelo://app?vid=da6a7a1d-e653-4950-af8c-8137b06f7d40"},"vehicle_type_id":"4","last_reported":1733159277,"current_range_meters":0,"station_id":"","pricing_plan_id":"cebpf4jnsgd1na2vs0mg"},{"bike_id":"06fe1b54-c289-4bef-bed8-d8d7c1bf22a3","system_id":"levelo_inurba_marseille","lat":43.26187,"lon":5.37934,"is_reserved":false,"is_disabled":false,"rental_uris":{"android":"levelo://app?vid=06fe1b54-c289-4bef-bed8-d8d7c1bf22a3","ios":"levelo://app?vid=06fe1b54-c289-4bef-bed8-d8d7c1bf22a3"},"vehicle_type_id":"4","last_reported":1733159277,"current_range_meters":38000,"station_id":"ce4bhjp2rcd13ifvqg90","pricing_plan_id":"cebpf4jnsgd1na2vs0mg"},{"bike_id":"e97b1f5d-c497-4582-a4fc-8ffbeb408077","system_id":"levelo_inurba_marseille","lat":43.30797,"lon":5.38142,"is_reserved":false,"is_disabled":false,"rental_uris":{"android":"levelo://app?vid=e97b1f5d-c497-4582-a4fc-8ffbeb408077","ios":"levelo://app?vid=e97b1f5d-c497-4582-a4fc-8ffbeb408077"},"vehicle_type_id":"4","last_reported":1733159277,"current_range_meters":15200,"station_id":"ce4bgt12rcd13ifvqce0","pricing_plan_id":"cebpf4jnsgd1na2vs0mg"},{"bike_id":"a18990a2-67af-4c14-a895-c4f391aeae74","system_id":"levelo_inurba_marseille","lat":43.31689,"lon":5.37596,"is_reserved":false,"is_disabled":false,"rental_uris":{"android":"levelo://app?vid=a18990a2-67af-4c14-a895-c4f391aeae74","ios":"levelo://app?vid=a18990a2-67af-4c14-a895-c4f391aeae74"},"vehicle_type_id":"4","last_reported":1733159277,"current_range_meters":8000,"station_id":"","pricing_plan_id":"cebpf4jnsgd1na2vs0mg"},{"bike_id":"a0b1dc2c-7dfb-4abb-9a44-121b348f52f7","system_id":"levelo_inurba_marseille","lat":43.29089,"lon":5.38157,"is_reserved":false,"is_disabled":false,"rental_uris":{"android":"levelo://app?vid=a0b1dc2c-7dfb-4abb-9a44-121b348f52f7","ios":"levelo://app?vid=a0b1dc2c-7dfb-4abb-9a44-121b348f52f7"},"vehicle_type_id":"4","last_reported":1733159277,"current_range_meters":38000,"station_id":"ce4bh512rcd13ifvqe2g","pricing_plan_id":"cebpf4jnsgd1na2vs0mg"},{"bike_id":"c707ecf5-e590-498e-936e-fff767f3e144","system_id":"levelo_inurba_marseille","lat":43.28616,"lon":5.35106,"is_reserved":false,"is_disabled":true,"rental_uris":{"android":"levelo://app?vid=c707ecf5-e590-498e-936e-fff767f3e144","ios":"levelo://app?vid=c707ecf5-e590-498e-936e-fff767f3e144"},"vehicle_type_id":"4","last_reported":1733159277,"current_range_meters":0,"station_id":"ce4bhch2rcd13ifvqeug","pricing_plan_id":"cebpf4jnsgd1na2vs0mg"},{"bike_id":"ec1a18ca-5455-4f6a-bb18-a56e1d4c4aae","system_id":"levelo_inurba_marseille","lat":43.29452,"lon":5.39761,"is_reserved":false,"is_disabled":true,"rental_uris":{"android":"levelo://app?vid=ec1a18ca-5455-4f6a-bb18-a56e1d4c4aae","ios":"levelo://app?vid=ec1a18ca-5455-4f6a-bb18-a56e1d4c4aae"},"vehicle_type_id":"4","last_reported":1733159277,"current_range_meters":17600,"station_id":"ce4bh3h2rcd13ifvqdo0","pricing_plan_id":"cebpf4jnsgd1na2vs0mg"},{"bike_id":"81ed743f-1fef-4ba4-9566-0f393bb38381","system_id":"levelo_inurba_marseille","lat":43.26215,"lon":5.37443,"is_reserved":false,"is_disabled":false,"rental_uris":{"android":"levelo://app?vid=81ed743f-1fef-4ba4-9566-0f393bb38381","ios":"levelo://app?vid=81ed743f-1fef-4ba4-9566-0f393bb38381"},"vehicle_type_id":"4","last_reported":1733159277,"current_range_meters":11200,"station_id":"ce4bhgp2rcd13ifvqfc0","pricing_plan_id":"cebpf4jnsgd1na2vs0mg"},{"bike_id":"b540acf6-b6ba-42a2-b7cc-d023baee122d","system_id":"levelo_inurba_marseille","lat":43.29977,"lon":5.3715,"is_reserved":false,"is_disabled":false,"rental_uris":{"android":"levelo://app?vid=b540acf6-b6ba-42a2-b7cc-d023baee122d","ios":"levelo://app?vid=b540acf6-b6ba-42a2-b7cc-d023baee122d"},"vehicle_type_id":"4","last_reported":1733159277,"current_range_meters":14800,"station_id":"ce4bgr92rcd13ifvqc7g","pricing_plan_id":"cebpf4jnsgd1na2vs0mg"},{"bike_id":"9b163be8-afc7-4609-aa61-e9b3a8cf5530","system_id":"levelo_inurba_marseille","lat":43.28413,"lon":5.37515,"is_reserved":false,"is_disabled":false,"rental_uris":{"android":"levelo://app?vid=9b163be8-afc7-4609-aa61-e9b3a8cf5530","ios":"levelo://app?vid=9b163be8-afc7-4609-aa61-e9b3a8cf5530"},"vehicle_type_id":"4","last_reported":1733159277,"current_range_meters":24000,"station_id":"ce4bh412rcd13ifvqds0","pricing_plan_id":"cebpf4jnsgd1na2vs0mg"},{"bike_id":"bd2c0458-3e43-4028-a8d1-2679ab146d1e","system_id":"levelo_inurba_marseille","lat":43.25585,"lon":5.3823,"is_reserved":false,"is_disabled":false,"rental_uris":{"android":"levelo://app?vid=bd2c0458-3e43-4028-a8d1-2679ab146d1e","ios":"levelo://app?vid=bd2c0458-3e43-4028-a8d1-2679ab146d1e"},"vehicle_type_id":"4","last_reported":1733159277,"current_range_meters":16800,"station_id":"ce4bhih2rcd13ifvqfs0","pricing_plan_id":"cebpf4jnsgd1na2vs0mg"},{"bike_id":"53c49f91-b461-492e-a085-09cd1efdb30c","system_id":"levelo_inurba_marseille","lat":43.2717,"lon":5.40995,"is_reserved":false,"is_disabled":false,"rental_uris":{"android":"levelo://app?vid=53c49f91-b461-492e-a085-09cd1efdb30c","ios":"levelo://app?vid=53c49f91-b461-492e-a085-09cd1efdb30c"},"vehicle_type_id":"4","last_reported":1733159277,"current_range_meters":38800,"station_id":"ce4bhl12rcd13ifvqgf0","pricing_plan_id":"cebpf4jnsgd1na2vs0mg"},{"bike_id":"d9600396-5d38-4428-bbf6-dcf2c609d4d4","system_id":"levelo_inurba_marseille","lat":43.23962,"lon":5.36629,"is_reserved":false,"is_disabled":false,"rental_uris":{"android":"levelo://app?vid=d9600396-5d38-4428-bbf6-dcf2c609d4d4","ios":"levelo://app?vid=d9600396-5d38-4428-bbf6-dcf2c609d4d4"},"vehicle_type_id":"4","last_reported":1733159277,"current_range_meters":14400,"station_id":"ce4bhi12rcd13ifvqfp0","pricing_plan_id":"cebpf4jnsgd1na2vs0mg"},{"bike_id":"8029ff0a-b36d-461b-a2df-09a12e4b6b7d","system_id":"levelo_inurba_marseille","lat":43.28337,"lon":5.381,"is_reserved":false,"is_disabled":false,"rental_uris":{"android":"levelo://app?vid=8029ff0a-b36d-461b-a2df-09a12e4b6b7d","ios":"levelo://app?vid=8029ff0a-b36d-461b-a2df-09a12e4b6b7d"},"vehicle_type_id":"4","last_reported":1733159277,"current_range_meters":38800,"station_id":"ce4bh412rcd13ifvqdr0","pricing_plan_id":"cebpf4jnsgd1na2vs0mg"},{"bike_id":"d535747b-69d2-401e-8d26-0c3aa8c05d51","system_id":"levelo_inurba_marseille","lat":43.29915,"lon":5.38552,"is_reserved":false,"is_disabled":false,"rental_uris":{"android":"levelo://app?vid=d535747b-69d2-401e-8d26-0c3aa8c05d51","ios":"levelo://app?vid=d535747b-69d2-401e-8d26-0c3aa8c05d51"},"vehicle_type_id":"4","last_reported":1733159277,"current_range_meters":20800,"station_id":"","pricing_plan_id":"cebpf4jnsgd1na2vs0mg"},{"bike_id":"d5cc1217-d3cf-45a7-b63b-9a0ca9e51ab5","system_id":"levelo_inurba_marseille","lat":43.23177,"lon":5.39985,"is_reserved":false,"is_disabled":false,"rental_uris":{"android":"levelo://app?vid=d5cc1217-d3cf-45a7-b63b-9a0ca9e51ab5","ios":"levelo://app?vid=d5cc1217-d3cf-45a7-b63b-9a0ca9e51ab5"},"vehicle_type_id":"4","last_reported":1733159277,"current_range_meters":30000,"station_id":"ce4bhn12rcd13ifvqgqg","pricing_plan_id":"cebpf4jnsgd1na2vs0mg"},{"bike_id":"3a853398-6c53-4ce0-a326-f8bbaf11848c","system_id":"levelo_inurba_marseille","lat":43.26033,"lon":5.37545,"is_reserved":false,"is_disabled":false,"rental_uris":{"android":"levelo://app?vid=3a853398-6c53-4ce0-a326-f8bbaf11848c","ios":"levelo://app?vid=3a853398-6c53-4ce0-a326-f8bbaf11848c"},"vehicle_type_id":"4","last_reported":1733159277,"current_range_meters":38800,"station_id":"ce4bhgh2rcd13ifvqfa0","pricing_plan_id":"cebpf4jnsgd1na2vs0mg"},{"bike_id":"c6d4b4fa-0956-4779-9d4b-fa84e02c415b","system_id":"levelo_inurba_marseille","lat":43.28457,"lon":5.3918,"is_reserved":false,"is_disabled":false,"rental_uris":{"android":"levelo://app?vid=c6d4b4fa-0956-4779-9d4b-fa84e02c415b","ios":"levelo://app?vid=c6d4b4fa-0956-4779-9d4b-fa84e02c415b"},"vehicle_type_id":"4","last_reported":1733159277,"current_range_meters":38800,"station_id":"ce4bhoh2rcd13ifvqh5g","pricing_plan_id":"cebpf4jnsgd1na2vs0mg"},{"bike_id":"98017d21-023e-443e-9306-2f9935617255","system_id":"levelo_inurba_marseille","lat":43.24661,"lon":5.38164,"is_reserved":false,"is_disabled":true,"rental_uris":{"android":"levelo://app?vid=98017d21-023e-443e-9306-2f9935617255","ios":"levelo://app?vid=98017d21-023e-443e-9306-2f9935617255"},"vehicle_type_id":"4","last_reported":1733159277,"current_range_meters":400,"station_id":"ce4bhih2rcd13ifvqfr0","pricing_plan_id":"cebpf4jnsgd1na2vs0mg"},{"bike_id":"0432deda-7f56-46ef-a713-0fa6f42cc489","system_id":"levelo_inurba_marseille","lat":43.279163,"lon":5.395787,"is_reserved":false,"is_disabled":true,"rental_uris":{"android":"levelo://app?vid=0432deda-7f56-46ef-a713-0fa6f42cc489","ios":"levelo://app?vid=0432deda-7f56-46ef-a713-0fa6f42cc489"},"vehicle_type_id":"4","last_reported":1733159277,"current_range_meters":800,"station_id":"ce4bhf92rcd13ifvqf40","pricing_plan_id":"cebpf4jnsgd1na2vs0mg"},{"bike_id":"b8afe9da-9a3d-438c-8fbb-80e14d663770","system_id":"levelo_inurba_marseille","lat":43.29522,"lon":5.39026,"is_reserved":false,"is_disabled":true,"rental_uris":{"android":"levelo://app?vid=b8afe9da-9a3d-438c-8fbb-80e14d663770","ios":"levelo://app?vid=b8afe9da-9a3d-438c-8fbb-80e14d663770"},"vehicle_type_id":"4","last_reported":1733159277,"current_range_meters":24800,"station_id":"ce4bh3p2rcd13ifvqdp0","pricing_plan_id":"cebpf4jnsgd1na2vs0mg"},{"bike_id":"07d188ad-3c1c-4134-ad54-8aaf92f1aa8f","system_id":"levelo_inurba_marseille","lat":43.30121,"lon":5.39852,"is_reserved":false,"is_disabled":false,"rental_uris":{"android":"levelo://app?vid=07d188ad-3c1c-4134-ad54-8aaf92f1aa8f","ios":"levelo://app?vid=07d188ad-3c1c-4134-ad54-8aaf92f1aa8f"},