{"last_updated":1761127922,"ttl":60,"version":"2.2","data":{"bikes":[{"bike_id":"23d2e327-9a1c-43f9-a1d7-2fca27e96f84","system_id":"levelo_inurba_marseille","lat":43.2735,"lon":5.415057,"is_reserved":false,"is_disabled":false,"rental_uris":{"android":"levelo://app?vid=23d2e327-9a1c-43f9-a1d7-2fca27e96f84","ios":"levelo://app?vid=23d2e327-9a1c-43f9-a1d7-2fca27e96f84"},"vehicle_type_id":"4","last_reported":1761127922,"current_range_meters":2800,"station_id":"","pricing_plan_id":"cebpf4jnsgd1na2vs0mg"},{"bike_id":"6d8da19b-0143-43ba-a2b6-b774a32597d4","system_id":"levelo_inurba_marseille","lat":43.2816,"lon":5.3476,"is_reserved":false,"is_disabled":false,"rental_uris":{"android":"levelo://app?vid=6d8da19b-0143-43ba-a2b6-b774a32597d4","ios":"levelo://app?vid=6d8da19b-0143-43ba-a2b6-b774a32597d4"},"vehicle_type_id":"4","last_reported":1761127922,"current_range_meters":3200,"station_id":"","pricing_plan_id":"cebpf4jnsgd1na2vs0mg"},{"bike_id":"32fe13f3-1998-41d4-a763-4eea85838a36","system_id":"levelo_inurba_marseille","lat":43.286073,"lon":5.37065,"is_reserved":false,"is_disabled":false,"rental_uris":{"android":"levelo://app?vid=32fe13f3-1998-41d4-a763-4eea85838a36","ios":"levelo://app?vid=32fe13f3-1998-41d4-a763-4eea85838a36"},"vehicle_type_id":"4","last_reported":1761127922,"current_range_meters":3600,"station_id":"ce4bht12rcd13ifvqi60","pricing_plan_id":"cebpf4jnsgd1na2vs0mg"},{"bike_id":"98490d11-db71-4361-ab96-f0addd49d050","system_id":"levelo_inurba_marseille","lat":43.300004,"lon":5.373558,"is_reserved":false,"is_disabled":false,"rental_uris":{"android":"levelo://app?vid=98490d11-db71-4361-ab96-f0addd49d050","ios":"levelo://app?vid=98490d11-db71-4361-ab96-f0addd49d050"},"vehicle_type_id":"4","last_reported":1761127922,"current_range_meters":3600,"station_id":"","pricing_plan_id":"cebpf4jnsgd1na2vs0mg"},{"bike_id":"56808f09-5a62-403b-b8e3-97d89aaf3152","system_id":"levelo_inurba_marseille","lat":43.29806,"lon":5.37913,"is_reserved":false,"is_disabled":false,"rental_uris":{"android":"levelo://app?vid=56808f09-5a62-403b-b8e3-97d89aaf3152","ios":"levelo://app?vid=56808f09-5a62-403b-b8e3-97d89aaf3152"},"vehicle_type_id":"4","last_reported":1761127922,"current_range_meters":4000,"station_id":"","pricing_plan_id":"cebpf4jnsgd1na2vs0mg"},{"bike_id":"3b1b2127-2a9b-43c8-9a20-0a4ad1a09169","system_id":"levelo_inurba_marseille","lat":43.23193,"lon":5.35559,"is_reserved":false,"is_disabled":false,"rental_uris":{"android":"levelo://app?vid=3b1b2127-2a9b-43c8-9a20-0a4ad1a09169","ios":"levelo://app?vid=3b1b2127-2a9b-43c8-9a20-0a4ad1a09169"},"vehicle_type_id":"4","last_reported":1761127922,"current_range_meters":4400,"station_id":"ce4bhu92rcd13ifvqi70","pricing_plan_id":"cebpf4jnsgd1na2vs0mg"},{"bike_id":"8dba2da0-3f3c-4ab6-8ee9-655b1b754077","system_id":"levelo_inurba_marseille","lat":43.28697,"lon":5.39979,"is_reserved":false,"is_disabled":false,"rental_uris":{"android":"levelo://app?vid=8dba2da0-3f3c-4ab6-8ee9-655b1b754077","ios":"levelo://app?vid=8dba2da0-3f3c-4ab6-8ee9-655b1b754077"},"vehicle_type_id":"4","last_reported":1761127922,"current_range_meters":4800,"station_id":"ce4bho92rcd13ifvqh3g","pricing_plan_id":"cebpf4jnsgd1na2vs0mg"},{"bike_id":"e203b58f-4479-47a2-904b-9e0dd9daf428","system_id":"levelo_inurba_marseille","lat":43.301492,"lon":5.38082,"is_reserved":false,"is_disabled":false,"rental_uris":{"android":"levelo://app?vid=e203b58f-4479-47a2-904b-9e0dd9daf428","ios":"levelo://app?vid=e203b58f-4479-47a2-904b-9e0dd9daf428"},"vehicle_type_id":"4","last_reported":1761127922,"current_range_meters":4800,"station_id":"ce4bgjp2rcd13ifvqbh0","pricing_plan_id":"cebpf4jnsgd1na2vs0mg"},{"bike_id":"8952652d-181d-4647-99e0-dd7c8dc8f72d","system_id":"levelo_inurba_marseille","lat":43.28545,"lon":5.44107,"is_reserved":false,"is_disabled":false,"rental_uris":{"android":"levelo://app?vid=8952652d-181d-4647-99e0-dd7c8dc8f72d","ios":"levelo://app?vid=8952652d-181d-4647-99e0-dd7c8dc8f72d"},"vehicle_type_id":"4","last_reported":1761127922,"current_range_meters":5600,"station_id":"st_d3j3df2ikq2c7380ej80","pricing_plan_id":"cebpf4jnsgd1na2vs0mg"},{"bike_id":"4154d683-e72a-4592-9e60-2a3872848698","system_id":"levelo_inurba_marseille","lat":43.28475,"lon":5.48401,"is_reserved":false,"is_disabled":false,"rental_uris":{"android":"levelo://app?vid=4154d683-e72a-4592-9e60-2a3872848698","ios":"levelo://app?vid=4154d683-e72a-4592-9e60-2a3872848698"},"vehicle_type_id":"4","last_reported":1761127922,"current_range_meters":6000,"station_id":"st_d3jp68qikq2c7381ktn0","pricing_plan_id":"cebpf4jnsgd1na2vs0mg"},{"bike_id":"960ff999-9f8f-4091-8871-448af89fbbac","system_id":"levelo_inurba_marseille","lat":43.29171,"lon":5.37163,"is_reserved":false,"is_disabled":false,"rental_uris":{"android":"levelo://app?vid=960ff999-9f8f-4091-8871-448af89fbbac","ios":"levelo://app?vid=960ff999-9f8f-4091-8871-448af89fbbac"},"vehicle_type_id":"4","last_reported":1761127922,"current_range_meters":6000,"station_id":"ce4bha92rcd13ifvqeh0","pricing_plan_id":"cebpf4jnsgd1na2vs0mg"},{"bike_id":"a870d8c4-d388-4bd8-a292-a2b1665e7e0e","system_id":"levelo_inurba_marseille","lat":43.304308,"lon":5.405861,"is_reserved":false,"is_disabled":false,"rental_uris":{"android":"levelo://app?vid=a870d8c4-d388-4bd8-a292-a2b1665e7e0e","ios":"levelo://app?vid=a870d8c4-d388-4bd8-a292-a2b1665e7e0e"},"vehicle_type_id":"4","last_reported":1761127922,"current_range_meters":6000,"station_id":"","pricing_plan_id":"cebpf4jnsgd1na2vs0mg"},{"bike_id":"a2e131f8-3c9f-478a-b394-6a9db5f46a7a","system_id":"levelo_inurba_marseille","lat":43.30131,"lon":5.37428,"is_reserved":false,"is_disabled":true,"rental_uris":{"android":"levelo://app?vid=a2e131f8-3c9f-478a-b394-6a9db5f46a7a","ios":"levelo://app?vid=a2e131f8-3c9f-478a-b394-6a9db5f46a7a"},"vehicle_type_id":"4","last_reported":1761127922,"current_range_meters":6000,"station_id":"ce4bgs92rcd13ifvqcc0","pricing_plan_id":"cebpf4jnsgd1na2vs0mg"},{"bike_id":"4848504e-99fa-45b0-af2a-b57f777b75d3","system_id":"levelo_inurba_marseille","lat":43.272098,"lon":5.391818,"is_reserved":false,"is_disabled":false,"rental_uris":{"android":"levelo://app?vid=4848504e-99fa-45b0-af2a-b57f777b75d3","ios":"levelo://app?vid=4848504e-99fa-45b0-af2a-b57f777b75d3"},"vehicle_type_id":"4","last_reported":1761127922,"current_range_meters":6000,"station_id":"ce4bhhp2rcd13ifvqfm0","pricing_plan_id":"cebpf4jnsgd1na2vs0mg"},{"bike_id":"0052da0e-9c7e-43cc-808c-a6ed1bdbba43","system_id":"levelo_inurba_marseille","lat":43.279677,"lon":5.387203,"is_reserved":false,"is_disabled":false,"rental_uris":{"android":"levelo://app?vid=0052da0e-9c7e-43cc-808c-a6ed1bdbba43","ios":"levelo://app?vid=0052da0e-9c7e-43cc-808c-a6ed1bdbba43"},"vehicle_type_id":"4","last_reported":1761127922,"current_range_meters":6000,"station_id":"ce4bhg12rcd13ifvqf80","pricing_plan_id":"cebpf4jnsgd1na2vs0mg"},{"bike_id":"665a8423-7648-49bd-ad15-b9838a14a79d","system_id":"levelo_inurba_marseille","lat":43.29262,"lon":5.40901,"is_reserved":false,"is_disabled":false,"rental_uris":{"android":"levelo://app?vid=665a8423-7648-49bd-ad15-b9838a14a79d","ios":"levelo://app?vid=665a8423-7648-49bd-ad15-b9838a14a79d"},"vehicle_type_id":"4","last_reported":1761127922,"current_range_meters":6000,"station_id":"ce4bh192rcd13ifvqdc0","pricing_plan_id":"cebpf4jnsgd1na2vs0mg"},{"bike_id":"e7cb61d9-84d9-41c0-8427-00fc6a9e436b","system_id":"levelo_inurba_marseille","lat":43.31098,"lon":5.37539,"is_reserved":false,"is_disabled":false,"rental_uris":{"android":"levelo://app?vid=e7cb61d9-84d9-41c0-8427-00fc6a9e436b","ios":"levelo://app?vid=e7cb61d9-84d9-41c0-8427-00fc6a9e436b"},"vehicle_type_id":"4","last_reported":1761127922,"current_range_meters":6000,"station_id":"","pricing_plan_id":"cebpf4jnsgd1na2vs0mg"},{"bike_id":"adb6da43-a790-4bbe-8cdb-8fa1e5d17796","system_id":"levelo_inurba_marseille","lat":43.3175,"lon":5.38585,"is_reserved":false,"is_disabled":true,"rental_uris":{"android":"levelo://app?vid=adb6da43-a790-4bbe-8cdb-8fa1e5d17796","ios":"levelo://app?vid=adb6da43-a790-4bbe-8cdb-8fa1e5d17796"},"vehicle_type_id":"4","last_reported":1761127922,"current_range_meters":6400,"station_id":"","pricing_plan_id":"cebpf4jnsgd1na2vs0mg"},{"bike_id":"2d24ac31-78f9-481b-9d5c-ea0a58464439","system_id":"levelo_inurba_marseille","lat":43.29196,"lon":5.42294,"is_reserved":false,"is_disabled":false,"rental_uris":{"android":"levelo://app?vid=2d24ac31-78f9-481b-9d5c-ea0a58464439","ios":"levelo://app?vid=2d24ac31-78f9-481b-9d5c-ea0a58464439"},"vehicle_type_id":"4","last_reported":1761127922,"current_range_meters":6400,"station_id":"","pricing_plan_id":"cebpf4jnsgd1na2vs0mg"},{"bike_id":"24ce534c-5d06-4f76-aeda-4ee77595fe53","system_id":"levelo_inurba_marseille","lat":43.23153,"lon":5.43714,"is_reserved":false,"is_disabled":false,"rental_uris":{"android":"levelo://app?vid=24ce534c-5d06-4f76-aeda-4ee77595fe53","ios":"levelo://app?vid=24ce534c-5d06-4f76-aeda-4ee77595fe53"},"vehicle_type_id":"4","last_reported":1761127922,"current_range_meters":6400,"station_id":"ce4bhmp2rcd13ifvqgog","pricing_plan_id":"cebpf4jnsgd1na2vs0mg"},{"bike_id":"ad0163b9-a174-4b3e-87a4-a34119d95345","system_id":"levelo_inurba_marseille","lat":43.30952,"lon":5.39042,"is_reserved":false,"is_disabled":false,"rental_uris":{"android":"levelo://app?vid=ad0163b9-a174-4b3e-87a4-a34119d95345","ios":"levelo://app?vid=ad0163b9-a174-4b3e-87a4-a34119d95345"},"vehicle_type_id":"4","last_reported":1761127922,"current_range_meters":6800,"station_id":"ce4bgup2rcd13ifvqco0","pricing_plan_id":"cebpf4jnsgd1na2vs0mg"},{"bike_id":"6af32053-270b-4eb0-9bbe-329812ea6f05","system_id":"levelo_inurba_marseille","lat":43.30207,"lon":5.39458,"is_reserved":false,"is_disabled":false,"rental_uris":{"android":"levelo://app?vid=6af32053-270b-4eb0-9bbe-329812ea6f05","ios":"levelo://app?vid=6af32053-270b-4eb0-9bbe-329812ea6f05"},"vehicle_type_id":"4","last_reported":1761127922,"current_range_meters":6800,"station_id":"ce4bh0p2rcd13ifvqd70","pricing_plan_id":"cebpf4jnsgd1na2vs0mg"},{"bike_id":"2dd7c346-6c96-4775-846a-652a22a7267b","system_id":"levelo_inurba_marseille","lat":43.23182,"lon":5.39985,"is_reserved":false,"is_disabled":false,"rental_uris":{"android":"levelo://app?vid=2dd7c346-6c96-4775-846a-652a22a7267b","ios":"levelo://app?vid=2dd7c346-6c96-4775-846a-652a22a7267b"},"vehicle_type_id":"4","last_reported":1761127922,"current_range_meters":7200,"station_id":"ce4bhn12rcd13ifvqgqg","pricing_plan_id":"cebpf4jnsgd1na2vs0mg"},{"bike_id":"3d068a7d-8c2c-4f97-8d7d-54140fa95800","system_id":"levelo_inurba_marseille","lat":43.273583,"lon":5.39879,"is_reserved":false,"is_disabled":false,"rental_uris":{"android":"levelo://app?vid=3d068a7d-8c2c-4f97-8d7d-54140fa95800","ios":"levelo://app?vid=3d068a7d-8c2c-4f97-8d7d-54140fa95800"},"vehicle_type_id":"4","last_reported":1761127922,"current_range_meters":8000,"station_id":"","pricing_plan_id":"cebpf4jnsgd1na2vs0mg"},{"bike_id":"66bec76d-d7e9-4a1e-a715-39e56334bf96","system_id":"levelo_inurba_marseille","lat":43.28296,"lon":5.3965,"is_reserved":false,"is_disabled":false,"rental_uris":{"android":"levelo://app?vid=66bec76d-d7e9-4a1e-a715-39e56334bf96","ios":"levelo://app?vid=66bec76d-d7e9-4a1e-a715-39e56334bf96"},"vehicle_type_id":"4","last_reported":1761127922,"current_range_meters":8400,"station_id":"","pricing_plan_id":"cebpf4jnsgd1na2vs0mg"},{"bike_id":"b7e41c34-cad5-468c-aadc-3ef8a1845b5a","system_id":"levelo_inurba_marseille","lat":43.28163,"lon":5.36125,"is_reserved":false,"is_disabled":false,"rental_uris":{"android":"levelo://app?vid=b7e41c34-cad5-468c-aadc-3ef8a1845b5a","ios":"levelo://app?vid=b7e41c34-cad5-468c-aadc-3ef8a1845b5a"},"vehicle_type_id":"4","last_reported":1761127922,"current_range_meters":8400,"station_id":"","pricing_plan_id":"cebpf4jnsgd1na2vs0mg"},{"bike_id":"da3c5d5d-639d-4a11-88e1-f7b9c2ad220a","system_id":"levelo_inurba_marseille","lat":43.317187,"lon":5.377152,"is_reserved":false,"is_disabled":true,"rental_uris":{"android":"levelo://app?vid=da3c5d5d-639d-4a11-88e1-f7b9c2ad220a","ios":"levelo://app?vid=da3c5d5d-639d-4a11-88e1-f7b9c2ad220a"},"vehicle_type_id":"4","last_reported":1761127922,"current_range_meters":8400,"station_id":"ce4bgth2rcd13ifvqch0","pricing_plan_id":"cebpf4jnsgd1na2vs0mg"},{"bike_id":"9a2f46b2-5805-4c07-8b96-50cdae99294d","system_id":"levelo_inurba_marseille","lat":43.30946,"lon":5.39041,"is_reserved":false,"is_disabled":false,"rental_uris":{"android":"levelo://app?vid=9a2f46b2-5805-4c07-8b96-50cdae99294d","ios":"levelo://app?vid=9a2f46b2-5805-4c07-8b96-50cdae99294d"},"vehicle_type_id":"4","last_reported":1761127922,"current_range_meters":8800,"station_id":"ce4bgup2rcd13ifvqco0","pricing_plan_id":"cebpf4jnsgd1na2vs0mg"},{"bike_id":"ef77f83d-e349-4a9e-b518-a77204b92a23","system_id":"levelo_inurba_marseille","lat":43.29896,"lon":5.43672,"is_reserved":false,"is_disabled":false,"rental_uris":{"android":"levelo://app?vid=ef77f83d-e349-4a9e-b518-a77204b92a23","ios":"levelo://app?vid=ef77f83d-e349-4a9e-b518-a77204b92a23"},"vehicle_type_id":"4","last_reported":1761127922,"current_range_meters":8800,"station_id":"ce4bhpp2rcd13ifvqhfg","pricing_plan_id":"cebpf4jnsgd1na2vs0mg"},{"bike_id":"c4432b73-0adb-475d-83b3-18f6e7bba483","system_id":"levelo_inurba_marseille","lat":43.33032,"lon":5.39394,"is_reserved":false,"is_disabled":false,"rental_uris":{"android":"levelo://app?vid=c4432b73-0adb-475d-83b3-18f6e7bba483","ios":"levelo://app?vid=c4432b73-0adb-475d-83b3-18f6e7bba483"},"vehicle_type_id":"4","last_reported":1761127922,"current_range_meters":8800,"station_id":"","pricing_plan_id":"cebpf4jnsgd1na2vs0mg"},{"bike_id":"3201e625-69d5-420e-838c-f4c3f44666ef","system_id":"levelo_inurba_marseille","lat":43.33819,"lon":5.37426,"is_reserved":false,"is_disabled":false,"rental_uris":{"android":"levelo://app?vid=3201e625-69d5-420e-838c-f4c3f44666ef","ios":"levelo://app?vid=3201e625-69d5-420e-838c-f4c3f44666ef"},"vehicle_type_id":"4","last_reported":1761127922,"current_range_meters":9200,"station_id":"","pricing_plan_id":"cebpf4jnsgd1na2vs0mg"},{"bike_id":"b8457e49-45d1-4539-8d31-1eb0283df508","system_id":"levelo_inurba_marseille","lat":43.33159,"lon":5.35503,"is_reserved":false,"is_disabled":false,"rental_uris":{"android":"levelo://app?vid=b8457e49-45d1-4539-8d31-1eb0283df508","ios":"levelo://app?vid=b8457e49-45d1-4539-8d31-1eb0283df508"},"vehicle_type_id":"4","last_reported":1761127922,"current_range_meters":9600,"station_id":"","pricing_plan_id":"cebpf4jnsgd1na2vs0mg"},{"bike_id":"727e9605-51ab-40c9-976f-58890b55a3c6","system_id":"levelo_inurba_marseille","lat":43.28709,"lon":5.37944,"is_reserved":false,"is_disabled":false,"rental_uris":{"android":"levelo://app?vid=727e9605-51ab-40c9-976f-58890b55a3c6","ios":"levelo://app?vid=727e9605-51ab-40c9-976f-58890b55a3c6"},"vehicle_type_id":"4","last_reported":1761127922,"current_range_meters":9600,"station_id":"ce4bh9p2rcd13ifvqec0","pricing_plan_id":"cebpf4jnsgd1na2vs0mg"},{"bike_id":"19840955-f9d6-49c1-86e8-b7616b7da32c","system_id":"levelo_inurba_marseille","lat":43.33134,"lon":5.39115,"is_reserved":false,"is_disabled":true,"rental_uris":{"android":"levelo://app?vid=19840955-f9d6-49c1-86e8-b7616b7da32c","ios":"levelo://app?vid=19840955-f9d6-49c1-86e8-b7616b7da32c"},"vehicle_type_id":"4","last_reported":1761127922,"current_range_meters":9600,"station_id":"","pricing_plan_id":"cebpf4jnsgd1na2vs0mg"},{"bike_id":"d38bb17a-4ac6-4da6-829b-fc2ffe260364","system_id":"levelo_inurba_marseille","lat":43.3189,"lon":5.40745,"is_reserved":false,"is_disabled":true,"rental_uris":{"android":"levelo://app?vid=d38bb17a-4ac6-4da6-829b-fc2ffe260364","ios":"levelo://app?vid=d38bb17a-4ac6-4da6-829b-fc2ffe260364"},"vehicle_type_id":"4","last_reported":1761127922,"current_range_meters":10000,"station_id":"ce4bhq12rcd13ifvqhig","pricing_plan_id":"cebpf4jnsgd1na2vs0mg"},{"bike_id":"14a1fbd0-890e-44a3-8d51-f0d5f5a5d3e4","system_id":"levelo_inurba_marseille","lat":43.281012,"lon":5.378318,"is_reserved":false,"is_disabled":true,"rental_uris":{"android":"levelo://app?vid=14a1fbd0-890e-44a3-8d51-f0d5f5a5d3e4","ios":"levelo://app?vid=14a1fbd0-890e-44a3-8d51-f0d5f5a5d3e4"},"vehicle_type_id":"4","last_reported":1761127922,"current_range_meters":10000,"station_id":"ce4bha12rcd13ifvqee0","pricing_plan_id":"cebpf4jnsgd1na2vs0mg"},{"bike_id":"291e839c-51eb-45ba-9d70-0c2c7a063dd8","system_id":"levelo_inurba_marseille","lat":43.29019,"lon":5.38648,"is_reserved":false,"is_disabled":false,"rental_uris":{"android":"levelo://app?vid=291e839c-51eb-45ba-9d70-0c2c7a063dd8","ios":"levelo://app?vid=291e839c-51eb-45ba-9d70-0c2c7a063dd8"},"vehicle_type_id":"4","last_reported":1761127922,"current_range_meters":10000,"station_id":"ce4bh4p2rcd13ifvqe0g","pricing_plan_id":"cebpf4jnsgd1na2vs0mg"},{"bike_id":"661995e6-dee2-4717-adb4-59bb9b590d67","system_id":"levelo_inurba_marseille","lat":43.26958,"lon":5.38645,"is_reserved":false,"is_disabled":false,"rental_uris":{"android":"levelo://app?vid=661995e6-dee2-4717-adb4-59bb9b590d67","ios":"levelo://app?vid=661995e6-dee2-4717-adb4-59bb9b590d67"},"vehicle_type_id":"4","last_reported":1761127922,"current_range_meters":10800,"station_id":"ce4bhh92rcd13ifvqfh0","pricing_plan_id":"cebpf4jnsgd1na2vs0mg"},{"bike_id":"d83ba3b5-f05f-4b3f-995a-05ad1a505367","system_id":"levelo_inurba_marseille","lat":43.31706,"lon":5.42406,"is_reserved":false,"is_disabled":false,"rental_uris":{"android":"levelo://app?vid=d83ba3b5-f05f-4b3f-995a-05ad1a505367","ios":"levelo://app?vid=d83ba3b5-f05f-4b3f-995a-05ad1a505367"},"vehicle_type_id":"4","last_reported":1761127922,"current_range_meters":10800,"station_id":"ce4bhp92rcd13ifvqhbg","pricing_plan_id":"cebpf4jnsgd1na2vs0mg"},{"bike_id":"44d97044-a329-4653-a3d4-fbb8b3d6dde1","system_id":"levelo_inurba_marseille","lat":43.301764,"lon":5.366252,"is_reserved":false,"is_disabled":false,"rental_uris":{"android":"levelo://app?vid=44d97044-a329-4653-a3d4-fbb8b3d6dde1","ios":"levelo://app?vid=44d97044-a329-4653-a3d4-fbb8b3d6dde1"},"vehicle_type_id":"4","last_reported":1761127922,"current_range_meters":10800,"station_id":"ce4bgrh2rcd13ifvqc8g","pricing_plan_id":"cebpf4jnsgd1na2vs0mg"},{"bike_id":"455804a5-003e-4501-8b66-9f34e4520149","system_id":"levelo_inurba_marseille","lat":43.30162,"lon":5.38081,"is_reserved":false,"is_disabled":false,"rental_uris":{"android":"levelo://app?vid=455804a5-003e-4501-8b66-9f34e4520149","ios":"levelo://app?vid=455804a5-003e-4501-8b66-9f34e4520149"},"vehicle_type_id":"4","last_reported":1761127922,"current_range_meters":10800,"station_id":"ce4bgjp2rcd13ifvqbh0","pricing_plan_id":"cebpf4jnsgd1na2vs0mg"},{"bike_id":"9969dc89-b3da-432d-a478-1a7bf655bb81","system_id":"levelo_inurba_marseille","lat":43.32453,"lon":5.36664,"is_reserved":false,"is_disabled":false,"rental_uris":{"android":"levelo://app?vid=9969dc89-b3da-432d-a478-1a7bf655bb81","ios":"levelo://app?vid=9969dc89-b3da-432d-a478-1a7bf655bb81"},"vehicle_type_id":"4","last_reported":1761127922,"current_range_meters":10800,"station_id":"ce4bhsh2rcd13ifvqi2g","pricing_plan_id":"cebpf4jnsgd1na2vs0mg"},{"bike_id":"5492dd80-b8f1-47e3-936c-5932d4df6f6e","system_id":"levelo_inurba_marseille","lat":43.30146,"lon":5.38074,"is_reserved":false,"is_disabled":false,"rental_uris":{"android":"levelo://app?vid=5492dd80-b8f1-47e3-936c-5932d4df6f6e","ios":"levelo://app?vid=5492dd80-b8f1-47e3-936c-5932d4df6f6e"},"vehicle_type_id":"4","last_reported":1761127922,"current_range_meters":11200,"station_id":"ce4bgjp2rcd13ifvqbh0","pricing_plan_id":"cebpf4jnsgd1na2vs0mg"},{"bike_id":"323bf2de-3bb4-4b4c-b330-b19ea807dbf5","system_id":"levelo_inurba_marseille","lat":43.310726,"lon":5.383463,"is_reserved":false,"is_disabled":true,"rental_uris":{"android":"levelo://app?vid=323bf2de-3bb4-4b4c-b330-b19ea807dbf5","ios":"levelo://app?vid=323bf2de-3bb4-4b4c-b330-b19ea807dbf5"},"vehicle_type_id":"4","last_reported":1761127922,"current_range_meters":11200,"station_id":"ce4bgv92rcd13ifvqcr0","pricing_plan_id":"cebpf4jnsgd1na2vs0mg"},{"bike_id":"02f7835e-8895-43db-bc46-dc0659a292d5","system_id":"levelo_inurba_marseille","lat":43.29331,"lon":5.3707,"is_reserved":false,"is_disabled":false,"rental_uris":{"android":"levelo://app?vid=02f7835e-8895-43db-bc46-dc0659a292d5","ios":"levelo://app?vid=02f7835e-8895-43db-bc46-dc0659a292d5"},"vehicle_type_id":"4","last_reported":1761127922,"current_range_meters":11200,"station_id":"","pricing_plan_id":"cebpf4jnsgd1na2vs0mg"},{"bike_id":"146c2516-bef0-44a7-b04d-fb80b55a97f2","system_id":"levelo_inurba_marseille","lat":43.30137,"lon":5.43101,"is_reserved":false,"is_disabled":false,"rental_uris":{"android":"levelo://app?vid=146c2516-bef0-44a7-b04d-fb80b55a97f2","ios":"levelo://app?vid=146c2516-bef0-44a7-b04d-fb80b55a97f2"},"vehicle_type_id":"4","last_reported":1761127922,"current_range_meters":11600,"station_id":"st_d3js3co5814s73ftftug","pricing_plan_id":"cebpf4jnsgd1na2vs0mg"},{"bike_id":"4e7e8f57-06ea-4923-b3c1-ea91802d5920","system_id":"levelo_inurba_marseille","lat":43.2799,"lon":5.41637,"is_reserved":false,"is_disabled":false,"rental_uris":{"android":"levelo://app?vid=4e7e8f57-06ea-4923-b3c1-ea91802d5920","ios":"levelo://app?vid=4e7e8f57-06ea-4923-b3c1-ea91802d5920"},"vehicle_type_id":"4","last_reported":1761127922,"current_range_meters":11600,"station_id":"ce4bho12rcd13ifvqh1g","pricing_plan_id":"cebpf4jnsgd1na2vs0mg"},{"bike_id":"848732f0-de57-4c7b-8c1c-59414a9d2707","system_id":"levelo_inurba_marseille","lat":43.26197,"lon":5.3741,"is_reserved":false,"is_disabled":false,"rental_uris":{"android":"levelo://app?vid=848732f0-de57-4c7b-8c1c-59414a9d2707","ios":"levelo://app?vid=848732f0-de57-4c7b-8c1c-59414a9d2707"},"vehicle_type_id":"4","last_reported":1761127922,"current_range_meters":11600,"station_id":"ce4bhgp2rcd13ifvqfc0","pricing_plan_id":"cebpf4jnsgd1na2vs0mg"},{"bike_id":"27a0a5b8-bb02-4a68-83d8-ad971dc33659","system_id":"levelo_inurba_marseille","lat":43.32069,"lon":5.40886,"is_reserved":false,"is_disabled":false,"rental_uris":{"android":"levelo://app?vid=27a0a5b8-bb02-4a68-83d8-ad971dc33659","ios":"levelo://app?vid=27a0a5b8-bb02-4a68-83d8-ad971dc33659"},"vehicle_type_id":"4","last_reported":1761127922,"current_range_meters":11600,"station_id":"","pricing_plan_id":"cebpf4jnsgd1na2vs0mg"},{"bike_id":"82576c51-8b9b-43eb-aa43-fc4a18c9ea5b","system_id":"levelo_inurba_marseille","lat":43.21749,"lon":5.346,"is_reserved":false,"is_disabled":false,"rental_uris":{"android":"levelo://app?vid=82576c51-8b9b-43eb-aa43-fc4a18c9ea5b","ios":"levelo://app?vid=82576c51-8b9b-43eb-aa43-fc4a18c9ea5b"},"vehicle_type_id":"4","last_reported":1761127922,"current_range_meters":12000,"station_id":"","pricing_plan_id":"cebpf4jnsgd1na2vs0mg"},{"bike_id":"89dd87c4-c8d0-4de7-8902-2b0447e67475","system_id":"levelo_inurba_marseille","lat":43.31232,"lon":5.36877,"is_reserved":false,"is_disabled":false,"rental_uris":{"android":"levelo://app?vid=89dd87c4-c8d0-4de7-8902-2b0447e67475","ios":"levelo://app?vid=89dd87c4-c8d0-4de7-8902-2b0447e67475"},"vehicle_type_id":"4","last_reported":1761127922,"current_range_meters":12000,"station_id":"","pricing_plan_id":"cebpf4jnsgd1na2vs0mg"},{"bike_id":"b869754e-ab30-4b29-93e2-c3b579cde905","system_id":"levelo_inurba_marseille","lat":43.270516,"lon":5.383069,"is_reserved":false,"is_disabled":false,"rental_uris":{"android":"levelo://app?vid=b869754e-ab30-4b29-93e2-c3b579cde905","ios":"levelo://app?vid=b869754e-ab30-4b29-93e2-c3b579cde905"},"vehicle_type_id":"4","last_reported":1761127922,"current_range_meters":12000,"station_id":"st_d3n2fo6cfp8s73cte1j0","pricing_plan_id":"cebpf4jnsgd1na2vs0mg"},{"bike_id":"ff780f5e-3e02-442f-9a29-ae0089a51972","system_id":"levelo_inurba_marseille","lat":43.29921,"lon":5.38167,"is_reserved":false,"is_disabled":false,"rental_uris":{"android":"levelo://app?vid=ff780f5e-3e02-442f-9a29-ae0089a51972","ios":"levelo://app?vid=ff780f5e-3e02-442f-9a29-ae0089a51972"},"vehicle_type_id":"4","last_reported":1761127922,"current_range_meters":12000,"station_id":"ce4bgj12rcd13ifvqbc0","pricing_plan_id":"cebpf4jnsgd1na2vs0mg"},{"bike_id":"ca6cb3bf-3c51-48b8-93ff-e6a5e9c6d6b7","system_id":"levelo_inurba_marseille","lat":43.30977,"lon":5.39051,"is_reserved":false,"is_disabled":false,"rental_uris":{"android":"levelo://app?vid=ca6cb3bf-3c51-48b8-93ff-e6a5e9c6d6b7","ios":"levelo://app?vid=ca6cb3bf-3c51-48b8-93ff-e6a5e9c6d6b7"},"vehicle_type_id":"4","last_reported":1761127922,"current_range_meters":12400,"station_id":"ce4bgup2rcd13ifvqco0","pricing_plan_id":"cebpf4jnsgd1na2vs0mg"},{"bike_id":"cf665e56-a6d6-49f5-8c04-daf3e110881c","system_id":"levelo_inurba_marseille","lat":43.301441,"lon":5.380805,"is_reserved":false,"is_disabled":false,"rental_uris":{"android":"levelo://app?vid=cf665e56-a6d6-49f5-8c04-daf3e110881c","ios":"levelo://app?vid=cf665e56-a6d6-49f5-8c04-daf3e110881c"},"vehicle_type_id":"4","last_reported":1761127922,"current_range_meters":12800,"station_id":"ce4bgjp2rcd13ifvqbh0","pricing_plan_id":"cebpf4jnsgd1na2vs0mg"},{"bike_id":"c94f41c6-743f-4248-941c-574f989b12b4","system_id":"levelo_inurba_marseille","lat":43.28266,"lon":5.35076,"is_reserved":false,"is_disabled":false,"rental_uris":{"android":"levelo://app?vid=c94f41c6-743f-4248-941c-574f989b12b4","ios":"levelo://app?vid=c94f41c6-743f-4248-941c-574f989b12b4"},"vehicle_type_id":"4","last_reported":1761127922,"current_range_meters":12800,"station_id":"ce4bhbp2rcd13ifvqerg","pricing_plan_id":"cebpf4jnsgd1na2vs0mg"},{"bike_id":"6692e090-9792-45dd-b639-89e41212fa24","system_id":"levelo_inurba_marseille","lat":43.31476,"lon":5.38428,"is_reserved":false,"is_disabled":true,"rental_uris":{"android":"levelo://app?vid=6692e090-9792-45dd-b639-89e41212fa24","ios":"levelo://app?vid=6692e090-9792-45dd-b639-89e41212fa24"},"vehicle_type_id":"4","last_reported":1761127922,"current_range_meters":12800,"station_id":"","pricing_plan_id":"cebpf4jnsgd1na2vs0mg"},{"bike_id":"628c524a-f477-448e-ab2b-14a3a2541b61","system_id":"levelo_inurba_marseille","lat":43.296083,"lon":5.377138,"is_reserved":false,"is_disabled":false,"rental_uris":{"android":"levelo://app?vid=628c524a-f477-448e-ab2b-14a3a2541b61","ios":"levelo://app?vid=628c524a-f477-448e-ab2b-14a3a2541b61"},"vehicle_type_id":"4","last_reported":1761127922,"current_range_meters":12800,"station_id":"ce4bgi92rcd13ifvqb90","pricing_plan_id":"cebpf4jnsgd1na2vs0mg"},{"bike_id":"464bd8a3-6573-4884-b980-774e68ad4ab1","system_id":"levelo_inurba_marseille","lat":43.27178,"lon":5.40987,"is_reserved":false,"is_disabled":false,"rental_uris":{"android":"levelo://app?vid=464bd8a3-6573-4884-b980-774e68ad4ab1","ios":"levelo://app?vid=464bd8a3-6573-4884-b980-774e68ad4ab1"},"vehicle_type_id":"4","last_reported":1761127922,"current_range_meters":12800,"station_id":"ce4bhl12rcd13ifvqgf0","pricing_plan_id":"cebpf4jnsgd1na2vs0mg"},{"bike_id":"46e71a08-7e6c-4660-87ec-495dba3c6628","system_id":"levelo_inurba_marseille","lat":43.296639,"lon":5.362535,"is_reserved":false,"is_disabled":false,"rental_uris":{"android":"levelo://app?vid=46e71a08-7e6c-4660-87ec-495dba3c6628","ios":"levelo://app?vid=46e71a08-7e6c-4660-87ec-495dba3c6628"},"vehicle_type_id":"4","last_reported":1761127922,"current_range_meters":12800,"station_id":"","pricing_plan_id":"cebpf4jnsgd1na2vs0mg"},{"bike_id":"27e4da55-03ac-4a27-9cbb-4218c6a866bf","system_id":"levelo_inurba_marseille","lat":43.280642,"lon":5.352788,"is_reserved":false,"is_disabled":false,"rental_uris":{"android":"levelo://app?vid=27e4da55-03ac-4a27-9cbb-4218c6a866bf","ios":"levelo://app?vid=27e4da55-03ac-4a27-9cbb-4218c6a866bf"},"vehicle_type_id":"4","last_reported":1761127922,"current_range_meters":12800,"station_id":"","pricing_plan_id":"cebpf4jnsgd1na2vs0mg"},{"bike_id":"7ce64255-cce6-4db1-b2c9-3af07be0c301","system_id":"levelo_inurba_marseille","lat":43.281573,"lon":5.426475,"is_reserved":false,"is_disabled":false,"rental_uris":{"android":"levelo://app?vid=7ce64255-cce6-4db1-b2c9-3af07be0c301","ios":"levelo://app?vid=7ce64255-cce6-4db1-b2c9-3af07be0c301"},"vehicle_type_id":"4","last_reported":1761127922,"current_range_meters":12800,"station_id":"ce4bhnh2rcd13ifvqgug","pricing_plan_id":"cebpf4jnsgd1na2vs0mg"},{"bike_id":"d00f4c2a-3594-49b4-b41c-198467814d53","system_id":"levelo_inurba_marseille","lat":43.24046,"lon":5.37765,"is_reserved":false,"is_disabled":false,"rental_uris":{"android":"levelo://app?vid=d00f4c2a-3594-49b4-b41c-198467814d53","ios":"levelo://app?vid=d00f4c2a-3594-49b4-b41c-198467814d53"},"vehicle_type_id":"4","last_reported":1761127922,"current_range_meters":13600,"station_id":"ce4bhnp2rcd13ifvqgvg","pricing_plan_id":"cebpf4jnsgd1na2vs0mg"},{"bike_id":"396aaa55-c35f-41fc-8337-93bac25c9dde","system_id":"levelo_inurba_marseille","lat":43.29241,"lon":5.35566,"is_reserved":false,"is_disabled":false,"rental_uris":{"android":"levelo://app?vid=396aaa55-c35f-41fc-8337-93bac25c9dde","ios":"levelo://app?vid=396aaa55-c35f-41fc-8337-93bac25c9dde"},"vehicle_type_id":"4","last_reported":1761127922,"current_range_meters":13600,"station_id":"","pricing_plan_id":"cebpf4jnsgd1na2vs0mg"},{"bike_id":"f2c7d1c4-d7da-49ee-b593-7dd1bde302ff","system_id":"levelo_inurba_marseille","lat":43.2985,"lon":5.36286,"is_reserved":false,"is_disabled":false,"rental_uris":{"android":"levelo://app?vid=f2c7d1c4-d7da-49ee-b593-7dd1bde302ff","ios":"levelo://app?vid=f2c7d1c4-d7da-49ee-b593-7dd1bde302ff"},"vehicle_type_id":"4","last_reported":1761127922,"current_range_meters":13600,"station_id":"ce4bgpp2rcd13ifvqc3g","pricing_plan_id":"cebpf4jnsgd1na2vs0mg"},{"bike_id":"b8207d64-fa36-4895-b8b7-6918e92496a0","system_id":"levelo_inurba_marseille","lat":43.30544,"lon":5.36692,"is_reserved":false,"is_disabled":false,"rental_uris":{"android":"levelo://app?vid=b8207d64-fa36-4895-b8b7-6918e92496a0","ios":"levelo://app?vid=b8207d64-fa36-4895-b8b7-6918e92496a0"},"vehicle_type_id":"4","last_reported":1761127922,"current_range_meters":13600,"station_id":"ce4bgrp2rcd13ifvqc9g","pricing_plan_id":"cebpf4jnsgd1na2vs0mg"},{"bike_id":"37d01fc8-4b4d-4652-a489-1254eb9d4c80","system_id":"levelo_inurba_marseille","lat":43.34076,"lon":5.40411,"is_reserved":false,"is_disabled":false,"rental_uris":{"android":"levelo://app?vid=37d01fc8-4b4d-4652-a489-1254eb9d4c80","ios":"levelo://app?vid=37d01fc8-4b4d-4652-a489-1254eb9d4c80"},"vehicle_type_id":"4","last_reported":1761127922,"current_range_meters":13600,"station_id":"","pricing_plan_id":"cebpf4jnsgd1na2vs0mg"},{"bike_id":"2dfa14ca-c6a1-4b7b-b1ba-ad120ebc5b2c","system_id":"levelo_inurba_marseille","lat":43.33616,"lon":5.410318,"is_reserved":false,"is_disabled":false,"rental_uris":{"android":"levelo://app?vid=2dfa14ca-c6a1-4b7b-b1ba-ad120ebc5b2c","ios":"levelo://app?vid=2dfa14ca-c6a1-4b7b-b1ba-ad120ebc5b2c"},"vehicle_type_id":"4","last_reported":1761127922,"current_range_meters":14000,"station_id":"ce4bhqh2rcd13ifvqhmg","pricing_plan_id":"cebpf4jnsgd1na2vs0mg"},{"bike_id":"5f2481dc-58ce-4ae1-9671-10a61fd44b37","system_id":"levelo_inurba_marseille","lat":43.29626,"lon":5.40602,"is_reserved":false,"is_disabled":false,"rental_uris":{"android":"levelo://app?vid=5f2481dc-58ce-4ae1-9671-10a61fd44b37","ios":"levelo://app?vid=5f2481dc-58ce-4ae1-9671-10a61fd44b37"},"vehicle_type_id":"4","last_reported":1761127922,"current_range_meters":14400,"station_id":"ce4bh0h2rcd13ifvqd60","pricing_plan_id":"cebpf4jnsgd1na2vs0mg"},{"bike_id":"2d979906-e4ae-41ed-bb35-b96b15a64b3b","system_id":"levelo_inurba_marseille","lat":43.30713,"lon":5.42441,"is_reserved":false,"is_disabled":false,"rental_uris":{"android":"levelo://app?vid=2d979906-e4ae-41ed-bb35-b96b15a64b3b","ios":"levelo://app?vid=2d979906-e4ae-41ed-bb35-b96b15a64b3b"},"vehicle_type_id":"4","last_reported":1761127922,"current_range_meters":14400,"station_id":"st_cvj6ca6bvosntc0bfgr0","pricing_plan_id":"cebpf4jnsgd1na2vs0mg"},{"bike_id":"fecccd1f-3f4d-4e56-8943-869dbea8885e","system_id":"levelo_inurba_marseille","lat":43.31362,"lon":5.3849,"is_reserved":false,"is_disabled":false,"rental_uris":{"android":"levelo://app?vid=fecccd1f-3f4d-4e56-8943-869dbea8885e","ios":"levelo://app?vid=fecccd1f-3f4d-4e56-8943-869dbea8885e"},"vehicle_type_id":"4","last_reported":1761127922,"current_range_meters":14400,"station_id":"ce4bgt92rcd13ifvqcf0","pricing_plan_id":"cebpf4jnsgd1na2vs0mg"},{"bike_id":"8ade2825-0284-4ddd-b368-25a2659acc54","system_id":"levelo_inurba_marseille","lat":43.293707,"lon":5.378606,"is_reserved":false,"is_disabled":false,"rental_uris":{"android":"levelo://app?vid=8ade2825-0284-4ddd-b368-25a2659acc54","ios":"levelo://app?vid=8ade2825-0284-4ddd-b368-25a2659acc54"},"vehicle_type_id":"4","last_reported":1761127922,"current_range_meters":14400,"station_id":"ce4bgjh2rcd13ifvqbf0","pricing_plan_id":"cebpf4jnsgd1na2vs0mg"},{"bike_id":"5b2fb394-b654-4cda-abea-19d87e1a4938","system_id":"levelo_inurba_marseille","lat":43.240822,"lon":5.377519,"is_reserved":false,"is_disabled":false,"rental_uris":{"android":"levelo://app?vid=5b2fb394-b654-4cda-abea-19d87e1a4938","ios":"levelo://app?vid=5b2fb394-b654-4cda-abea-19d87e1a4938"},"vehicle_type_id":"4","last_reported":1761127922,"current_range_meters":14800,"station_id":"ce4bhnp2rcd13ifvqgvg","pricing_plan_id":"cebpf4jnsgd1na2vs0mg"},{"bike_id":"2fe29e89-7b9e-4cee-8c22-5bbe4a864140","system_id":"levelo_inurba_marseille","lat":43.33595,"lon":5.40976,"is_reserved":false,"is_disabled":false,"rental_uris":{"android":"levelo://app?vid=2fe29e89-7b9e-4cee-8c22-5bbe4a864140","ios":"levelo://app?vid=2fe29e89-7b9e-4cee-8c22-5bbe4a864140"},"vehicle_type_id":"4","last_reported":1761127922,"current_range_meters":14800,"station_id":"ce4bhqh2rcd13ifvqhmg","pricing_plan_id":"cebpf4jnsgd1na2vs0mg"},{"bike_id":"1ae4f4ba-cdf3-4681-97bc-7048fb9fbd77","system_id":"levelo_inurba_marseille","lat":43.27817,"lon":5.39217,"is_reserved":false,"is_disabled":false,"rental_uris":{"android":"levelo://app?vid=1ae4f4ba-cdf3-4681-97bc-7048fb9fbd77","ios":"levelo://app?vid=1ae4f4ba-cdf3-4681-97bc-7048fb9fbd77"},"vehicle_type_id":"4","last_reported":1761127922,"current_range_meters":14800,"station_id":"ce4bhjp2rcd13ifvqga0","pricing_plan_id":"cebpf4jnsgd1na2vs0mg"},{"bike_id":"8517d2ad-4627-4d5c-b43d-563f1cd29009","system_id":"levelo_inurba_marseille","lat":43.30446,"lon":5.3685,"is_reserved":false,"is_disabled":false,"rental_uris":{"android":"levelo://app?vid=8517d2ad-4627-4d5c-b43d-563f1cd29009","ios":"levelo://app?vid=8517d2ad-4627-4d5c-b43d-563f1cd29009"},"vehicle_type_id":"4","last_reported":1761127922,"current_range_meters":15200,"station_id":"","pricing_plan_id":"cebpf4jnsgd1na2vs0mg"},{"bike_id":"3d7013be-dfe4-430a-97e8-197a834810ee","system_id":"levelo_inurba_marseille","lat":43.246427,"lon":5.388884,"is_reserved":false,"is_disabled":false,"rental_uris":{"android":"levelo://app?vid=3d7013be-dfe4-430a-97e8-197a834810ee","ios":"levelo://app?vid=3d7013be-dfe4-430a-97e8-197a834810ee"},"vehicle_type_id":"4","last_reported":1761127922,"current_range_meters":15200,"station_id":"ce4bhg12rcd13ifvqf60","pricing_plan_id":"cebpf4jnsgd1na2vs0mg"},{"bike_id":"65df4d6d-8abb-4a02-907e-7e8b789e1820","system_id":"levelo_inurba_marseille","lat":43.23797,"lon":5.36628,"is_reserved":false,"is_disabled":false,"rental_uris":{"android":"levelo://app?vid=65df4d6d-8abb-4a02-907e-7e8b789e1820","ios":"levelo://app?vid=65df4d6d-8abb-4a02-907e-7e8b789e1820"},"vehicle_type_id":"4","last_reported":1761127922,"current_range_meters":15200,"station_id":"st_d3nk18o9ro0c73en2l3g","pricing_plan_id":"cebpf4jnsgd1na2vs0mg"},{"bike_id":"bbd08cf4-31da-4d68-b46e-697f80190f23","system_id":"levelo_inurba_marseille","lat":43.271873,"lon":5.409919,"is_reserved":false,"is_disabled":false,"rental_uris":{"android":"levelo://app?vid=bbd08cf4-31da-4d68-b46e-697f80190f23","ios":"levelo://app?vid=bbd08cf4-31da-4d68-b46e-697f80190f23"},"vehicle_type_id":"4","last_reported":1761127922,"current_range_meters":15200,"station_id":"ce4bhl12rcd13ifvqgf0","pricing_plan_id":"cebpf4jnsgd1na2vs0mg"},{"bike_id":"b61e6817-4496-4ad7-ab43-b524af2e26e5","system_id":"levelo_inurba_marseille","lat":43.2866,"lon":5.38661,"is_reserved":false,"is_disabled":false,"rental_uris":{"android":"levelo://app?vid=b61e6817-4496-4ad7-ab43-b524af2e26e5","ios":"levelo://app?vid=b61e6817-4496-4ad7-ab43-b524af2e26e5"},"vehicle_type_id":"4","last_reported":1761127922,"current_range_meters":15200,"station_id":"","pricing_plan_id":"cebpf4jnsgd1na2vs0mg"},{"bike_id":"07e992db-48e1-481b-a50e-3b491cfc1455","system_id":"levelo_inurba_marseille","lat":43.31991,"lon":5.41291,"is_reserved":false,"is_disabled":false,"rental_uris":{"android":"levelo://app?vid=07e992db-48e1-481b-a50e-3b491cfc1455","ios":"levelo://app?vid=07e992db-48e1-481b-a50e-3b491cfc1455"},"vehicle_type_id":"4","last_reported":1761127922,"current_range_meters":15200,"station_id":"","pricing_plan_id":"cebpf4jnsgd1na2vs0mg"},{"bike_id":"f7ea421a-a0dc-4bd5-a26e-7e9a4b6dcab6","system_id":"levelo_inurba_marseille","lat":43.290297,"lon":5.399719,"is_reserved":false,"is_disabled":false,"rental_uris":{"android":"levelo://app?vid=f7ea421a-a0dc-4bd5-a26e-7e9a4b6dcab6","ios":"levelo://app?vid=f7ea421a-a0dc-4bd5-a26e-7e9a4b6dcab6"},"vehicle_type_id":"4","last_reported":1761127922,"current_range_meters":15200,"station_id":"","pricing_plan_id":"cebpf4jnsgd1na2vs0mg"},{"bike_id":"c6c2dba1-db81-4cd1-9c62-d4db3c03abcc","system_id":"levelo_inurba_marseille","lat":43.25581,"lon":5.38248,"is_reserved":false,"is_disabled":false,"rental_uris":{"android":"levelo://app?vid=c6c2dba1-db81-4cd1-9c62-d4db3c03abcc","ios":"levelo://app?vid=c6c2dba1-db81-4cd1-9c62-d4db3c03abcc"},"vehicle_type_id":"4","last_reported":1761127922,"current_range_meters":15200,"station_id":"ce4bhih2rcd13ifvqfs0","pricing_plan_id":"cebpf4jnsgd1na2vs0mg"},{"bike_id":"57abdeb4-4df2-4ac6-ba92-2d03f59715c3","system_id":"levelo_inurba_marseille","lat":43.27956,"lon":5.38727,"is_reserved":false,"is_disabled":false,"rental_uris":{"android":"levelo://app?vid=57abdeb4-4df2-4ac6-ba92-2d03f59715c3","ios":"levelo://app?vid=57abdeb4-4df2-4ac6-ba92-2d03f59715c3"},"vehicle_type_id":"4","last_reported":1761127922,"current_range_meters":16000,"station_id":"ce4bhg12rcd13ifvqf80","pricing_plan_id":"cebpf4jnsgd1na2vs0mg"},{"bike_id":"36ee95c3-0651-4039-842c-c206cdf6bc55","system_id":"levelo_inurba_marseille","lat":43.27053,"lon":5.40264,"is_reserved":false,"is_disabled":false,"rental_uris":{"android":"levelo://app?vid=36ee95c3-0651-4039-842c-c206cdf6bc55","ios":"levelo://app?vid=36ee95c3-0651-4039-842c-c206cdf6bc55"},"vehicle_type_id":"4","last_reported":1761127922,"current_range_meters":16400,"station_id":"ce4bhk92rcd13ifvqgc0","pricing_plan_id":"cebpf4jnsgd1na2vs0mg"},{"bike_id":"55c7a453-1df8-47bd-b584-9d37339773fa","system_id":"levelo_inurba_marseille","lat":43.32181,"lon":5.38842,"is_reserved":false,"is_disabled":false,"rental_uris":{"android":"levelo://app?vid=55c7a453-1df8-47bd-b584-9d37339773fa","ios":"levelo://app?vid=55c7a453-1df8-47bd-b584-9d37339773fa"},"vehicle_type_id":"4","last_reported":1761127922,"current_range_meters":16400,"station_id":"","pricing_plan_id":"cebpf4jnsgd1na2vs0mg"},{"bike_id":"e01c0407-9fea-4afc-844a-8e1d738fcda5","system_id":"levelo_inurba_marseille","lat":43.24166,"lon":5.364042,"is_reserved":false,"is_disabled":false,"rental_uris":{"android":"levelo://app?vid=e01c0407-9fea-4afc-844a-8e1d738fcda5","ios":"levelo://app?vid=e01c0407-9fea-4afc-844a-8e1d738fcda5"},"vehicle_type_id":"4","last_reported":1761127922,"current_range_meters":16400,"station_id":"cpo36qri1sfpv3e86is0","pricing_plan_id":"cebpf4jnsgd1na2vs0mg"},{"bike_id":"501e5df6-2e5f-4e13-b573-dae79683e154","system_id":"levelo_inurba_marseille","lat":43.30535,"lon":5.36712,"is_reserved":false,"is_disabled":false,"rental_uris":{"android":"levelo://app?vid=501e5df6-2e5f-4e13-b573-dae79683e154","ios":"levelo://app?vid=501e5df6-2e5f-4e13-b573-dae79683e154"},"vehicle_type_id":"4","last_reported":1761127922,"current_range_meters":16400,"station_id":"ce4bgrp2rcd13ifvqc9g","pricing_plan_id":"cebpf4jnsgd1na2vs0mg"},{"bike_id":"462648eb-9432-48c9-b86d-ac565d46704e","system_id":"levelo_inurba_marseille","lat":43.27677,"lon":5.38901,"is_reserved":false,"is_disabled":false,"rental_uris":{"android":"levelo://app?vid=462648eb-9432-48c9-b86d-ac565d46704e","ios":"levelo://app?vid=462648eb-9432-48c9-b86d-ac565d46704e"},"vehicle_type_id":"4","last_reported":1761127922,"current_range_meters":16400,"station_id":"ce4bhi12rcd13ifvqfo0","pricing_plan_id":"cebpf4jnsgd1na2vs0mg"},{"bike_id":"4eae2ec4-8862-466e-a3d9-395cca4276d0","system_id":"levelo_inurba_marseille","lat":43.303057,"lon":5.375265,"is_reserved":false,"is_disabled":false,"rental_uris":{"android":"levelo://app?vid=4eae2ec4-8862-466e-a3d9-395cca4276d0","ios":"levelo://app?vid=4eae2ec4-8862-466e-a3d9-395cca4276d0"},"vehicle_type_id":"4","last_reported":1761127922,"current_range_meters":16400,"station_id":"","pricing_plan_id":"cebpf4jnsgd1na2vs0mg"},{"bike_id":"ed206b04-7e9a-4f24-aff3-b918adbc9f01","system_id":"levelo_inurba_marseille","lat":43.28698,"lon":5.39979,"is_reserved":false,"is_disabled":false,"rental_uris":{"android":"levelo://app?vid=ed206b04-7e9a-4f24-aff3-b918adbc9f01","ios":"levelo://app?vid=ed206b04-7e9a-4f24-aff3-b918adbc9f01"},"vehicle_type_id":"4","last_reported":1761127922,"current_range_meters":16400,"station_id":"ce4bho92rcd13ifvqh3g","pricing_plan_id":"cebpf4jnsgd1na2vs0mg"},{"bike_id":"2329d9db-d0a8-4368-8157-447abd445021","system_id":"levelo_inurba_marseille","lat":43.293789,"lon":5.381692,"is_reserved":false,"is_disabled":false,"rental_uris":{"android":"levelo://app?vid=2329d9db-d0a8-4368-8157-447abd445021","ios":"levelo://app?vid=2329d9db-d0a8-4368-8157-447abd445021"},"vehicle_type_id":"4","last_reported":1761127922,"current_range_meters":16400,"station_id":"ce4bgih2rcd13ifvqba0","pricing_plan_id":"cebpf4jnsgd1na2vs0mg"},{"bike_id":"6e59852d-0b4f-4170-a239-38a2172b70f6","system_id":"levelo_inurba_marseille","lat":43.29935,"lon":5.36548,"is_reserved":false,"is_disabled":false,"rental_uris":{"android":"levelo://app?vid=6e59852d-0b4f-4170-a239-38a2172b70f6","ios":"levelo://app?vid=6e59852d-0b4f-4170-a239-38a2172b70f6"},"vehicle_type_id":"4","last_reported":1761127922,"current_range_meters":16800,"station_id":"ce4bgm92rcd13ifvqbr0","pricing_plan_id":"cebpf4jnsgd1na2vs0mg"},{"bike_id":"9870a68d-ae62-4bec-82c3-a7443a850bdc","system_id":"levelo_inurba_marseille","lat":43.312904,"lon":5.377907,"is_reserved":false,"is_disabled":false,"rental_uris":{"android":"levelo://app?vid=9870a68d-ae62-4bec-82c3-a7443a850bdc","ios":"levelo://app?vid=9870a68d-ae62-4bec-82c3-a7443a850bdc"},"vehicle_type_id":"4","last_reported":1761127922,"current_range_meters":16800,"station_id":"","pricing_plan_id":"cebpf4jnsgd1na2vs0mg"},{"bike_id":"32eaff10-a281-4f40-91e7-99dfcc556b46","system_id":"levelo_inurba_marseille","lat":43.30437,"lon":5.37912,"is_reserved":false,"is_disabled":false,"rental_uris":{"android":"levelo://app?vid=32eaff10-a281-4f40-91e7-99dfcc556b46","ios":"levelo://app?vid=32eaff10-a281-4f40-91e7-99dfcc556b46"},"vehicle_type_id":"4","last_reported":1761127922,"current_range_meters":16800,"station_id":"ce4bgup2rcd13ifvqcn0","pricing_plan_id":"cebpf4jnsgd1na2vs0mg"},{"bike_id":"89d8739f-4b8e-4f60-8f43-e495253557db","system_id":"levelo_inurba_marseille","lat":43.28537,"lon":5.44094,"is_reserved":false,"is_disabled":false,"rental_uris":{"android":"levelo://app?vid=89d8739f-4b8e-4f60-8f43-e495253557db","ios":"levelo://app?vid=89d8739f-4b8e-4f60-8f43-e495253557db"},"vehicle_type_id":"4","last_reported":1761127922,"current_range_meters":16800,"station_id":"st_d3j3df2ikq2c7380ej80","pricing_plan_id":"cebpf4jnsgd1na2vs0mg"},{"bike_id":"8f614f0c-3d4a-4ddd-9759-dff687acff09","system_id":"levelo_inurba_marseille","lat":43.29004,"lon":5.35609,"is_reserved":false,"is_disabled":false,"rental_uris":{"android":"levelo://app?vid=8f614f0c-3d4a-4ddd-9759-dff687acff09","ios":"levelo://app?vid=8f614f0c-3d4a-4ddd-9759-dff687acff09"},"vehicle_type_id":"4","last_reported":1761127922,"current_range_meters":16800,"station_id":"ce4bhb92rcd13ifvqen0","pricing_plan_id":"cebpf4jnsgd1na2vs0mg"},{"bike_id":"618a9c44-e479-45b6-b144-58d3228e3132","system_id":"levelo_inurba_marseille","lat":43.24647,"lon":5.38887,"is_reserved":false,"is_disabled":false,"rental_uris":{"android":"levelo://app?vid=618a9c44-e479-45b6-b144-58d3228e3132","ios":"levelo://app?vid=618a9c44-e479-45b6-b144-58d3228e3132"},"vehicle_type_id":"4","last_reported":1761127922,"current_range_meters":16800,"station_id":"ce4bhg12rcd13ifvqf60","pricing_plan_id":"cebpf4jnsgd1na2vs0mg"},{"bike_id":"b3b13e92-d401-45af-ad84-a41c7bbeb5fe","system_id":"levelo_inurba_marseille","lat":43.309793,"lon":5.375016,"is_reserved":false,"is_disabled":false,"rental_uris":{"android":"levelo://app?vid=b3b13e92-d401-45af-ad84-a41c7bbeb5fe","ios":"levelo://app?vid=b3b13e92-d401-45af-ad84-a41c7bbeb5fe"},"vehicle_type_id":"4","last_reported":1761127922,"current_range_meters":16800,"station_id":"","pricing_plan_id":"cebpf4jnsgd1na2vs0mg"},{"bike_id":"34130888-7081-4e94-827a-c12d43393837","system_id":"levelo_inurba_marseille","lat":43.23779,"lon":5.36631,"is_reserved":false,"is_disabled":false,"rental_uris":{"android":"levelo://app?vid=34130888-7081-4e94-827a-c12d43393837","ios":"levelo://app?vid=34130888-7081-4e94-827a-c12d43393837"},"vehicle_type_id":"4","last_reported":1761127922,"current_range_meters":16800,"station_id":"st_d3nk18o9ro0c73en2l3g","pricing_plan_id":"cebpf4jnsgd1na2vs0mg"},{"bike_id":"9d8bcd8e-8ecf-425f-98ef-b7c9398172e2","system_id":"levelo_inurba_marseille","lat":43.32364,"lon":5.36764,"is_reserved":false,"is_disabled":false,"rental_uris":{"android":"levelo://app?vid=9d8bcd8e-8ecf-425f-98ef-b7c9398172e2","ios":"levelo://app?vid=9d8bcd8e-8ecf-425f-98ef-b7c9398172e2"},"vehicle_type_id":"4","last_reported":1761127922,"current_range_meters":16800,"station_id":"ce4bhsh2rcd13ifvqi2g","pricing_plan_id":"cebpf4jnsgd1na2vs0mg"},{"bike_id":"a79c6bd1-700c-48dd-854c-b0af28c99022","system_id":"levelo_inurba_marseille","lat":43.246379,"lon":5.431383,"is_reserved":false,"is_disabled":false,"rental_uris":{"android":"levelo://app?vid=a79c6bd1-700c-48dd-854c-b0af28c99022","ios":"levelo://app?vid=a79c6bd1-700c-48dd-854c-b0af28c99022"},"vehicle_type_id":"4","last_reported":1761127922,"current_range_meters":16800,"station_id":"st_d2m6c4gdas8pm72e190g","pricing_plan_id":"cebpf4jnsgd1na2vs0mg"},{"bike_id":"7232bb60-2fbd-40fd-9d41-97ab2f0d9f37","system_id":"levelo_inurba_marseille","lat":43.241173,"lon":5.412984,"is_reserved":false,"is_disabled":false,"rental_uris":{"android":"levelo://app?vid=7232bb60-2fbd-40fd-9d41-97ab2f0d9f37","ios":"levelo://app?vid=7232bb60-2fbd-40fd-9d41-97ab2f0d9f37"},"vehicle_type_id":"4","last_reported":1761127922,"current_range_meters":17200,"station_id":"","pricing_plan_id":"cebpf4jnsgd1na2vs0mg"},{"bike_id":"f61385e8-c02f-4a6a-89e2-09263b566a48","system_id":"levelo_inurba_marseille","lat":43.30537,"lon":5.36547,"is_reserved":false,"is_disabled":false,"rental_uris":{"android":"levelo://app?vid=f61385e8-c02f-4a6a-89e2-09263b566a48","ios":"levelo://app?vid=f61385e8-c02f-4a6a-89e2-09263b566a48"},"vehicle_type_id":"4","last_reported":1761127922,"current_range_meters":17200,"station_id":"ce4bgs12rcd13ifvqcag","pricing_plan_id":"cebpf4jnsgd1na2vs0mg"},{"bike_id":"c8c0fa58-a519-4343-9887-b0c694f93aef","system_id":"levelo_inurba_marseille","lat":43.288592,"lon":5.425116,"is_reserved":false,"is_disabled":false,"rental_uris":{"android":"levelo://app?vid=c8c0fa58-a519-4343-9887-b0c694f93aef","ios":"levelo://app?vid=c8c0fa58-a519-4343-9887-b0c694f93aef"},"vehicle_type_id":"4","last_reported":1761127922,"current_range_meters":17600,"station_id":"st_d3b462108ojc7389ooeg","pricing_plan_id":"cebpf4jnsgd1na2vs0mg"},{"bike_id":"0ec4ef5d-d495-417b-9bb4-a7234e30b1f5","system_id":"levelo_inurba_marseille","lat":43.24542,"lon":5.395253,"is_reserved":false,"is_disabled":false,"rental_uris":{"android":"levelo://app?vid=0ec4ef5d-d495-417b-9bb4-a7234e30b1f5","ios":"levelo://app?vid=0ec4ef5d-d495-417b-9bb4-a7234e30b1f5"},"vehicle_type_id":"4","last_reported":1761127922,"current_range_meters":17600,"station_id":"ce4bhlp2rcd13ifvqgjg","pricing_plan_id":"cebpf4jnsgd1na2vs0mg"},{"bike_id":"612b7784-911c-4890-a540-330f9d5f4992","system_id":"levelo_inurba_marseille","lat":43.24175,"lon":5.36393,"is_reserved":false,"is_disabled":false,"rental_uris":{"android":"levelo://app?vid=612b7784-911c-4890-a540-330f9d5f4992","ios":"levelo://app?vid=612b7784-911c-4890-a540-330f9d5f4992"},"vehicle_type_id":"4","last_reported":1761127922,"current_range_meters":17600,"station_id":"cpo36qri1sfpv3e86is0","pricing_plan_id":"cebpf4jnsgd1na2vs0mg"},{"bike_id":"38387a70-516f-4130-b4ce-7b96b1d8d939","system_id":"levelo_inurba_marseille","lat":43.313461,"lon":5.36722,"is_reserved":false,"is_disabled":false,"rental_uris":{"android":"levelo://app?vid=38387a70-516f-4130-b4ce-7b96b1d8d939","ios":"levelo://app?vid=38387a70-516f-4130-b4ce-7b96b1d8d939"},"vehicle_type_id":"4","last_reported":1761127922,"current_range_meters":17600,"station_id":"ce4bgr92rcd13ifvqc6g","pricing_plan_id":"cebpf4jnsgd1na2vs0mg"},{"bike_id":"de06e7d7-1fd3-4095-b88e-45ab170cbc00","system_id":"levelo_inurba_marseille","lat":43.292243,"lon":5.36104,"is_reserved":false,"is_disabled":false,"rental_uris":{"android":"levelo://app?vid=de06e7d7-1fd3-4095-b88e-45ab170cbc00","ios":"levelo://app?vid=de06e7d7-1fd3-4095-b88e-45ab170cbc00"},"vehicle_type_id":"4","last_reported":1761127922,"current_range_meters":17600,"station_id":"ce4bhbh2rcd13ifvqeqg","pricing_plan_id":"cebpf4jnsgd1na2vs0mg"},{"bike_id":"b25a4d27-84df-4f1c-af12-2f9e9b4f629a","system_id":"levelo_inurba_marseille","lat":43.28215,"lon":5.39059,"is_reserved":false,"is_disabled":true,"rental_uris":{"android":"levelo://app?vid=b25a4d27-84df-4f1c-af12-2f9e9b4f629a","ios":"levelo://app?vid=b25a4d27-84df-4f1c-af12-2f9e9b4f629a"},"vehicle_type_id":"4","last_reported":1761127922,"current_range_meters":17600,"station_id":"ce4bhn92rcd13ifvqgsg","pricing_plan_id":"cebpf4jnsgd1na2vs0mg"},{"bike_id":"99332a38-6d7c-4935-86ee-07acb729932e","system_id":"levelo_inurba_marseille","lat":43.298023,"lon":5.381016,"is_reserved":false,"is_disabled":false,"rental_uris":{"android":"levelo://app?vid=99332a38-6d7c-4935-86ee-07acb729932e","ios":"levelo://app?vid=99332a38-6d7c-4935-86ee-07acb729932e"},"vehicle_type_id":"4","last_reported":1761127922,"current_range_meters":18000,"station_id":"ce4bgip2rcd13ifvqbb0","pricing_plan_id":"cebpf4jnsgd1na2vs0mg"},{"bike_id":"6dedb052-20a2-44cd-aeba-04edee226593","system_id":"levelo_inurba_marseille","lat":43.22558,"lon":5.4162,"is_reserved":false,"is_disabled":false,"rental_uris":{"android":"levelo://app?vid=6dedb052-20a2-44cd-aeba-04edee226593","ios":"levelo://app?vid=6dedb052-20a2-44cd-aeba-04edee226593"},"vehicle_type_id":"4","last_reported":1761127922,"current_range_meters":18000,"station_id":"st_d2o4gvlbi1j2169b742g","pricing_plan_id":"cebpf4jnsgd1na2vs0mg"},{"bike_id":"61525fe3-26d4-4c5c-a075-e59599c296c4","system_id":"levelo_inurba_marseille","lat":43.31441,"lon":5.39285,"is_reserved":false,"is_disabled":false,"rental_uris":{"android":"levelo://app?vid=61525fe3-26d4-4c5c-a075-e59599c296c4","ios":"levelo://app?vid=61525fe3-26d4-4c5c-a075-e59599c296c4"},"vehicle_type_id":"4","last_reported":1761127922,"current_range_meters":18000,"station_id":"","pricing_plan_id":"cebpf4jnsgd1na2vs0mg"},{"bike_id":"37919a81-5f03-4e93-b094-379888e8cb5b","system_id":"levelo_inurba_marseille","lat":43.30305,"lon":5.36902,"is_reserved":false,"is_disabled":false,"rental_uris":{"android":"levelo://app?vid=37919a81-5f03-4e93-b094-379888e8cb5b","ios":"levelo://app?vid=37919a81-5f03-4e93-b094-379888e8cb5b"},"vehicle_type_id":"4","last_reported":1761127922,"current_range_meters":18000,"station_id":"ce4bgqh2rcd13ifvqc5g","pricing_plan_id":"cebpf4jnsgd1na2vs0mg"},{"bike_id":"912fafd0-bac8-42fa-aa96-95edf9b3b9a2","system_id":"levelo_inurba_marseille","lat":43.30151,"lon":5.38071,"is_reserved":false,"is_disabled":false,"rental_uris":{"android":"levelo://app?vid=912fafd0-bac8-42fa-aa96-95edf9b3b9a2","ios":"levelo://app?vid=912fafd0-bac8-42fa-aa96-95edf9b3b9a2"},"vehicle_type_id":"4","last_reported":1761127922,"current_range_meters":18000,"station_id":"ce4bgjp2rcd13ifvqbh0","pricing_plan_id":"cebpf4jnsgd1na2vs0mg"},{"bike_id":"205a1994-d98a-42ee-a2a9-7548fdcc1a21","system_id":"levelo_inurba_marseille","lat":43.30527,"lon":5.36558,"is_reserved":false,"is_disabled":false,"rental_uris":{"android":"levelo://app?vid=205a1994-d98a-42ee-a2a9-7548fdcc1a21","ios":"levelo://app?vid=205a1994-d98a-42ee-a2a9-7548fdcc1a21"},"vehicle_type_id":"4","last_reported":1761127922,"current_range_meters":18000,"station_id":"","pricing_plan_id":"cebpf4jnsgd1na2vs0mg"},{"bike_id":"fbb74503-2d8f-4e8a-9630-af6095649c50","system_id":"levelo_inurba_marseille","lat":43.29739,"lon":5.37682,"is_reserved":false,"is_disabled":false,"rental_uris":{"android":"levelo://app?vid=fbb74503-2d8f-4e8a-9630-af6095649c50","ios":"levelo://app?vid=fbb74503-2d8f-4e8a-9630-af6095649c50"},"vehicle_type_id":"4","last_reported":1761127922,"current_range_meters":18000,"station_id":"ce4bgkh2rcd13ifvqbl0","pricing_plan_id":"cebpf4jnsgd1na2vs0mg"},{"bike_id":"8a1f4f6b-c68e-4c14-b537-4e0d94df41c9","system_id":"levelo_inurba_marseille","lat":43.31687,"lon":5.40475,"is_reserved":false,"is_disabled":false,"rental_uris":{"android":"levelo://app?vid=8a1f4f6b-c68e-4c14-b537-4e0d94df41c9","ios":"levelo://app?vid=8a1f4f6b-c68e-4c14-b537-4e0d94df41c9"},"vehicle_type_id":"4","last_reported":1761127922,"current_range_meters":18000,"station_id":"ce4bh012rcd13ifvqd00","pricing_plan_id":"cebpf4jnsgd1na2vs0mg"},{"bike_id":"5deb1481-0f0e-41e1-a1ba-0d8c0e934059","system_id":"levelo_inurba_marseille","lat":43.33605,"lon":5.41034,"is_reserved":false,"is_disabled":false,"rental_uris":{"android":"levelo://app?vid=5deb1481-0f0e-41e1-a1ba-0d8c0e934059","ios":"levelo://app?vid=5deb1481-0f0e-41e1-a1ba-0d8c0e934059"},"vehicle_type_id":"4","last_reported":1761127922,"current_range_meters":18800,"station_id":"ce4bhqh2rcd13ifvqhmg","pricing_plan_id":"cebpf4jnsgd1na2vs0mg"},{"bike_id":"4c2b5c5f-ac7a-43d4-a4ed-480a42d5e982","system_id":"levelo_inurba_marseille","lat":43.33922,"lon":5.39774,"is_reserved":false,"is_disabled":false,"rental_uris":{"android":"levelo://app?vid=4c2b5c5f-ac7a-43d4-a4ed-480a42d5e982","ios":"levelo://app?vid=4c2b5c5f-ac7a-43d4-a4ed-480a42d5e982"},"vehicle_type_id":"4","last_reported":1761127922,"current_range_meters":18800,"station_id":"","pricing_plan_id":"cebpf4jnsgd1na2vs0mg"},{"bike_id":"fc088b50-e903-4413-b68e-3a2b8a695866","system_id":"levelo_inurba_marseille","lat":43.246208,"lon":5.431493,"is_reserved":false,"is_disabled":false,"rental_uris":{"android":"levelo://app?vid=fc088b50-e903-4413-b68e-3a2b8a695866","ios":"levelo://app?vid=fc088b50-e903-4413-b68e-3a2b8a695866"},"vehicle_type_id":"4","last_reported":1761127922,"current_range_meters":18800,"station_id":"st_d2m6c4gdas8pm72e190g","pricing_plan_id":"cebpf4jnsgd1na2vs0mg"},{"bike_id":"622a446d-7aa9-48f8-a28a-4bdb017917b6","system_id":"levelo_inurba_marseille","lat":43.30168,"lon":5.38079,"is_reserved":false,"is_disabled":false,"rental_uris":{"android":"levelo://app?vid=622a446d-7aa9-48f8-a28a-4bdb017917b6","ios":"levelo://app?vid=622a446d-7aa9-48f8-a28a-4bdb017917b6"},"vehicle_type_id":"4","last_reported":1761127922,"current_range_meters":18800,"station_id":"ce4bgjp2rcd13ifvqbh0","pricing_plan_id":"cebpf4jnsgd1na2vs0mg"},{"bike_id":"bda3ed1a-3199-4eb8-8229-577855d09dbb","system_id":"levelo_inurba_marseille","lat":43.3163,"lon":5.37876,"is_reserved":false,"is_disabled":false,"rental_uris":{"android":"levelo://app?vid=bda3ed1a-3199-4eb8-8229-577855d09dbb","ios":"levelo://app?vid=bda3ed1a-3199-4eb8-8229-577855d09dbb"},"vehicle_type_id":"4","last_reported":1761127922,"current_range_meters":18800,"station_id":"","pricing_plan_id":"cebpf4jnsgd1na2vs0mg"},{"bike_id":"fe0c63cc-68f1-4b51-a832-88e9673c2fcc","system_id":"levelo_inurba_marseille","lat":43.30544,"lon":5.3654,"is_reserved":false,"is_disabled":false,"rental_uris":{"android":"levelo://app?vid=fe0c63cc-68f1-4b51-a832-88e9673c2fcc","ios":"levelo://app?vid=fe0c63cc-68f1-4b51-a832-88e9673c2fcc"},"vehicle_type_id":"4","last_reported":1761127922,"current_range_meters":18800,"station_id":"ce4bgs12rcd13ifvqcag","pricing_plan_id":"cebpf4jnsgd1na2vs0mg"},{"bike_id":"415179a7-2d88-422a-bebd-ab5d5bf72e3d","system_id":"levelo_inurba_marseille","lat":43.31992,"lon":5.38141,"is_reserved":false,"is_disabled":false,"rental_uris":{"android":"levelo://app?vid=415179a7-2d88-422a-bebd-ab5d5bf72e3d","ios":"levelo://app?vid=415179a7-2d88-422a-bebd-ab5d5bf72e3d"},"vehicle_type_id":"4","last_reported":1761127922,"current_range_meters":18800,"station_id":"ce4bhr12rcd13ifvqhpg","pricing_plan_id":"cebpf4jnsgd1na2vs0mg"},{"bike_id":"d9247930-f477-4727-872b-24c5b02f6614","system_id":"levelo_inurba_marseille","lat":43.27189,"lon":5.4099,"is_reserved":false,"is_disabled":false,"rental_uris":{"android":"levelo://app?vid=d9247930-f477-4727-872b-24c5b02f6614","ios":"levelo://app?vid=d9247930-f477-4727-872b-24c5b02f6614"},"vehicle_type_id":"4","last_reported":1761127922,"current_range_meters":18800,"station_id":"ce4bhl12rcd13ifvqgf0","pricing_plan_id":"cebpf4jnsgd1na2vs0mg"},{"bike_id":"55e90a26-98e4-4248-854f-c415996cafea","system_id":"levelo_inurba_marseille","lat":43.33781,"lon":5.37437,"is_reserved":false,"is_disabled":false,"rental_uris":{"android":"levelo://app?vid=55e90a26-98e4-4248-854f-c415996cafea","ios":"levelo://app?vid=55e90a26-98e4-4248-854f-c415996cafea"},"vehicle_type_id":"4","last_reported":1761127922,"current_range_meters":18800,"station_id":"","pricing_plan_id":"cebpf4jnsgd1na2vs0mg"},{"bike_id":"1ecc769a-b3fa-49c2-a478-e889e54c474f","system_id":"levelo_inurba_marseille","lat":43.30161,"lon":5.38077,"is_reserved":false,"is_disabled":false,"rental_uris":{"android":"levelo://app?vid=1ecc769a-b3fa-49c2-a478-e889e54c474f","ios":"levelo://app?vid=1ecc769a-b3fa-49c2-a478-e889e54c474f"},"vehicle_type_id":"4","last_reported":1761127922,"current_range_meters":19200,"station_id":"ce4bgjp2rcd13ifvqbh0","pricing_plan_id":"cebpf4jnsgd1na2vs0mg"},{"bike_id":"37a496e0-c5b1-4201-8ed8-5a117c58f04d","system_id":"levelo_inurba_marseille","lat":43.29274,"lon":5.36844,"is_reserved":false,"is_disabled":false,"rental_uris":{"android":"levelo://app?vid=37a496e0-c5b1-4201-8ed8-5a117c58f04d","ios":"levelo://app?vid=37a496e0-c5b1-4201-8ed8-5a117c58f04d"},"vehicle_type_id":"4","last_reported":1761127922,"current_range_meters":19200,"station_id":"ce4bhbp2rcd13ifvqesg","pricing_plan_id":"cebpf4jnsgd1na2vs0mg"},{"bike_id":"e8d5589c-46e6-4f16-98dc-f58df1da932e","system_id":"levelo_inurba_marseille","lat":43.271802,"lon":5.409887,"is_reserved":false,"is_disabled":false,"rental_uris":{"android":"levelo://app?vid=e8d5589c-46e6-4f16-98dc-f58df1da932e","ios":"levelo://app?vid=e8d5589c-46e6-4f16-98dc-f58df1da932e"},"vehicle_type_id":"4","last_reported":1761127922,"current_range_meters":19200,"station_id":"ce4bhl12rcd13ifvqgf0","pricing_plan_id":"cebpf4jnsgd1na2vs0mg"},{"bike_id":"2a22829e-2bd6-41ec-a3e5-ef826e7425d3","system_id":"levelo_inurba_marseille","lat":43.32121,"lon":5.36738,"is_reserved":false,"is_disabled":false,"rental_uris":{"android":"levelo://app?vid=2a22829e-2bd6-41ec-a3e5-ef826e7425d3","ios":"levelo://app?vid=2a22829e-2bd6-41ec-a3e5-ef826e7425d3"},"vehicle_type_id":"4","last_reported":1761127922,"current_range_meters":19200,"station_id":"ce4bhrh2rcd13ifvqhug","pricing_plan_id":"cebpf4jnsgd1na2vs0mg"},{"bike_id":"89ddf3b0-93c7-40cc-958c-80c69f9edea9","system_id":"levelo_inurba_marseille","lat":43.30121,"lon":5.37419,"is_reserved":false,"is_disabled":false,"rental_uris":{"android":"levelo://app?vid=89ddf3b0-93c7-40cc-958c-80c69f9edea9","ios":"levelo://app?vid=89ddf3b0-93c7-40cc-958c-80c69f9edea9"},"vehicle_type_id":"4","last_reported":1761127922,"current_range_meters":19200,"station_id":"ce4bgs92rcd13ifvqcc0","pricing_plan_id":"cebpf4jnsgd1na2vs0mg"},{"bike_id":"95dcaf58-66f1-4e63-8319-e0cabb39ab12","system_id":"levelo_inurba_marseille","lat":43.30271,"lon":5.37686,"is_reserved":false,"is_disabled":false,"rental_uris":{"android":"levelo://app?vid=95dcaf58-66f1-4e63-8319-e0cabb39ab12","ios":"levelo://app?vid=95dcaf58-66f1-4e63-8319-e0cabb39ab12"},"vehicle_type_id":"4","last_reported":1761127922,"current_range_meters":19200,"station_id":"ce4bguh2rcd13ifvqcj0","pricing_plan_id":"cebpf4jnsgd1na2vs0mg"},{"bike_id":"45431ed0-5d6b-4bf8-943f-8c84c27181f1","system_id":"levelo_inurba_marseille","lat":43.272107,"lon":5.391494,"is_reserved":false,"is_disabled":false,"rental_uris":{"android":"levelo://app?vid=45431ed0-5d6b-4bf8-943f-8c84c27181f1","ios":"levelo://app?vid=45431ed0-5d6b-4bf8-943f-8c84c27181f1"},"vehicle_type_id":"4","last_reported":1761127922,"current_range_meters":19200,"station_id":"ce4bhhp2rcd13ifvqfm0","pricing_plan_id":"cebpf4jnsgd1na2vs0mg"},{"bike_id":"030422f1-c180-4591-b998-02f6d261a68c","system_id":"levelo_inurba_marseille","lat":43.32997,"lon":5.39025,"is_reserved":false,"is_disabled":false,"rental_uris":{"android":"levelo://app?vid=030422f1-c180-4591-b998-02f6d261a68c","ios":"levelo://app?vid=030422f1-c180-4591-b998-02f6d261a68c"},"vehicle_type_id":"4","last_reported":1761127922,"current_range_meters":19600,"station_id":"ce4bhr92rcd13ifvqhrg","pricing_plan_id":"cebpf4jnsgd1na2vs0mg"},{"bike_id":"9bfe4fb2-b19d-4fd2-bfac-57d80f1339ac","system_id":"levelo_inurba_marseille","lat":43.32004,"lon":5.38168,"is_reserved":false,"is_disabled":false,"rental_uris":{"android":"levelo://app?vid=9bfe4fb2-b19d-4fd2-bfac-57d80f1339ac","ios":"levelo://app?vid=9bfe4fb2-b19d-4fd2-bfac-57d80f1339ac"},"vehicle_type_id":"4","last_reported":1761127922,"current_range_meters":19600,"station_id":"ce4bhr12rcd13ifvqhpg","pricing_plan_id":"cebpf4jnsgd1na2vs0mg"},{"bike_id":"68a0f30f-e5e8-409b-a397-b641b99fbadf","system_id":"levelo_inurba_marseille","lat":43.24385,"lon":5.37049,"is_reserved":false,"is_disabled":false,"rental_uris":{"android":"levelo://app?vid=68a0f30f-e5e8-409b-a397-b641b99fbadf","ios":"levelo://app?vid=68a0f30f-e5e8-409b-a397-b641b99fbadf"},"vehicle_type_id":"4","last_reported":1761127922,"current_range_meters":19600,"station_id":"ce4bhhh2rcd13ifvqfk0","pricing_plan_id":"cebpf4jnsgd1na2vs0mg"},{"bike_id":"bc1ce556-4f70-40b2-a104-08b26a535c74","system_id":"levelo_inurba_marseille","lat":43.22564,"lon":5.41634,"is_reserved":false,"is_disabled":false,"rental_uris":{"android":"levelo://app?vid=bc1ce556-4f70-40b2-a104-08b26a535c74","ios":"levelo://app?vid=bc1ce556-4f70-40b2-a104-08b26a535c74"},"vehicle_type_id":"4","last_reported":1761127922,"current_range_meters":19600,"station_id":"st_d2o4gvlbi1j2169b742g","pricing_plan_id":"cebpf4jnsgd1na2vs0mg"},{"bike_id":"a7f831ab-ba4c-4b99-8fcb-e4d8f2bdf460","system_id":"levelo_inurba_marseille","lat":43.27063,"lon":5.40259,"is_reserved":false,"is_disabled":false,"rental_uris":{"android":"levelo://app?vid=a7f831ab-ba4c-4b99-8fcb-e4d8f2bdf460","ios":"levelo://app?vid=a7f831ab-ba4c-4b99-8fcb-e4d8f2bdf460"},"vehicle_type_id":"4","last_reported":1761127922,"current_range_meters":19600,"station_id":"ce4bhk92rcd13ifvqgc0","pricing_plan_id":"cebpf4jnsgd1na2vs0mg"},{"bike_id":"137df29a-fb25-43ef-9830-42ff04d9812f","system_id":"levelo_inurba_marseille","lat":43.290305,"lon":5.372418,"is_reserved":false,"is_disabled":false,"rental_uris":{"android":"levelo://app?vid=137df29a-fb25-43ef-9830-42ff04d9812f","ios":"levelo://app?vid=137df29a-fb25-43ef-9830-42ff04d9812f"},"vehicle_type_id":"4","last_reported":1761127922,"current_range_meters":19600,"station_id":"","pricing_plan_id":"cebpf4jnsgd1na2vs0mg"},{"bike_id":"3b1c4c95-d7f9-4d67-b3ae-5a0343d4f9eb","system_id":"levelo_inurba_marseille","lat":43.30311,"lon":5.36903,"is_reserved":false,"is_disabled":false,"rental_uris":{"android":"levelo://app?vid=3b1c4c95-d7f9-4d67-b3ae-5a0343d4f9eb","ios":"levelo://app?vid=3b1c4c95-d7f9-4d67-b3ae-5a0343d4f9eb"},"vehicle_type_id":"4","last_reported":1761127922,"current_range_meters":19600,"station_id":"ce4bgqh2rcd13ifvqc5g","pricing_plan_id":"cebpf4jnsgd1na2vs0mg"},{"bike_id":"6e62cf1c-40f3-4230-ba3a-611416a731d6","system_id":"levelo_inurba_marseille","lat":43.21193,"lon":5.35074,"is_reserved":false,"is_disabled":false,"rental_uris":{"android":"levelo://app?vid=6e62cf1c-40f3-4230-ba3a-611416a731d6","ios":"levelo://app?vid=6e62cf1c-40f3-4230-ba3a-611416a731d6"},"vehicle_type_id":"4","last_reported":1761127922,"current_range_meters":20000,"station_id":"","pricing_plan_id":"cebpf4jnsgd1na2vs0mg"},{"bike_id":"98ce260e-260a-4f8a-b4b9-bbddca235045","system_id":"levelo_inurba_marseille","lat":43.26398,"lon":5.39011,"is_reserved":false,"is_disabled":false,"rental_uris":{"android":"levelo://app?vid=98ce260e-260a-4f8a-b4b9-bbddca235045","ios":"levelo://app?vid=98ce260e-260a-4f8a-b4b9-bbddca235045"},"vehicle_type_id":"4","last_reported":1761127922,"current_range_meters":20000,"station_id":"","pricing_plan_id":"cebpf4jnsgd1na2vs0mg"},{"bike_id":"75eebb0f-2447-4bf8-b846-45b5b359059b","system_id":"levelo_inurba_marseille","lat":43.337572,"lon":5.374903,"is_reserved":false,"is_disabled":false,"rental_uris":{"android":"levelo://app?vid=75eebb0f-2447-4bf8-b846-45b5b359059b","ios":"levelo://app?vid=75eebb0f-2447-4bf8-b846-45b5b359059b"},"vehicle_type_id":"4","last_reported":1761127922,"current_range_meters":20000,"station_id":"","pricing_plan_id":"cebpf4jnsgd1na2vs0mg"},{"bike_id":"01dca72c-1032-4358-8c48-14cd1b7fd9ca","system_id":"levelo_inurba_marseille","lat":43.29818,"lon":5.38217,"is_reserved":false,"is_disabled":false,"rental_uris":{"android":"levelo://app?vid=01dca72c-1032-4358-8c48-14cd1b7fd9ca","ios":"levelo://app?vid=01dca72c-1032-4358-8c48-14cd1b7fd9ca"},"vehicle_type_id":"4","last_reported":1761127922,"current_range_meters":20000,"station_id":"","pricing_plan_id":"cebpf4jnsgd1na2vs0mg"},{"bike_id":"13ffca06-ecc4-46ee-aa82-6818647126c8","system_id":"levelo_inurba_marseille","lat":43.29909,"lon":5.43677,"is_reserved":false,"is_disabled":false,"rental_uris":{"android":"levelo://app?vid=13ffca06-ecc4-46ee-aa82-6818647126c8","ios":"levelo://app?vid=13ffca06-ecc4-46ee-aa82-6818647126c8"},"vehicle_type_id":"4","last_reported":1761127922,"current_range_meters":20000,"station_id":"ce4bhpp2rcd13ifvqhfg","pricing_plan_id":"cebpf4jnsgd1na2vs0mg"},{"bike_id":"65b9349b-3489-4513-8211-1edff60d92ba","system_id":"levelo_inurba_marseille","lat":43.29713,"lon":5.3661,"is_reserved":false,"is_disabled":false,"rental_uris":{"android":"levelo://app?vid=65b9349b-3489-4513-8211-1edff60d92ba","ios":"levelo://app?vid=65b9349b-3489-4513-8211-1edff60d92ba"},"vehicle_type_id":"4","last_reported":1761127922,"current_range_meters":20000,"station_id":"ce4bgn12rcd13ifvqbt0","pricing_plan_id":"cebpf4jnsgd1na2vs0mg"},{"bike_id":"6eb9cec2-9853-41d7-ad07-81e478775a6f","system_id":"levelo_inurba_marseille","lat":43.317147,"lon":5.424003,"is_reserved":false,"is_disabled":false,"rental_uris":{"android":"levelo://app?vid=6eb9cec2-9853-41d7-ad07-81e478775a6f","ios":"levelo://app?vid=6eb9cec2-9853-41d7-ad07-81e478775a6f"},"vehicle_type_id":"4","last_reported":1761127922,"current_range_meters":20400,"station_id":"ce4bhp92rcd13ifvqhbg","pricing_plan_id":"cebpf4jnsgd1na2vs0mg"},{"bike_id":"7e29b7b2-0f9f-45d3-8c19-2b59c104f08b","system_id":"levelo_inurba_marseille","lat":43.303043,"lon":5.369175,"is_reserved":false,"is_disabled":false,"rental_uris":{"android":"levelo://app?vid=7e29b7b2-0f9f-45d3-8c19-2b59c104f08b","ios":"levelo://app?vid=7e29b7b2-0f9f-45d3-8c19-2b59c104f08b"},"vehicle_type_id":"4","last_reported":1761127922,"current_range_meters":20400,"station_id":"ce4bgqh2rcd13ifvqc5g","pricing_plan_id":"cebpf4jnsgd1na2vs0mg"},{"bike_id":"15b3545f-221b-4d21-8fb4-ade0495f0c68","system_id":"levelo_inurba_marseille","lat":43.3089,"lon":5.39649,"is_reserved":false,"is_disabled":false,"rental_uris":{"android":"levelo://app?vid=15b3545f-221b-4d21-8fb4-ade0495f0c68","ios":"levelo://app?vid=15b3545f-221b-4d21-8fb4-ade0495f0c68"},"vehicle_type_id":"4","last_reported":1761127922,"current_range_meters":20400,"station_id":"ce4bh012rcd13ifvqcv0","pricing_plan_id":"cebpf4jnsgd1na2vs0mg"},{"bike_id":"035ca1d7-233f-4f69-9569-4f3393764361","system_id":"levelo_inurba_marseille","lat":43.30876,"lon":5.37322,"is_reserved":false,"is_disabled":false,"rental_uris":{"android":"levelo://app?vid=035ca1d7-233f-4f69-9569-4f3393764361","ios":"levelo://app?vid=035ca1d7-233f-4f69-9569-4f3393764361"},"vehicle_type_id":"4","last_reported":1761127922,"current_range_meters":20400,"station_id":"","pricing_plan_id":"cebpf4jnsgd1na2vs0mg"},{"bike_id":"954002ef-8069-4a73-9af2-4a86737c08e2","system_id":"levelo_inurba_marseille","lat":43.2815,"lon":5.42648,"is_reserved":false,"is_disabled":false,"rental_uris":{"android":"levelo://app?vid=954002ef-8069-4a73-9af2-4a86737c08e2","ios":"levelo://app?vid=954002ef-8069-4a73-9af2-4a86737c08e2"},"vehicle_type_id":"4","last_reported":1761127922,"current_range_meters":20400,"station_id":"ce4bhnh2rcd13ifvqgug","pricing_plan_id":"cebpf4jnsgd1na2vs0mg"},{"bike_id":"265ffbc0-e60e-4406-8810-87e0abc2b983","system_id":"levelo_inurba_marseille","lat":43.23923,"lon":5.36659,"is_reserved":false,"is_disabled":false,"rental_uris":{"android":"levelo://app?vid=265ffbc0-e60e-4406-8810-87e0abc2b983","ios":"levelo://app?vid=265ffbc0-e60e-4406-8810-87e0abc2b983"},"vehicle_type_id":"4","last_reported":1761127922,"current_range_meters":20400,"station_id":"ce4bhi12rcd13ifvqfp0","pricing_plan_id":"cebpf4jnsgd1na2vs0mg"},{"bike_id":"88b2962d-442b-480d-a54f-7ba286a29a00","system_id":"levelo_inurba_marseille","lat":43.312177,"lon":5.368721,"is_reserved":false,"is_disabled":false,"rental_uris":{"android":"levelo://app?vid=88b2962d-442b-480d-a54f-7ba286a29a00","ios":"levelo://app?vid=88b2962d-442b-480d-a54f-7ba286a29a00"},"vehicle_type_id":"4","last_reported":1761127922,"current_range_meters":20400,"station_id":"ce4bgl92rcd13ifvqbq0","pricing_plan_id":"cebpf4jnsgd1na2vs0mg"},{"bike_id":"74757664-22a6-49f1-b7d2-c7ddc7c06d42","system_id":"levelo_inurba_marseille","lat":43.30285,"lon":5.37709,"is_reserved":false,"is_disabled":false,"rental_uris":{"android":"levelo://app?vid=74757664-22a6-49f1-b7d2-c7ddc7c06d42","ios":"levelo://app?vid=74757664-22a6-49f1-b7d2-c7ddc7c06d42"},"vehicle_type_id":"4","last_reported":1761127922,"current_range_meters":20400,"station_id":"ce4bguh2rcd13ifvqcj0","pricing_plan_id":"cebpf4jnsgd1na2vs0mg"},{"bike_id":"effbe3c7-30ae-4b2a-9d6d-1bba71a94ab1","system_id":"levelo_inurba_marseille","lat":43.29518,"lon":5.37508,"is_reserved":false,"is_disabled":false,"rental_uris":{"android":"levelo://app?vid=effbe3c7-30ae-4b2a-9d6d-1bba71a94ab1","ios":"levelo://app?vid=effbe3c7-30ae-4b2a-9d6d-1bba71a94ab1"},"vehicle_type_id":"4","last_reported":1761127922,"current_range_meters":20400,"station_id":"ce4bgkp2rcd13ifvqbmg","pricing_plan_id":"cebpf4jnsgd1na2vs0mg"},{"bike_id":"8bcacd78-80de-4026-af75-b37ebe3030fe","system_id":"levelo_inurba_marseille","lat":43.334756,"lon":5.404255,"is_reserved":false,"is_disabled":false,"rental_uris":{"android":"levelo://app?vid=8bcacd78-80de-4026-af75-b37ebe3030fe","ios":"levelo://app?vid=8bcacd78-80de-4026-af75-b37ebe3030fe"},"vehicle_type_id":"4","last_reported":1761127922,"current_range_meters":20400,"station_id":"","pricing_plan_id":"cebpf4jnsgd1na2vs0mg"},{"bike_id":"015871ae-2d4e-4ae5-b2df-f9890f6e517d","system_id":"levelo_inurba_marseille","lat":43.290613,"lon":5.393679,"is_reserved":false,"is_disabled":false,"rental_uris":{"android":"levelo://app?vid=015871ae-2d4e-4ae5-b2df-f9890f6e517d","ios":"levelo://app?vid=015871ae-2d4e-4ae5-b2df-f9890f6e517d"},"vehicle_type_id":"4","last_reported":1761127922,"current_range_meters":20400,"station_id":"ce4bhop2rcd13ifvqh7g","pricing_plan_id":"cebpf4jnsgd1na2vs0mg"},{"bike_id":"692a999f-f646-43fe-b949-d58fd32447f4","system_id":"levelo_inurba_marseille","lat":43.32345,"lon":5.38895,"is_reserved":false,"is_disabled":false,"rental_uris":{"android":"levelo://app?vid=692a999f-f646-43fe-b949-d58fd32447f4","ios":"levelo://app?vid=692a999f-f646-43fe-b949-d58fd32447f4"},"vehicle_type_id":"4","last_reported":1761127922,"current_range_meters":20400,"station_id":"ce4bgrp2rcd13ifvqc9g","pricing_plan_id":"cebpf4jnsgd1na2vs0mg"},{"bike_id":"4de5a3a5-3b6e-4ce7-8372-1db61e216cbe","system_id":"levelo_inurba_marseille","lat":43.246309,"lon":5.431462,"is_reserved":false,"is_disabled":false,"rental_uris":{"android":"levelo://app?vid=4de5a3a5-3b6e-4ce7-8372-1db61e216cbe","ios":"levelo://app?vid=4de5a3a5-3b6e-4ce7-8372-1db61e216cbe"},"vehicle_type_id":"4","last_reported":1761127922,"current_range_meters":20400,"station_id":"st_d2m6c4gdas8pm72e190g","pricing_plan_id":"cebpf4jnsgd1na2vs0mg"},{"bike_id":"078a4bdd-fe9a-42a4-b61e-b2fd0aa147cf","system_id":"levelo_inurba_marseille","lat":43.30541,"lon":5.36545,"is_reserved":false,"is_disabled":false,"rental_uris":{"android":"levelo://app?vid=078a4bdd-fe9a-42a4-b61e-b2fd0aa147cf","ios":"levelo://app?vid=078a4bdd-fe9a-42a4-b61e-b2fd0aa147cf"},"vehicle_type_id":"4","last_reported":1761127922,"current_range_meters":20400,"station_id":"ce4bgs12rcd13ifvqcag","pricing_plan_id":"cebpf4jnsgd1na2vs0mg"},{"bike_id":"346b03a7-21a9-4ccb-8d3b-6f2f8dbbca61","system_id":"levelo_inurba_marseille","lat":43.290009,"lon":5.356177,"is_reserved":false,"is_disabled":false,"rental_uris":{"android":"levelo://app?vid=346b03a7-21a9-4ccb-8d3b-6f2f8dbbca61","ios":"levelo://app?vid=346b03a7-21a9-4ccb-8d3b-6f2f8dbbca61"},"vehicle_type_id":"4","last_reported":1761127922,"current_range_meters":20400,"station_id":"ce4bhb92rcd13ifvqen0","pricing_plan_id":"cebpf4jnsgd1na2vs0mg"},{"bike_id":"a3f5dea3-b19a-4034-96c9-9dda4a30a19c","system_id":"levelo_inurba_marseille","lat":43.2781,"lon":5.40712,"is_reserved":false,"is_disabled":false,"rental_uris":{"android":"levelo://app?vid=a3f5dea3-b19a-4034-96c9-9dda4a30a19c","ios":"levelo://app?vid=a3f5dea3-b19a-4034-96c9-9dda4a30a19c"},"vehicle_type_id":"4","last_reported":1761127922,"current_range_meters":20800,"station_id":"ce4bhnh2rcd13ifvqgtg","pricing_plan_id":"cebpf4jnsgd1na2vs0mg"},{"bike_id":"e437460d-805d-4c07-9b55-237013e207ed","system_id":"levelo_inurba_marseille","lat":43.307962,"lon":5.381422,"is_reserved":false,"is_disabled":true,"rental_uris":{"android":"levelo://app?vid=e437460d-805d-4c07-9b55-237013e207ed","ios":"levelo://app?vid=e437460d-805d-4c07-9b55-237013e207ed"},"vehicle_type_id":"4","last_reported":1761127922,"current_range_meters":20800,"station_id":"ce4bgt12rcd13ifvqce0","pricing_plan_id":"cebpf4jnsgd1na2vs0mg"},{"bike_id":"1b2a5bc2-adee-46ab-a3b5-2ae3071b7569","system_id":"levelo_inurba_marseille","lat":43.30146,"lon":5.38072,"is_reserved":false,"is_disabled":false,"rental_uris":{"android":"levelo://app?vid=1b2a5bc2-adee-46ab-a3b5-2ae3071b7569","ios":"levelo://app?vid=1b2a5bc2-adee-46ab-a3b5-2ae3071b7569"},"vehicle_type_id":"4","last_reported":1761127922,"current_range_meters":20800,"station_id":"ce4bgjp2rcd13ifvqbh0","pricing_plan_id":"cebpf4jnsgd1na2vs0mg"},{"bike_id":"c7500e7b-e147-421c-863d-b896cb42eca6","system_id":"levelo_inurba_marseille","lat":43.27574,"lon":5.384323,"is_reserved":false,"is_disabled":false,"rental_uris":{"android":"levelo://app?vid=c7500e7b-e147-421c-863d-b896cb42eca6","ios":"levelo://app?vid=c7500e7b-e147-421c-863d-b896cb42eca6"},"vehicle_type_id":"4","last_reported":1761127922,"current_range_meters":20800,"station_id":"ce4bhh92rcd13ifvqfi0","pricing_plan_id":"cebpf4jnsgd1na2vs0mg"},{"bike_id":"0a31cfdb-6532-4098-b37e-c5c35ea5e26f","system_id":"levelo_inurba_marseille","lat":43.30455,"lon":5.37904,"is_reserved":false,"is_disabled":false,"rental_uris":{"android":"levelo://app?vid=0a31cfdb-6532-4098-b37e-c5c35ea5e26f","ios":"levelo://app?vid=0a31cfdb-6532-4098-b37e-c5c35ea5e26f"},"vehicle_type_id":"4","last_reported":1761127922,"current_range_meters":20800,"station_id":"ce4bgup2rcd13ifvqcn0","pricing_plan_id":"cebpf4jnsgd1na2vs0mg"},{"bike_id":"3f39f326-54eb-4aae-a58b-8646f373029d","system_id":"levelo_inurba_marseille","lat":43.24388,"lon":5.37064,"is_reserved":false,"is_disabled":false,"rental_uris":{"android":"levelo://app?vid=3f39f326-54eb-4aae-a58b-8646f373029d","ios":"levelo://app?vid=3f39f326-54eb-4aae-a58b-8646f373029d"},"vehicle_type_id":"4","last_reported":1761127922,"current_range_meters":20800,"station_id":"ce4bhhh2rcd13ifvqfk0","pricing_plan_id":"cebpf4jnsgd1na2vs0mg"},{"bike_id":"8b568fab-e273-49f6-bdca-e47680ec431f","system_id":"levelo_inurba_marseille","lat":43.337959,"lon":5.374369,"is_reserved":false,"is_disabled":false,"rental_uris":{"android":"levelo://app?vid=8b568fab-e273-49f6-bdca-e47680ec431f","ios":"levelo://app?vid=8b568fab-e273-49f6-bdca-e47680ec431f"},"vehicle_type_id":"4","last_reported":1761127922,"current_range_meters":21600,"station_id":"","pricing_plan_id":"cebpf4jnsgd1na2vs0mg"},{"bike_id":"9a1972b5-72a6-4763-9884-2f966099622e","system_id":"levelo_inurba_marseille","lat":43.29966,"lon":5.37617,"is_reserved":false,"is_disabled":false,"rental_uris":{"android":"levelo://app?vid=9a1972b5-72a6-4763-9884-2f966099622e","ios":"levelo://app?vid=9a1972b5-72a6-4763-9884-2f966099622e"},"vehicle_type_id":"4","last_reported":1761127922,"current_range_meters":21600,"station_id":"","pricing_plan_id":"cebpf4jnsgd1na2vs0mg"},{"bike_id":"4c1a085c-4285-46bd-acac-4fa7370930f8","system_id":"levelo_inurba_marseille","lat":43.3019,"lon":5.36621,"is_reserved":false,"is_disabled":false,"rental_uris":{"android":"levelo://app?vid=4c1a085c-4285-46bd-acac-4fa7370930f8","ios":"levelo://app?vid=4c1a085c-4285-46bd-acac-4fa7370930f8"},"vehicle_type_id":"4","last_reported":1761127922,"current_range_meters":22000,"station_id":"ce4bgrh2rcd13ifvqc8g","pricing_plan_id":"cebpf4jnsgd1na2vs0mg"},{"bike_id":"14760121-9a6b-4c23-be95-5b6e380276ea","system_id":"levelo_inurba_marseille","lat":43.29719,"lon":5.37655,"is_reserved":false,"is_disabled":false,"rental_uris":{"android":"levelo://app?vid=14760121-9a6b-4c23-be95-5b6e380276ea","ios":"levelo://app?vid=14760121-9a6b-4c23-be95-5b6e380276ea"},"vehicle_type_id":"4","last_reported":1761127922,"current_range_meters":22000,"station_id":"ce4bgkh2rcd13ifvqbl0","pricing_plan_id":"cebpf4jnsgd1na2vs0mg"},{"bike_id":"2995472c-7d3e-4a79-902d-4188c9d36ae4","system_id":"levelo_inurba_marseille","lat":43.29262,"lon":5.38441,"is_reserved":false,"is_disabled":false,"rental_uris":{"android":"levelo://app?vid=2995472c-7d3e-4a79-902d-4188c9d36ae4","ios":"levelo://app?vid=2995472c-7d3e-4a79-902d-4188c9d36ae4"},"vehicle_type_id":"4","last_reported":1761127922,"current_range_meters":22000,"station_id":"ce4bh692rcd13ifvqea0","pricing_plan_id":"cebpf4jnsgd1na2vs0mg"},{"bike_id":"1441ddb6-7787-444c-b631-9f66ac1aa090","system_id":"levelo_inurba_marseille","lat":43.305344,"lon":5.367285,"is_reserved":false,"is_disabled":false,"rental_uris":{"android":"levelo://app?vid=1441ddb6-7787-444c-b631-9f66ac1aa090","ios":"levelo://app?vid=1441ddb6-7787-444c-b631-9f66ac1aa090"},"vehicle_type_id":"4","last_reported":1761127922,"current_range_meters":22000,"station_id":"ce4bgrp2rcd13ifvqc9g","pricing_plan_id":"cebpf4jnsgd1na2vs0mg"},{"bike_id":"745eb1d9-36e7-43e9-ab13-378f0c560a0c","system_id":"levelo_inurba_marseille","lat":43.33736,"lon":5.39185,"is_reserved":false,"is_disabled":true,"rental_uris":{"android":"levelo://app?vid=745eb1d9-36e7-43e9-ab13-378f0c560a0c","ios":"levelo://app?vid=745eb1d9-36e7-43e9-ab13-378f0c560a0c"},"vehicle_type_id":"4","last_reported":1761127922,"current_range_meters":22000,"station_id":"ce4bhr92rcd13ifvqhsg","pricing_plan_id":"cebpf4jnsgd1na2vs0mg"},{"bike_id":"c92b7afd-cebb-4efc-88a0-7e6087ba87f7","system_id":"levelo_inurba_marseille","lat":43.30426,"lon":5.39746,"is_reserved":false,"is_disabled":false,"rental_uris":{"android":"levelo://app?vid=c92b7afd-cebb-4efc-88a0-7e6087ba87f7","ios":"levelo://app?vid=c92b7afd-cebb-4efc-88a0-7e6087ba87f7"},"vehicle_type_id":"4","last_reported":1761127922,"current_range_meters":22000,"station_id":"ce4bh092rcd13ifvqd20","pricing_plan_id":"cebpf4jnsgd1na2vs0mg"},{"bike_id":"bdcd4dfa-7e63-495d-a24e-17b0a60bf1f9","system_id":"levelo_inurba_marseille","lat":43.28858,"lon":5.42508,"is_reserved":false,"is_disabled":false,"rental_uris":{"android":"levelo://app?vid=bdcd4dfa-7e63-495d-a24e-17b0a60bf1f9","ios":"levelo://app?vid=bdcd4dfa-7e63-495d-a24e-17b0a60bf1f9"},"vehicle_type_id":"4","last_reported":1761127922,"current_range_meters":22400,"station_id":"st_d3b462108ojc7389ooeg","pricing_plan_id":"cebpf4jnsgd1na2vs0mg"},{"bike_id":"2172ef7f-240b-4c72-bf8d-26c79cc1f73d","system_id":"levelo_inurba_marseille","lat":43.29921,"lon":5.4368,"is_reserved":false,"is_disabled":false,"rental_uris":{"android":"levelo://app?vid=2172ef7f-240b-4c72-bf8d-26c79cc1f73d","ios":"levelo://app?vid=2172ef7f-240b-4c72-bf8d-26c79cc1f73d"},"vehicle_type_id":"4","last_reported":1761127922,"current_range_meters":22400,"station_id":"ce4bhpp2rcd13ifvqhfg","pricing_plan_id":"cebpf4jnsgd1na2vs0mg"},{"bike_id":"7ba5b1c6-bada-4a48-ba0d-7a33eedde804","system_id":"levelo_inurba_marseille","lat":43.2985,"lon":5.36266,"is_reserved":false,"is_disabled":false,"rental_uris":{"android":"levelo://app?vid=7ba5b1c6-bada-4a48-ba0d-7a33eedde804","ios":"levelo://app?vid=7ba5b1c6-bada-4a48-ba0d-7a33eedde804"},"vehicle_type_id":"4","last_reported":1761127922,"current_range_meters":22400,"station_id":"ce4bgpp2rcd13ifvqc3g","pricing_plan_id":"cebpf4jnsgd1na2vs0mg"},{"bike_id":"d77c236b-4ef9-4da4-a053-8c85ea370247","system_id":"levelo_inurba_marseille","lat":43.279898,"lon":5.416706,"is_reserved":false,"is_disabled":false,"rental_uris":{"android":"levelo://app?vid=d77c236b-4ef9-4da4-a053-8c85ea370247","ios":"levelo://app?vid=d77c236b-4ef9-4da4-a053-8c85ea370247"},"vehicle_type_id":"4","last_reported":1761127922,"current_range_meters":22400,"station_id":"ce4bho12rcd13ifvqh1g","pricing_plan_id":"cebpf4jnsgd1na2vs0mg"},{"bike_id":"f05f1499-2581-4d57-b54c-03f6765f35a0","system_id":"levelo_inurba_marseille","lat":43.259517,"lon":5.408754,"is_reserved":false,"is_disabled":false,"rental_uris":{"android":"levelo://app?vid=f05f1499-2581-4d57-b54c-03f6765f35a0","ios":"levelo://app?vid=f05f1499-2581-4d57-b54c-03f6765f35a0"},"vehicle_type_id":"4","last_reported":1761127922,"current_range_meters":22400,"station_id":"ce4bhm92rcd13ifvqglg","pricing_plan_id":"cebpf4jnsgd1na2vs0mg"},{"bike_id":"078081c6-88c0-4f2d-a619-261bfa8b66b2","system_id":"levelo_inurba_marseille","lat":43.29819,"lon":5.4389,"is_reserved":false,"is_disabled":false,"rental_uris":{"android":"levelo://app?vid=078081c6-88c0-4f2d-a619-261bfa8b66b2","ios":"levelo://app?vid=078081c6-88c0-4f2d-a619-261bfa8b66b2"},"vehicle_type_id":"4","last_reported":1761127922,"current_range_meters":22800,"station_id":"","pricing_plan_id":"cebpf4jnsgd1na2vs0mg"},{"bike_id":"05bf7cd0-8691-44c7-a67e-2e6b83b6f455","system_id":"levelo_inurba_marseille","lat":43.24065,"lon":5.37723,"is_reserved":false,"is_disabled":false,"rental_uris":{"android":"levelo://app?vid=05bf7cd0-8691-44c7-a67e-2e6b83b6f455","ios":"levelo://app?vid=05bf7cd0-8691-44c7-a67e-2e6b83b6f455"},"vehicle_type_id":"4","last_reported":1761127922,"current_range_meters":22800,"station_id":"ce4bhnp2rcd13ifvqgvg","pricing_plan_id":"cebpf4jnsgd1na2vs0mg"},{"bike_id":"4b8a07f6-4c0f-4ee5-8413-fc7298ca0bfe","system_id":"levelo_inurba_marseille","lat":43.30545,"lon":5.3654,"is_reserved":false,"is_disabled":false,"rental_uris":{"android":"levelo://app?vid=4b8a07f6-4c0f-4ee5-8413-fc7298ca0bfe","ios":"levelo://app?vid=4b8a07f6-4c0f-4ee5-8413-fc7298ca0bfe"},"vehicle_type_id":"4","last_reported":1761127922,"current_range_meters":22800,"station_id":"ce4bgs12rcd13ifvqcag","pricing_plan_id":"cebpf4jnsgd1na2vs0mg"},{"bike_id":"d9ecb998-ceaa-4a39-8aba-9f0e44069447","system_id":"levelo_inurba_marseille","lat":43.32147,"lon":5.38731,"is_reserved":false,"is_disabled":false,"rental_uris":{"android":"levelo://app?vid=d9ecb998-ceaa-4a39-8aba-9f0e44069447","ios":"levelo://app?vid=d9ecb998-ceaa-4a39-8aba-9f0e44069447"},"vehicle_type_id":"4","last_reported":1761127922,"current_range_meters":22800,"station_id":"","pricing_plan_id":"cebpf4jnsgd1na2vs0mg"},{"bike_id":"67906021-24b9-455f-8d7a-96a01a302d77","system_id":"levelo_inurba_marseille","lat":43.29735,"lon":5.37684,"is_reserved":false,"is_disabled":false,"rental_uris":{"android":"levelo://app?vid=67906021-24b9-455f-8d7a-96a01a302d77","ios":"levelo://app?vid=67906021-24b9-455f-8d7a-96a01a302d77"},"vehicle_type_id":"4","last_reported":1761127922,"current_range_meters":23200,"station_id":"ce4bgkh2rcd13ifvqbl0","pricing_plan_id":"cebpf4jnsgd1na2vs0mg"},{"bike_id":"3f638399-39c1-4df1-9a86-57d9e98d447f","system_id":"levelo_inurba_marseille","lat":43.29252,"lon":5.37604,"is_reserved":false,"is_disabled":false,"rental_uris":{"android":"levelo://app?vid=3f638399-39c1-4df1-9a86-57d9e98d447f","ios":"levelo://app?vid=3f638399-39c1-4df1-9a86-57d9e98d447f"},"vehicle_type_id":"4","last_reported":1761127922,"current_range_meters":23200,"station_id":"ce4bgi12rcd13ifvqb80","pricing_plan_id":"cebpf4jnsgd1na2vs0mg"},{"bike_id":"6552118e-9997-496d-8ae3-3aae82824535","system_id":"levelo_inurba_marseille","lat":43.32246,"lon":5.38357,"is_reserved":false,"is_disabled":false,"rental_uris":{"android":"levelo://app?vid=6552118e-9997-496d-8ae3-3aae82824535","ios":"levelo://app?vid=6552118e-9997-496d-8ae3-3aae82824535"},"vehicle_type_id":"4","last_reported":1761127922,"current_range_meters":23200,"station_id":"","pricing_plan_id":"cebpf4jnsgd1na2vs0mg"},{"bike_id":"f8c755d7-1bb8-4fcd-bb3f-74aeb49951cc","system_id":"levelo_inurba_marseille","lat":43.31363,"lon":5.37897,"is_reserved":false,"is_disabled":false,"rental_uris":{"android":"levelo://app?vid=f8c755d7-1bb8-4fcd-bb3f-74aeb49951cc","ios":"levelo://app?vid=f8c755d7-1bb8-4fcd-bb3f-74aeb49951cc"},"vehicle_type_id":"4","last_reported":1761127922,"current_range_meters":23200,"station_id":"","pricing_plan_id":"cebpf4jnsgd1na2vs0mg"},{"bike_id":"8dde1083-2e50-432a-9683-f053d263c4d0","system_id":"levelo_inurba_marseille","lat":43.29849,"lon":5.36285,"is_reserved":false,"is_disabled":false,"rental_uris":{"android":"levelo://app?vid=8dde1083-2e50-432a-9683-f053d263c4d0","ios":"levelo://app?vid=8dde1083-2e50-432a-9683-f053d263c4d0"},"vehicle_type_id":"4","last_reported":1761127922,"current_range_meters":23200,"station_id":"ce4bgpp2rcd13ifvqc3g","pricing_plan_id":"cebpf4jnsgd1na2vs0mg"},{"bike_id":"a7fd0c3f-d3e9-4961-a78e-1b374ed3958c","system_id":"levelo_inurba_marseille","lat":43.31992,"lon":5.381579,"is_reserved":false,"is_disabled":false,"rental_uris":{"android":"levelo://app?vid=a7fd0c3f-d3e9-4961-a78e-1b374ed3958c","ios":"levelo://app?vid=a7fd0c3f-d3e9-4961-a78e-1b374ed3958c"},"vehicle_type_id":"4","last_reported":1761127922,"current_range_meters":23200,"station_id":"ce4bhr12rcd13ifvqhpg","pricing_plan_id":"cebpf4jnsgd1na2vs0mg"},{"bike_id":"a3247f72-5216-48ff-b93d-09571791035f","system_id":"levelo_inurba_marseille","lat":43.292645,"lon":5.37626,"is_reserved":false,"is_disabled":false,"rental_uris":{"android":"levelo://app?vid=a3247f72-5216-48ff-b93d-09571791035f","ios":"levelo://app?vid=a3247f72-5216-48ff-b93d-09571791035f"},"vehicle_type_id":"4","last_reported":1761127922,"current_range_meters":24000,"station_id":"ce4bgi12rcd13ifvqb80","pricing_plan_id":"cebpf4jnsgd1na2vs0mg"},{"bike_id":"25510b45-08cd-431b-9096-a61c2284a027","system_id":"levelo_inurba_marseille","lat":43.31671,"lon":5.38251,"is_reserved":false,"is_disabled":false,"rental_uris":{"android":"levelo://app?vid=25510b45-08cd-431b-9096-a61c2284a027","ios":"levelo://app?vid=25510b45-08cd-431b-9096-a61c2284a027"},"vehicle_type_id":"4","last_reported":1761127922,"current_range_meters":24000,"station_id":"","pricing_plan_id":"cebpf4jnsgd1na2vs0mg"},{"bike_id":"381b1ff9-d30d-44a9-a9c8-0fb14fc52a69","system_id":"levelo_inurba_marseille","lat":43.2407,"lon":5.37782,"is_reserved":false,"is_disabled":false,"rental_uris":{"android":"levelo://app?vid=381b1ff9-d30d-44a9-a9c8-0fb14fc52a69","ios":"levelo://app?vid=381b1ff9-d30d-44a9-a9c8-0fb14fc52a69"},"vehicle_type_id":"4","last_reported":1761127922,"current_range_meters":24000,"station_id":"ce4bhnp2rcd13ifvqgvg","pricing_plan_id":"cebpf4jnsgd1na2vs0mg"},{"bike_id":"b6e94710-5754-4e48-a613-4804d272601a","system_id":"levelo_inurba_marseille","lat":43.27372,"lon":5.36261,"is_reserved":false,"is_disabled":false,"rental_uris":{"android":"levelo://app?vid=b6e94710-5754-4e48-a613-4804d272601a","ios":"levelo://app?vid=b6e94710-5754-4e48-a613-4804d272601a"},"vehicle_type_id":"4","last_reported":1761127922,"current_range_meters":24000,"station_id":"ce4bhbh2rcd13ifvqeo0","pricing_plan_id":"cebpf4jnsgd1na2vs0mg"},{"bike_id":"2cd81037-3f76-464f-886c-e8714d61d459","system_id":"levelo_inurba_marseille","lat":43.2319,"lon":5.35561,"is_reserved":false,"is_disabled":false,"rental_uris":{"android":"levelo://app?vid=2cd81037-3f76-464f-886c-e8714d61d459","ios":"levelo://app?vid=2cd81037-3f76-464f-886c-e8714d61d459"},"vehicle_type_id":"4","last_reported":1761127922,"current_range_meters":24000,"station_id":"ce4bhu92rcd13ifvqi70","pricing_plan_id":"cebpf4jnsgd1na2vs0mg"},{"bike_id":"f76fae7b-4387-4f8a-b41d-e07081797d45","system_id":"levelo_inurba_marseille","lat":43.27618,"lon":5.36102,"is_reserved":false,"is_disabled":false,"rental_uris":{"android":"levelo://app?vid=f76fae7b-4387-4f8a-b41d-e07081797d45","ios":"levelo://app?vid=f76fae7b-4387-4f8a-b41d-e07081797d45"},"vehicle_type_id":"4","last_reported":1761127922,"current_range_meters":24000,"station_id":"ce4bgj92rcd13ifvqbe0","pricing_plan_id":"cebpf4jnsgd1na2vs0mg"},{"bike_id":"8e59fc9e-22f6-49ee-8ebb-69bd3bb510ee","system_id":"levelo_inurba_marseille","lat":43.29799,"lon":5.38107,"is_reserved":false,"is_disabled":false,"rental_uris":{"android":"levelo://app?vid=8e59fc9e-22f6-49ee-8ebb-69bd3bb510ee","ios":"levelo://app?vid=8e59fc9e-22f6-49ee-8ebb-69bd3bb510ee"},"vehicle_type_id":"4","last_reported":1761127922,"current_range_meters":24000,"station_id":"ce4bgip2rcd13ifvqbb0","pricing_plan_id":"cebpf4jnsgd1na2vs0mg"},{"bike_id":"62f0a2f8-d352-4580-a096-e8ce56ffccdb","system_id":"levelo_inurba_marseille","lat":43.32104,"lon":5.36757,"is_reserved":false,"is_disabled":false,"rental_uris":{"android":"levelo://app?vid=62f0a2f8-d352-4580-a096-e8ce56ffccdb","ios":"levelo://app?vid=62f0a2f8-d352-4580-a096-e8ce56ffccdb"},"vehicle_type_id":"4","last_reported":1761127922,"current_range_meters":24400,"station_id":"ce4bhrh2rcd13ifvqhug","pricing_plan_id":"cebpf4jnsgd1na2vs0mg"},{"bike_id":"62cfbf5d-d18e-4e53-bfb3-ff7bbdaf9d45","system_id":"levelo_inurba_marseille","lat":43.30555,"lon":5.36679,"is_reserved":false,"is_disabled":false,"rental_uris":{"android":"levelo://app?vid=62cfbf5d-d18e-4e53-bfb3-ff7bbdaf9d45","ios":"levelo://app?vid=62cfbf5d-d18e-4e53-bfb3-ff7bbdaf9d45"},"vehicle_type_id":"4","last_reported":1761127922,"current_range_meters":24400,"station_id":"ce4bgrp2rcd13ifvqc9g","pricing_plan_id":"cebpf4jnsgd1na2vs0mg"},{"bike_id":"75552eb5-38a2-43ca-9291-cacb859b6f73","system_id":"levelo_inurba_marseille","lat":43.284215,"lon":5.349847,"is_reserved":false,"is_disabled":false,"rental_uris":{"android":"levelo://app?vid=75552eb5-38a2-43ca-9291-cacb859b6f73","ios":"levelo://app?vid=75552eb5-38a2-43ca-9291-cacb859b6f73"},"vehicle_type_id":"4","last_reported":1761127922,"current_range_meters":24400,"station_id":"","pricing_plan_id":"cebpf4jnsgd1na2vs0mg"},{"bike_id":"8be4a333-f5bb-42fd-8011-297a35af0437","system_id":"levelo_inurba_marseille","lat":43.29006,"lon":5.35606,"is_reserved":false,"is_disabled":false,"rental_uris":{"android":"levelo://app?vid=8be4a333-f5bb-42fd-8011-297a35af0437","ios":"levelo://app?vid=8be4a333-f5bb-42fd-8011-297a35af0437"},"vehicle_type_id":"4","last_reported":1761127922,"current_range_meters":24400,"station_id":"ce4bhb92rcd13ifvqen0","pricing_plan_id":"cebpf4jnsgd1na2vs0mg"},{"bike_id":"b0360b5f-5afe-449b-864d-bdbfe5565f22","system_id":"levelo_inurba_marseille","lat":43.21192,"lon":5.35074,"is_reserved":false,"is_disabled":false,"rental_uris":{"android":"levelo://app?vid=b0360b5f-5afe-449b-864d-bdbfe5565f22","ios":"levelo://app?vid=b0360b5f-5afe-449b-864d-bdbfe5565f22"},"vehicle_type_id":"4","last_reported":1761127922,"current_range_meters":24400,"station_id":"st_cvj6sg6p6f1abm77japg","pricing_plan_id":"cebpf4jnsgd1na2vs0mg"},{"bike_id":"366d0620-c3d1-4454-8bbb-22b4367d60f3","system_id":"levelo_inurba_marseille","lat":43.27991,"lon":5.41657,"is_reserved":false,"is_disabled":false,"rental_uris":{"android":"levelo://app?vid=366d0620-c3d1-4454-8bbb-22b4367d60f3","ios":"levelo://app?vid=366d0620-c3d1-4454-8bbb-22b4367d60f3"},"vehicle_type_id":"4","last_reported":1761127922,"current_range_meters":24400,"station_id":"ce4bho12rcd13ifvqh1g","pricing_plan_id":"cebpf4jnsgd1na2vs0mg"},{"bike_id":"ca85340e-93d2-44a0-b582-b0bcb9b1beb5","system_id":"levelo_inurba_marseille","lat":43.22926,"lon":5.35403,"is_reserved":false,"is_disabled":false,"rental_uris":{"android":"levelo://app?vid=ca85340e-93d2-44a0-b582-b0bcb9b1beb5","ios":"levelo://app?vid=ca85340e-93d2-44a0-b582-b0bcb9b1beb5"},"vehicle_type_id":"4","last_reported":1761127922,"current_range_meters":24400,"station_id":"cpo3532slgdg3j2ikp40","pricing_plan_id":"cebpf4jnsgd1na2vs0mg"},{"bike_id":"05686769-44b4-41f5-8ec8-dc413c3915c8","system_id":"levelo_inurba_marseille","lat":43.295688,"lon":5.375164,"is_reserved":false,"is_disabled":false,"rental_uris":{"android":"levelo://app?vid=05686769-44b4-41f5-8ec8-dc413c3915c8","ios":"levelo://app?vid=05686769-44b4-41f5-8ec8-dc413c3915c8"},"vehicle_type_id":"4","last_reported":1761127922,"current_range_meters":24800,"station_id":"ce4bgh92rcd13ifvqb50","pricing_plan_id":"cebpf4jnsgd1na2vs0mg"},{"bike_id":"6550a06e-50e8-412c-815a-9e834a18cb39","system_id":"levelo_inurba_marseille","lat":43.29872,"lon":5.39734,"is_reserved":false,"is_disabled":false,"rental_uris":{"android":"levelo://app?vid=6550a06e-50e8-412c-815a-9e834a18cb39","ios":"levelo://app?vid=6550a06e-50e8-412c-815a-9e834a18cb39"},"vehicle_type_id":"4","last_reported":1761127922,"current_range_meters":24800,"station_id":"ce4bh0h2rcd13ifvqd50","pricing_plan_id":"cebpf4jnsgd1na2vs0mg"},{"bike_id":"a8575794-14a4-4364-9f57-aa4def1d77b3","system_id":"levelo_inurba_marseille","lat":43.269736,"lon":5.390416,"is_reserved":false,"is_disabled":false,"rental_uris":{"android":"levelo://app?vid=a8575794-14a4-4364-9f57-aa4def1d77b3","ios":"levelo://app?vid=a8575794-14a4-4364-9f57-aa4def1d77b3"},"vehicle_type_id":"4","last_reported":1761127922,"current_range_meters":24800,"station_id":"ce4bhhh2rcd13ifvqfl0","pricing_plan_id":"cebpf4jnsgd1na2vs0mg"},{"bike_id":"1098b526-f286-40bd-8127-814ec969487e","system_id":"levelo_inurba_marseille","lat":43.29303,"lon":5.37408,"is_reserved":false,"is_disabled":false,"rental_uris":{"android":"levelo://app?vid=1098b526-f286-40bd-8127-814ec969487e","ios":"levelo://app?vid=1098b526-f286-40bd-8127-814ec969487e"},"vehicle_type_id":"4","last_reported":1761127922,"current_range_meters":24800,"station_id":"ce4bgi12rcd13ifvqb70","pricing_plan_id":"cebpf4jnsgd1na2vs0mg"},{"bike_id":"3e4783b6-28d8-4737-a4ef-6a1b0da02476","system_id":"levelo_inurba_marseille","lat":43.29453,"lon":5.40716,"is_reserved":false,"is_disabled":false,"rental_uris":{"android":"levelo://app?vid=3e4783b6-28d8-4737-a4ef-6a1b0da02476","ios":"levelo://app?vid=3e4783b6-28d8-4737-a4ef-6a1b0da02476"},"vehicle_type_id":"4","last_reported":1761127922,"current_range_meters":24800,"station_id":"","pricing_plan_id":"cebpf4jnsgd1na2vs0mg"},{"bike_id":"fb4e4ee3-6494-4c21-ad00-ded6f6a7bcb2","system_id":"levelo_inurba_marseille","lat":43.303845,"lon":5.424847,"is_reserved":false,"is_disabled":false,"rental_uris":{"android":"levelo://app?vid=fb4e4ee3-6494-4c21-ad00-ded6f6a7bcb2","ios":"levelo://app?vid=fb4e4ee3-6494-4c21-ad00-ded6f6a7bcb2"},"vehicle_type_id":"4","last_reported":1761127922,"current_range_meters":24800,"station_id":"ce4bhoh2rcd13ifvqh6g","pricing_plan_id":"cebpf4jnsgd1na2vs0mg"},{"bike_id":"55a5190d-5f15-4392-b954-f871ad8931b8","system_id":"levelo_inurba_marseille","lat":43.31222,"lon":5.36853,"is_reserved":false,"is_disabled":false,"rental_uris":{"android":"levelo://app?vid=55a5190d-5f15-4392-b954-f871ad8931b8","ios":"levelo://app?vid=55a5190d-5f15-4392-b954-f871ad8931b8"},"vehicle_type_id":"4","last_reported":1761127922,"current_range_meters":24800,"station_id":"ce4bgl92rcd13ifvqbq0","pricing_plan_id":"cebpf4jnsgd1na2vs0mg"},{"bike_id":"4dee24e4-b384-4452-a3c1-fade4191b4d2","system_id":"levelo_inurba_marseille","lat":43.29855,"lon":5.36274,"is_reserved":false,"is_disabled":false,"rental_uris":{"android":"levelo://app?vid=4dee24e4-b384-4452-a3c1-fade4191b4d2","ios":"levelo://app?vid=4dee24e4-b384-4452-a3c1-fade4191b4d2"},"vehicle_type_id":"4","last_reported":1761127922,"current_range_meters":24800,"station_id":"ce4bgpp2rcd13ifvqc3g","pricing_plan_id":"cebpf4jnsgd1na2vs0mg"},{"bike_id":"936fe424-804a-45a8-a3b9-4d52b020ef75","system_id":"levelo_inurba_marseille","lat":43.25582,"lon":5.38228,"is_reserved":false,"is_disabled":false,"rental_uris":{"android":"levelo://app?vid=936fe424-804a-45a8-a3b9-4d52b020ef75","ios":"levelo://app?vid=936fe424-804a-45a8-a3b9-4d52b020ef75"},"vehicle_type_id":"4","last_reported":1761127922,"current_range_meters":24800,"station_id":"ce4bhih2rcd13ifvqfs0","pricing_plan_id":"cebpf4jnsgd1na2vs0mg"},{"bike_id":"bf945e52-f581-4263-9565-82d0c1f7dc34","system_id":"levelo_inurba_marseille","lat":43.298871,"lon":5.389011,"is_reserved":false,"is_disabled":false,"rental_uris":{"android":"levelo://app?vid=bf945e52-f581-4263-9565-82d0c1f7dc34","ios":"levelo://app?vid=bf945e52-f581-4263-9565-82d0c1f7dc34"},"vehicle_type_id":"4","last_reported":1761127922,"current_range_meters":24800,"station_id":"ce4bh392rcd13ifvqdl0","pricing_plan_id":"cebpf4jnsgd1na2vs0mg"},{"bike_id":"8020012a-f7ec-476c-a315-f86cd47b595b","system_id":"levelo_inurba_marseille","lat":43.2995,"lon":5.363563,"is_reserved":false,"is_disabled":false,"rental_uris":{"android":"levelo://app?vid=8020012a-f7ec-476c-a315-f86cd47b595b","ios":"levelo://app?vid=8020012a-f7ec-476c-a315-f86cd47b595b"},"vehicle_type_id":"4","last_reported":1761127922,"current_range_meters":24800,"station_id":"ce4bgpp2rcd13ifvqc3g","pricing_plan_id":"cebpf4jnsgd1na2vs0mg"},{"bike_id":"6aa715d2-1276-4b7a-931e-e442146d43bc","system_id":"levelo_inurba_marseille","lat":43.29038,"lon":5.3756,"is_reserved":false,"is_disabled":false,"rental_uris":{"android":"levelo://app?vid=6aa715d2-1276-4b7a-931e-e442146d43bc","ios":"levelo://app?vid=6aa715d2-1276-4b7a-931e-e442146d43bc"},"vehicle_type_id":"4","last_reported":1761127922,"current_range_meters":25200,"station_id":"ce4bh692rcd13ifvqe90","pricing_plan_id":"cebpf4jnsgd1na2vs0mg"},{"bike_id":"b9c38bf0-ea36-4112-a8ff-5a7921a9e9fc","system_id":"levelo_inurba_marseille","lat":43.32307,"lon":5.38274,"is_reserved":false,"is_disabled":false,"rental_uris":{"android":"levelo://app?vid=b9c38bf0-ea36-4112-a8ff-5a7921a9e9fc","ios":"levelo://app?vid=b9c38bf0-ea36-4112-a8ff-5a7921a9e9fc"},"vehicle_type_id":"4","last_reported":1761127922,"current_range_meters":25200,"station_id":"ce4bhr12rcd13ifvqhqg","pricing_plan_id":"cebpf4jnsgd1na2vs0mg"},{"bike_id":"206ce9bb-93f8-4a08-b561-f32d594a1852","system_id":"levelo_inurba_marseille","lat":43.29838,"lon":5.44028,"is_reserved":false,"is_disabled":false,"rental_uris":{"android":"levelo://app?vid=206ce9bb-93f8-4a08-b561-f32d594a1852","ios":"levelo://app?vid=206ce9bb-93f8-4a08-b561-f32d594a1852"},"vehicle_type_id":"4","last_reported":1761127922,"current_range_meters":25200,"station_id":"st_d3jp68qikq2c7381ktn0","pricing_plan_id":"cebpf4jnsgd1na2vs0mg"},{"bike_id":"750b129a-49e1-4d09-b744-dfcb90e393fb","system_id":"levelo_inurba_marseille","lat":43.25121,"lon":5.40313,"is_reserved":false,"is_disabled":false,"rental_uris":{"android":"levelo://app?vid=750b129a-49e1-4d09-b744-dfcb90e393fb","ios":"levelo://app?vid=750b129a-49e1-4d09-b744-dfcb90e393fb"},"vehicle_type_id":"4","last_reported":1761127922,"current_range_meters":25200,"station_id":"ce4bhlh2rcd13ifvqgig","pricing_plan_id":"cebpf4jnsgd1na2vs0mg"},{"bike_id":"9f056ea4-e175-40c9-b35a-023429b8ccfc","system_id":"levelo_inurba_marseille","lat":43.24812,"lon":5.37462,"is_reserved":false,"is_disabled":false,"rental_uris":{"android":"levelo://app?vid=9f056ea4-e175-40c9-b35a-023429b8ccfc","ios":"levelo://app?vid=9f056ea4-e175-40c9-b35a-023429b8ccfc"},