{"last_updated":1705003649,"ttl":30,"version":"2.2","data":{"bikes":[{"bike_id":"f9b4517c-1064-423f-b666-2e9bc79f4e20","system_id":"levelo_inurba_marseille","lat":43.313391,"lon":5.36706,"is_reserved":false,"is_disabled":false,"rental_uris":{"android":"levelo://app?vid=f9b4517c-1064-423f-b666-2e9bc79f4e20","ios":"levelo://app?vid=f9b4517c-1064-423f-b666-2e9bc79f4e20"},"vehicle_type_id":"4","last_reported":1705003649,"current_range_meters":19200,"station_id":"ce4bgr92rcd13ifvqc6g","pricing_plan_id":"free"},{"bike_id":"5168445e-a665-4326-8951-35ccc53c93b1","system_id":"levelo_inurba_marseille","lat":43.312239,"lon":5.368562,"is_reserved":false,"is_disabled":false,"rental_uris":{"android":"levelo://app?vid=5168445e-a665-4326-8951-35ccc53c93b1","ios":"levelo://app?vid=5168445e-a665-4326-8951-35ccc53c93b1"},"vehicle_type_id":"4","last_reported":1705003649,"current_range_meters":14000,"station_id":"ce4bgl92rcd13ifvqbq0","pricing_plan_id":"free"},{"bike_id":"acfbb504-85c8-4acc-94d4-c8debccc475c","system_id":"levelo_inurba_marseille","lat":43.309076,"lon":5.368465,"is_reserved":false,"is_disabled":false,"rental_uris":{"android":"levelo://app?vid=acfbb504-85c8-4acc-94d4-c8debccc475c","ios":"levelo://app?vid=acfbb504-85c8-4acc-94d4-c8debccc475c"},"vehicle_type_id":"4","last_reported":1705003649,"current_range_meters":30400,"station_id":"ce4bgn92rcd13ifvqbvg","pricing_plan_id":"free"},{"bike_id":"bd85cbf3-072e-4f07-ab93-e52a10faf322","system_id":"levelo_inurba_marseille","lat":43.314811,"lon":5.373103,"is_reserved":false,"is_disabled":false,"rental_uris":{"android":"levelo://app?vid=bd85cbf3-072e-4f07-ab93-e52a10faf322","ios":"levelo://app?vid=bd85cbf3-072e-4f07-ab93-e52a10faf322"},"vehicle_type_id":"4","last_reported":1705003649,"current_range_meters":6000,"station_id":"ce4bgt12rcd13ifvqcd0","pricing_plan_id":"free"},{"bike_id":"ac704235-0406-4713-a745-6ef7cee3d0e6","system_id":"levelo_inurba_marseille","lat":43.31503,"lon":5.37288,"is_reserved":false,"is_disabled":false,"rental_uris":{"android":"levelo://app?vid=ac704235-0406-4713-a745-6ef7cee3d0e6","ios":"levelo://app?vid=ac704235-0406-4713-a745-6ef7cee3d0e6"},"vehicle_type_id":"4","last_reported":1705003649,"current_range_meters":19600,"station_id":"ce4bgt12rcd13ifvqcd0","pricing_plan_id":"free"},{"bike_id":"9fbdc117-b73a-432c-abe8-5158e19fc2b8","system_id":"levelo_inurba_marseille","lat":43.314811,"lon":5.373103,"is_reserved":false,"is_disabled":false,"rental_uris":{"android":"levelo://app?vid=9fbdc117-b73a-432c-abe8-5158e19fc2b8","ios":"levelo://app?vid=9fbdc117-b73a-432c-abe8-5158e19fc2b8"},"vehicle_type_id":"4","last_reported":1705003649,"current_range_meters":20400,"station_id":"ce4bgt12rcd13ifvqcd0","pricing_plan_id":"free"},{"bike_id":"493c552c-07c0-4ceb-91b7-b6dbb00ce75d","system_id":"levelo_inurba_marseille","lat":43.308742,"lon":5.372004,"is_reserved":false,"is_disabled":false,"rental_uris":{"android":"levelo://app?vid=493c552c-07c0-4ceb-91b7-b6dbb00ce75d","ios":"levelo://app?vid=493c552c-07c0-4ceb-91b7-b6dbb00ce75d"},"vehicle_type_id":"4","last_reported":1705003649,"current_range_meters":18000,"station_id":"ce4bguh2rcd13ifvqckg","pricing_plan_id":"free"},{"bike_id":"793b28d1-04db-41d1-8b8a-cb0f76cdded8","system_id":"levelo_inurba_marseille","lat":43.305368,"lon":5.367343,"is_reserved":false,"is_disabled":false,"rental_uris":{"android":"levelo://app?vid=793b28d1-04db-41d1-8b8a-cb0f76cdded8","ios":"levelo://app?vid=793b28d1-04db-41d1-8b8a-cb0f76cdded8"},"vehicle_type_id":"4","last_reported":1705003649,"current_range_meters":9200,"station_id":"ce4bgrp2rcd13ifvqc9g","pricing_plan_id":"free"},{"bike_id":"66398695-cf92-4beb-90ac-8994a6c1c920","system_id":"levelo_inurba_marseille","lat":43.305989,"lon":5.37225,"is_reserved":false,"is_disabled":false,"rental_uris":{"android":"levelo://app?vid=66398695-cf92-4beb-90ac-8994a6c1c920","ios":"levelo://app?vid=66398695-cf92-4beb-90ac-8994a6c1c920"},"vehicle_type_id":"4","last_reported":1705003649,"current_range_meters":19600,"station_id":"ce4bgqh2rcd13ifvqc4g","pricing_plan_id":"free"},{"bike_id":"1217822f-7441-4a30-8d04-7fc94b1417d6","system_id":"levelo_inurba_marseille","lat":43.311125,"lon":5.377624,"is_reserved":false,"is_disabled":false,"rental_uris":{"android":"levelo://app?vid=1217822f-7441-4a30-8d04-7fc94b1417d6","ios":"levelo://app?vid=1217822f-7441-4a30-8d04-7fc94b1417d6"},"vehicle_type_id":"4","last_reported":1705003649,"current_range_meters":16000,"station_id":"ce4bgt92rcd13ifvqcg0","pricing_plan_id":"free"},{"bike_id":"0864b8e9-21cb-4a15-b8b0-f4fdf42fcda7","system_id":"levelo_inurba_marseille","lat":43.305989,"lon":5.37225,"is_reserved":false,"is_disabled":false,"rental_uris":{"android":"levelo://app?vid=0864b8e9-21cb-4a15-b8b0-f4fdf42fcda7","ios":"levelo://app?vid=0864b8e9-21cb-4a15-b8b0-f4fdf42fcda7"},"vehicle_type_id":"4","last_reported":1705003649,"current_range_meters":6000,"station_id":"ce4bgqh2rcd13ifvqc4g","pricing_plan_id":"free"},{"bike_id":"55649810-29ad-4e40-b4b3-aeecd23a43fe","system_id":"levelo_inurba_marseille","lat":43.311125,"lon":5.377624,"is_reserved":false,"is_disabled":false,"rental_uris":{"android":"levelo://app?vid=55649810-29ad-4e40-b4b3-aeecd23a43fe","ios":"levelo://app?vid=55649810-29ad-4e40-b4b3-aeecd23a43fe"},"vehicle_type_id":"4","last_reported":1705003649,"current_range_meters":21600,"station_id":"ce4bgt92rcd13ifvqcg0","pricing_plan_id":"free"},{"bike_id":"bb456101-8e5f-4f9e-82e9-dd1bca79be85","system_id":"levelo_inurba_marseille","lat":43.311131,"lon":5.377651,"is_reserved":false,"is_disabled":false,"rental_uris":{"android":"levelo://app?vid=bb456101-8e5f-4f9e-82e9-dd1bca79be85","ios":"levelo://app?vid=bb456101-8e5f-4f9e-82e9-dd1bca79be85"},"vehicle_type_id":"4","last_reported":1705003649,"current_range_meters":0,"station_id":"ce4bgt92rcd13ifvqcg0","pricing_plan_id":"free"},{"bike_id":"5e4475ee-c83e-428a-9703-895a6334ab46","system_id":"levelo_inurba_marseille","lat":43.317075,"lon":5.377367,"is_reserved":false,"is_disabled":false,"rental_uris":{"android":"levelo://app?vid=5e4475ee-c83e-428a-9703-895a6334ab46","ios":"levelo://app?vid=5e4475ee-c83e-428a-9703-895a6334ab46"},"vehicle_type_id":"4","last_reported":1705003649,"current_range_meters":5200,"station_id":"ce4bgth2rcd13ifvqch0","pricing_plan_id":"free"},{"bike_id":"4d461b85-1a0e-4623-8399-e9448b273b12","system_id":"levelo_inurba_marseille","lat":43.317075,"lon":5.377367,"is_reserved":false,"is_disabled":false,"rental_uris":{"android":"levelo://app?vid=4d461b85-1a0e-4623-8399-e9448b273b12","ios":"levelo://app?vid=4d461b85-1a0e-4623-8399-e9448b273b12"},"vehicle_type_id":"4","last_reported":1705003649,"current_range_meters":31200,"station_id":"ce4bgth2rcd13ifvqch0","pricing_plan_id":"free"},{"bike_id":"10c7ca0c-5b38-4f0b-b97a-aa76113893e5","system_id":"levelo_inurba_marseille","lat":43.31707,"lon":5.377487,"is_reserved":false,"is_disabled":false,"rental_uris":{"android":"levelo://app?vid=10c7ca0c-5b38-4f0b-b97a-aa76113893e5","ios":"levelo://app?vid=10c7ca0c-5b38-4f0b-b97a-aa76113893e5"},"vehicle_type_id":"4","last_reported":1705003649,"current_range_meters":26400,"station_id":"ce4bgth2rcd13ifvqch0","pricing_plan_id":"free"},{"bike_id":"e0d105c6-32a3-4a31-955b-73bff73e58cb","system_id":"levelo_inurba_marseille","lat":43.317075,"lon":5.377367,"is_reserved":false,"is_disabled":false,"rental_uris":{"android":"levelo://app?vid=e0d105c6-32a3-4a31-955b-73bff73e58cb","ios":"levelo://app?vid=e0d105c6-32a3-4a31-955b-73bff73e58cb"},"vehicle_type_id":"4","last_reported":1705003649,"current_range_meters":26800,"station_id":"ce4bgth2rcd13ifvqch0","pricing_plan_id":"free"},{"bike_id":"6037dcd5-149c-4903-b2fd-d261e491b3b8","system_id":"levelo_inurba_marseille","lat":43.317075,"lon":5.377367,"is_reserved":false,"is_disabled":false,"rental_uris":{"android":"levelo://app?vid=6037dcd5-149c-4903-b2fd-d261e491b3b8","ios":"levelo://app?vid=6037dcd5-149c-4903-b2fd-d261e491b3b8"},"vehicle_type_id":"4","last_reported":1705003649,"current_range_meters":10800,"station_id":"ce4bgth2rcd13ifvqch0","pricing_plan_id":"free"},{"bike_id":"4703778a-a799-41e5-b078-4160f07f1fec","system_id":"levelo_inurba_marseille","lat":43.317075,"lon":5.377367,"is_reserved":false,"is_disabled":false,"rental_uris":{"android":"levelo://app?vid=4703778a-a799-41e5-b078-4160f07f1fec","ios":"levelo://app?vid=4703778a-a799-41e5-b078-4160f07f1fec"},"vehicle_type_id":"4","last_reported":1705003649,"current_range_meters":23600,"station_id":"ce4bgth2rcd13ifvqch0","pricing_plan_id":"free"},{"bike_id":"4fb6c33f-6a2d-4cb9-b5f5-71a4f8b0b1b3","system_id":"levelo_inurba_marseille","lat":43.317075,"lon":5.377367,"is_reserved":false,"is_disabled":false,"rental_uris":{"android":"levelo://app?vid=4fb6c33f-6a2d-4cb9-b5f5-71a4f8b0b1b3","ios":"levelo://app?vid=4fb6c33f-6a2d-4cb9-b5f5-71a4f8b0b1b3"},"vehicle_type_id":"4","last_reported":1705003649,"current_range_meters":26800,"station_id":"ce4bgth2rcd13ifvqch0","pricing_plan_id":"free"},{"bike_id":"ac5414d2-bc3c-4468-a803-04be703a8788","system_id":"levelo_inurba_marseille","lat":43.301939,"lon":5.366286,"is_reserved":false,"is_disabled":false,"rental_uris":{"android":"levelo://app?vid=ac5414d2-bc3c-4468-a803-04be703a8788","ios":"levelo://app?vid=ac5414d2-bc3c-4468-a803-04be703a8788"},"vehicle_type_id":"4","last_reported":1705003649,"current_range_meters":4000,"station_id":"ce4bgrh2rcd13ifvqc8g","pricing_plan_id":"free"},{"bike_id":"35ae57c0-4e03-42ed-a22b-e36d7a12adb9","system_id":"levelo_inurba_marseille","lat":43.30803,"lon":5.381527,"is_reserved":false,"is_disabled":false,"rental_uris":{"android":"levelo://app?vid=35ae57c0-4e03-42ed-a22b-e36d7a12adb9","ios":"levelo://app?vid=35ae57c0-4e03-42ed-a22b-e36d7a12adb9"},"vehicle_type_id":"4","last_reported":1705003649,"current_range_meters":400,"station_id":"ce4bgt12rcd13ifvqce0","pricing_plan_id":"free"},{"bike_id":"1c887121-e800-4522-870b-cca647071770","system_id":"levelo_inurba_marseille","lat":43.308012,"lon":5.381511,"is_reserved":false,"is_disabled":false,"rental_uris":{"android":"levelo://app?vid=1c887121-e800-4522-870b-cca647071770","ios":"levelo://app?vid=1c887121-e800-4522-870b-cca647071770"},"vehicle_type_id":"4","last_reported":1705003649,"current_range_meters":14800,"station_id":"ce4bgt12rcd13ifvqce0","pricing_plan_id":"free"},{"bike_id":"336144cc-aa51-4db9-b027-1a0f494cdc6b","system_id":"levelo_inurba_marseille","lat":43.308012,"lon":5.381511,"is_reserved":false,"is_disabled":false,"rental_uris":{"android":"levelo://app?vid=336144cc-aa51-4db9-b027-1a0f494cdc6b","ios":"levelo://app?vid=336144cc-aa51-4db9-b027-1a0f494cdc6b"},"vehicle_type_id":"4","last_reported":1705003649,"current_range_meters":29600,"station_id":"ce4bgt12rcd13ifvqce0","pricing_plan_id":"free"},{"bike_id":"01bfcae4-38ea-4300-9591-cbc3ec450207","system_id":"levelo_inurba_marseille","lat":43.304606,"lon":5.379026,"is_reserved":false,"is_disabled":false,"rental_uris":{"android":"levelo://app?vid=01bfcae4-38ea-4300-9591-cbc3ec450207","ios":"levelo://app?vid=01bfcae4-38ea-4300-9591-cbc3ec450207"},"vehicle_type_id":"4","last_reported":1705003649,"current_range_meters":6800,"station_id":"ce4bgup2rcd13ifvqcn0","pricing_plan_id":"free"},{"bike_id":"1f870116-b2d4-4ef6-91b7-023cb8587099","system_id":"levelo_inurba_marseille","lat":43.300827,"lon":5.365856,"is_reserved":false,"is_disabled":false,"rental_uris":{"android":"levelo://app?vid=1f870116-b2d4-4ef6-91b7-023cb8587099","ios":"levelo://app?vid=1f870116-b2d4-4ef6-91b7-023cb8587099"},"vehicle_type_id":"4","last_reported":1705003649,"current_range_meters":8000,"station_id":"","pricing_plan_id":"free"},{"bike_id":"c05cd1af-d006-48a8-9cf0-611ce1f33fa3","system_id":"levelo_inurba_marseille","lat":43.304606,"lon":5.379026,"is_reserved":false,"is_disabled":false,"rental_uris":{"android":"levelo://app?vid=c05cd1af-d006-48a8-9cf0-611ce1f33fa3","ios":"levelo://app?vid=c05cd1af-d006-48a8-9cf0-611ce1f33fa3"},"vehicle_type_id":"4","last_reported":1705003649,"current_range_meters":20000,"station_id":"ce4bgup2rcd13ifvqcn0","pricing_plan_id":"free"},{"bike_id":"d67a9692-4209-4ab8-894a-e96cd1211d97","system_id":"levelo_inurba_marseille","lat":43.324748,"lon":5.365649,"is_reserved":false,"is_disabled":false,"rental_uris":{"android":"levelo://app?vid=d67a9692-4209-4ab8-894a-e96cd1211d97","ios":"levelo://app?vid=d67a9692-4209-4ab8-894a-e96cd1211d97"},"vehicle_type_id":"4","last_reported":1705003649,"current_range_meters":25200,"station_id":"ce4bhs12rcd13ifvqhvg","pricing_plan_id":"free"},{"bike_id":"6a0590f3-4f02-4f03-92b0-24f761ad0b23","system_id":"levelo_inurba_marseille","lat":43.319935,"lon":5.381699,"is_reserved":false,"is_disabled":false,"rental_uris":{"android":"levelo://app?vid=6a0590f3-4f02-4f03-92b0-24f761ad0b23","ios":"levelo://app?vid=6a0590f3-4f02-4f03-92b0-24f761ad0b23"},"vehicle_type_id":"4","last_reported":1705003649,"current_range_meters":16000,"station_id":"ce4bhr12rcd13ifvqhpg","pricing_plan_id":"free"},{"bike_id":"da20981e-151d-4b69-bca5-ea52a228325b","system_id":"levelo_inurba_marseille","lat":43.319935,"lon":5.381699,"is_reserved":false,"is_disabled":false,"rental_uris":{"android":"levelo://app?vid=da20981e-151d-4b69-bca5-ea52a228325b","ios":"levelo://app?vid=da20981e-151d-4b69-bca5-ea52a228325b"},"vehicle_type_id":"4","last_reported":1705003649,"current_range_meters":8000,"station_id":"ce4bhr12rcd13ifvqhpg","pricing_plan_id":"free"},{"bike_id":"ebd5a299-b5e5-4d9f-9b24-6e1f632daa4d","system_id":"levelo_inurba_marseille","lat":43.313571,"lon":5.384829,"is_reserved":false,"is_disabled":false,"rental_uris":{"android":"levelo://app?vid=ebd5a299-b5e5-4d9f-9b24-6e1f632daa4d","ios":"levelo://app?vid=ebd5a299-b5e5-4d9f-9b24-6e1f632daa4d"},"vehicle_type_id":"4","last_reported":1705003649,"current_range_meters":4400,"station_id":"ce4bgt92rcd13ifvqcf0","pricing_plan_id":"free"},{"bike_id":"5e3ae350-92fc-4f1a-91e5-fca6c6157e9c","system_id":"levelo_inurba_marseille","lat":43.314305,"lon":5.385497,"is_reserved":false,"is_disabled":false,"rental_uris":{"android":"levelo://app?vid=5e3ae350-92fc-4f1a-91e5-fca6c6157e9c","ios":"levelo://app?vid=5e3ae350-92fc-4f1a-91e5-fca6c6157e9c"},"vehicle_type_id":"4","last_reported":1705003649,"current_range_meters":3600,"station_id":"","pricing_plan_id":"free"},{"bike_id":"c879d29e-d144-40cc-b54b-b61149046c46","system_id":"levelo_inurba_marseille","lat":43.305364,"lon":5.384119,"is_reserved":false,"is_disabled":false,"rental_uris":{"android":"levelo://app?vid=c879d29e-d144-40cc-b54b-b61149046c46","ios":"levelo://app?vid=c879d29e-d144-40cc-b54b-b61149046c46"},"vehicle_type_id":"4","last_reported":1705003649,"current_range_meters":30000,"station_id":"ce4bgg92rcd13ifvqb30","pricing_plan_id":"free"},{"bike_id":"9305ca81-4bde-4c59-b6ec-a4090b96cb5b","system_id":"levelo_inurba_marseille","lat":43.305364,"lon":5.384119,"is_reserved":false,"is_disabled":false,"rental_uris":{"android":"levelo://app?vid=9305ca81-4bde-4c59-b6ec-a4090b96cb5b","ios":"levelo://app?vid=9305ca81-4bde-4c59-b6ec-a4090b96cb5b"},"vehicle_type_id":"4","last_reported":1705003649,"current_range_meters":22400,"station_id":"ce4bgg92rcd13ifvqb30","pricing_plan_id":"free"},{"bike_id":"9262de54-416d-44d9-9a2d-3e0d2f82f618","system_id":"levelo_inurba_marseille","lat":43.311722,"lon":5.387247,"is_reserved":false,"is_disabled":false,"rental_uris":{"android":"levelo://app?vid=9262de54-416d-44d9-9a2d-3e0d2f82f618","ios":"levelo://app?vid=9262de54-416d-44d9-9a2d-3e0d2f82f618"},"vehicle_type_id":"4","last_reported":1705003649,"current_range_meters":18800,"station_id":"ce4bgv12rcd13ifvqcp0","pricing_plan_id":"free"},{"bike_id":"e98bc26b-751b-4694-a01b-7f78e955e1a2","system_id":"levelo_inurba_marseille","lat":43.311722,"lon":5.387247,"is_reserved":false,"is_disabled":false,"rental_uris":{"android":"levelo://app?vid=e98bc26b-751b-4694-a01b-7f78e955e1a2","ios":"levelo://app?vid=e98bc26b-751b-4694-a01b-7f78e955e1a2"},"vehicle_type_id":"4","last_reported":1705003649,"current_range_meters":27200,"station_id":"ce4bgv12rcd13ifvqcp0","pricing_plan_id":"free"},{"bike_id":"6d95efd6-ce82-4d62-a346-5901c9d56ee4","system_id":"levelo_inurba_marseille","lat":43.32291,"lon":5.38258,"is_reserved":false,"is_disabled":false,"rental_uris":{"android":"levelo://app?vid=6d95efd6-ce82-4d62-a346-5901c9d56ee4","ios":"levelo://app?vid=6d95efd6-ce82-4d62-a346-5901c9d56ee4"},"vehicle_type_id":"4","last_reported":1705003649,"current_range_meters":11600,"station_id":"ce4bhr12rcd13ifvqhqg","pricing_plan_id":"free"},{"bike_id":"8aa9446f-04a1-44b2-bc1a-70577ab3021a","system_id":"levelo_inurba_marseille","lat":43.322872,"lon":5.382756,"is_reserved":false,"is_disabled":false,"rental_uris":{"android":"levelo://app?vid=8aa9446f-04a1-44b2-bc1a-70577ab3021a","ios":"levelo://app?vid=8aa9446f-04a1-44b2-bc1a-70577ab3021a"},"vehicle_type_id":"4","last_reported":1705003649,"current_range_meters":31200,"station_id":"ce4bhr12rcd13ifvqhqg","pricing_plan_id":"free"},{"bike_id":"1229937f-b15f-4120-8710-32f074f3579a","system_id":"levelo_inurba_marseille","lat":43.322872,"lon":5.382756,"is_reserved":false,"is_disabled":false,"rental_uris":{"android":"levelo://app?vid=1229937f-b15f-4120-8710-32f074f3579a","ios":"levelo://app?vid=1229937f-b15f-4120-8710-32f074f3579a"},"vehicle_type_id":"4","last_reported":1705003649,"current_range_meters":31200,"station_id":"ce4bhr12rcd13ifvqhqg","pricing_plan_id":"free"},{"bike_id":"37230247-9ff4-43f8-976c-bfd885c364cc","system_id":"levelo_inurba_marseille","lat":43.322872,"lon":5.382756,"is_reserved":false,"is_disabled":false,"rental_uris":{"android":"levelo://app?vid=37230247-9ff4-43f8-976c-bfd885c364cc","ios":"levelo://app?vid=37230247-9ff4-43f8-976c-bfd885c364cc"},"vehicle_type_id":"4","last_reported":1705003649,"current_range_meters":31200,"station_id":"ce4bhr12rcd13ifvqhqg","pricing_plan_id":"free"},{"bike_id":"d34bb2bd-a70a-48c3-b1e3-fddaf76c231e","system_id":"levelo_inurba_marseille","lat":43.32287,"lon":5.38269,"is_reserved":false,"is_disabled":false,"rental_uris":{"android":"levelo://app?vid=d34bb2bd-a70a-48c3-b1e3-fddaf76c231e","ios":"levelo://app?vid=d34bb2bd-a70a-48c3-b1e3-fddaf76c231e"},"vehicle_type_id":"4","last_reported":1705003649,"current_range_meters":15200,"station_id":"ce4bhr12rcd13ifvqhqg","pricing_plan_id":"free"},{"bike_id":"c0c847ea-83f0-4e06-9678-e7646050a3c7","system_id":"levelo_inurba_marseille","lat":43.322872,"lon":5.382756,"is_reserved":false,"is_disabled":false,"rental_uris":{"android":"levelo://app?vid=c0c847ea-83f0-4e06-9678-e7646050a3c7","ios":"levelo://app?vid=c0c847ea-83f0-4e06-9678-e7646050a3c7"},"vehicle_type_id":"4","last_reported":1705003649,"current_range_meters":31200,"station_id":"ce4bhr12rcd13ifvqhqg","pricing_plan_id":"free"},{"bike_id":"b776e6d9-9dba-4c26-99a6-55a777e3bc47","system_id":"levelo_inurba_marseille","lat":43.322872,"lon":5.382756,"is_reserved":false,"is_disabled":false,"rental_uris":{"android":"levelo://app?vid=b776e6d9-9dba-4c26-99a6-55a777e3bc47","ios":"levelo://app?vid=b776e6d9-9dba-4c26-99a6-55a777e3bc47"},"vehicle_type_id":"4","last_reported":1705003649,"current_range_meters":21200,"station_id":"ce4bhr12rcd13ifvqhqg","pricing_plan_id":"free"},{"bike_id":"ec735675-fa6a-448c-98b7-d9fbcd2cec5b","system_id":"levelo_inurba_marseille","lat":43.322872,"lon":5.382756,"is_reserved":false,"is_disabled":false,"rental_uris":{"android":"levelo://app?vid=ec735675-fa6a-448c-98b7-d9fbcd2cec5b","ios":"levelo://app?vid=ec735675-fa6a-448c-98b7-d9fbcd2cec5b"},"vehicle_type_id":"4","last_reported":1705003649,"current_range_meters":10000,"station_id":"ce4bhr12rcd13ifvqhqg","pricing_plan_id":"free"},{"bike_id":"d68ce626-ef98-4d52-b3b3-f34d703a806b","system_id":"levelo_inurba_marseille","lat":43.328249,"lon":5.366841,"is_reserved":false,"is_disabled":false,"rental_uris":{"android":"levelo://app?vid=d68ce626-ef98-4d52-b3b3-f34d703a806b","ios":"levelo://app?vid=d68ce626-ef98-4d52-b3b3-f34d703a806b"},"vehicle_type_id":"4","last_reported":1705003649,"current_range_meters":16000,"station_id":"ce4bhs92rcd13ifvqi0g","pricing_plan_id":"free"},{"bike_id":"a70069dc-f773-452d-9d3a-320d0014d11e","system_id":"levelo_inurba_marseille","lat":43.328251,"lon":5.366757,"is_reserved":false,"is_disabled":false,"rental_uris":{"android":"levelo://app?vid=a70069dc-f773-452d-9d3a-320d0014d11e","ios":"levelo://app?vid=a70069dc-f773-452d-9d3a-320d0014d11e"},"vehicle_type_id":"4","last_reported":1705003649,"current_range_meters":12800,"station_id":"ce4bhs92rcd13ifvqi0g","pricing_plan_id":"free"},{"bike_id":"331410e4-8362-40e5-8b58-6a53f46a25bd","system_id":"levelo_inurba_marseille","lat":43.32828,"lon":5.366742,"is_reserved":false,"is_disabled":false,"rental_uris":{"android":"levelo://app?vid=331410e4-8362-40e5-8b58-6a53f46a25bd","ios":"levelo://app?vid=331410e4-8362-40e5-8b58-6a53f46a25bd"},"vehicle_type_id":"4","last_reported":1705003649,"current_range_meters":26800,"station_id":"ce4bhs92rcd13ifvqi0g","pricing_plan_id":"free"},{"bike_id":"b417e045-2acd-45ab-8543-5d87cc32d878","system_id":"levelo_inurba_marseille","lat":43.328304,"lon":5.366731,"is_reserved":false,"is_disabled":false,"rental_uris":{"android":"levelo://app?vid=b417e045-2acd-45ab-8543-5d87cc32d878","ios":"levelo://app?vid=b417e045-2acd-45ab-8543-5d87cc32d878"},"vehicle_type_id":"4","last_reported":1705003649,"current_range_meters":24000,"station_id":"ce4bhs92rcd13ifvqi0g","pricing_plan_id":"free"},{"bike_id":"1f1a5220-6426-49f4-89de-c9c79ed6428d","system_id":"levelo_inurba_marseille","lat":43.328305,"lon":5.36679,"is_reserved":false,"is_disabled":false,"rental_uris":{"android":"levelo://app?vid=1f1a5220-6426-49f4-89de-c9c79ed6428d","ios":"levelo://app?vid=1f1a5220-6426-49f4-89de-c9c79ed6428d"},"vehicle_type_id":"4","last_reported":1705003649,"current_range_meters":26000,"station_id":"ce4bhs92rcd13ifvqi0g","pricing_plan_id":"free"},{"bike_id":"7b9958fe-cb69-4b86-8077-c6eefd22d5f1","system_id":"levelo_inurba_marseille","lat":43.32831,"lon":5.36677,"is_reserved":false,"is_disabled":false,"rental_uris":{"android":"levelo://app?vid=7b9958fe-cb69-4b86-8077-c6eefd22d5f1","ios":"levelo://app?vid=7b9958fe-cb69-4b86-8077-c6eefd22d5f1"},"vehicle_type_id":"4","last_reported":1705003649,"current_range_meters":24800,"station_id":"ce4bhs92rcd13ifvqi0g","pricing_plan_id":"free"},{"bike_id":"0c003f15-986d-43ea-8c65-9cfd489b722b","system_id":"levelo_inurba_marseille","lat":43.32832,"lon":5.36683,"is_reserved":false,"is_disabled":false,"rental_uris":{"android":"levelo://app?vid=0c003f15-986d-43ea-8c65-9cfd489b722b","ios":"levelo://app?vid=0c003f15-986d-43ea-8c65-9cfd489b722b"},"vehicle_type_id":"4","last_reported":1705003649,"current_range_meters":16000,"station_id":"ce4bhs92rcd13ifvqi0g","pricing_plan_id":"free"},{"bike_id":"fb45f142-a2e6-4b54-b6fd-5660ca2c1fe5","system_id":"levelo_inurba_marseille","lat":43.328324,"lon":5.366743,"is_reserved":false,"is_disabled":false,"rental_uris":{"android":"levelo://app?vid=fb45f142-a2e6-4b54-b6fd-5660ca2c1fe5","ios":"levelo://app?vid=fb45f142-a2e6-4b54-b6fd-5660ca2c1fe5"},"vehicle_type_id":"4","last_reported":1705003649,"current_range_meters":17200,"station_id":"ce4bhs92rcd13ifvqi0g","pricing_plan_id":"free"},{"bike_id":"ef7bcaa0-cc81-4e08-af4b-aa4d543a0b88","system_id":"levelo_inurba_marseille","lat":43.297163,"lon":5.365866,"is_reserved":false,"is_disabled":false,"rental_uris":{"android":"levelo://app?vid=ef7bcaa0-cc81-4e08-af4b-aa4d543a0b88","ios":"levelo://app?vid=ef7bcaa0-cc81-4e08-af4b-aa4d543a0b88"},"vehicle_type_id":"4","last_reported":1705003649,"current_range_meters":31200,"station_id":"ce4bgn12rcd13ifvqbt0","pricing_plan_id":"free"},{"bike_id":"88ce1e3e-64ba-4587-bd82-ae1b243f1bb5","system_id":"levelo_inurba_marseille","lat":43.297163,"lon":5.365866,"is_reserved":false,"is_disabled":false,"rental_uris":{"android":"levelo://app?vid=88ce1e3e-64ba-4587-bd82-ae1b243f1bb5","ios":"levelo://app?vid=88ce1e3e-64ba-4587-bd82-ae1b243f1bb5"},"vehicle_type_id":"4","last_reported":1705003649,"current_range_meters":30000,"station_id":"ce4bgn12rcd13ifvqbt0","pricing_plan_id":"free"},{"bike_id":"ce773b9f-b267-43ee-a871-c8a229254015","system_id":"levelo_inurba_marseille","lat":43.328373,"lon":5.366902,"is_reserved":false,"is_disabled":false,"rental_uris":{"android":"levelo://app?vid=ce773b9f-b267-43ee-a871-c8a229254015","ios":"levelo://app?vid=ce773b9f-b267-43ee-a871-c8a229254015"},"vehicle_type_id":"4","last_reported":1705003649,"current_range_meters":21200,"station_id":"ce4bhs92rcd13ifvqi0g","pricing_plan_id":"free"},{"bike_id":"30f8693f-6be0-48b2-9028-bcba9d6c72a0","system_id":"levelo_inurba_marseille","lat":43.328379,"lon":5.36675,"is_reserved":false,"is_disabled":false,"rental_uris":{"android":"levelo://app?vid=30f8693f-6be0-48b2-9028-bcba9d6c72a0","ios":"levelo://app?vid=30f8693f-6be0-48b2-9028-bcba9d6c72a0"},"vehicle_type_id":"4","last_reported":1705003649,"current_range_meters":29200,"station_id":"ce4bhs92rcd13ifvqi0g","pricing_plan_id":"free"},{"bike_id":"096e4b5c-c4bd-4912-949a-da870d21a6e6","system_id":"levelo_inurba_marseille","lat":43.297163,"lon":5.365866,"is_reserved":false,"is_disabled":false,"rental_uris":{"android":"levelo://app?vid=096e4b5c-c4bd-4912-949a-da870d21a6e6","ios":"levelo://app?vid=096e4b5c-c4bd-4912-949a-da870d21a6e6"},"vehicle_type_id":"4","last_reported":1705003649,"current_range_meters":7200,"station_id":"ce4bgn12rcd13ifvqbt0","pricing_plan_id":"free"},{"bike_id":"58d427ba-9c80-4d8d-9d4d-8d4ceae32547","system_id":"levelo_inurba_marseille","lat":43.2968,"lon":5.37291,"is_reserved":false,"is_disabled":false,"rental_uris":{"android":"levelo://app?vid=58d427ba-9c80-4d8d-9d4d-8d4ceae32547","ios":"levelo://app?vid=58d427ba-9c80-4d8d-9d4d-8d4ceae32547"},"vehicle_type_id":"4","last_reported":1705003649,"current_range_meters":24800,"station_id":"ce4bgk12rcd13ifvqbj0","pricing_plan_id":"free"},{"bike_id":"0e21c0e1-cd91-41f5-a668-23429ce9066e","system_id":"levelo_inurba_marseille","lat":43.296801,"lon":5.372822,"is_reserved":false,"is_disabled":false,"rental_uris":{"android":"levelo://app?vid=0e21c0e1-cd91-41f5-a668-23429ce9066e","ios":"levelo://app?vid=0e21c0e1-cd91-41f5-a668-23429ce9066e"},"vehicle_type_id":"4","last_reported":1705003649,"current_range_meters":6400,"station_id":"","pricing_plan_id":"free"},{"bike_id":"274b9dfa-3cf7-4a98-813b-e6f5b457b222","system_id":"levelo_inurba_marseille","lat":43.2968,"lon":5.37291,"is_reserved":false,"is_disabled":false,"rental_uris":{"android":"levelo://app?vid=274b9dfa-3cf7-4a98-813b-e6f5b457b222","ios":"levelo://app?vid=274b9dfa-3cf7-4a98-813b-e6f5b457b222"},"vehicle_type_id":"4","last_reported":1705003649,"current_range_meters":6800,"station_id":"ce4bgk12rcd13ifvqbj0","pricing_plan_id":"free"},{"bike_id":"45eee4bd-6800-43d9-acf2-6485fca420f1","system_id":"levelo_inurba_marseille","lat":43.296058,"lon":5.367942,"is_reserved":false,"is_disabled":false,"rental_uris":{"android":"levelo://app?vid=45eee4bd-6800-43d9-acf2-6485fca420f1","ios":"levelo://app?vid=45eee4bd-6800-43d9-acf2-6485fca420f1"},"vehicle_type_id":"4","last_reported":1705003649,"current_range_meters":18000,"station_id":"","pricing_plan_id":"free"},{"bike_id":"a9e2f470-f20b-4b9e-957d-5cea0fae655c","system_id":"levelo_inurba_marseille","lat":43.29573,"lon":5.367355,"is_reserved":false,"is_disabled":false,"rental_uris":{"android":"levelo://app?vid=a9e2f470-f20b-4b9e-957d-5cea0fae655c","ios":"levelo://app?vid=a9e2f470-f20b-4b9e-957d-5cea0fae655c"},"vehicle_type_id":"4","last_reported":1705003649,"current_range_meters":26400,"station_id":"ce4bgph2rcd13ifvqc2g","pricing_plan_id":"free"},{"bike_id":"ba1f21f7-41d6-4c08-ab59-3afda1432b87","system_id":"levelo_inurba_marseille","lat":43.29573,"lon":5.367355,"is_reserved":false,"is_disabled":false,"rental_uris":{"android":"levelo://app?vid=ba1f21f7-41d6-4c08-ab59-3afda1432b87","ios":"levelo://app?vid=ba1f21f7-41d6-4c08-ab59-3afda1432b87"},"vehicle_type_id":"4","last_reported":1705003649,"current_range_meters":29200,"station_id":"ce4bgph2rcd13ifvqc2g","pricing_plan_id":"free"},{"bike_id":"b9470094-4555-4f89-9bb3-8b648ab442a3","system_id":"levelo_inurba_marseille","lat":43.299202,"lon":5.381513,"is_reserved":false,"is_disabled":false,"rental_uris":{"android":"levelo://app?vid=b9470094-4555-4f89-9bb3-8b648ab442a3","ios":"levelo://app?vid=b9470094-4555-4f89-9bb3-8b648ab442a3"},"vehicle_type_id":"4","last_reported":1705003649,"current_range_meters":9200,"station_id":"","pricing_plan_id":"free"},{"bike_id":"427e8bcf-cf19-4b5d-a16c-05e957675767","system_id":"levelo_inurba_marseille","lat":43.299028,"lon":5.381509,"is_reserved":false,"is_disabled":false,"rental_uris":{"android":"levelo://app?vid=427e8bcf-cf19-4b5d-a16c-05e957675767","ios":"levelo://app?vid=427e8bcf-cf19-4b5d-a16c-05e957675767"},"vehicle_type_id":"4","last_reported":1705003649,"current_range_meters":16800,"station_id":"ce4bgj12rcd13ifvqbc0","pricing_plan_id":"free"},{"bike_id":"c9df60c9-08ba-48cd-a42f-ecd6c080137f","system_id":"levelo_inurba_marseille","lat":43.317557,"lon":5.390173,"is_reserved":false,"is_disabled":false,"rental_uris":{"android":"levelo://app?vid=c9df60c9-08ba-48cd-a42f-ecd6c080137f","ios":"levelo://app?vid=c9df60c9-08ba-48cd-a42f-ecd6c080137f"},"vehicle_type_id":"4","last_reported":1705003649,"current_range_meters":30800,"station_id":"ce4bhqp2rcd13ifvqhng","pricing_plan_id":"free"},{"bike_id":"1b74400c-e6ee-4f90-91ec-87e0c680ac50","system_id":"levelo_inurba_marseille","lat":43.317557,"lon":5.390173,"is_reserved":false,"is_disabled":false,"rental_uris":{"android":"levelo://app?vid=1b74400c-e6ee-4f90-91ec-87e0c680ac50","ios":"levelo://app?vid=1b74400c-e6ee-4f90-91ec-87e0c680ac50"},"vehicle_type_id":"4","last_reported":1705003649,"current_range_meters":27600,"station_id":"ce4bhqp2rcd13ifvqhng","pricing_plan_id":"free"},{"bike_id":"51d07258-4a5f-40ea-88ff-067fd4ad86e9","system_id":"levelo_inurba_marseille","lat":43.304274,"lon":5.388873,"is_reserved":false,"is_disabled":false,"rental_uris":{"android":"levelo://app?vid=51d07258-4a5f-40ea-88ff-067fd4ad86e9","ios":"levelo://app?vid=51d07258-4a5f-40ea-88ff-067fd4ad86e9"},"vehicle_type_id":"4","last_reported":1705003649,"current_range_meters":23600,"station_id":"ce4bgk12rcd13ifvqbi0","pricing_plan_id":"free"},{"bike_id":"de12157c-940a-4016-bb4c-1f075c973d25","system_id":"levelo_inurba_marseille","lat":43.304278,"lon":5.388868,"is_reserved":false,"is_disabled":false,"rental_uris":{"android":"levelo://app?vid=de12157c-940a-4016-bb4c-1f075c973d25","ios":"levelo://app?vid=de12157c-940a-4016-bb4c-1f075c973d25"},"vehicle_type_id":"4","last_reported":1705003649,"current_range_meters":16400,"station_id":"ce4bgk12rcd13ifvqbi0","pricing_plan_id":"free"},{"bike_id":"8df95e3d-be1a-44ef-80dc-ac92a2f1c26d","system_id":"levelo_inurba_marseille","lat":43.304274,"lon":5.388873,"is_reserved":false,"is_disabled":false,"rental_uris":{"android":"levelo://app?vid=8df95e3d-be1a-44ef-80dc-ac92a2f1c26d","ios":"levelo://app?vid=8df95e3d-be1a-44ef-80dc-ac92a2f1c26d"},"vehicle_type_id":"4","last_reported":1705003649,"current_range_meters":26000,"station_id":"ce4bgk12rcd13ifvqbi0","pricing_plan_id":"free"},{"bike_id":"f1194645-4cc4-475a-8742-2db1c6b784d8","system_id":"levelo_inurba_marseille","lat":43.297852,"lon":5.381188,"is_reserved":false,"is_disabled":false,"rental_uris":{"android":"levelo://app?vid=f1194645-4cc4-475a-8742-2db1c6b784d8","ios":"levelo://app?vid=f1194645-4cc4-475a-8742-2db1c6b784d8"},"vehicle_type_id":"4","last_reported":1705003649,"current_range_meters":0,"station_id":"ce4bgip2rcd13ifvqbb0","pricing_plan_id":"free"},{"bike_id":"81a59249-5c40-4fda-8d0e-8d4dcbb7a6f6","system_id":"levelo_inurba_marseille","lat":43.29971,"lon":5.38491,"is_reserved":false,"is_disabled":false,"rental_uris":{"android":"levelo://app?vid=81a59249-5c40-4fda-8d0e-8d4dcbb7a6f6","ios":"levelo://app?vid=81a59249-5c40-4fda-8d0e-8d4dcbb7a6f6"},"vehicle_type_id":"4","last_reported":1705003649,"current_range_meters":0,"station_id":"ce4bgj92rcd13ifvqbd0","pricing_plan_id":"free"},{"bike_id":"38fb15e2-97fd-4f68-ae2d-4c0fe510a864","system_id":"levelo_inurba_marseille","lat":43.323696,"lon":5.388665,"is_reserved":false,"is_disabled":false,"rental_uris":{"android":"levelo://app?vid=38fb15e2-97fd-4f68-ae2d-4c0fe510a864","ios":"levelo://app?vid=38fb15e2-97fd-4f68-ae2d-4c0fe510a864"},"vehicle_type_id":"4","last_reported":1705003649,"current_range_meters":21200,"station_id":"ce4bhqp2rcd13ifvqhog","pricing_plan_id":"free"},{"bike_id":"c7855a59-39c1-4341-9257-1f0a6e40a20a","system_id":"levelo_inurba_marseille","lat":43.32367,"lon":5.388836,"is_reserved":false,"is_disabled":false,"rental_uris":{"android":"levelo://app?vid=c7855a59-39c1-4341-9257-1f0a6e40a20a","ios":"levelo://app?vid=c7855a59-39c1-4341-9257-1f0a6e40a20a"},"vehicle_type_id":"4","last_reported":1705003649,"current_range_meters":10800,"station_id":"ce4bhqp2rcd13ifvqhog","pricing_plan_id":"free"},{"bike_id":"cafe7be7-3bdd-4002-988b-fcafc6455e75","system_id":"levelo_inurba_marseille","lat":43.32351,"lon":5.38893,"is_reserved":false,"is_disabled":false,"rental_uris":{"android":"levelo://app?vid=cafe7be7-3bdd-4002-988b-fcafc6455e75","ios":"levelo://app?vid=cafe7be7-3bdd-4002-988b-fcafc6455e75"},"vehicle_type_id":"4","last_reported":1705003649,"current_range_meters":16400,"station_id":"ce4bhqp2rcd13ifvqhog","pricing_plan_id":"free"},{"bike_id":"0ab7a87b-f568-4965-a7d5-d547f8364640","system_id":"levelo_inurba_marseille","lat":43.323635,"lon":5.388831,"is_reserved":false,"is_disabled":false,"rental_uris":{"android":"levelo://app?vid=0ab7a87b-f568-4965-a7d5-d547f8364640","ios":"levelo://app?vid=0ab7a87b-f568-4965-a7d5-d547f8364640"},"vehicle_type_id":"4","last_reported":1705003649,"current_range_meters":8400,"station_id":"ce4bhqp2rcd13ifvqhog","pricing_plan_id":"free"},{"bike_id":"83466757-55a1-43f3-ad37-0db2fa94c736","system_id":"levelo_inurba_marseille","lat":43.32367,"lon":5.388836,"is_reserved":false,"is_disabled":false,"rental_uris":{"android":"levelo://app?vid=83466757-55a1-43f3-ad37-0db2fa94c736","ios":"levelo://app?vid=83466757-55a1-43f3-ad37-0db2fa94c736"},"vehicle_type_id":"4","last_reported":1705003649,"current_range_meters":22000,"station_id":"ce4bhqp2rcd13ifvqhog","pricing_plan_id":"free"},{"bike_id":"53bcccdd-f8f4-4713-a7f0-5bfceffa3b71","system_id":"levelo_inurba_marseille","lat":43.32367,"lon":5.388836,"is_reserved":false,"is_disabled":false,"rental_uris":{"android":"levelo://app?vid=53bcccdd-f8f4-4713-a7f0-5bfceffa3b71","ios":"levelo://app?vid=53bcccdd-f8f4-4713-a7f0-5bfceffa3b71"},"vehicle_type_id":"4","last_reported":1705003649,"current_range_meters":25200,"station_id":"ce4bhqp2rcd13ifvqhog","pricing_plan_id":"free"},{"bike_id":"5b7ef1a3-a12c-4144-815b-274e83c02169","system_id":"levelo_inurba_marseille","lat":43.32367,"lon":5.388836,"is_reserved":false,"is_disabled":false,"rental_uris":{"android":"levelo://app?vid=5b7ef1a3-a12c-4144-815b-274e83c02169","ios":"levelo://app?vid=5b7ef1a3-a12c-4144-815b-274e83c02169"},"vehicle_type_id":"4","last_reported":1705003649,"current_range_meters":13600,"station_id":"ce4bhqp2rcd13ifvqhog","pricing_plan_id":"free"},{"bike_id":"a543be44-eb65-4189-aa5a-bf347333dea9","system_id":"levelo_inurba_marseille","lat":43.32367,"lon":5.388836,"is_reserved":false,"is_disabled":false,"rental_uris":{"android":"levelo://app?vid=a543be44-eb65-4189-aa5a-bf347333dea9","ios":"levelo://app?vid=a543be44-eb65-4189-aa5a-bf347333dea9"},"vehicle_type_id":"4","last_reported":1705003649,"current_range_meters":28000,"station_id":"ce4bhqp2rcd13ifvqhog","pricing_plan_id":"free"},{"bike_id":"556a4a10-46c7-4faa-a5cd-846a5cf46bed","system_id":"levelo_inurba_marseille","lat":43.32367,"lon":5.388836,"is_reserved":false,"is_disabled":false,"rental_uris":{"android":"levelo://app?vid=556a4a10-46c7-4faa-a5cd-846a5cf46bed","ios":"levelo://app?vid=556a4a10-46c7-4faa-a5cd-846a5cf46bed"},"vehicle_type_id":"4","last_reported":1705003649,"current_range_meters":27200,"station_id":"ce4bhqp2rcd13ifvqhog","pricing_plan_id":"free"},{"bike_id":"05fa42a7-a7ef-4797-afe4-0defbaf99f7a","system_id":"levelo_inurba_marseille","lat":43.29601,"lon":5.381084,"is_reserved":false,"is_disabled":false,"rental_uris":{"android":"levelo://app?vid=05fa42a7-a7ef-4797-afe4-0defbaf99f7a","ios":"levelo://app?vid=05fa42a7-a7ef-4797-afe4-0defbaf99f7a"},"vehicle_type_id":"4","last_reported":1705003649,"current_range_meters":19200,"station_id":"ce4bgl12rcd13ifvqbo0","pricing_plan_id":"free"},{"bike_id":"30fed1d5-a40b-465b-96d8-8bbf89684444","system_id":"levelo_inurba_marseille","lat":43.29601,"lon":5.381084,"is_reserved":false,"is_disabled":false,"rental_uris":{"android":"levelo://app?vid=30fed1d5-a40b-465b-96d8-8bbf89684444","ios":"levelo://app?vid=30fed1d5-a40b-465b-96d8-8bbf89684444"},"vehicle_type_id":"4","last_reported":1705003649,"current_range_meters":2000,"station_id":"ce4bgl12rcd13ifvqbo0","pricing_plan_id":"free"},{"bike_id":"ed070972-45a3-424c-a684-e4639a562aac","system_id":"levelo_inurba_marseille","lat":43.292749,"lon":5.368402,"is_reserved":false,"is_disabled":false,"rental_uris":{"android":"levelo://app?vid=ed070972-45a3-424c-a684-e4639a562aac","ios":"levelo://app?vid=ed070972-45a3-424c-a684-e4639a562aac"},"vehicle_type_id":"4","last_reported":1705003649,"current_range_meters":6000,"station_id":"ce4bhbp2rcd13ifvqesg","pricing_plan_id":"free"},{"bike_id":"8922e96f-2207-473d-a8f6-17c7d9287b77","system_id":"levelo_inurba_marseille","lat":43.292749,"lon":5.368402,"is_reserved":false,"is_disabled":false,"rental_uris":{"android":"levelo://app?vid=8922e96f-2207-473d-a8f6-17c7d9287b77","ios":"levelo://app?vid=8922e96f-2207-473d-a8f6-17c7d9287b77"},"vehicle_type_id":"4","last_reported":1705003649,"current_range_meters":18800,"station_id":"ce4bhbp2rcd13ifvqesg","pricing_plan_id":"free"},{"bike_id":"4c9495e0-49d5-41bd-8764-71f3d0c5428d","system_id":"levelo_inurba_marseille","lat":43.29278,"lon":5.36843,"is_reserved":false,"is_disabled":false,"rental_uris":{"android":"levelo://app?vid=4c9495e0-49d5-41bd-8764-71f3d0c5428d","ios":"levelo://app?vid=4c9495e0-49d5-41bd-8764-71f3d0c5428d"},"vehicle_type_id":"4","last_reported":1705003649,"current_range_meters":15600,"station_id":"ce4bhbp2rcd13ifvqesg","pricing_plan_id":"free"},{"bike_id":"43656a6a-0902-4529-9839-2c41f9506f3d","system_id":"levelo_inurba_marseille","lat":43.293249,"lon":5.371578,"is_reserved":false,"is_disabled":false,"rental_uris":{"android":"levelo://app?vid=43656a6a-0902-4529-9839-2c41f9506f3d","ios":"levelo://app?vid=43656a6a-0902-4529-9839-2c41f9506f3d"},"vehicle_type_id":"4","last_reported":1705003649,"current_range_meters":8000,"station_id":"ce4bgh92rcd13ifvqb40","pricing_plan_id":"free"},{"bike_id":"041d056b-7d97-49a4-ac82-4a5cf7f0017e","system_id":"levelo_inurba_marseille","lat":43.29269,"lon":5.36839,"is_reserved":false,"is_disabled":false,"rental_uris":{"android":"levelo://app?vid=041d056b-7d97-49a4-ac82-4a5cf7f0017e","ios":"levelo://app?vid=041d056b-7d97-49a4-ac82-4a5cf7f0017e"},"vehicle_type_id":"4","last_reported":1705003649,"current_range_meters":9200,"station_id":"ce4bhbp2rcd13ifvqesg","pricing_plan_id":"free"},{"bike_id":"25a8f77c-ef06-4a04-8199-45fbc8116482","system_id":"levelo_inurba_marseille","lat":43.293009,"lon":5.374584,"is_reserved":false,"is_disabled":false,"rental_uris":{"android":"levelo://app?vid=25a8f77c-ef06-4a04-8199-45fbc8116482","ios":"levelo://app?vid=25a8f77c-ef06-4a04-8199-45fbc8116482"},"vehicle_type_id":"4","last_reported":1705003649,"current_range_meters":24000,"station_id":"ce4bgi12rcd13ifvqb70","pricing_plan_id":"free"},{"bike_id":"ea457883-7ebc-45f8-90cd-4142ba76ef5e","system_id":"levelo_inurba_marseille","lat":43.305994,"lon":5.393687,"is_reserved":false,"is_disabled":false,"rental_uris":{"android":"levelo://app?vid=ea457883-7ebc-45f8-90cd-4142ba76ef5e","ios":"levelo://app?vid=ea457883-7ebc-45f8-90cd-4142ba76ef5e"},"vehicle_type_id":"4","last_reported":1705003649,"current_range_meters":23600,"station_id":"ce4bh0p2rcd13ifvqd80","pricing_plan_id":"free"},{"bike_id":"da81f2b8-da29-430d-a999-65270a77d1e4","system_id":"levelo_inurba_marseille","lat":43.29289,"lon":5.3745,"is_reserved":false,"is_disabled":false,"rental_uris":{"android":"levelo://app?vid=da81f2b8-da29-430d-a999-65270a77d1e4","ios":"levelo://app?vid=da81f2b8-da29-430d-a999-65270a77d1e4"},"vehicle_type_id":"4","last_reported":1705003649,"current_range_meters":23600,"station_id":"ce4bgi12rcd13ifvqb70","pricing_plan_id":"free"},{"bike_id":"802944d1-6ab2-426a-aa94-e666f1c1ef3f","system_id":"levelo_inurba_marseille","lat":43.293009,"lon":5.374584,"is_reserved":false,"is_disabled":false,"rental_uris":{"android":"levelo://app?vid=802944d1-6ab2-426a-aa94-e666f1c1ef3f","ios":"levelo://app?vid=802944d1-6ab2-426a-aa94-e666f1c1ef3f"},"vehicle_type_id":"4","last_reported":1705003649,"current_range_meters":22400,"station_id":"ce4bgi12rcd13ifvqb70","pricing_plan_id":"free"},{"bike_id":"30493f0f-3591-4d10-b681-a4888da7f9c3","system_id":"levelo_inurba_marseille","lat":43.293009,"lon":5.374584,"is_reserved":false,"is_disabled":false,"rental_uris":{"android":"levelo://app?vid=30493f0f-3591-4d10-b681-a4888da7f9c3","ios":"levelo://app?vid=30493f0f-3591-4d10-b681-a4888da7f9c3"},"vehicle_type_id":"4","last_reported":1705003649,"current_range_meters":11200,"station_id":"ce4bgi12rcd13ifvqb70","pricing_plan_id":"free"},{"bike_id":"40e42c00-a59d-4d08-8735-7a8af9e4b773","system_id":"levelo_inurba_marseille","lat":43.303002,"lon":5.392142,"is_reserved":false,"is_disabled":false,"rental_uris":{"android":"levelo://app?vid=40e42c00-a59d-4d08-8735-7a8af9e4b773","ios":"levelo://app?vid=40e42c00-a59d-4d08-8735-7a8af9e4b773"},"vehicle_type_id":"4","last_reported":1705003649,"current_range_meters":14400,"station_id":"ce4bgkh2rcd13ifvqbk0","pricing_plan_id":"free"},{"bike_id":"e1a147c4-c8be-4ca6-ab67-ec961e90d044","system_id":"levelo_inurba_marseille","lat":43.303002,"lon":5.392142,"is_reserved":false,"is_disabled":false,"rental_uris":{"android":"levelo://app?vid=e1a147c4-c8be-4ca6-ab67-ec961e90d044","ios":"levelo://app?vid=e1a147c4-c8be-4ca6-ab67-ec961e90d044"},"vehicle_type_id":"4","last_reported":1705003649,"current_range_meters":25600,"station_id":"ce4bgkh2rcd13ifvqbk0","pricing_plan_id":"free"},{"bike_id":"aa263476-7ba9-4bce-8483-6cefc3e92fb2","system_id":"levelo_inurba_marseille","lat":43.30085,"lon":5.390856,"is_reserved":false,"is_disabled":false,"rental_uris":{"android":"levelo://app?vid=aa263476-7ba9-4bce-8483-6cefc3e92fb2","ios":"levelo://app?vid=aa263476-7ba9-4bce-8483-6cefc3e92fb2"},"vehicle_type_id":"4","last_reported":1705003649,"current_range_meters":3600,"station_id":"ce4bh192rcd13ifvqdb0","pricing_plan_id":"free"},{"bike_id":"6a1eee02-7dc3-4a41-9b7e-0048fd26ad4f","system_id":"levelo_inurba_marseille","lat":43.300852,"lon":5.390859,"is_reserved":false,"is_disabled":false,"rental_uris":{"android":"levelo://app?vid=6a1eee02-7dc3-4a41-9b7e-0048fd26ad4f","ios":"levelo://app?vid=6a1eee02-7dc3-4a41-9b7e-0048fd26ad4f"},"vehicle_type_id":"4","last_reported":1705003649,"current_range_meters":13200,"station_id":"ce4bh192rcd13ifvqdb0","pricing_plan_id":"free"},{"bike_id":"deab8d8b-afc4-44dc-b75e-c2e0b56af88a","system_id":"levelo_inurba_marseille","lat":43.2936,"lon":5.37835,"is_reserved":false,"is_disabled":false,"rental_uris":{"android":"levelo://app?vid=deab8d8b-afc4-44dc-b75e-c2e0b56af88a","ios":"levelo://app?vid=deab8d8b-afc4-44dc-b75e-c2e0b56af88a"},"vehicle_type_id":"4","last_reported":1705003649,"current_range_meters":16800,"station_id":"ce4bgjh2rcd13ifvqbf0","pricing_plan_id":"free"},{"bike_id":"4d217b16-a1ba-429f-994b-abaa5e5b6032","system_id":"levelo_inurba_marseille","lat":43.293593,"lon":5.378583,"is_reserved":false,"is_disabled":false,"rental_uris":{"android":"levelo://app?vid=4d217b16-a1ba-429f-994b-abaa5e5b6032","ios":"levelo://app?vid=4d217b16-a1ba-429f-994b-abaa5e5b6032"},"vehicle_type_id":"4","last_reported":1705003649,"current_range_meters":0,"station_id":"ce4bgjh2rcd13ifvqbf0","pricing_plan_id":"free"},{"bike_id":"fdf7772e-743e-4ef1-b114-2cfc24a08bc1","system_id":"levelo_inurba_marseille","lat":43.29173,"lon":5.37146,"is_reserved":false,"is_disabled":false,"rental_uris":{"android":"levelo://app?vid=fdf7772e-743e-4ef1-b114-2cfc24a08bc1","ios":"levelo://app?vid=fdf7772e-743e-4ef1-b114-2cfc24a08bc1"},"vehicle_type_id":"4","last_reported":1705003649,"current_range_meters":12400,"station_id":"ce4bha92rcd13ifvqeh0","pricing_plan_id":"free"},{"bike_id":"de56557d-c14c-4636-9655-25edb9b638fb","system_id":"levelo_inurba_marseille","lat":43.298738,"lon":5.389012,"is_reserved":false,"is_disabled":false,"rental_uris":{"android":"levelo://app?vid=de56557d-c14c-4636-9655-25edb9b638fb","ios":"levelo://app?vid=de56557d-c14c-4636-9655-25edb9b638fb"},"vehicle_type_id":"4","last_reported":1705003649,"current_range_meters":18000,"station_id":"","pricing_plan_id":"free"},{"bike_id":"2b7b92f0-8dfc-468b-b42f-bd945286fe8a","system_id":"levelo_inurba_marseille","lat":43.298747,"lon":5.389057,"is_reserved":false,"is_disabled":false,"rental_uris":{"android":"levelo://app?vid=2b7b92f0-8dfc-468b-b42f-bd945286fe8a","ios":"levelo://app?vid=2b7b92f0-8dfc-468b-b42f-bd945286fe8a"},"vehicle_type_id":"4","last_reported":1705003649,"current_range_meters":21600,"station_id":"","pricing_plan_id":"free"},{"bike_id":"ee5ebf5d-c215-4ecd-b010-0e296aa10d66","system_id":"levelo_inurba_marseille","lat":43.291675,"lon":5.371583,"is_reserved":false,"is_disabled":false,"rental_uris":{"android":"levelo://app?vid=ee5ebf5d-c215-4ecd-b010-0e296aa10d66","ios":"levelo://app?vid=ee5ebf5d-c215-4ecd-b010-0e296aa10d66"},"vehicle_type_id":"4","last_reported":1705003649,"current_range_meters":22000,"station_id":"ce4bha92rcd13ifvqeh0","pricing_plan_id":"free"},{"bike_id":"2e716eeb-b217-4e99-9631-735e22b905fd","system_id":"levelo_inurba_marseille","lat":43.291675,"lon":5.371583,"is_reserved":false,"is_disabled":false,"rental_uris":{"android":"levelo://app?vid=2e716eeb-b217-4e99-9631-735e22b905fd","ios":"levelo://app?vid=2e716eeb-b217-4e99-9631-735e22b905fd"},"vehicle_type_id":"4","last_reported":1705003649,"current_range_meters":18000,"station_id":"ce4bha92rcd13ifvqeh0","pricing_plan_id":"free"},{"bike_id":"bbf83efa-482d-407b-b012-acdf1893df7c","system_id":"levelo_inurba_marseille","lat":43.29867,"lon":5.38908,"is_reserved":false,"is_disabled":false,"rental_uris":{"android":"levelo://app?vid=bbf83efa-482d-407b-b012-acdf1893df7c","ios":"levelo://app?vid=bbf83efa-482d-407b-b012-acdf1893df7c"},"vehicle_type_id":"4","last_reported":1705003649,"current_range_meters":17200,"station_id":"","pricing_plan_id":"free"},{"bike_id":"65384567-57f1-4b4d-a323-ac10b0636e11","system_id":"levelo_inurba_marseille","lat":43.298753,"lon":5.389186,"is_reserved":false,"is_disabled":false,"rental_uris":{"android":"levelo://app?vid=65384567-57f1-4b4d-a323-ac10b0636e11","ios":"levelo://app?vid=65384567-57f1-4b4d-a323-ac10b0636e11"},"vehicle_type_id":"4","last_reported":1705003649,"current_range_meters":26400,"station_id":"","pricing_plan_id":"free"},{"bike_id":"572fb94f-6a3b-478f-9d1a-0572ba62cfbf","system_id":"levelo_inurba_marseille","lat":43.291583,"lon":5.371577,"is_reserved":false,"is_disabled":false,"rental_uris":{"android":"levelo://app?vid=572fb94f-6a3b-478f-9d1a-0572ba62cfbf","ios":"levelo://app?vid=572fb94f-6a3b-478f-9d1a-0572ba62cfbf"},"vehicle_type_id":"4","last_reported":1705003649,"current_range_meters":22400,"station_id":"ce4bha92rcd13ifvqeh0","pricing_plan_id":"free"},{"bike_id":"46d7e87f-44cf-4331-add7-054b0786dcbc","system_id":"levelo_inurba_marseille","lat":43.31334,"lon":5.39687,"is_reserved":false,"is_disabled":false,"rental_uris":{"android":"levelo://app?vid=46d7e87f-44cf-4331-add7-054b0786dcbc","ios":"levelo://app?vid=46d7e87f-44cf-4331-add7-054b0786dcbc"},"vehicle_type_id":"4","last_reported":1705003649,"current_range_meters":3600,"station_id":"ce4bgvp2rcd13ifvqcu0","pricing_plan_id":"free"},{"bike_id":"fa90f463-1b70-495e-8fb4-456a5738a650","system_id":"levelo_inurba_marseille","lat":43.309038,"lon":5.396546,"is_reserved":false,"is_disabled":false,"rental_uris":{"android":"levelo://app?vid=fa90f463-1b70-495e-8fb4-456a5738a650","ios":"levelo://app?vid=fa90f463-1b70-495e-8fb4-456a5738a650"},"vehicle_type_id":"4","last_reported":1705003649,"current_range_meters":31200,"station_id":"ce4bh012rcd13ifvqcv0","pricing_plan_id":"free"},{"bike_id":"eb8690af-bf60-47da-b007-07d2e3776202","system_id":"levelo_inurba_marseille","lat":43.3133,"lon":5.39691,"is_reserved":false,"is_disabled":false,"rental_uris":{"android":"levelo://app?vid=eb8690af-bf60-47da-b007-07d2e3776202","ios":"levelo://app?vid=eb8690af-bf60-47da-b007-07d2e3776202"},"vehicle_type_id":"4","last_reported":1705003649,"current_range_meters":14400,"station_id":"ce4bgvp2rcd13ifvqcu0","pricing_plan_id":"free"},{"bike_id":"3945c867-4c23-483d-9b90-fbb78eb575c0","system_id":"levelo_inurba_marseille","lat":43.31328,"lon":5.396921,"is_reserved":false,"is_disabled":false,"rental_uris":{"android":"levelo://app?vid=3945c867-4c23-483d-9b90-fbb78eb575c0","ios":"levelo://app?vid=3945c867-4c23-483d-9b90-fbb78eb575c0"},"vehicle_type_id":"4","last_reported":1705003649,"current_range_meters":18000,"station_id":"ce4bgvp2rcd13ifvqcu0","pricing_plan_id":"free"},{"bike_id":"25e73d19-1a29-4693-80c2-5157b3beecfe","system_id":"levelo_inurba_marseille","lat":43.309038,"lon":5.396546,"is_reserved":false,"is_disabled":false,"rental_uris":{"android":"levelo://app?vid=25e73d19-1a29-4693-80c2-5157b3beecfe","ios":"levelo://app?vid=25e73d19-1a29-4693-80c2-5157b3beecfe"},"vehicle_type_id":"4","last_reported":1705003649,"current_range_meters":31200,"station_id":"ce4bh012rcd13ifvqcv0","pricing_plan_id":"free"},{"bike_id":"918626eb-65cd-4d5a-bbb4-d75265aa8a1c","system_id":"levelo_inurba_marseille","lat":43.313291,"lon":5.396838,"is_reserved":false,"is_disabled":false,"rental_uris":{"android":"levelo://app?vid=918626eb-65cd-4d5a-bbb4-d75265aa8a1c","ios":"levelo://app?vid=918626eb-65cd-4d5a-bbb4-d75265aa8a1c"},"vehicle_type_id":"4","last_reported":1705003649,"current_range_meters":28800,"station_id":"ce4bgvp2rcd13ifvqcu0","pricing_plan_id":"free"},{"bike_id":"bc41725d-f855-415e-83e4-ec0f53f8b549","system_id":"levelo_inurba_marseille","lat":43.309038,"lon":5.396546,"is_reserved":false,"is_disabled":false,"rental_uris":{"android":"levelo://app?vid=bc41725d-f855-415e-83e4-ec0f53f8b549","ios":"levelo://app?vid=bc41725d-f855-415e-83e4-ec0f53f8b549"},"vehicle_type_id":"4","last_reported":1705003649,"current_range_meters":28800,"station_id":"ce4bh012rcd13ifvqcv0","pricing_plan_id":"free"},{"bike_id":"43e3c829-2deb-43ef-8b69-a848c378c386","system_id":"levelo_inurba_marseille","lat":43.31331,"lon":5.39698,"is_reserved":false,"is_disabled":false,"rental_uris":{"android":"levelo://app?vid=43e3c829-2deb-43ef-8b69-a848c378c386","ios":"levelo://app?vid=43e3c829-2deb-43ef-8b69-a848c378c386"},"vehicle_type_id":"4","last_reported":1705003649,"current_range_meters":23200,"station_id":"ce4bgvp2rcd13ifvqcu0","pricing_plan_id":"free"},{"bike_id":"e86e8910-9624-4b42-b332-f7af4d58293c","system_id":"levelo_inurba_marseille","lat":43.309047,"lon":5.396551,"is_reserved":false,"is_disabled":false,"rental_uris":{"android":"levelo://app?vid=e86e8910-9624-4b42-b332-f7af4d58293c","ios":"levelo://app?vid=e86e8910-9624-4b42-b332-f7af4d58293c"},"vehicle_type_id":"4","last_reported":1705003649,"current_range_meters":14000,"station_id":"ce4bh012rcd13ifvqcv0","pricing_plan_id":"free"},{"bike_id":"a46ac0a0-15f6-49ab-90cb-31e315446361","system_id":"levelo_inurba_marseille","lat":43.3133,"lon":5.39701,"is_reserved":false,"is_disabled":false,"rental_uris":{"android":"levelo://app?vid=a46ac0a0-15f6-49ab-90cb-31e315446361","ios":"levelo://app?vid=a46ac0a0-15f6-49ab-90cb-31e315446361"},"vehicle_type_id":"4","last_reported":1705003649,"current_range_meters":0,"station_id":"ce4bgvp2rcd13ifvqcu0","pricing_plan_id":"free"},{"bike_id":"14f0eb3d-7271-4400-9e7f-8f4622c4d6cf","system_id":"levelo_inurba_marseille","lat":43.29529,"lon":5.385581,"is_reserved":false,"is_disabled":false,"rental_uris":{"android":"levelo://app?vid=14f0eb3d-7271-4400-9e7f-8f4622c4d6cf","ios":"levelo://app?vid=14f0eb3d-7271-4400-9e7f-8f4622c4d6cf"},"vehicle_type_id":"4","last_reported":1705003649,"current_range_meters":6800,"station_id":"ce4bgih2rcd13ifvqba0","pricing_plan_id":"free"},{"bike_id":"98ed528b-d74d-4074-afbb-a8d0ee4eb61d","system_id":"levelo_inurba_marseille","lat":43.29529,"lon":5.385581,"is_reserved":false,"is_disabled":false,"rental_uris":{"android":"levelo://app?vid=98ed528b-d74d-4074-afbb-a8d0ee4eb61d","ios":"levelo://app?vid=98ed528b-d74d-4074-afbb-a8d0ee4eb61d"},"vehicle_type_id":"4","last_reported":1705003649,"current_range_meters":20400,"station_id":"ce4bgih2rcd13ifvqba0","pricing_plan_id":"free"},{"bike_id":"27397cfc-1b70-48d5-b106-1890a7993412","system_id":"levelo_inurba_marseille","lat":43.309047,"lon":5.396551,"is_reserved":false,"is_disabled":false,"rental_uris":{"android":"levelo://app?vid=27397cfc-1b70-48d5-b106-1890a7993412","ios":"levelo://app?vid=27397cfc-1b70-48d5-b106-1890a7993412"},"vehicle_type_id":"4","last_reported":1705003649,"current_range_meters":28000,"station_id":"ce4bh012rcd13ifvqcv0","pricing_plan_id":"free"},{"bike_id":"05574a83-466f-4ff4-ac7f-ed3c2d21003d","system_id":"levelo_inurba_marseille","lat":43.29529,"lon":5.385581,"is_reserved":false,"is_disabled":false,"rental_uris":{"android":"levelo://app?vid=05574a83-466f-4ff4-ac7f-ed3c2d21003d","ios":"levelo://app?vid=05574a83-466f-4ff4-ac7f-ed3c2d21003d"},"vehicle_type_id":"4","last_reported":1705003649,"current_range_meters":23200,"station_id":"ce4bgih2rcd13ifvqba0","pricing_plan_id":"free"},{"bike_id":"45969a3c-a73b-4f7c-8a0a-786be3f2a9e6","system_id":"levelo_inurba_marseille","lat":43.29529,"lon":5.385581,"is_reserved":false,"is_disabled":false,"rental_uris":{"android":"levelo://app?vid=45969a3c-a73b-4f7c-8a0a-786be3f2a9e6","ios":"levelo://app?vid=45969a3c-a73b-4f7c-8a0a-786be3f2a9e6"},"vehicle_type_id":"4","last_reported":1705003649,"current_range_meters":18000,"station_id":"ce4bgih2rcd13ifvqba0","pricing_plan_id":"free"},{"bike_id":"2c1008be-f4b0-4439-a766-ca1a41274cc2","system_id":"levelo_inurba_marseille","lat":43.29529,"lon":5.385581,"is_reserved":false,"is_disabled":false,"rental_uris":{"android":"levelo://app?vid=2c1008be-f4b0-4439-a766-ca1a41274cc2","ios":"levelo://app?vid=2c1008be-f4b0-4439-a766-ca1a41274cc2"},"vehicle_type_id":"4","last_reported":1705003649,"current_range_meters":26400,"station_id":"ce4bgih2rcd13ifvqba0","pricing_plan_id":"free"},{"bike_id":"893636fb-3e41-482a-804a-d788ccb6c076","system_id":"levelo_inurba_marseille","lat":43.290779,"lon":5.371482,"is_reserved":false,"is_disabled":false,"rental_uris":{"android":"levelo://app?vid=893636fb-3e41-482a-804a-d788ccb6c076","ios":"levelo://app?vid=893636fb-3e41-482a-804a-d788ccb6c076"},"vehicle_type_id":"4","last_reported":1705003649,"current_range_meters":24000,"station_id":"ce4bh5p2rcd13ifvqe4g","pricing_plan_id":"free"},{"bike_id":"545a782e-9c03-4aeb-a49b-36759c2afe15","system_id":"levelo_inurba_marseille","lat":43.290779,"lon":5.371482,"is_reserved":false,"is_disabled":false,"rental_uris":{"android":"levelo://app?vid=545a782e-9c03-4aeb-a49b-36759c2afe15","ios":"levelo://app?vid=545a782e-9c03-4aeb-a49b-36759c2afe15"},"vehicle_type_id":"4","last_reported":1705003649,"current_range_meters":0,"station_id":"ce4bh5p2rcd13ifvqe4g","pricing_plan_id":"free"},{"bike_id":"5dec7569-3c58-419e-8643-862ba724c75c","system_id":"levelo_inurba_marseille","lat":43.290779,"lon":5.371482,"is_reserved":false,"is_disabled":false,"rental_uris":{"android":"levelo://app?vid=5dec7569-3c58-419e-8643-862ba724c75c","ios":"levelo://app?vid=5dec7569-3c58-419e-8643-862ba724c75c"},"vehicle_type_id":"4","last_reported":1705003649,"current_range_meters":18400,"station_id":"ce4bh5p2rcd13ifvqe4g","pricing_plan_id":"free"},{"bike_id":"eecaae47-6555-4451-bc5d-3b8ad51364c7","system_id":"levelo_inurba_marseille","lat":43.291142,"lon":5.375558,"is_reserved":false,"is_disabled":false,"rental_uris":{"android":"levelo://app?vid=eecaae47-6555-4451-bc5d-3b8ad51364c7","ios":"levelo://app?vid=eecaae47-6555-4451-bc5d-3b8ad51364c7"},"vehicle_type_id":"4","last_reported":1705003649,"current_range_meters":12800,"station_id":"","pricing_plan_id":"free"},{"bike_id":"c0f4f245-1925-480f-9804-3a8149507fb5","system_id":"levelo_inurba_marseille","lat":43.302008,"lon":5.394694,"is_reserved":false,"is_disabled":false,"rental_uris":{"android":"levelo://app?vid=c0f4f245-1925-480f-9804-3a8149507fb5","ios":"levelo://app?vid=c0f4f245-1925-480f-9804-3a8149507fb5"},"vehicle_type_id":"4","last_reported":1705003649,"current_range_meters":30400,"station_id":"ce4bh0p2rcd13ifvqd70","pricing_plan_id":"free"},{"bike_id":"c24afb26-7f38-4a98-8975-2210737db3e1","system_id":"levelo_inurba_marseille","lat":43.302008,"lon":5.394694,"is_reserved":false,"is_disabled":false,"rental_uris":{"android":"levelo://app?vid=c24afb26-7f38-4a98-8975-2210737db3e1","ios":"levelo://app?vid=c24afb26-7f38-4a98-8975-2210737db3e1"},"vehicle_type_id":"4","last_reported":1705003649,"current_range_meters":12400,"station_id":"ce4bh0p2rcd13ifvqd70","pricing_plan_id":"free"},{"bike_id":"86259bc4-3525-40c0-91ba-c03cf85ca58d","system_id":"levelo_inurba_marseille","lat":43.302008,"lon":5.394694,"is_reserved":false,"is_disabled":false,"rental_uris":{"android":"levelo://app?vid=86259bc4-3525-40c0-91ba-c03cf85ca58d","ios":"levelo://app?vid=86259bc4-3525-40c0-91ba-c03cf85ca58d"},"vehicle_type_id":"4","last_reported":1705003649,"current_range_meters":20800,"station_id":"ce4bh0p2rcd13ifvqd70","pricing_plan_id":"free"},{"bike_id":"b2b4b183-d82e-493d-9d7a-8d231ba9fc54","system_id":"levelo_inurba_marseille","lat":43.290624,"lon":5.359245,"is_reserved":false,"is_disabled":false,"rental_uris":{"android":"levelo://app?vid=b2b4b183-d82e-493d-9d7a-8d231ba9fc54","ios":"levelo://app?vid=b2b4b183-d82e-493d-9d7a-8d231ba9fc54"},"vehicle_type_id":"4","last_reported":1705003649,"current_range_meters":30800,"station_id":"ce4bha92rcd13ifvqeg0","pricing_plan_id":"free"},{"bike_id":"901d5ed4-5397-47c3-afa1-335acd05d4c5","system_id":"levelo_inurba_marseille","lat":43.302008,"lon":5.394694,"is_reserved":false,"is_disabled":false,"rental_uris":{"android":"levelo://app?vid=901d5ed4-5397-47c3-afa1-335acd05d4c5","ios":"levelo://app?vid=901d5ed4-5397-47c3-afa1-335acd05d4c5"},"vehicle_type_id":"4","last_reported":1705003649,"current_range_meters":24000,"station_id":"ce4bh0p2rcd13ifvqd70","pricing_plan_id":"free"},{"bike_id":"e1318209-00e4-4b49-ae1a-347d19fedf3c","system_id":"levelo_inurba_marseille","lat":43.290631,"lon":5.359244,"is_reserved":false,"is_disabled":false,"rental_uris":{"android":"levelo://app?vid=e1318209-00e4-4b49-ae1a-347d19fedf3c","ios":"levelo://app?vid=e1318209-00e4-4b49-ae1a-347d19fedf3c"},"vehicle_type_id":"4","last_reported":1705003649,"current_range_meters":20400,"station_id":"ce4bha92rcd13ifvqeg0","pricing_plan_id":"free"},{"bike_id":"5f52e25f-25bb-40fe-8cd8-4989afd33879","system_id":"levelo_inurba_marseille","lat":43.290631,"lon":5.359244,"is_reserved":false,"is_disabled":false,"rental_uris":{"android":"levelo://app?vid=5f52e25f-25bb-40fe-8cd8-4989afd33879","ios":"levelo://app?vid=5f52e25f-25bb-40fe-8cd8-4989afd33879"},"vehicle_type_id":"4","last_reported":1705003649,"current_range_meters":18800,"station_id":"ce4bha92rcd13ifvqeg0","pricing_plan_id":"free"},{"bike_id":"e2fc825f-a477-4b0d-a3fc-a0854cf79874","system_id":"levelo_inurba_marseille","lat":43.29418,"lon":5.3862,"is_reserved":false,"is_disabled":false,"rental_uris":{"android":"levelo://app?vid=e2fc825f-a477-4b0d-a3fc-a0854cf79874","ios":"levelo://app?vid=e2fc825f-a477-4b0d-a3fc-a0854cf79874"},"vehicle_type_id":"4","last_reported":1705003649,"current_range_meters":0,"station_id":"ce4bh2h2rcd13ifvqdh0","pricing_plan_id":"free"},{"bike_id":"969aa3a6-a618-4aea-977e-3f7a24d9b323","system_id":"levelo_inurba_marseille","lat":43.289184,"lon":5.366408,"is_reserved":false,"is_disabled":false,"rental_uris":{"android":"levelo://app?vid=969aa3a6-a618-4aea-977e-3f7a24d9b323","ios":"levelo://app?vid=969aa3a6-a618-4aea-977e-3f7a24d9b323"},"vehicle_type_id":"4","last_reported":1705003649,"current_range_meters":31200,"station_id":"ce4bhap2rcd13ifvqek0","pricing_plan_id":"free"},{"bike_id":"6b637229-3d4a-4513-8803-2505a67f8778","system_id":"levelo_inurba_marseille","lat":43.289439,"lon":5.366363,"is_reserved":false,"is_disabled":false,"rental_uris":{"android":"levelo://app?vid=6b637229-3d4a-4513-8803-2505a67f8778","ios":"levelo://app?vid=6b637229-3d4a-4513-8803-2505a67f8778"},"vehicle_type_id":"4","last_reported":1705003649,"current_range_meters":21200,"station_id":"ce4bhap2rcd13ifvqek0","pricing_plan_id":"free"},{"bike_id":"d717acf6-49c1-40ab-8a23-02c8ff23fb87","system_id":"levelo_inurba_marseille","lat":43.289184,"lon":5.366408,"is_reserved":false,"is_disabled":false,"rental_uris":{"android":"levelo://app?vid=d717acf6-49c1-40ab-8a23-02c8ff23fb87","ios":"levelo://app?vid=d717acf6-49c1-40ab-8a23-02c8ff23fb87"},"vehicle_type_id":"4","last_reported":1705003649,"current_range_meters":31200,"station_id":"ce4bhap2rcd13ifvqek0","pricing_plan_id":"free"},{"bike_id":"b6221352-f87f-4d8f-a62d-2cda7890689c","system_id":"levelo_inurba_marseille","lat":43.289184,"lon":5.366408,"is_reserved":false,"is_disabled":false,"rental_uris":{"android":"levelo://app?vid=b6221352-f87f-4d8f-a62d-2cda7890689c","ios":"levelo://app?vid=b6221352-f87f-4d8f-a62d-2cda7890689c"},"vehicle_type_id":"4","last_reported":1705003649,"current_range_meters":25600,"station_id":"ce4bhap2rcd13ifvqek0","pricing_plan_id":"free"},{"bike_id":"e93b3ae2-7305-4db8-920d-cc0a100e4f96","system_id":"levelo_inurba_marseille","lat":43.289184,"lon":5.366408,"is_reserved":false,"is_disabled":false,"rental_uris":{"android":"levelo://app?vid=e93b3ae2-7305-4db8-920d-cc0a100e4f96","ios":"levelo://app?vid=e93b3ae2-7305-4db8-920d-cc0a100e4f96"},"vehicle_type_id":"4","last_reported":1705003649,"current_range_meters":25600,"station_id":"ce4bhap2rcd13ifvqek0","pricing_plan_id":"free"},{"bike_id":"47d27662-8cff-4f06-af9c-7428b68ceb7e","system_id":"levelo_inurba_marseille","lat":43.289349,"lon":5.366393,"is_reserved":false,"is_disabled":false,"rental_uris":{"android":"levelo://app?vid=47d27662-8cff-4f06-af9c-7428b68ceb7e","ios":"levelo://app?vid=47d27662-8cff-4f06-af9c-7428b68ceb7e"},"vehicle_type_id":"4","last_reported":1705003649,"current_range_meters":29600,"station_id":"ce4bhap2rcd13ifvqek0","pricing_plan_id":"free"},{"bike_id":"9dc4783b-2f10-4913-8b4f-f8a7c95f757f","system_id":"levelo_inurba_marseille","lat":43.289468,"lon":5.363719,"is_reserved":false,"is_disabled":false,"rental_uris":{"android":"levelo://app?vid=9dc4783b-2f10-4913-8b4f-f8a7c95f757f","ios":"levelo://app?vid=9dc4783b-2f10-4913-8b4f-f8a7c95f757f"},"vehicle_type_id":"4","last_reported":1705003649,"current_range_meters":29200,"station_id":"ce4bhc92rcd13ifvqetg","pricing_plan_id":"free"},{"bike_id":"7be6610a-008d-48ba-b65a-5813dc164104","system_id":"levelo_inurba_marseille","lat":43.292853,"lon":5.384423,"is_reserved":false,"is_disabled":false,"rental_uris":{"android":"levelo://app?vid=7be6610a-008d-48ba-b65a-5813dc164104","ios":"levelo://app?vid=7be6610a-008d-48ba-b65a-5813dc164104"},"vehicle_type_id":"4","last_reported":1705003649,"current_range_meters":19200,"station_id":"ce4bh692rcd13ifvqea0","pricing_plan_id":"free"},{"bike_id":"cbe9ae7f-a445-4f39-a67a-52cc7c364683","system_id":"levelo_inurba_marseille","lat":43.29276,"lon":5.38434,"is_reserved":false,"is_disabled":false,"rental_uris":{"android":"levelo://app?vid=cbe9ae7f-a445-4f39-a67a-52cc7c364683","ios":"levelo://app?vid=cbe9ae7f-a445-4f39-a67a-52cc7c364683"},"vehicle_type_id":"4","last_reported":1705003649,"current_range_meters":6800,"station_id":"ce4bh692rcd13ifvqea0","pricing_plan_id":"free"},{"bike_id":"a220fd68-2c6e-4f2d-a669-cd5530ab480b","system_id":"levelo_inurba_marseille","lat":43.292642,"lon":5.384254,"is_reserved":false,"is_disabled":false,"rental_uris":{"android":"levelo://app?vid=a220fd68-2c6e-4f2d-a669-cd5530ab480b","ios":"levelo://app?vid=a220fd68-2c6e-4f2d-a669-cd5530ab480b"},"vehicle_type_id":"4","last_reported":1705003649,"current_range_meters":4000,"station_id":"ce4bh692rcd13ifvqea0","pricing_plan_id":"free"},{"bike_id":"19e7a474-38d1-4887-9a14-e45ccbe87f97","system_id":"levelo_inurba_marseille","lat":43.29274,"lon":5.38436,"is_reserved":false,"is_disabled":false,"rental_uris":{"android":"levelo://app?vid=19e7a474-38d1-4887-9a14-e45ccbe87f97","ios":"levelo://app?vid=19e7a474-38d1-4887-9a14-e45ccbe87f97"},"vehicle_type_id":"4","last_reported":1705003649,"current_range_meters":6000,"station_id":"ce4bh692rcd13ifvqea0","pricing_plan_id":"free"},{"bike_id":"ee5d8d66-63fc-4217-acc0-70809fa3eb16","system_id":"levelo_inurba_marseille","lat":43.292642,"lon":5.384254,"is_reserved":false,"is_disabled":false,"rental_uris":{"android":"levelo://app?vid=ee5d8d66-63fc-4217-acc0-70809fa3eb16","ios":"levelo://app?vid=ee5d8d66-63fc-4217-acc0-70809fa3eb16"},"vehicle_type_id":"4","last_reported":1705003649,"current_range_meters":18800,"station_id":"ce4bh692rcd13ifvqea0","pricing_plan_id":"free"},{"bike_id":"f262ba07-c83a-401d-8b9b-3163ee6853e5","system_id":"levelo_inurba_marseille","lat":43.29272,"lon":5.38442,"is_reserved":false,"is_disabled":false,"rental_uris":{"android":"levelo://app?vid=f262ba07-c83a-401d-8b9b-3163ee6853e5","ios":"levelo://app?vid=f262ba07-c83a-401d-8b9b-3163ee6853e5"},"vehicle_type_id":"4","last_reported":1705003649,"current_range_meters":14800,"station_id":"ce4bh692rcd13ifvqea0","pricing_plan_id":"free"},{"bike_id":"407c1d51-b941-4e71-8014-d71e2b8db5f9","system_id":"levelo_inurba_marseille","lat":43.292642,"lon":5.384254,"is_reserved":false,"is_disabled":false,"rental_uris":{"android":"levelo://app?vid=407c1d51-b941-4e71-8014-d71e2b8db5f9","ios":"levelo://app?vid=407c1d51-b941-4e71-8014-d71e2b8db5f9"},"vehicle_type_id":"4","last_reported":1705003649,"current_range_meters":17600,"station_id":"ce4bh692rcd13ifvqea0","pricing_plan_id":"free"},{"bike_id":"ed94d506-e1a0-4770-a4f6-d546a8f68c17","system_id":"levelo_inurba_marseille","lat":43.29258,"lon":5.38436,"is_reserved":false,"is_disabled":false,"rental_uris":{"android":"levelo://app?vid=ed94d506-e1a0-4770-a4f6-d546a8f68c17","ios":"levelo://app?vid=ed94d506-e1a0-4770-a4f6-d546a8f68c17"},"vehicle_type_id":"4","last_reported":1705003649,"current_range_meters":6800,"station_id":"ce4bh692rcd13ifvqea0","pricing_plan_id":"free"},{"bike_id":"012e9413-71f1-40f6-8f5e-d324c8ebec0e","system_id":"levelo_inurba_marseille","lat":43.290104,"lon":5.356111,"is_reserved":false,"is_disabled":false,"rental_uris":{"android":"levelo://app?vid=012e9413-71f1-40f6-8f5e-d324c8ebec0e","ios":"levelo://app?vid=012e9413-71f1-40f6-8f5e-d324c8ebec0e"},"vehicle_type_id":"4","last_reported":1705003649,"current_range_meters":24800,"station_id":"ce4bhb92rcd13ifvqen0","pricing_plan_id":"free"},{"bike_id":"50709688-6a3d-490b-ba55-40650daca795","system_id":"levelo_inurba_marseille","lat":43.290103,"lon":5.356114,"is_reserved":false,"is_disabled":false,"rental_uris":{"android":"levelo://app?vid=50709688-6a3d-490b-ba55-40650daca795","ios":"levelo://app?vid=50709688-6a3d-490b-ba55-40650daca795"},"vehicle_type_id":"4","last_reported":1705003649,"current_range_meters":25200,"station_id":"ce4bhb92rcd13ifvqen0","pricing_plan_id":"free"},{"bike_id":"db4cb9db-aa51-4530-8fb1-6fc512380a39","system_id":"levelo_inurba_marseille","lat":43.290024,"lon":5.356129,"is_reserved":false,"is_disabled":false,"rental_uris":{"android":"levelo://app?vid=db4cb9db-aa51-4530-8fb1-6fc512380a39","ios":"levelo://app?vid=db4cb9db-aa51-4530-8fb1-6fc512380a39"},"vehicle_type_id":"4","last_reported":1705003649,"current_range_meters":22400,"station_id":"","pricing_plan_id":"free"},{"bike_id":"80599f20-d75d-4d26-a842-764dcc8e0cfe","system_id":"levelo_inurba_marseille","lat":43.33013,"lon":5.39033,"is_reserved":false,"is_disabled":false,"rental_uris":{"android":"levelo://app?vid=80599f20-d75d-4d26-a842-764dcc8e0cfe","ios":"levelo://app?vid=80599f20-d75d-4d26-a842-764dcc8e0cfe"},"vehicle_type_id":"4","last_reported":1705003649,"current_range_meters":17200,"station_id":"","pricing_plan_id":"free"},{"bike_id":"c01314d7-1ab9-4278-862e-e43df7570a49","system_id":"levelo_inurba_marseille","lat":43.297815,"lon":5.393548,"is_reserved":false,"is_disabled":false,"rental_uris":{"android":"levelo://app?vid=c01314d7-1ab9-4278-862e-e43df7570a49","ios":"levelo://app?vid=c01314d7-1ab9-4278-862e-e43df7570a49"},"vehicle_type_id":"4","last_reported":1705003649,"current_range_meters":16800,"station_id":"chh1huq6cuj3fo74tm60","pricing_plan_id":"free"},{"bike_id":"0904bcbe-6b2e-4fb4-84b3-9666a350d09e","system_id":"levelo_inurba_marseille","lat":43.3302,"lon":5.39035,"is_reserved":false,"is_disabled":false,"rental_uris":{"android":"levelo://app?vid=0904bcbe-6b2e-4fb4-84b3-9666a350d09e","ios":"levelo://app?vid=0904bcbe-6b2e-4fb4-84b3-9666a350d09e"},"vehicle_type_id":"4","last_reported":1705003649,"current_range_meters":10800,"station_id":"","pricing_plan_id":"free"},{"bike_id":"78c658f4-e8e4-403e-a085-e59968dd18f0","system_id":"levelo_inurba_marseille","lat":43.295169,"lon":5.390426,"is_reserved":false,"is_disabled":false,"rental_uris":{"android":"levelo://app?vid=78c658f4-e8e4-403e-a085-e59968dd18f0","ios":"levelo://app?vid=78c658f4-e8e4-403e-a085-e59968dd18f0"},"vehicle_type_id":"4","last_reported":1705003649,"current_range_meters":5600,"station_id":"ce4bh3p2rcd13ifvqdp0","pricing_plan_id":"free"},{"bike_id":"49658f1f-95d3-4f7f-a903-fbeacc92dafa","system_id":"levelo_inurba_marseille","lat":43.295169,"lon":5.390426,"is_reserved":false,"is_disabled":false,"rental_uris":{"android":"levelo://app?vid=49658f1f-95d3-4f7f-a903-fbeacc92dafa","ios":"levelo://app?vid=49658f1f-95d3-4f7f-a903-fbeacc92dafa"},"vehicle_type_id":"4","last_reported":1705003649,"current_range_meters":0,"station_id":"ce4bh3p2rcd13ifvqdp0","pricing_plan_id":"free"},{"bike_id":"d0823403-2070-4163-bec2-e8fbdaa17087","system_id":"levelo_inurba_marseille","lat":43.2978,"lon":5.39347,"is_reserved":false,"is_disabled":false,"rental_uris":{"android":"levelo://app?vid=d0823403-2070-4163-bec2-e8fbdaa17087","ios":"levelo://app?vid=d0823403-2070-4163-bec2-e8fbdaa17087"},"vehicle_type_id":"4","last_reported":1705003649,"current_range_meters":26000,"station_id":"chh1huq6cuj3fo74tm60","pricing_plan_id":"free"},{"bike_id":"8fe359a3-7109-4a83-a4f9-b0904a0a2302","system_id":"levelo_inurba_marseille","lat":43.33019,"lon":5.390417,"is_reserved":false,"is_disabled":false,"rental_uris":{"android":"levelo://app?vid=8fe359a3-7109-4a83-a4f9-b0904a0a2302","ios":"levelo://app?vid=8fe359a3-7109-4a83-a4f9-b0904a0a2302"},"vehicle_type_id":"4","last_reported":1705003649,"current_range_meters":18400,"station_id":"","pricing_plan_id":"free"},{"bike_id":"94af1971-6210-4f26-b70a-e8e696bf537d","system_id":"levelo_inurba_marseille","lat":43.29527,"lon":5.39039,"is_reserved":false,"is_disabled":false,"rental_uris":{"android":"levelo://app?vid=94af1971-6210-4f26-b70a-e8e696bf537d","ios":"levelo://app?vid=94af1971-6210-4f26-b70a-e8e696bf537d"},"vehicle_type_id":"4","last_reported":1705003649,"current_range_meters":14800,"station_id":"ce4bh3p2rcd13ifvqdp0","pricing_plan_id":"free"},{"bike_id":"c8dfd4e1-b8a2-4a47-81f8-65e2d2497f1d","system_id":"levelo_inurba_marseille","lat":43.33017,"lon":5.39046,"is_reserved":false,"is_disabled":false,"rental_uris":{"android":"levelo://app?vid=c8dfd4e1-b8a2-4a47-81f8-65e2d2497f1d","ios":"levelo://app?vid=c8dfd4e1-b8a2-4a47-81f8-65e2d2497f1d"},"vehicle_type_id":"4","last_reported":1705003649,"current_range_meters":30000,"station_id":"","pricing_plan_id":"free"},{"bike_id":"9ff5941f-d86b-4d3a-8d9b-6e95602c207f","system_id":"levelo_inurba_marseille","lat":43.295169,"lon":5.390426,"is_reserved":false,"is_disabled":false,"rental_uris":{"android":"levelo://app?vid=9ff5941f-d86b-4d3a-8d9b-6e95602c207f","ios":"levelo://app?vid=9ff5941f-d86b-4d3a-8d9b-6e95602c207f"},"vehicle_type_id":"4","last_reported":1705003649,"current_range_meters":31600,"station_id":"ce4bh3p2rcd13ifvqdp0","pricing_plan_id":"free"},{"bike_id":"29877edf-f914-4818-a395-be7aee9e9d72","system_id":"levelo_inurba_marseille","lat":43.33024,"lon":5.39038,"is_reserved":false,"is_disabled":false,"rental_uris":{"android":"levelo://app?vid=29877edf-f914-4818-a395-be7aee9e9d72","ios":"levelo://app?vid=29877edf-f914-4818-a395-be7aee9e9d72"},"vehicle_type_id":"4","last_reported":1705003649,"current_range_meters":19600,"station_id":"","pricing_plan_id":"free"},{"bike_id":"fe108f99-4139-4020-acb3-711e6f40cdcf","system_id":"levelo_inurba_marseille","lat":43.295169,"lon":5.390426,"is_reserved":false,"is_disabled":false,"rental_uris":{"android":"levelo://app?vid=fe108f99-4139-4020-acb3-711e6f40cdcf","ios":"levelo://app?vid=fe108f99-4139-4020-acb3-711e6f40cdcf"},"vehicle_type_id":"4","last_reported":1705003649,"current_range_meters":20800,"station_id":"ce4bh3p2rcd13ifvqdp0","pricing_plan_id":"free"},{"bike_id":"e7dcaaa9-cc06-45af-bfbd-9ecd35e01aae","system_id":"levelo_inurba_marseille","lat":43.330197,"lon":5.390461,"is_reserved":false,"is_disabled":false,"rental_uris":{"android":"levelo://app?vid=e7dcaaa9-cc06-45af-bfbd-9ecd35e01aae","ios":"levelo://app?vid=e7dcaaa9-cc06-45af-bfbd-9ecd35e01aae"},"vehicle_type_id":"4","last_reported":1705003649,"current_range_meters":17200,"station_id":"","pricing_plan_id":"free"},{"bike_id":"725d0a4f-0595-4c35-a754-3c2cb4923bf2","system_id":"levelo_inurba_marseille","lat":43.295169,"lon":5.390426,"is_reserved":false,"is_disabled":false,"rental_uris":{"android":"levelo://app?vid=725d0a4f-0595-4c35-a754-3c2cb4923bf2","ios":"levelo://app?vid=725d0a4f-0595-4c35-a754-3c2cb4923bf2"},"vehicle_type_id":"4","last_reported":1705003649,"current_range_meters":30400,"station_id":"ce4bh3p2rcd13ifvqdp0","pricing_plan_id":"free"},{"bike_id":"f075a941-d4ba-4711-bdaa-989dd4b0bb45","system_id":"levelo_inurba_marseille","lat":43.295169,"lon":5.390426,"is_reserved":false,"is_disabled":false,"rental_uris":{"android":"levelo://app?vid=f075a941-d4ba-4711-bdaa-989dd4b0bb45","ios":"levelo://app?vid=f075a941-d4ba-4711-bdaa-989dd4b0bb45"},"vehicle_type_id":"4","last_reported":1705003649,"current_range_meters":30800,"station_id":"ce4bh3p2rcd13ifvqdp0","pricing_plan_id":"free"},{"bike_id":"25fbee09-e328-4565-8086-dfd5d4b4a0ab","system_id":"levelo_inurba_marseille","lat":43.295169,"lon":5.390426,"is_reserved":false,"is_disabled":false,"rental_uris":{"android":"levelo://app?vid=25fbee09-e328-4565-8086-dfd5d4b4a0ab","ios":"levelo://app?vid=25fbee09-e328-4565-8086-dfd5d4b4a0ab"},"vehicle_type_id":"4","last_reported":1705003649,"current_range_meters":28000,"station_id":"ce4bh3p2rcd13ifvqdp0","pricing_plan_id":"free"},{"bike_id":"94c4981b-58fe-414c-a182-880f0b137447","system_id":"levelo_inurba_marseille","lat":43.295169,"lon":5.390426,"is_reserved":false,"is_disabled":false,"rental_uris":{"android":"levelo://app?vid=94c4981b-58fe-414c-a182-880f0b137447","ios":"levelo://app?vid=94c4981b-58fe-414c-a182-880f0b137447"},"vehicle_type_id":"4","last_reported":1705003649,"current_range_meters":23200,"station_id":"ce4bh3p2rcd13ifvqdp0","pricing_plan_id":"free"},{"bike_id":"e0fc462b-d274-4653-b05d-8e799e350e05","system_id":"levelo_inurba_marseille","lat":43.295169,"lon":5.390426,"is_reserved":false,"is_disabled":false,"rental_uris":{"android":"levelo://app?vid=e0fc462b-d274-4653-b05d-8e799e350e05","ios":"levelo://app?vid=e0fc462b-d274-4653-b05d-8e799e350e05"},"vehicle_type_id":"4","last_reported":1705003649,"current_range_meters":30400,"station_id":"ce4bh3p2rcd13ifvqdp0","pricing_plan_id":"free"},{"bike_id":"86a5786a-0a69-40b4-b34f-5180d142ff48","system_id":"levelo_inurba_marseille","lat":43.295169,"lon":5.390426,"is_reserved":false,"is_disabled":false,"rental_uris":{"android":"levelo://app?vid=86a5786a-0a69-40b4-b34f-5180d142ff48","ios":"levelo://app?vid=86a5786a-0a69-40b4-b34f-5180d142ff48"},"vehicle_type_id":"4","last_reported":1705003649,"current_range_meters":21600,"station_id":"ce4bh3p2rcd13ifvqdp0","pricing_plan_id":"free"},{"bike_id":"4e808507-0e18-4e18-9ea4-5dafe1ce4990","system_id":"levelo_inurba_marseille","lat":43.295169,"lon":5.390426,"is_reserved":false,"is_disabled":false,"rental_uris":{"android":"levelo://app?vid=4e808507-0e18-4e18-9ea4-5dafe1ce4990","ios":"levelo://app?vid=4e808507-0e18-4e18-9ea4-5dafe1ce4990"},"vehicle_type_id":"4","last_reported":1705003649,"current_range_meters":20800,"station_id":"ce4bh3p2rcd13ifvqdp0","pricing_plan_id":"free"},{"bike_id":"57a9e790-e938-4953-a578-654c8db7c6b3","system_id":"levelo_inurba_marseille","lat":43.295169,"lon":5.390426,"is_reserved":false,"is_disabled":false,"rental_uris":{"android":"levelo://app?vid=57a9e790-e938-4953-a578-654c8db7c6b3","ios":"levelo://app?vid=57a9e790-e938-4953-a578-654c8db7c6b3"},"vehicle_type_id":"4","last_reported":1705003649,"current_range_meters":31600,"station_id":"ce4bh3p2rcd13ifvqdp0","pricing_plan_id":"free"},{"bike_id":"8637f6d8-0cae-4710-a307-32973ee3e703","system_id":"levelo_inurba_marseille","lat":43.295169,"lon":5.390426,"is_reserved":false,"is_disabled":false,"rental_uris":{"android":"levelo://app?vid=8637f6d8-0cae-4710-a307-32973ee3e703","ios":"levelo://app?vid=8637f6d8-0cae-4710-a307-32973ee3e703"},"vehicle_type_id":"4","last_reported":1705003649,"current_range_meters":18400,"station_id":"ce4bh3p2rcd13ifvqdp0","pricing_plan_id":"free"},{"bike_id":"d290d5fb-a452-4812-a30b-6dd29b08acc4","system_id":"levelo_inurba_marseille","lat":43.295169,"lon":5.390426,"is_reserved":false,"is_disabled":false,"rental_uris":{"android":"levelo://app?vid=d290d5fb-a452-4812-a30b-6dd29b08acc4","ios":"levelo://app?vid=d290d5fb-a452-4812-a30b-6dd29b08acc4"},"vehicle_type_id":"4","last_reported":1705003649,"current_range_meters":13200,"station_id":"ce4bh3p2rcd13ifvqdp0","pricing_plan_id":"free"},{"bike_id":"0714a4a6-67eb-4d48-acb6-9eb2c57020ed","system_id":"levelo_inurba_marseille","lat":43.295169,"lon":5.390426,"is_reserved":false,"is_disabled":false,"rental_uris":{"android":"levelo://app?vid=0714a4a6-67eb-4d48-acb6-9eb2c57020ed","ios":"levelo://app?vid=0714a4a6-67eb-4d48-acb6-9eb2c57020ed"},"vehicle_type_id":"4","last_reported":1705003649,"current_range_meters":14400,"station_id":"ce4bh3p2rcd13ifvqdp0","pricing_plan_id":"free"},{"bike_id":"b452c50a-45b9-418f-af37-23e155f2f2d8","system_id":"levelo_inurba_marseille","lat":43.290094,"lon":5.381264,"is_reserved":false,"is_disabled":false,"rental_uris":{"android":"levelo://app?vid=b452c50a-45b9-418f-af37-23e155f2f2d8","ios":"levelo://app?vid=b452c50a-45b9-418f-af37-23e155f2f2d8"},"vehicle_type_id":"4","last_reported":1705003649,"current_range_meters":8800,"station_id":"ce4bh4p2rcd13ifvqe1g","pricing_plan_id":"free"},{"bike_id":"1d8c446f-062d-4ad2-bdb3-6de87cfdd2cc","system_id":"levelo_inurba_marseille","lat":43.28856,"lon":5.358371,"is_reserved":false,"is_disabled":false,"rental_uris":{"android":"levelo://app?vid=1d8c446f-062d-4ad2-bdb3-6de87cfdd2cc","ios":"levelo://app?vid=1d8c446f-062d-4ad2-bdb3-6de87cfdd2cc"},"vehicle_type_id":"4","last_reported":1705003649,"current_range_meters":27600,"station_id":"ce4bhb12rcd13ifvqem0","pricing_plan_id":"free"},{"bike_id":"e7563d82-2e3d-42f8-abe5-63a03148a63f","system_id":"levelo_inurba_marseille","lat":43.28856,"lon":5.358371,"is_reserved":false,"is_disabled":false,"rental_uris":{"android":"levelo://app?vid=e7563d82-2e3d-42f8-abe5-63a03148a63f","ios":"levelo://app?vid=e7563d82-2e3d-42f8-abe5-63a03148a63f"},"vehicle_type_id":"4","last_reported":1705003649,"current_range_meters":27200,"station_id":"ce4bhb12rcd13ifvqem0","pricing_plan_id":"free"},{"bike_id":"74d86ee4-b8cf-46bd-bf46-e99b5204b8f9","system_id":"levelo_inurba_marseille","lat":43.28856,"lon":5.358371,"is_reserved":false,"is_disabled":false,"rental_uris":{"android":"levelo://app?vid=74d86ee4-b8cf-46bd-bf46-e99b5204b8f9","ios":"levelo://app?vid=74d86ee4-b8cf-46bd-bf46-e99b5204b8f9"},"vehicle_type_id":"4","last_reported":1705003649,"current_range_meters":19200,"station_id":"ce4bhb12rcd13ifvqem0","pricing_plan_id":"free"},{"bike_id":"dd401ffe-c0da-4f7a-8d65-b8fce458540e","system_id":"levelo_inurba_marseille","lat":43.3374,"lon":5.37448,"is_reserved":false,"is_disabled":false,"rental_uris":{"android":"levelo://app?vid=dd401ffe-c0da-4f7a-8d65-b8fce458540e","ios":"levelo://app?vid=dd401ffe-c0da-4f7a-8d65-b8fce458540e"},"vehicle_type_id":"4","last_reported":1705003649,"current_range_meters":22400,"station_id":"","pricing_plan_id":"free"},{"bike_id":"15ea7858-b2ed-4d73-b95a-779a48b45d34","system_id":"levelo_inurba_marseille","lat":43.312609,"lon":5.401662,"is_reserved":false,"is_disabled":false,"rental_uris":{"android":"levelo://app?vid=15ea7858-b2ed-4d73-b95a-779a48b45d34","ios":"levelo://app?vid=15ea7858-b2ed-4d73-b95a-779a48b45d34"},"vehicle_type_id":"4","last_reported":1705003649,"current_range_meters":16800,"station_id":"ce4bh092rcd13ifvqd30","pricing_plan_id":"free"},{"bike_id":"7dbbd0d0-0fe0-4a7e-bce3-6765ff51695c","system_id":"levelo_inurba_marseille","lat":43.31277,"lon":5.40171,"is_reserved":false,"is_disabled":false,"rental_uris":{"android":"levelo://app?vid=7dbbd0d0-0fe0-4a7e-bce3-6765ff51695c","ios":"levelo://app?vid=7dbbd0d0-0fe0-4a7e-bce3-6765ff51695c"},"vehicle_type_id":"4","last_reported":1705003649,"current_range_meters":29600,"station_id":"ce4bh092rcd13ifvqd30","pricing_plan_id":"free"},{"bike_id":"b87fbd4c-5846-45b8-92d5-d54acca46972","system_id":"levelo_inurba_marseille","lat":43.30931,"lon":5.4014,"is_reserved":false,"is_disabled":false,"rental_uris":{"android":"levelo://app?vid=b87fbd4c-5846-45b8-92d5-d54acca46972","ios":"levelo://app?vid=b87fbd4c-5846-45b8-92d5-d54acca46972"},"vehicle_type_id":"4","last_reported":1705003649,"current_range_meters":22800,"station_id":"ce4bgvp2rcd13ifvqct0","pricing_plan_id":"free"},{"bike_id":"d4632afc-35e3-4069-86f7-ff142e5cadb3","system_id":"levelo_inurba_marseille","lat":43.31277,"lon":5.401734,"is_reserved":false,"is_disabled":false,"rental_uris":{"android":"levelo://app?vid=d4632afc-35e3-4069-86f7-ff142e5cadb3","ios":"levelo://app?vid=d4632afc-35e3-4069-86f7-ff142e5cadb3"},"vehicle_type_id":"4","last_reported":1705003649,"current_range_meters":13200,"station_id":"ce4bh092rcd13ifvqd30","pricing_plan_id":"free"},{"bike_id":"2a557ac6-22d9-485a-b7dd-3cf7663be2be","system_id":"levelo_inurba_marseille","lat":43.312609,"lon":5.401662,"is_reserved":false,"is_disabled":false,"rental_uris":{"android":"levelo://app?vid=2a557ac6-22d9-485a-b7dd-3cf7663be2be","ios":"levelo://app?vid=2a557ac6-22d9-485a-b7dd-3cf7663be2be"},"vehicle_type_id":"4","last_reported":1705003649,"current_range_meters":13200,"station_id":"ce4bh092rcd13ifvqd30","pricing_plan_id":"free"},{"bike_id":"d575caef-2b53-4899-9b1e-271e38eac812","system_id":"levelo_inurba_marseille","lat":43.30928,"lon":5.40142,"is_reserved":false,"is_disabled":false,"rental_uris":{"android":"levelo://app?vid=d575caef-2b53-4899-9b1e-271e38eac812","ios":"levelo://app?vid=d575caef-2b53-4899-9b1e-271e38eac812"},"vehicle_type_id":"4","last_reported":1705003649,"current_range_meters":25600,"station_id":"ce4bgvp2rcd13ifvqct0","pricing_plan_id":"free"},{"bike_id":"07d7104d-5ee2-4ff2-b3d9-f8f9edd0ad53","system_id":"levelo_inurba_marseille","lat":43.30929,"lon":5.40143,"is_reserved":false,"is_disabled":false,"rental_uris":{"android":"levelo://app?vid=07d7104d-5ee2-4ff2-b3d9-f8f9edd0ad53","ios":"levelo://app?vid=07d7104d-5ee2-4ff2-b3d9-f8f9edd0ad53"},"vehicle_type_id":"4","last_reported":1705003649,"current_range_meters":16800,"station_id":"ce4bgvp2rcd13ifvqct0","pricing_plan_id":"free"},{"bike_id":"0431c259-37f8-4ab9-8ca7-6ecd05ea0a19","system_id":"levelo_inurba_marseille","lat":43.309371,"lon":5.401449,"is_reserved":false,"is_disabled":false,"rental_uris":{"android":"levelo://app?vid=0431c259-37f8-4ab9-8ca7-6ecd05ea0a19","ios":"levelo://app?vid=0431c259-37f8-4ab9-8ca7-6ecd05ea0a19"},"vehicle_type_id":"4","last_reported":1705003649,"current_range_meters":6000,"station_id":"ce4bgvp2rcd13ifvqct0","pricing_plan_id":"free"},{"bike_id":"65b57326-5189-4060-8caa-2dded5e9b0f4","system_id":"levelo_inurba_marseille","lat":43.312609,"lon":5.401662,"is_reserved":false,"is_disabled":false,"rental_uris":{"android":"levelo://app?vid=65b57326-5189-4060-8caa-2dded5e9b0f4","ios":"levelo://app?vid=65b57326-5189-4060-8caa-2dded5e9b0f4"},"vehicle_type_id":"4","last_reported":1705003649,"current_range_meters":6000,"station_id":"ce4bh092rcd13ifvqd30","pricing_plan_id":"free"},{"bike_id":"640217e1-caa8-48b6-b30c-7f2a7a56db15","system_id":"levelo_inurba_marseille","lat":43.30931,"lon":5.40146,"is_reserved":false,"is_disabled":false,"rental_uris":{"android":"levelo://app?vid=640217e1-caa8-48b6-b30c-7f2a7a56db15","ios":"levelo://app?vid=640217e1-caa8-48b6-b30c-7f2a7a56db15"},"vehicle_type_id":"4","last_reported":1705003649,"current_range_meters":24400,"station_id":"ce4bgvp2rcd13ifvqct0","pricing_plan_id":"free"},{"bike_id":"a0332770-b0a7-4652-98a5-359606c2ee44","system_id":"levelo_inurba_marseille","lat":43.3375,"lon":5.37453,"is_reserved":false,"is_disabled":false,"rental_uris":{"android":"levelo://app?vid=a0332770-b0a7-4652-98a5-359606c2ee44","ios":"levelo://app?vid=a0332770-b0a7-4652-98a5-359606c2ee44"},"vehicle_type_id":"4","last_reported":1705003649,"current_range_meters":29600,"station_id":"","pricing_plan_id":"free"},{"bike_id":"e785dfe4-faa1-4e23-9c58-8360e337484a","system_id":"levelo_inurba_marseille","lat":43.33752,"lon":5.37445,"is_reserved":false,"is_disabled":false,"rental_uris":{"android":"levelo://app?vid=e785dfe4-faa1-4e23-9c58-8360e337484a","ios":"levelo://app?vid=e785dfe4-faa1-4e23-9c58-8360e337484a"},"vehicle_type_id":"4","last_reported":1705003649,"current_range_meters":28800,"station_id":"","pricing_plan_id":"free"},{"bike_id":"00013623-5361-4b74-9040-a4d9aa055b64","system_id":"levelo_inurba_marseille","lat":43.309371,"lon":5.401449,"is_reserved":false,"is_disabled":false,"rental_uris":{"android":"levelo://app?vid=00013623-5361-4b74-9040-a4d9aa055b64","ios":"levelo://app?vid=00013623-5361-4b74-9040-a4d9aa055b64"},"vehicle_type_id":"4","last_reported":1705003649,"current_range_meters":26400,"station_id":"ce4bgvp2rcd13ifvqct0","pricing_plan_id":"free"},{"bike_id":"6b88bec0-0096-45c5-9762-e4f8787be6ee","system_id":"levelo_inurba_marseille","lat":43.312609,"lon":5.401662,"is_reserved":false,"is_disabled":false,"rental_uris":{"android":"levelo://app?vid=6b88bec0-0096-45c5-9762-e4f8787be6ee","ios":"levelo://app?vid=6b88bec0-0096-45c5-9762-e4f8787be6ee"},"vehicle_type_id":"4","last_reported":1705003649,"current_range_meters":0,"station_id":"ce4bh092rcd13ifvqd30","pricing_plan_id":"free"},{"bike_id":"94e23f1b-dbf5-4680-8560-03f0ad22de3d","system_id":"levelo_inurba_marseille","lat":43.3093,"lon":5.4015,"is_reserved":false,"is_disabled":false,"rental_uris":{"android":"levelo://app?vid=94e23f1b-dbf5-4680-8560-03f0ad22de3d","ios":"levelo://app?vid=94e23f1b-dbf5-4680-8560-03f0ad22de3d"},"vehicle_type_id":"4","last_reported":1705003649,"current_range_meters":12400,"station_id":"ce4bgvp2rcd13ifvqct0","pricing_plan_id":"free"},{"bike_id":"e6b414c9-54ac-4a4b-905d-e8b009155f7d","system_id":"levelo_inurba_marseille","lat":43.33756,"lon":5.37434,"is_reserved":false,"is_disabled":false,"rental_uris":{"android":"levelo://app?vid=e6b414c9-54ac-4a4b-905d-e8b009155f7d","ios":"levelo://app?vid=e6b414c9-54ac-4a4b-905d-e8b009155f7d"},"vehicle_type_id":"4","last_reported":1705003649,"current_range_meters":25200,"station_id":"","pricing_plan_id":"free"},{"bike_id":"1dacac17-d2bc-497f-99d5-e12744329d09","system_id":"levelo_inurba_marseille","lat":43.306412,"lon":5.401035,"is_reserved":false,"is_disabled":false,"rental_uris":{"android":"levelo://app?vid=1dacac17-d2bc-497f-99d5-e12744329d09","ios":"levelo://app?vid=1dacac17-d2bc-497f-99d5-e12744329d09"},"vehicle_type_id":"4","last_reported":1705003649,"current_range_meters":22400,"station_id":"ce4bh112rcd13ifvqda0","pricing_plan_id":"free"},{"bike_id":"f2405833-6e9c-4a74-b868-5b525cac8876","system_id":"levelo_inurba_marseille","lat":43.30926,"lon":5.40154,"is_reserved":false,"is_disabled":false,"rental_uris":{"android":"levelo://app?vid=f2405833-6e9c-4a74-b868-5b525cac8876","ios":"levelo://app?vid=f2405833-6e9c-4a74-b868-5b525cac8876"},"vehicle_type_id":"4","last_reported":1705003649,"current_range_meters":11200,"station_id":"ce4bgvp2rcd13ifvqct0","pricing_plan_id":"free"},{"bike_id":"f481ef2c-f442-421b-be8c-fb1c4d039a61","system_id":"levelo_inurba_marseille","lat":43.309371,"lon":5.401449,"is_reserved":false,"is_disabled":false,"rental_uris":{"android":"levelo://app?vid=f481ef2c-f442-421b-be8c-fb1c4d039a61","ios":"levelo://app?vid=f481ef2c-f442-421b-be8c-fb1c4d039a61"},"vehicle_type_id":"4","last_reported":1705003649,"current_range_meters":18400,"station_id":"ce4bgvp2rcd13ifvqct0","pricing_plan_id":"free"},{"bike_id":"afdb4d06-b2e3-4fbb-b398-43c1a3b99dd1","system_id":"levelo_inurba_marseille","lat":43.309371,"lon":5.401449,"is_reserved":false,"is_disabled":false,"rental_uris":{"android":"levelo://app?vid=afdb4d06-b2e3-4fbb-b398-43c1a3b99dd1","ios":"levelo://app?vid=afdb4d06-b2e3-4fbb-b398-43c1a3b99dd1"},"vehicle_type_id":"4","last_reported":1705003649,"current_range_meters":25200,"station_id":"ce4bgvp2rcd13ifvqct0","pricing_plan_id":"free"},{"bike_id":"cb019ca3-9e8d-480b-9ad5-8ee476f75c25","system_id":"levelo_inurba_marseille","lat":43.306412,"lon":5.401035,"is_reserved":false,"is_disabled":false,"rental_uris":{"android":"levelo://app?vid=cb019ca3-9e8d-480b-9ad5-8ee476f75c25","ios":"levelo://app?vid=cb019ca3-9e8d-480b-9ad5-8ee476f75c25"},"vehicle_type_id":"4","last_reported":1705003649,"current_range_meters":22800,"station_id":"ce4bh112rcd13ifvqda0","pricing_plan_id":"free"},{"bike_id":"b8dad847-38ab-4856-81fc-b5c1a2bb4a3c","system_id":"levelo_inurba_marseille","lat":43.30642,"lon":5.401031,"is_reserved":false,"is_disabled":false,"rental_uris":{"android":"levelo://app?vid=b8dad847-38ab-4856-81fc-b5c1a2bb4a3c","ios":"levelo://app?vid=b8dad847-38ab-4856-81fc-b5c1a2bb4a3c"},"vehicle_type_id":"4","last_reported":1705003649,"current_range_meters":6000,"station_id":"ce4bh112rcd13ifvqda0","pricing_plan_id":"free"},{"bike_id":"ba20405e-5c07-4fbb-9d48-1cc1fd2cfb8a","system_id":"levelo_inurba_marseille","lat":43.30642,"lon":5.401031,"is_reserved":false,"is_disabled":false,"rental_uris":{"android":"levelo://app?vid=ba20405e-5c07-4fbb-9d48-1cc1fd2cfb8a","ios":"levelo://app?vid=ba20405e-5c07-4fbb-9d48-1cc1fd2cfb8a"},"vehicle_type_id":"4","last_reported":1705003649,"current_range_meters":17200,"station_id":"ce4bh112rcd13ifvqda0","pricing_plan_id":"free"},{"bike_id":"2e01726d-ee23-4aad-90d2-b6d27da8b0aa","system_id":"levelo_inurba_marseille","lat":43.33762,"lon":5.37458,"is_reserved":false,"is_disabled":false,"rental_uris":{"android":"levelo://app?vid=2e01726d-ee23-4aad-90d2-b6d27da8b0aa","ios":"levelo://app?vid=2e01726d-ee23-4aad-90d2-b6d27da8b0aa"},"vehicle_type_id":"4","last_reported":1705003649,"current_range_meters":27600,"station_id":"","pricing_plan_id":"free"},{"bike_id":"04363b7e-0ad4-4554-8a0d-6126fa8981bc","system_id":"levelo_inurba_marseille","lat":43.30642,"lon":5.401031,"is_reserved":false,"is_disabled":false,"rental_uris":{"android":"levelo://app?vid=04363b7e-0ad4-4554-8a0d-6126fa8981bc","ios":"levelo://app?vid=04363b7e-0ad4-4554-8a0d-6126fa8981bc"},"vehicle_type_id":"4","last_reported":1705003649,"current_range_meters":26000,"station_id":"ce4bh112rcd13ifvqda0","pricing_plan_id":"free"},{"bike_id":"a670c51c-40b4-46aa-8621-b052274f5b5a","system_id":"levelo_inurba_marseille","lat":43.304278,"lon":5.388868,"is_reserved":false,"is_disabled":false,"rental_uris":{"android":"levelo://app?vid=a670c51c-40b4-46aa-8621-b052274f5b5a","ios":"levelo://app?vid=a670c51c-40b4-46aa-8621-b052274f5b5a"},"vehicle_type_id":"4","last_reported":1705003649,"current_range_meters":8800,"station_id":"ce4bgk12rcd13ifvqbi0","pricing_plan_id":"free"},{"bike_id":"37f52a4b-c08d-4417-a59d-e5b27e597f53","system_id":"levelo_inurba_marseille","lat":43.30659,"lon":5.40095,"is_reserved":false,"is_disabled":false,"rental_uris":{"android":"levelo://app?vid=37f52a4b-c08d-4417-a59d-e5b27e597f53","ios":"levelo://app?vid=37f52a4b-c08d-4417-a59d-e5b27e597f53"},"vehicle_type_id":"4","last_reported":1705003649,"current_range_meters":25600,"station_id":"ce4bh112rcd13ifvqda0","pricing_plan_id":"free"},{"bike_id":"090674d4-d416-44ed-b985-adc6fc55c779","system_id":"levelo_inurba_marseille","lat":43.30642,"lon":5.401031,"is_reserved":false,"is_disabled":false,"rental_uris":{"android":"levelo://app?vid=090674d4-d416-44ed-b985-adc6fc55c779","ios":"levelo://app?vid=090674d4-d416-44ed-b985-adc6fc55c779"},"vehicle_type_id":"4","last_reported":1705003649,"current_range_meters":0,"station_id":"ce4bh112rcd13ifvqda0","pricing_plan_id":"free"},{"bike_id":"a9824bca-b0dd-47e1-823f-a61b3552cfdc","system_id":"levelo_inurba_marseille","lat":43.306412,"lon":5.401035,"is_reserved":false,"is_disabled":false,"rental_uris":{"android":"levelo://app?vid=a9824bca-b0dd-47e1-823f-a61b3552cfdc","ios":"levelo://app?vid=a9824bca-b0dd-47e1-823f-a61b3552cfdc"},"vehicle_type_id":"4","last_reported":1705003649,"current_range_meters":26000,"station_id":"ce4bh112rcd13ifvqda0","pricing_plan_id":"free"},{"bike_id":"9e55f9bf-09a4-4589-9bf4-24a6ab5d2f8b","system_id":"levelo_inurba_marseille","lat":43.30642,"lon":5.401031,"is_reserved":false,"is_disabled":false,"rental_uris":{"android":"levelo://app?vid=9e55f9bf-09a4-4589-9bf4-24a6ab5d2f8b","ios":"levelo://app?vid=9e55f9bf-09a4-4589-9bf4-24a6ab5d2f8b"},"vehicle_type_id":"4","last_reported":1705003649,"current_range_meters":22000,"station_id":"ce4bh112rcd13ifvqda0","pricing_plan_id":"free"},{"bike_id":"77e212bf-2a4c-475e-98a6-62d3ed5da087","system_id":"levelo_inurba_marseille","lat":43.30642,"lon":5.401031,"is_reserved":false,"is_disabled":false,"rental_uris":{"android":"levelo://app?vid=77e212bf-2a4c-475e-98a6-62d3ed5da087","ios":"levelo://app?vid=77e212bf-2a4c-475e-98a6-62d3ed5da087"},"vehicle_type_id":"4","last_reported":1705003649,"current_range_meters":24400,"station_id":"ce4bh112rcd13ifvqda0","pricing_plan_id":"free"},{"bike_id":"1d2ced83-92d3-4e0c-93fd-84afd9b1b5ec","system_id":"levelo_inurba_marseille","lat":43.306412,"lon":5.401035,"is_reserved":false,"is_disabled":false,"rental_uris":{"android":"levelo://app?vid=1d2ced83-92d3-4e0c-93fd-84afd9b1b5ec","ios":"levelo://app?vid=1d2ced83-92d3-4e0c-93fd-84afd9b1b5ec"},"vehicle_type_id":"4","last_reported":1705003649,"current_range_meters":25600,"station_id":"ce4bh112rcd13ifvqda0","pricing_plan_id":"free"},{"bike_id":"979f4289-125b-415e-8553-9f4e8183c788","system_id":"levelo_inurba_marseille","lat":43.3377,"lon":5.37461,"is_reserved":false,"is_disabled":false,"rental_uris":{"android":"levelo://app?vid=979f4289-125b-415e-8553-9f4e8183c788","ios":"levelo://app?vid=979f4289-125b-415e-8553-9f4e8183c788"},"vehicle_type_id":"4","last_reported":1705003649,"current_range_meters":28000,"station_id":"","pricing_plan_id":"free"},{"bike_id":"e7159978-ccca-4b3f-841b-c3f8ec92da80","system_id":"levelo_inurba_marseille","lat":43.306435,"lon":5.401006,"is_reserved":false,"is_disabled":false,"rental_uris":{"android":"levelo://app?vid=e7159978-ccca-4b3f-841b-c3f8ec92da80","ios":"levelo://app?vid=e7159978-ccca-4b3f-841b-c3f8ec92da80"},"vehicle_type_id":"4","last_reported":1705003649,"current_range_meters":5200,"station_id":"ce4bh112rcd13ifvqda0","pricing_plan_id":"free"},{"bike_id":"bb2deaee-bafc-44bc-bfba-84b310bfe8b8","system_id":"levelo_inurba_marseille","lat":43.301117,"lon":5.398795,"is_reserved":false,"is_disabled":false,"rental_uris":{"android":"levelo://app?vid=bb2deaee-bafc-44bc-bfba-84b310bfe8b8","ios":"levelo://app?vid=bb2deaee-bafc-44bc-bfba-84b310bfe8b8"},"vehicle_type_id":"4","last_reported":1705003649,"current_range_meters":18000,"station_id":"ce4bh0h2rcd13ifvqd40","pricing_plan_id":"free"},{"bike_id":"ca0cda56-6791-4942-bf40-c8790fce475d","system_id":"levelo_inurba_marseille","lat":43.30137,"lon":5.39864,"is_reserved":false,"is_disabled":false,"rental_uris":{"android":"levelo://app?vid=ca0cda56-6791-4942-bf40-c8790fce475d","ios":"levelo://app?vid=ca0cda56-6791-4942-bf40-c8790fce475d"},"vehicle_type_id":"4","last_reported":1705003649,"current_range_meters":2800,"station_id":"ce4bh0h2rcd13ifvqd40","pricing_plan_id":"free"},{"bike_id":"af0f3c1b-285c-49ab-a7b2-96b694a71335","system_id":"levelo_inurba_marseille","lat":43.28727,"lon":5.36078,"is_reserved":false,"is_disabled":false,"rental_uris":{"android":"levelo://app?vid=af0f3c1b-285c-49ab-a7b2-96b694a71335","ios":"levelo://app?vid=af0f3c1b-285c-49ab-a7b2-96b694a71335"},"vehicle_type_id":"4","last_reported":1705003649,"current_range_meters":18800,"station_id":"cki0cbj6b192h4jlfktg","pricing_plan_id":"free"},{"bike_id":"ac6d7c6d-4ddd-435a-bf7a-24e9768d7ce6","system_id":"levelo_inurba_marseille","lat":43.282744,"lon":5.350533,"is_reserved":false,"is_disabled":false,"rental_uris":{"android":"levelo://app?vid=ac6d7c6d-4ddd-435a-bf7a-24e9768d7ce6","ios":"levelo://app?vid=ac6d7c6d-4ddd-435a-bf7a-24e9768d7ce6"},"vehicle_type_id":"4","last_reported":1705003649,"current_range_meters":6800,"station_id":"ce4bhbp2rcd13ifvqerg","pricing_plan_id":"free"},{"bike_id":"70ef537f-ac17-498b-b900-8488dbf579cb","system_id":"levelo_inurba_marseille","lat":43.28731,"lon":5.36087,"is_reserved":false,"is_disabled":false,"rental_uris":{"android":"levelo://app?vid=70ef537f-ac17-498b-b900-8488dbf579cb","ios":"levelo://app?vid=70ef537f-ac17-498b-b900-8488dbf579cb"},"vehicle_type_id":"4","last_reported":1705003649,"current_range_meters":14400,"station_id":"cki0cbj6b192h4jlfktg","pricing_plan_id":"free"},{"bike_id":"16f1796a-e6d3-43c8-b277-7ea912402475","system_id":"levelo_inurba_marseille","lat":43.28727,"lon":5.36078,"is_reserved":false,"is_disabled":false,"rental_uris":{"android":"levelo://app?vid=16f1796a-e6d3-43c8-b277-7ea912402475","ios":"levelo://app?vid=16f1796a-e6d3-43c8-b277-7ea912402475"},"vehicle_type_id":"4","last_reported":1705003649,"current_range_meters":12000,"station_id":"cki0cbj6b192h4jlfktg","pricing_plan_id":"free"},{"bike_id":"1230b34b-c2ef-4347-a2c1-f7475106d275","system_id":"levelo_inurba_marseille","lat":43.28727,"lon":5.36078,"is_reserved":false,"is_disabled":false,"rental_uris":{"android":"levelo://app?vid=1230b34b-c2ef-4347-a2c1-f7475106d275","ios":"levelo://app?vid=1230b34b-c2ef-4347-a2c1-f7475106d275"},"vehicle_type_id":"4","last_reported":1705003649,"current_range_meters":18400,"station_id":"cki0cbj6b192h4jlfktg","pricing_plan_id":"free"},{"bike_id":"a4e66af0-89e2-4e98-b04b-e5bb31b530e6","system_id":"levelo_inurba_marseille","lat":43.28727,"lon":5.36078,"is_reserved":false,"is_disabled":false,"rental_uris":{"android":"levelo://app?vid=a4e66af0-89e2-4e98-b04b-e5bb31b530e6","ios":"levelo://app?vid=a4e66af0-89e2-4e98-b04b-e5bb31b530e6"},"vehicle_type_id":"4","last_reported":1705003649,"current_range_meters":20000,"station_id":"cki0cbj6b192h4jlfktg","pricing_plan_id":"free"},{"bike_id":"15a5f0af-a3d0-47af-9320-bb67092adefa","system_id":"levelo_inurba_marseille","lat":43.28728,"lon":5.36078,"is_reserved":false,"is_disabled":false,"rental_uris":{"android":"levelo://app?vid=15a5f0af-a3d0-47af-9320-bb67092adefa","ios":"levelo://app?vid=15a5f0af-a3d0-47af-9320-bb67092adefa"},"vehicle_type_id":"4","last_reported":1705003649,"current_range_meters":20800,"station_id":"cki0cbj6b192h4jlfktg","pricing_plan_id":"free"},{"bike_id":"5a0b1cd9-f6c7-4372-863c-80046f90865c","system_id":"levelo_inurba_marseille","lat":43.28727,"lon":5.36078,"is_reserved":false,"is_disabled":false,"rental_uris":{"android":"levelo://app?vid=5a0b1cd9-f6c7-4372-863c-80046f90865c","ios":"levelo://app?vid=5a0b1cd9-f6c7-4372-863c-80046f90865c"},"vehicle_type_id":"4","last_reported":1705003649,"current_range_meters":31600,"station_id":"cki0cbj6b192h4jlfktg","pricing_plan_id":"free"},{"bike_id":"f3682688-b079-4f02-8c11-8db7ac98b34e","system_id":"levelo_inurba_marseille","lat":43.28724,"lon":5.36088,"is_reserved":false,"is_disabled":false,"rental_uris":{"android":"levelo://app?vid=f3682688-b079-4f02-8c11-8db7ac98b34e","ios":"levelo://app?vid=f3682688-b079-4f02-8c11-8db7ac98b34e"},"vehicle_type_id":"4","last_reported":1705003649,"current_range_meters":23600,"station_id":"cki0cbj6b192h4jlfktg","pricing_plan_id":"free"},