{"last_updated":1773816896,"ttl":60,"version":"2.2","data":{"bikes":[{"bike_id":"54ef3086-78c0-46f3-aaac-61b27bd0b964","system_id":"levelo_inurba_marseille","lat":43.28661,"lon":5.363396,"is_reserved":false,"is_disabled":false,"rental_uris":{"android":"levelo://app?vid=54ef3086-78c0-46f3-aaac-61b27bd0b964","ios":"levelo://app?vid=54ef3086-78c0-46f3-aaac-61b27bd0b964"},"vehicle_type_id":"4","last_reported":1773816897,"current_range_meters":1600,"station_id":"ce4bhah2rcd13ifvqej0","pricing_plan_id":"cebpf4jnsgd1na2vs0mg"},{"bike_id":"24e13b88-fd8e-402a-8123-b5976100a88b","system_id":"levelo_inurba_marseille","lat":43.32047,"lon":5.4159,"is_reserved":false,"is_disabled":false,"rental_uris":{"android":"levelo://app?vid=24e13b88-fd8e-402a-8123-b5976100a88b","ios":"levelo://app?vid=24e13b88-fd8e-402a-8123-b5976100a88b"},"vehicle_type_id":"4","last_reported":1773816897,"current_range_meters":2000,"station_id":"ce4bhq92rcd13ifvqhkg","pricing_plan_id":"cebpf4jnsgd1na2vs0mg"},{"bike_id":"464d46c4-c65b-4ebf-ac5c-3e1056acffce","system_id":"levelo_inurba_marseille","lat":43.29807,"lon":5.37117,"is_reserved":false,"is_disabled":false,"rental_uris":{"android":"levelo://app?vid=464d46c4-c65b-4ebf-ac5c-3e1056acffce","ios":"levelo://app?vid=464d46c4-c65b-4ebf-ac5c-3e1056acffce"},"vehicle_type_id":"4","last_reported":1773816897,"current_range_meters":2000,"station_id":"ce4bgop2rcd13ifvqc1g","pricing_plan_id":"cebpf4jnsgd1na2vs0mg"},{"bike_id":"fcc16676-bdcc-453d-943e-a6082336e83f","system_id":"levelo_inurba_marseille","lat":43.29817,"lon":5.44051,"is_reserved":false,"is_disabled":false,"rental_uris":{"android":"levelo://app?vid=fcc16676-bdcc-453d-943e-a6082336e83f","ios":"levelo://app?vid=fcc16676-bdcc-453d-943e-a6082336e83f"},"vehicle_type_id":"4","last_reported":1773816897,"current_range_meters":2800,"station_id":"st_d3jp68qikq2c7381ktn0","pricing_plan_id":"cebpf4jnsgd1na2vs0mg"},{"bike_id":"c4f5bd64-acf0-4c53-bb26-d0a50c0ac597","system_id":"levelo_inurba_marseille","lat":43.26556,"lon":5.39015,"is_reserved":false,"is_disabled":false,"rental_uris":{"android":"levelo://app?vid=c4f5bd64-acf0-4c53-bb26-d0a50c0ac597","ios":"levelo://app?vid=c4f5bd64-acf0-4c53-bb26-d0a50c0ac597"},"vehicle_type_id":"4","last_reported":1773816897,"current_range_meters":2800,"station_id":"ce4bhe12rcd13ifvqf30","pricing_plan_id":"cebpf4jnsgd1na2vs0mg"},{"bike_id":"ca2786e6-5157-4ab3-8916-81d583d6acde","system_id":"levelo_inurba_marseille","lat":43.22929,"lon":5.35377,"is_reserved":false,"is_disabled":false,"rental_uris":{"android":"levelo://app?vid=ca2786e6-5157-4ab3-8916-81d583d6acde","ios":"levelo://app?vid=ca2786e6-5157-4ab3-8916-81d583d6acde"},"vehicle_type_id":"4","last_reported":1773816897,"current_range_meters":2800,"station_id":"cpo3532slgdg3j2ikp40","pricing_plan_id":"cebpf4jnsgd1na2vs0mg"},{"bike_id":"fc47abe7-cfea-4603-9b16-e89f62a15b75","system_id":"levelo_inurba_marseille","lat":43.29981,"lon":5.38486,"is_reserved":false,"is_disabled":true,"rental_uris":{"android":"levelo://app?vid=fc47abe7-cfea-4603-9b16-e89f62a15b75","ios":"levelo://app?vid=fc47abe7-cfea-4603-9b16-e89f62a15b75"},"vehicle_type_id":"4","last_reported":1773816897,"current_range_meters":2800,"station_id":"ce4bgj92rcd13ifvqbd0","pricing_plan_id":"cebpf4jnsgd1na2vs0mg"},{"bike_id":"e8f6b36d-6d6d-4d66-a4b4-789d50d0474c","system_id":"levelo_inurba_marseille","lat":43.30244,"lon":5.40073,"is_reserved":false,"is_disabled":false,"rental_uris":{"android":"levelo://app?vid=e8f6b36d-6d6d-4d66-a4b4-789d50d0474c","ios":"levelo://app?vid=e8f6b36d-6d6d-4d66-a4b4-789d50d0474c"},"vehicle_type_id":"4","last_reported":1773816897,"current_range_meters":2800,"station_id":"ce4bgvh2rcd13ifvqcs0","pricing_plan_id":"cebpf4jnsgd1na2vs0mg"},{"bike_id":"29c237d0-0df8-458c-b95e-c5e884999803","system_id":"levelo_inurba_marseille","lat":43.2742,"lon":5.39421,"is_reserved":false,"is_disabled":false,"rental_uris":{"android":"levelo://app?vid=29c237d0-0df8-458c-b95e-c5e884999803","ios":"levelo://app?vid=29c237d0-0df8-458c-b95e-c5e884999803"},"vehicle_type_id":"4","last_reported":1773816897,"current_range_meters":2800,"station_id":"ce4bhdp2rcd13ifvqf20","pricing_plan_id":"cebpf4jnsgd1na2vs0mg"},{"bike_id":"feaf2e83-6bc7-46d3-b8dc-e52b9fc8cf3e","system_id":"levelo_inurba_marseille","lat":43.22567,"lon":5.4163,"is_reserved":false,"is_disabled":false,"rental_uris":{"android":"levelo://app?vid=feaf2e83-6bc7-46d3-b8dc-e52b9fc8cf3e","ios":"levelo://app?vid=feaf2e83-6bc7-46d3-b8dc-e52b9fc8cf3e"},"vehicle_type_id":"4","last_reported":1773816897,"current_range_meters":3200,"station_id":"st_d2o4gvlbi1j2169b742g","pricing_plan_id":"cebpf4jnsgd1na2vs0mg"},{"bike_id":"55ad6576-3c79-4a6b-881b-323a7e8b70a1","system_id":"levelo_inurba_marseille","lat":43.24992,"lon":5.38933,"is_reserved":false,"is_disabled":false,"rental_uris":{"android":"levelo://app?vid=55ad6576-3c79-4a6b-881b-323a7e8b70a1","ios":"levelo://app?vid=55ad6576-3c79-4a6b-881b-323a7e8b70a1"},"vehicle_type_id":"4","last_reported":1773816897,"current_range_meters":3200,"station_id":"ce4bhgp2rcd13ifvqfd0","pricing_plan_id":"cebpf4jnsgd1na2vs0mg"},{"bike_id":"a9ab5a39-2731-4734-97ce-71106411e1b9","system_id":"levelo_inurba_marseille","lat":43.21782,"lon":5.34725,"is_reserved":false,"is_disabled":false,"rental_uris":{"android":"levelo://app?vid=a9ab5a39-2731-4734-97ce-71106411e1b9","ios":"levelo://app?vid=a9ab5a39-2731-4734-97ce-71106411e1b9"},"vehicle_type_id":"4","last_reported":1773816897,"current_range_meters":3200,"station_id":"","pricing_plan_id":"cebpf4jnsgd1na2vs0mg"},{"bike_id":"3aa3d11b-ad41-4898-aa7f-dcaaf47f06cb","system_id":"levelo_inurba_marseille","lat":43.33539,"lon":5.37465,"is_reserved":false,"is_disabled":false,"rental_uris":{"android":"levelo://app?vid=3aa3d11b-ad41-4898-aa7f-dcaaf47f06cb","ios":"levelo://app?vid=3aa3d11b-ad41-4898-aa7f-dcaaf47f06cb"},"vehicle_type_id":"4","last_reported":1773816897,"current_range_meters":3200,"station_id":"st_d46tts09ee8s73dlu43g","pricing_plan_id":"cebpf4jnsgd1na2vs0mg"},{"bike_id":"8006188e-690c-4809-afd0-7162f4ed9b94","system_id":"levelo_inurba_marseille","lat":43.30134,"lon":5.3877,"is_reserved":false,"is_disabled":false,"rental_uris":{"android":"levelo://app?vid=8006188e-690c-4809-afd0-7162f4ed9b94","ios":"levelo://app?vid=8006188e-690c-4809-afd0-7162f4ed9b94"},"vehicle_type_id":"4","last_reported":1773816897,"current_range_meters":3200,"station_id":"ce4bghh2rcd13ifvqb60","pricing_plan_id":"cebpf4jnsgd1na2vs0mg"},{"bike_id":"45aec3b6-b392-45c1-bf58-4a07617ebcd9","system_id":"levelo_inurba_marseille","lat":43.29709,"lon":5.3768,"is_reserved":false,"is_disabled":false,"rental_uris":{"android":"levelo://app?vid=45aec3b6-b392-45c1-bf58-4a07617ebcd9","ios":"levelo://app?vid=45aec3b6-b392-45c1-bf58-4a07617ebcd9"},"vehicle_type_id":"4","last_reported":1773816897,"current_range_meters":3200,"station_id":"ce4bgkh2rcd13ifvqbl0","pricing_plan_id":"cebpf4jnsgd1na2vs0mg"},{"bike_id":"2a394174-fa6b-4212-913a-1ddaad9b7087","system_id":"levelo_inurba_marseille","lat":43.22937,"lon":5.35404,"is_reserved":false,"is_disabled":false,"rental_uris":{"android":"levelo://app?vid=2a394174-fa6b-4212-913a-1ddaad9b7087","ios":"levelo://app?vid=2a394174-fa6b-4212-913a-1ddaad9b7087"},"vehicle_type_id":"4","last_reported":1773816897,"current_range_meters":3200,"station_id":"cpo3532slgdg3j2ikp40","pricing_plan_id":"cebpf4jnsgd1na2vs0mg"},{"bike_id":"d6f4fcc9-529e-44c9-8ab1-66a46ec0a2d7","system_id":"levelo_inurba_marseille","lat":43.29658,"lon":5.37461,"is_reserved":false,"is_disabled":false,"rental_uris":{"android":"levelo://app?vid=d6f4fcc9-529e-44c9-8ab1-66a46ec0a2d7","ios":"levelo://app?vid=d6f4fcc9-529e-44c9-8ab1-66a46ec0a2d7"},"vehicle_type_id":"4","last_reported":1773816897,"current_range_meters":3200,"station_id":"","pricing_plan_id":"cebpf4jnsgd1na2vs0mg"},{"bike_id":"f6b870be-9d2a-4c98-b70b-215674098ee6","system_id":"levelo_inurba_marseille","lat":43.29174,"lon":5.37141,"is_reserved":false,"is_disabled":true,"rental_uris":{"android":"levelo://app?vid=f6b870be-9d2a-4c98-b70b-215674098ee6","ios":"levelo://app?vid=f6b870be-9d2a-4c98-b70b-215674098ee6"},"vehicle_type_id":"4","last_reported":1773816897,"current_range_meters":3200,"station_id":"ce4bha92rcd13ifvqeh0","pricing_plan_id":"cebpf4jnsgd1na2vs0mg"},{"bike_id":"88858f89-fe21-45f8-acbb-9ce67472ddb3","system_id":"levelo_inurba_marseille","lat":43.22927,"lon":5.35383,"is_reserved":false,"is_disabled":false,"rental_uris":{"android":"levelo://app?vid=88858f89-fe21-45f8-acbb-9ce67472ddb3","ios":"levelo://app?vid=88858f89-fe21-45f8-acbb-9ce67472ddb3"},"vehicle_type_id":"4","last_reported":1773816897,"current_range_meters":3200,"station_id":"cpo3532slgdg3j2ikp40","pricing_plan_id":"cebpf4jnsgd1na2vs0mg"},{"bike_id":"b629acf9-0c07-4fb6-abfc-b78fcc2931be","system_id":"levelo_inurba_marseille","lat":43.31035,"lon":5.37159,"is_reserved":false,"is_disabled":false,"rental_uris":{"android":"levelo://app?vid=b629acf9-0c07-4fb6-abfc-b78fcc2931be","ios":"levelo://app?vid=b629acf9-0c07-4fb6-abfc-b78fcc2931be"},"vehicle_type_id":"4","last_reported":1773816897,"current_range_meters":3200,"station_id":"st_d4kl2rp97mjs73e7tdfg","pricing_plan_id":"cebpf4jnsgd1na2vs0mg"},{"bike_id":"a7c49cf6-247c-4096-90cd-f909998f5bfb","system_id":"levelo_inurba_marseille","lat":43.30123,"lon":5.39879,"is_reserved":false,"is_disabled":false,"rental_uris":{"android":"levelo://app?vid=a7c49cf6-247c-4096-90cd-f909998f5bfb","ios":"levelo://app?vid=a7c49cf6-247c-4096-90cd-f909998f5bfb"},"vehicle_type_id":"4","last_reported":1773816897,"current_range_meters":3200,"station_id":"ce4bh0h2rcd13ifvqd40","pricing_plan_id":"cebpf4jnsgd1na2vs0mg"},{"bike_id":"a00c9a9f-2f8a-4dc7-be96-a09dd6fb1ab3","system_id":"levelo_inurba_marseille","lat":43.31105,"lon":5.37786,"is_reserved":false,"is_disabled":false,"rental_uris":{"android":"levelo://app?vid=a00c9a9f-2f8a-4dc7-be96-a09dd6fb1ab3","ios":"levelo://app?vid=a00c9a9f-2f8a-4dc7-be96-a09dd6fb1ab3"},"vehicle_type_id":"4","last_reported":1773816897,"current_range_meters":3200,"station_id":"ce4bgt92rcd13ifvqcg0","pricing_plan_id":"cebpf4jnsgd1na2vs0mg"},{"bike_id":"b3e3399c-3837-42b8-afac-39674642005e","system_id":"levelo_inurba_marseille","lat":43.29758,"lon":5.42782,"is_reserved":false,"is_disabled":false,"rental_uris":{"android":"levelo://app?vid=b3e3399c-3837-42b8-afac-39674642005e","ios":"levelo://app?vid=b3e3399c-3837-42b8-afac-39674642005e"},"vehicle_type_id":"4","last_reported":1773816897,"current_range_meters":3200,"station_id":"st_d3md5207bmas73dh9klg","pricing_plan_id":"cebpf4jnsgd1na2vs0mg"},{"bike_id":"e4b515b3-5a64-4f24-8a63-3407e3500a15","system_id":"levelo_inurba_marseille","lat":43.24293,"lon":5.40231,"is_reserved":false,"is_disabled":false,"rental_uris":{"android":"levelo://app?vid=e4b515b3-5a64-4f24-8a63-3407e3500a15","ios":"levelo://app?vid=e4b515b3-5a64-4f24-8a63-3407e3500a15"},"vehicle_type_id":"4","last_reported":1773816897,"current_range_meters":3200,"station_id":"","pricing_plan_id":"cebpf4jnsgd1na2vs0mg"},{"bike_id":"ebd201db-6b0d-4b0b-afef-9306224c354d","system_id":"levelo_inurba_marseille","lat":43.29524,"lon":5.39039,"is_reserved":false,"is_disabled":true,"rental_uris":{"android":"levelo://app?vid=ebd201db-6b0d-4b0b-afef-9306224c354d","ios":"levelo://app?vid=ebd201db-6b0d-4b0b-afef-9306224c354d"},"vehicle_type_id":"4","last_reported":1773816897,"current_range_meters":3200,"station_id":"ce4bh3p2rcd13ifvqdp0","pricing_plan_id":"cebpf4jnsgd1na2vs0mg"},{"bike_id":"f6c860f4-9c2e-4a13-b509-50fb1709859b","system_id":"levelo_inurba_marseille","lat":43.21187,"lon":5.35077,"is_reserved":false,"is_disabled":false,"rental_uris":{"android":"levelo://app?vid=f6c860f4-9c2e-4a13-b509-50fb1709859b","ios":"levelo://app?vid=f6c860f4-9c2e-4a13-b509-50fb1709859b"},"vehicle_type_id":"4","last_reported":1773816897,"current_range_meters":3600,"station_id":"st_cvj6sg6p6f1abm77japg","pricing_plan_id":"cebpf4jnsgd1na2vs0mg"},{"bike_id":"02069907-22a3-4b54-8d6a-4533b0f28256","system_id":"levelo_inurba_marseille","lat":43.30599,"lon":5.3719,"is_reserved":false,"is_disabled":false,"rental_uris":{"android":"levelo://app?vid=02069907-22a3-4b54-8d6a-4533b0f28256","ios":"levelo://app?vid=02069907-22a3-4b54-8d6a-4533b0f28256"},"vehicle_type_id":"4","last_reported":1773816897,"current_range_meters":3600,"station_id":"ce4bgqh2rcd13ifvqc4g","pricing_plan_id":"cebpf4jnsgd1na2vs0mg"},{"bike_id":"01a3571c-e8a5-4291-abe2-290bb44b75ab","system_id":"levelo_inurba_marseille","lat":43.29666,"lon":5.38707,"is_reserved":false,"is_disabled":false,"rental_uris":{"android":"levelo://app?vid=01a3571c-e8a5-4291-abe2-290bb44b75ab","ios":"levelo://app?vid=01a3571c-e8a5-4291-abe2-290bb44b75ab"},"vehicle_type_id":"4","last_reported":1773816897,"current_range_meters":3600,"station_id":"","pricing_plan_id":"cebpf4jnsgd1na2vs0mg"},{"bike_id":"fd627f34-34e1-4ae6-b0d2-d80d077ae859","system_id":"levelo_inurba_marseille","lat":43.27491,"lon":5.42457,"is_reserved":false,"is_disabled":false,"rental_uris":{"android":"levelo://app?vid=fd627f34-34e1-4ae6-b0d2-d80d077ae859","ios":"levelo://app?vid=fd627f34-34e1-4ae6-b0d2-d80d077ae859"},"vehicle_type_id":"4","last_reported":1773816897,"current_range_meters":3600,"station_id":"","pricing_plan_id":"cebpf4jnsgd1na2vs0mg"},{"bike_id":"b885b14a-ff23-4f18-bcc4-ba814ffec689","system_id":"levelo_inurba_marseille","lat":43.30766,"lon":5.37687,"is_reserved":false,"is_disabled":false,"rental_uris":{"android":"levelo://app?vid=b885b14a-ff23-4f18-bcc4-ba814ffec689","ios":"levelo://app?vid=b885b14a-ff23-4f18-bcc4-ba814ffec689"},"vehicle_type_id":"4","last_reported":1773816897,"current_range_meters":3600,"station_id":"ce4bgv92rcd13ifvqcq0","pricing_plan_id":"cebpf4jnsgd1na2vs0mg"},{"bike_id":"f00fcd39-d458-47f2-97b4-5462c5c8dab5","system_id":"levelo_inurba_marseille","lat":43.25507,"lon":5.37642,"is_reserved":false,"is_disabled":false,"rental_uris":{"android":"levelo://app?vid=f00fcd39-d458-47f2-97b4-5462c5c8dab5","ios":"levelo://app?vid=f00fcd39-d458-47f2-97b4-5462c5c8dab5"},"vehicle_type_id":"4","last_reported":1773816897,"current_range_meters":3600,"station_id":"ce4bhh12rcd13ifvqff0","pricing_plan_id":"cebpf4jnsgd1na2vs0mg"},{"bike_id":"8d968b57-b5cf-4819-a855-725c0c9cac91","system_id":"levelo_inurba_marseille","lat":43.31274,"lon":5.40179,"is_reserved":false,"is_disabled":false,"rental_uris":{"android":"levelo://app?vid=8d968b57-b5cf-4819-a855-725c0c9cac91","ios":"levelo://app?vid=8d968b57-b5cf-4819-a855-725c0c9cac91"},"vehicle_type_id":"4","last_reported":1773816897,"current_range_meters":3600,"station_id":"ce4bh092rcd13ifvqd30","pricing_plan_id":"cebpf4jnsgd1na2vs0mg"},{"bike_id":"24f57b2c-6915-486e-a4de-3085da144dab","system_id":"levelo_inurba_marseille","lat":43.28608,"lon":5.37061,"is_reserved":false,"is_disabled":false,"rental_uris":{"android":"levelo://app?vid=24f57b2c-6915-486e-a4de-3085da144dab","ios":"levelo://app?vid=24f57b2c-6915-486e-a4de-3085da144dab"},"vehicle_type_id":"4","last_reported":1773816897,"current_range_meters":3600,"station_id":"ce4bht12rcd13ifvqi60","pricing_plan_id":"cebpf4jnsgd1na2vs0mg"},{"bike_id":"4edc1e69-f919-4c2f-a6b8-66257e87a54f","system_id":"levelo_inurba_marseille","lat":43.28479,"lon":5.484,"is_reserved":false,"is_disabled":false,"rental_uris":{"android":"levelo://app?vid=4edc1e69-f919-4c2f-a6b8-66257e87a54f","ios":"levelo://app?vid=4edc1e69-f919-4c2f-a6b8-66257e87a54f"},"vehicle_type_id":"4","last_reported":1773816897,"current_range_meters":3600,"station_id":"","pricing_plan_id":"cebpf4jnsgd1na2vs0mg"},{"bike_id":"946d364c-bbdd-49a6-b129-8d01e1b4e80f","system_id":"levelo_inurba_marseille","lat":43.297823,"lon":5.371034,"is_reserved":false,"is_disabled":false,"rental_uris":{"android":"levelo://app?vid=946d364c-bbdd-49a6-b129-8d01e1b4e80f","ios":"levelo://app?vid=946d364c-bbdd-49a6-b129-8d01e1b4e80f"},"vehicle_type_id":"4","last_reported":1773816897,"current_range_meters":3600,"station_id":"ce4bgop2rcd13ifvqc1g","pricing_plan_id":"cebpf4jnsgd1na2vs0mg"},{"bike_id":"af9e9917-104d-4cfb-88dc-35d38c37713f","system_id":"levelo_inurba_marseille","lat":43.31333,"lon":5.36721,"is_reserved":false,"is_disabled":false,"rental_uris":{"android":"levelo://app?vid=af9e9917-104d-4cfb-88dc-35d38c37713f","ios":"levelo://app?vid=af9e9917-104d-4cfb-88dc-35d38c37713f"},"vehicle_type_id":"4","last_reported":1773816897,"current_range_meters":3600,"station_id":"ce4bgr92rcd13ifvqc6g","pricing_plan_id":"cebpf4jnsgd1na2vs0mg"},{"bike_id":"d42ea5f1-4d69-4ae6-a871-e9d690e9a057","system_id":"levelo_inurba_marseille","lat":43.29898,"lon":5.39728,"is_reserved":false,"is_disabled":false,"rental_uris":{"android":"levelo://app?vid=d42ea5f1-4d69-4ae6-a871-e9d690e9a057","ios":"levelo://app?vid=d42ea5f1-4d69-4ae6-a871-e9d690e9a057"},"vehicle_type_id":"4","last_reported":1773816897,"current_range_meters":4000,"station_id":"ce4bh0h2rcd13ifvqd50","pricing_plan_id":"cebpf4jnsgd1na2vs0mg"},{"bike_id":"57f59ea7-9661-484b-ab62-8930e39b76a3","system_id":"levelo_inurba_marseille","lat":43.23792,"lon":5.36635,"is_reserved":false,"is_disabled":false,"rental_uris":{"android":"levelo://app?vid=57f59ea7-9661-484b-ab62-8930e39b76a3","ios":"levelo://app?vid=57f59ea7-9661-484b-ab62-8930e39b76a3"},"vehicle_type_id":"4","last_reported":1773816897,"current_range_meters":4000,"station_id":"st_d3nk18o9ro0c73en2l3g","pricing_plan_id":"cebpf4jnsgd1na2vs0mg"},{"bike_id":"4eeecf6d-6108-42a0-b77f-fc0c0b55b73c","system_id":"levelo_inurba_marseille","lat":43.29921,"lon":5.37466,"is_reserved":false,"is_disabled":true,"rental_uris":{"android":"levelo://app?vid=4eeecf6d-6108-42a0-b77f-fc0c0b55b73c","ios":"levelo://app?vid=4eeecf6d-6108-42a0-b77f-fc0c0b55b73c"},"vehicle_type_id":"4","last_reported":1773816897,"current_range_meters":4000,"station_id":"ce4bgjh2rcd13ifvqbg0","pricing_plan_id":"cebpf4jnsgd1na2vs0mg"},{"bike_id":"fed4ed0f-ab62-497a-9d32-397d7272e2eb","system_id":"levelo_inurba_marseille","lat":43.29003,"lon":5.37826,"is_reserved":false,"is_disabled":false,"rental_uris":{"android":"levelo://app?vid=fed4ed0f-ab62-497a-9d32-397d7272e2eb","ios":"levelo://app?vid=fed4ed0f-ab62-497a-9d32-397d7272e2eb"},"vehicle_type_id":"4","last_reported":1773816897,"current_range_meters":4000,"station_id":"ce4bh9p2rcd13ifvqed0","pricing_plan_id":"cebpf4jnsgd1na2vs0mg"},{"bike_id":"8afa82e0-443b-485e-812c-b0c0213ccf6b","system_id":"levelo_inurba_marseille","lat":43.29771,"lon":5.37648,"is_reserved":false,"is_disabled":true,"rental_uris":{"android":"levelo://app?vid=8afa82e0-443b-485e-812c-b0c0213ccf6b","ios":"levelo://app?vid=8afa82e0-443b-485e-812c-b0c0213ccf6b"},"vehicle_type_id":"4","last_reported":1773816897,"current_range_meters":4000,"station_id":"","pricing_plan_id":"cebpf4jnsgd1na2vs0mg"},{"bike_id":"edc4577f-5bd3-46f0-ab7d-13bb1b4eacb1","system_id":"levelo_inurba_marseille","lat":43.27995,"lon":5.41657,"is_reserved":false,"is_disabled":false,"rental_uris":{"android":"levelo://app?vid=edc4577f-5bd3-46f0-ab7d-13bb1b4eacb1","ios":"levelo://app?vid=edc4577f-5bd3-46f0-ab7d-13bb1b4eacb1"},"vehicle_type_id":"4","last_reported":1773816897,"current_range_meters":4000,"station_id":"ce4bho12rcd13ifvqh1g","pricing_plan_id":"cebpf4jnsgd1na2vs0mg"},{"bike_id":"83dbadf3-28ab-4490-bddc-afb3a95ebd06","system_id":"levelo_inurba_marseille","lat":43.30766,"lon":5.37682,"is_reserved":false,"is_disabled":false,"rental_uris":{"android":"levelo://app?vid=83dbadf3-28ab-4490-bddc-afb3a95ebd06","ios":"levelo://app?vid=83dbadf3-28ab-4490-bddc-afb3a95ebd06"},"vehicle_type_id":"4","last_reported":1773816897,"current_range_meters":4000,"station_id":"ce4bgv92rcd13ifvqcq0","pricing_plan_id":"cebpf4jnsgd1na2vs0mg"},{"bike_id":"58df6535-2746-4ca5-8ec4-a2736cc7519f","system_id":"levelo_inurba_marseille","lat":43.21187,"lon":5.35085,"is_reserved":false,"is_disabled":false,"rental_uris":{"android":"levelo://app?vid=58df6535-2746-4ca5-8ec4-a2736cc7519f","ios":"levelo://app?vid=58df6535-2746-4ca5-8ec4-a2736cc7519f"},"vehicle_type_id":"4","last_reported":1773816897,"current_range_meters":4000,"station_id":"st_cvj6sg6p6f1abm77japg","pricing_plan_id":"cebpf4jnsgd1na2vs0mg"},{"bike_id":"6271494e-343b-44eb-89d4-11bef9170b99","system_id":"levelo_inurba_marseille","lat":43.29788,"lon":5.38105,"is_reserved":false,"is_disabled":true,"rental_uris":{"android":"levelo://app?vid=6271494e-343b-44eb-89d4-11bef9170b99","ios":"levelo://app?vid=6271494e-343b-44eb-89d4-11bef9170b99"},"vehicle_type_id":"4","last_reported":1773816897,"current_range_meters":4000,"station_id":"ce4bgip2rcd13ifvqbb0","pricing_plan_id":"cebpf4jnsgd1na2vs0mg"},{"bike_id":"5061f412-09bf-4f5b-8dc1-dbb6b020d008","system_id":"levelo_inurba_marseille","lat":43.27044,"lon":5.4027,"is_reserved":false,"is_disabled":false,"rental_uris":{"android":"levelo://app?vid=5061f412-09bf-4f5b-8dc1-dbb6b020d008","ios":"levelo://app?vid=5061f412-09bf-4f5b-8dc1-dbb6b020d008"},"vehicle_type_id":"4","last_reported":1773816897,"current_range_meters":4000,"station_id":"ce4bhk92rcd13ifvqgc0","pricing_plan_id":"cebpf4jnsgd1na2vs0mg"},{"bike_id":"9581202a-9f0b-4e3d-8ba8-487d1612fe8d","system_id":"levelo_inurba_marseille","lat":43.29896,"lon":5.37997,"is_reserved":false,"is_disabled":false,"rental_uris":{"android":"levelo://app?vid=9581202a-9f0b-4e3d-8ba8-487d1612fe8d","ios":"levelo://app?vid=9581202a-9f0b-4e3d-8ba8-487d1612fe8d"},"vehicle_type_id":"4","last_reported":1773816897,"current_range_meters":4000,"station_id":"","pricing_plan_id":"cebpf4jnsgd1na2vs0mg"},{"bike_id":"f9fcd0e4-64a8-49e7-b1c7-7c4d0ac98b5d","system_id":"levelo_inurba_marseille","lat":43.31464,"lon":5.37318,"is_reserved":false,"is_disabled":false,"rental_uris":{"android":"levelo://app?vid=f9fcd0e4-64a8-49e7-b1c7-7c4d0ac98b5d","ios":"levelo://app?vid=f9fcd0e4-64a8-49e7-b1c7-7c4d0ac98b5d"},"vehicle_type_id":"4","last_reported":1773816897,"current_range_meters":4000,"station_id":"ce4bgt12rcd13ifvqcd0","pricing_plan_id":"cebpf4jnsgd1na2vs0mg"},{"bike_id":"c120406e-119d-4789-8519-a9cd3f8a0c7b","system_id":"levelo_inurba_marseille","lat":43.33534,"lon":5.37468,"is_reserved":false,"is_disabled":false,"rental_uris":{"android":"levelo://app?vid=c120406e-119d-4789-8519-a9cd3f8a0c7b","ios":"levelo://app?vid=c120406e-119d-4789-8519-a9cd3f8a0c7b"},"vehicle_type_id":"4","last_reported":1773816897,"current_range_meters":4000,"station_id":"st_d46tts09ee8s73dlu43g","pricing_plan_id":"cebpf4jnsgd1na2vs0mg"},{"bike_id":"0d33946c-dda7-4b3f-9757-2c7ef637d9ab","system_id":"levelo_inurba_marseille","lat":43.29273,"lon":5.40928,"is_reserved":false,"is_disabled":true,"rental_uris":{"android":"levelo://app?vid=0d33946c-dda7-4b3f-9757-2c7ef637d9ab","ios":"levelo://app?vid=0d33946c-dda7-4b3f-9757-2c7ef637d9ab"},"vehicle_type_id":"4","last_reported":1773816897,"current_range_meters":4000,"station_id":"ce4bh192rcd13ifvqdc0","pricing_plan_id":"cebpf4jnsgd1na2vs0mg"},{"bike_id":"340863db-b59c-4114-b65a-541f2f154d1d","system_id":"levelo_inurba_marseille","lat":43.29597,"lon":5.3811,"is_reserved":false,"is_disabled":false,"rental_uris":{"android":"levelo://app?vid=340863db-b59c-4114-b65a-541f2f154d1d","ios":"levelo://app?vid=340863db-b59c-4114-b65a-541f2f154d1d"},"vehicle_type_id":"4","last_reported":1773816897,"current_range_meters":4000,"station_id":"ce4bgl12rcd13ifvqbo0","pricing_plan_id":"cebpf4jnsgd1na2vs0mg"},{"bike_id":"a0c5c5f8-8fc8-49f2-af86-114516413325","system_id":"levelo_inurba_marseille","lat":43.32112,"lon":5.36788,"is_reserved":false,"is_disabled":false,"rental_uris":{"android":"levelo://app?vid=a0c5c5f8-8fc8-49f2-af86-114516413325","ios":"levelo://app?vid=a0c5c5f8-8fc8-49f2-af86-114516413325"},"vehicle_type_id":"4","last_reported":1773816897,"current_range_meters":4000,"station_id":"ce4bhrh2rcd13ifvqhug","pricing_plan_id":"cebpf4jnsgd1na2vs0mg"},{"bike_id":"3f0a8e9d-0677-412d-8cf6-74459d0b1e5c","system_id":"levelo_inurba_marseille","lat":43.31037,"lon":5.37174,"is_reserved":false,"is_disabled":false,"rental_uris":{"android":"levelo://app?vid=3f0a8e9d-0677-412d-8cf6-74459d0b1e5c","ios":"levelo://app?vid=3f0a8e9d-0677-412d-8cf6-74459d0b1e5c"},"vehicle_type_id":"4","last_reported":1773816897,"current_range_meters":4400,"station_id":"st_d4kl2rp97mjs73e7tdfg","pricing_plan_id":"cebpf4jnsgd1na2vs0mg"},{"bike_id":"ba1498b1-f097-4833-ad03-4dee1073cd4e","system_id":"levelo_inurba_marseille","lat":43.28943,"lon":5.39619,"is_reserved":false,"is_disabled":false,"rental_uris":{"android":"levelo://app?vid=ba1498b1-f097-4833-ad03-4dee1073cd4e","ios":"levelo://app?vid=ba1498b1-f097-4833-ad03-4dee1073cd4e"},"vehicle_type_id":"4","last_reported":1773816897,"current_range_meters":4400,"station_id":"ce4bh3h2rcd13ifvqdn0","pricing_plan_id":"cebpf4jnsgd1na2vs0mg"},{"bike_id":"537360c4-f4da-425f-90b9-53d6da2bbe86","system_id":"levelo_inurba_marseille","lat":43.29797,"lon":5.38083,"is_reserved":false,"is_disabled":false,"rental_uris":{"android":"levelo://app?vid=537360c4-f4da-425f-90b9-53d6da2bbe86","ios":"levelo://app?vid=537360c4-f4da-425f-90b9-53d6da2bbe86"},"vehicle_type_id":"4","last_reported":1773816897,"current_range_meters":4400,"station_id":"ce4bgip2rcd13ifvqbb0","pricing_plan_id":"cebpf4jnsgd1na2vs0mg"},{"bike_id":"7ed81327-915e-4da5-8355-fa5f0f4c64c6","system_id":"levelo_inurba_marseille","lat":43.3013,"lon":5.39881,"is_reserved":false,"is_disabled":false,"rental_uris":{"android":"levelo://app?vid=7ed81327-915e-4da5-8355-fa5f0f4c64c6","ios":"levelo://app?vid=7ed81327-915e-4da5-8355-fa5f0f4c64c6"},"vehicle_type_id":"4","last_reported":1773816897,"current_range_meters":4400,"station_id":"ce4bh0h2rcd13ifvqd40","pricing_plan_id":"cebpf4jnsgd1na2vs0mg"},{"bike_id":"7a73b128-6eb2-47bb-8ea6-432d8e929d53","system_id":"levelo_inurba_marseille","lat":43.29966,"lon":5.41325,"is_reserved":false,"is_disabled":false,"rental_uris":{"android":"levelo://app?vid=7a73b128-6eb2-47bb-8ea6-432d8e929d53","ios":"levelo://app?vid=7a73b128-6eb2-47bb-8ea6-432d8e929d53"},"vehicle_type_id":"4","last_reported":1773816897,"current_range_meters":4400,"station_id":"ce4bhp12rcd13ifvqh9g","pricing_plan_id":"cebpf4jnsgd1na2vs0mg"},{"bike_id":"1d851264-6ba3-48c2-86f6-b84e8d5a0c62","system_id":"levelo_inurba_marseille","lat":43.29164,"lon":5.35819,"is_reserved":false,"is_disabled":true,"rental_uris":{"android":"levelo://app?vid=1d851264-6ba3-48c2-86f6-b84e8d5a0c62","ios":"levelo://app?vid=1d851264-6ba3-48c2-86f6-b84e8d5a0c62"},"vehicle_type_id":"4","last_reported":1773816897,"current_range_meters":4400,"station_id":"ce4bhb12rcd13ifvqel0","pricing_plan_id":"cebpf4jnsgd1na2vs0mg"},{"bike_id":"3a1d8d4b-1d73-4273-9031-4a73961475fd","system_id":"levelo_inurba_marseille","lat":43.30125,"lon":5.39869,"is_reserved":false,"is_disabled":false,"rental_uris":{"android":"levelo://app?vid=3a1d8d4b-1d73-4273-9031-4a73961475fd","ios":"levelo://app?vid=3a1d8d4b-1d73-4273-9031-4a73961475fd"},"vehicle_type_id":"4","last_reported":1773816897,"current_range_meters":4400,"station_id":"ce4bh0h2rcd13ifvqd40","pricing_plan_id":"cebpf4jnsgd1na2vs0mg"},{"bike_id":"53336338-5141-44ec-bb59-6df2460b79a8","system_id":"levelo_inurba_marseille","lat":43.30208,"lon":5.39445,"is_reserved":false,"is_disabled":true,"rental_uris":{"android":"levelo://app?vid=53336338-5141-44ec-bb59-6df2460b79a8","ios":"levelo://app?vid=53336338-5141-44ec-bb59-6df2460b79a8"},"vehicle_type_id":"4","last_reported":1773816897,"current_range_meters":4400,"station_id":"ce4bh0p2rcd13ifvqd70","pricing_plan_id":"cebpf4jnsgd1na2vs0mg"},{"bike_id":"524a8e11-a53e-4d28-9889-bf717f24f2f8","system_id":"levelo_inurba_marseille","lat":43.30888,"lon":5.3687,"is_reserved":false,"is_disabled":false,"rental_uris":{"android":"levelo://app?vid=524a8e11-a53e-4d28-9889-bf717f24f2f8","ios":"levelo://app?vid=524a8e11-a53e-4d28-9889-bf717f24f2f8"},"vehicle_type_id":"4","last_reported":1773816897,"current_range_meters":4400,"station_id":"ce4bgn92rcd13ifvqbvg","pricing_plan_id":"cebpf4jnsgd1na2vs0mg"},{"bike_id":"e4de910b-1a4a-40ef-8c00-b5d338dbaf96","system_id":"levelo_inurba_marseille","lat":43.28703,"lon":5.36377,"is_reserved":false,"is_disabled":false,"rental_uris":{"android":"levelo://app?vid=e4de910b-1a4a-40ef-8c00-b5d338dbaf96","ios":"levelo://app?vid=e4de910b-1a4a-40ef-8c00-b5d338dbaf96"},"vehicle_type_id":"4","last_reported":1773816897,"current_range_meters":4400,"station_id":"","pricing_plan_id":"cebpf4jnsgd1na2vs0mg"},{"bike_id":"4e4ba8f7-60dc-4959-9a01-6da668abb084","system_id":"levelo_inurba_marseille","lat":43.21173,"lon":5.35091,"is_reserved":false,"is_disabled":false,"rental_uris":{"android":"levelo://app?vid=4e4ba8f7-60dc-4959-9a01-6da668abb084","ios":"levelo://app?vid=4e4ba8f7-60dc-4959-9a01-6da668abb084"},"vehicle_type_id":"4","last_reported":1773816897,"current_range_meters":4400,"station_id":"st_cvj6sg6p6f1abm77japg","pricing_plan_id":"cebpf4jnsgd1na2vs0mg"},{"bike_id":"7cad07a4-0552-437d-82e8-a69a3605928f","system_id":"levelo_inurba_marseille","lat":43.29048,"lon":5.3999,"is_reserved":false,"is_disabled":false,"rental_uris":{"android":"levelo://app?vid=7cad07a4-0552-437d-82e8-a69a3605928f","ios":"levelo://app?vid=7cad07a4-0552-437d-82e8-a69a3605928f"},"vehicle_type_id":"4","last_reported":1773816897,"current_range_meters":4400,"station_id":"ce4bh392rcd13ifvqdm0","pricing_plan_id":"cebpf4jnsgd1na2vs0mg"},{"bike_id":"efa56788-fd95-4d6e-84ce-b31b80bc3dea","system_id":"levelo_inurba_marseille","lat":43.29294,"lon":5.37467,"is_reserved":false,"is_disabled":true,"rental_uris":{"android":"levelo://app?vid=efa56788-fd95-4d6e-84ce-b31b80bc3dea","ios":"levelo://app?vid=efa56788-fd95-4d6e-84ce-b31b80bc3dea"},"vehicle_type_id":"4","last_reported":1773816897,"current_range_meters":4400,"station_id":"ce4bgi12rcd13ifvqb70","pricing_plan_id":"cebpf4jnsgd1na2vs0mg"},{"bike_id":"0b89ee03-50d6-4391-939e-17a33f2cbc13","system_id":"levelo_inurba_marseille","lat":43.30142,"lon":5.3811,"is_reserved":false,"is_disabled":false,"rental_uris":{"android":"levelo://app?vid=0b89ee03-50d6-4391-939e-17a33f2cbc13","ios":"levelo://app?vid=0b89ee03-50d6-4391-939e-17a33f2cbc13"},"vehicle_type_id":"4","last_reported":1773816897,"current_range_meters":4400,"station_id":"ce4bgjp2rcd13ifvqbh0","pricing_plan_id":"cebpf4jnsgd1na2vs0mg"},{"bike_id":"0edc70b6-d69b-4a82-b984-b6dcbfbcb380","system_id":"levelo_inurba_marseille","lat":43.32919,"lon":5.37552,"is_reserved":false,"is_disabled":false,"rental_uris":{"android":"levelo://app?vid=0edc70b6-d69b-4a82-b984-b6dcbfbcb380","ios":"levelo://app?vid=0edc70b6-d69b-4a82-b984-b6dcbfbcb380"},"vehicle_type_id":"4","last_reported":1773816897,"current_range_meters":4400,"station_id":"","pricing_plan_id":"cebpf4jnsgd1na2vs0mg"},{"bike_id":"c99a83c6-eead-48f8-b2c5-bbb0f633180e","system_id":"levelo_inurba_marseille","lat":43.2901,"lon":5.35612,"is_reserved":false,"is_disabled":false,"rental_uris":{"android":"levelo://app?vid=c99a83c6-eead-48f8-b2c5-bbb0f633180e","ios":"levelo://app?vid=c99a83c6-eead-48f8-b2c5-bbb0f633180e"},"vehicle_type_id":"4","last_reported":1773816897,"current_range_meters":4400,"station_id":"ce4bhb92rcd13ifvqen0","pricing_plan_id":"cebpf4jnsgd1na2vs0mg"},{"bike_id":"842a1dc3-a662-44aa-821a-15a772efb683","system_id":"levelo_inurba_marseille","lat":43.3104,"lon":5.37178,"is_reserved":false,"is_disabled":false,"rental_uris":{"android":"levelo://app?vid=842a1dc3-a662-44aa-821a-15a772efb683","ios":"levelo://app?vid=842a1dc3-a662-44aa-821a-15a772efb683"},"vehicle_type_id":"4","last_reported":1773816897,"current_range_meters":4800,"station_id":"st_d4kl2rp97mjs73e7tdfg","pricing_plan_id":"cebpf4jnsgd1na2vs0mg"},{"bike_id":"4af15d60-b5e6-4a55-9404-2793b6d7cc47","system_id":"levelo_inurba_marseille","lat":43.24648,"lon":5.43152,"is_reserved":false,"is_disabled":false,"rental_uris":{"android":"levelo://app?vid=4af15d60-b5e6-4a55-9404-2793b6d7cc47","ios":"levelo://app?vid=4af15d60-b5e6-4a55-9404-2793b6d7cc47"},"vehicle_type_id":"4","last_reported":1773816897,"current_range_meters":4800,"station_id":"","pricing_plan_id":"cebpf4jnsgd1na2vs0mg"},{"bike_id":"072d8ca3-00ee-400a-8de6-a551d013733e","system_id":"levelo_inurba_marseille","lat":43.29882,"lon":5.39761,"is_reserved":false,"is_disabled":false,"rental_uris":{"android":"levelo://app?vid=072d8ca3-00ee-400a-8de6-a551d013733e","ios":"levelo://app?vid=072d8ca3-00ee-400a-8de6-a551d013733e"},"vehicle_type_id":"4","last_reported":1773816897,"current_range_meters":4800,"station_id":"ce4bh0h2rcd13ifvqd50","pricing_plan_id":"cebpf4jnsgd1na2vs0mg"},{"bike_id":"ab2125f0-f477-425b-9c9a-e4231f7f002b","system_id":"levelo_inurba_marseille","lat":43.21742,"lon":5.34632,"is_reserved":false,"is_disabled":true,"rental_uris":{"android":"levelo://app?vid=ab2125f0-f477-425b-9c9a-e4231f7f002b","ios":"levelo://app?vid=ab2125f0-f477-425b-9c9a-e4231f7f002b"},"vehicle_type_id":"4","last_reported":1773816897,"current_range_meters":4800,"station_id":"st_cvj6r9ubvosntc0bgbag","pricing_plan_id":"cebpf4jnsgd1na2vs0mg"},{"bike_id":"a1cfb408-da52-4413-a934-9b5c4a9189a4","system_id":"levelo_inurba_marseille","lat":43.29584,"lon":5.37524,"is_reserved":false,"is_disabled":false,"rental_uris":{"android":"levelo://app?vid=a1cfb408-da52-4413-a934-9b5c4a9189a4","ios":"levelo://app?vid=a1cfb408-da52-4413-a934-9b5c4a9189a4"},"vehicle_type_id":"4","last_reported":1773816897,"current_range_meters":4800,"station_id":"ce4bgh92rcd13ifvqb50","pricing_plan_id":"cebpf4jnsgd1na2vs0mg"},{"bike_id":"1f9e4cec-0642-416c-a6f8-b73b17074358","system_id":"levelo_inurba_marseille","lat":43.30125,"lon":5.39884,"is_reserved":false,"is_disabled":false,"rental_uris":{"android":"levelo://app?vid=1f9e4cec-0642-416c-a6f8-b73b17074358","ios":"levelo://app?vid=1f9e4cec-0642-416c-a6f8-b73b17074358"},"vehicle_type_id":"4","last_reported":1773816897,"current_range_meters":4800,"station_id":"ce4bh0h2rcd13ifvqd40","pricing_plan_id":"cebpf4jnsgd1na2vs0mg"},{"bike_id":"0b4f2083-08f5-4948-8cc8-8bf28f499d5c","system_id":"levelo_inurba_marseille","lat":43.31073,"lon":5.37807,"is_reserved":false,"is_disabled":false,"rental_uris":{"android":"levelo://app?vid=0b4f2083-08f5-4948-8cc8-8bf28f499d5c","ios":"levelo://app?vid=0b4f2083-08f5-4948-8cc8-8bf28f499d5c"},"vehicle_type_id":"4","last_reported":1773816897,"current_range_meters":5600,"station_id":"","pricing_plan_id":"cebpf4jnsgd1na2vs0mg"},{"bike_id":"8f96089d-eeea-417a-b8cb-43fd48816f86","system_id":"levelo_inurba_marseille","lat":43.302728,"lon":5.390397,"is_reserved":false,"is_disabled":false,"rental_uris":{"android":"levelo://app?vid=8f96089d-eeea-417a-b8cb-43fd48816f86","ios":"levelo://app?vid=8f96089d-eeea-417a-b8cb-43fd48816f86"},"vehicle_type_id":"4","last_reported":1773816897,"current_range_meters":5600,"station_id":"ce4bgkh2rcd13ifvqbk0","pricing_plan_id":"cebpf4jnsgd1na2vs0mg"},{"bike_id":"16018c06-6f6d-4841-966f-a5b99688cd23","system_id":"levelo_inurba_marseille","lat":43.30153,"lon":5.38106,"is_reserved":false,"is_disabled":false,"rental_uris":{"android":"levelo://app?vid=16018c06-6f6d-4841-966f-a5b99688cd23","ios":"levelo://app?vid=16018c06-6f6d-4841-966f-a5b99688cd23"},"vehicle_type_id":"4","last_reported":1773816897,"current_range_meters":5600,"station_id":"ce4bgjp2rcd13ifvqbh0","pricing_plan_id":"cebpf4jnsgd1na2vs0mg"},{"bike_id":"7bd419bf-7063-4648-840f-e4e63ac8cb30","system_id":"levelo_inurba_marseille","lat":43.27989,"lon":5.40021,"is_reserved":false,"is_disabled":true,"rental_uris":{"android":"levelo://app?vid=7bd419bf-7063-4648-840f-e4e63ac8cb30","ios":"levelo://app?vid=7bd419bf-7063-4648-840f-e4e63ac8cb30"},"vehicle_type_id":"4","last_reported":1773816897,"current_range_meters":5600,"station_id":"ce4bho92rcd13ifvqh4g","pricing_plan_id":"cebpf4jnsgd1na2vs0mg"},{"bike_id":"458f604b-e062-47bf-ac14-a001a31d10d8","system_id":"levelo_inurba_marseille","lat":43.28472,"lon":5.4839,"is_reserved":false,"is_disabled":false,"rental_uris":{"android":"levelo://app?vid=458f604b-e062-47bf-ac14-a001a31d10d8","ios":"levelo://app?vid=458f604b-e062-47bf-ac14-a001a31d10d8"},"vehicle_type_id":"4","last_reported":1773816897,"current_range_meters":5600,"station_id":"","pricing_plan_id":"cebpf4jnsgd1na2vs0mg"},{"bike_id":"f7e79517-161a-451a-8a95-bb710b1b4d21","system_id":"levelo_inurba_marseille","lat":43.29574,"lon":5.36799,"is_reserved":false,"is_disabled":true,"rental_uris":{"android":"levelo://app?vid=f7e79517-161a-451a-8a95-bb710b1b4d21","ios":"levelo://app?vid=f7e79517-161a-451a-8a95-bb710b1b4d21"},"vehicle_type_id":"4","last_reported":1773816897,"current_range_meters":5600,"station_id":"","pricing_plan_id":"cebpf4jnsgd1na2vs0mg"},{"bike_id":"cfb2e14b-73a8-4466-83b0-51755dfd9dbb","system_id":"levelo_inurba_marseille","lat":43.23185,"lon":5.39985,"is_reserved":false,"is_disabled":false,"rental_uris":{"android":"levelo://app?vid=cfb2e14b-73a8-4466-83b0-51755dfd9dbb","ios":"levelo://app?vid=cfb2e14b-73a8-4466-83b0-51755dfd9dbb"},"vehicle_type_id":"4","last_reported":1773816897,"current_range_meters":5600,"station_id":"ce4bhn12rcd13ifvqgqg","pricing_plan_id":"cebpf4jnsgd1na2vs0mg"},{"bike_id":"2134a193-4b3a-4038-a280-1a0ba6458570","system_id":"levelo_inurba_marseille","lat":43.29805,"lon":5.42125,"is_reserved":false,"is_disabled":false,"rental_uris":{"android":"levelo://app?vid=2134a193-4b3a-4038-a280-1a0ba6458570","ios":"levelo://app?vid=2134a193-4b3a-4038-a280-1a0ba6458570"},"vehicle_type_id":"4","last_reported":1773816897,"current_range_meters":5600,"station_id":"","pricing_plan_id":"cebpf4jnsgd1na2vs0mg"},{"bike_id":"b5b8b144-cfaf-4287-9933-5469d18ff1ca","system_id":"levelo_inurba_marseille","lat":43.28719,"lon":5.37937,"is_reserved":false,"is_disabled":true,"rental_uris":{"android":"levelo://app?vid=b5b8b144-cfaf-4287-9933-5469d18ff1ca","ios":"levelo://app?vid=b5b8b144-cfaf-4287-9933-5469d18ff1ca"},"vehicle_type_id":"4","last_reported":1773816897,"current_range_meters":5600,"station_id":"ce4bh9p2rcd13ifvqec0","pricing_plan_id":"cebpf4jnsgd1na2vs0mg"},{"bike_id":"145cf909-0a6f-49d8-9ad7-e55b549465ae","system_id":"levelo_inurba_marseille","lat":43.25632,"lon":5.38565,"is_reserved":false,"is_disabled":false,"rental_uris":{"android":"levelo://app?vid=145cf909-0a6f-49d8-9ad7-e55b549465ae","ios":"levelo://app?vid=145cf909-0a6f-49d8-9ad7-e55b549465ae"},"vehicle_type_id":"4","last_reported":1773816897,"current_range_meters":5600,"station_id":"","pricing_plan_id":"cebpf4jnsgd1na2vs0mg"},{"bike_id":"b3742ef3-c97d-4866-9d07-e1f986e45152","system_id":"levelo_inurba_marseille","lat":43.3018,"lon":5.38054,"is_reserved":false,"is_disabled":false,"rental_uris":{"android":"levelo://app?vid=b3742ef3-c97d-4866-9d07-e1f986e45152","ios":"levelo://app?vid=b3742ef3-c97d-4866-9d07-e1f986e45152"},"vehicle_type_id":"4","last_reported":1773816897,"current_range_meters":5600,"station_id":"ce4bgjp2rcd13ifvqbh0","pricing_plan_id":"cebpf4jnsgd1na2vs0mg"},{"bike_id":"292abd82-4146-466f-9e34-79bd05209e5a","system_id":"levelo_inurba_marseille","lat":43.29949,"lon":5.38521,"is_reserved":false,"is_disabled":false,"rental_uris":{"android":"levelo://app?vid=292abd82-4146-466f-9e34-79bd05209e5a","ios":"levelo://app?vid=292abd82-4146-466f-9e34-79bd05209e5a"},"vehicle_type_id":"4","last_reported":1773816897,"current_range_meters":5600,"station_id":"ce4bgj92rcd13ifvqbd0","pricing_plan_id":"cebpf4jnsgd1na2vs0mg"},{"bike_id":"83dfe6d5-7b4e-4962-9169-24132413c1be","system_id":"levelo_inurba_marseille","lat":43.31723,"lon":5.42407,"is_reserved":false,"is_disabled":false,"rental_uris":{"android":"levelo://app?vid=83dfe6d5-7b4e-4962-9169-24132413c1be","ios":"levelo://app?vid=83dfe6d5-7b4e-4962-9169-24132413c1be"},"vehicle_type_id":"4","last_reported":1773816897,"current_range_meters":5600,"station_id":"ce4bhp92rcd13ifvqhbg","pricing_plan_id":"cebpf4jnsgd1na2vs0mg"},{"bike_id":"bf249f81-2ef0-45f9-a595-8436dd14fe0c","system_id":"levelo_inurba_marseille","lat":43.32129,"lon":5.36739,"is_reserved":false,"is_disabled":true,"rental_uris":{"android":"levelo://app?vid=bf249f81-2ef0-45f9-a595-8436dd14fe0c","ios":"levelo://app?vid=bf249f81-2ef0-45f9-a595-8436dd14fe0c"},"vehicle_type_id":"4","last_reported":1773816897,"current_range_meters":5600,"station_id":"ce4bhrh2rcd13ifvqhug","pricing_plan_id":"cebpf4jnsgd1na2vs0mg"},{"bike_id":"a4456d89-d17c-400e-b5f6-bacb94ff5823","system_id":"levelo_inurba_marseille","lat":43.28158,"lon":5.42634,"is_reserved":false,"is_disabled":false,"rental_uris":{"android":"levelo://app?vid=a4456d89-d17c-400e-b5f6-bacb94ff5823","ios":"levelo://app?vid=a4456d89-d17c-400e-b5f6-bacb94ff5823"},"vehicle_type_id":"4","last_reported":1773816897,"current_range_meters":6000,"station_id":"ce4bhnh2rcd13ifvqgug","pricing_plan_id":"cebpf4jnsgd1na2vs0mg"},{"bike_id":"69554c87-cebe-4226-9d31-89e5bd465a88","system_id":"levelo_inurba_marseille","lat":43.30142,"lon":5.39849,"is_reserved":false,"is_disabled":false,"rental_uris":{"android":"levelo://app?vid=69554c87-cebe-4226-9d31-89e5bd465a88","ios":"levelo://app?vid=69554c87-cebe-4226-9d31-89e5bd465a88"},"vehicle_type_id":"4","last_reported":1773816897,"current_range_meters":6000,"station_id":"ce4bh0h2rcd13ifvqd40","pricing_plan_id":"cebpf4jnsgd1na2vs0mg"},{"bike_id":"2ea8059f-6abe-4de5-a1dc-edc4818fb46b","system_id":"levelo_inurba_marseille","lat":43.30161,"lon":5.399,"is_reserved":false,"is_disabled":false,"rental_uris":{"android":"levelo://app?vid=2ea8059f-6abe-4de5-a1dc-edc4818fb46b","ios":"levelo://app?vid=2ea8059f-6abe-4de5-a1dc-edc4818fb46b"},"vehicle_type_id":"4","last_reported":1773816897,"current_range_meters":6000,"station_id":"ce4bh0h2rcd13ifvqd40","pricing_plan_id":"cebpf4jnsgd1na2vs0mg"},{"bike_id":"75fa4f38-8d89-4b95-be65-de34bad6266a","system_id":"levelo_inurba_marseille","lat":43.32287,"lon":5.38274,"is_reserved":false,"is_disabled":false,"rental_uris":{"android":"levelo://app?vid=75fa4f38-8d89-4b95-be65-de34bad6266a","ios":"levelo://app?vid=75fa4f38-8d89-4b95-be65-de34bad6266a"},"vehicle_type_id":"4","last_reported":1773816897,"current_range_meters":6000,"station_id":"ce4bhr12rcd13ifvqhqg","pricing_plan_id":"cebpf4jnsgd1na2vs0mg"},{"bike_id":"38eba9af-987b-45b6-b3c0-f366153b6fd5","system_id":"levelo_inurba_marseille","lat":43.31999,"lon":5.38151,"is_reserved":false,"is_disabled":false,"rental_uris":{"android":"levelo://app?vid=38eba9af-987b-45b6-b3c0-f366153b6fd5","ios":"levelo://app?vid=38eba9af-987b-45b6-b3c0-f366153b6fd5"},"vehicle_type_id":"4","last_reported":1773816897,"current_range_meters":6000,"station_id":"ce4bhr12rcd13ifvqhpg","pricing_plan_id":"cebpf4jnsgd1na2vs0mg"},{"bike_id":"6e469e16-801e-4eab-bb77-305ff36b2b06","system_id":"levelo_inurba_marseille","lat":43.31325,"lon":5.39688,"is_reserved":false,"is_disabled":false,"rental_uris":{"android":"levelo://app?vid=6e469e16-801e-4eab-bb77-305ff36b2b06","ios":"levelo://app?vid=6e469e16-801e-4eab-bb77-305ff36b2b06"},"vehicle_type_id":"4","last_reported":1773816897,"current_range_meters":6000,"station_id":"ce4bgvp2rcd13ifvqcu0","pricing_plan_id":"cebpf4jnsgd1na2vs0mg"},{"bike_id":"64e4942c-04ec-475a-8745-de522dcf5faa","system_id":"levelo_inurba_marseille","lat":43.22925,"lon":5.35384,"is_reserved":false,"is_disabled":false,"rental_uris":{"android":"levelo://app?vid=64e4942c-04ec-475a-8745-de522dcf5faa","ios":"levelo://app?vid=64e4942c-04ec-475a-8745-de522dcf5faa"},"vehicle_type_id":"4","last_reported":1773816897,"current_range_meters":6000,"station_id":"cpo3532slgdg3j2ikp40","pricing_plan_id":"cebpf4jnsgd1na2vs0mg"},{"bike_id":"96dac97a-0c76-4079-a74f-d3b50e0ff04c","system_id":"levelo_inurba_marseille","lat":43.21156,"lon":5.35098,"is_reserved":false,"is_disabled":false,"rental_uris":{"android":"levelo://app?vid=96dac97a-0c76-4079-a74f-d3b50e0ff04c","ios":"levelo://app?vid=96dac97a-0c76-4079-a74f-d3b50e0ff04c"},"vehicle_type_id":"4","last_reported":1773816897,"current_range_meters":6000,"station_id":"st_cvj6sg6p6f1abm77japg","pricing_plan_id":"cebpf4jnsgd1na2vs0mg"},{"bike_id":"811cb60e-c2e0-4eff-a720-ab1d90d9f80a","system_id":"levelo_inurba_marseille","lat":43.23386,"lon":5.41237,"is_reserved":false,"is_disabled":false,"rental_uris":{"android":"levelo://app?vid=811cb60e-c2e0-4eff-a720-ab1d90d9f80a","ios":"levelo://app?vid=811cb60e-c2e0-4eff-a720-ab1d90d9f80a"},"vehicle_type_id":"4","last_reported":1773816897,"current_range_meters":6000,"station_id":"","pricing_plan_id":"cebpf4jnsgd1na2vs0mg"},{"bike_id":"b0ed125a-1581-42df-bdfa-7443248b5dee","system_id":"levelo_inurba_marseille","lat":43.30091,"lon":5.39903,"is_reserved":false,"is_disabled":false,"rental_uris":{"android":"levelo://app?vid=b0ed125a-1581-42df-bdfa-7443248b5dee","ios":"levelo://app?vid=b0ed125a-1581-42df-bdfa-7443248b5dee"},"vehicle_type_id":"4","last_reported":1773816897,"current_range_meters":6000,"station_id":"ce4bh0h2rcd13ifvqd40","pricing_plan_id":"cebpf4jnsgd1na2vs0mg"},{"bike_id":"af00dae9-0462-4a1b-88e3-b42318d8753d","system_id":"levelo_inurba_marseille","lat":43.29226,"lon":5.36065,"is_reserved":false,"is_disabled":false,"rental_uris":{"android":"levelo://app?vid=af00dae9-0462-4a1b-88e3-b42318d8753d","ios":"levelo://app?vid=af00dae9-0462-4a1b-88e3-b42318d8753d"},"vehicle_type_id":"4","last_reported":1773816897,"current_range_meters":6000,"station_id":"ce4bhbh2rcd13ifvqeqg","pricing_plan_id":"cebpf4jnsgd1na2vs0mg"},{"bike_id":"c2c7c530-5d90-493e-bc68-4654d00e1dc7","system_id":"levelo_inurba_marseille","lat":43.25215,"lon":5.40611,"is_reserved":false,"is_disabled":false,"rental_uris":{"android":"levelo://app?vid=c2c7c530-5d90-493e-bc68-4654d00e1dc7","ios":"levelo://app?vid=c2c7c530-5d90-493e-bc68-4654d00e1dc7"},"vehicle_type_id":"4","last_reported":1773816897,"current_range_meters":6000,"station_id":"","pricing_plan_id":"cebpf4jnsgd1na2vs0mg"},{"bike_id":"076ddfb2-a5b1-4cfa-9133-509dead80e9a","system_id":"levelo_inurba_marseille","lat":43.29418,"lon":5.39774,"is_reserved":false,"is_disabled":false,"rental_uris":{"android":"levelo://app?vid=076ddfb2-a5b1-4cfa-9133-509dead80e9a","ios":"levelo://app?vid=076ddfb2-a5b1-4cfa-9133-509dead80e9a"},"vehicle_type_id":"4","last_reported":1773816897,"current_range_meters":6400,"station_id":"ce4bh3h2rcd13ifvqdo0","pricing_plan_id":"cebpf4jnsgd1na2vs0mg"},{"bike_id":"7ada2641-316b-4e07-8cf0-f1c79c755356","system_id":"levelo_inurba_marseille","lat":43.24952,"lon":5.40501,"is_reserved":false,"is_disabled":false,"rental_uris":{"android":"levelo://app?vid=7ada2641-316b-4e07-8cf0-f1c79c755356","ios":"levelo://app?vid=7ada2641-316b-4e07-8cf0-f1c79c755356"},"vehicle_type_id":"4","last_reported":1773816897,"current_range_meters":6400,"station_id":"st_d2ngiaodas8pm72gd1h0","pricing_plan_id":"cebpf4jnsgd1na2vs0mg"},{"bike_id":"dbab349c-c5b4-44d2-82cd-ce91d25828af","system_id":"levelo_inurba_marseille","lat":43.25864,"lon":5.3991,"is_reserved":false,"is_disabled":false,"rental_uris":{"android":"levelo://app?vid=dbab349c-c5b4-44d2-82cd-ce91d25828af","ios":"levelo://app?vid=dbab349c-c5b4-44d2-82cd-ce91d25828af"},"vehicle_type_id":"4","last_reported":1773816897,"current_range_meters":6400,"station_id":"ce4bhl92rcd13ifvqghg","pricing_plan_id":"cebpf4jnsgd1na2vs0mg"},{"bike_id":"82dcdf4f-8f8d-49c8-bf8f-175264f4f3bd","system_id":"levelo_inurba_marseille","lat":43.22539,"lon":5.34826,"is_reserved":false,"is_disabled":false,"rental_uris":{"android":"levelo://app?vid=82dcdf4f-8f8d-49c8-bf8f-175264f4f3bd","ios":"levelo://app?vid=82dcdf4f-8f8d-49c8-bf8f-175264f4f3bd"},"vehicle_type_id":"4","last_reported":1773816897,"current_range_meters":6400,"station_id":"st_cvj5dfep6f1abm77gieg","pricing_plan_id":"cebpf4jnsgd1na2vs0mg"},{"bike_id":"2567a655-2c75-4ae5-a8b5-6cd436626987","system_id":"levelo_inurba_marseille","lat":43.28147,"lon":5.42649,"is_reserved":false,"is_disabled":false,"rental_uris":{"android":"levelo://app?vid=2567a655-2c75-4ae5-a8b5-6cd436626987","ios":"levelo://app?vid=2567a655-2c75-4ae5-a8b5-6cd436626987"},"vehicle_type_id":"4","last_reported":1773816897,"current_range_meters":6400,"station_id":"ce4bhnh2rcd13ifvqgug","pricing_plan_id":"cebpf4jnsgd1na2vs0mg"},{"bike_id":"df96eb8d-2afa-4848-be90-b8048e9174ac","system_id":"levelo_inurba_marseille","lat":43.30519,"lon":5.36552,"is_reserved":false,"is_disabled":false,"rental_uris":{"android":"levelo://app?vid=df96eb8d-2afa-4848-be90-b8048e9174ac","ios":"levelo://app?vid=df96eb8d-2afa-4848-be90-b8048e9174ac"},"vehicle_type_id":"4","last_reported":1773816897,"current_range_meters":6400,"station_id":"ce4bgs12rcd13ifvqcag","pricing_plan_id":"cebpf4jnsgd1na2vs0mg"},{"bike_id":"7e372e61-a4a4-4320-b78e-0115edf72ed5","system_id":"levelo_inurba_marseille","lat":43.24187,"lon":5.36382,"is_reserved":false,"is_disabled":true,"rental_uris":{"android":"levelo://app?vid=7e372e61-a4a4-4320-b78e-0115edf72ed5","ios":"levelo://app?vid=7e372e61-a4a4-4320-b78e-0115edf72ed5"},"vehicle_type_id":"4","last_reported":1773816897,"current_range_meters":6400,"station_id":"cpo36qri1sfpv3e86is0","pricing_plan_id":"cebpf4jnsgd1na2vs0mg"},{"bike_id":"2874775b-146e-45de-9a13-98bbe699d55d","system_id":"levelo_inurba_marseille","lat":43.24621,"lon":5.43156,"is_reserved":false,"is_disabled":true,"rental_uris":{"android":"levelo://app?vid=2874775b-146e-45de-9a13-98bbe699d55d","ios":"levelo://app?vid=2874775b-146e-45de-9a13-98bbe699d55d"},"vehicle_type_id":"4","last_reported":1773816897,"current_range_meters":6400,"station_id":"","pricing_plan_id":"cebpf4jnsgd1na2vs0mg"},{"bike_id":"25da018b-69bd-4775-ac94-cd86cb0a5a66","system_id":"levelo_inurba_marseille","lat":43.28715,"lon":5.39977,"is_reserved":false,"is_disabled":false,"rental_uris":{"android":"levelo://app?vid=25da018b-69bd-4775-ac94-cd86cb0a5a66","ios":"levelo://app?vid=25da018b-69bd-4775-ac94-cd86cb0a5a66"},"vehicle_type_id":"4","last_reported":1773816897,"current_range_meters":6400,"station_id":"ce4bho92rcd13ifvqh3g","pricing_plan_id":"cebpf4jnsgd1na2vs0mg"},{"bike_id":"0940c0ab-3cca-4660-9974-509b4f5e9818","system_id":"levelo_inurba_marseille","lat":43.28928,"lon":5.39521,"is_reserved":false,"is_disabled":false,"rental_uris":{"android":"levelo://app?vid=0940c0ab-3cca-4660-9974-509b4f5e9818","ios":"levelo://app?vid=0940c0ab-3cca-4660-9974-509b4f5e9818"},"vehicle_type_id":"4","last_reported":1773816897,"current_range_meters":6400,"station_id":"","pricing_plan_id":"cebpf4jnsgd1na2vs0mg"},{"bike_id":"ecdbd6dc-114e-40a8-8e35-58eb02f60fc3","system_id":"levelo_inurba_marseille","lat":43.28603,"lon":5.35109,"is_reserved":false,"is_disabled":false,"rental_uris":{"android":"levelo://app?vid=ecdbd6dc-114e-40a8-8e35-58eb02f60fc3","ios":"levelo://app?vid=ecdbd6dc-114e-40a8-8e35-58eb02f60fc3"},"vehicle_type_id":"4","last_reported":1773816897,"current_range_meters":6800,"station_id":"ce4bhch2rcd13ifvqeug","pricing_plan_id":"cebpf4jnsgd1na2vs0mg"},{"bike_id":"f5bcc30c-fb06-46f4-a1be-c841326461a4","system_id":"levelo_inurba_marseille","lat":43.28859,"lon":5.42521,"is_reserved":false,"is_disabled":false,"rental_uris":{"android":"levelo://app?vid=f5bcc30c-fb06-46f4-a1be-c841326461a4","ios":"levelo://app?vid=f5bcc30c-fb06-46f4-a1be-c841326461a4"},"vehicle_type_id":"4","last_reported":1773816897,"current_range_meters":6800,"station_id":"","pricing_plan_id":"cebpf4jnsgd1na2vs0mg"},{"bike_id":"09b50b48-1342-4da7-892a-788b7c7b0016","system_id":"levelo_inurba_marseille","lat":43.33599,"lon":5.41011,"is_reserved":false,"is_disabled":false,"rental_uris":{"android":"levelo://app?vid=09b50b48-1342-4da7-892a-788b7c7b0016","ios":"levelo://app?vid=09b50b48-1342-4da7-892a-788b7c7b0016"},"vehicle_type_id":"4","last_reported":1773816897,"current_range_meters":6800,"station_id":"ce4bhqh2rcd13ifvqhmg","pricing_plan_id":"cebpf4jnsgd1na2vs0mg"},{"bike_id":"7f2f8e81-7e52-4a11-9c5f-ae7923541729","system_id":"levelo_inurba_marseille","lat":43.31456,"lon":5.37318,"is_reserved":false,"is_disabled":false,"rental_uris":{"android":"levelo://app?vid=7f2f8e81-7e52-4a11-9c5f-ae7923541729","ios":"levelo://app?vid=7f2f8e81-7e52-4a11-9c5f-ae7923541729"},"vehicle_type_id":"4","last_reported":1773816897,"current_range_meters":6800,"station_id":"ce4bgt12rcd13ifvqcd0","pricing_plan_id":"cebpf4jnsgd1na2vs0mg"},{"bike_id":"0aa81194-5fca-4a70-91c6-3ef30d559635","system_id":"levelo_inurba_marseille","lat":43.24383,"lon":5.37059,"is_reserved":false,"is_disabled":false,"rental_uris":{"android":"levelo://app?vid=0aa81194-5fca-4a70-91c6-3ef30d559635","ios":"levelo://app?vid=0aa81194-5fca-4a70-91c6-3ef30d559635"},"vehicle_type_id":"4","last_reported":1773816897,"current_range_meters":6800,"station_id":"ce4bhhh2rcd13ifvqfk0","pricing_plan_id":"cebpf4jnsgd1na2vs0mg"},{"bike_id":"ffa74626-1083-4aa3-9566-39e92389c7cd","system_id":"levelo_inurba_marseille","lat":43.29793,"lon":5.38111,"is_reserved":false,"is_disabled":false,"rental_uris":{"android":"levelo://app?vid=ffa74626-1083-4aa3-9566-39e92389c7cd","ios":"levelo://app?vid=ffa74626-1083-4aa3-9566-39e92389c7cd"},"vehicle_type_id":"4","last_reported":1773816897,"current_range_meters":6800,"station_id":"ce4bgip2rcd13ifvqbb0","pricing_plan_id":"cebpf4jnsgd1na2vs0mg"},{"bike_id":"e19bbcec-af9d-483d-ac29-18df3b9c0ab9","system_id":"levelo_inurba_marseille","lat":43.28473,"lon":5.48398,"is_reserved":false,"is_disabled":false,"rental_uris":{"android":"levelo://app?vid=e19bbcec-af9d-483d-ac29-18df3b9c0ab9","ios":"levelo://app?vid=e19bbcec-af9d-483d-ac29-18df3b9c0ab9"},"vehicle_type_id":"4","last_reported":1773816897,"current_range_meters":6800,"station_id":"st_d3svhcjqgbts73a3dn0g","pricing_plan_id":"cebpf4jnsgd1na2vs0mg"},{"bike_id":"f7cad0dd-4929-454b-8848-7575c69435e1","system_id":"levelo_inurba_marseille","lat":43.25876,"lon":5.39906,"is_reserved":false,"is_disabled":true,"rental_uris":{"android":"levelo://app?vid=f7cad0dd-4929-454b-8848-7575c69435e1","ios":"levelo://app?vid=f7cad0dd-4929-454b-8848-7575c69435e1"},"vehicle_type_id":"4","last_reported":1773816897,"current_range_meters":6800,"station_id":"ce4bhl92rcd13ifvqghg","pricing_plan_id":"cebpf4jnsgd1na2vs0mg"},{"bike_id":"047af0a5-14e2-479e-aa98-65733b038f29","system_id":"levelo_inurba_marseille","lat":43.337444,"lon":5.374475,"is_reserved":false,"is_disabled":true,"rental_uris":{"android":"levelo://app?vid=047af0a5-14e2-479e-aa98-65733b038f29","ios":"levelo://app?vid=047af0a5-14e2-479e-aa98-65733b038f29"},"vehicle_type_id":"4","last_reported":1773816897,"current_range_meters":6800,"station_id":"ce4bgip2rcd13ifvqbb0","pricing_plan_id":"cebpf4jnsgd1na2vs0mg"},{"bike_id":"8008a528-c75f-4f2b-aedf-0db81e63382a","system_id":"levelo_inurba_marseille","lat":43.30959,"lon":5.39033,"is_reserved":false,"is_disabled":false,"rental_uris":{"android":"levelo://app?vid=8008a528-c75f-4f2b-aedf-0db81e63382a","ios":"levelo://app?vid=8008a528-c75f-4f2b-aedf-0db81e63382a"},"vehicle_type_id":"4","last_reported":1773816897,"current_range_meters":6800,"station_id":"ce4bgup2rcd13ifvqco0","pricing_plan_id":"cebpf4jnsgd1na2vs0mg"},{"bike_id":"6ff77052-2b2a-49dd-87a8-c8d9a9d1a863","system_id":"levelo_inurba_marseille","lat":43.29195,"lon":5.40918,"is_reserved":false,"is_disabled":false,"rental_uris":{"android":"levelo://app?vid=6ff77052-2b2a-49dd-87a8-c8d9a9d1a863","ios":"levelo://app?vid=6ff77052-2b2a-49dd-87a8-c8d9a9d1a863"},"vehicle_type_id":"4","last_reported":1773816897,"current_range_meters":6800,"station_id":"","pricing_plan_id":"cebpf4jnsgd1na2vs0mg"},{"bike_id":"bdec0e5b-0b6d-4f1c-9606-cf7119fadf8b","system_id":"levelo_inurba_marseille","lat":43.29276,"lon":5.40135,"is_reserved":false,"is_disabled":false,"rental_uris":{"android":"levelo://app?vid=bdec0e5b-0b6d-4f1c-9606-cf7119fadf8b","ios":"levelo://app?vid=bdec0e5b-0b6d-4f1c-9606-cf7119fadf8b"},"vehicle_type_id":"4","last_reported":1773816897,"current_range_meters":6800,"station_id":"ce4bh312rcd13ifvqdk0","pricing_plan_id":"cebpf4jnsgd1na2vs0mg"},{"bike_id":"69f9e7d0-9e6e-48d9-8402-311a294217e6","system_id":"levelo_inurba_marseille","lat":43.29384,"lon":5.3786,"is_reserved":false,"is_disabled":true,"rental_uris":{"android":"levelo://app?vid=69f9e7d0-9e6e-48d9-8402-311a294217e6","ios":"levelo://app?vid=69f9e7d0-9e6e-48d9-8402-311a294217e6"},"vehicle_type_id":"4","last_reported":1773816897,"current_range_meters":6800,"station_id":"ce4bgjh2rcd13ifvqbf0","pricing_plan_id":"cebpf4jnsgd1na2vs0mg"},{"bike_id":"5de24332-3ca3-478e-a856-c7beab8d3c92","system_id":"levelo_inurba_marseille","lat":43.30862,"lon":5.39682,"is_reserved":false,"is_disabled":false,"rental_uris":{"android":"levelo://app?vid=5de24332-3ca3-478e-a856-c7beab8d3c92","ios":"levelo://app?vid=5de24332-3ca3-478e-a856-c7beab8d3c92"},"vehicle_type_id":"4","last_reported":1773816897,"current_range_meters":6800,"station_id":"ce4bh012rcd13ifvqcv0","pricing_plan_id":"cebpf4jnsgd1na2vs0mg"},{"bike_id":"16229095-75b2-43eb-b1c1-2da98e401b92","system_id":"levelo_inurba_marseille","lat":43.29533,"lon":5.38549,"is_reserved":false,"is_disabled":false,"rental_uris":{"android":"levelo://app?vid=16229095-75b2-43eb-b1c1-2da98e401b92","ios":"levelo://app?vid=16229095-75b2-43eb-b1c1-2da98e401b92"},"vehicle_type_id":"4","last_reported":1773816897,"current_range_meters":6800,"station_id":"ce4bgih2rcd13ifvqba0","pricing_plan_id":"cebpf4jnsgd1na2vs0mg"},{"bike_id":"f8a00c49-c93d-41ce-9f11-d81257ca6394","system_id":"levelo_inurba_marseille","lat":43.22923,"lon":5.35391,"is_reserved":false,"is_disabled":false,"rental_uris":{"android":"levelo://app?vid=f8a00c49-c93d-41ce-9f11-d81257ca6394","ios":"levelo://app?vid=f8a00c49-c93d-41ce-9f11-d81257ca6394"},"vehicle_type_id":"4","last_reported":1773816897,"current_range_meters":6800,"station_id":"cpo3532slgdg3j2ikp40","pricing_plan_id":"cebpf4jnsgd1na2vs0mg"},{"bike_id":"0e2c33a9-f212-4808-9dbe-8a0a2c508bc1","system_id":"levelo_inurba_marseille","lat":43.30238,"lon":5.4012,"is_reserved":false,"is_disabled":false,"rental_uris":{"android":"levelo://app?vid=0e2c33a9-f212-4808-9dbe-8a0a2c508bc1","ios":"levelo://app?vid=0e2c33a9-f212-4808-9dbe-8a0a2c508bc1"},"vehicle_type_id":"4","last_reported":1773816897,"current_range_meters":6800,"station_id":"ce4bgvh2rcd13ifvqcs0","pricing_plan_id":"cebpf4jnsgd1na2vs0mg"},{"bike_id":"b9f2e5d5-d6ac-4c0d-86f2-4fe1a54ef3b3","system_id":"levelo_inurba_marseille","lat":43.32101,"lon":5.36776,"is_reserved":false,"is_disabled":false,"rental_uris":{"android":"levelo://app?vid=b9f2e5d5-d6ac-4c0d-86f2-4fe1a54ef3b3","ios":"levelo://app?vid=b9f2e5d5-d6ac-4c0d-86f2-4fe1a54ef3b3"},"vehicle_type_id":"4","last_reported":1773816897,"current_range_meters":6800,"station_id":"ce4bhrh2rcd13ifvqhug","pricing_plan_id":"cebpf4jnsgd1na2vs0mg"},{"bike_id":"a1ce7f50-24f0-4981-95a3-cd96949f1bbd","system_id":"levelo_inurba_marseille","lat":43.2657,"lon":5.39035,"is_reserved":false,"is_disabled":false,"rental_uris":{"android":"levelo://app?vid=a1ce7f50-24f0-4981-95a3-cd96949f1bbd","ios":"levelo://app?vid=a1ce7f50-24f0-4981-95a3-cd96949f1bbd"},"vehicle_type_id":"4","last_reported":1773816897,"current_range_meters":6800,"station_id":"ce4bhe12rcd13ifvqf30","pricing_plan_id":"cebpf4jnsgd1na2vs0mg"},{"bike_id":"d8e2d3b7-2ad4-4067-b57e-7234f0f738e4","system_id":"levelo_inurba_marseille","lat":43.30143,"lon":5.38096,"is_reserved":false,"is_disabled":false,"rental_uris":{"android":"levelo://app?vid=d8e2d3b7-2ad4-4067-b57e-7234f0f738e4","ios":"levelo://app?vid=d8e2d3b7-2ad4-4067-b57e-7234f0f738e4"},"vehicle_type_id":"4","last_reported":1773816897,"current_range_meters":6800,"station_id":"ce4bgjp2rcd13ifvqbh0","pricing_plan_id":"cebpf4jnsgd1na2vs0mg"},{"bike_id":"696ad56c-1d4a-47cd-8cd9-80a58453a34d","system_id":"levelo_inurba_marseille","lat":43.29638,"lon":5.40598,"is_reserved":false,"is_disabled":false,"rental_uris":{"android":"levelo://app?vid=696ad56c-1d4a-47cd-8cd9-80a58453a34d","ios":"levelo://app?vid=696ad56c-1d4a-47cd-8cd9-80a58453a34d"},"vehicle_type_id":"4","last_reported":1773816897,"current_range_meters":6800,"station_id":"ce4bh0h2rcd13ifvqd60","pricing_plan_id":"cebpf4jnsgd1na2vs0mg"},{"bike_id":"99d0b8bc-0cd1-4d6d-ba06-1452183cca0c","system_id":"levelo_inurba_marseille","lat":43.28284,"lon":5.35084,"is_reserved":false,"is_disabled":false,"rental_uris":{"android":"levelo://app?vid=99d0b8bc-0cd1-4d6d-ba06-1452183cca0c","ios":"levelo://app?vid=99d0b8bc-0cd1-4d6d-ba06-1452183cca0c"},"vehicle_type_id":"4","last_reported":1773816897,"current_range_meters":7200,"station_id":"ce4bhbp2rcd13ifvqerg","pricing_plan_id":"cebpf4jnsgd1na2vs0mg"},{"bike_id":"4d6f38b9-feb7-4809-8eed-e5ea4d4f2799","system_id":"levelo_inurba_marseille","lat":43.27686,"lon":5.389,"is_reserved":false,"is_disabled":false,"rental_uris":{"android":"levelo://app?vid=4d6f38b9-feb7-4809-8eed-e5ea4d4f2799","ios":"levelo://app?vid=4d6f38b9-feb7-4809-8eed-e5ea4d4f2799"},"vehicle_type_id":"4","last_reported":1773816897,"current_range_meters":7200,"station_id":"ce4bhi12rcd13ifvqfo0","pricing_plan_id":"cebpf4jnsgd1na2vs0mg"},{"bike_id":"7ace6e2c-7af1-4eee-8b45-21bb89c564ba","system_id":"levelo_inurba_marseille","lat":43.28618,"lon":5.3991,"is_reserved":false,"is_disabled":false,"rental_uris":{"android":"levelo://app?vid=7ace6e2c-7af1-4eee-8b45-21bb89c564ba","ios":"levelo://app?vid=7ace6e2c-7af1-4eee-8b45-21bb89c564ba"},"vehicle_type_id":"4","last_reported":1773816897,"current_range_meters":7200,"station_id":"st_d4a7ka997mjs738ck50g","pricing_plan_id":"cebpf4jnsgd1na2vs0mg"},{"bike_id":"9df6a4db-22f2-4127-971d-b856888ab0b6","system_id":"levelo_inurba_marseille","lat":43.3021,"lon":5.39482,"is_reserved":false,"is_disabled":false,"rental_uris":{"android":"levelo://app?vid=9df6a4db-22f2-4127-971d-b856888ab0b6","ios":"levelo://app?vid=9df6a4db-22f2-4127-971d-b856888ab0b6"},"vehicle_type_id":"4","last_reported":1773816897,"current_range_meters":7200,"station_id":"ce4bh0p2rcd13ifvqd70","pricing_plan_id":"cebpf4jnsgd1na2vs0mg"},{"bike_id":"c25e0c63-3e24-4347-9261-85b34fa36cf4","system_id":"levelo_inurba_marseille","lat":43.27055,"lon":5.42269,"is_reserved":false,"is_disabled":false,"rental_uris":{"android":"levelo://app?vid=c25e0c63-3e24-4347-9261-85b34fa36cf4","ios":"levelo://app?vid=c25e0c63-3e24-4347-9261-85b34fa36cf4"},"vehicle_type_id":"4","last_reported":1773816897,"current_range_meters":7200,"station_id":"ce4bhk92rcd13ifvqgb0","pricing_plan_id":"cebpf4jnsgd1na2vs0mg"},{"bike_id":"e563383a-8a89-4304-b11f-18268886193e","system_id":"levelo_inurba_marseille","lat":43.25565,"lon":5.38244,"is_reserved":false,"is_disabled":false,"rental_uris":{"android":"levelo://app?vid=e563383a-8a89-4304-b11f-18268886193e","ios":"levelo://app?vid=e563383a-8a89-4304-b11f-18268886193e"},"vehicle_type_id":"4","last_reported":1773816897,"current_range_meters":7200,"station_id":"ce4bhih2rcd13ifvqfs0","pricing_plan_id":"cebpf4jnsgd1na2vs0mg"},{"bike_id":"7af8c347-aeff-4328-b4a9-3cdb067f821f","system_id":"levelo_inurba_marseille","lat":43.27989,"lon":5.40009,"is_reserved":false,"is_disabled":false,"rental_uris":{"android":"levelo://app?vid=7af8c347-aeff-4328-b4a9-3cdb067f821f","ios":"levelo://app?vid=7af8c347-aeff-4328-b4a9-3cdb067f821f"},"vehicle_type_id":"4","last_reported":1773816897,"current_range_meters":7200,"station_id":"ce4bho92rcd13ifvqh4g","pricing_plan_id":"cebpf4jnsgd1na2vs0mg"},{"bike_id":"901c28db-c015-4313-845b-db71a8b5949f","system_id":"levelo_inurba_marseille","lat":43.24178,"lon":5.39727,"is_reserved":false,"is_disabled":true,"rental_uris":{"android":"levelo://app?vid=901c28db-c015-4313-845b-db71a8b5949f","ios":"levelo://app?vid=901c28db-c015-4313-845b-db71a8b5949f"},"vehicle_type_id":"4","last_reported":1773816897,"current_range_meters":7200,"station_id":"ce4bhn12rcd13ifvqgpg","pricing_plan_id":"cebpf4jnsgd1na2vs0mg"},{"bike_id":"0f8a9057-1ae1-45b6-af9b-ff1d43f8fd7d","system_id":"levelo_inurba_marseille","lat":43.28546,"lon":5.441,"is_reserved":false,"is_disabled":false,"rental_uris":{"android":"levelo://app?vid=0f8a9057-1ae1-45b6-af9b-ff1d43f8fd7d","ios":"levelo://app?vid=0f8a9057-1ae1-45b6-af9b-ff1d43f8fd7d"},"vehicle_type_id":"4","last_reported":1773816897,"current_range_meters":7200,"station_id":"st_d3j3df2ikq2c7380ej80","pricing_plan_id":"cebpf4jnsgd1na2vs0mg"},{"bike_id":"4ef2a439-e95d-475b-b093-e9afffb21a4f","system_id":"levelo_inurba_marseille","lat":43.30105,"lon":5.38894,"is_reserved":false,"is_disabled":false,"rental_uris":{"android":"levelo://app?vid=4ef2a439-e95d-475b-b093-e9afffb21a4f","ios":"levelo://app?vid=4ef2a439-e95d-475b-b093-e9afffb21a4f"},"vehicle_type_id":"4","last_reported":1773816897,"current_range_meters":7200,"station_id":"","pricing_plan_id":"cebpf4jnsgd1na2vs0mg"},{"bike_id":"9bd06ff4-9387-434d-a5e1-0e033d90ac36","system_id":"levelo_inurba_marseille","lat":43.31271,"lon":5.40183,"is_reserved":false,"is_disabled":false,"rental_uris":{"android":"levelo://app?vid=9bd06ff4-9387-434d-a5e1-0e033d90ac36","ios":"levelo://app?vid=9bd06ff4-9387-434d-a5e1-0e033d90ac36"},"vehicle_type_id":"4","last_reported":1773816897,"current_range_meters":7200,"station_id":"ce4bh092rcd13ifvqd30","pricing_plan_id":"cebpf4jnsgd1na2vs0mg"},{"bike_id":"70f98469-d2c0-43f4-9102-c6ad6fb97bca","system_id":"levelo_inurba_marseille","lat":43.21757,"lon":5.34583,"is_reserved":false,"is_disabled":false,"rental_uris":{"android":"levelo://app?vid=70f98469-d2c0-43f4-9102-c6ad6fb97bca","ios":"levelo://app?vid=70f98469-d2c0-43f4-9102-c6ad6fb97bca"},"vehicle_type_id":"4","last_reported":1773816897,"current_range_meters":7200,"station_id":"st_cvj6r9ubvosntc0bgbag","pricing_plan_id":"cebpf4jnsgd1na2vs0mg"},{"bike_id":"0bacd49d-1e82-47d0-b9c4-534513f8cc81","system_id":"levelo_inurba_marseille","lat":43.30976,"lon":5.39039,"is_reserved":false,"is_disabled":true,"rental_uris":{"android":"levelo://app?vid=0bacd49d-1e82-47d0-b9c4-534513f8cc81","ios":"levelo://app?vid=0bacd49d-1e82-47d0-b9c4-534513f8cc81"},"vehicle_type_id":"4","last_reported":1773816897,"current_range_meters":7200,"station_id":"ce4bgup2rcd13ifvqco0","pricing_plan_id":"cebpf4jnsgd1na2vs0mg"},{"bike_id":"3feb4c73-6e63-47f9-927f-446525b49f72","system_id":"levelo_inurba_marseille","lat":43.31904,"lon":5.36817,"is_reserved":false,"is_disabled":false,"rental_uris":{"android":"levelo://app?vid=3feb4c73-6e63-47f9-927f-446525b49f72","ios":"levelo://app?vid=3feb4c73-6e63-47f9-927f-446525b49f72"},"vehicle_type_id":"4","last_reported":1773816897,"current_range_meters":7200,"station_id":"st_d6o2h0d0559c73evc1b0","pricing_plan_id":"cebpf4jnsgd1na2vs0mg"},{"bike_id":"b2718878-96b6-4114-8686-e46804effae7","system_id":"levelo_inurba_marseille","lat":43.29602,"lon":5.38104,"is_reserved":false,"is_disabled":false,"rental_uris":{"android":"levelo://app?vid=b2718878-96b6-4114-8686-e46804effae7","ios":"levelo://app?vid=b2718878-96b6-4114-8686-e46804effae7"},"vehicle_type_id":"4","last_reported":1773816897,"current_range_meters":7200,"station_id":"ce4bgl12rcd13ifvqbo0","pricing_plan_id":"cebpf4jnsgd1na2vs0mg"},{"bike_id":"7c245f6b-63fb-4c36-8493-afb8fd5288f8","system_id":"levelo_inurba_marseille","lat":43.31193,"lon":5.39039,"is_reserved":false,"is_disabled":false,"rental_uris":{"android":"levelo://app?vid=7c245f6b-63fb-4c36-8493-afb8fd5288f8","ios":"levelo://app?vid=7c245f6b-63fb-4c36-8493-afb8fd5288f8"},"vehicle_type_id":"4","last_reported":1773816897,"current_range_meters":7200,"station_id":"","pricing_plan_id":"cebpf4jnsgd1na2vs0mg"},{"bike_id":"643281bc-1ddb-4326-b8ee-47c3de73f7fc","system_id":"levelo_inurba_marseille","lat":43.2306,"lon":5.35484,"is_reserved":false,"is_disabled":false,"rental_uris":{"android":"levelo://app?vid=643281bc-1ddb-4326-b8ee-47c3de73f7fc","ios":"levelo://app?vid=643281bc-1ddb-4326-b8ee-47c3de73f7fc"},"vehicle_type_id":"4","last_reported":1773816897,"current_range_meters":7200,"station_id":"cpo3342slgdg3j2ifvpg","pricing_plan_id":"cebpf4jnsgd1na2vs0mg"},{"bike_id":"2706db3b-3f01-4b6b-a1e9-42e6bda22571","system_id":"levelo_inurba_marseille","lat":43.26183,"lon":5.37322,"is_reserved":false,"is_disabled":false,"rental_uris":{"android":"levelo://app?vid=2706db3b-3f01-4b6b-a1e9-42e6bda22571","ios":"levelo://app?vid=2706db3b-3f01-4b6b-a1e9-42e6bda22571"},"vehicle_type_id":"4","last_reported":1773816897,"current_range_meters":7200,"station_id":"","pricing_plan_id":"cebpf4jnsgd1na2vs0mg"},{"bike_id":"6b40fc53-88b4-49ac-921b-e4ffe1669a10","system_id":"levelo_inurba_marseille","lat":43.25326,"lon":5.42179,"is_reserved":false,"is_disabled":false,"rental_uris":{"android":"levelo://app?vid=6b40fc53-88b4-49ac-921b-e4ffe1669a10","ios":"levelo://app?vid=6b40fc53-88b4-49ac-921b-e4ffe1669a10"},"vehicle_type_id":"4","last_reported":1773816897,"current_range_meters":8000,"station_id":"st_d2m65c5bi1j21697t3ng","pricing_plan_id":"cebpf4jnsgd1na2vs0mg"},{"bike_id":"95841494-38ef-466c-9a5f-cbd9140c0794","system_id":"levelo_inurba_marseille","lat":43.28223,"lon":5.39082,"is_reserved":false,"is_disabled":false,"rental_uris":{"android":"levelo://app?vid=95841494-38ef-466c-9a5f-cbd9140c0794","ios":"levelo://app?vid=95841494-38ef-466c-9a5f-cbd9140c0794"},"vehicle_type_id":"4","last_reported":1773816897,"current_range_meters":8000,"station_id":"ce4bhn92rcd13ifvqgsg","pricing_plan_id":"cebpf4jnsgd1na2vs0mg"},{"bike_id":"aa57884f-9b37-4442-93ff-e9ffd8ce688d","system_id":"levelo_inurba_marseille","lat":43.28944,"lon":5.39627,"is_reserved":false,"is_disabled":false,"rental_uris":{"android":"levelo://app?vid=aa57884f-9b37-4442-93ff-e9ffd8ce688d","ios":"levelo://app?vid=aa57884f-9b37-4442-93ff-e9ffd8ce688d"},"vehicle_type_id":"4","last_reported":1773816897,"current_range_meters":8000,"station_id":"ce4bh3h2rcd13ifvqdn0","pricing_plan_id":"cebpf4jnsgd1na2vs0mg"},{"bike_id":"a4c725fa-9af4-4690-b94a-876359a2d01c","system_id":"levelo_inurba_marseille","lat":43.24208,"lon":5.39738,"is_reserved":false,"is_disabled":false,"rental_uris":{"android":"levelo://app?vid=a4c725fa-9af4-4690-b94a-876359a2d01c","ios":"levelo://app?vid=a4c725fa-9af4-4690-b94a-876359a2d01c"},"vehicle_type_id":"4","last_reported":1773816897,"current_range_meters":8000,"station_id":"ce4bhn12rcd13ifvqgpg","pricing_plan_id":"cebpf4jnsgd1na2vs0mg"},{"bike_id":"03812eec-b185-465c-8c48-7984e651c3d0","system_id":"levelo_inurba_marseille","lat":43.33048,"lon":5.39055,"is_reserved":false,"is_disabled":false,"rental_uris":{"android":"levelo://app?vid=03812eec-b185-465c-8c48-7984e651c3d0","ios":"levelo://app?vid=03812eec-b185-465c-8c48-7984e651c3d0"},"vehicle_type_id":"4","last_reported":1773816897,"current_range_meters":8000,"station_id":"ce4bhr92rcd13ifvqhrg","pricing_plan_id":"cebpf4jnsgd1na2vs0mg"},{"bike_id":"ba707d74-8f6e-403d-9626-c98f3dd4d187","system_id":"levelo_inurba_marseille","lat":43.28459,"lon":5.35895,"is_reserved":false,"is_disabled":false,"rental_uris":{"android":"levelo://app?vid=ba707d74-8f6e-403d-9626-c98f3dd4d187","ios":"levelo://app?vid=ba707d74-8f6e-403d-9626-c98f3dd4d187"},"vehicle_type_id":"4","last_reported":1773816897,"current_range_meters":8000,"station_id":"ce4bhah2rcd13ifvqei0","pricing_plan_id":"cebpf4jnsgd1na2vs0mg"},{"bike_id":"4ca5e067-9350-4cc0-855c-d565dcef7221","system_id":"levelo_inurba_marseille","lat":43.23205,"lon":5.35561,"is_reserved":false,"is_disabled":false,"rental_uris":{"android":"levelo://app?vid=4ca5e067-9350-4cc0-855c-d565dcef7221","ios":"levelo://app?vid=4ca5e067-9350-4cc0-855c-d565dcef7221"},"vehicle_type_id":"4","last_reported":1773816897,"current_range_meters":8000,"station_id":"ce4bhu92rcd13ifvqi70","pricing_plan_id":"cebpf4jnsgd1na2vs0mg"},{"bike_id":"7d9d7aa8-fbf6-4ec2-9dd9-58e4fbfbf40b","system_id":"levelo_inurba_marseille","lat":43.3373,"lon":5.39269,"is_reserved":false,"is_disabled":false,"rental_uris":{"android":"levelo://app?vid=7d9d7aa8-fbf6-4ec2-9dd9-58e4fbfbf40b","ios":"levelo://app?vid=7d9d7aa8-fbf6-4ec2-9dd9-58e4fbfbf40b"},"vehicle_type_id":"4","last_reported":1773816897,"current_range_meters":8000,"station_id":"","pricing_plan_id":"cebpf4jnsgd1na2vs0mg"},{"bike_id":"d86f7f17-c40c-40d2-9445-70d30fa0ef64","system_id":"levelo_inurba_marseille","lat":43.21738,"lon":5.34615,"is_reserved":false,"is_disabled":true,"rental_uris":{"android":"levelo://app?vid=d86f7f17-c40c-40d2-9445-70d30fa0ef64","ios":"levelo://app?vid=d86f7f17-c40c-40d2-9445-70d30fa0ef64"},"vehicle_type_id":"4","last_reported":1773816897,"current_range_meters":8000,"station_id":"st_cvj6r9ubvosntc0bgbag","pricing_plan_id":"cebpf4jnsgd1na2vs0mg"},{"bike_id":"d0e658ae-6d7b-4756-a94b-be2999ddc02e","system_id":"levelo_inurba_marseille","lat":43.30638,"lon":5.39905,"is_reserved":false,"is_disabled":false,"rental_uris":{"android":"levelo://app?vid=d0e658ae-6d7b-4756-a94b-be2999ddc02e","ios":"levelo://app?vid=d0e658ae-6d7b-4756-a94b-be2999ddc02e"},"vehicle_type_id":"4","last_reported":1773816897,"current_range_meters":8000,"station_id":"","pricing_plan_id":"cebpf4jnsgd1na2vs0mg"},{"bike_id":"43087a01-70ca-4df0-ab76-51356dbe9f3f","system_id":"levelo_inurba_marseille","lat":43.29597,"lon":5.38129,"is_reserved":false,"is_disabled":false,"rental_uris":{"android":"levelo://app?vid=43087a01-70ca-4df0-ab76-51356dbe9f3f","ios":"levelo://app?vid=43087a01-70ca-4df0-ab76-51356dbe9f3f"},"vehicle_type_id":"4","last_reported":1773816897,"current_range_meters":8000,"station_id":"ce4bgl12rcd13ifvqbo0","pricing_plan_id":"cebpf4jnsgd1na2vs0mg"},{"bike_id":"18d3b7a7-fc54-4dc5-89ee-1fa0960c00b4","system_id":"levelo_inurba_marseille","lat":43.25339,"lon":5.42189,"is_reserved":false,"is_disabled":false,"rental_uris":{"android":"levelo://app?vid=18d3b7a7-fc54-4dc5-89ee-1fa0960c00b4","ios":"levelo://app?vid=18d3b7a7-fc54-4dc5-89ee-1fa0960c00b4"},"vehicle_type_id":"4","last_reported":1773816897,"current_range_meters":8000,"station_id":"st_d2m65c5bi1j21697t3ng","pricing_plan_id":"cebpf4jnsgd1na2vs0mg"},{"bike_id":"84866230-b806-44e4-88b0-1270aa5210b3","system_id":"levelo_inurba_marseille","lat":43.30268,"lon":5.40061,"is_reserved":false,"is_disabled":false,"rental_uris":{"android":"levelo://app?vid=84866230-b806-44e4-88b0-1270aa5210b3","ios":"levelo://app?vid=84866230-b806-44e4-88b0-1270aa5210b3"},"vehicle_type_id":"4","last_reported":1773816897,"current_range_meters":8000,"station_id":"ce4bgvh2rcd13ifvqcs0","pricing_plan_id":"cebpf4jnsgd1na2vs0mg"},{"bike_id":"8e55de9c-aaef-4e65-9200-a9c8f1176cff","system_id":"levelo_inurba_marseille","lat":43.27081,"lon":5.42283,"is_reserved":false,"is_disabled":false,"rental_uris":{"android":"levelo://app?vid=8e55de9c-aaef-4e65-9200-a9c8f1176cff","ios":"levelo://app?vid=8e55de9c-aaef-4e65-9200-a9c8f1176cff"},"vehicle_type_id":"4","last_reported":1773816897,"current_range_meters":8000,"station_id":"ce4bhk92rcd13ifvqgb0","pricing_plan_id":"cebpf4jnsgd1na2vs0mg"},{"bike_id":"0de91aa7-85fc-42bc-9d70-ecd803417e08","system_id":"levelo_inurba_marseille","lat":43.27933,"lon":5.41067,"is_reserved":false,"is_disabled":true,"rental_uris":{"android":"levelo://app?vid=0de91aa7-85fc-42bc-9d70-ecd803417e08","ios":"levelo://app?vid=0de91aa7-85fc-42bc-9d70-ecd803417e08"},"vehicle_type_id":"4","last_reported":1773816897,"current_range_meters":8000,"station_id":"ce4bhnp2rcd13ifvqh0g","pricing_plan_id":"cebpf4jnsgd1na2vs0mg"},{"bike_id":"f20f82c5-e2c3-4db1-85d3-e096d4b03259","system_id":"levelo_inurba_marseille","lat":43.24641,"lon":5.38923,"is_reserved":false,"is_disabled":true,"rental_uris":{"android":"levelo://app?vid=f20f82c5-e2c3-4db1-85d3-e096d4b03259","ios":"levelo://app?vid=f20f82c5-e2c3-4db1-85d3-e096d4b03259"},"vehicle_type_id":"4","last_reported":1773816897,"current_range_meters":8000,"station_id":"ce4bhg12rcd13ifvqf60","pricing_plan_id":"cebpf4jnsgd1na2vs0mg"},{"bike_id":"c47ff79e-34f0-49a2-ac82-cbba34b15852","system_id":"levelo_inurba_marseille","lat":43.30152,"lon":5.38083,"is_reserved":false,"is_disabled":false,"rental_uris":{"android":"levelo://app?vid=c47ff79e-34f0-49a2-ac82-cbba34b15852","ios":"levelo://app?vid=c47ff79e-34f0-49a2-ac82-cbba34b15852"},"vehicle_type_id":"4","last_reported":1773816897,"current_range_meters":8000,"station_id":"ce4bgjp2rcd13ifvqbh0","pricing_plan_id":"cebpf4jnsgd1na2vs0mg"},{"bike_id":"81140dfd-97af-4671-b348-34770e012585","system_id":"levelo_inurba_marseille","lat":43.30147,"lon":5.38105,"is_reserved":false,"is_disabled":false,"rental_uris":{"android":"levelo://app?vid=81140dfd-97af-4671-b348-34770e012585","ios":"levelo://app?vid=81140dfd-97af-4671-b348-34770e012585"},"vehicle_type_id":"4","last_reported":1773816897,"current_range_meters":8000,"station_id":"ce4bgjp2rcd13ifvqbh0","pricing_plan_id":"cebpf4jnsgd1na2vs0mg"},{"bike_id":"935da9a9-5f63-42ea-afe6-9baa0a1672c4","system_id":"levelo_inurba_marseille","lat":43.28325,"lon":5.40508,"is_reserved":false,"is_disabled":false,"rental_uris":{"android":"levelo://app?vid=935da9a9-5f63-42ea-afe6-9baa0a1672c4","ios":"levelo://app?vid=935da9a9-5f63-42ea-afe6-9baa0a1672c4"},"vehicle_type_id":"4","last_reported":1773816897,"current_range_meters":8000,"station_id":"","pricing_plan_id":"cebpf4jnsgd1na2vs0mg"},{"bike_id":"779b8a3c-1846-46b5-9cab-bf0ec2b1118f","system_id":"levelo_inurba_marseille","lat":43.28476,"lon":5.48386,"is_reserved":false,"is_disabled":false,"rental_uris":{"android":"levelo://app?vid=779b8a3c-1846-46b5-9cab-bf0ec2b1118f","ios":"levelo://app?vid=779b8a3c-1846-46b5-9cab-bf0ec2b1118f"},"vehicle_type_id":"4","last_reported":1773816897,"current_range_meters":8000,"station_id":"st_d3svhcjqgbts73a3dn0g","pricing_plan_id":"cebpf4jnsgd1na2vs0mg"},{"bike_id":"5117dab8-ee3b-4447-b6fc-fe5dd6223973","system_id":"levelo_inurba_marseille","lat":43.30197,"lon":5.38084,"is_reserved":false,"is_disabled":false,"rental_uris":{"android":"levelo://app?vid=5117dab8-ee3b-4447-b6fc-fe5dd6223973","ios":"levelo://app?vid=5117dab8-ee3b-4447-b6fc-fe5dd6223973"},"vehicle_type_id":"4","last_reported":1773816897,"current_range_meters":8400,"station_id":"","pricing_plan_id":"cebpf4jnsgd1na2vs0mg"},{"bike_id":"bd60a6ec-18d4-4476-ab1b-f354043c4b72","system_id":"levelo_inurba_marseille","lat":43.29807,"lon":5.42729,"is_reserved":false,"is_disabled":false,"rental_uris":{"android":"levelo://app?vid=bd60a6ec-18d4-4476-ab1b-f354043c4b72","ios":"levelo://app?vid=bd60a6ec-18d4-4476-ab1b-f354043c4b72"},"vehicle_type_id":"4","last_reported":1773816897,"current_range_meters":8400,"station_id":"","pricing_plan_id":"cebpf4jnsgd1na2vs0mg"},{"bike_id":"b1678298-3f5b-4e9b-bb34-63fa7c9d9c9c","system_id":"levelo_inurba_marseille","lat":43.28485,"lon":5.4839,"is_reserved":false,"is_disabled":false,"rental_uris":{"android":"levelo://app?vid=b1678298-3f5b-4e9b-bb34-63fa7c9d9c9c","ios":"levelo://app?vid=b1678298-3f5b-4e9b-bb34-63fa7c9d9c9c"},"vehicle_type_id":"4","last_reported":1773816897,"current_range_meters":8400,"station_id":"","pricing_plan_id":"cebpf4jnsgd1na2vs0mg"},{"bike_id":"a8831432-5dda-4112-a3e1-bcc9f2c881cc","system_id":"levelo_inurba_marseille","lat":43.29771,"lon":5.39395,"is_reserved":false,"is_disabled":true,"rental_uris":{"android":"levelo://app?vid=a8831432-5dda-4112-a3e1-bcc9f2c881cc","ios":"levelo://app?vid=a8831432-5dda-4112-a3e1-bcc9f2c881cc"},"vehicle_type_id":"4","last_reported":1773816897,"current_range_meters":8400,"station_id":"chh1huq6cuj3fo74tm60","pricing_plan_id":"cebpf4jnsgd1na2vs0mg"},{"bike_id":"c6e3bcbb-fb73-4d42-9f31-665a4d935120","system_id":"levelo_inurba_marseille","lat":43.29281,"lon":5.40142,"is_reserved":false,"is_disabled":false,"rental_uris":{"android":"levelo://app?vid=c6e3bcbb-fb73-4d42-9f31-665a4d935120","ios":"levelo://app?vid=c6e3bcbb-fb73-4d42-9f31-665a4d935120"},"vehicle_type_id":"4","last_reported":1773816897,"current_range_meters":8400,"station_id":"ce4bh312rcd13ifvqdk0","pricing_plan_id":"cebpf4jnsgd1na2vs0mg"},{"bike_id":"d9119f48-dd06-4f73-a1e4-5bd730d3e8ad","system_id":"levelo_inurba_marseille","lat":43.3091,"lon":5.37221,"is_reserved":false,"is_disabled":false,"rental_uris":{"android":"levelo://app?vid=d9119f48-dd06-4f73-a1e4-5bd730d3e8ad","ios":"levelo://app?vid=d9119f48-dd06-4f73-a1e4-5bd730d3e8ad"},"vehicle_type_id":"4","last_reported":1773816897,"current_range_meters":8400,"station_id":"ce4bguh2rcd13ifvqckg","pricing_plan_id":"cebpf4jnsgd1na2vs0mg"},{"bike_id":"a9d31829-7e0d-482f-af05-97ddd320ae16","system_id":"levelo_inurba_marseille","lat":43.29734,"lon":5.42806,"is_reserved":false,"is_disabled":true,"rental_uris":{"android":"levelo://app?vid=a9d31829-7e0d-482f-af05-97ddd320ae16","ios":"levelo://app?vid=a9d31829-7e0d-482f-af05-97ddd320ae16"},"vehicle_type_id":"4","last_reported":1773816897,"current_range_meters":8400,"station_id":"st_d3md5207bmas73dh9klg","pricing_plan_id":"cebpf4jnsgd1na2vs0mg"},{"bike_id":"f0f0fcb4-5771-44b8-97ad-3878ce909334","system_id":"levelo_inurba_marseille","lat":43.24069,"lon":5.37763,"is_reserved":false,"is_disabled":false,"rental_uris":{"android":"levelo://app?vid=f0f0fcb4-5771-44b8-97ad-3878ce909334","ios":"levelo://app?vid=f0f0fcb4-5771-44b8-97ad-3878ce909334"},"vehicle_type_id":"4","last_reported":1773816897,"current_range_meters":8400,"station_id":"ce4bhnp2rcd13ifvqgvg","pricing_plan_id":"cebpf4jnsgd1na2vs0mg"},{"bike_id":"e107cb22-a13d-4c03-93ce-8114e06b9a0f","system_id":"levelo_inurba_marseille","lat":43.28482,"lon":5.48391,"is_reserved":false,"is_disabled":false,"rental_uris":{"android":"levelo://app?vid=e107cb22-a13d-4c03-93ce-8114e06b9a0f","ios":"levelo://app?vid=e107cb22-a13d-4c03-93ce-8114e06b9a0f"},"vehicle_type_id":"4","last_reported":1773816897,"current_range_meters":8400,"station_id":"","pricing_plan_id":"cebpf4jnsgd1na2vs0mg"},{"bike_id":"447b11a1-21b5-4523-80dc-ebe593853403","system_id":"levelo_inurba_marseille","lat":43.29204,"lon":5.4266,"is_reserved":false,"is_disabled":false,"rental_uris":{"android":"levelo://app?vid=447b11a1-21b5-4523-80dc-ebe593853403","ios":"levelo://app?vid=447b11a1-21b5-4523-80dc-ebe593853403"},"vehicle_type_id":"4","last_reported":1773816897,"current_range_meters":8400,"station_id":"","pricing_plan_id":"cebpf4jnsgd1na2vs0mg"},{"bike_id":"a3815369-41fb-4241-887d-a16e43493bd5","system_id":"levelo_inurba_marseille","lat":43.30631,"lon":5.40103,"is_reserved":false,"is_disabled":false,"rental_uris":{"android":"levelo://app?vid=a3815369-41fb-4241-887d-a16e43493bd5","ios":"levelo://app?vid=a3815369-41fb-4241-887d-a16e43493bd5"},"vehicle_type_id":"4","last_reported":1773816897,"current_range_meters":8400,"station_id":"ce4bh112rcd13ifvqda0","pricing_plan_id":"cebpf4jnsgd1na2vs0mg"},{"bike_id":"da2a1614-765d-42d2-8b44-e33ea5638c08","system_id":"levelo_inurba_marseille","lat":43.25714,"lon":5.41112,"is_reserved":false,"is_disabled":false,"rental_uris":{"android":"levelo://app?vid=da2a1614-765d-42d2-8b44-e33ea5638c08","ios":"levelo://app?vid=da2a1614-765d-42d2-8b44-e33ea5638c08"},"vehicle_type_id":"4","last_reported":1773816897,"current_range_meters":8400,"station_id":"ce4bhkp2rcd13ifvqgd0","pricing_plan_id":"cebpf4jnsgd1na2vs0mg"},{"bike_id":"b9236ee7-cd1b-4e39-b04e-4a8e959fc4d2","system_id":"levelo_inurba_marseille","lat":43.29749,"lon":5.42772,"is_reserved":false,"is_disabled":false,"rental_uris":{"android":"levelo://app?vid=b9236ee7-cd1b-4e39-b04e-4a8e959fc4d2","ios":"levelo://app?vid=b9236ee7-cd1b-4e39-b04e-4a8e959fc4d2"},"vehicle_type_id":"4","last_reported":1773816897,"current_range_meters":8400,"station_id":"st_d3md5207bmas73dh9klg","pricing_plan_id":"cebpf4jnsgd1na2vs0mg"},{"bike_id":"59eecf13-b920-4e62-9f56-f6df4e1fbe03","system_id":"levelo_inurba_marseille","lat":43.32039,"lon":5.41584,"is_reserved":false,"is_disabled":false,"rental_uris":{"android":"levelo://app?vid=59eecf13-b920-4e62-9f56-f6df4e1fbe03","ios":"levelo://app?vid=59eecf13-b920-4e62-9f56-f6df4e1fbe03"},"vehicle_type_id":"4","last_reported":1773816897,"current_range_meters":8400,"station_id":"ce4bhq92rcd13ifvqhkg","pricing_plan_id":"cebpf4jnsgd1na2vs0mg"},{"bike_id":"b51425a2-b294-4b12-a06b-78afda0873c2","system_id":"levelo_inurba_marseille","lat":43.2981,"lon":5.40267,"is_reserved":false,"is_disabled":false,"rental_uris":{"android":"levelo://app?vid=b51425a2-b294-4b12-a06b-78afda0873c2","ios":"levelo://app?vid=b51425a2-b294-4b12-a06b-78afda0873c2"},"vehicle_type_id":"4","last_reported":1773816897,"current_range_meters":8400,"station_id":"","pricing_plan_id":"cebpf4jnsgd1na2vs0mg"},{"bike_id":"7890338e-495d-444e-a13c-e11a68bd29dc","system_id":"levelo_inurba_marseille","lat":43.29083,"lon":5.37171,"is_reserved":false,"is_disabled":true,"rental_uris":{"android":"levelo://app?vid=7890338e-495d-444e-a13c-e11a68bd29dc","ios":"levelo://app?vid=7890338e-495d-444e-a13c-e11a68bd29dc"},"vehicle_type_id":"4","last_reported":1773816897,"current_range_meters":8400,"station_id":"ce4bh5p2rcd13ifvqe4g","pricing_plan_id":"cebpf4jnsgd1na2vs0mg"},{"bike_id":"fd676e58-478d-401a-b670-a4ed7b7af8bf","system_id":"levelo_inurba_marseille","lat":43.24068,"lon":5.37765,"is_reserved":false,"is_disabled":false,"rental_uris":{"android":"levelo://app?vid=fd676e58-478d-401a-b670-a4ed7b7af8bf","ios":"levelo://app?vid=fd676e58-478d-401a-b670-a4ed7b7af8bf"},"vehicle_type_id":"4","last_reported":1773816897,"current_range_meters":8400,"station_id":"ce4bhnp2rcd13ifvqgvg","pricing_plan_id":"cebpf4jnsgd1na2vs0mg"},{"bike_id":"6989c240-35a0-4d93-8f59-ee13085f93db","system_id":"levelo_inurba_marseille","lat":43.25293,"lon":5.42184,"is_reserved":false,"is_disabled":false,"rental_uris":{"android":"levelo://app?vid=6989c240-35a0-4d93-8f59-ee13085f93db","ios":"levelo://app?vid=6989c240-35a0-4d93-8f59-ee13085f93db"},"vehicle_type_id":"4","last_reported":1773816897,"current_range_meters":8400,"station_id":"st_d2m65c5bi1j21697t3ng","pricing_plan_id":"cebpf4jnsgd1na2vs0mg"},{"bike_id":"199082a0-56af-4266-941c-e4f3bebbeb90","system_id":"levelo_inurba_marseille","lat":43.25716,"lon":5.41117,"is_reserved":false,"is_disabled":false,"rental_uris":{"android":"levelo://app?vid=199082a0-56af-4266-941c-e4f3bebbeb90","ios":"levelo://app?vid=199082a0-56af-4266-941c-e4f3bebbeb90"},"vehicle_type_id":"4","last_reported":1773816897,"current_range_meters":8400,"station_id":"ce4bhkp2rcd13ifvqgd0","pricing_plan_id":"cebpf4jnsgd1na2vs0mg"},{"bike_id":"db475ee0-880f-4de6-a371-f0828edaf063","system_id":"levelo_inurba_marseille","lat":43.25092,"lon":5.39499,"is_reserved":false,"is_disabled":false,"rental_uris":{"android":"levelo://app?vid=db475ee0-880f-4de6-a371-f0828edaf063","ios":"levelo://app?vid=db475ee0-880f-4de6-a371-f0828edaf063"},"vehicle_type_id":"4","last_reported":1773816897,"current_range_meters":8800,"station_id":"ce4bhm12rcd13ifvqgkg","pricing_plan_id":"cebpf4jnsgd1na2vs0mg"},{"bike_id":"1c51670a-46e5-4a0c-9d9c-3c2806d077a8","system_id":"levelo_inurba_marseille","lat":43.2903,"lon":5.38117,"is_reserved":false,"is_disabled":true,"rental_uris":{"android":"levelo://app?vid=1c51670a-46e5-4a0c-9d9c-3c2806d077a8","ios":"levelo://app?vid=1c51670a-46e5-4a0c-9d9c-3c2806d077a8"},"vehicle_type_id":"4","last_reported":1773816897,"current_range_meters":8800,"station_id":"ce4bh4p2rcd13ifvqe1g","pricing_plan_id":"cebpf4jnsgd1na2vs0mg"},{"bike_id":"ba16bc71-3c62-4074-9b94-56bc76b88dbc","system_id":"levelo_inurba_marseille","lat":43.26678,"lon":5.3828,"is_reserved":false,"is_disabled":true,"rental_uris":{"android":"levelo://app?vid=ba16bc71-3c62-4074-9b94-56bc76b88dbc","ios":"levelo://app?vid=ba16bc71-3c62-4074-9b94-56bc76b88dbc"},"vehicle_type_id":"4","last_reported":1773816897,"current_range_meters":8800,"station_id":"ce4bhg92rcd13ifvqf90","pricing_plan_id":"cebpf4jnsgd1na2vs0mg"},{"bike_id":"f4e5d14b-42a2-4b28-b87f-c0036d54fd37","system_id":"levelo_inurba_marseille","lat":43.28618,"lon":5.3988,"is_reserved":false,"is_disabled":false,"rental_uris":{"android":"levelo://app?vid=f4e5d14b-42a2-4b28-b87f-c0036d54fd37","ios":"levelo://app?vid=f4e5d14b-42a2-4b28-b87f-c0036d54fd37"},"vehicle_type_id":"4","last_reported":1773816897,"current_range_meters":8800,"station_id":"st_d4a7ka997mjs738ck50g","pricing_plan_id":"cebpf4jnsgd1na2vs0mg"},{"bike_id":"69ed1ca6-f69d-44cc-ad78-6f22c1f387e9","system_id":"levelo_inurba_marseille","lat":43.31116,"lon":5.37769,"is_reserved":false,"is_disabled":false,"rental_uris":{"android":"levelo://app?vid=69ed1ca6-f69d-44cc-ad78-6f22c1f387e9","ios":"levelo://app?vid=69ed1ca6-f69d-44cc-ad78-6f22c1f387e9"},"vehicle_type_id":"4","last_reported":1773816897,"current_range_meters":8800,"station_id":"ce4bgt92rcd13ifvqcg0","pricing_plan_id":"cebpf4jnsgd1na2vs0mg"},{"bike_id":"d0b1f448-6af4-4ef1-a755-e03baf4488aa","system_id":"levelo_inurba_marseille","lat":43.29253,"lon":5.35739,"is_reserved":false,"is_disabled":false,"rental_uris":{"android":"levelo://app?vid=d0b1f448-6af4-4ef1-a755-e03baf4488aa","ios":"levelo://app?vid=d0b1f448-6af4-4ef1-a755-e03baf4488aa"},"vehicle_type_id":"4","last_reported":1773816897,"current_range_meters":8800,"station_id":"","pricing_plan_id":"cebpf4jnsgd1na2vs0mg"},{"bike_id":"1045a5e7-0e06-4d7f-a769-99a68735f9a0","system_id":"levelo_inurba_marseille","lat":43.29973,"lon":5.38498,"is_reserved":false,"is_disabled":true,"rental_uris":{"android":"levelo://app?vid=1045a5e7-0e06-4d7f-a769-99a68735f9a0","ios":"levelo://app?vid=1045a5e7-0e06-4d7f-a769-99a68735f9a0"},"vehicle_type_id":"4","last_reported":1773816897,"current_range_meters":8800,"station_id":"ce4bgj92rcd13ifvqbd0","pricing_plan_id":"cebpf4jnsgd1na2vs0mg"},{"bike_id":"f11cdd7c-024e-4b43-9265-7210dcd43c63","system_id":"levelo_inurba_marseille","lat":43.30156,"lon":5.38093,"is_reserved":false,"is_disabled":false,"rental_uris":{"android":"levelo://app?vid=f11cdd7c-024e-4b43-9265-7210dcd43c63","ios":"levelo://app?vid=f11cdd7c-024e-4b43-9265-7210dcd43c63"},"vehicle_type_id":"4","last_reported":1773816897,"current_range_meters":8800,"station_id":"ce4bgjp2rcd13ifvqbh0","pricing_plan_id":"cebpf4jnsgd1na2vs0mg"},{"bike_id":"b999e86c-4912-417a-82e5-03c579e0d7e5","system_id":"levelo_inurba_marseille","lat":43.31233,"lon":5.38445,"is_reserved":false,"is_disabled":false,"rental_uris":{"android":"levelo://app?vid=b999e86c-4912-417a-82e5-03c579e0d7e5","ios":"levelo://app?vid=b999e86c-4912-417a-82e5-03c579e0d7e5"},"vehicle_type_id":"4","last_reported":1773816897,"current_range_meters":8800,"station_id":"","pricing_plan_id":"cebpf4jnsgd1na2vs0mg"},{"bike_id":"ed16ab64-9c0f-4050-80fd-94e1f15913c3","system_id":"levelo_inurba_marseille","lat":43.2513,"lon":5.40424,"is_reserved":false,"is_disabled":false,"rental_uris":{"android":"levelo://app?vid=ed16ab64-9c0f-4050-80fd-94e1f15913c3","ios":"levelo://app?vid=ed16ab64-9c0f-4050-80fd-94e1f15913c3"},"vehicle_type_id":"4","last_reported":1773816897,"current_range_meters":8800,"station_id":"","pricing_plan_id":"cebpf4jnsgd1na2vs0mg"},{"bike_id":"b4a2f40e-062d-400f-a128-16237b99d22f","system_id":"levelo_inurba_marseille","lat":43.29731,"lon":5.37686,"is_reserved":false,"is_disabled":false,"rental_uris":{"android":"levelo://app?vid=b4a2f40e-062d-400f-a128-16237b99d22f","ios":"levelo://app?vid=b4a2f40e-062d-400f-a128-16237b99d22f"},"vehicle_type_id":"4","last_reported":1773816897,"current_range_meters":8800,"station_id":"ce4bgkh2rcd13ifvqbl0","pricing_plan_id":"cebpf4jnsgd1na2vs0mg"},{"bike_id":"5173eb01-1501-409d-8735-5cd4a7564229","system_id":"levelo_inurba_marseille","lat":43.31805,"lon":5.44627,"is_reserved":false,"is_disabled":false,"rental_uris":{"android":"levelo://app?vid=5173eb01-1501-409d-8735-5cd4a7564229","ios":"levelo://app?vid=5173eb01-1501-409d-8735-5cd4a7564229"},"vehicle_type_id":"4","last_reported":1773816897,"current_range_meters":8800,"station_id":"","pricing_plan_id":"cebpf4jnsgd1na2vs0mg"},{"bike_id":"68af5e09-5d0e-450f-be7b-645ce684e02e","system_id":"levelo_inurba_marseille","lat":43.2396,"lon":5.36632,"is_reserved":false,"is_disabled":false,"rental_uris":{"android":"levelo://app?vid=68af5e09-5d0e-450f-be7b-645ce684e02e","ios":"levelo://app?vid=68af5e09-5d0e-450f-be7b-645ce684e02e"},"vehicle_type_id":"4","last_reported":1773816897,"current_range_meters":8800,"station_id":"ce4bhi12rcd13ifvqfp0","pricing_plan_id":"cebpf4jnsgd1na2vs0mg"},{"bike_id":"d4531119-47d1-4e6e-8eab-6fb1adfb9a69","system_id":"levelo_inurba_marseille","lat":43.29514,"lon":5.43354,"is_reserved":false,"is_disabled":false,"rental_uris":{"android":"levelo://app?vid=d4531119-47d1-4e6e-8eab-6fb1adfb9a69","ios":"levelo://app?vid=d4531119-47d1-4e6e-8eab-6fb1adfb9a69"},"vehicle_type_id":"4","last_reported":1773816897,"current_range_meters":8800,"station_id":"st_d3j5ugp08ojc73fj9d10","pricing_plan_id":"cebpf4jnsgd1na2vs0mg"},{"bike_id":"f9ad9791-4247-4fa2-9803-7dab8fdacba3","system_id":"levelo_inurba_marseille","lat":43.3093,"lon":5.40147,"is_reserved":false,"is_disabled":false,"rental_uris":{"android":"levelo://app?vid=f9ad9791-4247-4fa2-9803-7dab8fdacba3","ios":"levelo://app?vid=f9ad9791-4247-4fa2-9803-7dab8fdacba3"},"vehicle_type_id":"4","last_reported":1773816897,"current_range_meters":8800,"station_id":"ce4bgvp2rcd13ifvqct0","pricing_plan_id":"cebpf4jnsgd1na2vs0mg"},{"bike_id":"383333ab-900a-4d8e-9e5f-5f8443133843","system_id":"levelo_inurba_marseille","lat":43.23975,"lon":5.3663,"is_reserved":false,"is_disabled":true,"rental_uris":{"android":"levelo://app?vid=383333ab-900a-4d8e-9e5f-5f8443133843","ios":"levelo://app?vid=383333ab-900a-4d8e-9e5f-5f8443133843"},"vehicle_type_id":"4","last_reported":1773816897,"current_range_meters":8800,"station_id":"ce4bhi12rcd13ifvqfp0","pricing_plan_id":"cebpf4jnsgd1na2vs0mg"},{"bike_id":"ede8bf75-b1b0-4834-bb2e-cdd9b3d7e62a","system_id":"levelo_inurba_marseille","lat":43.31269,"lon":5.46861,"is_reserved":false,"is_disabled":false,"rental_uris":{"android":"levelo://app?vid=ede8bf75-b1b0-4834-bb2e-cdd9b3d7e62a","ios":"levelo://app?vid=ede8bf75-b1b0-4834-bb2e-cdd9b3d7e62a"},"vehicle_type_id":"4","last_reported":1773816897,"current_range_meters":8800,"station_id":"","pricing_plan_id":"cebpf4jnsgd1na2vs0mg"},{"bike_id":"65814981-b921-45b0-ba74-2998a10c8638","system_id":"levelo_inurba_marseille","lat":43.30149,"lon":5.39843,"is_reserved":false,"is_disabled":false,"rental_uris":{"android":"levelo://app?vid=65814981-b921-45b0-ba74-2998a10c8638","ios":"levelo://app?vid=65814981-b921-45b0-ba74-2998a10c8638"},"vehicle_type_id":"4","last_reported":1773816897,"current_range_meters":9200,"station_id":"ce4bh0h2rcd13ifvqd40","pricing_plan_id":"cebpf4jnsgd1na2vs0mg"},{"bike_id":"0c568fbf-621d-4cc8-ade7-4b24ab6705de","system_id":"levelo_inurba_marseille","lat":43.21713,"lon":5.34584,"is_reserved":false,"is_disabled":false,"rental_uris":{"android":"levelo://app?vid=0c568fbf-621d-4cc8-ade7-4b24ab6705de","ios":"levelo://app?vid=0c568fbf-621d-4cc8-ade7-4b24ab6705de"},"vehicle_type_id":"4","last_reported":1773816897,"current_range_meters":9200,"station_id":"st_cvj6r9ubvosntc0bgbag","pricing_plan_id":"cebpf4jnsgd1na2vs0mg"},{"bike_id":"d23facf0-1212-45cd-8ac8-666d566f19ff","system_id":"levelo_inurba_marseille","lat":43.30259,"lon":5.40096,"is_reserved":false,"is_disabled":false,"rental_uris":{"android":"levelo://app?vid=d23facf0-1212-45cd-8ac8-666d566f19ff","ios":"levelo://app?vid=d23facf0-1212-45cd-8ac8-666d566f19ff"},"vehicle_type_id":"4","last_reported":1773816897,"current_range_meters":9200,"station_id":"ce4bgvh2rcd13ifvqcs0","pricing_plan_id":"cebpf4jnsgd1na2vs0mg"},{"bike_id":"13ad50bf-7f2f-4ad1-a82f-209db682ff58","system_id":"levelo_inurba_marseille","lat":43.26502,"lon":5.3905,"is_reserved":false,"is_disabled":true,"rental_uris":{"android":"levelo://app?vid=13ad50bf-7f2f-4ad1-a82f-209db682ff58","ios":"levelo://app?vid=13ad50bf-7f2f-4ad1-a82f-209db682ff58"},"vehicle_type_id":"4","last_reported":1773816897,"current_range_meters":9200,"station_id":"","pricing_plan_id":"cebpf4jnsgd1na2vs0mg"},{"bike_id":"80e6734b-3764-4853-8c63-15cb07f7249f","system_id":"levelo_inurba_marseille","lat":43.29821,"lon":5.44078,"is_reserved":false,"is_disabled":false,"rental_uris":{"android":"levelo://app?vid=80e6734b-3764-4853-8c63-15cb07f7249f","ios":"levelo://app?vid=80e6734b-3764-4853-8c63-15cb07f7249f"},"vehicle_type_id":"4","last_reported":1773816897,"current_range_meters":9200,"station_id":"st_d3jp68qikq2c7381ktn0","pricing_plan_id":"cebpf4jnsgd1na2vs0mg"},{"bike_id":"07453b35-ab9b-4289-905e-5ee417f62368","system_id":"levelo_inurba_marseille","lat":43.33593,"lon":5.41026,"is_reserved":false,"is_disabled":false,"rental_uris":{"android":"levelo://app?vid=07453b35-ab9b-4289-905e-5ee417f62368","ios":"levelo://app?vid=07453b35-ab9b-4289-905e-5ee417f62368"},"vehicle_type_id":"4","last_reported":1773816897,"current_range_meters":9200,"station_id":"ce4bhqh2rcd13ifvqhmg","pricing_plan_id":"cebpf4jnsgd1na2vs0mg"},{"bike_id":"b2d32596-5bca-4b9e-ac0d-9f0f2f521e45","system_id":"levelo_inurba_marseille","lat":43.32979,"lon":5.36012,"is_reserved":false,"is_disabled":false,"rental_uris":{"android":"levelo://app?vid=b2d32596-5bca-4b9e-ac0d-9f0f2f521e45","ios":"levelo://app?vid=b2d32596-5bca-4b9e-ac0d-9f0f2f521e45"},"vehicle_type_id":"4","last_reported":1773816897,"current_range_meters":9200,"station_id":"","pricing_plan_id":"cebpf4jnsgd1na2vs0mg"},{"bike_id":"caf5e45c-f3f2-43eb-99a6-b11ec33451e8","system_id":"levelo_inurba_marseille","lat":43.23976,"lon":5.36621,"is_reserved":false,"is_disabled":false,"rental_uris":{"android":"levelo://app?vid=caf5e45c-f3f2-43eb-99a6-b11ec33451e8","ios":"levelo://app?vid=caf5e45c-f3f2-43eb-99a6-b11ec33451e8"},"vehicle_type_id":"4","last_reported":1773816897,"current_range_meters":9200,"station_id":"ce4bhi12rcd13ifvqfp0","pricing_plan_id":"cebpf4jnsgd1na2vs0mg"},{"bike_id":"e8ec7851-cda7-49b2-bb7c-5df291404bbc","system_id":"levelo_inurba_marseille","lat":43.29014,"lon":5.38127,"is_reserved":false,"is_disabled":false,"rental_uris":{"android":"levelo://app?vid=e8ec7851-cda7-49b2-bb7c-5df291404bbc","ios":"levelo://app?vid=e8ec7851-cda7-49b2-bb7c-5df291404bbc"},"vehicle_type_id":"4","last_reported":1773816897,"current_range_meters":9200,"station_id":"ce4bh4p2rcd13ifvqe1g","pricing_plan_id":"cebpf4jnsgd1na2vs0mg"},{"bike_id":"3d4bec48-4af4-4967-8952-1a1cd60e42fb","system_id":"levelo_inurba_marseille","lat":43.2884,"lon":5.35871,"is_reserved":false,"is_disabled":false,"rental_uris":{"android":"levelo://app?vid=3d4bec48-4af4-4967-8952-1a1cd60e42fb","ios":"levelo://app?vid=3d4bec48-4af4-4967-8952-1a1cd60e42fb"},"vehicle_type_id":"4","last_reported":1773816897,"current_range_meters":9200,"station_id":"ce4bhb12rcd13ifvqem0","pricing_plan_id":"cebpf4jnsgd1na2vs0mg"},{"bike_id":"72c2af1d-c829-426e-a247-06a2e53eb023","system_id":"levelo_inurba_marseille","lat":43.31476,"lon":5.37226,"is_reserved":false,"is_disabled":false,"rental_uris":{"android":"levelo://app?vid=72c2af1d-c829-426e-a247-06a2e53eb023","ios":"levelo://app?vid=72c2af1d-c829-426e-a247-06a2e53eb023"},"vehicle_type_id":"4","last_reported":1773816897,"current_range_meters":9200,"station_id":"ce4bgt12rcd13ifvqcd0","pricing_plan_id":"cebpf4jnsgd1na2vs0mg"},{"bike_id":"fad8e96d-acb2-4874-9608-7180f6b034b8","system_id":"levelo_inurba_marseille","lat":43.29143,"lon":5.40803,"is_reserved":false,"is_disabled":false,"rental_uris":{"android":"levelo://app?vid=fad8e96d-acb2-4874-9608-7180f6b034b8","ios":"levelo://app?vid=fad8e96d-acb2-4874-9608-7180f6b034b8"},"vehicle_type_id":"4","last_reported":1773816897,"current_range_meters":9200,"station_id":"","pricing_plan_id":"cebpf4jnsgd1na2vs0mg"},{"bike_id":"59ea75a0-8300-4d44-b147-e29403e53c82","system_id":"levelo_inurba_marseille","lat":43.32552,"lon":5.41412,"is_reserved":false,"is_disabled":false,"rental_uris":{"android":"levelo://app?vid=59ea75a0-8300-4d44-b147-e29403e53c82","ios":"levelo://app?vid=59ea75a0-8300-4d44-b147-e29403e53c82"},"vehicle_type_id":"4","last_reported":1773816897,"current_range_meters":9200,"station_id":"","pricing_plan_id":"cebpf4jnsgd1na2vs0mg"},{"bike_id":"4036d93f-1b7e-4ba0-a05d-50770ed1d500","system_id":"levelo_inurba_marseille","lat":43.29884,"lon":5.39736,"is_reserved":false,"is_disabled":false,"rental_uris":{"android":"levelo://app?vid=4036d93f-1b7e-4ba0-a05d-50770ed1d500","ios":"levelo://app?vid=4036d93f-1b7e-4ba0-a05d-50770ed1d500"},"vehicle_type_id":"4","last_reported":1773816897,"current_range_meters":9200,"station_id":"ce4bh0h2rcd13ifvqd50","pricing_plan_id":"cebpf4jnsgd1na2vs0mg"},{"bike_id":"55614024-db25-486b-99e8-ed28b6d6957b","system_id":"levelo_inurba_marseille","lat":43.29105,"lon":5.40128,"is_reserved":false,"is_disabled":false,"rental_uris":{"android":"levelo://app?vid=55614024-db25-486b-99e8-ed28b6d6957b","ios":"levelo://app?vid=55614024-db25-486b-99e8-ed28b6d6957b"},"vehicle_type_id":"4","last_reported":1773816897,"current_range_meters":9200,"station_id":"","pricing_plan_id":"cebpf4jnsgd1na2vs0mg"},{"bike_id":"d532de73-31b0-408e-96ce-6676e6435a22","system_id":"levelo_inurba_marseille","lat":43.21188,"lon":5.35075,"is_reserved":false,"is_disabled":false,"rental_uris":{"android":"levelo://app?vid=d532de73-31b0-408e-96ce-6676e6435a22","ios":"levelo://app?vid=d532de73-31b0-408e-96ce-6676e6435a22"},"vehicle_type_id":"4","last_reported":1773816897,"current_range_meters":9600,"station_id":"st_cvj6sg6p6f1abm77japg","pricing_plan_id":"cebpf4jnsgd1na2vs0mg"},