{"last_updated":1700842119,"ttl":30,"version":"2.2","data":{"bikes":[{"bike_id":"4871d9d1-1c38-4ed9-9340-a79d82f48a76","system_id":"levelo_inurba_marseille","lat":43.31341,"lon":5.367098,"is_reserved":false,"is_disabled":false,"rental_uris":{"android":"levelo://app?vid=4871d9d1-1c38-4ed9-9340-a79d82f48a76","ios":"levelo://app?vid=4871d9d1-1c38-4ed9-9340-a79d82f48a76"},"vehicle_type_id":"4","last_reported":1700842119,"current_range_meters":24800,"station_id":"ce4bgr92rcd13ifvqc6g","pricing_plan_id":"free"},{"bike_id":"66d533bd-9afc-47ab-9dfb-58b0c3cc69f4","system_id":"levelo_inurba_marseille","lat":43.312239,"lon":5.368562,"is_reserved":false,"is_disabled":false,"rental_uris":{"android":"levelo://app?vid=66d533bd-9afc-47ab-9dfb-58b0c3cc69f4","ios":"levelo://app?vid=66d533bd-9afc-47ab-9dfb-58b0c3cc69f4"},"vehicle_type_id":"4","last_reported":1700842119,"current_range_meters":26000,"station_id":"ce4bgl92rcd13ifvqbq0","pricing_plan_id":"free"},{"bike_id":"0235c744-730c-4b6b-a984-f49c52dbe1ff","system_id":"levelo_inurba_marseille","lat":43.31225,"lon":5.36863,"is_reserved":false,"is_disabled":false,"rental_uris":{"android":"levelo://app?vid=0235c744-730c-4b6b-a984-f49c52dbe1ff","ios":"levelo://app?vid=0235c744-730c-4b6b-a984-f49c52dbe1ff"},"vehicle_type_id":"4","last_reported":1700842119,"current_range_meters":18400,"station_id":"ce4bgl92rcd13ifvqbq0","pricing_plan_id":"free"},{"bike_id":"d299ed61-672d-4193-a651-cd0f2e19cd8f","system_id":"levelo_inurba_marseille","lat":43.312239,"lon":5.368562,"is_reserved":false,"is_disabled":false,"rental_uris":{"android":"levelo://app?vid=d299ed61-672d-4193-a651-cd0f2e19cd8f","ios":"levelo://app?vid=d299ed61-672d-4193-a651-cd0f2e19cd8f"},"vehicle_type_id":"4","last_reported":1700842119,"current_range_meters":21600,"station_id":"ce4bgl92rcd13ifvqbq0","pricing_plan_id":"free"},{"bike_id":"205fd768-93b9-4fa9-be70-531e3a75796d","system_id":"levelo_inurba_marseille","lat":43.30537,"lon":5.367345,"is_reserved":false,"is_disabled":false,"rental_uris":{"android":"levelo://app?vid=205fd768-93b9-4fa9-be70-531e3a75796d","ios":"levelo://app?vid=205fd768-93b9-4fa9-be70-531e3a75796d"},"vehicle_type_id":"4","last_reported":1700842119,"current_range_meters":31200,"station_id":"ce4bgrp2rcd13ifvqc9g","pricing_plan_id":"free"},{"bike_id":"a3e03786-397e-4aba-97ac-a73c05f39fd6","system_id":"levelo_inurba_marseille","lat":43.305706,"lon":5.365654,"is_reserved":false,"is_disabled":false,"rental_uris":{"android":"levelo://app?vid=a3e03786-397e-4aba-97ac-a73c05f39fd6","ios":"levelo://app?vid=a3e03786-397e-4aba-97ac-a73c05f39fd6"},"vehicle_type_id":"4","last_reported":1700842119,"current_range_meters":30800,"station_id":"ce4bgs12rcd13ifvqcag","pricing_plan_id":"free"},{"bike_id":"24460c9f-c675-4dd0-bbd3-c172a56eeccc","system_id":"levelo_inurba_marseille","lat":43.305706,"lon":5.365654,"is_reserved":false,"is_disabled":false,"rental_uris":{"android":"levelo://app?vid=24460c9f-c675-4dd0-bbd3-c172a56eeccc","ios":"levelo://app?vid=24460c9f-c675-4dd0-bbd3-c172a56eeccc"},"vehicle_type_id":"4","last_reported":1700842119,"current_range_meters":28000,"station_id":"ce4bgs12rcd13ifvqcag","pricing_plan_id":"free"},{"bike_id":"7ae4c298-00c7-435a-8ef1-bd18ea4c0b07","system_id":"levelo_inurba_marseille","lat":43.305989,"lon":5.37225,"is_reserved":false,"is_disabled":false,"rental_uris":{"android":"levelo://app?vid=7ae4c298-00c7-435a-8ef1-bd18ea4c0b07","ios":"levelo://app?vid=7ae4c298-00c7-435a-8ef1-bd18ea4c0b07"},"vehicle_type_id":"4","last_reported":1700842119,"current_range_meters":29600,"station_id":"ce4bgqh2rcd13ifvqc4g","pricing_plan_id":"free"},{"bike_id":"f427a2c3-6e4a-446b-ae2f-9be8aa7f4122","system_id":"levelo_inurba_marseille","lat":43.31719,"lon":5.376813,"is_reserved":false,"is_disabled":false,"rental_uris":{"android":"levelo://app?vid=f427a2c3-6e4a-446b-ae2f-9be8aa7f4122","ios":"levelo://app?vid=f427a2c3-6e4a-446b-ae2f-9be8aa7f4122"},"vehicle_type_id":"4","last_reported":1700842119,"current_range_meters":28000,"station_id":"ce4bgth2rcd13ifvqch0","pricing_plan_id":"free"},{"bike_id":"b898b018-f57d-4901-bab2-fdd15d391de9","system_id":"levelo_inurba_marseille","lat":43.317168,"lon":5.376883,"is_reserved":false,"is_disabled":false,"rental_uris":{"android":"levelo://app?vid=b898b018-f57d-4901-bab2-fdd15d391de9","ios":"levelo://app?vid=b898b018-f57d-4901-bab2-fdd15d391de9"},"vehicle_type_id":"4","last_reported":1700842119,"current_range_meters":30400,"station_id":"ce4bgth2rcd13ifvqch0","pricing_plan_id":"free"},{"bike_id":"573a870a-b6c4-429d-8587-8103772b84bc","system_id":"levelo_inurba_marseille","lat":43.308127,"lon":5.37675,"is_reserved":false,"is_disabled":false,"rental_uris":{"android":"levelo://app?vid=573a870a-b6c4-429d-8587-8103772b84bc","ios":"levelo://app?vid=573a870a-b6c4-429d-8587-8103772b84bc"},"vehicle_type_id":"4","last_reported":1700842119,"current_range_meters":5200,"station_id":"ce4bgv92rcd13ifvqcq0","pricing_plan_id":"free"},{"bike_id":"5432ebe5-659a-45a0-a8e1-89d3238e7a59","system_id":"levelo_inurba_marseille","lat":43.303075,"lon":5.369093,"is_reserved":false,"is_disabled":false,"rental_uris":{"android":"levelo://app?vid=5432ebe5-659a-45a0-a8e1-89d3238e7a59","ios":"levelo://app?vid=5432ebe5-659a-45a0-a8e1-89d3238e7a59"},"vehicle_type_id":"4","last_reported":1700842119,"current_range_meters":12000,"station_id":"ce4bgqh2rcd13ifvqc5g","pricing_plan_id":"free"},{"bike_id":"83ecddd4-39b0-4a80-8578-6b9274f3b513","system_id":"levelo_inurba_marseille","lat":43.30272,"lon":5.36906,"is_reserved":false,"is_disabled":false,"rental_uris":{"android":"levelo://app?vid=83ecddd4-39b0-4a80-8578-6b9274f3b513","ios":"levelo://app?vid=83ecddd4-39b0-4a80-8578-6b9274f3b513"},"vehicle_type_id":"4","last_reported":1700842119,"current_range_meters":20400,"station_id":"","pricing_plan_id":"free"},{"bike_id":"f502a09d-5966-4666-96ba-97f095f3a3b3","system_id":"levelo_inurba_marseille","lat":43.308012,"lon":5.381511,"is_reserved":false,"is_disabled":false,"rental_uris":{"android":"levelo://app?vid=f502a09d-5966-4666-96ba-97f095f3a3b3","ios":"levelo://app?vid=f502a09d-5966-4666-96ba-97f095f3a3b3"},"vehicle_type_id":"4","last_reported":1700842119,"current_range_meters":10800,"station_id":"ce4bgt12rcd13ifvqce0","pricing_plan_id":"free"},{"bike_id":"5ec9b6ca-bcce-472d-a203-2719af754766","system_id":"levelo_inurba_marseille","lat":43.308012,"lon":5.381511,"is_reserved":false,"is_disabled":false,"rental_uris":{"android":"levelo://app?vid=5ec9b6ca-bcce-472d-a203-2719af754766","ios":"levelo://app?vid=5ec9b6ca-bcce-472d-a203-2719af754766"},"vehicle_type_id":"4","last_reported":1700842119,"current_range_meters":20800,"station_id":"ce4bgt12rcd13ifvqce0","pricing_plan_id":"free"},{"bike_id":"860c3048-24f9-42a6-b0c4-aeeaaac395ff","system_id":"levelo_inurba_marseille","lat":43.308012,"lon":5.381511,"is_reserved":false,"is_disabled":false,"rental_uris":{"android":"levelo://app?vid=860c3048-24f9-42a6-b0c4-aeeaaac395ff","ios":"levelo://app?vid=860c3048-24f9-42a6-b0c4-aeeaaac395ff"},"vehicle_type_id":"4","last_reported":1700842119,"current_range_meters":3600,"station_id":"ce4bgt12rcd13ifvqce0","pricing_plan_id":"free"},{"bike_id":"3c6c486f-fbdf-4f73-b3f3-4c0c747e26ea","system_id":"levelo_inurba_marseille","lat":43.304606,"lon":5.379026,"is_reserved":false,"is_disabled":false,"rental_uris":{"android":"levelo://app?vid=3c6c486f-fbdf-4f73-b3f3-4c0c747e26ea","ios":"levelo://app?vid=3c6c486f-fbdf-4f73-b3f3-4c0c747e26ea"},"vehicle_type_id":"4","last_reported":1700842119,"current_range_meters":19600,"station_id":"ce4bgup2rcd13ifvqcn0","pricing_plan_id":"free"},{"bike_id":"2f21b245-ea66-43a9-a445-ecd4a43cfb0d","system_id":"levelo_inurba_marseille","lat":43.304606,"lon":5.379026,"is_reserved":false,"is_disabled":false,"rental_uris":{"android":"levelo://app?vid=2f21b245-ea66-43a9-a445-ecd4a43cfb0d","ios":"levelo://app?vid=2f21b245-ea66-43a9-a445-ecd4a43cfb0d"},"vehicle_type_id":"4","last_reported":1700842119,"current_range_meters":11200,"station_id":"ce4bgup2rcd13ifvqcn0","pricing_plan_id":"free"},{"bike_id":"0109cee6-7dc5-4902-a3ae-3bc55e5314d7","system_id":"levelo_inurba_marseille","lat":43.304606,"lon":5.379026,"is_reserved":false,"is_disabled":false,"rental_uris":{"android":"levelo://app?vid=0109cee6-7dc5-4902-a3ae-3bc55e5314d7","ios":"levelo://app?vid=0109cee6-7dc5-4902-a3ae-3bc55e5314d7"},"vehicle_type_id":"4","last_reported":1700842119,"current_range_meters":23600,"station_id":"ce4bgup2rcd13ifvqcn0","pricing_plan_id":"free"},{"bike_id":"ce2b4629-e146-4c47-99b3-c760c759a2de","system_id":"levelo_inurba_marseille","lat":43.304606,"lon":5.379026,"is_reserved":false,"is_disabled":false,"rental_uris":{"android":"levelo://app?vid=ce2b4629-e146-4c47-99b3-c760c759a2de","ios":"levelo://app?vid=ce2b4629-e146-4c47-99b3-c760c759a2de"},"vehicle_type_id":"4","last_reported":1700842119,"current_range_meters":23600,"station_id":"ce4bgup2rcd13ifvqcn0","pricing_plan_id":"free"},{"bike_id":"1cbb04f6-b30a-49c8-952f-1af978cf2aab","system_id":"levelo_inurba_marseille","lat":43.31998,"lon":5.38145,"is_reserved":false,"is_disabled":false,"rental_uris":{"android":"levelo://app?vid=1cbb04f6-b30a-49c8-952f-1af978cf2aab","ios":"levelo://app?vid=1cbb04f6-b30a-49c8-952f-1af978cf2aab"},"vehicle_type_id":"4","last_reported":1700842119,"current_range_meters":21200,"station_id":"ce4bhr12rcd13ifvqhpg","pricing_plan_id":"free"},{"bike_id":"5fb47e84-6cac-4f14-989f-dd496d127ce9","system_id":"levelo_inurba_marseille","lat":43.31992,"lon":5.38163,"is_reserved":false,"is_disabled":false,"rental_uris":{"android":"levelo://app?vid=5fb47e84-6cac-4f14-989f-dd496d127ce9","ios":"levelo://app?vid=5fb47e84-6cac-4f14-989f-dd496d127ce9"},"vehicle_type_id":"4","last_reported":1700842119,"current_range_meters":21600,"station_id":"ce4bhr12rcd13ifvqhpg","pricing_plan_id":"free"},{"bike_id":"af01f192-8ca6-4160-932e-cac8207a4726","system_id":"levelo_inurba_marseille","lat":43.299222,"lon":5.365554,"is_reserved":false,"is_disabled":false,"rental_uris":{"android":"levelo://app?vid=af01f192-8ca6-4160-932e-cac8207a4726","ios":"levelo://app?vid=af01f192-8ca6-4160-932e-cac8207a4726"},"vehicle_type_id":"4","last_reported":1700842119,"current_range_meters":23600,"station_id":"ce4bgm92rcd13ifvqbr0","pricing_plan_id":"free"},{"bike_id":"ff822368-00cb-4dfa-8697-959628b6f270","system_id":"levelo_inurba_marseille","lat":43.32641,"lon":5.36169,"is_reserved":false,"is_disabled":false,"rental_uris":{"android":"levelo://app?vid=ff822368-00cb-4dfa-8697-959628b6f270","ios":"levelo://app?vid=ff822368-00cb-4dfa-8697-959628b6f270"},"vehicle_type_id":"4","last_reported":1700842119,"current_range_meters":21200,"station_id":"","pricing_plan_id":"free"},{"bike_id":"40651570-2caa-481e-83f2-ed9b577fc84a","system_id":"levelo_inurba_marseille","lat":43.326223,"lon":5.37488,"is_reserved":false,"is_disabled":false,"rental_uris":{"android":"levelo://app?vid=40651570-2caa-481e-83f2-ed9b577fc84a","ios":"levelo://app?vid=40651570-2caa-481e-83f2-ed9b577fc84a"},"vehicle_type_id":"4","last_reported":1700842119,"current_range_meters":13200,"station_id":"","pricing_plan_id":"free"},{"bike_id":"1a40b385-68ba-48d5-a1cb-20965b2f9dc5","system_id":"levelo_inurba_marseille","lat":43.320424,"lon":5.384198,"is_reserved":false,"is_disabled":false,"rental_uris":{"android":"levelo://app?vid=1a40b385-68ba-48d5-a1cb-20965b2f9dc5","ios":"levelo://app?vid=1a40b385-68ba-48d5-a1cb-20965b2f9dc5"},"vehicle_type_id":"4","last_reported":1700842119,"current_range_meters":1200,"station_id":"","pricing_plan_id":"free"},{"bike_id":"57f07daa-f979-41b2-bf81-49ff7a829b2a","system_id":"levelo_inurba_marseille","lat":43.322855,"lon":5.38261,"is_reserved":false,"is_disabled":false,"rental_uris":{"android":"levelo://app?vid=57f07daa-f979-41b2-bf81-49ff7a829b2a","ios":"levelo://app?vid=57f07daa-f979-41b2-bf81-49ff7a829b2a"},"vehicle_type_id":"4","last_reported":1700842119,"current_range_meters":6400,"station_id":"ce4bhr12rcd13ifvqhqg","pricing_plan_id":"free"},{"bike_id":"dc3d3aa4-d8c2-4f5d-805d-0699888f6ce3","system_id":"levelo_inurba_marseille","lat":43.29776,"lon":5.37103,"is_reserved":false,"is_disabled":false,"rental_uris":{"android":"levelo://app?vid=dc3d3aa4-d8c2-4f5d-805d-0699888f6ce3","ios":"levelo://app?vid=dc3d3aa4-d8c2-4f5d-805d-0699888f6ce3"},"vehicle_type_id":"4","last_reported":1700842119,"current_range_meters":2000,"station_id":"ce4bgop2rcd13ifvqc1g","pricing_plan_id":"free"},{"bike_id":"8eccf735-9f13-4d66-89ee-04a7bf59eec2","system_id":"levelo_inurba_marseille","lat":43.322872,"lon":5.382756,"is_reserved":false,"is_disabled":false,"rental_uris":{"android":"levelo://app?vid=8eccf735-9f13-4d66-89ee-04a7bf59eec2","ios":"levelo://app?vid=8eccf735-9f13-4d66-89ee-04a7bf59eec2"},"vehicle_type_id":"4","last_reported":1700842119,"current_range_meters":31200,"station_id":"ce4bhr12rcd13ifvqhqg","pricing_plan_id":"free"},{"bike_id":"d3044786-2431-4822-96f8-37c5954b4b4c","system_id":"levelo_inurba_marseille","lat":43.322872,"lon":5.382756,"is_reserved":false,"is_disabled":false,"rental_uris":{"android":"levelo://app?vid=d3044786-2431-4822-96f8-37c5954b4b4c","ios":"levelo://app?vid=d3044786-2431-4822-96f8-37c5954b4b4c"},"vehicle_type_id":"4","last_reported":1700842119,"current_range_meters":27200,"station_id":"ce4bhr12rcd13ifvqhqg","pricing_plan_id":"free"},{"bike_id":"7577b60d-7dc8-44bb-8da4-e854ef53ee5e","system_id":"levelo_inurba_marseille","lat":43.328371,"lon":5.366909,"is_reserved":false,"is_disabled":false,"rental_uris":{"android":"levelo://app?vid=7577b60d-7dc8-44bb-8da4-e854ef53ee5e","ios":"levelo://app?vid=7577b60d-7dc8-44bb-8da4-e854ef53ee5e"},"vehicle_type_id":"4","last_reported":1700842119,"current_range_meters":8800,"station_id":"ce4bhs92rcd13ifvqi0g","pricing_plan_id":"free"},{"bike_id":"46b91408-aab4-4790-adbd-344365fec5bd","system_id":"levelo_inurba_marseille","lat":43.328291,"lon":5.366875,"is_reserved":false,"is_disabled":false,"rental_uris":{"android":"levelo://app?vid=46b91408-aab4-4790-adbd-344365fec5bd","ios":"levelo://app?vid=46b91408-aab4-4790-adbd-344365fec5bd"},"vehicle_type_id":"4","last_reported":1700842119,"current_range_meters":0,"station_id":"ce4bhs92rcd13ifvqi0g","pricing_plan_id":"free"},{"bike_id":"4d7509f5-9559-42ca-a60d-bef9e80f0981","system_id":"levelo_inurba_marseille","lat":43.2996,"lon":5.37923,"is_reserved":false,"is_disabled":false,"rental_uris":{"android":"levelo://app?vid=4d7509f5-9559-42ca-a60d-bef9e80f0981","ios":"levelo://app?vid=4d7509f5-9559-42ca-a60d-bef9e80f0981"},"vehicle_type_id":"4","last_reported":1700842119,"current_range_meters":0,"station_id":"","pricing_plan_id":"free"},{"bike_id":"a4603200-a956-4b27-bc52-8f22fc00857f","system_id":"levelo_inurba_marseille","lat":43.29604,"lon":5.368088,"is_reserved":false,"is_disabled":false,"rental_uris":{"android":"levelo://app?vid=a4603200-a956-4b27-bc52-8f22fc00857f","ios":"levelo://app?vid=a4603200-a956-4b27-bc52-8f22fc00857f"},"vehicle_type_id":"4","last_reported":1700842119,"current_range_meters":13200,"station_id":"","pricing_plan_id":"free"},{"bike_id":"bc4eb699-0fc2-4170-98f4-fedd2186b807","system_id":"levelo_inurba_marseille","lat":43.29627,"lon":5.37153,"is_reserved":false,"is_disabled":false,"rental_uris":{"android":"levelo://app?vid=bc4eb699-0fc2-4170-98f4-fedd2186b807","ios":"levelo://app?vid=bc4eb699-0fc2-4170-98f4-fedd2186b807"},"vehicle_type_id":"4","last_reported":1700842119,"current_range_meters":15200,"station_id":"ce4bgnh2rcd13ifvqc0g","pricing_plan_id":"free"},{"bike_id":"8dbef3e3-7651-481f-aa57-8e8282b1d259","system_id":"levelo_inurba_marseille","lat":43.30961,"lon":5.3904,"is_reserved":false,"is_disabled":false,"rental_uris":{"android":"levelo://app?vid=8dbef3e3-7651-481f-aa57-8e8282b1d259","ios":"levelo://app?vid=8dbef3e3-7651-481f-aa57-8e8282b1d259"},"vehicle_type_id":"4","last_reported":1700842119,"current_range_meters":10800,"station_id":"ce4bgup2rcd13ifvqco0","pricing_plan_id":"free"},{"bike_id":"312a7bb8-661e-4fc1-9cfa-bba90f2f39f4","system_id":"levelo_inurba_marseille","lat":43.309589,"lon":5.390258,"is_reserved":false,"is_disabled":false,"rental_uris":{"android":"levelo://app?vid=312a7bb8-661e-4fc1-9cfa-bba90f2f39f4","ios":"levelo://app?vid=312a7bb8-661e-4fc1-9cfa-bba90f2f39f4"},"vehicle_type_id":"4","last_reported":1700842119,"current_range_meters":800,"station_id":"ce4bgup2rcd13ifvqco0","pricing_plan_id":"free"},{"bike_id":"f103ee3d-1f2d-4313-ac07-b6ee9810790d","system_id":"levelo_inurba_marseille","lat":43.31753,"lon":5.39011,"is_reserved":false,"is_disabled":false,"rental_uris":{"android":"levelo://app?vid=f103ee3d-1f2d-4313-ac07-b6ee9810790d","ios":"levelo://app?vid=f103ee3d-1f2d-4313-ac07-b6ee9810790d"},"vehicle_type_id":"4","last_reported":1700842119,"current_range_meters":17600,"station_id":"ce4bhqp2rcd13ifvqhng","pricing_plan_id":"free"},{"bike_id":"bc9df399-934e-4a4d-b05a-7bc988be2c5a","system_id":"levelo_inurba_marseille","lat":43.317557,"lon":5.390173,"is_reserved":false,"is_disabled":false,"rental_uris":{"android":"levelo://app?vid=bc9df399-934e-4a4d-b05a-7bc988be2c5a","ios":"levelo://app?vid=bc9df399-934e-4a4d-b05a-7bc988be2c5a"},"vehicle_type_id":"4","last_reported":1700842119,"current_range_meters":14400,"station_id":"ce4bhqp2rcd13ifvqhng","pricing_plan_id":"free"},{"bike_id":"6b621983-5e9e-42f7-990d-ad5a093820d2","system_id":"levelo_inurba_marseille","lat":43.293801,"lon":5.363066,"is_reserved":false,"is_disabled":false,"rental_uris":{"android":"levelo://app?vid=6b621983-5e9e-42f7-990d-ad5a093820d2","ios":"levelo://app?vid=6b621983-5e9e-42f7-990d-ad5a093820d2"},"vehicle_type_id":"4","last_reported":1700842119,"current_range_meters":4000,"station_id":"","pricing_plan_id":"free"},{"bike_id":"0875af97-efe0-49f8-96f2-ca0fb696b606","system_id":"levelo_inurba_marseille","lat":43.32369,"lon":5.38888,"is_reserved":false,"is_disabled":false,"rental_uris":{"android":"levelo://app?vid=0875af97-efe0-49f8-96f2-ca0fb696b606","ios":"levelo://app?vid=0875af97-efe0-49f8-96f2-ca0fb696b606"},"vehicle_type_id":"4","last_reported":1700842119,"current_range_meters":0,"station_id":"ce4bhqp2rcd13ifvqhog","pricing_plan_id":"free"},{"bike_id":"0a2027d7-0fd7-4165-bb02-899597984e7c","system_id":"levelo_inurba_marseille","lat":43.32367,"lon":5.388836,"is_reserved":false,"is_disabled":false,"rental_uris":{"android":"levelo://app?vid=0a2027d7-0fd7-4165-bb02-899597984e7c","ios":"levelo://app?vid=0a2027d7-0fd7-4165-bb02-899597984e7c"},"vehicle_type_id":"4","last_reported":1700842119,"current_range_meters":18000,"station_id":"ce4bhqp2rcd13ifvqhog","pricing_plan_id":"free"},{"bike_id":"34f67ebe-e266-4efc-ae20-ea39fd90c4a2","system_id":"levelo_inurba_marseille","lat":43.303002,"lon":5.392142,"is_reserved":false,"is_disabled":false,"rental_uris":{"android":"levelo://app?vid=34f67ebe-e266-4efc-ae20-ea39fd90c4a2","ios":"levelo://app?vid=34f67ebe-e266-4efc-ae20-ea39fd90c4a2"},"vehicle_type_id":"4","last_reported":1700842119,"current_range_meters":3600,"station_id":"ce4bgkh2rcd13ifvqbk0","pricing_plan_id":"free"},{"bike_id":"124cf5a7-6ad8-4758-8b6a-5e41af11554f","system_id":"levelo_inurba_marseille","lat":43.303,"lon":5.39206,"is_reserved":false,"is_disabled":false,"rental_uris":{"android":"levelo://app?vid=124cf5a7-6ad8-4758-8b6a-5e41af11554f","ios":"levelo://app?vid=124cf5a7-6ad8-4758-8b6a-5e41af11554f"},"vehicle_type_id":"4","last_reported":1700842119,"current_range_meters":0,"station_id":"ce4bgkh2rcd13ifvqbk0","pricing_plan_id":"free"},{"bike_id":"6d98a949-bf51-4230-b11d-c3ed2954ab40","system_id":"levelo_inurba_marseille","lat":43.29225,"lon":5.36066,"is_reserved":false,"is_disabled":false,"rental_uris":{"android":"levelo://app?vid=6d98a949-bf51-4230-b11d-c3ed2954ab40","ios":"levelo://app?vid=6d98a949-bf51-4230-b11d-c3ed2954ab40"},"vehicle_type_id":"4","last_reported":1700842119,"current_range_meters":21600,"station_id":"ce4bhbh2rcd13ifvqeqg","pricing_plan_id":"free"},{"bike_id":"178eb7c0-6a62-4bf1-a56f-a82d0e477eba","system_id":"levelo_inurba_marseille","lat":43.333233,"lon":5.358607,"is_reserved":false,"is_disabled":false,"rental_uris":{"android":"levelo://app?vid=178eb7c0-6a62-4bf1-a56f-a82d0e477eba","ios":"levelo://app?vid=178eb7c0-6a62-4bf1-a56f-a82d0e477eba"},"vehicle_type_id":"4","last_reported":1700842119,"current_range_meters":4400,"station_id":"","pricing_plan_id":"free"},{"bike_id":"1d10a1b1-d55f-4279-928a-9c6858f32ca9","system_id":"levelo_inurba_marseille","lat":43.33211,"lon":5.38112,"is_reserved":false,"is_disabled":false,"rental_uris":{"android":"levelo://app?vid=1d10a1b1-d55f-4279-928a-9c6858f32ca9","ios":"levelo://app?vid=1d10a1b1-d55f-4279-928a-9c6858f32ca9"},"vehicle_type_id":"4","last_reported":1700842119,"current_range_meters":0,"station_id":"","pricing_plan_id":"free"},{"bike_id":"ebe8661c-5916-44a3-868b-ba7d7db6c441","system_id":"levelo_inurba_marseille","lat":43.294153,"lon":5.386305,"is_reserved":false,"is_disabled":false,"rental_uris":{"android":"levelo://app?vid=ebe8661c-5916-44a3-868b-ba7d7db6c441","ios":"levelo://app?vid=ebe8661c-5916-44a3-868b-ba7d7db6c441"},"vehicle_type_id":"4","last_reported":1700842119,"current_range_meters":18800,"station_id":"ce4bh2h2rcd13ifvqdh0","pricing_plan_id":"free"},{"bike_id":"a85b57e4-ba5c-48b3-aeba-921162abedbb","system_id":"levelo_inurba_marseille","lat":43.289468,"lon":5.363719,"is_reserved":false,"is_disabled":false,"rental_uris":{"android":"levelo://app?vid=a85b57e4-ba5c-48b3-aeba-921162abedbb","ios":"levelo://app?vid=a85b57e4-ba5c-48b3-aeba-921162abedbb"},"vehicle_type_id":"4","last_reported":1700842119,"current_range_meters":4800,"station_id":"ce4bhc92rcd13ifvqetg","pricing_plan_id":"free"},{"bike_id":"bb10a468-a1c5-4c72-bf76-e92763dc5e18","system_id":"levelo_inurba_marseille","lat":43.292642,"lon":5.384254,"is_reserved":false,"is_disabled":false,"rental_uris":{"android":"levelo://app?vid=bb10a468-a1c5-4c72-bf76-e92763dc5e18","ios":"levelo://app?vid=bb10a468-a1c5-4c72-bf76-e92763dc5e18"},"vehicle_type_id":"4","last_reported":1700842119,"current_range_meters":0,"station_id":"ce4bh692rcd13ifvqea0","pricing_plan_id":"free"},{"bike_id":"8be5e448-10b3-4a83-9945-19c04afe2f09","system_id":"levelo_inurba_marseille","lat":43.292644,"lon":5.384257,"is_reserved":false,"is_disabled":false,"rental_uris":{"android":"levelo://app?vid=8be5e448-10b3-4a83-9945-19c04afe2f09","ios":"levelo://app?vid=8be5e448-10b3-4a83-9945-19c04afe2f09"},"vehicle_type_id":"4","last_reported":1700842119,"current_range_meters":0,"station_id":"ce4bh692rcd13ifvqea0","pricing_plan_id":"free"},{"bike_id":"772ada3e-1274-420f-bcd4-5167d8f63c82","system_id":"levelo_inurba_marseille","lat":43.290103,"lon":5.356114,"is_reserved":false,"is_disabled":false,"rental_uris":{"android":"levelo://app?vid=772ada3e-1274-420f-bcd4-5167d8f63c82","ios":"levelo://app?vid=772ada3e-1274-420f-bcd4-5167d8f63c82"},"vehicle_type_id":"4","last_reported":1700842119,"current_range_meters":15600,"station_id":"ce4bhb92rcd13ifvqen0","pricing_plan_id":"free"},{"bike_id":"f434cb97-83e8-4b55-867c-8862a9cf5450","system_id":"levelo_inurba_marseille","lat":43.33044,"lon":5.38911,"is_reserved":false,"is_disabled":false,"rental_uris":{"android":"levelo://app?vid=f434cb97-83e8-4b55-867c-8862a9cf5450","ios":"levelo://app?vid=f434cb97-83e8-4b55-867c-8862a9cf5450"},"vehicle_type_id":"4","last_reported":1700842119,"current_range_meters":3600,"station_id":"ce4bhr92rcd13ifvqhrg","pricing_plan_id":"free"},{"bike_id":"4f080e12-3419-4997-bd7e-b716121d92a2","system_id":"levelo_inurba_marseille","lat":43.3304,"lon":5.3892,"is_reserved":false,"is_disabled":false,"rental_uris":{"android":"levelo://app?vid=4f080e12-3419-4997-bd7e-b716121d92a2","ios":"levelo://app?vid=4f080e12-3419-4997-bd7e-b716121d92a2"},"vehicle_type_id":"4","last_reported":1700842119,"current_range_meters":0,"station_id":"ce4bhr92rcd13ifvqhrg","pricing_plan_id":"free"},{"bike_id":"9c36a0b0-9831-4b41-a621-4fe94a615b8d","system_id":"levelo_inurba_marseille","lat":43.330442,"lon":5.389148,"is_reserved":false,"is_disabled":false,"rental_uris":{"android":"levelo://app?vid=9c36a0b0-9831-4b41-a621-4fe94a615b8d","ios":"levelo://app?vid=9c36a0b0-9831-4b41-a621-4fe94a615b8d"},"vehicle_type_id":"4","last_reported":1700842119,"current_range_meters":6000,"station_id":"ce4bhr92rcd13ifvqhrg","pricing_plan_id":"free"},{"bike_id":"f60f0f33-35ac-40aa-b865-6828097bb470","system_id":"levelo_inurba_marseille","lat":43.295169,"lon":5.390426,"is_reserved":false,"is_disabled":false,"rental_uris":{"android":"levelo://app?vid=f60f0f33-35ac-40aa-b865-6828097bb470","ios":"levelo://app?vid=f60f0f33-35ac-40aa-b865-6828097bb470"},"vehicle_type_id":"4","last_reported":1700842119,"current_range_meters":800,"station_id":"ce4bh3p2rcd13ifvqdp0","pricing_plan_id":"free"},{"bike_id":"739ae9e7-7cae-4fd0-b83a-06f1d9237b4d","system_id":"levelo_inurba_marseille","lat":43.312738,"lon":5.401741,"is_reserved":false,"is_disabled":false,"rental_uris":{"android":"levelo://app?vid=739ae9e7-7cae-4fd0-b83a-06f1d9237b4d","ios":"levelo://app?vid=739ae9e7-7cae-4fd0-b83a-06f1d9237b4d"},"vehicle_type_id":"4","last_reported":1700842119,"current_range_meters":0,"station_id":"ce4bh092rcd13ifvqd30","pricing_plan_id":"free"},{"bike_id":"bf1bc5f3-b01d-4664-8428-678a47cdc34e","system_id":"levelo_inurba_marseille","lat":43.33748,"lon":5.37466,"is_reserved":false,"is_disabled":false,"rental_uris":{"android":"levelo://app?vid=bf1bc5f3-b01d-4664-8428-678a47cdc34e","ios":"levelo://app?vid=bf1bc5f3-b01d-4664-8428-678a47cdc34e"},"vehicle_type_id":"4","last_reported":1700842119,"current_range_meters":30400,"station_id":"","pricing_plan_id":"free"},{"bike_id":"17a124a2-2f8c-4a88-958c-27356150d133","system_id":"levelo_inurba_marseille","lat":43.309371,"lon":5.401449,"is_reserved":false,"is_disabled":false,"rental_uris":{"android":"levelo://app?vid=17a124a2-2f8c-4a88-958c-27356150d133","ios":"levelo://app?vid=17a124a2-2f8c-4a88-958c-27356150d133"},"vehicle_type_id":"4","last_reported":1700842119,"current_range_meters":22000,"station_id":"ce4bgvp2rcd13ifvqct0","pricing_plan_id":"free"},{"bike_id":"206cee8d-4553-452b-a746-022d9cf84589","system_id":"levelo_inurba_marseille","lat":43.30642,"lon":5.401031,"is_reserved":false,"is_disabled":false,"rental_uris":{"android":"levelo://app?vid=206cee8d-4553-452b-a746-022d9cf84589","ios":"levelo://app?vid=206cee8d-4553-452b-a746-022d9cf84589"},"vehicle_type_id":"4","last_reported":1700842119,"current_range_meters":400,"station_id":"ce4bh112rcd13ifvqda0","pricing_plan_id":"free"},{"bike_id":"94287224-8e75-438a-bbd1-fca9026c3650","system_id":"levelo_inurba_marseille","lat":43.301117,"lon":5.398795,"is_reserved":false,"is_disabled":false,"rental_uris":{"android":"levelo://app?vid=94287224-8e75-438a-bbd1-fca9026c3650","ios":"levelo://app?vid=94287224-8e75-438a-bbd1-fca9026c3650"},"vehicle_type_id":"4","last_reported":1700842119,"current_range_meters":4800,"station_id":"ce4bh0h2rcd13ifvqd40","pricing_plan_id":"free"},{"bike_id":"2d4da201-44ef-4368-a1c4-26ee0a02648f","system_id":"levelo_inurba_marseille","lat":43.28724,"lon":5.36087,"is_reserved":false,"is_disabled":false,"rental_uris":{"android":"levelo://app?vid=2d4da201-44ef-4368-a1c4-26ee0a02648f","ios":"levelo://app?vid=2d4da201-44ef-4368-a1c4-26ee0a02648f"},"vehicle_type_id":"4","last_reported":1700842119,"current_range_meters":0,"station_id":"cki0cbj6b192h4jlfktg","pricing_plan_id":"free"},{"bike_id":"864dcbd9-cd4a-47c7-9e7a-0089aed727b3","system_id":"levelo_inurba_marseille","lat":43.298681,"lon":5.397225,"is_reserved":false,"is_disabled":false,"rental_uris":{"android":"levelo://app?vid=864dcbd9-cd4a-47c7-9e7a-0089aed727b3","ios":"levelo://app?vid=864dcbd9-cd4a-47c7-9e7a-0089aed727b3"},"vehicle_type_id":"4","last_reported":1700842119,"current_range_meters":18000,"station_id":"ce4bh0h2rcd13ifvqd50","pricing_plan_id":"free"},{"bike_id":"c26f522b-3f0e-42b4-8bbd-880fec25b97a","system_id":"levelo_inurba_marseille","lat":43.30146,"lon":5.39952,"is_reserved":false,"is_disabled":false,"rental_uris":{"android":"levelo://app?vid=c26f522b-3f0e-42b4-8bbd-880fec25b97a","ios":"levelo://app?vid=c26f522b-3f0e-42b4-8bbd-880fec25b97a"},"vehicle_type_id":"4","last_reported":1700842119,"current_range_meters":0,"station_id":"","pricing_plan_id":"free"},{"bike_id":"df573c92-7f97-4a1b-973f-30509cea5b90","system_id":"levelo_inurba_marseille","lat":43.29041,"lon":5.38632,"is_reserved":false,"is_disabled":false,"rental_uris":{"android":"levelo://app?vid=df573c92-7f97-4a1b-973f-30509cea5b90","ios":"levelo://app?vid=df573c92-7f97-4a1b-973f-30509cea5b90"},"vehicle_type_id":"4","last_reported":1700842119,"current_range_meters":19200,"station_id":"ce4bh4p2rcd13ifvqe0g","pricing_plan_id":"free"},{"bike_id":"3ee0048b-96e3-45f7-97c0-4a264afcd58f","system_id":"levelo_inurba_marseille","lat":43.29032,"lon":5.38651,"is_reserved":false,"is_disabled":false,"rental_uris":{"android":"levelo://app?vid=3ee0048b-96e3-45f7-97c0-4a264afcd58f","ios":"levelo://app?vid=3ee0048b-96e3-45f7-97c0-4a264afcd58f"},"vehicle_type_id":"4","last_reported":1700842119,"current_range_meters":22400,"station_id":"ce4bh4p2rcd13ifvqe0g","pricing_plan_id":"free"},{"bike_id":"08094f3f-3540-4827-a841-c8500ff0efbc","system_id":"levelo_inurba_marseille","lat":43.289307,"lon":5.38406,"is_reserved":false,"is_disabled":false,"rental_uris":{"android":"levelo://app?vid=08094f3f-3540-4827-a841-c8500ff0efbc","ios":"levelo://app?vid=08094f3f-3540-4827-a841-c8500ff0efbc"},"vehicle_type_id":"4","last_reported":1700842119,"current_range_meters":4800,"station_id":"ce4bh612rcd13ifvqe6g","pricing_plan_id":"free"},{"bike_id":"aae03c42-4b56-467a-9497-db7f080a1a08","system_id":"levelo_inurba_marseille","lat":43.30256,"lon":5.4007,"is_reserved":false,"is_disabled":false,"rental_uris":{"android":"levelo://app?vid=aae03c42-4b56-467a-9497-db7f080a1a08","ios":"levelo://app?vid=aae03c42-4b56-467a-9497-db7f080a1a08"},"vehicle_type_id":"4","last_reported":1700842119,"current_range_meters":8000,"station_id":"ce4bgvh2rcd13ifvqcs0","pricing_plan_id":"free"},{"bike_id":"f822cb03-c884-4391-ace4-cbf66f478fec","system_id":"levelo_inurba_marseille","lat":43.289307,"lon":5.38406,"is_reserved":false,"is_disabled":false,"rental_uris":{"android":"levelo://app?vid=f822cb03-c884-4391-ace4-cbf66f478fec","ios":"levelo://app?vid=f822cb03-c884-4391-ace4-cbf66f478fec"},"vehicle_type_id":"4","last_reported":1700842119,"current_range_meters":20800,"station_id":"ce4bh612rcd13ifvqe6g","pricing_plan_id":"free"},{"bike_id":"bbaf36e0-e54c-4a40-a2ca-b70ae9d42a38","system_id":"levelo_inurba_marseille","lat":43.302759,"lon":5.400793,"is_reserved":false,"is_disabled":false,"rental_uris":{"android":"levelo://app?vid=bbaf36e0-e54c-4a40-a2ca-b70ae9d42a38","ios":"levelo://app?vid=bbaf36e0-e54c-4a40-a2ca-b70ae9d42a38"},"vehicle_type_id":"4","last_reported":1700842119,"current_range_meters":10800,"station_id":"ce4bgvh2rcd13ifvqcs0","pricing_plan_id":"free"},{"bike_id":"459878b3-9d03-4f37-9613-85ddc21d83f7","system_id":"levelo_inurba_marseille","lat":43.28916,"lon":5.38411,"is_reserved":false,"is_disabled":false,"rental_uris":{"android":"levelo://app?vid=459878b3-9d03-4f37-9613-85ddc21d83f7","ios":"levelo://app?vid=459878b3-9d03-4f37-9613-85ddc21d83f7"},"vehicle_type_id":"4","last_reported":1700842119,"current_range_meters":28400,"station_id":"ce4bh612rcd13ifvqe6g","pricing_plan_id":"free"},{"bike_id":"1504c115-c61c-40a2-8b77-5e7beb1c12e9","system_id":"levelo_inurba_marseille","lat":43.286068,"lon":5.370703,"is_reserved":false,"is_disabled":false,"rental_uris":{"android":"levelo://app?vid=1504c115-c61c-40a2-8b77-5e7beb1c12e9","ios":"levelo://app?vid=1504c115-c61c-40a2-8b77-5e7beb1c12e9"},"vehicle_type_id":"4","last_reported":1700842119,"current_range_meters":10400,"station_id":"ce4bht12rcd13ifvqi60","pricing_plan_id":"free"},{"bike_id":"eb2e9e70-c602-48f2-836e-1285a687df9d","system_id":"levelo_inurba_marseille","lat":43.291994,"lon":5.392907,"is_reserved":false,"is_disabled":false,"rental_uris":{"android":"levelo://app?vid=eb2e9e70-c602-48f2-836e-1285a687df9d","ios":"levelo://app?vid=eb2e9e70-c602-48f2-836e-1285a687df9d"},"vehicle_type_id":"4","last_reported":1700842119,"current_range_meters":400,"station_id":"ce4bh192rcd13ifvqdd0","pricing_plan_id":"free"},{"bike_id":"6e8f6bb3-c5ae-4a8d-8e5b-509dd29df645","system_id":"levelo_inurba_marseille","lat":43.284534,"lon":5.358662,"is_reserved":false,"is_disabled":false,"rental_uris":{"android":"levelo://app?vid=6e8f6bb3-c5ae-4a8d-8e5b-509dd29df645","ios":"levelo://app?vid=6e8f6bb3-c5ae-4a8d-8e5b-509dd29df645"},"vehicle_type_id":"4","last_reported":1700842119,"current_range_meters":13200,"station_id":"ce4bhah2rcd13ifvqei0","pricing_plan_id":"free"},{"bike_id":"1dfdba00-8659-4d72-80b0-1c394881a885","system_id":"levelo_inurba_marseille","lat":43.284647,"lon":5.359027,"is_reserved":false,"is_disabled":false,"rental_uris":{"android":"levelo://app?vid=1dfdba00-8659-4d72-80b0-1c394881a885","ios":"levelo://app?vid=1dfdba00-8659-4d72-80b0-1c394881a885"},"vehicle_type_id":"4","last_reported":1700842119,"current_range_meters":31200,"station_id":"ce4bhah2rcd13ifvqei0","pricing_plan_id":"free"},{"bike_id":"37ff114d-e4f2-4925-9a7a-3f82acf8890f","system_id":"levelo_inurba_marseille","lat":43.28616,"lon":5.3511,"is_reserved":false,"is_disabled":false,"rental_uris":{"android":"levelo://app?vid=37ff114d-e4f2-4925-9a7a-3f82acf8890f","ios":"levelo://app?vid=37ff114d-e4f2-4925-9a7a-3f82acf8890f"},"vehicle_type_id":"4","last_reported":1700842119,"current_range_meters":20400,"station_id":"ce4bhch2rcd13ifvqeug","pricing_plan_id":"free"},{"bike_id":"da1cfd50-26a5-40a8-b83a-eb36b86a433b","system_id":"levelo_inurba_marseille","lat":43.28614,"lon":5.35105,"is_reserved":false,"is_disabled":false,"rental_uris":{"android":"levelo://app?vid=da1cfd50-26a5-40a8-b83a-eb36b86a433b","ios":"levelo://app?vid=da1cfd50-26a5-40a8-b83a-eb36b86a433b"},"vehicle_type_id":"4","last_reported":1700842119,"current_range_meters":26400,"station_id":"ce4bhch2rcd13ifvqeug","pricing_plan_id":"free"},{"bike_id":"e8caa0bb-8176-445f-9f23-b711c843ed20","system_id":"levelo_inurba_marseille","lat":43.28609,"lon":5.35109,"is_reserved":false,"is_disabled":false,"rental_uris":{"android":"levelo://app?vid=e8caa0bb-8176-445f-9f23-b711c843ed20","ios":"levelo://app?vid=e8caa0bb-8176-445f-9f23-b711c843ed20"},"vehicle_type_id":"4","last_reported":1700842119,"current_range_meters":21200,"station_id":"ce4bhch2rcd13ifvqeug","pricing_plan_id":"free"},{"bike_id":"43429d92-d655-4d03-bbdd-6e97942b66e8","system_id":"levelo_inurba_marseille","lat":43.319179,"lon":5.407725,"is_reserved":false,"is_disabled":false,"rental_uris":{"android":"levelo://app?vid=43429d92-d655-4d03-bbdd-6e97942b66e8","ios":"levelo://app?vid=43429d92-d655-4d03-bbdd-6e97942b66e8"},"vehicle_type_id":"4","last_reported":1700842119,"current_range_meters":6800,"station_id":"ce4bhq12rcd13ifvqhig","pricing_plan_id":"free"},{"bike_id":"f45257ec-05f5-48a6-bd01-0ebbb5fcf70a","system_id":"levelo_inurba_marseille","lat":43.33717,"lon":5.391857,"is_reserved":false,"is_disabled":false,"rental_uris":{"android":"levelo://app?vid=f45257ec-05f5-48a6-bd01-0ebbb5fcf70a","ios":"levelo://app?vid=f45257ec-05f5-48a6-bd01-0ebbb5fcf70a"},"vehicle_type_id":"4","last_reported":1700842119,"current_range_meters":28800,"station_id":"ce4bhr92rcd13ifvqhsg","pricing_plan_id":"free"},{"bike_id":"06d61e2b-08b4-46c4-9113-09014cf71077","system_id":"levelo_inurba_marseille","lat":43.337168,"lon":5.391825,"is_reserved":false,"is_disabled":false,"rental_uris":{"android":"levelo://app?vid=06d61e2b-08b4-46c4-9113-09014cf71077","ios":"levelo://app?vid=06d61e2b-08b4-46c4-9113-09014cf71077"},"vehicle_type_id":"4","last_reported":1700842119,"current_range_meters":22800,"station_id":"ce4bhr92rcd13ifvqhsg","pricing_plan_id":"free"},{"bike_id":"88218f2a-c277-4126-b5c0-d09509e7a11c","system_id":"levelo_inurba_marseille","lat":43.297946,"lon":5.404063,"is_reserved":false,"is_disabled":false,"rental_uris":{"android":"levelo://app?vid=88218f2a-c277-4126-b5c0-d09509e7a11c","ios":"levelo://app?vid=88218f2a-c277-4126-b5c0-d09509e7a11c"},"vehicle_type_id":"4","last_reported":1700842119,"current_range_meters":21600,"station_id":"ce4bh112rcd13ifvqd90","pricing_plan_id":"free"},{"bike_id":"65ccc872-7c73-4b86-bcd4-6684d5731a49","system_id":"levelo_inurba_marseille","lat":43.283494,"lon":5.380945,"is_reserved":false,"is_disabled":false,"rental_uris":{"android":"levelo://app?vid=65ccc872-7c73-4b86-bcd4-6684d5731a49","ios":"levelo://app?vid=65ccc872-7c73-4b86-bcd4-6684d5731a49"},"vehicle_type_id":"4","last_reported":1700842119,"current_range_meters":22800,"station_id":"ce4bh412rcd13ifvqdr0","pricing_plan_id":"free"},{"bike_id":"e2fd6e16-7b28-4c6a-8064-c796b604c15f","system_id":"levelo_inurba_marseille","lat":43.28353,"lon":5.38108,"is_reserved":false,"is_disabled":false,"rental_uris":{"android":"levelo://app?vid=e2fd6e16-7b28-4c6a-8064-c796b604c15f","ios":"levelo://app?vid=e2fd6e16-7b28-4c6a-8064-c796b604c15f"},"vehicle_type_id":"4","last_reported":1700842119,"current_range_meters":14000,"station_id":"ce4bh412rcd13ifvqdr0","pricing_plan_id":"free"},{"bike_id":"d3e343f5-a7a0-4a20-9fac-ab5c88a6767f","system_id":"levelo_inurba_marseille","lat":43.283494,"lon":5.380945,"is_reserved":false,"is_disabled":false,"rental_uris":{"android":"levelo://app?vid=d3e343f5-a7a0-4a20-9fac-ab5c88a6767f","ios":"levelo://app?vid=d3e343f5-a7a0-4a20-9fac-ab5c88a6767f"},"vehicle_type_id":"4","last_reported":1700842119,"current_range_meters":17200,"station_id":"ce4bh412rcd13ifvqdr0","pricing_plan_id":"free"},{"bike_id":"e2284003-4e46-4e0a-93e7-73d05c3666d9","system_id":"levelo_inurba_marseille","lat":43.33508,"lon":5.397755,"is_reserved":false,"is_disabled":false,"rental_uris":{"android":"levelo://app?vid=e2284003-4e46-4e0a-93e7-73d05c3666d9","ios":"levelo://app?vid=e2284003-4e46-4e0a-93e7-73d05c3666d9"},"vehicle_type_id":"4","last_reported":1700842119,"current_range_meters":26000,"station_id":"","pricing_plan_id":"free"},{"bike_id":"b4bc6c19-20e6-4b1e-b989-40d4ba171e93","system_id":"levelo_inurba_marseille","lat":43.335275,"lon":5.397592,"is_reserved":false,"is_disabled":false,"rental_uris":{"android":"levelo://app?vid=b4bc6c19-20e6-4b1e-b989-40d4ba171e93","ios":"levelo://app?vid=b4bc6c19-20e6-4b1e-b989-40d4ba171e93"},"vehicle_type_id":"4","last_reported":1700842119,"current_range_meters":5200,"station_id":"","pricing_plan_id":"free"},{"bike_id":"ffd2fa69-19f6-4660-b016-9fcdda9644f2","system_id":"levelo_inurba_marseille","lat":43.292724,"lon":5.401131,"is_reserved":false,"is_disabled":false,"rental_uris":{"android":"levelo://app?vid=ffd2fa69-19f6-4660-b016-9fcdda9644f2","ios":"levelo://app?vid=ffd2fa69-19f6-4660-b016-9fcdda9644f2"},"vehicle_type_id":"4","last_reported":1700842119,"current_range_meters":20400,"station_id":"ce4bh312rcd13ifvqdk0","pricing_plan_id":"free"},{"bike_id":"2b3b32d4-4cc6-40b0-8c8c-0946e78feb82","system_id":"levelo_inurba_marseille","lat":43.282744,"lon":5.350533,"is_reserved":false,"is_disabled":false,"rental_uris":{"android":"levelo://app?vid=2b3b32d4-4cc6-40b0-8c8c-0946e78feb82","ios":"levelo://app?vid=2b3b32d4-4cc6-40b0-8c8c-0946e78feb82"},"vehicle_type_id":"4","last_reported":1700842119,"current_range_meters":31200,"station_id":"ce4bhbp2rcd13ifvqerg","pricing_plan_id":"free"},{"bike_id":"24bff79e-203f-4293-a227-1a96d1c630a8","system_id":"levelo_inurba_marseille","lat":43.28039,"lon":5.369297,"is_reserved":false,"is_disabled":false,"rental_uris":{"android":"levelo://app?vid=24bff79e-203f-4293-a227-1a96d1c630a8","ios":"levelo://app?vid=24bff79e-203f-4293-a227-1a96d1c630a8"},"vehicle_type_id":"4","last_reported":1700842119,"current_range_meters":11200,"station_id":"ce4bha12rcd13ifvqef0","pricing_plan_id":"free"},{"bike_id":"900044d2-bf39-41c5-97fd-49683863ee46","system_id":"levelo_inurba_marseille","lat":43.284462,"lon":5.392121,"is_reserved":false,"is_disabled":false,"rental_uris":{"android":"levelo://app?vid=900044d2-bf39-41c5-97fd-49683863ee46","ios":"levelo://app?vid=900044d2-bf39-41c5-97fd-49683863ee46"},"vehicle_type_id":"4","last_reported":1700842119,"current_range_meters":0,"station_id":"ce4bhoh2rcd13ifvqh5g","pricing_plan_id":"free"},{"bike_id":"65f1c9aa-d39c-44f8-a97d-410104a71b6f","system_id":"levelo_inurba_marseille","lat":43.28573,"lon":5.394992,"is_reserved":false,"is_disabled":false,"rental_uris":{"android":"levelo://app?vid=65f1c9aa-d39c-44f8-a97d-410104a71b6f","ios":"levelo://app?vid=65f1c9aa-d39c-44f8-a97d-410104a71b6f"},"vehicle_type_id":"4","last_reported":1700842119,"current_range_meters":2000,"station_id":"ce4bh292rcd13ifvqdg0","pricing_plan_id":"free"},{"bike_id":"f01c006a-745d-48ea-9083-569cd9bcf930","system_id":"levelo_inurba_marseille","lat":43.326605,"lon":5.409903,"is_reserved":false,"is_disabled":false,"rental_uris":{"android":"levelo://app?vid=f01c006a-745d-48ea-9083-569cd9bcf930","ios":"levelo://app?vid=f01c006a-745d-48ea-9083-569cd9bcf930"},"vehicle_type_id":"4","last_reported":1700842119,"current_range_meters":8000,"station_id":"ce4bhpp2rcd13ifvqhgg","pricing_plan_id":"free"},{"bike_id":"e8997d84-e9e0-4aaa-a76a-c6d2af7271c7","system_id":"levelo_inurba_marseille","lat":43.29891,"lon":5.41008,"is_reserved":false,"is_disabled":false,"rental_uris":{"android":"levelo://app?vid=e8997d84-e9e0-4aaa-a76a-c6d2af7271c7","ios":"levelo://app?vid=e8997d84-e9e0-4aaa-a76a-c6d2af7271c7"},"vehicle_type_id":"4","last_reported":1700842119,"current_range_meters":0,"station_id":"","pricing_plan_id":"free"},{"bike_id":"01d6bb3b-f722-4cf8-950f-e0d9817e2931","system_id":"levelo_inurba_marseille","lat":43.304188,"lon":5.412904,"is_reserved":false,"is_disabled":false,"rental_uris":{"android":"levelo://app?vid=01d6bb3b-f722-4cf8-950f-e0d9817e2931","ios":"levelo://app?vid=01d6bb3b-f722-4cf8-950f-e0d9817e2931"},"vehicle_type_id":"4","last_reported":1700842119,"current_range_meters":21200,"station_id":"ce4bhop2rcd13ifvqh8g","pricing_plan_id":"free"},{"bike_id":"5c3f350a-4f47-4a13-b62f-4c8b68ba8a8b","system_id":"levelo_inurba_marseille","lat":43.287154,"lon":5.399979,"is_reserved":false,"is_disabled":false,"rental_uris":{"android":"levelo://app?vid=5c3f350a-4f47-4a13-b62f-4c8b68ba8a8b","ios":"levelo://app?vid=5c3f350a-4f47-4a13-b62f-4c8b68ba8a8b"},"vehicle_type_id":"4","last_reported":1700842119,"current_range_meters":5200,"station_id":"ce4bho92rcd13ifvqh3g","pricing_plan_id":"free"},{"bike_id":"1088c788-55d3-47cf-bc02-7d8585ad7c69","system_id":"levelo_inurba_marseille","lat":43.287154,"lon":5.399979,"is_reserved":false,"is_disabled":false,"rental_uris":{"android":"levelo://app?vid=1088c788-55d3-47cf-bc02-7d8585ad7c69","ios":"levelo://app?vid=1088c788-55d3-47cf-bc02-7d8585ad7c69"},"vehicle_type_id":"4","last_reported":1700842119,"current_range_meters":24800,"station_id":"ce4bho92rcd13ifvqh3g","pricing_plan_id":"free"},{"bike_id":"4640838b-83cb-49be-bb37-4779507ebaee","system_id":"levelo_inurba_marseille","lat":43.27626,"lon":5.36106,"is_reserved":false,"is_disabled":false,"rental_uris":{"android":"levelo://app?vid=4640838b-83cb-49be-bb37-4779507ebaee","ios":"levelo://app?vid=4640838b-83cb-49be-bb37-4779507ebaee"},"vehicle_type_id":"4","last_reported":1700842119,"current_range_meters":15200,"station_id":"ce4bgj92rcd13ifvqbe0","pricing_plan_id":"free"},{"bike_id":"64e12898-22e0-48cf-b91f-20eb94d95066","system_id":"levelo_inurba_marseille","lat":43.27618,"lon":5.361009,"is_reserved":false,"is_disabled":false,"rental_uris":{"android":"levelo://app?vid=64e12898-22e0-48cf-b91f-20eb94d95066","ios":"levelo://app?vid=64e12898-22e0-48cf-b91f-20eb94d95066"},"vehicle_type_id":"4","last_reported":1700842119,"current_range_meters":13600,"station_id":"ce4bgj92rcd13ifvqbe0","pricing_plan_id":"free"},{"bike_id":"bbe2f04e-3b7c-4a78-96d0-73ac4107e557","system_id":"levelo_inurba_marseille","lat":43.303837,"lon":5.418724,"is_reserved":false,"is_disabled":false,"rental_uris":{"android":"levelo://app?vid=bbe2f04e-3b7c-4a78-96d0-73ac4107e557","ios":"levelo://app?vid=bbe2f04e-3b7c-4a78-96d0-73ac4107e557"},"vehicle_type_id":"4","last_reported":1700842119,"current_range_meters":30000,"station_id":"ce4bhop2rcd13ifvqh7g","pricing_plan_id":"free"},{"bike_id":"d5732359-1603-49e5-a8ac-aeb9a31c30ab","system_id":"levelo_inurba_marseille","lat":43.276771,"lon":5.388799,"is_reserved":false,"is_disabled":false,"rental_uris":{"android":"levelo://app?vid=d5732359-1603-49e5-a8ac-aeb9a31c30ab","ios":"levelo://app?vid=d5732359-1603-49e5-a8ac-aeb9a31c30ab"},"vehicle_type_id":"4","last_reported":1700842119,"current_range_meters":3200,"station_id":"ce4bhi12rcd13ifvqfo0","pricing_plan_id":"free"},{"bike_id":"fc8a50fc-7fb9-4b58-ae5e-3658ebaf4b71","system_id":"levelo_inurba_marseille","lat":43.34181,"lon":5.40612,"is_reserved":false,"is_disabled":false,"rental_uris":{"android":"levelo://app?vid=fc8a50fc-7fb9-4b58-ae5e-3658ebaf4b71","ios":"levelo://app?vid=fc8a50fc-7fb9-4b58-ae5e-3658ebaf4b71"},"vehicle_type_id":"4","last_reported":1700842119,"current_range_meters":2000,"station_id":"","pricing_plan_id":"free"},{"bike_id":"74a042b4-b311-4bab-9353-9927977b6cc5","system_id":"levelo_inurba_marseille","lat":43.279952,"lon":5.400085,"is_reserved":false,"is_disabled":false,"rental_uris":{"android":"levelo://app?vid=74a042b4-b311-4bab-9353-9927977b6cc5","ios":"levelo://app?vid=74a042b4-b311-4bab-9353-9927977b6cc5"},"vehicle_type_id":"4","last_reported":1700842119,"current_range_meters":20400,"station_id":"ce4bho92rcd13ifvqh4g","pricing_plan_id":"free"},{"bike_id":"556e8001-ce9b-4c9f-8b34-0b14cf7aee11","system_id":"levelo_inurba_marseille","lat":43.279952,"lon":5.400085,"is_reserved":false,"is_disabled":false,"rental_uris":{"android":"levelo://app?vid=556e8001-ce9b-4c9f-8b34-0b14cf7aee11","ios":"levelo://app?vid=556e8001-ce9b-4c9f-8b34-0b14cf7aee11"},"vehicle_type_id":"4","last_reported":1700842119,"current_range_meters":27200,"station_id":"ce4bho92rcd13ifvqh4g","pricing_plan_id":"free"},{"bike_id":"8b21f06f-480a-4fe5-bb53-d068af8c61e4","system_id":"levelo_inurba_marseille","lat":43.29553,"lon":5.42282,"is_reserved":false,"is_disabled":false,"rental_uris":{"android":"levelo://app?vid=8b21f06f-480a-4fe5-bb53-d068af8c61e4","ios":"levelo://app?vid=8b21f06f-480a-4fe5-bb53-d068af8c61e4"},"vehicle_type_id":"4","last_reported":1700842119,"current_range_meters":29600,"station_id":"ce4bhph2rcd13ifvqhdg","pricing_plan_id":"free"},{"bike_id":"af798b96-8479-4659-bf1d-38afb021d1cd","system_id":"levelo_inurba_marseille","lat":43.295511,"lon":5.422926,"is_reserved":false,"is_disabled":false,"rental_uris":{"android":"levelo://app?vid=af798b96-8479-4659-bf1d-38afb021d1cd","ios":"levelo://app?vid=af798b96-8479-4659-bf1d-38afb021d1cd"},"vehicle_type_id":"4","last_reported":1700842119,"current_range_meters":0,"station_id":"ce4bhph2rcd13ifvqhdg","pricing_plan_id":"free"},{"bike_id":"37e5d468-9f36-4b69-a4f4-762e3fd23115","system_id":"levelo_inurba_marseille","lat":43.27202,"lon":5.39192,"is_reserved":false,"is_disabled":false,"rental_uris":{"android":"levelo://app?vid=37e5d468-9f36-4b69-a4f4-762e3fd23115","ios":"levelo://app?vid=37e5d468-9f36-4b69-a4f4-762e3fd23115"},"vehicle_type_id":"4","last_reported":1700842119,"current_range_meters":29600,"station_id":"ce4bhhp2rcd13ifvqfm0","pricing_plan_id":"free"},{"bike_id":"74b74fd6-a7d2-44db-8c16-0822e553808d","system_id":"levelo_inurba_marseille","lat":43.278128,"lon":5.407195,"is_reserved":false,"is_disabled":false,"rental_uris":{"android":"levelo://app?vid=74b74fd6-a7d2-44db-8c16-0822e553808d","ios":"levelo://app?vid=74b74fd6-a7d2-44db-8c16-0822e553808d"},"vehicle_type_id":"4","last_reported":1700842119,"current_range_meters":14000,"station_id":"ce4bhnh2rcd13ifvqgtg","pricing_plan_id":"free"},{"bike_id":"50fa5c8a-48e1-4ea9-ac9f-5c20e63f7518","system_id":"levelo_inurba_marseille","lat":43.269467,"lon":5.386439,"is_reserved":false,"is_disabled":false,"rental_uris":{"android":"levelo://app?vid=50fa5c8a-48e1-4ea9-ac9f-5c20e63f7518","ios":"levelo://app?vid=50fa5c8a-48e1-4ea9-ac9f-5c20e63f7518"},"vehicle_type_id":"4","last_reported":1700842119,"current_range_meters":16800,"station_id":"ce4bhh92rcd13ifvqfh0","pricing_plan_id":"free"},{"bike_id":"c99c6bb4-ba40-4aa1-8adb-e4f264770cd6","system_id":"levelo_inurba_marseille","lat":43.27813,"lon":5.40725,"is_reserved":false,"is_disabled":false,"rental_uris":{"android":"levelo://app?vid=c99c6bb4-ba40-4aa1-8adb-e4f264770cd6","ios":"levelo://app?vid=c99c6bb4-ba40-4aa1-8adb-e4f264770cd6"},"vehicle_type_id":"4","last_reported":1700842119,"current_range_meters":0,"station_id":"ce4bhnh2rcd13ifvqgtg","pricing_plan_id":"free"},{"bike_id":"7add37b3-3d15-47fc-bb42-55013fe36e3f","system_id":"levelo_inurba_marseille","lat":43.26926,"lon":5.38634,"is_reserved":false,"is_disabled":false,"rental_uris":{"android":"levelo://app?vid=7add37b3-3d15-47fc-bb42-55013fe36e3f","ios":"levelo://app?vid=7add37b3-3d15-47fc-bb42-55013fe36e3f"},"vehicle_type_id":"4","last_reported":1700842119,"current_range_meters":24800,"station_id":"ce4bhh92rcd13ifvqfh0","pricing_plan_id":"free"},{"bike_id":"f35d4ba1-249b-4a3c-8274-d206842a32b6","system_id":"levelo_inurba_marseille","lat":43.27948,"lon":5.410553,"is_reserved":false,"is_disabled":false,"rental_uris":{"android":"levelo://app?vid=f35d4ba1-249b-4a3c-8274-d206842a32b6","ios":"levelo://app?vid=f35d4ba1-249b-4a3c-8274-d206842a32b6"},"vehicle_type_id":"4","last_reported":1700842119,"current_range_meters":13200,"station_id":"ce4bhnp2rcd13ifvqh0g","pricing_plan_id":"free"},{"bike_id":"b2f6a235-0659-4971-9ed8-460c13e31a7c","system_id":"levelo_inurba_marseille","lat":43.27944,"lon":5.410497,"is_reserved":false,"is_disabled":false,"rental_uris":{"android":"levelo://app?vid=b2f6a235-0659-4971-9ed8-460c13e31a7c","ios":"levelo://app?vid=b2f6a235-0659-4971-9ed8-460c13e31a7c"},"vehicle_type_id":"4","last_reported":1700842119,"current_range_meters":5600,"station_id":"ce4bhnp2rcd13ifvqh0g","pricing_plan_id":"free"},{"bike_id":"6fec4adb-0f86-4394-9f7c-e218dbced8a7","system_id":"levelo_inurba_marseille","lat":43.27942,"lon":5.41055,"is_reserved":false,"is_disabled":false,"rental_uris":{"android":"levelo://app?vid=6fec4adb-0f86-4394-9f7c-e218dbced8a7","ios":"levelo://app?vid=6fec4adb-0f86-4394-9f7c-e218dbced8a7"},"vehicle_type_id":"4","last_reported":1700842119,"current_range_meters":19600,"station_id":"ce4bhnp2rcd13ifvqh0g","pricing_plan_id":"free"},{"bike_id":"91a67be3-c8ac-450d-b0fd-dd15897c02ae","system_id":"levelo_inurba_marseille","lat":43.26685,"lon":5.38271,"is_reserved":false,"is_disabled":false,"rental_uris":{"android":"levelo://app?vid=91a67be3-c8ac-450d-b0fd-dd15897c02ae","ios":"levelo://app?vid=91a67be3-c8ac-450d-b0fd-dd15897c02ae"},"vehicle_type_id":"4","last_reported":1700842119,"current_range_meters":13600,"station_id":"ce4bhg92rcd13ifvqf90","pricing_plan_id":"free"},{"bike_id":"b3cc08df-4fef-4ea7-ba4f-85eda83e1e21","system_id":"levelo_inurba_marseille","lat":43.265585,"lon":5.372867,"is_reserved":false,"is_disabled":false,"rental_uris":{"android":"levelo://app?vid=b3cc08df-4fef-4ea7-ba4f-85eda83e1e21","ios":"levelo://app?vid=b3cc08df-4fef-4ea7-ba4f-85eda83e1e21"},"vehicle_type_id":"4","last_reported":1700842119,"current_range_meters":9600,"station_id":"ce4bhg12rcd13ifvqf70","pricing_plan_id":"free"},{"bike_id":"28e8ce00-6b21-4e06-9930-c7c4408cc650","system_id":"levelo_inurba_marseille","lat":43.326174,"lon":5.430584,"is_reserved":false,"is_disabled":false,"rental_uris":{"android":"levelo://app?vid=28e8ce00-6b21-4e06-9930-c7c4408cc650","ios":"levelo://app?vid=28e8ce00-6b21-4e06-9930-c7c4408cc650"},"vehicle_type_id":"4","last_reported":1700842119,"current_range_meters":0,"station_id":"","pricing_plan_id":"free"},{"bike_id":"e7a641ff-26e7-4415-a0ed-c16e90af64a5","system_id":"levelo_inurba_marseille","lat":43.26783,"lon":5.39415,"is_reserved":false,"is_disabled":false,"rental_uris":{"android":"levelo://app?vid=e7a641ff-26e7-4415-a0ed-c16e90af64a5","ios":"levelo://app?vid=e7a641ff-26e7-4415-a0ed-c16e90af64a5"},"vehicle_type_id":"4","last_reported":1700842119,"current_range_meters":0,"station_id":"ce4bhh12rcd13ifvqfg0","pricing_plan_id":"free"},{"bike_id":"2b5f0b27-ae58-4e9e-bd76-c585f78e8a73","system_id":"levelo_inurba_marseille","lat":43.26386,"lon":5.37454,"is_reserved":false,"is_disabled":false,"rental_uris":{"android":"levelo://app?vid=2b5f0b27-ae58-4e9e-bd76-c585f78e8a73","ios":"levelo://app?vid=2b5f0b27-ae58-4e9e-bd76-c585f78e8a73"},"vehicle_type_id":"4","last_reported":1700842119,"current_range_meters":14000,"station_id":"","pricing_plan_id":"free"},{"bike_id":"2619826a-63f0-4c7f-82be-43fccd19be8f","system_id":"levelo_inurba_marseille","lat":43.308051,"lon":5.43527,"is_reserved":false,"is_disabled":false,"rental_uris":{"android":"levelo://app?vid=2619826a-63f0-4c7f-82be-43fccd19be8f","ios":"levelo://app?vid=2619826a-63f0-4c7f-82be-43fccd19be8f"},"vehicle_type_id":"4","last_reported":1700842119,"current_range_meters":2000,"station_id":"ce4bhph2rcd13ifvqheg","pricing_plan_id":"free"},{"bike_id":"8bb5fb4c-f033-472d-9384-8c187d29c15f","system_id":"levelo_inurba_marseille","lat":43.308051,"lon":5.43527,"is_reserved":false,"is_disabled":false,"rental_uris":{"android":"levelo://app?vid=8bb5fb4c-f033-472d-9384-8c187d29c15f","ios":"levelo://app?vid=8bb5fb4c-f033-472d-9384-8c187d29c15f"},"vehicle_type_id":"4","last_reported":1700842119,"current_range_meters":31600,"station_id":"ce4bhph2rcd13ifvqheg","pricing_plan_id":"free"},{"bike_id":"50a17afd-5476-4878-8b0b-b44b92d3e61b","system_id":"levelo_inurba_marseille","lat":43.275625,"lon":5.384392,"is_reserved":false,"is_disabled":false,"rental_uris":{"android":"levelo://app?vid=50a17afd-5476-4878-8b0b-b44b92d3e61b","ios":"levelo://app?vid=50a17afd-5476-4878-8b0b-b44b92d3e61b"},"vehicle_type_id":"4","last_reported":1700842119,"current_range_meters":9200,"station_id":"ce4bhh92rcd13ifvqfi0","pricing_plan_id":"free"},{"bike_id":"095c455d-35af-4875-8b09-1b98c496f785","system_id":"levelo_inurba_marseille","lat":43.265569,"lon":5.390047,"is_reserved":false,"is_disabled":false,"rental_uris":{"android":"levelo://app?vid=095c455d-35af-4875-8b09-1b98c496f785","ios":"levelo://app?vid=095c455d-35af-4875-8b09-1b98c496f785"},"vehicle_type_id":"4","last_reported":1700842119,"current_range_meters":23600,"station_id":"ce4bhe12rcd13ifvqf30","pricing_plan_id":"free"},{"bike_id":"b894fb30-f365-460a-b10a-1888dfcaa302","system_id":"levelo_inurba_marseille","lat":43.2694,"lon":5.40264,"is_reserved":false,"is_disabled":false,"rental_uris":{"android":"levelo://app?vid=b894fb30-f365-460a-b10a-1888dfcaa302","ios":"levelo://app?vid=b894fb30-f365-460a-b10a-1888dfcaa302"},"vehicle_type_id":"4","last_reported":1700842119,"current_range_meters":10800,"station_id":"cjm6bp8fraef2m0cb0m0","pricing_plan_id":"free"},{"bike_id":"c85f7616-3a9e-47a4-ae16-28a03e51ab4f","system_id":"levelo_inurba_marseille","lat":43.28976,"lon":5.42903,"is_reserved":false,"is_disabled":false,"rental_uris":{"android":"levelo://app?vid=c85f7616-3a9e-47a4-ae16-28a03e51ab4f","ios":"levelo://app?vid=c85f7616-3a9e-47a4-ae16-28a03e51ab4f"},"vehicle_type_id":"4","last_reported":1700842119,"current_range_meters":18000,"station_id":"","pricing_plan_id":"free"},{"bike_id":"a6cf9b04-855d-4dc5-9c72-ce4a8e5bbb9c","system_id":"levelo_inurba_marseille","lat":43.31713,"lon":5.43706,"is_reserved":false,"is_disabled":false,"rental_uris":{"android":"levelo://app?vid=a6cf9b04-855d-4dc5-9c72-ce4a8e5bbb9c","ios":"levelo://app?vid=a6cf9b04-855d-4dc5-9c72-ce4a8e5bbb9c"},"vehicle_type_id":"4","last_reported":1700842119,"current_range_meters":2400,"station_id":"ce4bhp92rcd13ifvqhcg","pricing_plan_id":"free"},{"bike_id":"f23d8119-b478-4639-98c5-6883279f9f84","system_id":"levelo_inurba_marseille","lat":43.31711,"lon":5.43708,"is_reserved":false,"is_disabled":false,"rental_uris":{"android":"levelo://app?vid=f23d8119-b478-4639-98c5-6883279f9f84","ios":"levelo://app?vid=f23d8119-b478-4639-98c5-6883279f9f84"},"vehicle_type_id":"4","last_reported":1700842119,"current_range_meters":25600,"station_id":"ce4bhp92rcd13ifvqhcg","pricing_plan_id":"free"},{"bike_id":"ed30d6a1-b23a-49e5-9c83-5546be72a734","system_id":"levelo_inurba_marseille","lat":43.317104,"lon":5.436818,"is_reserved":false,"is_disabled":false,"rental_uris":{"android":"levelo://app?vid=ed30d6a1-b23a-49e5-9c83-5546be72a734","ios":"levelo://app?vid=ed30d6a1-b23a-49e5-9c83-5546be72a734"},"vehicle_type_id":"4","last_reported":1700842119,"current_range_meters":23600,"station_id":"ce4bhp92rcd13ifvqhcg","pricing_plan_id":"free"},{"bike_id":"c6caf463-1d1b-409b-ac7c-70c7ce57286e","system_id":"levelo_inurba_marseille","lat":43.262012,"lon":5.379307,"is_reserved":false,"is_disabled":false,"rental_uris":{"android":"levelo://app?vid=c6caf463-1d1b-409b-ac7c-70c7ce57286e","ios":"levelo://app?vid=c6caf463-1d1b-409b-ac7c-70c7ce57286e"},"vehicle_type_id":"4","last_reported":1700842119,"current_range_meters":18400,"station_id":"ce4bhjp2rcd13ifvqg90","pricing_plan_id":"free"},{"bike_id":"2db879e6-feea-4d7d-81a1-2e39ab866389","system_id":"levelo_inurba_marseille","lat":43.262012,"lon":5.379307,"is_reserved":false,"is_disabled":false,"rental_uris":{"android":"levelo://app?vid=2db879e6-feea-4d7d-81a1-2e39ab866389","ios":"levelo://app?vid=2db879e6-feea-4d7d-81a1-2e39ab866389"},"vehicle_type_id":"4","last_reported":1700842119,"current_range_meters":19600,"station_id":"ce4bhjp2rcd13ifvqg90","pricing_plan_id":"free"},{"bike_id":"cdd6cd14-0b43-479a-9067-521b3ee15c2b","system_id":"levelo_inurba_marseille","lat":43.26202,"lon":5.379299,"is_reserved":false,"is_disabled":false,"rental_uris":{"android":"levelo://app?vid=cdd6cd14-0b43-479a-9067-521b3ee15c2b","ios":"levelo://app?vid=cdd6cd14-0b43-479a-9067-521b3ee15c2b"},"vehicle_type_id":"4","last_reported":1700842119,"current_range_meters":31200,"station_id":"ce4bhjp2rcd13ifvqg90","pricing_plan_id":"free"},{"bike_id":"d0bb53f7-f1b8-4609-a668-27efdac67f66","system_id":"levelo_inurba_marseille","lat":43.26301,"lon":5.38842,"is_reserved":false,"is_disabled":false,"rental_uris":{"android":"levelo://app?vid=d0bb53f7-f1b8-4609-a668-27efdac67f66","ios":"levelo://app?vid=d0bb53f7-f1b8-4609-a668-27efdac67f66"},"vehicle_type_id":"4","last_reported":1700842119,"current_range_meters":0,"station_id":"","pricing_plan_id":"free"},{"bike_id":"130e6e36-000f-455e-a75e-78e529b2b024","system_id":"levelo_inurba_marseille","lat":43.298768,"lon":5.43643,"is_reserved":false,"is_disabled":false,"rental_uris":{"android":"levelo://app?vid=130e6e36-000f-455e-a75e-78e529b2b024","ios":"levelo://app?vid=130e6e36-000f-455e-a75e-78e529b2b024"},"vehicle_type_id":"4","last_reported":1700842119,"current_range_meters":27600,"station_id":"ce4bhpp2rcd13ifvqhfg","pricing_plan_id":"free"},{"bike_id":"1e272c67-0721-4a45-a082-8c54474509d1","system_id":"levelo_inurba_marseille","lat":43.29901,"lon":5.436851,"is_reserved":false,"is_disabled":false,"rental_uris":{"android":"levelo://app?vid=1e272c67-0721-4a45-a082-8c54474509d1","ios":"levelo://app?vid=1e272c67-0721-4a45-a082-8c54474509d1"},"vehicle_type_id":"4","last_reported":1700842119,"current_range_meters":0,"station_id":"ce4bhpp2rcd13ifvqhfg","pricing_plan_id":"free"},{"bike_id":"7cc9cd61-c4b5-42b2-a634-fcd7e4a788b6","system_id":"levelo_inurba_marseille","lat":43.28156,"lon":5.42644,"is_reserved":false,"is_disabled":false,"rental_uris":{"android":"levelo://app?vid=7cc9cd61-c4b5-42b2-a634-fcd7e4a788b6","ios":"levelo://app?vid=7cc9cd61-c4b5-42b2-a634-fcd7e4a788b6"},"vehicle_type_id":"4","last_reported":1700842119,"current_range_meters":24000,"station_id":"ce4bhnh2rcd13ifvqgug","pricing_plan_id":"free"},{"bike_id":"5ac38179-4d98-4b89-80f2-dc6cd474e479","system_id":"levelo_inurba_marseille","lat":43.28155,"lon":5.42647,"is_reserved":false,"is_disabled":false,"rental_uris":{"android":"levelo://app?vid=5ac38179-4d98-4b89-80f2-dc6cd474e479","ios":"levelo://app?vid=5ac38179-4d98-4b89-80f2-dc6cd474e479"},"vehicle_type_id":"4","last_reported":1700842119,"current_range_meters":21200,"station_id":"ce4bhnh2rcd13ifvqgug","pricing_plan_id":"free"},{"bike_id":"6181795c-d57f-4dce-a524-f46690bf06cb","system_id":"levelo_inurba_marseille","lat":43.281548,"lon":5.42643,"is_reserved":false,"is_disabled":false,"rental_uris":{"android":"levelo://app?vid=6181795c-d57f-4dce-a524-f46690bf06cb","ios":"levelo://app?vid=6181795c-d57f-4dce-a524-f46690bf06cb"},"vehicle_type_id":"4","last_reported":1700842119,"current_range_meters":27600,"station_id":"ce4bhnh2rcd13ifvqgug","pricing_plan_id":"free"},{"bike_id":"d9984c52-d4d8-4134-bf96-29b5f3dd3b57","system_id":"levelo_inurba_marseille","lat":43.260909,"lon":5.397591,"is_reserved":false,"is_disabled":false,"rental_uris":{"android":"levelo://app?vid=d9984c52-d4d8-4134-bf96-29b5f3dd3b57","ios":"levelo://app?vid=d9984c52-d4d8-4134-bf96-29b5f3dd3b57"},"vehicle_type_id":"4","last_reported":1700842119,"current_range_meters":0,"station_id":"ce4bhi12rcd13ifvqfq0","pricing_plan_id":"free"},{"bike_id":"895413f1-c6f5-4ed0-8f2e-5604c392e321","system_id":"levelo_inurba_marseille","lat":43.258224,"lon":5.394369,"is_reserved":false,"is_disabled":false,"rental_uris":{"android":"levelo://app?vid=895413f1-c6f5-4ed0-8f2e-5604c392e321","ios":"levelo://app?vid=895413f1-c6f5-4ed0-8f2e-5604c392e321"},"vehicle_type_id":"4","last_reported":1700842119,"current_range_meters":6800,"station_id":"ce4bhip2rcd13ifvqft0","pricing_plan_id":"free"},{"bike_id":"80438f1e-5ce5-43bb-b8b0-62680314de25","system_id":"levelo_inurba_marseille","lat":43.255756,"lon":5.382303,"is_reserved":false,"is_disabled":false,"rental_uris":{"android":"levelo://app?vid=80438f1e-5ce5-43bb-b8b0-62680314de25","ios":"levelo://app?vid=80438f1e-5ce5-43bb-b8b0-62680314de25"},"vehicle_type_id":"4","last_reported":1700842119,"current_range_meters":11200,"station_id":"ce4bhih2rcd13ifvqfs0","pricing_plan_id":"free"},{"bike_id":"f77c5a20-ba8a-4a60-9519-3569eebb96e4","system_id":"levelo_inurba_marseille","lat":43.254947,"lon":5.376454,"is_reserved":false,"is_disabled":false,"rental_uris":{"android":"levelo://app?vid=f77c5a20-ba8a-4a60-9519-3569eebb96e4","ios":"levelo://app?vid=f77c5a20-ba8a-4a60-9519-3569eebb96e4"},"vehicle_type_id":"4","last_reported":1700842119,"current_range_meters":31200,"station_id":"ce4bhh12rcd13ifvqff0","pricing_plan_id":"free"},{"bike_id":"781c79ba-987b-41ea-bd7a-89cd886f675f","system_id":"levelo_inurba_marseille","lat":43.254947,"lon":5.376454,"is_reserved":false,"is_disabled":false,"rental_uris":{"android":"levelo://app?vid=781c79ba-987b-41ea-bd7a-89cd886f675f","ios":"levelo://app?vid=781c79ba-987b-41ea-bd7a-89cd886f675f"},"vehicle_type_id":"4","last_reported":1700842119,"current_range_meters":22000,"station_id":"ce4bhh12rcd13ifvqff0","pricing_plan_id":"free"},{"bike_id":"761c0585-d314-4547-9fd3-be1703132e70","system_id":"levelo_inurba_marseille","lat":43.254947,"lon":5.376454,"is_reserved":false,"is_disabled":false,"rental_uris":{"android":"levelo://app?vid=761c0585-d314-4547-9fd3-be1703132e70","ios":"levelo://app?vid=761c0585-d314-4547-9fd3-be1703132e70"},"vehicle_type_id":"4","last_reported":1700842119,"current_range_meters":27600,"station_id":"ce4bhh12rcd13ifvqff0","pricing_plan_id":"free"},{"bike_id":"49cf8f67-d996-4067-9019-a07117a861eb","system_id":"levelo_inurba_marseille","lat":43.254947,"lon":5.376454,"is_reserved":false,"is_disabled":false,"rental_uris":{"android":"levelo://app?vid=49cf8f67-d996-4067-9019-a07117a861eb","ios":"levelo://app?vid=49cf8f67-d996-4067-9019-a07117a861eb"},"vehicle_type_id":"4","last_reported":1700842119,"current_range_meters":31200,"station_id":"ce4bhh12rcd13ifvqff0","pricing_plan_id":"free"},{"bike_id":"2d65c7e7-8aaf-4ae4-92d0-613f5dce94da","system_id":"levelo_inurba_marseille","lat":43.254947,"lon":5.376454,"is_reserved":false,"is_disabled":false,"rental_uris":{"android":"levelo://app?vid=2d65c7e7-8aaf-4ae4-92d0-613f5dce94da","ios":"levelo://app?vid=2d65c7e7-8aaf-4ae4-92d0-613f5dce94da"},"vehicle_type_id":"4","last_reported":1700842119,"current_range_meters":26800,"station_id":"ce4bhh12rcd13ifvqff0","pricing_plan_id":"free"},{"bike_id":"dc096ce8-ca4a-404e-818a-b82d53c5a8dd","system_id":"levelo_inurba_marseille","lat":43.254947,"lon":5.376454,"is_reserved":false,"is_disabled":false,"rental_uris":{"android":"levelo://app?vid=dc096ce8-ca4a-404e-818a-b82d53c5a8dd","ios":"levelo://app?vid=dc096ce8-ca4a-404e-818a-b82d53c5a8dd"},"vehicle_type_id":"4","last_reported":1700842119,"current_range_meters":27600,"station_id":"ce4bhh12rcd13ifvqff0","pricing_plan_id":"free"},{"bike_id":"cf512c81-ad01-4a01-8663-e713e7a1b5dc","system_id":"levelo_inurba_marseille","lat":43.270721,"lon":5.422764,"is_reserved":false,"is_disabled":false,"rental_uris":{"android":"levelo://app?vid=cf512c81-ad01-4a01-8663-e713e7a1b5dc","ios":"levelo://app?vid=cf512c81-ad01-4a01-8663-e713e7a1b5dc"},"vehicle_type_id":"4","last_reported":1700842119,"current_range_meters":14400,"station_id":"ce4bhk92rcd13ifvqgb0","pricing_plan_id":"free"},{"bike_id":"34fb691b-6e49-4e52-a268-65363252d69e","system_id":"levelo_inurba_marseille","lat":43.25866,"lon":5.39897,"is_reserved":false,"is_disabled":false,"rental_uris":{"android":"levelo://app?vid=34fb691b-6e49-4e52-a268-65363252d69e","ios":"levelo://app?vid=34fb691b-6e49-4e52-a268-65363252d69e"},"vehicle_type_id":"4","last_reported":1700842119,"current_range_meters":26400,"station_id":"ce4bhl92rcd13ifvqghg","pricing_plan_id":"free"},{"bike_id":"839eee83-169b-4b70-8cc0-b997652540ce","system_id":"levelo_inurba_marseille","lat":43.25868,"lon":5.39904,"is_reserved":false,"is_disabled":false,"rental_uris":{"android":"levelo://app?vid=839eee83-169b-4b70-8cc0-b997652540ce","ios":"levelo://app?vid=839eee83-169b-4b70-8cc0-b997652540ce"},"vehicle_type_id":"4","last_reported":1700842119,"current_range_meters":30400,"station_id":"ce4bhl92rcd13ifvqghg","pricing_plan_id":"free"},{"bike_id":"416f017b-2a0f-453f-8655-0bf8992430a7","system_id":"levelo_inurba_marseille","lat":43.258658,"lon":5.398935,"is_reserved":false,"is_disabled":false,"rental_uris":{"android":"levelo://app?vid=416f017b-2a0f-453f-8655-0bf8992430a7","ios":"levelo://app?vid=416f017b-2a0f-453f-8655-0bf8992430a7"},"vehicle_type_id":"4","last_reported":1700842119,"current_range_meters":30400,"station_id":"ce4bhl92rcd13ifvqghg","pricing_plan_id":"free"},{"bike_id":"6ff27e72-5fb3-47e2-9294-4a4a1d7a08e2","system_id":"levelo_inurba_marseille","lat":43.258658,"lon":5.398935,"is_reserved":false,"is_disabled":false,"rental_uris":{"android":"levelo://app?vid=6ff27e72-5fb3-47e2-9294-4a4a1d7a08e2","ios":"levelo://app?vid=6ff27e72-5fb3-47e2-9294-4a4a1d7a08e2"},"vehicle_type_id":"4","last_reported":1700842119,"current_range_meters":24400,"station_id":"ce4bhl92rcd13ifvqghg","pricing_plan_id":"free"},{"bike_id":"0283111f-e9f7-4261-be73-ba52da8fdb23","system_id":"levelo_inurba_marseille","lat":43.258658,"lon":5.398935,"is_reserved":false,"is_disabled":false,"rental_uris":{"android":"levelo://app?vid=0283111f-e9f7-4261-be73-ba52da8fdb23","ios":"levelo://app?vid=0283111f-e9f7-4261-be73-ba52da8fdb23"},"vehicle_type_id":"4","last_reported":1700842119,"current_range_meters":29600,"station_id":"ce4bhl92rcd13ifvqghg","pricing_plan_id":"free"},{"bike_id":"e4f7aab8-1aae-4d6a-a0dc-8070d0c6ded1","system_id":"levelo_inurba_marseille","lat":43.257079,"lon":5.411051,"is_reserved":false,"is_disabled":false,"rental_uris":{"android":"levelo://app?vid=e4f7aab8-1aae-4d6a-a0dc-8070d0c6ded1","ios":"levelo://app?vid=e4f7aab8-1aae-4d6a-a0dc-8070d0c6ded1"},"vehicle_type_id":"4","last_reported":1700842119,"current_range_meters":29200,"station_id":"ce4bhkp2rcd13ifvqgd0","pricing_plan_id":"free"},{"bike_id":"4fe7153f-b49a-46b1-a507-c6a1b37b66a5","system_id":"levelo_inurba_marseille","lat":43.257079,"lon":5.411051,"is_reserved":false,"is_disabled":false,"rental_uris":{"android":"levelo://app?vid=4fe7153f-b49a-46b1-a507-c6a1b37b66a5","ios":"levelo://app?vid=4fe7153f-b49a-46b1-a507-c6a1b37b66a5"},"vehicle_type_id":"4","last_reported":1700842119,"current_range_meters":27600,"station_id":"ce4bhkp2rcd13ifvqgd0","pricing_plan_id":"free"},{"bike_id":"fceb39cb-5ded-4b60-9b83-503bfc89a98e","system_id":"levelo_inurba_marseille","lat":43.2479,"lon":5.374457,"is_reserved":false,"is_disabled":false,"rental_uris":{"android":"levelo://app?vid=fceb39cb-5ded-4b60-9b83-503bfc89a98e","ios":"levelo://app?vid=fceb39cb-5ded-4b60-9b83-503bfc89a98e"},"vehicle_type_id":"4","last_reported":1700842119,"current_range_meters":30400,"station_id":"ce4bhgh2rcd13ifvqfb0","pricing_plan_id":"free"},{"bike_id":"38e01a34-6515-4afd-bfe2-090b66e4a4cd","system_id":"levelo_inurba_marseille","lat":43.2479,"lon":5.374457,"is_reserved":false,"is_disabled":false,"rental_uris":{"android":"levelo://app?vid=38e01a34-6515-4afd-bfe2-090b66e4a4cd","ios":"levelo://app?vid=38e01a34-6515-4afd-bfe2-090b66e4a4cd"},"vehicle_type_id":"4","last_reported":1700842119,"current_range_meters":29600,"station_id":"ce4bhgh2rcd13ifvqfb0","pricing_plan_id":"free"},{"bike_id":"a8991c9c-870d-40b8-97b8-6d126028c640","system_id":"levelo_inurba_marseille","lat":43.2479,"lon":5.374457,"is_reserved":false,"is_disabled":false,"rental_uris":{"android":"levelo://app?vid=a8991c9c-870d-40b8-97b8-6d126028c640","ios":"levelo://app?vid=a8991c9c-870d-40b8-97b8-6d126028c640"},"vehicle_type_id":"4","last_reported":1700842119,"current_range_meters":30000,"station_id":"ce4bhgh2rcd13ifvqfb0","pricing_plan_id":"free"},{"bike_id":"eae92935-d2e4-436e-884b-389e9d56d41a","system_id":"levelo_inurba_marseille","lat":43.250966,"lon":5.395186,"is_reserved":false,"is_disabled":false,"rental_uris":{"android":"levelo://app?vid=eae92935-d2e4-436e-884b-389e9d56d41a","ios":"levelo://app?vid=eae92935-d2e4-436e-884b-389e9d56d41a"},"vehicle_type_id":"4","last_reported":1700842119,"current_range_meters":31200,"station_id":"ce4bhm12rcd13ifvqgkg","pricing_plan_id":"free"},{"bike_id":"06bdcf0e-5a9a-4369-8e9b-bf176d97953b","system_id":"levelo_inurba_marseille","lat":43.250966,"lon":5.395186,"is_reserved":false,"is_disabled":false,"rental_uris":{"android":"levelo://app?vid=06bdcf0e-5a9a-4369-8e9b-bf176d97953b","ios":"levelo://app?vid=06bdcf0e-5a9a-4369-8e9b-bf176d97953b"},"vehicle_type_id":"4","last_reported":1700842119,"current_range_meters":30800,"station_id":"ce4bhm12rcd13ifvqgkg","pricing_plan_id":"free"},{"bike_id":"e1279778-f37a-4f58-b65b-2f9527038c82","system_id":"levelo_inurba_marseille","lat":43.25085,"lon":5.39525,"is_reserved":false,"is_disabled":false,"rental_uris":{"android":"levelo://app?vid=e1279778-f37a-4f58-b65b-2f9527038c82","ios":"levelo://app?vid=e1279778-f37a-4f58-b65b-2f9527038c82"},"vehicle_type_id":"4","last_reported":1700842119,"current_range_meters":18800,"station_id":"ce4bhm12rcd13ifvqgkg","pricing_plan_id":"free"},{"bike_id":"957b7262-74a7-4086-b66e-ee2415a42a5a","system_id":"levelo_inurba_marseille","lat":43.250966,"lon":5.395186,"is_reserved":false,"is_disabled":false,"rental_uris":{"android":"levelo://app?vid=957b7262-74a7-4086-b66e-ee2415a42a5a","ios":"levelo://app?vid=957b7262-74a7-4086-b66e-ee2415a42a5a"},"vehicle_type_id":"4","last_reported":1700842119,"current_range_meters":31200,"station_id":"ce4bhm12rcd13ifvqgkg","pricing_plan_id":"free"},{"bike_id":"42f49140-9965-47cd-8af7-3e161c2f7b46","system_id":"levelo_inurba_marseille","lat":43.250966,"lon":5.395186,"is_reserved":false,"is_disabled":false,"rental_uris":{"android":"levelo://app?vid=42f49140-9965-47cd-8af7-3e161c2f7b46","ios":"levelo://app?vid=42f49140-9965-47cd-8af7-3e161c2f7b46"},"vehicle_type_id":"4","last_reported":1700842119,"current_range_meters":22400,"station_id":"ce4bhm12rcd13ifvqgkg","pricing_plan_id":"free"},{"bike_id":"8b2f4673-8019-49f3-a802-e81090c5d1b9","system_id":"levelo_inurba_marseille","lat":43.246627,"lon":5.376693,"is_reserved":false,"is_disabled":false,"rental_uris":{"android":"levelo://app?vid=8b2f4673-8019-49f3-a802-e81090c5d1b9","ios":"levelo://app?vid=8b2f4673-8019-49f3-a802-e81090c5d1b9"},"vehicle_type_id":"4","last_reported":1700842119,"current_range_meters":16400,"station_id":"","pricing_plan_id":"free"},{"bike_id":"f1f14fe8-9d70-43b5-846d-6b6295bee3b3","system_id":"levelo_inurba_marseille","lat":43.24661,"lon":5.38167,"is_reserved":false,"is_disabled":false,"rental_uris":{"android":"levelo://app?vid=f1f14fe8-9d70-43b5-846d-6b6295bee3b3","ios":"levelo://app?vid=f1f14fe8-9d70-43b5-846d-6b6295bee3b3"},"vehicle_type_id":"4","last_reported":1700842119,"current_range_meters":0,"station_id":"ce4bhih2rcd13ifvqfr0","pricing_plan_id":"free"},{"bike_id":"95ae4faa-9f04-4c82-a2d8-ef408f209728","system_id":"levelo_inurba_marseille","lat":43.243884,"lon":5.370736,"is_reserved":false,"is_disabled":false,"rental_uris":{"android":"levelo://app?vid=95ae4faa-9f04-4c82-a2d8-ef408f209728","ios":"levelo://app?vid=95ae4faa-9f04-4c82-a2d8-ef408f209728"},"vehicle_type_id":"4","last_reported":1700842119,"current_range_meters":28800,"station_id":"ce4bhhh2rcd13ifvqfk0","pricing_plan_id":"free"},{"bike_id":"e5734605-a64e-4a89-825d-d184fa7f79ab","system_id":"levelo_inurba_marseille","lat":43.243884,"lon":5.370736,"is_reserved":false,"is_disabled":false,"rental_uris":{"android":"levelo://app?vid=e5734605-a64e-4a89-825d-d184fa7f79ab","ios":"levelo://app?vid=e5734605-a64e-4a89-825d-d184fa7f79ab"},"vehicle_type_id":"4","last_reported":1700842119,"current_range_meters":30400,"station_id":"ce4bhhh2rcd13ifvqfk0","pricing_plan_id":"free"},{"bike_id":"b6a3294a-d08b-4856-bc2d-cb266764db07","system_id":"levelo_inurba_marseille","lat":43.243884,"lon":5.370737,"is_reserved":false,"is_disabled":false,"rental_uris":{"android":"levelo://app?vid=b6a3294a-d08b-4856-bc2d-cb266764db07","ios":"levelo://app?vid=b6a3294a-d08b-4856-bc2d-cb266764db07"},"vehicle_type_id":"4","last_reported":1700842119,"current_range_meters":31600,"station_id":"ce4bhhh2rcd13ifvqfk0","pricing_plan_id":"free"},{"bike_id":"2b7297be-9a58-4ce9-9f65-ab39d74fd395","system_id":"levelo_inurba_marseille","lat":43.243884,"lon":5.370737,"is_reserved":false,"is_disabled":false,"rental_uris":{"android":"levelo://app?vid=2b7297be-9a58-4ce9-9f65-ab39d74fd395","ios":"levelo://app?vid=2b7297be-9a58-4ce9-9f65-ab39d74fd395"},"vehicle_type_id":"4","last_reported":1700842119,"current_range_meters":18800,"station_id":"ce4bhhh2rcd13ifvqfk0","pricing_plan_id":"free"},{"bike_id":"7bf10401-c483-4424-96fe-c1e1def140b2","system_id":"levelo_inurba_marseille","lat":43.243884,"lon":5.370736,"is_reserved":false,"is_disabled":false,"rental_uris":{"android":"levelo://app?vid=7bf10401-c483-4424-96fe-c1e1def140b2","ios":"levelo://app?vid=7bf10401-c483-4424-96fe-c1e1def140b2"},"vehicle_type_id":"4","last_reported":1700842119,"current_range_meters":26000,"station_id":"ce4bhhh2rcd13ifvqfk0","pricing_plan_id":"free"},{"bike_id":"c21e755a-7a65-4322-9deb-bc67939974fc","system_id":"levelo_inurba_marseille","lat":43.243884,"lon":5.370737,"is_reserved":false,"is_disabled":false,"rental_uris":{"android":"levelo://app?vid=c21e755a-7a65-4322-9deb-bc67939974fc","ios":"levelo://app?vid=c21e755a-7a65-4322-9deb-bc67939974fc"},"vehicle_type_id":"4","last_reported":1700842119,"current_range_meters":30800,"station_id":"ce4bhhh2rcd13ifvqfk0","pricing_plan_id":"free"},{"bike_id":"37a91800-392f-4ba8-a060-fafd20b8850e","system_id":"levelo_inurba_marseille","lat":43.243884,"lon":5.370736,"is_reserved":false,"is_disabled":false,"rental_uris":{"android":"levelo://app?vid=37a91800-392f-4ba8-a060-fafd20b8850e","ios":"levelo://app?vid=37a91800-392f-4ba8-a060-fafd20b8850e"},"vehicle_type_id":"4","last_reported":1700842119,"current_range_meters":31200,"station_id":"ce4bhhh2rcd13ifvqfk0","pricing_plan_id":"free"},{"bike_id":"56b0f98d-ecc1-47fa-bd3e-9dc560c42354","system_id":"levelo_inurba_marseille","lat":43.2397,"lon":5.36627,"is_reserved":false,"is_disabled":false,"rental_uris":{"android":"levelo://app?vid=56b0f98d-ecc1-47fa-bd3e-9dc560c42354","ios":"levelo://app?vid=56b0f98d-ecc1-47fa-bd3e-9dc560c42354"},"vehicle_type_id":"4","last_reported":1700842119,"current_range_meters":21200,"station_id":"ce4bhi12rcd13ifvqfp0","pricing_plan_id":"free"},{"bike_id":"3c7fa71f-eea3-4dca-beba-593f51f59c9c","system_id":"levelo_inurba_marseille","lat":43.239667,"lon":5.366317,"is_reserved":false,"is_disabled":false,"rental_uris":{"android":"levelo://app?vid=3c7fa71f-eea3-4dca-beba-593f51f59c9c","ios":"levelo://app?vid=3c7fa71f-eea3-4dca-beba-593f51f59c9c"},"vehicle_type_id":"4","last_reported":1700842119,"current_range_meters":15600,"station_id":"","pricing_plan_id":"free"},{"bike_id":"3ef70aed-f117-47c7-8cf5-f087e626237b","system_id":"levelo_inurba_marseille","lat":43.239616,"lon":5.366406,"is_reserved":false,"is_disabled":false,"rental_uris":{"android":"levelo://app?vid=3ef70aed-f117-47c7-8cf5-f087e626237b","ios":"levelo://app?vid=3ef70aed-f117-47c7-8cf5-f087e626237b"},"vehicle_type_id":"4","last_reported":1700842119,"current_range_meters":11600,"station_id":"ce4bhi12rcd13ifvqfp0","pricing_plan_id":"free"},{"bike_id":"faa5696c-5bf0-46dc-84ae-0a7bc1e2d5ef","system_id":"levelo_inurba_marseille","lat":43.23961,"lon":5.36643,"is_reserved":false,"is_disabled":false,"rental_uris":{"android":"levelo://app?vid=faa5696c-5bf0-46dc-84ae-0a7bc1e2d5ef","ios":"levelo://app?vid=faa5696c-5bf0-46dc-84ae-0a7bc1e2d5ef"},"vehicle_type_id":"4","last_reported":1700842119,"current_range_meters":25600,"station_id":"ce4bhi12rcd13ifvqfp0","pricing_plan_id":"free"},{"bike_id":"124f1bf7-9af9-4782-a052-dd6aa38caf9d","system_id":"levelo_inurba_marseille","lat":43.23961,"lon":5.3664,"is_reserved":false,"is_disabled":false,"rental_uris":{"android":"levelo://app?vid=124f1bf7-9af9-4782-a052-dd6aa38caf9d","ios":"levelo://app?vid=124f1bf7-9af9-4782-a052-dd6aa38caf9d"},"vehicle_type_id":"4","last_reported":1700842119,"current_range_meters":30000,"station_id":"ce4bhi12rcd13ifvqfp0","pricing_plan_id":"free"},{"bike_id":"884cad8c-9715-4994-b1f8-a21278fa1a1d","system_id":"levelo_inurba_marseille","lat":43.23961,"lon":5.36637,"is_reserved":false,"is_disabled":false,"rental_uris":{"android":"levelo://app?vid=884cad8c-9715-4994-b1f8-a21278fa1a1d","ios":"levelo://app?vid=884cad8c-9715-4994-b1f8-a21278fa1a1d"},"vehicle_type_id":"4","last_reported":1700842119,"current_range_meters":28000,"station_id":"ce4bhi12rcd13ifvqfp0","pricing_plan_id":"free"},{"bike_id":"1a7a1613-1624-4afd-bf68-9497936761e0","system_id":"levelo_inurba_marseille","lat":43.23959,"lon":5.36635,"is_reserved":false,"is_disabled":false,"rental_uris":{"android":"levelo://app?vid=1a7a1613-1624-4afd-bf68-9497936761e0","ios":"levelo://app?vid=1a7a1613-1624-4afd-bf68-9497936761e0"},"vehicle_type_id":"4","last_reported":1700842119,"current_range_meters":15600,"station_id":"ce4bhi12rcd13ifvqfp0","pricing_plan_id":"free"},{"bike_id":"8904bfdf-f635-49c0-b8a9-6f183c7a093b","system_id":"levelo_inurba_marseille","lat":43.23958,"lon":5.36638,"is_reserved":false,"is_disabled":false,"rental_uris":{"android":"levelo://app?vid=8904bfdf-f635-49c0-b8a9-6f183c7a093b","ios":"levelo://app?vid=8904bfdf-f635-49c0-b8a9-6f183c7a093b"},"vehicle_type_id":"4","last_reported":1700842119,"current_range_meters":29600,"station_id":"ce4bhi12rcd13ifvqfp0","pricing_plan_id":"free"},{"bike_id":"92e68e6f-e26b-40b3-91a6-9478c41a931b","system_id":"levelo_inurba_marseille","lat":43.236305,"lon":5.38859,"is_reserved":false,"is_disabled":false,"rental_uris":{"android":"levelo://app?vid=92e68e6f-e26b-40b3-91a6-9478c41a931b","ios":"levelo://app?vid=92e68e6f-e26b-40b3-91a6-9478c41a931b"},"vehicle_type_id":"4","last_reported":1700842119,"current_range_meters":12000,"station_id":"ce4bhnp2rcd13ifvqgvg","pricing_plan_id":"free"},{"bike_id":"edd2b3c8-67fd-4064-8af7-f698e6d9963c","system_id":"levelo_inurba_marseille","lat":43.231919,"lon":5.355532,"is_reserved":false,"is_disabled":false,"rental_uris":{"android":"levelo://app?vid=edd2b3c8-67fd-4064-8af7-f698e6d9963c","ios":"levelo://app?vid=edd2b3c8-67fd-4064-8af7-f698e6d9963c"},"vehicle_type_id":"4","last_reported":1700842119,"current_range_meters":25200,"station_id":"ce4bhu92rcd13ifvqi70","pricing_plan_id":"free"},{"bike_id":"0a349838-8936-442e-8a55-c173dbb54834","system_id":"levelo_inurba_marseille","lat":43.231919,"lon":5.355532,"is_reserved":false,"is_disabled":false,"rental_uris":{"android":"levelo://app?vid=0a349838-8936-442e-8a55-c173dbb54834","ios":"levelo://app?vid=0a349838-8936-442e-8a55-c173dbb54834"},"vehicle_type_id":"4","last_reported":1700842119,"current_range_meters":29600,"station_id":"ce4bhu92rcd13ifvqi70","pricing_plan_id":"free"},{"bike_id":"aeb874ed-5a67-45f7-94cd-1c1e110219bc","system_id":"levelo_inurba_marseille","lat":43.231919,"lon":5.355532,"is_reserved":false,"is_disabled":false,"rental_uris":{"android":"levelo://app?vid=aeb874ed-5a67-45f7-94cd-1c1e110219bc","ios":"levelo://app?vid=aeb874ed-5a67-45f7-94cd-1c1e110219bc"},"vehicle_type_id":"4","last_reported":1700842119,"current_range_meters":31200,"station_id":"ce4bhu92rcd13ifvqi70","pricing_plan_id":"free"},{"bike_id":"0c6b2677-ce68-4f02-9a73-e017061e320e","system_id":"levelo_inurba_marseille","lat":43.231793,"lon":5.400044,"is_reserved":false,"is_disabled":false,"rental_uris":{"android":"levelo://app?vid=0c6b2677-ce68-4f02-9a73-e017061e320e","ios":"levelo://app?vid=0c6b2677-ce68-4f02-9a73-e017061e320e"},"vehicle_type_id":"4","last_reported":1700842119,"current_range_meters":31200,"station_id":"ce4bhn12rcd13ifvqgqg","pricing_plan_id":"free"},{"bike_id":"216d01e0-0894-4b88-9379-35377c1f196b","system_id":"levelo_inurba_marseille","lat":43.231794,"lon":5.400052,"is_reserved":false,"is_disabled":false,"rental_uris":{"android":"levelo://app?vid=216d01e0-0894-4b88-9379-35377c1f196b","ios":"levelo://app?vid=216d01e0-0894-4b88-9379-35377c1f196b"},"vehicle_type_id":"4","last_reported":1700842119,"current_range_meters":31600,"station_id":"ce4bhn12rcd13ifvqgqg","pricing_plan_id":"free"},{"bike_id":"9780e49b-8eb6-4c96-95ee-9b6d1e553d68","system_id":"levelo_inurba_marseille","lat":43.231794,"lon":5.400052,"is_reserved":false,"is_disabled":false,"rental_uris":{"android":"levelo://app?vid=9780e49b-8eb6-4c96-95ee-9b6d1e553d68","ios":"levelo://app?vid=9780e49b-8eb6-4c96-95ee-9b6d1e553d68"},"vehicle_type_id":"4","last_reported":1700842119,"current_range_meters":26800,"station_id":"ce4bhn12rcd13ifvqgqg","pricing_plan_id":"free"},{"bike_id":"42b71bb2-3e67-452d-bdb5-18d18eec3243","system_id":"levelo_inurba_marseille","lat":43.231794,"lon":5.400052,"is_reserved":false,"is_disabled":false,"rental_uris":{"android":"levelo://app?vid=42b71bb2-3e67-452d-bdb5-18d18eec3243","ios":"levelo://app?vid=42b71bb2-3e67-452d-bdb5-18d18eec3243"},"vehicle_type_id":"4","last_reported":1700842119,"current_range_meters":30400,"station_id":"ce4bhn12rcd13ifvqgqg","pricing_plan_id":"free"},{"bike_id":"0945036d-9858-4086-b41b-ec6e60edb8ad","system_id":"levelo_inurba_marseille","lat":43.231794,"lon":5.400052,"is_reserved":false,"is_disabled":false,"rental_uris":{"android":"levelo://app?vid=0945036d-9858-4086-b41b-ec6e60edb8ad","ios":"levelo://app?vid=0945036d-9858-4086-b41b-ec6e60edb8ad"},"vehicle_type_id":"4","last_reported":1700842119,"current_range_meters":30000,"station_id":"ce4bhn12rcd13ifvqgqg","pricing_plan_id":"free"},{"bike_id":"df7e6c4d-a3bc-48a2-a471-a72390a84d34","system_id":"levelo_inurba_marseille","lat":43.231793,"lon":5.400044,"is_reserved":false,"is_disabled":false,"rental_uris":{"android":"levelo://app?vid=df7e6c4d-a3bc-48a2-a471-a72390a84d34","ios":"levelo://app?vid=df7e6c4d-a3bc-48a2-a471-a72390a84d34"},"vehicle_type_id":"4","last_reported":1700842119,"current_range_meters":22400,"station_id":"ce4bhn12rcd13ifvqgqg","pricing_plan_id":"free"},{"bike_id":"330a00ea-2930-409e-9e01-e23d5e12ceb5","system_id":"levelo_inurba_marseille","lat":43.231794,"lon":5.400052,"is_reserved":false,"is_disabled":false,"rental_uris":{"android":"levelo://app?vid=330a00ea-2930-409e-9e01-e23d5e12ceb5","ios":"levelo://app?vid=330a00ea-2930-409e-9e01-e23d5e12ceb5"},"vehicle_type_id":"4","last_reported":1700842119,"current_range_meters":20800,"station_id":"ce4bhn12rcd13ifvqgqg","pricing_plan_id":"free"},{"bike_id":"0d65e76d-9880-4e2c-a36d-b8425499c90e","system_id":"levelo_inurba_marseille","lat":43.231793,"lon":5.400044,"is_reserved":false,"is_disabled":false,"rental_uris":{"android":"levelo://app?vid=0d65e76d-9880-4e2c-a36d-b8425499c90e","ios":"levelo://app?vid=0d65e76d-9880-4e2c-a36d-b8425499c90e"},"vehicle_type_id":"4","last_reported":1700842119,"current_range_meters":16800,"station_id":"ce4bhn12rcd13ifvqgqg","pricing_plan_id":"free"},{"bike_id":"da87daf2-f98c-4e9d-91e4-b6c8aae730d9","system_id":"levelo_inurba_marseille","lat":43.23184,"lon":5.39993,"is_reserved":false,"is_disabled":false,"rental_uris":{"android":"levelo://app?vid=da87daf2-f98c-4e9d-91e4-b6c8aae730d9","ios":"levelo://app?vid=da87daf2-f98c-4e9d-91e4-b6c8aae730d9"},"vehicle_type_id":"4","last_reported":1700842119,"current_range_meters":26800,"station_id":"ce4bhn12rcd13ifvqgqg","pricing_plan_id":"free"},{"bike_id":"37e6a089-bbff-4b26-a2ae-332c62d0185b","system_id":"levelo_inurba_marseille","lat":43.231793,"lon":5.400044,"is_reserved":false,"is_disabled":false,"rental_uris":{"android":"levelo://app?vid=37e6a089-bbff-4b26-a2ae-332c62d0185b","ios":"levelo://app?vid=37e6a089-bbff-4b26-a2ae-332c62d0185b"},"vehicle_type_id":"4","last_reported":1700842119,"current_range_meters":27200,"station_id":"ce4bhn12rcd13ifvqgqg","pricing_plan_id":"free"},{"bike_id":"4b6183ea-c306-4c26-8d63-aae6ff185ad2","system_id":"levelo_inurba_marseille","lat":43.231794,"lon":5.400052,"is_reserved":false,"is_disabled":false,"rental_uris":{"android":"levelo://app?vid=4b6183ea-c306-4c26-8d63-aae6ff185ad2","ios":"levelo://app?vid=4b6183ea-c306-4c26-8d63-aae6ff185ad2"},"vehicle_type_id":"4","last_reported":1700842119,"current_range_meters":17200,"station_id":"ce4bhn12rcd13ifvqgqg","pricing_plan_id":"free"},{"bike_id":"9c2bf53e-bbf1-4349-bc38-b78a298e6986","system_id":"levelo_inurba_marseille","lat":43.231793,"lon":5.400044,"is_reserved":false,"is_disabled":false,"rental_uris":{"android":"levelo://app?vid=9c2bf53e-bbf1-4349-bc38-b78a298e6986","ios":"levelo://app?vid=9c2bf53e-bbf1-4349-bc38-b78a298e6986"},"vehicle_type_id":"4","last_reported":1700842119,"current_range_meters":31200,"station_id":"ce4bhn12rcd13ifvqgqg","pricing_plan_id":"free"},{"bike_id":"b08916c8-e7dd-4d0d-997a-0c74ed1c58de","system_id":"levelo_inurba_marseille","lat":43.231562,"lon":5.436933,"is_reserved":false,"is_disabled":false,"rental_uris":{"android":"levelo://app?vid=b08916c8-e7dd-4d0d-997a-0c74ed1c58de","ios":"levelo://app?vid=b08916c8-e7dd-4d0d-997a-0c74ed1c58de"},"vehicle_type_id":"4","last_reported":1700842119,"current_range_meters":0,"station_id":"ce4bhmp2rcd13ifvqgog","pricing_plan_id":"free"}]}}