{"last_updated":1748549542,"ttl":60,"version":"2.2","data":{"bikes":[{"bike_id":"55d42eeb-6b71-4987-a0f2-3d758b10d43e","system_id":"levelo_inurba_marseille","lat":43.33771,"lon":5.37424,"is_reserved":false,"is_disabled":true,"rental_uris":{"android":"levelo://app?vid=55d42eeb-6b71-4987-a0f2-3d758b10d43e","ios":"levelo://app?vid=55d42eeb-6b71-4987-a0f2-3d758b10d43e"},"vehicle_type_id":"4","last_reported":1748549542,"current_range_meters":0,"station_id":"","pricing_plan_id":"cebpf4jnsgd1na2vs0mg"},{"bike_id":"b0e2300b-cafc-4d59-b30f-70aae6a0084c","system_id":"levelo_inurba_marseille","lat":43.30054,"lon":5.40183,"is_reserved":false,"is_disabled":true,"rental_uris":{"android":"levelo://app?vid=b0e2300b-cafc-4d59-b30f-70aae6a0084c","ios":"levelo://app?vid=b0e2300b-cafc-4d59-b30f-70aae6a0084c"},"vehicle_type_id":"4","last_reported":1748549542,"current_range_meters":0,"station_id":"","pricing_plan_id":"cebpf4jnsgd1na2vs0mg"},{"bike_id":"b7fe4621-b706-42f0-9085-4811142f84e8","system_id":"levelo_inurba_marseille","lat":43.337499,"lon":5.374469,"is_reserved":false,"is_disabled":true,"rental_uris":{"android":"levelo://app?vid=b7fe4621-b706-42f0-9085-4811142f84e8","ios":"levelo://app?vid=b7fe4621-b706-42f0-9085-4811142f84e8"},"vehicle_type_id":"4","last_reported":1748549542,"current_range_meters":0,"station_id":"","pricing_plan_id":"cebpf4jnsgd1na2vs0mg"},{"bike_id":"026ed65d-07ee-4955-b98a-dcd4f8ac417e","system_id":"levelo_inurba_marseille","lat":43.21781,"lon":5.34583,"is_reserved":false,"is_disabled":true,"rental_uris":{"android":"levelo://app?vid=026ed65d-07ee-4955-b98a-dcd4f8ac417e","ios":"levelo://app?vid=026ed65d-07ee-4955-b98a-dcd4f8ac417e"},"vehicle_type_id":"4","last_reported":1748549542,"current_range_meters":0,"station_id":"","pricing_plan_id":"cebpf4jnsgd1na2vs0mg"},{"bike_id":"2a4c12b9-20f8-4a57-9dbe-920bc253b604","system_id":"levelo_inurba_marseille","lat":43.33008,"lon":5.38388,"is_reserved":false,"is_disabled":true,"rental_uris":{"android":"levelo://app?vid=2a4c12b9-20f8-4a57-9dbe-920bc253b604","ios":"levelo://app?vid=2a4c12b9-20f8-4a57-9dbe-920bc253b604"},"vehicle_type_id":"4","last_reported":1748549542,"current_range_meters":0,"station_id":"","pricing_plan_id":"cebpf4jnsgd1na2vs0mg"},{"bike_id":"ad402f0f-3192-410c-afac-8cf064a40c6d","system_id":"levelo_inurba_marseille","lat":43.337444,"lon":5.374475,"is_reserved":false,"is_disabled":true,"rental_uris":{"android":"levelo://app?vid=ad402f0f-3192-410c-afac-8cf064a40c6d","ios":"levelo://app?vid=ad402f0f-3192-410c-afac-8cf064a40c6d"},"vehicle_type_id":"4","last_reported":1748549542,"current_range_meters":0,"station_id":"","pricing_plan_id":"cebpf4jnsgd1na2vs0mg"},{"bike_id":"64fceeed-f4e8-40df-995a-9a2b05abc560","system_id":"levelo_inurba_marseille","lat":43.32554,"lon":5.42976,"is_reserved":false,"is_disabled":true,"rental_uris":{"android":"levelo://app?vid=64fceeed-f4e8-40df-995a-9a2b05abc560","ios":"levelo://app?vid=64fceeed-f4e8-40df-995a-9a2b05abc560"},"vehicle_type_id":"4","last_reported":1748549542,"current_range_meters":0,"station_id":"","pricing_plan_id":"cebpf4jnsgd1na2vs0mg"},{"bike_id":"80dc1064-d63f-4a22-ad21-d8abd70986c0","system_id":"levelo_inurba_marseille","lat":43.337463,"lon":5.374736,"is_reserved":false,"is_disabled":true,"rental_uris":{"android":"levelo://app?vid=80dc1064-d63f-4a22-ad21-d8abd70986c0","ios":"levelo://app?vid=80dc1064-d63f-4a22-ad21-d8abd70986c0"},"vehicle_type_id":"4","last_reported":1748549542,"current_range_meters":0,"station_id":"","pricing_plan_id":"cebpf4jnsgd1na2vs0mg"},{"bike_id":"2c08f058-11cb-4c96-b63a-5cf20fe05e84","system_id":"levelo_inurba_marseille","lat":43.301363,"lon":5.387826,"is_reserved":false,"is_disabled":true,"rental_uris":{"android":"levelo://app?vid=2c08f058-11cb-4c96-b63a-5cf20fe05e84","ios":"levelo://app?vid=2c08f058-11cb-4c96-b63a-5cf20fe05e84"},"vehicle_type_id":"4","last_reported":1748549542,"current_range_meters":0,"station_id":"","pricing_plan_id":"cebpf4jnsgd1na2vs0mg"},{"bike_id":"987b70df-a246-4bbc-966b-0c7b3f4b7350","system_id":"levelo_inurba_marseille","lat":43.28214,"lon":5.39046,"is_reserved":false,"is_disabled":true,"rental_uris":{"android":"levelo://app?vid=987b70df-a246-4bbc-966b-0c7b3f4b7350","ios":"levelo://app?vid=987b70df-a246-4bbc-966b-0c7b3f4b7350"},"vehicle_type_id":"4","last_reported":1748549542,"current_range_meters":0,"station_id":"","pricing_plan_id":"cebpf4jnsgd1na2vs0mg"},{"bike_id":"2fd7e160-685c-4858-b57b-dcaef27a8e94","system_id":"levelo_inurba_marseille","lat":43.230331,"lon":5.401847,"is_reserved":false,"is_disabled":true,"rental_uris":{"android":"levelo://app?vid=2fd7e160-685c-4858-b57b-dcaef27a8e94","ios":"levelo://app?vid=2fd7e160-685c-4858-b57b-dcaef27a8e94"},"vehicle_type_id":"4","last_reported":1748549542,"current_range_meters":0,"station_id":"","pricing_plan_id":"cebpf4jnsgd1na2vs0mg"},{"bike_id":"4e768fff-e08e-40de-8983-4c67a7f5bba3","system_id":"levelo_inurba_marseille","lat":43.29293,"lon":5.37437,"is_reserved":false,"is_disabled":true,"rental_uris":{"android":"levelo://app?vid=4e768fff-e08e-40de-8983-4c67a7f5bba3","ios":"levelo://app?vid=4e768fff-e08e-40de-8983-4c67a7f5bba3"},"vehicle_type_id":"4","last_reported":1748549542,"current_range_meters":0,"station_id":"ce4bgi12rcd13ifvqb70","pricing_plan_id":"cebpf4jnsgd1na2vs0mg"},{"bike_id":"f95ba388-7052-4ad9-b758-1e35d189f196","system_id":"levelo_inurba_marseille","lat":43.299622,"lon":5.384875,"is_reserved":false,"is_disabled":false,"rental_uris":{"android":"levelo://app?vid=f95ba388-7052-4ad9-b758-1e35d189f196","ios":"levelo://app?vid=f95ba388-7052-4ad9-b758-1e35d189f196"},"vehicle_type_id":"4","last_reported":1748549542,"current_range_meters":0,"station_id":"ce4bgj92rcd13ifvqbd0","pricing_plan_id":"cebpf4jnsgd1na2vs0mg"},{"bike_id":"36223fa7-37e5-42e3-9032-784753ecf9b4","system_id":"levelo_inurba_marseille","lat":43.30794,"lon":5.37647,"is_reserved":false,"is_disabled":true,"rental_uris":{"android":"levelo://app?vid=36223fa7-37e5-42e3-9032-784753ecf9b4","ios":"levelo://app?vid=36223fa7-37e5-42e3-9032-784753ecf9b4"},"vehicle_type_id":"4","last_reported":1748549542,"current_range_meters":0,"station_id":"ce4bgv92rcd13ifvqcq0","pricing_plan_id":"cebpf4jnsgd1na2vs0mg"},{"bike_id":"5e5e4cfd-fde0-45ad-8ee2-cecb8b515c70","system_id":"levelo_inurba_marseille","lat":43.29272,"lon":5.38426,"is_reserved":false,"is_disabled":true,"rental_uris":{"android":"levelo://app?vid=5e5e4cfd-fde0-45ad-8ee2-cecb8b515c70","ios":"levelo://app?vid=5e5e4cfd-fde0-45ad-8ee2-cecb8b515c70"},"vehicle_type_id":"4","last_reported":1748549542,"current_range_meters":0,"station_id":"ce4bh692rcd13ifvqea0","pricing_plan_id":"cebpf4jnsgd1na2vs0mg"},{"bike_id":"7ef9bb47-8217-4993-a51e-c3315d592a05","system_id":"levelo_inurba_marseille","lat":43.251154,"lon":5.403276,"is_reserved":false,"is_disabled":true,"rental_uris":{"android":"levelo://app?vid=7ef9bb47-8217-4993-a51e-c3315d592a05","ios":"levelo://app?vid=7ef9bb47-8217-4993-a51e-c3315d592a05"},"vehicle_type_id":"4","last_reported":1748549542,"current_range_meters":0,"station_id":"ce4bhlh2rcd13ifvqgig","pricing_plan_id":"cebpf4jnsgd1na2vs0mg"},{"bike_id":"74d03a7f-e646-4519-9f75-ee5a39fcc825","system_id":"levelo_inurba_marseille","lat":43.30377,"lon":5.42484,"is_reserved":false,"is_disabled":true,"rental_uris":{"android":"levelo://app?vid=74d03a7f-e646-4519-9f75-ee5a39fcc825","ios":"levelo://app?vid=74d03a7f-e646-4519-9f75-ee5a39fcc825"},"vehicle_type_id":"4","last_reported":1748549542,"current_range_meters":0,"station_id":"ce4bhoh2rcd13ifvqh6g","pricing_plan_id":"cebpf4jnsgd1na2vs0mg"},{"bike_id":"cd018a14-e83d-4d40-ac42-b66ab9d8e9cc","system_id":"levelo_inurba_marseille","lat":43.2252,"lon":5.34827,"is_reserved":false,"is_disabled":true,"rental_uris":{"android":"levelo://app?vid=cd018a14-e83d-4d40-ac42-b66ab9d8e9cc","ios":"levelo://app?vid=cd018a14-e83d-4d40-ac42-b66ab9d8e9cc"},"vehicle_type_id":"4","last_reported":1748549542,"current_range_meters":0,"station_id":"st_cvj5dfep6f1abm77gieg","pricing_plan_id":"cebpf4jnsgd1na2vs0mg"},{"bike_id":"23c85c8e-4c43-4b2c-9f21-d3b371c82943","system_id":"levelo_inurba_marseille","lat":43.21755,"lon":5.34599,"is_reserved":false,"is_disabled":true,"rental_uris":{"android":"levelo://app?vid=23c85c8e-4c43-4b2c-9f21-d3b371c82943","ios":"levelo://app?vid=23c85c8e-4c43-4b2c-9f21-d3b371c82943"},"vehicle_type_id":"4","last_reported":1748549542,"current_range_meters":0,"station_id":"st_cvj6r9ubvosntc0bgbag","pricing_plan_id":"cebpf4jnsgd1na2vs0mg"},{"bike_id":"aa65ca4f-c082-4513-bd14-2e984aa1f5f9","system_id":"levelo_inurba_marseille","lat":43.25924,"lon":5.40907,"is_reserved":false,"is_disabled":true,"rental_uris":{"android":"levelo://app?vid=aa65ca4f-c082-4513-bd14-2e984aa1f5f9","ios":"levelo://app?vid=aa65ca4f-c082-4513-bd14-2e984aa1f5f9"},"vehicle_type_id":"4","last_reported":1748549542,"current_range_meters":400,"station_id":"ce4bhm92rcd13ifvqglg","pricing_plan_id":"cebpf4jnsgd1na2vs0mg"},{"bike_id":"180e4da0-00a9-4461-bfd1-11630824fb3b","system_id":"levelo_inurba_marseille","lat":43.24331,"lon":5.401619,"is_reserved":false,"is_disabled":true,"rental_uris":{"android":"levelo://app?vid=180e4da0-00a9-4461-bfd1-11630824fb3b","ios":"levelo://app?vid=180e4da0-00a9-4461-bfd1-11630824fb3b"},"vehicle_type_id":"4","last_reported":1748549542,"current_range_meters":800,"station_id":"","pricing_plan_id":"cebpf4jnsgd1na2vs0mg"},{"bike_id":"d2109634-a7ba-474f-9ad6-fb422b2ced0d","system_id":"levelo_inurba_marseille","lat":43.29627,"lon":5.40587,"is_reserved":false,"is_disabled":true,"rental_uris":{"android":"levelo://app?vid=d2109634-a7ba-474f-9ad6-fb422b2ced0d","ios":"levelo://app?vid=d2109634-a7ba-474f-9ad6-fb422b2ced0d"},"vehicle_type_id":"4","last_reported":1748549542,"current_range_meters":800,"station_id":"ce4bh0h2rcd13ifvqd60","pricing_plan_id":"cebpf4jnsgd1na2vs0mg"},{"bike_id":"64afff17-2b15-4ae8-b7c4-9150789a1957","system_id":"levelo_inurba_marseille","lat":43.29264,"lon":5.38432,"is_reserved":false,"is_disabled":true,"rental_uris":{"android":"levelo://app?vid=64afff17-2b15-4ae8-b7c4-9150789a1957","ios":"levelo://app?vid=64afff17-2b15-4ae8-b7c4-9150789a1957"},"vehicle_type_id":"4","last_reported":1748549542,"current_range_meters":800,"station_id":"ce4bh692rcd13ifvqea0","pricing_plan_id":"cebpf4jnsgd1na2vs0mg"},{"bike_id":"3e49c556-79d7-457a-9d9d-20606af03267","system_id":"levelo_inurba_marseille","lat":43.25493,"lon":5.37644,"is_reserved":false,"is_disabled":true,"rental_uris":{"android":"levelo://app?vid=3e49c556-79d7-457a-9d9d-20606af03267","ios":"levelo://app?vid=3e49c556-79d7-457a-9d9d-20606af03267"},"vehicle_type_id":"4","last_reported":1748549542,"current_range_meters":800,"station_id":"ce4bhh12rcd13ifvqff0","pricing_plan_id":"cebpf4jnsgd1na2vs0mg"},{"bike_id":"5215640d-2fd5-4a51-af38-ba665e8ec76a","system_id":"levelo_inurba_marseille","lat":43.3261,"lon":5.43058,"is_reserved":false,"is_disabled":true,"rental_uris":{"android":"levelo://app?vid=5215640d-2fd5-4a51-af38-ba665e8ec76a","ios":"levelo://app?vid=5215640d-2fd5-4a51-af38-ba665e8ec76a"},"vehicle_type_id":"4","last_reported":1748549542,"current_range_meters":1200,"station_id":"","pricing_plan_id":"cebpf4jnsgd1na2vs0mg"},{"bike_id":"0f265ce4-d8bb-4ee7-990f-abbf9b8888a7","system_id":"levelo_inurba_marseille","lat":43.28234,"lon":5.39055,"is_reserved":false,"is_disabled":true,"rental_uris":{"android":"levelo://app?vid=0f265ce4-d8bb-4ee7-990f-abbf9b8888a7","ios":"levelo://app?vid=0f265ce4-d8bb-4ee7-990f-abbf9b8888a7"},"vehicle_type_id":"4","last_reported":1748549542,"current_range_meters":1200,"station_id":"","pricing_plan_id":"cebpf4jnsgd1na2vs0mg"},{"bike_id":"4e8d1e13-51bc-46db-85fc-fef572607929","system_id":"levelo_inurba_marseille","lat":43.308953,"lon":5.396592,"is_reserved":false,"is_disabled":true,"rental_uris":{"android":"levelo://app?vid=4e8d1e13-51bc-46db-85fc-fef572607929","ios":"levelo://app?vid=4e8d1e13-51bc-46db-85fc-fef572607929"},"vehicle_type_id":"4","last_reported":1748549542,"current_range_meters":1200,"station_id":"ce4bh012rcd13ifvqcv0","pricing_plan_id":"cebpf4jnsgd1na2vs0mg"},{"bike_id":"f5d05897-ffa4-45f3-a993-64e397e1ddb6","system_id":"levelo_inurba_marseille","lat":43.29276,"lon":5.40124,"is_reserved":false,"is_disabled":true,"rental_uris":{"android":"levelo://app?vid=f5d05897-ffa4-45f3-a993-64e397e1ddb6","ios":"levelo://app?vid=f5d05897-ffa4-45f3-a993-64e397e1ddb6"},"vehicle_type_id":"4","last_reported":1748549542,"current_range_meters":1200,"station_id":"ce4bh312rcd13ifvqdk0","pricing_plan_id":"cebpf4jnsgd1na2vs0mg"},{"bike_id":"12d82717-493b-4e9e-a776-4cc57c58f0e1","system_id":"levelo_inurba_marseille","lat":43.26687,"lon":5.38267,"is_reserved":false,"is_disabled":true,"rental_uris":{"android":"levelo://app?vid=12d82717-493b-4e9e-a776-4cc57c58f0e1","ios":"levelo://app?vid=12d82717-493b-4e9e-a776-4cc57c58f0e1"},"vehicle_type_id":"4","last_reported":1748549542,"current_range_meters":1200,"station_id":"ce4bhg92rcd13ifvqf90","pricing_plan_id":"cebpf4jnsgd1na2vs0mg"},{"bike_id":"e0393923-479a-4036-862e-6c5b2c77fd1e","system_id":"levelo_inurba_marseille","lat":43.26203,"lon":5.37925,"is_reserved":false,"is_disabled":true,"rental_uris":{"android":"levelo://app?vid=e0393923-479a-4036-862e-6c5b2c77fd1e","ios":"levelo://app?vid=e0393923-479a-4036-862e-6c5b2c77fd1e"},"vehicle_type_id":"4","last_reported":1748549542,"current_range_meters":1200,"station_id":"ce4bhjp2rcd13ifvqg90","pricing_plan_id":"cebpf4jnsgd1na2vs0mg"},{"bike_id":"905911a0-7b6f-416a-b65c-aec34d47998b","system_id":"levelo_inurba_marseille","lat":43.297546,"lon":5.370045,"is_reserved":false,"is_disabled":true,"rental_uris":{"android":"levelo://app?vid=905911a0-7b6f-416a-b65c-aec34d47998b","ios":"levelo://app?vid=905911a0-7b6f-416a-b65c-aec34d47998b"},"vehicle_type_id":"4","last_reported":1748549542,"current_range_meters":1600,"station_id":"","pricing_plan_id":"cebpf4jnsgd1na2vs0mg"},{"bike_id":"b6248d4e-41a2-4ad7-baa6-b6867dc99581","system_id":"levelo_inurba_marseille","lat":43.27195,"lon":5.40973,"is_reserved":false,"is_disabled":true,"rental_uris":{"android":"levelo://app?vid=b6248d4e-41a2-4ad7-baa6-b6867dc99581","ios":"levelo://app?vid=b6248d4e-41a2-4ad7-baa6-b6867dc99581"},"vehicle_type_id":"4","last_reported":1748549542,"current_range_meters":1600,"station_id":"ce4bhl12rcd13ifvqgf0","pricing_plan_id":"cebpf4jnsgd1na2vs0mg"},{"bike_id":"3646683f-edda-431f-b2c0-120d11efbf66","system_id":"levelo_inurba_marseille","lat":43.30274,"lon":5.37712,"is_reserved":false,"is_disabled":true,"rental_uris":{"android":"levelo://app?vid=3646683f-edda-431f-b2c0-120d11efbf66","ios":"levelo://app?vid=3646683f-edda-431f-b2c0-120d11efbf66"},"vehicle_type_id":"4","last_reported":1748549542,"current_range_meters":2000,"station_id":"ce4bguh2rcd13ifvqcj0","pricing_plan_id":"cebpf4jnsgd1na2vs0mg"},{"bike_id":"42955d01-435e-4ce8-acae-f9cdcc4cfd3d","system_id":"levelo_inurba_marseille","lat":43.29421,"lon":5.38626,"is_reserved":false,"is_disabled":true,"rental_uris":{"android":"levelo://app?vid=42955d01-435e-4ce8-acae-f9cdcc4cfd3d","ios":"levelo://app?vid=42955d01-435e-4ce8-acae-f9cdcc4cfd3d"},"vehicle_type_id":"4","last_reported":1748549542,"current_range_meters":2000,"station_id":"ce4bh2h2rcd13ifvqdh0","pricing_plan_id":"cebpf4jnsgd1na2vs0mg"},{"bike_id":"09903d18-0a4a-47b8-b680-8a828784967e","system_id":"levelo_inurba_marseille","lat":43.29049,"lon":5.39978,"is_reserved":false,"is_disabled":true,"rental_uris":{"android":"levelo://app?vid=09903d18-0a4a-47b8-b680-8a828784967e","ios":"levelo://app?vid=09903d18-0a4a-47b8-b680-8a828784967e"},"vehicle_type_id":"4","last_reported":1748549542,"current_range_meters":2000,"station_id":"ce4bh392rcd13ifvqdm0","pricing_plan_id":"cebpf4jnsgd1na2vs0mg"},{"bike_id":"66f450a3-35bb-4dec-85be-3968f9f1cd22","system_id":"levelo_inurba_marseille","lat":43.26961,"lon":5.38615,"is_reserved":false,"is_disabled":true,"rental_uris":{"android":"levelo://app?vid=66f450a3-35bb-4dec-85be-3968f9f1cd22","ios":"levelo://app?vid=66f450a3-35bb-4dec-85be-3968f9f1cd22"},"vehicle_type_id":"4","last_reported":1748549542,"current_range_meters":2000,"station_id":"ce4bhh92rcd13ifvqfh0","pricing_plan_id":"cebpf4jnsgd1na2vs0mg"},{"bike_id":"707f61c6-5327-4a6b-a127-a32ea832dc05","system_id":"levelo_inurba_marseille","lat":43.24391,"lon":5.3705,"is_reserved":false,"is_disabled":true,"rental_uris":{"android":"levelo://app?vid=707f61c6-5327-4a6b-a127-a32ea832dc05","ios":"levelo://app?vid=707f61c6-5327-4a6b-a127-a32ea832dc05"},"vehicle_type_id":"4","last_reported":1748549542,"current_range_meters":2000,"station_id":"ce4bhhh2rcd13ifvqfk0","pricing_plan_id":"cebpf4jnsgd1na2vs0mg"},{"bike_id":"d90baf97-e6b3-4c48-bcd2-63bc44243da4","system_id":"levelo_inurba_marseille","lat":43.21652,"lon":5.34297,"is_reserved":false,"is_disabled":false,"rental_uris":{"android":"levelo://app?vid=d90baf97-e6b3-4c48-bcd2-63bc44243da4","ios":"levelo://app?vid=d90baf97-e6b3-4c48-bcd2-63bc44243da4"},"vehicle_type_id":"4","last_reported":1748549542,"current_range_meters":2800,"station_id":"","pricing_plan_id":"cebpf4jnsgd1na2vs0mg"},{"bike_id":"3877aa95-f1d4-402a-adbd-49fb3fa845e5","system_id":"levelo_inurba_marseille","lat":43.27916,"lon":5.39577,"is_reserved":false,"is_disabled":false,"rental_uris":{"android":"levelo://app?vid=3877aa95-f1d4-402a-adbd-49fb3fa845e5","ios":"levelo://app?vid=3877aa95-f1d4-402a-adbd-49fb3fa845e5"},"vehicle_type_id":"4","last_reported":1748549542,"current_range_meters":3200,"station_id":"ce4bhf92rcd13ifvqf40","pricing_plan_id":"cebpf4jnsgd1na2vs0mg"},{"bike_id":"3e5a4a10-bfa7-459b-ae64-654772eb9f1a","system_id":"levelo_inurba_marseille","lat":43.26551,"lon":5.3727,"is_reserved":false,"is_disabled":false,"rental_uris":{"android":"levelo://app?vid=3e5a4a10-bfa7-459b-ae64-654772eb9f1a","ios":"levelo://app?vid=3e5a4a10-bfa7-459b-ae64-654772eb9f1a"},"vehicle_type_id":"4","last_reported":1748549542,"current_range_meters":3200,"station_id":"ce4bhg12rcd13ifvqf70","pricing_plan_id":"cebpf4jnsgd1na2vs0mg"},{"bike_id":"497d8621-c9aa-4855-880e-c2bf07d2cefa","system_id":"levelo_inurba_marseille","lat":43.28168,"lon":5.42639,"is_reserved":false,"is_disabled":false,"rental_uris":{"android":"levelo://app?vid=497d8621-c9aa-4855-880e-c2bf07d2cefa","ios":"levelo://app?vid=497d8621-c9aa-4855-880e-c2bf07d2cefa"},"vehicle_type_id":"4","last_reported":1748549542,"current_range_meters":3200,"station_id":"ce4bhnh2rcd13ifvqgug","pricing_plan_id":"cebpf4jnsgd1na2vs0mg"},{"bike_id":"528e54e0-df6b-40ef-9929-2e4f1ee5a533","system_id":"levelo_inurba_marseille","lat":43.297546,"lon":5.369989,"is_reserved":false,"is_disabled":false,"rental_uris":{"android":"levelo://app?vid=528e54e0-df6b-40ef-9929-2e4f1ee5a533","ios":"levelo://app?vid=528e54e0-df6b-40ef-9929-2e4f1ee5a533"},"vehicle_type_id":"4","last_reported":1748549542,"current_range_meters":3600,"station_id":"","pricing_plan_id":"cebpf4jnsgd1na2vs0mg"},{"bike_id":"e4cf96f7-9b4d-4e4c-a9f6-1ab4ab98919b","system_id":"levelo_inurba_marseille","lat":43.289823,"lon":5.381516,"is_reserved":false,"is_disabled":false,"rental_uris":{"android":"levelo://app?vid=e4cf96f7-9b4d-4e4c-a9f6-1ab4ab98919b","ios":"levelo://app?vid=e4cf96f7-9b4d-4e4c-a9f6-1ab4ab98919b"},"vehicle_type_id":"4","last_reported":1748549542,"current_range_meters":3600,"station_id":"ce4bgkh2rcd13ifvqbk0","pricing_plan_id":"cebpf4jnsgd1na2vs0mg"},{"bike_id":"1b465a1d-a3bf-43a7-8a28-355c6b07ca81","system_id":"levelo_inurba_marseille","lat":43.30639,"lon":5.4008,"is_reserved":false,"is_disabled":false,"rental_uris":{"android":"levelo://app?vid=1b465a1d-a3bf-43a7-8a28-355c6b07ca81","ios":"levelo://app?vid=1b465a1d-a3bf-43a7-8a28-355c6b07ca81"},"vehicle_type_id":"4","last_reported":1748549542,"current_range_meters":3600,"station_id":"ce4bh112rcd13ifvqda0","pricing_plan_id":"cebpf4jnsgd1na2vs0mg"},{"bike_id":"d32a9f4f-6b2f-42a4-bef6-57dcab6df1f3","system_id":"levelo_inurba_marseille","lat":43.268008,"lon":5.394164,"is_reserved":false,"is_disabled":false,"rental_uris":{"android":"levelo://app?vid=d32a9f4f-6b2f-42a4-bef6-57dcab6df1f3","ios":"levelo://app?vid=d32a9f4f-6b2f-42a4-bef6-57dcab6df1f3"},"vehicle_type_id":"4","last_reported":1748549542,"current_range_meters":3600,"station_id":"ce4bhh12rcd13ifvqfg0","pricing_plan_id":"cebpf4jnsgd1na2vs0mg"},{"bike_id":"b80ee325-09b2-4724-993d-4f8d3707c41c","system_id":"levelo_inurba_marseille","lat":43.25862,"lon":5.39902,"is_reserved":false,"is_disabled":false,"rental_uris":{"android":"levelo://app?vid=b80ee325-09b2-4724-993d-4f8d3707c41c","ios":"levelo://app?vid=b80ee325-09b2-4724-993d-4f8d3707c41c"},"vehicle_type_id":"4","last_reported":1748549542,"current_range_meters":3600,"station_id":"ce4bhl92rcd13ifvqghg","pricing_plan_id":"cebpf4jnsgd1na2vs0mg"},{"bike_id":"fc703e3d-4a8e-4404-88f1-4c82d56173f8","system_id":"levelo_inurba_marseille","lat":43.308009,"lon":5.435294,"is_reserved":false,"is_disabled":false,"rental_uris":{"android":"levelo://app?vid=fc703e3d-4a8e-4404-88f1-4c82d56173f8","ios":"levelo://app?vid=fc703e3d-4a8e-4404-88f1-4c82d56173f8"},"vehicle_type_id":"4","last_reported":1748549542,"current_range_meters":3600,"station_id":"ce4bhph2rcd13ifvqheg","pricing_plan_id":"cebpf4jnsgd1na2vs0mg"},{"bike_id":"3f0441b1-6cb6-41fd-b679-f454d34b2118","system_id":"levelo_inurba_marseille","lat":43.21198,"lon":5.35061,"is_reserved":false,"is_disabled":false,"rental_uris":{"android":"levelo://app?vid=3f0441b1-6cb6-41fd-b679-f454d34b2118","ios":"levelo://app?vid=3f0441b1-6cb6-41fd-b679-f454d34b2118"},"vehicle_type_id":"4","last_reported":1748549542,"current_range_meters":3600,"station_id":"st_cvj6sg6p6f1abm77japg","pricing_plan_id":"cebpf4jnsgd1na2vs0mg"},{"bike_id":"c1e451e6-ad2d-4e1f-ad87-bfb77b3fd8c4","system_id":"levelo_inurba_marseille","lat":43.29117,"lon":5.35573,"is_reserved":false,"is_disabled":false,"rental_uris":{"android":"levelo://app?vid=c1e451e6-ad2d-4e1f-ad87-bfb77b3fd8c4","ios":"levelo://app?vid=c1e451e6-ad2d-4e1f-ad87-bfb77b3fd8c4"},"vehicle_type_id":"4","last_reported":1748549542,"current_range_meters":4000,"station_id":"","pricing_plan_id":"cebpf4jnsgd1na2vs0mg"},{"bike_id":"463932b7-5057-4b05-b67d-ce4c720d6cff","system_id":"levelo_inurba_marseille","lat":43.29259,"lon":5.38438,"is_reserved":false,"is_disabled":false,"rental_uris":{"android":"levelo://app?vid=463932b7-5057-4b05-b67d-ce4c720d6cff","ios":"levelo://app?vid=463932b7-5057-4b05-b67d-ce4c720d6cff"},"vehicle_type_id":"4","last_reported":1748549542,"current_range_meters":4000,"station_id":"ce4bh692rcd13ifvqea0","pricing_plan_id":"cebpf4jnsgd1na2vs0mg"},{"bike_id":"60eacffb-1805-477b-8dea-d4ba95a915da","system_id":"levelo_inurba_marseille","lat":43.28453,"lon":5.39204,"is_reserved":false,"is_disabled":false,"rental_uris":{"android":"levelo://app?vid=60eacffb-1805-477b-8dea-d4ba95a915da","ios":"levelo://app?vid=60eacffb-1805-477b-8dea-d4ba95a915da"},"vehicle_type_id":"4","last_reported":1748549542,"current_range_meters":4000,"station_id":"ce4bhoh2rcd13ifvqh5g","pricing_plan_id":"cebpf4jnsgd1na2vs0mg"},{"bike_id":"6d7cfdcd-f061-4eee-b4e5-78d9b6729328","system_id":"levelo_inurba_marseille","lat":43.33005,"lon":5.43837,"is_reserved":false,"is_disabled":false,"rental_uris":{"android":"levelo://app?vid=6d7cfdcd-f061-4eee-b4e5-78d9b6729328","ios":"levelo://app?vid=6d7cfdcd-f061-4eee-b4e5-78d9b6729328"},"vehicle_type_id":"4","last_reported":1748549542,"current_range_meters":4400,"station_id":"","pricing_plan_id":"cebpf4jnsgd1na2vs0mg"},{"bike_id":"fa95038c-e406-48a0-9775-4648d76dc7f5","system_id":"levelo_inurba_marseille","lat":43.29014,"lon":5.38143,"is_reserved":false,"is_disabled":false,"rental_uris":{"android":"levelo://app?vid=fa95038c-e406-48a0-9775-4648d76dc7f5","ios":"levelo://app?vid=fa95038c-e406-48a0-9775-4648d76dc7f5"},"vehicle_type_id":"4","last_reported":1748549542,"current_range_meters":4400,"station_id":"ce4bh4p2rcd13ifvqe1g","pricing_plan_id":"cebpf4jnsgd1na2vs0mg"},{"bike_id":"3dd4a18c-41d4-4025-b01f-0cc722640ae3","system_id":"levelo_inurba_marseille","lat":43.2799,"lon":5.41615,"is_reserved":false,"is_disabled":false,"rental_uris":{"android":"levelo://app?vid=3dd4a18c-41d4-4025-b01f-0cc722640ae3","ios":"levelo://app?vid=3dd4a18c-41d4-4025-b01f-0cc722640ae3"},"vehicle_type_id":"4","last_reported":1748549542,"current_range_meters":4400,"station_id":"ce4bhnh2rcd13ifvqgtg","pricing_plan_id":"cebpf4jnsgd1na2vs0mg"},{"bike_id":"9a869239-5672-4a55-9235-38d7bbe8293b","system_id":"levelo_inurba_marseille","lat":43.32585,"lon":5.43041,"is_reserved":false,"is_disabled":false,"rental_uris":{"android":"levelo://app?vid=9a869239-5672-4a55-9235-38d7bbe8293b","ios":"levelo://app?vid=9a869239-5672-4a55-9235-38d7bbe8293b"},"vehicle_type_id":"4","last_reported":1748549542,"current_range_meters":4800,"station_id":"","pricing_plan_id":"cebpf4jnsgd1na2vs0mg"},{"bike_id":"f97a9303-0406-4e0a-8669-8728d28b64e9","system_id":"levelo_inurba_marseille","lat":43.27411,"lon":5.39404,"is_reserved":false,"is_disabled":false,"rental_uris":{"android":"levelo://app?vid=f97a9303-0406-4e0a-8669-8728d28b64e9","ios":"levelo://app?vid=f97a9303-0406-4e0a-8669-8728d28b64e9"},"vehicle_type_id":"4","last_reported":1748549542,"current_range_meters":4800,"station_id":"ce4bhdp2rcd13ifvqf20","pricing_plan_id":"cebpf4jnsgd1na2vs0mg"},{"bike_id":"c0c5027f-c041-4b12-acfa-e6b17680071b","system_id":"levelo_inurba_marseille","lat":43.238,"lon":5.43553,"is_reserved":false,"is_disabled":false,"rental_uris":{"android":"levelo://app?vid=c0c5027f-c041-4b12-acfa-e6b17680071b","ios":"levelo://app?vid=c0c5027f-c041-4b12-acfa-e6b17680071b"},"vehicle_type_id":"4","last_reported":1748549542,"current_range_meters":5600,"station_id":"","pricing_plan_id":"cebpf4jnsgd1na2vs0mg"},{"bike_id":"b68fb9b6-898a-4bd2-ab47-455d1082fc1b","system_id":"levelo_inurba_marseille","lat":43.28846,"lon":5.39306,"is_reserved":false,"is_disabled":false,"rental_uris":{"android":"levelo://app?vid=b68fb9b6-898a-4bd2-ab47-455d1082fc1b","ios":"levelo://app?vid=b68fb9b6-898a-4bd2-ab47-455d1082fc1b"},"vehicle_type_id":"4","last_reported":1748549542,"current_range_meters":5600,"station_id":"ce4bh2p2rcd13ifvqdi0","pricing_plan_id":"cebpf4jnsgd1na2vs0mg"},{"bike_id":"7c209d7a-d994-4b8a-8099-b3d1d83e6d6f","system_id":"levelo_inurba_marseille","lat":43.27813,"lon":5.40708,"is_reserved":false,"is_disabled":false,"rental_uris":{"android":"levelo://app?vid=7c209d7a-d994-4b8a-8099-b3d1d83e6d6f","ios":"levelo://app?vid=7c209d7a-d994-4b8a-8099-b3d1d83e6d6f"},"vehicle_type_id":"4","last_reported":1748549542,"current_range_meters":5600,"station_id":"ce4bhnh2rcd13ifvqgtg","pricing_plan_id":"cebpf4jnsgd1na2vs0mg"},{"bike_id":"1eed49fb-ce64-4ebd-9903-7d87835a2ccf","system_id":"levelo_inurba_marseille","lat":43.29775,"lon":5.4598,"is_reserved":false,"is_disabled":false,"rental_uris":{"android":"levelo://app?vid=1eed49fb-ce64-4ebd-9903-7d87835a2ccf","ios":"levelo://app?vid=1eed49fb-ce64-4ebd-9903-7d87835a2ccf"},"vehicle_type_id":"4","last_reported":1748549542,"current_range_meters":6000,"station_id":"","pricing_plan_id":"cebpf4jnsgd1na2vs0mg"},{"bike_id":"303d605f-f7cb-4a2a-9b01-94c23f81d40a","system_id":"levelo_inurba_marseille","lat":43.309509,"lon":5.390469,"is_reserved":false,"is_disabled":false,"rental_uris":{"android":"levelo://app?vid=303d605f-f7cb-4a2a-9b01-94c23f81d40a","ios":"levelo://app?vid=303d605f-f7cb-4a2a-9b01-94c23f81d40a"},"vehicle_type_id":"4","last_reported":1748549542,"current_range_meters":6000,"station_id":"ce4bgup2rcd13ifvqco0","pricing_plan_id":"cebpf4jnsgd1na2vs0mg"},{"bike_id":"e8df95e5-29be-40eb-9d5f-cdd9bd91a3d5","system_id":"levelo_inurba_marseille","lat":43.29043,"lon":5.37567,"is_reserved":false,"is_disabled":false,"rental_uris":{"android":"levelo://app?vid=e8df95e5-29be-40eb-9d5f-cdd9bd91a3d5","ios":"levelo://app?vid=e8df95e5-29be-40eb-9d5f-cdd9bd91a3d5"},"vehicle_type_id":"4","last_reported":1748549542,"current_range_meters":6000,"station_id":"ce4bh692rcd13ifvqe90","pricing_plan_id":"cebpf4jnsgd1na2vs0mg"},{"bike_id":"4ea88853-b4fa-4fac-a8f7-58a125e5feca","system_id":"levelo_inurba_marseille","lat":43.27816,"lon":5.40715,"is_reserved":false,"is_disabled":false,"rental_uris":{"android":"levelo://app?vid=4ea88853-b4fa-4fac-a8f7-58a125e5feca","ios":"levelo://app?vid=4ea88853-b4fa-4fac-a8f7-58a125e5feca"},"vehicle_type_id":"4","last_reported":1748549542,"current_range_meters":6000,"station_id":"ce4bhnh2rcd13ifvqgtg","pricing_plan_id":"cebpf4jnsgd1na2vs0mg"},{"bike_id":"119c7c38-f3ab-4f59-97b4-c8f46a504142","system_id":"levelo_inurba_marseille","lat":43.299102,"lon":5.43659,"is_reserved":false,"is_disabled":false,"rental_uris":{"android":"levelo://app?vid=119c7c38-f3ab-4f59-97b4-c8f46a504142","ios":"levelo://app?vid=119c7c38-f3ab-4f59-97b4-c8f46a504142"},"vehicle_type_id":"4","last_reported":1748549542,"current_range_meters":6000,"station_id":"ce4bhpp2rcd13ifvqhfg","pricing_plan_id":"cebpf4jnsgd1na2vs0mg"},{"bike_id":"29395155-85b2-4e09-8b3f-af2c946b60d3","system_id":"levelo_inurba_marseille","lat":43.32664,"lon":5.40991,"is_reserved":false,"is_disabled":false,"rental_uris":{"android":"levelo://app?vid=29395155-85b2-4e09-8b3f-af2c946b60d3","ios":"levelo://app?vid=29395155-85b2-4e09-8b3f-af2c946b60d3"},"vehicle_type_id":"4","last_reported":1748549542,"current_range_meters":6000,"station_id":"ce4bhpp2rcd13ifvqhgg","pricing_plan_id":"cebpf4jnsgd1na2vs0mg"},{"bike_id":"7f6b38d0-dcd2-4848-86a0-7b44e451f43f","system_id":"levelo_inurba_marseille","lat":43.27697,"lon":5.41543,"is_reserved":false,"is_disabled":false,"rental_uris":{"android":"levelo://app?vid=7f6b38d0-dcd2-4848-86a0-7b44e451f43f","ios":"levelo://app?vid=7f6b38d0-dcd2-4848-86a0-7b44e451f43f"},"vehicle_type_id":"4","last_reported":1748549542,"current_range_meters":6400,"station_id":"","pricing_plan_id":"cebpf4jnsgd1na2vs0mg"},{"bike_id":"5838f425-c610-4291-afc9-11f5b6241c4b","system_id":"levelo_inurba_marseille","lat":43.29537,"lon":5.38539,"is_reserved":false,"is_disabled":false,"rental_uris":{"android":"levelo://app?vid=5838f425-c610-4291-afc9-11f5b6241c4b","ios":"levelo://app?vid=5838f425-c610-4291-afc9-11f5b6241c4b"},"vehicle_type_id":"4","last_reported":1748549542,"current_range_meters":6400,"station_id":"","pricing_plan_id":"cebpf4jnsgd1na2vs0mg"},{"bike_id":"8d19e9ee-bdf0-4765-8c46-b8ccb3968234","system_id":"levelo_inurba_marseille","lat":43.30889,"lon":5.39633,"is_reserved":false,"is_disabled":false,"rental_uris":{"android":"levelo://app?vid=8d19e9ee-bdf0-4765-8c46-b8ccb3968234","ios":"levelo://app?vid=8d19e9ee-bdf0-4765-8c46-b8ccb3968234"},"vehicle_type_id":"4","last_reported":1748549542,"current_range_meters":6400,"station_id":"ce4bh012rcd13ifvqcv0","pricing_plan_id":"cebpf4jnsgd1na2vs0mg"},{"bike_id":"5a0731ee-3e6b-4626-81cb-e7f329c5ec71","system_id":"levelo_inurba_marseille","lat":43.29266,"lon":5.38413,"is_reserved":false,"is_disabled":false,"rental_uris":{"android":"levelo://app?vid=5a0731ee-3e6b-4626-81cb-e7f329c5ec71","ios":"levelo://app?vid=5a0731ee-3e6b-4626-81cb-e7f329c5ec71"},"vehicle_type_id":"4","last_reported":1748549542,"current_range_meters":6400,"station_id":"ce4bh692rcd13ifvqea0","pricing_plan_id":"cebpf4jnsgd1na2vs0mg"},{"bike_id":"bf106879-ecde-48b6-8ced-379454d46ddc","system_id":"levelo_inurba_marseille","lat":43.2655,"lon":5.37287,"is_reserved":false,"is_disabled":false,"rental_uris":{"android":"levelo://app?vid=bf106879-ecde-48b6-8ced-379454d46ddc","ios":"levelo://app?vid=bf106879-ecde-48b6-8ced-379454d46ddc"},"vehicle_type_id":"4","last_reported":1748549542,"current_range_meters":6400,"station_id":"ce4bhg12rcd13ifvqf70","pricing_plan_id":"cebpf4jnsgd1na2vs0mg"},{"bike_id":"21269a47-fc82-4c15-9854-941f461a9d86","system_id":"levelo_inurba_marseille","lat":43.24808,"lon":5.37443,"is_reserved":false,"is_disabled":false,"rental_uris":{"android":"levelo://app?vid=21269a47-fc82-4c15-9854-941f461a9d86","ios":"levelo://app?vid=21269a47-fc82-4c15-9854-941f461a9d86"},"vehicle_type_id":"4","last_reported":1748549542,"current_range_meters":6400,"station_id":"ce4bhgh2rcd13ifvqfb0","pricing_plan_id":"cebpf4jnsgd1na2vs0mg"},{"bike_id":"d6217c7c-b8c1-4915-8444-2122bbbe5983","system_id":"levelo_inurba_marseille","lat":43.29602,"lon":5.38091,"is_reserved":false,"is_disabled":false,"rental_uris":{"android":"levelo://app?vid=d6217c7c-b8c1-4915-8444-2122bbbe5983","ios":"levelo://app?vid=d6217c7c-b8c1-4915-8444-2122bbbe5983"},"vehicle_type_id":"4","last_reported":1748549542,"current_range_meters":6800,"station_id":"ce4bgl12rcd13ifvqbo0","pricing_plan_id":"cebpf4jnsgd1na2vs0mg"},{"bike_id":"c1c51125-b169-41b9-b7df-e87ff78b4aea","system_id":"levelo_inurba_marseille","lat":43.26236,"lon":5.40433,"is_reserved":false,"is_disabled":false,"rental_uris":{"android":"levelo://app?vid=c1c51125-b169-41b9-b7df-e87ff78b4aea","ios":"levelo://app?vid=c1c51125-b169-41b9-b7df-e87ff78b4aea"},"vehicle_type_id":"4","last_reported":1748549542,"current_range_meters":6800,"station_id":"ce4bhmh2rcd13ifvqgmg","pricing_plan_id":"cebpf4jnsgd1na2vs0mg"},{"bike_id":"c006505c-40ec-4dbb-8fb7-e9d75b9aa51f","system_id":"levelo_inurba_marseille","lat":43.331363,"lon":5.38269,"is_reserved":false,"is_disabled":false,"rental_uris":{"android":"levelo://app?vid=c006505c-40ec-4dbb-8fb7-e9d75b9aa51f","ios":"levelo://app?vid=c006505c-40ec-4dbb-8fb7-e9d75b9aa51f"},"vehicle_type_id":"4","last_reported":1748549542,"current_range_meters":7200,"station_id":"","pricing_plan_id":"cebpf4jnsgd1na2vs0mg"},{"bike_id":"2e02d352-7abe-48f0-8225-d3bd0bdbdd07","system_id":"levelo_inurba_marseille","lat":43.303803,"lon":5.400947,"is_reserved":false,"is_disabled":false,"rental_uris":{"android":"levelo://app?vid=2e02d352-7abe-48f0-8225-d3bd0bdbdd07","ios":"levelo://app?vid=2e02d352-7abe-48f0-8225-d3bd0bdbdd07"},"vehicle_type_id":"4","last_reported":1748549542,"current_range_meters":7200,"station_id":"","pricing_plan_id":"cebpf4jnsgd1na2vs0mg"},{"bike_id":"2f650bb1-6027-4191-83d2-16315820a0a7","system_id":"levelo_inurba_marseille","lat":43.29995,"lon":5.37364,"is_reserved":false,"is_disabled":false,"rental_uris":{"android":"levelo://app?vid=2f650bb1-6027-4191-83d2-16315820a0a7","ios":"levelo://app?vid=2f650bb1-6027-4191-83d2-16315820a0a7"},"vehicle_type_id":"4","last_reported":1748549542,"current_range_meters":7200,"station_id":"","pricing_plan_id":"cebpf4jnsgd1na2vs0mg"},{"bike_id":"dc77ed57-3919-4471-9468-9212c032a498","system_id":"levelo_inurba_marseille","lat":43.2903,"lon":5.38637,"is_reserved":false,"is_disabled":false,"rental_uris":{"android":"levelo://app?vid=dc77ed57-3919-4471-9468-9212c032a498","ios":"levelo://app?vid=dc77ed57-3919-4471-9468-9212c032a498"},"vehicle_type_id":"4","last_reported":1748549542,"current_range_meters":7200,"station_id":"ce4bh4p2rcd13ifvqe0g","pricing_plan_id":"cebpf4jnsgd1na2vs0mg"},{"bike_id":"7fa68e51-5301-497c-9b5e-1820c9716437","system_id":"levelo_inurba_marseille","lat":43.27214,"lon":5.39184,"is_reserved":false,"is_disabled":false,"rental_uris":{"android":"levelo://app?vid=7fa68e51-5301-497c-9b5e-1820c9716437","ios":"levelo://app?vid=7fa68e51-5301-497c-9b5e-1820c9716437"},"vehicle_type_id":"4","last_reported":1748549542,"current_range_meters":7200,"station_id":"ce4bhhp2rcd13ifvqfm0","pricing_plan_id":"cebpf4jnsgd1na2vs0mg"},{"bike_id":"8c8bc395-dc8e-4920-918d-42f8ef9b4892","system_id":"levelo_inurba_marseille","lat":43.32676,"lon":5.40982,"is_reserved":false,"is_disabled":false,"rental_uris":{"android":"levelo://app?vid=8c8bc395-dc8e-4920-918d-42f8ef9b4892","ios":"levelo://app?vid=8c8bc395-dc8e-4920-918d-42f8ef9b4892"},"vehicle_type_id":"4","last_reported":1748549542,"current_range_meters":7200,"station_id":"ce4bhpp2rcd13ifvqhgg","pricing_plan_id":"cebpf4jnsgd1na2vs0mg"},{"bike_id":"7ad6fa5f-df46-4408-be3a-66a4244a5a34","system_id":"levelo_inurba_marseille","lat":43.26574,"lon":5.40314,"is_reserved":false,"is_disabled":false,"rental_uris":{"android":"levelo://app?vid=7ad6fa5f-df46-4408-be3a-66a4244a5a34","ios":"levelo://app?vid=7ad6fa5f-df46-4408-be3a-66a4244a5a34"},"vehicle_type_id":"4","last_reported":1748549542,"current_range_meters":8000,"station_id":"","pricing_plan_id":"cebpf4jnsgd1na2vs0mg"},{"bike_id":"ed2053a9-601b-4bf9-9177-156a60cb6b03","system_id":"levelo_inurba_marseille","lat":43.31361,"lon":5.38493,"is_reserved":false,"is_disabled":false,"rental_uris":{"android":"levelo://app?vid=ed2053a9-601b-4bf9-9177-156a60cb6b03","ios":"levelo://app?vid=ed2053a9-601b-4bf9-9177-156a60cb6b03"},"vehicle_type_id":"4","last_reported":1748549542,"current_range_meters":8000,"station_id":"ce4bgt92rcd13ifvqcf0","pricing_plan_id":"cebpf4jnsgd1na2vs0mg"},{"bike_id":"0b7cc989-d94a-40b3-81ea-f37020314baa","system_id":"levelo_inurba_marseille","lat":43.31068,"lon":5.38357,"is_reserved":false,"is_disabled":false,"rental_uris":{"android":"levelo://app?vid=0b7cc989-d94a-40b3-81ea-f37020314baa","ios":"levelo://app?vid=0b7cc989-d94a-40b3-81ea-f37020314baa"},"vehicle_type_id":"4","last_reported":1748549542,"current_range_meters":8000,"station_id":"ce4bgv92rcd13ifvqcr0","pricing_plan_id":"cebpf4jnsgd1na2vs0mg"},{"bike_id":"202d1c0e-dad5-4602-b7f1-139ea79503ea","system_id":"levelo_inurba_marseille","lat":43.30931,"lon":5.40144,"is_reserved":false,"is_disabled":false,"rental_uris":{"android":"levelo://app?vid=202d1c0e-dad5-4602-b7f1-139ea79503ea","ios":"levelo://app?vid=202d1c0e-dad5-4602-b7f1-139ea79503ea"},"vehicle_type_id":"4","last_reported":1748549542,"current_range_meters":8000,"station_id":"ce4bgvp2rcd13ifvqct0","pricing_plan_id":"cebpf4jnsgd1na2vs0mg"},{"bike_id":"22771043-09b1-43eb-91e0-5c845144e1e3","system_id":"levelo_inurba_marseille","lat":43.277,"lon":5.40843,"is_reserved":false,"is_disabled":false,"rental_uris":{"android":"levelo://app?vid=22771043-09b1-43eb-91e0-5c845144e1e3","ios":"levelo://app?vid=22771043-09b1-43eb-91e0-5c845144e1e3"},"vehicle_type_id":"4","last_reported":1748549542,"current_range_meters":8400,"station_id":"","pricing_plan_id":"cebpf4jnsgd1na2vs0mg"},{"bike_id":"b9ae16bc-ec39-406e-9e42-55cba52b28fe","system_id":"levelo_inurba_marseille","lat":43.260219,"lon":5.417359,"is_reserved":false,"is_disabled":false,"rental_uris":{"android":"levelo://app?vid=b9ae16bc-ec39-406e-9e42-55cba52b28fe","ios":"levelo://app?vid=b9ae16bc-ec39-406e-9e42-55cba52b28fe"},"vehicle_type_id":"4","last_reported":1748549542,"current_range_meters":8400,"station_id":"","pricing_plan_id":"cebpf4jnsgd1na2vs0mg"},{"bike_id":"9662e6a4-b40c-4baa-8441-66229c7823f3","system_id":"levelo_inurba_marseille","lat":43.29428,"lon":5.38626,"is_reserved":false,"is_disabled":false,"rental_uris":{"android":"levelo://app?vid=9662e6a4-b40c-4baa-8441-66229c7823f3","ios":"levelo://app?vid=9662e6a4-b40c-4baa-8441-66229c7823f3"},"vehicle_type_id":"4","last_reported":1748549542,"current_range_meters":8400,"station_id":"ce4bh2h2rcd13ifvqdh0","pricing_plan_id":"cebpf4jnsgd1na2vs0mg"},{"bike_id":"fd8a466f-51ec-475d-b847-0e5a9431af32","system_id":"levelo_inurba_marseille","lat":43.24825,"lon":5.37448,"is_reserved":false,"is_disabled":false,"rental_uris":{"android":"levelo://app?vid=fd8a466f-51ec-475d-b847-0e5a9431af32","ios":"levelo://app?vid=fd8a466f-51ec-475d-b847-0e5a9431af32"},"vehicle_type_id":"4","last_reported":1748549542,"current_range_meters":8400,"station_id":"ce4bhgh2rcd13ifvqfb0","pricing_plan_id":"cebpf4jnsgd1na2vs0mg"},{"bike_id":"047bbed6-33d9-4486-b038-6c0f2513bd98","system_id":"levelo_inurba_marseille","lat":43.24668,"lon":5.38161,"is_reserved":false,"is_disabled":false,"rental_uris":{"android":"levelo://app?vid=047bbed6-33d9-4486-b038-6c0f2513bd98","ios":"levelo://app?vid=047bbed6-33d9-4486-b038-6c0f2513bd98"},"vehicle_type_id":"4","last_reported":1748549542,"current_range_meters":8400,"station_id":"ce4bhih2rcd13ifvqfr0","pricing_plan_id":"cebpf4jnsgd1na2vs0mg"},{"bike_id":"41393039-4fda-48a5-9a5c-403ea21fcbd1","system_id":"levelo_inurba_marseille","lat":43.27066,"lon":5.40251,"is_reserved":false,"is_disabled":false,"rental_uris":{"android":"levelo://app?vid=41393039-4fda-48a5-9a5c-403ea21fcbd1","ios":"levelo://app?vid=41393039-4fda-48a5-9a5c-403ea21fcbd1"},"vehicle_type_id":"4","last_reported":1748549542,"current_range_meters":8400,"station_id":"ce4bhk92rcd13ifvqgc0","pricing_plan_id":"cebpf4jnsgd1na2vs0mg"},{"bike_id":"7c6e48ab-b87e-4e89-9339-a1a2992e6797","system_id":"levelo_inurba_marseille","lat":43.26119,"lon":5.4147,"is_reserved":false,"is_disabled":false,"rental_uris":{"android":"levelo://app?vid=7c6e48ab-b87e-4e89-9339-a1a2992e6797","ios":"levelo://app?vid=7c6e48ab-b87e-4e89-9339-a1a2992e6797"},"vehicle_type_id":"4","last_reported":1748549542,"current_range_meters":8800,"station_id":"","pricing_plan_id":"cebpf4jnsgd1na2vs0mg"},{"bike_id":"2c544c4d-9e9e-476f-9d2b-73dc80fc4d89","system_id":"levelo_inurba_marseille","lat":43.30953,"lon":5.39028,"is_reserved":false,"is_disabled":false,"rental_uris":{"android":"levelo://app?vid=2c544c4d-9e9e-476f-9d2b-73dc80fc4d89","ios":"levelo://app?vid=2c544c4d-9e9e-476f-9d2b-73dc80fc4d89"},"vehicle_type_id":"4","last_reported":1748549542,"current_range_meters":8800,"station_id":"ce4bgup2rcd13ifvqco0","pricing_plan_id":"cebpf4jnsgd1na2vs0mg"},{"bike_id":"d3f92fd6-293c-4ace-9e82-475ffd1b302b","system_id":"levelo_inurba_marseille","lat":43.3133,"lon":5.39695,"is_reserved":false,"is_disabled":false,"rental_uris":{"android":"levelo://app?vid=d3f92fd6-293c-4ace-9e82-475ffd1b302b","ios":"levelo://app?vid=d3f92fd6-293c-4ace-9e82-475ffd1b302b"},"vehicle_type_id":"4","last_reported":1748549542,"current_range_meters":8800,"station_id":"ce4bgvp2rcd13ifvqcu0","pricing_plan_id":"cebpf4jnsgd1na2vs0mg"},{"bike_id":"34d71db0-a239-4438-8f9b-6acb3c9d27e7","system_id":"levelo_inurba_marseille","lat":43.26505,"lon":5.39528,"is_reserved":false,"is_disabled":false,"rental_uris":{"android":"levelo://app?vid=34d71db0-a239-4438-8f9b-6acb3c9d27e7","ios":"levelo://app?vid=34d71db0-a239-4438-8f9b-6acb3c9d27e7"},"vehicle_type_id":"4","last_reported":1748549542,"current_range_meters":8800,"station_id":"ce4bhi12rcd13ifvqfq0","pricing_plan_id":"cebpf4jnsgd1na2vs0mg"},{"bike_id":"cc0ae327-b312-4d85-a3bd-149d48a7704a","system_id":"levelo_inurba_marseille","lat":43.29279,"lon":5.40127,"is_reserved":false,"is_disabled":false,"rental_uris":{"android":"levelo://app?vid=cc0ae327-b312-4d85-a3bd-149d48a7704a","ios":"levelo://app?vid=cc0ae327-b312-4d85-a3bd-149d48a7704a"},"vehicle_type_id":"4","last_reported":1748549542,"current_range_meters":9200,"station_id":"ce4bh312rcd13ifvqdk0","pricing_plan_id":"cebpf4jnsgd1na2vs0mg"},{"bike_id":"f293ba09-4b7e-4261-9c45-5e8e5f6ff81c","system_id":"levelo_inurba_marseille","lat":43.30401,"lon":5.424955,"is_reserved":false,"is_disabled":false,"rental_uris":{"android":"levelo://app?vid=f293ba09-4b7e-4261-9c45-5e8e5f6ff81c","ios":"levelo://app?vid=f293ba09-4b7e-4261-9c45-5e8e5f6ff81c"},"vehicle_type_id":"4","last_reported":1748549542,"current_range_meters":9200,"station_id":"ce4bhoh2rcd13ifvqh6g","pricing_plan_id":"cebpf4jnsgd1na2vs0mg"},{"bike_id":"bf6476a6-b4ab-404c-abb7-f0202c5ca64f","system_id":"levelo_inurba_marseille","lat":43.21205,"lon":5.35059,"is_reserved":false,"is_disabled":false,"rental_uris":{"android":"levelo://app?vid=bf6476a6-b4ab-404c-abb7-f0202c5ca64f","ios":"levelo://app?vid=bf6476a6-b4ab-404c-abb7-f0202c5ca64f"},"vehicle_type_id":"4","last_reported":1748549542,"current_range_meters":9200,"station_id":"st_cvj6sg6p6f1abm77japg","pricing_plan_id":"cebpf4jnsgd1na2vs0mg"},{"bike_id":"798c2f6f-75e9-4cda-b17d-b3e9c288e547","system_id":"levelo_inurba_marseille","lat":43.29633,"lon":5.40594,"is_reserved":false,"is_disabled":false,"rental_uris":{"android":"levelo://app?vid=798c2f6f-75e9-4cda-b17d-b3e9c288e547","ios":"levelo://app?vid=798c2f6f-75e9-4cda-b17d-b3e9c288e547"},"vehicle_type_id":"4","last_reported":1748549542,"current_range_meters":9600,"station_id":"ce4bh0h2rcd13ifvqd60","pricing_plan_id":"cebpf4jnsgd1na2vs0mg"},{"bike_id":"39d84839-f3e2-40d8-b4b9-447e7386cff3","system_id":"levelo_inurba_marseille","lat":43.29251,"lon":5.38438,"is_reserved":false,"is_disabled":false,"rental_uris":{"android":"levelo://app?vid=39d84839-f3e2-40d8-b4b9-447e7386cff3","ios":"levelo://app?vid=39d84839-f3e2-40d8-b4b9-447e7386cff3"},"vehicle_type_id":"4","last_reported":1748549542,"current_range_meters":9600,"station_id":"ce4bh692rcd13ifvqea0","pricing_plan_id":"cebpf4jnsgd1na2vs0mg"},{"bike_id":"8c9428fa-2d33-4463-9684-f117805ce597","system_id":"levelo_inurba_marseille","lat":43.31784,"lon":5.39016,"is_reserved":false,"is_disabled":false,"rental_uris":{"android":"levelo://app?vid=8c9428fa-2d33-4463-9684-f117805ce597","ios":"levelo://app?vid=8c9428fa-2d33-4463-9684-f117805ce597"},"vehicle_type_id":"4","last_reported":1748549542,"current_range_meters":9600,"station_id":"ce4bhqp2rcd13ifvqhng","pricing_plan_id":"cebpf4jnsgd1na2vs0mg"},{"bike_id":"0e009545-9acc-491d-b143-22cbd0096db4","system_id":"levelo_inurba_marseille","lat":43.33831,"lon":5.39252,"is_reserved":false,"is_disabled":false,"rental_uris":{"android":"levelo://app?vid=0e009545-9acc-491d-b143-22cbd0096db4","ios":"levelo://app?vid=0e009545-9acc-491d-b143-22cbd0096db4"},"vehicle_type_id":"4","last_reported":1748549542,"current_range_meters":10000,"station_id":"","pricing_plan_id":"cebpf4jnsgd1na2vs0mg"},{"bike_id":"ede90320-0a32-4e7a-9972-070e26426437","system_id":"levelo_inurba_marseille","lat":43.29557,"lon":5.37496,"is_reserved":false,"is_disabled":false,"rental_uris":{"android":"levelo://app?vid=ede90320-0a32-4e7a-9972-070e26426437","ios":"levelo://app?vid=ede90320-0a32-4e7a-9972-070e26426437"},"vehicle_type_id":"4","last_reported":1748549542,"current_range_meters":10000,"station_id":"","pricing_plan_id":"cebpf4jnsgd1na2vs0mg"},{"bike_id":"42dca157-bdb0-4361-8022-7979135f94aa","system_id":"levelo_inurba_marseille","lat":43.28576,"lon":5.36554,"is_reserved":false,"is_disabled":false,"rental_uris":{"android":"levelo://app?vid=42dca157-bdb0-4361-8022-7979135f94aa","ios":"levelo://app?vid=42dca157-bdb0-4361-8022-7979135f94aa"},"vehicle_type_id":"4","last_reported":1748549542,"current_range_meters":10000,"station_id":"","pricing_plan_id":"cebpf4jnsgd1na2vs0mg"},{"bike_id":"0c4659e3-7218-4e80-be62-fa3358d5fead","system_id":"levelo_inurba_marseille","lat":43.30542,"lon":5.365521,"is_reserved":false,"is_disabled":false,"rental_uris":{"android":"levelo://app?vid=0c4659e3-7218-4e80-be62-fa3358d5fead","ios":"levelo://app?vid=0c4659e3-7218-4e80-be62-fa3358d5fead"},"vehicle_type_id":"4","last_reported":1748549542,"current_range_meters":10000,"station_id":"ce4bgs12rcd13ifvqcag","pricing_plan_id":"cebpf4jnsgd1na2vs0mg"},{"bike_id":"8275ed54-4e3f-4acd-87df-9189f84d4dba","system_id":"levelo_inurba_marseille","lat":43.29272,"lon":5.38436,"is_reserved":false,"is_disabled":false,"rental_uris":{"android":"levelo://app?vid=8275ed54-4e3f-4acd-87df-9189f84d4dba","ios":"levelo://app?vid=8275ed54-4e3f-4acd-87df-9189f84d4dba"},"vehicle_type_id":"4","last_reported":1748549542,"current_range_meters":10000,"station_id":"ce4bh692rcd13ifvqea0","pricing_plan_id":"cebpf4jnsgd1na2vs0mg"},{"bike_id":"87243216-2495-4d57-ba24-4bb2081284f4","system_id":"levelo_inurba_marseille","lat":43.308,"lon":5.38143,"is_reserved":false,"is_disabled":false,"rental_uris":{"android":"levelo://app?vid=87243216-2495-4d57-ba24-4bb2081284f4","ios":"levelo://app?vid=87243216-2495-4d57-ba24-4bb2081284f4"},"vehicle_type_id":"4","last_reported":1748549542,"current_range_meters":10800,"station_id":"ce4bgt12rcd13ifvqce0","pricing_plan_id":"cebpf4jnsgd1na2vs0mg"},{"bike_id":"8236599d-d86d-403c-bf15-8c3f7f0ff5aa","system_id":"levelo_inurba_marseille","lat":43.30889,"lon":5.37192,"is_reserved":false,"is_disabled":false,"rental_uris":{"android":"levelo://app?vid=8236599d-d86d-403c-bf15-8c3f7f0ff5aa","ios":"levelo://app?vid=8236599d-d86d-403c-bf15-8c3f7f0ff5aa"},"vehicle_type_id":"4","last_reported":1748549542,"current_range_meters":10800,"station_id":"ce4bguh2rcd13ifvqckg","pricing_plan_id":"cebpf4jnsgd1na2vs0mg"},{"bike_id":"f8bc173a-daa9-4ce4-a9bf-8100197dee35","system_id":"levelo_inurba_marseille","lat":43.31326,"lon":5.39687,"is_reserved":false,"is_disabled":false,"rental_uris":{"android":"levelo://app?vid=f8bc173a-daa9-4ce4-a9bf-8100197dee35","ios":"levelo://app?vid=f8bc173a-daa9-4ce4-a9bf-8100197dee35"},"vehicle_type_id":"4","last_reported":1748549542,"current_range_meters":10800,"station_id":"ce4bgvp2rcd13ifvqcu0","pricing_plan_id":"cebpf4jnsgd1na2vs0mg"},{"bike_id":"343659f2-205b-4a63-aa65-00d6111a7b7a","system_id":"levelo_inurba_marseille","lat":43.308884,"lon":5.396623,"is_reserved":false,"is_disabled":false,"rental_uris":{"android":"levelo://app?vid=343659f2-205b-4a63-aa65-00d6111a7b7a","ios":"levelo://app?vid=343659f2-205b-4a63-aa65-00d6111a7b7a"},"vehicle_type_id":"4","last_reported":1748549542,"current_range_meters":10800,"station_id":"ce4bh012rcd13ifvqcv0","pricing_plan_id":"cebpf4jnsgd1na2vs0mg"},{"bike_id":"28069845-318d-4601-8a45-358a21604638","system_id":"levelo_inurba_marseille","lat":43.29629,"lon":5.40598,"is_reserved":false,"is_disabled":false,"rental_uris":{"android":"levelo://app?vid=28069845-318d-4601-8a45-358a21604638","ios":"levelo://app?vid=28069845-318d-4601-8a45-358a21604638"},"vehicle_type_id":"4","last_reported":1748549542,"current_range_meters":10800,"station_id":"ce4bh0h2rcd13ifvqd60","pricing_plan_id":"cebpf4jnsgd1na2vs0mg"},{"bike_id":"f001b3d4-8ea1-46b4-ba12-40cce81a63aa","system_id":"levelo_inurba_marseille","lat":43.29239,"lon":5.4015,"is_reserved":false,"is_disabled":false,"rental_uris":{"android":"levelo://app?vid=f001b3d4-8ea1-46b4-ba12-40cce81a63aa","ios":"levelo://app?vid=f001b3d4-8ea1-46b4-ba12-40cce81a63aa"},"vehicle_type_id":"4","last_reported":1748549542,"current_range_meters":10800,"station_id":"ce4bh312rcd13ifvqdk0","pricing_plan_id":"cebpf4jnsgd1na2vs0mg"},{"bike_id":"dec24c63-283f-4c79-9445-7ac038b0aa7b","system_id":"levelo_inurba_marseille","lat":43.29025,"lon":5.38623,"is_reserved":false,"is_disabled":false,"rental_uris":{"android":"levelo://app?vid=dec24c63-283f-4c79-9445-7ac038b0aa7b","ios":"levelo://app?vid=dec24c63-283f-4c79-9445-7ac038b0aa7b"},"vehicle_type_id":"4","last_reported":1748549542,"current_range_meters":10800,"station_id":"ce4bh4p2rcd13ifvqe0g","pricing_plan_id":"cebpf4jnsgd1na2vs0mg"},{"bike_id":"621ad574-cf13-42e9-88fe-990f32a07f08","system_id":"levelo_inurba_marseille","lat":43.2903,"lon":5.37562,"is_reserved":false,"is_disabled":false,"rental_uris":{"android":"levelo://app?vid=621ad574-cf13-42e9-88fe-990f32a07f08","ios":"levelo://app?vid=621ad574-cf13-42e9-88fe-990f32a07f08"},"vehicle_type_id":"4","last_reported":1748549542,"current_range_meters":10800,"station_id":"ce4bh692rcd13ifvqe90","pricing_plan_id":"cebpf4jnsgd1na2vs0mg"},{"bike_id":"69ce2c4a-6e4b-4874-839d-bba5411bddb1","system_id":"levelo_inurba_marseille","lat":43.29261,"lon":5.38443,"is_reserved":false,"is_disabled":false,"rental_uris":{"android":"levelo://app?vid=69ce2c4a-6e4b-4874-839d-bba5411bddb1","ios":"levelo://app?vid=69ce2c4a-6e4b-4874-839d-bba5411bddb1"},"vehicle_type_id":"4","last_reported":1748549542,"current_range_meters":10800,"station_id":"ce4bh692rcd13ifvqea0","pricing_plan_id":"cebpf4jnsgd1na2vs0mg"},{"bike_id":"64fc481a-2330-4e62-ae7b-9799fbe799a8","system_id":"levelo_inurba_marseille","lat":43.289635,"lon":5.378238,"is_reserved":false,"is_disabled":false,"rental_uris":{"android":"levelo://app?vid=64fc481a-2330-4e62-ae7b-9799fbe799a8","ios":"levelo://app?vid=64fc481a-2330-4e62-ae7b-9799fbe799a8"},"vehicle_type_id":"4","last_reported":1748549542,"current_range_meters":10800,"station_id":"ce4bh9p2rcd13ifvqed0","pricing_plan_id":"cebpf4jnsgd1na2vs0mg"},{"bike_id":"c3708d46-6d3f-473e-a7dd-aaed7b1ccfcb","system_id":"levelo_inurba_marseille","lat":43.28108,"lon":5.37832,"is_reserved":false,"is_disabled":false,"rental_uris":{"android":"levelo://app?vid=c3708d46-6d3f-473e-a7dd-aaed7b1ccfcb","ios":"levelo://app?vid=c3708d46-6d3f-473e-a7dd-aaed7b1ccfcb"},"vehicle_type_id":"4","last_reported":1748549542,"current_range_meters":10800,"station_id":"ce4bha12rcd13ifvqee0","pricing_plan_id":"cebpf4jnsgd1na2vs0mg"},{"bike_id":"de5cf318-1a36-4a98-a920-6d997a25c229","system_id":"levelo_inurba_marseille","lat":43.2896,"lon":5.36617,"is_reserved":false,"is_disabled":false,"rental_uris":{"android":"levelo://app?vid=de5cf318-1a36-4a98-a920-6d997a25c229","ios":"levelo://app?vid=de5cf318-1a36-4a98-a920-6d997a25c229"},"vehicle_type_id":"4","last_reported":1748549542,"current_range_meters":10800,"station_id":"ce4bhap2rcd13ifvqek0","pricing_plan_id":"cebpf4jnsgd1na2vs0mg"},{"bike_id":"100bc6df-7e39-4093-ab29-f71b28bfa050","system_id":"levelo_inurba_marseille","lat":43.27414,"lon":5.39397,"is_reserved":false,"is_disabled":false,"rental_uris":{"android":"levelo://app?vid=100bc6df-7e39-4093-ab29-f71b28bfa050","ios":"levelo://app?vid=100bc6df-7e39-4093-ab29-f71b28bfa050"},"vehicle_type_id":"4","last_reported":1748549542,"current_range_meters":10800,"station_id":"ce4bhdp2rcd13ifvqf20","pricing_plan_id":"cebpf4jnsgd1na2vs0mg"},{"bike_id":"9645fd54-db8d-4cf3-9341-8f046247c936","system_id":"levelo_inurba_marseille","lat":43.26572,"lon":5.39003,"is_reserved":false,"is_disabled":false,"rental_uris":{"android":"levelo://app?vid=9645fd54-db8d-4cf3-9341-8f046247c936","ios":"levelo://app?vid=9645fd54-db8d-4cf3-9341-8f046247c936"},"vehicle_type_id":"4","last_reported":1748549542,"current_range_meters":10800,"station_id":"ce4bhe12rcd13ifvqf30","pricing_plan_id":"cebpf4jnsgd1na2vs0mg"},{"bike_id":"6baca173-b4b3-4695-83af-9d17579262ce","system_id":"levelo_inurba_marseille","lat":43.26563,"lon":5.3728,"is_reserved":false,"is_disabled":false,"rental_uris":{"android":"levelo://app?vid=6baca173-b4b3-4695-83af-9d17579262ce","ios":"levelo://app?vid=6baca173-b4b3-4695-83af-9d17579262ce"},"vehicle_type_id":"4","last_reported":1748549542,"current_range_meters":10800,"station_id":"ce4bhg12rcd13ifvqf70","pricing_plan_id":"cebpf4jnsgd1na2vs0mg"},{"bike_id":"99c6c18b-4874-4a65-adc0-52a16631a0e2","system_id":"levelo_inurba_marseille","lat":43.25725,"lon":5.41099,"is_reserved":false,"is_disabled":false,"rental_uris":{"android":"levelo://app?vid=99c6c18b-4874-4a65-adc0-52a16631a0e2","ios":"levelo://app?vid=99c6c18b-4874-4a65-adc0-52a16631a0e2"},"vehicle_type_id":"4","last_reported":1748549542,"current_range_meters":10800,"station_id":"ce4bhkp2rcd13ifvqgd0","pricing_plan_id":"cebpf4jnsgd1na2vs0mg"},{"bike_id":"279a10e7-e84b-43fd-983f-0a5dd993c8a0","system_id":"levelo_inurba_marseille","lat":43.28154,"lon":5.42641,"is_reserved":false,"is_disabled":false,"rental_uris":{"android":"levelo://app?vid=279a10e7-e84b-43fd-983f-0a5dd993c8a0","ios":"levelo://app?vid=279a10e7-e84b-43fd-983f-0a5dd993c8a0"},"vehicle_type_id":"4","last_reported":1748549542,"current_range_meters":10800,"station_id":"ce4bhnh2rcd13ifvqgug","pricing_plan_id":"cebpf4jnsgd1na2vs0mg"},{"bike_id":"aad91479-0b7d-44ff-a676-89e6dc488ebf","system_id":"levelo_inurba_marseille","lat":43.29541,"lon":5.38535,"is_reserved":false,"is_disabled":false,"rental_uris":{"android":"levelo://app?vid=aad91479-0b7d-44ff-a676-89e6dc488ebf","ios":"levelo://app?vid=aad91479-0b7d-44ff-a676-89e6dc488ebf"},"vehicle_type_id":"4","last_reported":1748549542,"current_range_meters":11200,"station_id":"ce4bgih2rcd13ifvqba0","pricing_plan_id":"cebpf4jnsgd1na2vs0mg"},{"bike_id":"e0d0232a-6c98-4809-bb13-489e468a05bd","system_id":"levelo_inurba_marseille","lat":43.297027,"lon":5.366028,"is_reserved":false,"is_disabled":false,"rental_uris":{"android":"levelo://app?vid=e0d0232a-6c98-4809-bb13-489e468a05bd","ios":"levelo://app?vid=e0d0232a-6c98-4809-bb13-489e468a05bd"},"vehicle_type_id":"4","last_reported":1748549542,"current_range_meters":11200,"station_id":"ce4bgn12rcd13ifvqbt0","pricing_plan_id":"cebpf4jnsgd1na2vs0mg"},{"bike_id":"8783a4d9-7afa-413c-a972-a6bf8b9e9340","system_id":"levelo_inurba_marseille","lat":43.3133,"lon":5.39689,"is_reserved":false,"is_disabled":false,"rental_uris":{"android":"levelo://app?vid=8783a4d9-7afa-413c-a972-a6bf8b9e9340","ios":"levelo://app?vid=8783a4d9-7afa-413c-a972-a6bf8b9e9340"},"vehicle_type_id":"4","last_reported":1748549542,"current_range_meters":11200,"station_id":"ce4bgvp2rcd13ifvqcu0","pricing_plan_id":"cebpf4jnsgd1na2vs0mg"},{"bike_id":"a307f8c0-d012-4f8b-9399-0d269cb01af4","system_id":"levelo_inurba_marseille","lat":43.29255,"lon":5.38443,"is_reserved":false,"is_disabled":false,"rental_uris":{"android":"levelo://app?vid=a307f8c0-d012-4f8b-9399-0d269cb01af4","ios":"levelo://app?vid=a307f8c0-d012-4f8b-9399-0d269cb01af4"},"vehicle_type_id":"4","last_reported":1748549542,"current_range_meters":11200,"station_id":"ce4bh692rcd13ifvqea0","pricing_plan_id":"cebpf4jnsgd1na2vs0mg"},{"bike_id":"d1096873-14b6-4783-a074-41ed382fc392","system_id":"levelo_inurba_marseille","lat":43.24803,"lon":5.37459,"is_reserved":false,"is_disabled":false,"rental_uris":{"android":"levelo://app?vid=d1096873-14b6-4783-a074-41ed382fc392","ios":"levelo://app?vid=d1096873-14b6-4783-a074-41ed382fc392"},"vehicle_type_id":"4","last_reported":1748549542,"current_range_meters":11200,"station_id":"ce4bhgh2rcd13ifvqfb0","pricing_plan_id":"cebpf4jnsgd1na2vs0mg"},{"bike_id":"6497f928-b492-441b-adb0-b2293f76870d","system_id":"levelo_inurba_marseille","lat":43.24541,"lon":5.39522,"is_reserved":false,"is_disabled":false,"rental_uris":{"android":"levelo://app?vid=6497f928-b492-441b-adb0-b2293f76870d","ios":"levelo://app?vid=6497f928-b492-441b-adb0-b2293f76870d"},"vehicle_type_id":"4","last_reported":1748549542,"current_range_meters":11200,"station_id":"ce4bhlp2rcd13ifvqgjg","pricing_plan_id":"cebpf4jnsgd1na2vs0mg"},{"bike_id":"bdbee15d-3458-4da8-8553-de9903cf45df","system_id":"levelo_inurba_marseille","lat":43.2843,"lon":5.39184,"is_reserved":false,"is_disabled":false,"rental_uris":{"android":"levelo://app?vid=bdbee15d-3458-4da8-8553-de9903cf45df","ios":"levelo://app?vid=bdbee15d-3458-4da8-8553-de9903cf45df"},"vehicle_type_id":"4","last_reported":1748549542,"current_range_meters":11200,"station_id":"ce4bhoh2rcd13ifvqh5g","pricing_plan_id":"cebpf4jnsgd1na2vs0mg"},{"bike_id":"c02f7192-2ae4-4155-bc03-3e3c41d5c8ad","system_id":"levelo_inurba_marseille","lat":43.31087,"lon":5.42426,"is_reserved":false,"is_disabled":false,"rental_uris":{"android":"levelo://app?vid=c02f7192-2ae4-4155-bc03-3e3c41d5c8ad","ios":"levelo://app?vid=c02f7192-2ae4-4155-bc03-3e3c41d5c8ad"},"vehicle_type_id":"4","last_reported":1748549542,"current_range_meters":11200,"station_id":"ce4bhp92rcd13ifvqhag","pricing_plan_id":"cebpf4jnsgd1na2vs0mg"},{"bike_id":"f794aef5-99dc-4499-b1ca-44ab1e7b6ef4","system_id":"levelo_inurba_marseille","lat":43.31716,"lon":5.43702,"is_reserved":false,"is_disabled":false,"rental_uris":{"android":"levelo://app?vid=f794aef5-99dc-4499-b1ca-44ab1e7b6ef4","ios":"levelo://app?vid=f794aef5-99dc-4499-b1ca-44ab1e7b6ef4"},"vehicle_type_id":"4","last_reported":1748549542,"current_range_meters":11200,"station_id":"ce4bhp92rcd13ifvqhcg","pricing_plan_id":"cebpf4jnsgd1na2vs0mg"},{"bike_id":"ee868192-5c15-4843-ac7a-4bf077e9c22d","system_id":"levelo_inurba_marseille","lat":43.31715,"lon":5.43709,"is_reserved":false,"is_disabled":false,"rental_uris":{"android":"levelo://app?vid=ee868192-5c15-4843-ac7a-4bf077e9c22d","ios":"levelo://app?vid=ee868192-5c15-4843-ac7a-4bf077e9c22d"},"vehicle_type_id":"4","last_reported":1748549542,"current_range_meters":11200,"station_id":"ce4bhp92rcd13ifvqhcg","pricing_plan_id":"cebpf4jnsgd1na2vs0mg"},{"bike_id":"b0f67d6d-3250-42ef-8f19-4e74e6760f9a","system_id":"levelo_inurba_marseille","lat":43.34402,"lon":5.38136,"is_reserved":false,"is_disabled":false,"rental_uris":{"android":"levelo://app?vid=b0f67d6d-3250-42ef-8f19-4e74e6760f9a","ios":"levelo://app?vid=b0f67d6d-3250-42ef-8f19-4e74e6760f9a"},"vehicle_type_id":"4","last_reported":1748549542,"current_range_meters":11600,"station_id":"","pricing_plan_id":"cebpf4jnsgd1na2vs0mg"},{"bike_id":"a511d578-129f-44e0-a573-a31884933e6b","system_id":"levelo_inurba_marseille","lat":43.275,"lon":5.4094,"is_reserved":false,"is_disabled":false,"rental_uris":{"android":"levelo://app?vid=a511d578-129f-44e0-a573-a31884933e6b","ios":"levelo://app?vid=a511d578-129f-44e0-a573-a31884933e6b"},"vehicle_type_id":"4","last_reported":1748549542,"current_range_meters":11600,"station_id":"","pricing_plan_id":"cebpf4jnsgd1na2vs0mg"},{"bike_id":"a8230de5-34c0-444f-a9cb-eb048c8a377c","system_id":"levelo_inurba_marseille","lat":43.31072,"lon":5.38353,"is_reserved":false,"is_disabled":false,"rental_uris":{"android":"levelo://app?vid=a8230de5-34c0-444f-a9cb-eb048c8a377c","ios":"levelo://app?vid=a8230de5-34c0-444f-a9cb-eb048c8a377c"},"vehicle_type_id":"4","last_reported":1748549542,"current_range_meters":11600,"station_id":"ce4bgv92rcd13ifvqcr0","pricing_plan_id":"cebpf4jnsgd1na2vs0mg"},{"bike_id":"9b139157-0f80-48a4-800c-c730929e828e","system_id":"levelo_inurba_marseille","lat":43.29053,"lon":5.37163,"is_reserved":false,"is_disabled":false,"rental_uris":{"android":"levelo://app?vid=9b139157-0f80-48a4-800c-c730929e828e","ios":"levelo://app?vid=9b139157-0f80-48a4-800c-c730929e828e"},"vehicle_type_id":"4","last_reported":1748549542,"current_range_meters":11600,"station_id":"ce4bh5p2rcd13ifvqe4g","pricing_plan_id":"cebpf4jnsgd1na2vs0mg"},{"bike_id":"7e795d7f-1e97-48e9-a6ea-ed5254ffbe40","system_id":"levelo_inurba_marseille","lat":43.28462,"lon":5.35888,"is_reserved":false,"is_disabled":false,"rental_uris":{"android":"levelo://app?vid=7e795d7f-1e97-48e9-a6ea-ed5254ffbe40","ios":"levelo://app?vid=7e795d7f-1e97-48e9-a6ea-ed5254ffbe40"},"vehicle_type_id":"4","last_reported":1748549542,"current_range_meters":11600,"station_id":"ce4bhah2rcd13ifvqei0","pricing_plan_id":"cebpf4jnsgd1na2vs0mg"},{"bike_id":"d4f1fc23-8207-42c2-bd4d-e7c9bec8c86d","system_id":"levelo_inurba_marseille","lat":43.2845,"lon":5.39167,"is_reserved":false,"is_disabled":false,"rental_uris":{"android":"levelo://app?vid=d4f1fc23-8207-42c2-bd4d-e7c9bec8c86d","ios":"levelo://app?vid=d4f1fc23-8207-42c2-bd4d-e7c9bec8c86d"},"vehicle_type_id":"4","last_reported":1748549542,"current_range_meters":11600,"station_id":"ce4bhoh2rcd13ifvqh5g","pricing_plan_id":"cebpf4jnsgd1na2vs0mg"},{"bike_id":"90e765d3-71bc-4949-957b-9e99d7615076","system_id":"levelo_inurba_marseille","lat":43.25613,"lon":5.40512,"is_reserved":false,"is_disabled":false,"rental_uris":{"android":"levelo://app?vid=90e765d3-71bc-4949-957b-9e99d7615076","ios":"levelo://app?vid=90e765d3-71bc-4949-957b-9e99d7615076"},"vehicle_type_id":"4","last_reported":1748549542,"current_range_meters":12000,"station_id":"","pricing_plan_id":"cebpf4jnsgd1na2vs0mg"},{"bike_id":"f5733814-9732-4748-bcc9-3b2fac8e1564","system_id":"levelo_inurba_marseille","lat":43.31256,"lon":5.37829,"is_reserved":false,"is_disabled":false,"rental_uris":{"android":"levelo://app?vid=f5733814-9732-4748-bcc9-3b2fac8e1564","ios":"levelo://app?vid=f5733814-9732-4748-bcc9-3b2fac8e1564"},"vehicle_type_id":"4","last_reported":1748549542,"current_range_meters":12000,"station_id":"","pricing_plan_id":"cebpf4jnsgd1na2vs0mg"},{"bike_id":"f96d3350-c5bf-4b21-add4-93ecfdb5e9e5","system_id":"levelo_inurba_marseille","lat":43.26531,"lon":5.37246,"is_reserved":false,"is_disabled":false,"rental_uris":{"android":"levelo://app?vid=f96d3350-c5bf-4b21-add4-93ecfdb5e9e5","ios":"levelo://app?vid=f96d3350-c5bf-4b21-add4-93ecfdb5e9e5"},"vehicle_type_id":"4","last_reported":1748549542,"current_range_meters":12000,"station_id":"","pricing_plan_id":"cebpf4jnsgd1na2vs0mg"},{"bike_id":"2267f825-1f33-4455-895b-8a38362476c6","system_id":"levelo_inurba_marseille","lat":43.29917,"lon":5.37482,"is_reserved":false,"is_disabled":false,"rental_uris":{"android":"levelo://app?vid=2267f825-1f33-4455-895b-8a38362476c6","ios":"levelo://app?vid=2267f825-1f33-4455-895b-8a38362476c6"},"vehicle_type_id":"4","last_reported":1748549542,"current_range_meters":12000,"station_id":"ce4bgjh2rcd13ifvqbg0","pricing_plan_id":"cebpf4jnsgd1na2vs0mg"},{"bike_id":"ece14277-a1e5-45de-b872-3b5401b47b8b","system_id":"levelo_inurba_marseille","lat":43.30887,"lon":5.37203,"is_reserved":false,"is_disabled":false,"rental_uris":{"android":"levelo://app?vid=ece14277-a1e5-45de-b872-3b5401b47b8b","ios":"levelo://app?vid=ece14277-a1e5-45de-b872-3b5401b47b8b"},"vehicle_type_id":"4","last_reported":1748549542,"current_range_meters":12000,"station_id":"ce4bguh2rcd13ifvqckg","pricing_plan_id":"cebpf4jnsgd1na2vs0mg"},{"bike_id":"6df048b1-b400-44e3-98b5-b9feb6ceddd4","system_id":"levelo_inurba_marseille","lat":43.290293,"lon":5.38636,"is_reserved":false,"is_disabled":false,"rental_uris":{"android":"levelo://app?vid=6df048b1-b400-44e3-98b5-b9feb6ceddd4","ios":"levelo://app?vid=6df048b1-b400-44e3-98b5-b9feb6ceddd4"},"vehicle_type_id":"4","last_reported":1748549542,"current_range_meters":12000,"station_id":"ce4bh4p2rcd13ifvqe0g","pricing_plan_id":"cebpf4jnsgd1na2vs0mg"},{"bike_id":"47ce111d-da00-44e1-bb4b-5c32f8d4730e","system_id":"levelo_inurba_marseille","lat":43.29041,"lon":5.38659,"is_reserved":false,"is_disabled":false,"rental_uris":{"android":"levelo://app?vid=47ce111d-da00-44e1-bb4b-5c32f8d4730e","ios":"levelo://app?vid=47ce111d-da00-44e1-bb4b-5c32f8d4730e"},"vehicle_type_id":"4","last_reported":1748549542,"current_range_meters":12000,"station_id":"ce4bh4p2rcd13ifvqe0g","pricing_plan_id":"cebpf4jnsgd1na2vs0mg"},{"bike_id":"5eca30d4-9a79-4810-a273-ff9967a0b481","system_id":"levelo_inurba_marseille","lat":43.27421,"lon":5.39399,"is_reserved":false,"is_disabled":false,"rental_uris":{"android":"levelo://app?vid=5eca30d4-9a79-4810-a273-ff9967a0b481","ios":"levelo://app?vid=5eca30d4-9a79-4810-a273-ff9967a0b481"},"vehicle_type_id":"4","last_reported":1748549542,"current_range_meters":12000,"station_id":"ce4bhdp2rcd13ifvqf20","pricing_plan_id":"cebpf4jnsgd1na2vs0mg"},{"bike_id":"a2ba0c9e-2a3e-4fa3-b8c8-fb347107d246","system_id":"levelo_inurba_marseille","lat":43.24548,"lon":5.39523,"is_reserved":false,"is_disabled":false,"rental_uris":{"android":"levelo://app?vid=a2ba0c9e-2a3e-4fa3-b8c8-fb347107d246","ios":"levelo://app?vid=a2ba0c9e-2a3e-4fa3-b8c8-fb347107d246"},"vehicle_type_id":"4","last_reported":1748549542,"current_range_meters":12000,"station_id":"ce4bhlp2rcd13ifvqgjg","pricing_plan_id":"cebpf4jnsgd1na2vs0mg"},{"bike_id":"a426f99b-d34a-41bf-bbda-59f7dfd6939b","system_id":"levelo_inurba_marseille","lat":43.255796,"lon":5.382262,"is_reserved":false,"is_disabled":false,"rental_uris":{"android":"levelo://app?vid=a426f99b-d34a-41bf-bbda-59f7dfd6939b","ios":"levelo://app?vid=a426f99b-d34a-41bf-bbda-59f7dfd6939b"},"vehicle_type_id":"4","last_reported":1748549542,"current_range_meters":12000,"station_id":"ce501612rcd8frsf0b60","pricing_plan_id":"cebpf4jnsgd1na2vs0mg"},{"bike_id":"4547f7e9-b797-4dca-b419-d4f48e5abc03","system_id":"levelo_inurba_marseille","lat":43.30951,"lon":5.39032,"is_reserved":false,"is_disabled":false,"rental_uris":{"android":"levelo://app?vid=4547f7e9-b797-4dca-b419-d4f48e5abc03","ios":"levelo://app?vid=4547f7e9-b797-4dca-b419-d4f48e5abc03"},"vehicle_type_id":"4","last_reported":1748549542,"current_range_meters":12400,"station_id":"ce4bgup2rcd13ifvqco0","pricing_plan_id":"cebpf4jnsgd1na2vs0mg"},{"bike_id":"243329ec-61f4-47d0-ac7f-0dbb82dc38af","system_id":"levelo_inurba_marseille","lat":43.26047,"lon":5.37537,"is_reserved":false,"is_disabled":false,"rental_uris":{"android":"levelo://app?vid=243329ec-61f4-47d0-ac7f-0dbb82dc38af","ios":"levelo://app?vid=243329ec-61f4-47d0-ac7f-0dbb82dc38af"},"vehicle_type_id":"4","last_reported":1748549542,"current_range_meters":12400,"station_id":"ce4bhgh2rcd13ifvqfa0","pricing_plan_id":"cebpf4jnsgd1na2vs0mg"},{"bike_id":"53a2df1c-cc70-4e68-9f91-efa6a878eb1e","system_id":"levelo_inurba_marseille","lat":43.24809,"lon":5.37456,"is_reserved":false,"is_disabled":false,"rental_uris":{"android":"levelo://app?vid=53a2df1c-cc70-4e68-9f91-efa6a878eb1e","ios":"levelo://app?vid=53a2df1c-cc70-4e68-9f91-efa6a878eb1e"},"vehicle_type_id":"4","last_reported":1748549542,"current_range_meters":12400,"station_id":"ce4bhgh2rcd13ifvqfb0","pricing_plan_id":"cebpf4jnsgd1na2vs0mg"},{"bike_id":"1e9bf83b-a7c9-4a33-83da-74f58ce8ddf3","system_id":"levelo_inurba_marseille","lat":43.23154,"lon":5.43705,"is_reserved":false,"is_disabled":false,"rental_uris":{"android":"levelo://app?vid=1e9bf83b-a7c9-4a33-83da-74f58ce8ddf3","ios":"levelo://app?vid=1e9bf83b-a7c9-4a33-83da-74f58ce8ddf3"},"vehicle_type_id":"4","last_reported":1748549542,"current_range_meters":12400,"station_id":"ce4bhmp2rcd13ifvqgog","pricing_plan_id":"cebpf4jnsgd1na2vs0mg"},{"bike_id":"da279776-c099-4cdd-acd3-f802ffed4965","system_id":"levelo_inurba_marseille","lat":43.29563,"lon":5.42266,"is_reserved":false,"is_disabled":false,"rental_uris":{"android":"levelo://app?vid=da279776-c099-4cdd-acd3-f802ffed4965","ios":"levelo://app?vid=da279776-c099-4cdd-acd3-f802ffed4965"},"vehicle_type_id":"4","last_reported":1748549542,"current_range_meters":12400,"station_id":"ce4bhph2rcd13ifvqhdg","pricing_plan_id":"cebpf4jnsgd1na2vs0mg"},{"bike_id":"e9cda520-c6f4-465d-ad7f-8c059b3dc45a","system_id":"levelo_inurba_marseille","lat":43.313967,"lon":5.383993,"is_reserved":false,"is_disabled":false,"rental_uris":{"android":"levelo://app?vid=e9cda520-c6f4-465d-ad7f-8c059b3dc45a","ios":"levelo://app?vid=e9cda520-c6f4-465d-ad7f-8c059b3dc45a"},"vehicle_type_id":"4","last_reported":1748549542,"current_range_meters":12800,"station_id":"","pricing_plan_id":"cebpf4jnsgd1na2vs0mg"},{"bike_id":"d7cf0d92-274f-43c6-a061-ba49e648e697","system_id":"levelo_inurba_marseille","lat":43.29249,"lon":5.40912,"is_reserved":false,"is_disabled":false,"rental_uris":{"android":"levelo://app?vid=d7cf0d92-274f-43c6-a061-ba49e648e697","ios":"levelo://app?vid=d7cf0d92-274f-43c6-a061-ba49e648e697"},"vehicle_type_id":"4","last_reported":1748549542,"current_range_meters":12800,"station_id":"ce4bh192rcd13ifvqdc0","pricing_plan_id":"cebpf4jnsgd1na2vs0mg"},{"bike_id":"ec2c6190-3cb9-4f14-8e75-799f94b511ff","system_id":"levelo_inurba_marseille","lat":43.28491,"lon":5.38414,"is_reserved":false,"is_disabled":false,"rental_uris":{"android":"levelo://app?vid=ec2c6190-3cb9-4f14-8e75-799f94b511ff","ios":"levelo://app?vid=ec2c6190-3cb9-4f14-8e75-799f94b511ff"},"vehicle_type_id":"4","last_reported":1748549542,"current_range_meters":12800,"station_id":"ce4bh512rcd13ifvqe3g","pricing_plan_id":"cebpf4jnsgd1na2vs0mg"},{"bike_id":"12d71f9f-a636-4180-b1fc-1786dcd244be","system_id":"levelo_inurba_marseille","lat":43.29259,"lon":5.38436,"is_reserved":false,"is_disabled":false,"rental_uris":{"android":"levelo://app?vid=12d71f9f-a636-4180-b1fc-1786dcd244be","ios":"levelo://app?vid=12d71f9f-a636-4180-b1fc-1786dcd244be"},"vehicle_type_id":"4","last_reported":1748549542,"current_range_meters":12800,"station_id":"ce4bh692rcd13ifvqea0","pricing_plan_id":"cebpf4jnsgd1na2vs0mg"},{"bike_id":"747224c9-7e52-4c58-9390-d943c4f5446c","system_id":"levelo_inurba_marseille","lat":43.27191,"lon":5.41008,"is_reserved":false,"is_disabled":false,"rental_uris":{"android":"levelo://app?vid=747224c9-7e52-4c58-9390-d943c4f5446c","ios":"levelo://app?vid=747224c9-7e52-4c58-9390-d943c4f5446c"},"vehicle_type_id":"4","last_reported":1748549542,"current_range_meters":12800,"station_id":"ce4bhl12rcd13ifvqgf0","pricing_plan_id":"cebpf4jnsgd1na2vs0mg"},{"bike_id":"5b20a884-0cb9-4a76-bf11-94f3007efe1e","system_id":"levelo_inurba_marseille","lat":43.25107,"lon":5.40326,"is_reserved":false,"is_disabled":false,"rental_uris":{"android":"levelo://app?vid=5b20a884-0cb9-4a76-bf11-94f3007efe1e","ios":"levelo://app?vid=5b20a884-0cb9-4a76-bf11-94f3007efe1e"},"vehicle_type_id":"4","last_reported":1748549542,"current_range_meters":12800,"station_id":"ce4bhlh2rcd13ifvqgig","pricing_plan_id":"cebpf4jnsgd1na2vs0mg"},{"bike_id":"978e8fd3-01a7-4b79-b825-32f6f7ed896f","system_id":"levelo_inurba_marseille","lat":43.29578,"lon":5.36737,"is_reserved":false,"is_disabled":false,"rental_uris":{"android":"levelo://app?vid=978e8fd3-01a7-4b79-b825-32f6f7ed896f","ios":"levelo://app?vid=978e8fd3-01a7-4b79-b825-32f6f7ed896f"},"vehicle_type_id":"4","last_reported":1748549542,"current_range_meters":13600,"station_id":"ce4bgph2rcd13ifvqc2g","pricing_plan_id":"cebpf4jnsgd1na2vs0mg"},{"bike_id":"89527f10-1804-4136-9f29-4b4553047a6c","system_id":"levelo_inurba_marseille","lat":43.310707,"lon":5.383579,"is_reserved":false,"is_disabled":false,"rental_uris":{"android":"levelo://app?vid=89527f10-1804-4136-9f29-4b4553047a6c","ios":"levelo://app?vid=89527f10-1804-4136-9f29-4b4553047a6c"},"vehicle_type_id":"4","last_reported":1748549542,"current_range_meters":13600,"station_id":"ce4bgv92rcd13ifvqcr0","pricing_plan_id":"cebpf4jnsgd1na2vs0mg"},{"bike_id":"643d9ec4-a211-4357-bc47-ec3750d591ab","system_id":"levelo_inurba_marseille","lat":43.290192,"lon":5.381301,"is_reserved":false,"is_disabled":false,"rental_uris":{"android":"levelo://app?vid=643d9ec4-a211-4357-bc47-ec3750d591ab","ios":"levelo://app?vid=643d9ec4-a211-4357-bc47-ec3750d591ab"},"vehicle_type_id":"4","last_reported":1748549542,"current_range_meters":13600,"station_id":"ce4bh4p2rcd13ifvqe1g","pricing_plan_id":"cebpf4jnsgd1na2vs0mg"},{"bike_id":"7618de58-ece2-4a24-9f8a-9108fa6aaa1f","system_id":"levelo_inurba_marseille","lat":43.29277,"lon":5.36845,"is_reserved":false,"is_disabled":false,"rental_uris":{"android":"levelo://app?vid=7618de58-ece2-4a24-9f8a-9108fa6aaa1f","ios":"levelo://app?vid=7618de58-ece2-4a24-9f8a-9108fa6aaa1f"},"vehicle_type_id":"4","last_reported":1748549542,"current_range_meters":13600,"station_id":"ce4bhbp2rcd13ifvqesg","pricing_plan_id":"cebpf4jnsgd1na2vs0mg"},{"bike_id":"1be21534-ca7b-4f38-8bff-a7515afc85f6","system_id":"levelo_inurba_marseille","lat":43.24804,"lon":5.37453,"is_reserved":false,"is_disabled":false,"rental_uris":{"android":"levelo://app?vid=1be21534-ca7b-4f38-8bff-a7515afc85f6","ios":"levelo://app?vid=1be21534-ca7b-4f38-8bff-a7515afc85f6"},"vehicle_type_id":"4","last_reported":1748549542,"current_range_meters":13600,"station_id":"ce4bhgh2rcd13ifvqfb0","pricing_plan_id":"cebpf4jnsgd1na2vs0mg"},{"bike_id":"d2194095-52f0-44b2-9c32-a4332a95867e","system_id":"levelo_inurba_marseille","lat":43.2706,"lon":5.4026,"is_reserved":false,"is_disabled":false,"rental_uris":{"android":"levelo://app?vid=d2194095-52f0-44b2-9c32-a4332a95867e","ios":"levelo://app?vid=d2194095-52f0-44b2-9c32-a4332a95867e"},"vehicle_type_id":"4","last_reported":1748549542,"current_range_meters":13600,"station_id":"ce4bhk92rcd13ifvqgc0","pricing_plan_id":"cebpf4jnsgd1na2vs0mg"},{"bike_id":"e78002db-d3ac-45e2-ba09-abcc303d54d4","system_id":"levelo_inurba_marseille","lat":43.303756,"lon":5.424882,"is_reserved":false,"is_disabled":false,"rental_uris":{"android":"levelo://app?vid=e78002db-d3ac-45e2-ba09-abcc303d54d4","ios":"levelo://app?vid=e78002db-d3ac-45e2-ba09-abcc303d54d4"},"vehicle_type_id":"4","last_reported":1748549542,"current_range_meters":13600,"station_id":"ce4bhoh2rcd13ifvqh6g","pricing_plan_id":"cebpf4jnsgd1na2vs0mg"},{"bike_id":"dddeb80d-3057-46be-833d-4a0c2415e343","system_id":"levelo_inurba_marseille","lat":43.31994,"lon":5.38147,"is_reserved":false,"is_disabled":false,"rental_uris":{"android":"levelo://app?vid=dddeb80d-3057-46be-833d-4a0c2415e343","ios":"levelo://app?vid=dddeb80d-3057-46be-833d-4a0c2415e343"},"vehicle_type_id":"4","last_reported":1748549542,"current_range_meters":13600,"station_id":"ce4bhr12rcd13ifvqhpg","pricing_plan_id":"cebpf4jnsgd1na2vs0mg"},{"bike_id":"e044c9db-ce02-4ecf-bf86-8eaa46f9c414","system_id":"levelo_inurba_marseille","lat":43.25746,"lon":5.39108,"is_reserved":false,"is_disabled":false,"rental_uris":{"android":"levelo://app?vid=e044c9db-ce02-4ecf-bf86-8eaa46f9c414","ios":"levelo://app?vid=e044c9db-ce02-4ecf-bf86-8eaa46f9c414"},"vehicle_type_id":"4","last_reported":1748549542,"current_range_meters":14000,"station_id":"","pricing_plan_id":"cebpf4jnsgd1na2vs0mg"},{"bike_id":"5ebcab2d-592d-446c-bba6-9706c8bc4b45","system_id":"levelo_inurba_marseille","lat":43.313491,"lon":5.367019,"is_reserved":false,"is_disabled":false,"rental_uris":{"android":"levelo://app?vid=5ebcab2d-592d-446c-bba6-9706c8bc4b45","ios":"levelo://app?vid=5ebcab2d-592d-446c-bba6-9706c8bc4b45"},"vehicle_type_id":"4","last_reported":1748549542,"current_range_meters":14000,"station_id":"ce4bgr92rcd13ifvqc6g","pricing_plan_id":"cebpf4jnsgd1na2vs0mg"},{"bike_id":"c7976280-845b-4c77-bb3e-bc4afeb3150a","system_id":"levelo_inurba_marseille","lat":43.29415,"lon":5.38639,"is_reserved":false,"is_disabled":false,"rental_uris":{"android":"levelo://app?vid=c7976280-845b-4c77-bb3e-bc4afeb3150a","ios":"levelo://app?vid=c7976280-845b-4c77-bb3e-bc4afeb3150a"},"vehicle_type_id":"4","last_reported":1748549542,"current_range_meters":14000,"station_id":"ce4bh2h2rcd13ifvqdh0","pricing_plan_id":"cebpf4jnsgd1na2vs0mg"},{"bike_id":"e7192470-fe54-473d-9ed4-afba302bb325","system_id":"levelo_inurba_marseille","lat":43.290239,"lon":5.381295,"is_reserved":false,"is_disabled":false,"rental_uris":{"android":"levelo://app?vid=e7192470-fe54-473d-9ed4-afba302bb325","ios":"levelo://app?vid=e7192470-fe54-473d-9ed4-afba302bb325"},"vehicle_type_id":"4","last_reported":1748549542,"current_range_meters":14000,"station_id":"ce4bh4p2rcd13ifvqe1g","pricing_plan_id":"cebpf4jnsgd1na2vs0mg"},{"bike_id":"b7318f12-621d-46ae-a973-a5ff07d6d4a7","system_id":"levelo_inurba_marseille","lat":43.29101,"lon":5.38141,"is_reserved":false,"is_disabled":false,"rental_uris":{"android":"levelo://app?vid=b7318f12-621d-46ae-a973-a5ff07d6d4a7","ios":"levelo://app?vid=b7318f12-621d-46ae-a973-a5ff07d6d4a7"},"vehicle_type_id":"4","last_reported":1748549542,"current_range_meters":14000,"station_id":"ce4bh512rcd13ifvqe2g","pricing_plan_id":"cebpf4jnsgd1na2vs0mg"},{"bike_id":"48e26ea8-1795-4299-a1c4-724bbc46d8d5","system_id":"levelo_inurba_marseille","lat":43.28944,"lon":5.3665,"is_reserved":false,"is_disabled":false,"rental_uris":{"android":"levelo://app?vid=48e26ea8-1795-4299-a1c4-724bbc46d8d5","ios":"levelo://app?vid=48e26ea8-1795-4299-a1c4-724bbc46d8d5"},"vehicle_type_id":"4","last_reported":1748549542,"current_range_meters":14000,"station_id":"ce4bhap2rcd13ifvqek0","pricing_plan_id":"cebpf4jnsgd1na2vs0mg"},{"bike_id":"bae85408-eec6-4110-983b-20569acb1947","system_id":"levelo_inurba_marseille","lat":43.24815,"lon":5.3745,"is_reserved":false,"is_disabled":false,"rental_uris":{"android":"levelo://app?vid=bae85408-eec6-4110-983b-20569acb1947","ios":"levelo://app?vid=bae85408-eec6-4110-983b-20569acb1947"},"vehicle_type_id":"4","last_reported":1748549542,"current_range_meters":14000,"station_id":"ce4bhgh2rcd13ifvqfb0","pricing_plan_id":"cebpf4jnsgd1na2vs0mg"},{"bike_id":"6cddb488-bc63-402f-9ae9-4b2b965663c6","system_id":"levelo_inurba_marseille","lat":43.28085,"lon":5.39666,"is_reserved":false,"is_disabled":false,"rental_uris":{"android":"levelo://app?vid=6cddb488-bc63-402f-9ae9-4b2b965663c6","ios":"levelo://app?vid=6cddb488-bc63-402f-9ae9-4b2b965663c6"},"vehicle_type_id":"4","last_reported":1748549542,"current_range_meters":14000,"station_id":"ce4bho12rcd13ifvqh2g","pricing_plan_id":"cebpf4jnsgd1na2vs0mg"},{"bike_id":"f191fbbe-6613-4aed-bba7-43e662604e3b","system_id":"levelo_inurba_marseille","lat":43.33611,"lon":5.41035,"is_reserved":false,"is_disabled":false,"rental_uris":{"android":"levelo://app?vid=f191fbbe-6613-4aed-bba7-43e662604e3b","ios":"levelo://app?vid=f191fbbe-6613-4aed-bba7-43e662604e3b"},"vehicle_type_id":"4","last_reported":1748549542,"current_range_meters":14000,"station_id":"ce4bhqh2rcd13ifvqhmg","pricing_plan_id":"cebpf4jnsgd1na2vs0mg"},{"bike_id":"8812f9b2-7682-497d-bcf0-493235c16f10","system_id":"levelo_inurba_marseille","lat":43.29039,"lon":5.37182,"is_reserved":false,"is_disabled":false,"rental_uris":{"android":"levelo://app?vid=8812f9b2-7682-497d-bcf0-493235c16f10","ios":"levelo://app?vid=8812f9b2-7682-497d-bcf0-493235c16f10"},"vehicle_type_id":"4","last_reported":1748549542,"current_range_meters":14400,"station_id":"","pricing_plan_id":"cebpf4jnsgd1na2vs0mg"},{"bike_id":"1b48d84c-054e-452e-b2de-5412bf97d73d","system_id":"levelo_inurba_marseille","lat":43.30437,"lon":5.39746,"is_reserved":false,"is_disabled":false,"rental_uris":{"android":"levelo://app?vid=1b48d84c-054e-452e-b2de-5412bf97d73d","ios":"levelo://app?vid=1b48d84c-054e-452e-b2de-5412bf97d73d"},"vehicle_type_id":"4","last_reported":1748549542,"current_range_meters":14400,"station_id":"ce4bh092rcd13ifvqd20","pricing_plan_id":"cebpf4jnsgd1na2vs0mg"},{"bike_id":"1a3bfc78-a7fb-4188-bf74-224057e3d99e","system_id":"levelo_inurba_marseille","lat":43.29092,"lon":5.38146,"is_reserved":false,"is_disabled":false,"rental_uris":{"android":"levelo://app?vid=1a3bfc78-a7fb-4188-bf74-224057e3d99e","ios":"levelo://app?vid=1a3bfc78-a7fb-4188-bf74-224057e3d99e"},"vehicle_type_id":"4","last_reported":1748549542,"current_range_meters":14400,"station_id":"ce4bh512rcd13ifvqe2g","pricing_plan_id":"cebpf4jnsgd1na2vs0mg"},{"bike_id":"9eec7d16-f118-48f0-8071-eb3853c7b225","system_id":"levelo_inurba_marseille","lat":43.25618,"lon":5.40531,"is_reserved":false,"is_disabled":false,"rental_uris":{"android":"levelo://app?vid=9eec7d16-f118-48f0-8071-eb3853c7b225","ios":"levelo://app?vid=9eec7d16-f118-48f0-8071-eb3853c7b225"},"vehicle_type_id":"4","last_reported":1748549542,"current_range_meters":14800,"station_id":"","pricing_plan_id":"cebpf4jnsgd1na2vs0mg"},{"bike_id":"c58b4350-b167-4621-84df-7309144435ea","system_id":"levelo_inurba_marseille","lat":43.29542,"lon":5.38533,"is_reserved":false,"is_disabled":false,"rental_uris":{"android":"levelo://app?vid=c58b4350-b167-4621-84df-7309144435ea","ios":"levelo://app?vid=c58b4350-b167-4621-84df-7309144435ea"},"vehicle_type_id":"4","last_reported":1748549542,"current_range_meters":14800,"station_id":"ce4bgih2rcd13ifvqba0","pricing_plan_id":"cebpf4jnsgd1na2vs0mg"},{"bike_id":"0810923e-9ba2-4ec1-a37e-496821d3fbd6","system_id":"levelo_inurba_marseille","lat":43.29538,"lon":5.37542,"is_reserved":false,"is_disabled":false,"rental_uris":{"android":"levelo://app?vid=0810923e-9ba2-4ec1-a37e-496821d3fbd6","ios":"levelo://app?vid=0810923e-9ba2-4ec1-a37e-496821d3fbd6"},"vehicle_type_id":"4","last_reported":1748549542,"current_range_meters":14800,"station_id":"ce4bgkp2rcd13ifvqbmg","pricing_plan_id":"cebpf4jnsgd1na2vs0mg"},{"bike_id":"88228f15-fa9e-4587-b5ca-0c8ce68adbd0","system_id":"levelo_inurba_marseille","lat":43.26669,"lon":5.38254,"is_reserved":false,"is_disabled":false,"rental_uris":{"android":"levelo://app?vid=88228f15-fa9e-4587-b5ca-0c8ce68adbd0","ios":"levelo://app?vid=88228f15-fa9e-4587-b5ca-0c8ce68adbd0"},"vehicle_type_id":"4","last_reported":1748549542,"current_range_meters":14800,"station_id":"ce4bhg92rcd13ifvqf90","pricing_plan_id":"cebpf4jnsgd1na2vs0mg"},{"bike_id":"94d74484-c00f-4773-98b4-43f5ef9035c3","system_id":"levelo_inurba_marseille","lat":43.26228,"lon":5.40453,"is_reserved":false,"is_disabled":false,"rental_uris":{"android":"levelo://app?vid=94d74484-c00f-4773-98b4-43f5ef9035c3","ios":"levelo://app?vid=94d74484-c00f-4773-98b4-43f5ef9035c3"},"vehicle_type_id":"4","last_reported":1748549542,"current_range_meters":14800,"station_id":"ce4bhmh2rcd13ifvqgmg","pricing_plan_id":"cebpf4jnsgd1na2vs0mg"},{"bike_id":"c370c144-759c-46db-b137-08f70057031e","system_id":"levelo_inurba_marseille","lat":43.241821,"lon":5.397544,"is_reserved":false,"is_disabled":false,"rental_uris":{"android":"levelo://app?vid=c370c144-759c-46db-b137-08f70057031e","ios":"levelo://app?vid=c370c144-759c-46db-b137-08f70057031e"},"vehicle_type_id":"4","last_reported":1748549542,"current_range_meters":14800,"station_id":"ce4bhn12rcd13ifvqgpg","pricing_plan_id":"cebpf4jnsgd1na2vs0mg"},{"bike_id":"b484b909-325f-4a26-9eae-27c5ca3a0cfa","system_id":"levelo_inurba_marseille","lat":43.2794,"lon":5.4105,"is_reserved":false,"is_disabled":false,"rental_uris":{"android":"levelo://app?vid=b484b909-325f-4a26-9eae-27c5ca3a0cfa","ios":"levelo://app?vid=b484b909-325f-4a26-9eae-27c5ca3a0cfa"},"vehicle_type_id":"4","last_reported":1748549542,"current_range_meters":14800,"station_id":"ce4bhnp2rcd13ifvqh0g","pricing_plan_id":"cebpf4jnsgd1na2vs0mg"},{"bike_id":"d2e51f63-2bd6-4a49-9217-30a79dbdf061","system_id":"levelo_inurba_marseille","lat":43.28446,"lon":5.392088,"is_reserved":false,"is_disabled":false,"rental_uris":{"android":"levelo://app?vid=d2e51f63-2bd6-4a49-9217-30a79dbdf061","ios":"levelo://app?vid=d2e51f63-2bd6-4a49-9217-30a79dbdf061"},"vehicle_type_id":"4","last_reported":1748549542,"current_range_meters":14800,"station_id":"ce4bhoh2rcd13ifvqh5g","pricing_plan_id":"cebpf4jnsgd1na2vs0mg"},{"bike_id":"b2a6a94f-562b-430d-968b-557e39b40e29","system_id":"levelo_inurba_marseille","lat":43.31076,"lon":5.38349,"is_reserved":false,"is_disabled":false,"rental_uris":{"android":"levelo://app?vid=b2a6a94f-562b-430d-968b-557e39b40e29","ios":"levelo://app?vid=b2a6a94f-562b-430d-968b-557e39b40e29"},"vehicle_type_id":"4","last_reported":1748549542,"current_range_meters":15200,"station_id":"ce4bgv92rcd13ifvqcr0","pricing_plan_id":"cebpf4jnsgd1na2vs0mg"},{"bike_id":"ae1c2def-702a-4e8d-a15d-05b98fe2c84f","system_id":"levelo_inurba_marseille","lat":43.30878,"lon":5.39634,"is_reserved":false,"is_disabled":false,"rental_uris":{"android":"levelo://app?vid=ae1c2def-702a-4e8d-a15d-05b98fe2c84f","ios":"levelo://app?vid=ae1c2def-702a-4e8d-a15d-05b98fe2c84f"},"vehicle_type_id":"4","last_reported":1748549542,"current_range_meters":15200,"station_id":"ce4bh012rcd13ifvqcv0","pricing_plan_id":"cebpf4jnsgd1na2vs0mg"},{"bike_id":"7243d7c8-02f5-4392-89cf-8c360e846d55","system_id":"levelo_inurba_marseille","lat":43.2529,"lon":5.37817,"is_reserved":false,"is_disabled":false,"rental_uris":{"android":"levelo://app?vid=7243d7c8-02f5-4392-89cf-8c360e846d55","ios":"levelo://app?vid=7243d7c8-02f5-4392-89cf-8c360e846d55"},"vehicle_type_id":"4","last_reported":1748549542,"current_range_meters":16000,"station_id":"","pricing_plan_id":"cebpf4jnsgd1na2vs0mg"},{"bike_id":"d041ba9b-b157-420b-92de-857f860b4947","system_id":"levelo_inurba_marseille","lat":43.28194,"lon":5.39027,"is_reserved":false,"is_disabled":false,"rental_uris":{"android":"levelo://app?vid=d041ba9b-b157-420b-92de-857f860b4947","ios":"levelo://app?vid=d041ba9b-b157-420b-92de-857f860b4947"},"vehicle_type_id":"4","last_reported":1748549542,"current_range_meters":16000,"station_id":"","pricing_plan_id":"cebpf4jnsgd1na2vs0mg"},{"bike_id":"9b8c8665-ef63-45c8-aff5-1c0f6a4a89f7","system_id":"levelo_inurba_marseille","lat":43.31082,"lon":5.38352,"is_reserved":false,"is_disabled":false,"rental_uris":{"android":"levelo://app?vid=9b8c8665-ef63-45c8-aff5-1c0f6a4a89f7","ios":"levelo://app?vid=9b8c8665-ef63-45c8-aff5-1c0f6a4a89f7"},"vehicle_type_id":"4","last_reported":1748549542,"current_range_meters":16000,"station_id":"ce4bgv92rcd13ifvqcr0","pricing_plan_id":"cebpf4jnsgd1na2vs0mg"},{"bike_id":"028f3b33-93a6-4d10-8683-5952c05ba392","system_id":"levelo_inurba_marseille","lat":43.29532,"lon":5.39041,"is_reserved":false,"is_disabled":false,"rental_uris":{"android":"levelo://app?vid=028f3b33-93a6-4d10-8683-5952c05ba392","ios":"levelo://app?vid=028f3b33-93a6-4d10-8683-5952c05ba392"},"vehicle_type_id":"4","last_reported":1748549542,"current_range_meters":16000,"station_id":"ce4bh3p2rcd13ifvqdp0","pricing_plan_id":"cebpf4jnsgd1na2vs0mg"},{"bike_id":"0a09e7a0-369e-423f-ae4f-fca5c6f93f58","system_id":"levelo_inurba_marseille","lat":43.27817,"lon":5.40711,"is_reserved":false,"is_disabled":false,"rental_uris":{"android":"levelo://app?vid=0a09e7a0-369e-423f-ae4f-fca5c6f93f58","ios":"levelo://app?vid=0a09e7a0-369e-423f-ae4f-fca5c6f93f58"},"vehicle_type_id":"4","last_reported":1748549542,"current_range_meters":16000,"station_id":"ce4bhnh2rcd13ifvqgtg","pricing_plan_id":"cebpf4jnsgd1na2vs0mg"},{"bike_id":"584b86dd-11a4-4a1b-af3c-32390f9e55cf","system_id":"levelo_inurba_marseille","lat":43.282478,"lon":5.398353,"is_reserved":false,"is_disabled":false,"rental_uris":{"android":"levelo://app?vid=584b86dd-11a4-4a1b-af3c-32390f9e55cf","ios":"levelo://app?vid=584b86dd-11a4-4a1b-af3c-32390f9e55cf"},"vehicle_type_id":"4","last_reported":1748549542,"current_range_meters":16000,"station_id":"ce4bhr12rcd13ifvqhqg","pricing_plan_id":"cebpf4jnsgd1na2vs0mg"},{"bike_id":"9e077e27-33c0-4331-96cc-ce43f93f1c2b","system_id":"levelo_inurba_marseille","lat":43.26772,"lon":5.37154,"is_reserved":false,"is_disabled":false,"rental_uris":{"android":"levelo://app?vid=9e077e27-33c0-4331-96cc-ce43f93f1c2b","ios":"levelo://app?vid=9e077e27-33c0-4331-96cc-ce43f93f1c2b"},"vehicle_type_id":"4","last_reported":1748549542,"current_range_meters":16400,"station_id":"","pricing_plan_id":"cebpf4jnsgd1na2vs0mg"},{"bike_id":"90cf24bf-b25d-4bcb-9a5f-72fba478e58e","system_id":"levelo_inurba_marseille","lat":43.304031,"lon":5.42564,"is_reserved":false,"is_disabled":false,"rental_uris":{"android":"levelo://app?vid=90cf24bf-b25d-4bcb-9a5f-72fba478e58e","ios":"levelo://app?vid=90cf24bf-b25d-4bcb-9a5f-72fba478e58e"},"vehicle_type_id":"4","last_reported":1748549542,"current_range_meters":16400,"station_id":"","pricing_plan_id":"cebpf4jnsgd1na2vs0mg"},{"bike_id":"4a241498-d1e8-4922-99bb-9eefce0db94c","system_id":"levelo_inurba_marseille","lat":43.31231,"lon":5.3684,"is_reserved":false,"is_disabled":false,"rental_uris":{"android":"levelo://app?vid=4a241498-d1e8-4922-99bb-9eefce0db94c","ios":"levelo://app?vid=4a241498-d1e8-4922-99bb-9eefce0db94c"},"vehicle_type_id":"4","last_reported":1748549542,"current_range_meters":16400,"station_id":"ce4bgl92rcd13ifvqbq0","pricing_plan_id":"cebpf4jnsgd1na2vs0mg"},{"bike_id":"1332a20e-ca24-4c75-921e-e6e14530fe23","system_id":"levelo_inurba_marseille","lat":43.31067,"lon":5.38349,"is_reserved":false,"is_disabled":false,"rental_uris":{"android":"levelo://app?vid=1332a20e-ca24-4c75-921e-e6e14530fe23","ios":"levelo://app?vid=1332a20e-ca24-4c75-921e-e6e14530fe23"},"vehicle_type_id":"4","last_reported":1748549542,"current_range_meters":16400,"station_id":"ce4bgv92rcd13ifvqcr0","pricing_plan_id":"cebpf4jnsgd1na2vs0mg"},{"bike_id":"310cd082-eb4d-4ab9-9f87-216539840ec1","system_id":"levelo_inurba_marseille","lat":43.29267,"lon":5.38436,"is_reserved":false,"is_disabled":false,"rental_uris":{"android":"levelo://app?vid=310cd082-eb4d-4ab9-9f87-216539840ec1","ios":"levelo://app?vid=310cd082-eb4d-4ab9-9f87-216539840ec1"},"vehicle_type_id":"4","last_reported":1748549542,"current_range_meters":16400,"station_id":"ce4bh692rcd13ifvqea0","pricing_plan_id":"cebpf4jnsgd1na2vs0mg"},{"bike_id":"ed063c56-92d5-478d-8621-62666e7a2e55","system_id":"levelo_inurba_marseille","lat":43.26589,"lon":5.37278,"is_reserved":false,"is_disabled":false,"rental_uris":{"android":"levelo://app?vid=ed063c56-92d5-478d-8621-62666e7a2e55","ios":"levelo://app?vid=ed063c56-92d5-478d-8621-62666e7a2e55"},"vehicle_type_id":"4","last_reported":1748549542,"current_range_meters":16400,"station_id":"ce4bhg12rcd13ifvqf70","pricing_plan_id":"cebpf4jnsgd1na2vs0mg"},{"bike_id":"38a6d180-ea1e-4ea0-a828-5c5a4364c3ac","system_id":"levelo_inurba_marseille","lat":43.28613,"lon":5.3706,"is_reserved":false,"is_disabled":false,"rental_uris":{"android":"levelo://app?vid=38a6d180-ea1e-4ea0-a828-5c5a4364c3ac","ios":"levelo://app?vid=38a6d180-ea1e-4ea0-a828-5c5a4364c3ac"},"vehicle_type_id":"4","last_reported":1748549542,"current_range_meters":16400,"station_id":"ce4bht12rcd13ifvqi60","pricing_plan_id":"cebpf4jnsgd1na2vs0mg"},{"bike_id":"9fe1e697-36ec-421f-b0be-031c2f5ed7f3","system_id":"levelo_inurba_marseille","lat":43.33796,"lon":5.37422,"is_reserved":false,"is_disabled":false,"rental_uris":{"android":"levelo://app?vid=9fe1e697-36ec-421f-b0be-031c2f5ed7f3","ios":"levelo://app?vid=9fe1e697-36ec-421f-b0be-031c2f5ed7f3"},"vehicle_type_id":"4","last_reported":1748549542,"current_range_meters":16800,"station_id":"","pricing_plan_id":"cebpf4jnsgd1na2vs0mg"},{"bike_id":"c688692c-442c-47ba-9c84-2df569d2c4a8","system_id":"levelo_inurba_marseille","lat":43.29712,"lon":5.36607,"is_reserved":false,"is_disabled":false,"rental_uris":{"android":"levelo://app?vid=c688692c-442c-47ba-9c84-2df569d2c4a8","ios":"levelo://app?vid=c688692c-442c-47ba-9c84-2df569d2c4a8"},"vehicle_type_id":"4","last_reported":1748549542,"current_range_meters":16800,"station_id":"ce4bgn12rcd13ifvqbt0","pricing_plan_id":"cebpf4jnsgd1na2vs0mg"},{"bike_id":"13bed428-c03a-4684-8d63-d182e8dca0c1","system_id":"levelo_inurba_marseille","lat":43.29429,"lon":5.3863,"is_reserved":false,"is_disabled":false,"rental_uris":{"android":"levelo://app?vid=13bed428-c03a-4684-8d63-d182e8dca0c1","ios":"levelo://app?vid=13bed428-c03a-4684-8d63-d182e8dca0c1"},"vehicle_type_id":"4","last_reported":1748549542,"current_range_meters":16800,"station_id":"ce4bh2h2rcd13ifvqdh0","pricing_plan_id":"cebpf4jnsgd1na2vs0mg"},{"bike_id":"376f48f3-135e-4b97-a689-e2a91adbbcc7","system_id":"levelo_inurba_marseille","lat":43.28353,"lon":5.381,"is_reserved":false,"is_disabled":false,"rental_uris":{"android":"levelo://app?vid=376f48f3-135e-4b97-a689-e2a91adbbcc7","ios":"levelo://app?vid=376f48f3-135e-4b97-a689-e2a91adbbcc7"},"vehicle_type_id":"4","last_reported":1748549542,"current_range_meters":16800,"station_id":"ce4bh412rcd13ifvqdr0","pricing_plan_id":"cebpf4jnsgd1na2vs0mg"},{"bike_id":"7875c501-8db5-4fe6-9fec-33844d011e9b","system_id":"levelo_inurba_marseille","lat":43.28493,"lon":5.38417,"is_reserved":false,"is_disabled":false,"rental_uris":{"android":"levelo://app?vid=7875c501-8db5-4fe6-9fec-33844d011e9b","ios":"levelo://app?vid=7875c501-8db5-4fe6-9fec-33844d011e9b"},"vehicle_type_id":"4","last_reported":1748549542,"current_range_meters":16800,"station_id":"ce4bh512rcd13ifvqe3g","pricing_plan_id":"cebpf4jnsgd1na2vs0mg"},{"bike_id":"9c1a94e8-d480-4370-be72-0693c2dc19a1","system_id":"levelo_inurba_marseille","lat":43.29255,"lon":5.38451,"is_reserved":false,"is_disabled":false,"rental_uris":{"android":"levelo://app?vid=9c1a94e8-d480-4370-be72-0693c2dc19a1","ios":"levelo://app?vid=9c1a94e8-d480-4370-be72-0693c2dc19a1"},"vehicle_type_id":"4","last_reported":1748549542,"current_range_meters":16800,"station_id":"ce4bh692rcd13ifvqea0","pricing_plan_id":"cebpf4jnsgd1na2vs0mg"},{"bike_id":"2cca3a29-5d3e-4a6c-83fd-f53fa449ef11","system_id":"levelo_inurba_marseille","lat":43.2407,"lon":5.37737,"is_reserved":false,"is_disabled":false,"rental_uris":{"android":"levelo://app?vid=2cca3a29-5d3e-4a6c-83fd-f53fa449ef11","ios":"levelo://app?vid=2cca3a29-5d3e-4a6c-83fd-f53fa449ef11"},"vehicle_type_id":"4","last_reported":1748549542,"current_range_meters":16800,"station_id":"ce4bhnp2rcd13ifvqgvg","pricing_plan_id":"cebpf4jnsgd1na2vs0mg"},{"bike_id":"7d2ccb4b-752c-4953-965f-cf9dbe77a83b","system_id":"levelo_inurba_marseille","lat":43.30379,"lon":5.42487,"is_reserved":false,"is_disabled":false,"rental_uris":{"android":"levelo://app?vid=7d2ccb4b-752c-4953-965f-cf9dbe77a83b","ios":"levelo://app?vid=7d2ccb4b-752c-4953-965f-cf9dbe77a83b"},"vehicle_type_id":"4","last_reported":1748549542,"current_range_meters":16800,"station_id":"ce4bhoh2rcd13ifvqh6g","pricing_plan_id":"cebpf4jnsgd1na2vs0mg"},{"bike_id":"c9eeec68-5d03-44e9-889a-893cd0b920aa","system_id":"levelo_inurba_marseille","lat":43.30891,"lon":5.37201,"is_reserved":false,"is_disabled":false,"rental_uris":{"android":"levelo://app?vid=c9eeec68-5d03-44e9-889a-893cd0b920aa","ios":"levelo://app?vid=c9eeec68-5d03-44e9-889a-893cd0b920aa"},"vehicle_type_id":"4","last_reported":1748549542,"current_range_meters":17200,"station_id":"ce4bguh2rcd13ifvqckg","pricing_plan_id":"cebpf4jnsgd1na2vs0mg"},{"bike_id":"07a859cc-1cff-40ca-b1c6-288543a3ee14","system_id":"levelo_inurba_marseille","lat":43.294161,"lon":5.386285,"is_reserved":false,"is_disabled":false,"rental_uris":{"android":"levelo://app?vid=07a859cc-1cff-40ca-b1c6-288543a3ee14","ios":"levelo://app?vid=07a859cc-1cff-40ca-b1c6-288543a3ee14"},"vehicle_type_id":"4","last_reported":1748549542,"current_range_meters":17200,"station_id":"ce4bh2h2rcd13ifvqdh0","pricing_plan_id":"cebpf4jnsgd1na2vs0mg"},{"bike_id":"460510bd-7e2b-4b3e-9d45-a676b67b391f","system_id":"levelo_inurba_marseille","lat":43.29032,"lon":5.38649,"is_reserved":false,"is_disabled":false,"rental_uris":{"android":"levelo://app?vid=460510bd-7e2b-4b3e-9d45-a676b67b391f","ios":"levelo://app?vid=460510bd-7e2b-4b3e-9d45-a676b67b391f"},"vehicle_type_id":"4","last_reported":1748549542,"current_range_meters":17200,"station_id":"ce4bh4p2rcd13ifvqe0g","pricing_plan_id":"cebpf4jnsgd1na2vs0mg"},{"bike_id":"9657fec7-3348-4915-9c0d-131f219585c1","system_id":"levelo_inurba_marseille","lat":43.279456,"lon":5.410398,"is_reserved":false,"is_disabled":false,"rental_uris":{"android":"levelo://app?vid=9657fec7-3348-4915-9c0d-131f219585c1","ios":"levelo://app?vid=9657fec7-3348-4915-9c0d-131f219585c1"},"vehicle_type_id":"4","last_reported":1748549542,"current_range_meters":17200,"station_id":"ce4bhnp2rcd13ifvqh0g","pricing_plan_id":"cebpf4jnsgd1na2vs0mg"},{"bike_id":"b18036e4-cdbb-441f-a4f1-99c9cdbece34","system_id":"levelo_inurba_marseille","lat":43.2942,"lon":5.3861,"is_reserved":false,"is_disabled":false,"rental_uris":{"android":"levelo://app?vid=b18036e4-cdbb-441f-a4f1-99c9cdbece34","ios":"levelo://app?vid=b18036e4-cdbb-441f-a4f1-99c9cdbece34"},"vehicle_type_id":"4","last_reported":1748549542,"current_range_meters":17600,"station_id":"","pricing_plan_id":"cebpf4jnsgd1na2vs0mg"},{"bike_id":"d3a3cb78-1d11-4dbe-8696-ac203307dc62","system_id":"levelo_inurba_marseille","lat":43.2997,"lon":5.37172,"is_reserved":false,"is_disabled":false,"rental_uris":{"android":"levelo://app?vid=d3a3cb78-1d11-4dbe-8696-ac203307dc62","ios":"levelo://app?vid=d3a3cb78-1d11-4dbe-8696-ac203307dc62"},"vehicle_type_id":"4","last_reported":1748549542,"current_range_meters":17600,"station_id":"ce4bgr92rcd13ifvqc7g","pricing_plan_id":"cebpf4jnsgd1na2vs0mg"},{"bike_id":"bcbdd464-df8e-44c6-b7a2-af2fc67b361c","system_id":"levelo_inurba_marseille","lat":43.29201,"lon":5.39321,"is_reserved":false,"is_disabled":false,"rental_uris":{"android":"levelo://app?vid=bcbdd464-df8e-44c6-b7a2-af2fc67b361c","ios":"levelo://app?vid=bcbdd464-df8e-44c6-b7a2-af2fc67b361c"},"vehicle_type_id":"4","last_reported":1748549542,"current_range_meters":17600,"station_id":"ce4bh192rcd13ifvqdd0","pricing_plan_id":"cebpf4jnsgd1na2vs0mg"},{"bike_id":"35376bd0-f1d1-4a8f-b51b-f88069590747","system_id":"levelo_inurba_marseille","lat":43.29398,"lon":5.38641,"is_reserved":false,"is_disabled":false,"rental_uris":{"android":"levelo://app?vid=35376bd0-f1d1-4a8f-b51b-f88069590747","ios":"levelo://app?vid=35376bd0-f1d1-4a8f-b51b-f88069590747"},"vehicle_type_id":"4","last_reported":1748549542,"current_range_meters":17600,"station_id":"ce4bh2h2rcd13ifvqdh0","pricing_plan_id":"cebpf4jnsgd1na2vs0mg"},{"bike_id":"c802559c-b5a7-4214-9871-5e861dea251a","system_id":"levelo_inurba_marseille","lat":43.29419,"lon":5.38628,"is_reserved":false,"is_disabled":false,"rental_uris":{"android":"levelo://app?vid=c802559c-b5a7-4214-9871-5e861dea251a","ios":"levelo://app?vid=c802559c-b5a7-4214-9871-5e861dea251a"},"vehicle_type_id":"4","last_reported":1748549542,"current_range_meters":17600,"station_id":"ce4bh2h2rcd13ifvqdh0","pricing_plan_id":"cebpf4jnsgd1na2vs0mg"},{"bike_id":"5dc52942-de87-4edf-9b33-26394f3ffa24","system_id":"levelo_inurba_marseille","lat":43.28681,"lon":5.3866,"is_reserved":false,"is_disabled":false,"rental_uris":{"android":"levelo://app?vid=5dc52942-de87-4edf-9b33-26394f3ffa24","ios":"levelo://app?vid=5dc52942-de87-4edf-9b33-26394f3ffa24"},"vehicle_type_id":"4","last_reported":1748549542,"current_range_meters":17600,"station_id":"ce4bh492rcd13ifvqdug","pricing_plan_id":"cebpf4jnsgd1na2vs0mg"},{"bike_id":"5136fe86-b4e4-4ca4-8fbe-d5b7d8a48e43","system_id":"levelo_inurba_marseille","lat":43.27054,"lon":5.40259,"is_reserved":false,"is_disabled":false,"rental_uris":{"android":"levelo://app?vid=5136fe86-b4e4-4ca4-8fbe-d5b7d8a48e43","ios":"levelo://app?vid=5136fe86-b4e4-4ca4-8fbe-d5b7d8a48e43"},"vehicle_type_id":"4","last_reported":1748549542,"current_range_meters":17600,"station_id":"ce4bhk92rcd13ifvqgc0","pricing_plan_id":"cebpf4jnsgd1na2vs0mg"},{"bike_id":"fd7ad8b5-d599-4a91-b59b-ac2aa9cb4f73","system_id":"levelo_inurba_marseille","lat":43.2714,"lon":5.39991,"is_reserved":false,"is_disabled":false,"rental_uris":{"android":"levelo://app?vid=fd7ad8b5-d599-4a91-b59b-ac2aa9cb4f73","ios":"levelo://app?vid=fd7ad8b5-d599-4a91-b59b-ac2aa9cb4f73"},"vehicle_type_id":"4","last_reported":1748549542,"current_range_meters":18000,"station_id":"","pricing_plan_id":"cebpf4jnsgd1na2vs0mg"},