{"last_updated":1717618129,"ttl":30,"version":"2.2","data":{"bikes":[{"bike_id":"d8aa5fbc-2674-4e79-97aa-21309e0a53ec","system_id":"levelo_inurba_marseille","lat":43.313391,"lon":5.36706,"is_reserved":false,"is_disabled":false,"rental_uris":{"android":"levelo://app?vid=d8aa5fbc-2674-4e79-97aa-21309e0a53ec","ios":"levelo://app?vid=d8aa5fbc-2674-4e79-97aa-21309e0a53ec"},"vehicle_type_id":"4","last_reported":1717618129,"current_range_meters":7200,"station_id":"ce4bgr92rcd13ifvqc6g","pricing_plan_id":"cebpf4jnsgd1na2vs0mg"},{"bike_id":"a2b4433a-c93f-47bf-a36c-b3a18ca93878","system_id":"levelo_inurba_marseille","lat":43.312239,"lon":5.368562,"is_reserved":false,"is_disabled":false,"rental_uris":{"android":"levelo://app?vid=a2b4433a-c93f-47bf-a36c-b3a18ca93878","ios":"levelo://app?vid=a2b4433a-c93f-47bf-a36c-b3a18ca93878"},"vehicle_type_id":"4","last_reported":1717618129,"current_range_meters":400,"station_id":"ce4bgl92rcd13ifvqbq0","pricing_plan_id":"cebpf4jnsgd1na2vs0mg"},{"bike_id":"48f2dd74-3f84-4a74-93cd-41553da7c496","system_id":"levelo_inurba_marseille","lat":43.312239,"lon":5.368562,"is_reserved":false,"is_disabled":false,"rental_uris":{"android":"levelo://app?vid=48f2dd74-3f84-4a74-93cd-41553da7c496","ios":"levelo://app?vid=48f2dd74-3f84-4a74-93cd-41553da7c496"},"vehicle_type_id":"4","last_reported":1717618129,"current_range_meters":21200,"station_id":"ce4bgl92rcd13ifvqbq0","pricing_plan_id":"cebpf4jnsgd1na2vs0mg"},{"bike_id":"fe5c0680-fef3-4c90-96ba-27921b714c81","system_id":"levelo_inurba_marseille","lat":43.312239,"lon":5.368562,"is_reserved":false,"is_disabled":false,"rental_uris":{"android":"levelo://app?vid=fe5c0680-fef3-4c90-96ba-27921b714c81","ios":"levelo://app?vid=fe5c0680-fef3-4c90-96ba-27921b714c81"},"vehicle_type_id":"4","last_reported":1717618129,"current_range_meters":26800,"station_id":"ce4bgl92rcd13ifvqbq0","pricing_plan_id":"cebpf4jnsgd1na2vs0mg"},{"bike_id":"02fec204-4021-432f-8c4a-6526e946938d","system_id":"levelo_inurba_marseille","lat":43.309076,"lon":5.368465,"is_reserved":false,"is_disabled":false,"rental_uris":{"android":"levelo://app?vid=02fec204-4021-432f-8c4a-6526e946938d","ios":"levelo://app?vid=02fec204-4021-432f-8c4a-6526e946938d"},"vehicle_type_id":"4","last_reported":1717618129,"current_range_meters":6800,"station_id":"ce4bgn92rcd13ifvqbvg","pricing_plan_id":"cebpf4jnsgd1na2vs0mg"},{"bike_id":"20324ba0-ff83-4ebd-8533-18ab9e69b5e5","system_id":"levelo_inurba_marseille","lat":43.314811,"lon":5.373104,"is_reserved":false,"is_disabled":false,"rental_uris":{"android":"levelo://app?vid=20324ba0-ff83-4ebd-8533-18ab9e69b5e5","ios":"levelo://app?vid=20324ba0-ff83-4ebd-8533-18ab9e69b5e5"},"vehicle_type_id":"4","last_reported":1717618129,"current_range_meters":19200,"station_id":"ce4bgt12rcd13ifvqcd0","pricing_plan_id":"cebpf4jnsgd1na2vs0mg"},{"bike_id":"9a1d16ca-5cf8-4586-9b52-ab4d15d44f51","system_id":"levelo_inurba_marseille","lat":43.309039,"lon":5.371797,"is_reserved":false,"is_disabled":false,"rental_uris":{"android":"levelo://app?vid=9a1d16ca-5cf8-4586-9b52-ab4d15d44f51","ios":"levelo://app?vid=9a1d16ca-5cf8-4586-9b52-ab4d15d44f51"},"vehicle_type_id":"4","last_reported":1717618129,"current_range_meters":6400,"station_id":"ce4bguh2rcd13ifvqckg","pricing_plan_id":"cebpf4jnsgd1na2vs0mg"},{"bike_id":"91fed6c5-d666-4dee-aaf0-ca89d75a463c","system_id":"levelo_inurba_marseille","lat":43.309039,"lon":5.371797,"is_reserved":false,"is_disabled":false,"rental_uris":{"android":"levelo://app?vid=91fed6c5-d666-4dee-aaf0-ca89d75a463c","ios":"levelo://app?vid=91fed6c5-d666-4dee-aaf0-ca89d75a463c"},"vehicle_type_id":"4","last_reported":1717618129,"current_range_meters":20800,"station_id":"ce4bguh2rcd13ifvqckg","pricing_plan_id":"cebpf4jnsgd1na2vs0mg"},{"bike_id":"eb6d5b0e-9eb2-4282-b1d0-57fdefbcd832","system_id":"levelo_inurba_marseille","lat":43.309039,"lon":5.371797,"is_reserved":false,"is_disabled":false,"rental_uris":{"android":"levelo://app?vid=eb6d5b0e-9eb2-4282-b1d0-57fdefbcd832","ios":"levelo://app?vid=eb6d5b0e-9eb2-4282-b1d0-57fdefbcd832"},"vehicle_type_id":"4","last_reported":1717618129,"current_range_meters":32000,"station_id":"ce4bguh2rcd13ifvqckg","pricing_plan_id":"cebpf4jnsgd1na2vs0mg"},{"bike_id":"a1427969-060c-4ec5-8a6b-e68df4925a74","system_id":"levelo_inurba_marseille","lat":43.309039,"lon":5.371797,"is_reserved":false,"is_disabled":false,"rental_uris":{"android":"levelo://app?vid=a1427969-060c-4ec5-8a6b-e68df4925a74","ios":"levelo://app?vid=a1427969-060c-4ec5-8a6b-e68df4925a74"},"vehicle_type_id":"4","last_reported":1717618129,"current_range_meters":1200,"station_id":"ce4bguh2rcd13ifvqckg","pricing_plan_id":"cebpf4jnsgd1na2vs0mg"},{"bike_id":"9a6dcfc7-99e0-4320-8e55-85eeb998d4dc","system_id":"levelo_inurba_marseille","lat":43.30537,"lon":5.367345,"is_reserved":false,"is_disabled":false,"rental_uris":{"android":"levelo://app?vid=9a6dcfc7-99e0-4320-8e55-85eeb998d4dc","ios":"levelo://app?vid=9a6dcfc7-99e0-4320-8e55-85eeb998d4dc"},"vehicle_type_id":"4","last_reported":1717618129,"current_range_meters":10400,"station_id":"ce4bgrp2rcd13ifvqc9g","pricing_plan_id":"cebpf4jnsgd1na2vs0mg"},{"bike_id":"3ca28871-f452-4b09-aba2-5bb109f46998","system_id":"levelo_inurba_marseille","lat":43.305989,"lon":5.37225,"is_reserved":false,"is_disabled":false,"rental_uris":{"android":"levelo://app?vid=3ca28871-f452-4b09-aba2-5bb109f46998","ios":"levelo://app?vid=3ca28871-f452-4b09-aba2-5bb109f46998"},"vehicle_type_id":"4","last_reported":1717618129,"current_range_meters":0,"station_id":"ce4bgqh2rcd13ifvqc4g","pricing_plan_id":"cebpf4jnsgd1na2vs0mg"},{"bike_id":"3b70a0e4-bfb0-4e90-893a-72a1498d67b7","system_id":"levelo_inurba_marseille","lat":43.305989,"lon":5.37225,"is_reserved":false,"is_disabled":false,"rental_uris":{"android":"levelo://app?vid=3b70a0e4-bfb0-4e90-893a-72a1498d67b7","ios":"levelo://app?vid=3b70a0e4-bfb0-4e90-893a-72a1498d67b7"},"vehicle_type_id":"4","last_reported":1717618129,"current_range_meters":21200,"station_id":"ce4bgqh2rcd13ifvqc4g","pricing_plan_id":"cebpf4jnsgd1na2vs0mg"},{"bike_id":"1174479a-8341-4710-bafa-fd61541ad89a","system_id":"levelo_inurba_marseille","lat":43.305989,"lon":5.37225,"is_reserved":false,"is_disabled":false,"rental_uris":{"android":"levelo://app?vid=1174479a-8341-4710-bafa-fd61541ad89a","ios":"levelo://app?vid=1174479a-8341-4710-bafa-fd61541ad89a"},"vehicle_type_id":"4","last_reported":1717618129,"current_range_meters":8000,"station_id":"ce4bgqh2rcd13ifvqc4g","pricing_plan_id":"cebpf4jnsgd1na2vs0mg"},{"bike_id":"17d27ba5-86b0-4a7a-b61c-d5977a1c745f","system_id":"levelo_inurba_marseille","lat":43.305989,"lon":5.37225,"is_reserved":false,"is_disabled":false,"rental_uris":{"android":"levelo://app?vid=17d27ba5-86b0-4a7a-b61c-d5977a1c745f","ios":"levelo://app?vid=17d27ba5-86b0-4a7a-b61c-d5977a1c745f"},"vehicle_type_id":"4","last_reported":1717618129,"current_range_meters":31600,"station_id":"ce4bgqh2rcd13ifvqc4g","pricing_plan_id":"cebpf4jnsgd1na2vs0mg"},{"bike_id":"6d444024-42eb-4540-82ef-7dba7407f5c3","system_id":"levelo_inurba_marseille","lat":43.305989,"lon":5.37225,"is_reserved":false,"is_disabled":false,"rental_uris":{"android":"levelo://app?vid=6d444024-42eb-4540-82ef-7dba7407f5c3","ios":"levelo://app?vid=6d444024-42eb-4540-82ef-7dba7407f5c3"},"vehicle_type_id":"4","last_reported":1717618129,"current_range_meters":14000,"station_id":"ce4bgqh2rcd13ifvqc4g","pricing_plan_id":"cebpf4jnsgd1na2vs0mg"},{"bike_id":"599b14fe-ba0c-4b6c-af74-f86390fe56db","system_id":"levelo_inurba_marseille","lat":43.305989,"lon":5.37225,"is_reserved":false,"is_disabled":false,"rental_uris":{"android":"levelo://app?vid=599b14fe-ba0c-4b6c-af74-f86390fe56db","ios":"levelo://app?vid=599b14fe-ba0c-4b6c-af74-f86390fe56db"},"vehicle_type_id":"4","last_reported":1717618129,"current_range_meters":14400,"station_id":"ce4bgqh2rcd13ifvqc4g","pricing_plan_id":"cebpf4jnsgd1na2vs0mg"},{"bike_id":"88a0088e-d7a2-42a3-a65d-d088ebf3cbc9","system_id":"levelo_inurba_marseille","lat":43.305989,"lon":5.37225,"is_reserved":false,"is_disabled":false,"rental_uris":{"android":"levelo://app?vid=88a0088e-d7a2-42a3-a65d-d088ebf3cbc9","ios":"levelo://app?vid=88a0088e-d7a2-42a3-a65d-d088ebf3cbc9"},"vehicle_type_id":"4","last_reported":1717618129,"current_range_meters":7200,"station_id":"ce4bgqh2rcd13ifvqc4g","pricing_plan_id":"cebpf4jnsgd1na2vs0mg"},{"bike_id":"b331fd2d-9518-40fd-9968-4cd3e9e695d7","system_id":"levelo_inurba_marseille","lat":43.307945,"lon":5.376487,"is_reserved":false,"is_disabled":false,"rental_uris":{"android":"levelo://app?vid=b331fd2d-9518-40fd-9968-4cd3e9e695d7","ios":"levelo://app?vid=b331fd2d-9518-40fd-9968-4cd3e9e695d7"},"vehicle_type_id":"4","last_reported":1717618129,"current_range_meters":29200,"station_id":"ce4bgv92rcd13ifvqcq0","pricing_plan_id":"cebpf4jnsgd1na2vs0mg"},{"bike_id":"26fa4178-2a4c-4768-87a0-da402f5546e4","system_id":"levelo_inurba_marseille","lat":43.307945,"lon":5.376487,"is_reserved":false,"is_disabled":false,"rental_uris":{"android":"levelo://app?vid=26fa4178-2a4c-4768-87a0-da402f5546e4","ios":"levelo://app?vid=26fa4178-2a4c-4768-87a0-da402f5546e4"},"vehicle_type_id":"4","last_reported":1717618129,"current_range_meters":23600,"station_id":"ce4bgv92rcd13ifvqcq0","pricing_plan_id":"cebpf4jnsgd1na2vs0mg"},{"bike_id":"e4b8871a-341c-4f1e-bc83-d75471927628","system_id":"levelo_inurba_marseille","lat":43.307945,"lon":5.376487,"is_reserved":false,"is_disabled":false,"rental_uris":{"android":"levelo://app?vid=e4b8871a-341c-4f1e-bc83-d75471927628","ios":"levelo://app?vid=e4b8871a-341c-4f1e-bc83-d75471927628"},"vehicle_type_id":"4","last_reported":1717618129,"current_range_meters":30400,"station_id":"ce4bgv92rcd13ifvqcq0","pricing_plan_id":"cebpf4jnsgd1na2vs0mg"},{"bike_id":"064bb7df-bf07-4a63-8449-12ca5b4c8a8e","system_id":"levelo_inurba_marseille","lat":43.307945,"lon":5.376487,"is_reserved":false,"is_disabled":false,"rental_uris":{"android":"levelo://app?vid=064bb7df-bf07-4a63-8449-12ca5b4c8a8e","ios":"levelo://app?vid=064bb7df-bf07-4a63-8449-12ca5b4c8a8e"},"vehicle_type_id":"4","last_reported":1717618129,"current_range_meters":18800,"station_id":"ce4bgv92rcd13ifvqcq0","pricing_plan_id":"cebpf4jnsgd1na2vs0mg"},{"bike_id":"d8906e7d-5bcd-420a-9af1-098e12984e36","system_id":"levelo_inurba_marseille","lat":43.307945,"lon":5.376487,"is_reserved":false,"is_disabled":false,"rental_uris":{"android":"levelo://app?vid=d8906e7d-5bcd-420a-9af1-098e12984e36","ios":"levelo://app?vid=d8906e7d-5bcd-420a-9af1-098e12984e36"},"vehicle_type_id":"4","last_reported":1717618129,"current_range_meters":7600,"station_id":"ce4bgv92rcd13ifvqcq0","pricing_plan_id":"cebpf4jnsgd1na2vs0mg"},{"bike_id":"ca3ea081-93f4-4f9a-bc17-469caa14c85d","system_id":"levelo_inurba_marseille","lat":43.30539,"lon":5.37303,"is_reserved":false,"is_disabled":false,"rental_uris":{"android":"levelo://app?vid=ca3ea081-93f4-4f9a-bc17-469caa14c85d","ios":"levelo://app?vid=ca3ea081-93f4-4f9a-bc17-469caa14c85d"},"vehicle_type_id":"4","last_reported":1717618129,"current_range_meters":0,"station_id":"","pricing_plan_id":"cebpf4jnsgd1na2vs0mg"},{"bike_id":"abab8b9c-0ec7-4534-9c4c-3ab005b0aded","system_id":"levelo_inurba_marseille","lat":43.30844,"lon":5.37731,"is_reserved":false,"is_disabled":false,"rental_uris":{"android":"levelo://app?vid=abab8b9c-0ec7-4534-9c4c-3ab005b0aded","ios":"levelo://app?vid=abab8b9c-0ec7-4534-9c4c-3ab005b0aded"},"vehicle_type_id":"4","last_reported":1717618129,"current_range_meters":18800,"station_id":"","pricing_plan_id":"cebpf4jnsgd1na2vs0mg"},{"bike_id":"65c1bd0c-26a8-4a23-ba12-eb4ad74ff735","system_id":"levelo_inurba_marseille","lat":43.317075,"lon":5.377367,"is_reserved":false,"is_disabled":false,"rental_uris":{"android":"levelo://app?vid=65c1bd0c-26a8-4a23-ba12-eb4ad74ff735","ios":"levelo://app?vid=65c1bd0c-26a8-4a23-ba12-eb4ad74ff735"},"vehicle_type_id":"4","last_reported":1717618129,"current_range_meters":11200,"station_id":"ce4bgth2rcd13ifvqch0","pricing_plan_id":"cebpf4jnsgd1na2vs0mg"},{"bike_id":"4e0e3aa7-b17d-4483-a4ad-5685185b7e62","system_id":"levelo_inurba_marseille","lat":43.317075,"lon":5.377367,"is_reserved":false,"is_disabled":false,"rental_uris":{"android":"levelo://app?vid=4e0e3aa7-b17d-4483-a4ad-5685185b7e62","ios":"levelo://app?vid=4e0e3aa7-b17d-4483-a4ad-5685185b7e62"},"vehicle_type_id":"4","last_reported":1717618129,"current_range_meters":6400,"station_id":"ce4bgth2rcd13ifvqch0","pricing_plan_id":"cebpf4jnsgd1na2vs0mg"},{"bike_id":"5c8adcf0-faa8-4092-b85e-d2a381c343d3","system_id":"levelo_inurba_marseille","lat":43.303046,"lon":5.368981,"is_reserved":false,"is_disabled":false,"rental_uris":{"android":"levelo://app?vid=5c8adcf0-faa8-4092-b85e-d2a381c343d3","ios":"levelo://app?vid=5c8adcf0-faa8-4092-b85e-d2a381c343d3"},"vehicle_type_id":"4","last_reported":1717618129,"current_range_meters":15200,"station_id":"ce4bgqh2rcd13ifvqc5g","pricing_plan_id":"cebpf4jnsgd1na2vs0mg"},{"bike_id":"68df7e6e-4278-4bca-b7c4-93c92d4e4dea","system_id":"levelo_inurba_marseille","lat":43.303046,"lon":5.368981,"is_reserved":false,"is_disabled":false,"rental_uris":{"android":"levelo://app?vid=68df7e6e-4278-4bca-b7c4-93c92d4e4dea","ios":"levelo://app?vid=68df7e6e-4278-4bca-b7c4-93c92d4e4dea"},"vehicle_type_id":"4","last_reported":1717618129,"current_range_meters":20400,"station_id":"ce4bgqh2rcd13ifvqc5g","pricing_plan_id":"cebpf4jnsgd1na2vs0mg"},{"bike_id":"74da898d-415a-4521-9572-db0d661dea07","system_id":"levelo_inurba_marseille","lat":43.315289,"lon":5.380349,"is_reserved":false,"is_disabled":false,"rental_uris":{"android":"levelo://app?vid=74da898d-415a-4521-9572-db0d661dea07","ios":"levelo://app?vid=74da898d-415a-4521-9572-db0d661dea07"},"vehicle_type_id":"4","last_reported":1717618129,"current_range_meters":30000,"station_id":"ce4bhsp2rcd13ifvqi50","pricing_plan_id":"cebpf4jnsgd1na2vs0mg"},{"bike_id":"60a735c0-c2f1-429b-929d-352e84f45e80","system_id":"levelo_inurba_marseille","lat":43.301939,"lon":5.366286,"is_reserved":false,"is_disabled":false,"rental_uris":{"android":"levelo://app?vid=60a735c0-c2f1-429b-929d-352e84f45e80","ios":"levelo://app?vid=60a735c0-c2f1-429b-929d-352e84f45e80"},"vehicle_type_id":"4","last_reported":1717618129,"current_range_meters":12400,"station_id":"ce4bgrh2rcd13ifvqc8g","pricing_plan_id":"cebpf4jnsgd1na2vs0mg"},{"bike_id":"a3c4e87c-6022-48ca-880a-07217acddab3","system_id":"levelo_inurba_marseille","lat":43.301939,"lon":5.366286,"is_reserved":false,"is_disabled":false,"rental_uris":{"android":"levelo://app?vid=a3c4e87c-6022-48ca-880a-07217acddab3","ios":"levelo://app?vid=a3c4e87c-6022-48ca-880a-07217acddab3"},"vehicle_type_id":"4","last_reported":1717618129,"current_range_meters":4800,"station_id":"ce4bgrh2rcd13ifvqc8g","pricing_plan_id":"cebpf4jnsgd1na2vs0mg"},{"bike_id":"9cfc9b89-300f-4aca-9e00-ab003dbae38b","system_id":"levelo_inurba_marseille","lat":43.301939,"lon":5.366286,"is_reserved":false,"is_disabled":false,"rental_uris":{"android":"levelo://app?vid=9cfc9b89-300f-4aca-9e00-ab003dbae38b","ios":"levelo://app?vid=9cfc9b89-300f-4aca-9e00-ab003dbae38b"},"vehicle_type_id":"4","last_reported":1717618129,"current_range_meters":9200,"station_id":"ce4bgrh2rcd13ifvqc8g","pricing_plan_id":"cebpf4jnsgd1na2vs0mg"},{"bike_id":"17964ab9-9ba8-4d14-b2cf-31c58b03dd97","system_id":"levelo_inurba_marseille","lat":43.308012,"lon":5.381511,"is_reserved":false,"is_disabled":false,"rental_uris":{"android":"levelo://app?vid=17964ab9-9ba8-4d14-b2cf-31c58b03dd97","ios":"levelo://app?vid=17964ab9-9ba8-4d14-b2cf-31c58b03dd97"},"vehicle_type_id":"4","last_reported":1717618129,"current_range_meters":11200,"station_id":"ce4bgt12rcd13ifvqce0","pricing_plan_id":"cebpf4jnsgd1na2vs0mg"},{"bike_id":"2ee7d019-54c6-49d3-9ddc-d21560268437","system_id":"levelo_inurba_marseille","lat":43.30806,"lon":5.38163,"is_reserved":false,"is_disabled":false,"rental_uris":{"android":"levelo://app?vid=2ee7d019-54c6-49d3-9ddc-d21560268437","ios":"levelo://app?vid=2ee7d019-54c6-49d3-9ddc-d21560268437"},"vehicle_type_id":"4","last_reported":1717618129,"current_range_meters":2400,"station_id":"ce4bgt12rcd13ifvqce0","pricing_plan_id":"cebpf4jnsgd1na2vs0mg"},{"bike_id":"998dc0d0-4356-4a2e-9009-f7fc8bd68622","system_id":"levelo_inurba_marseille","lat":43.308012,"lon":5.381511,"is_reserved":false,"is_disabled":false,"rental_uris":{"android":"levelo://app?vid=998dc0d0-4356-4a2e-9009-f7fc8bd68622","ios":"levelo://app?vid=998dc0d0-4356-4a2e-9009-f7fc8bd68622"},"vehicle_type_id":"4","last_reported":1717618129,"current_range_meters":1600,"station_id":"ce4bgt12rcd13ifvqce0","pricing_plan_id":"cebpf4jnsgd1na2vs0mg"},{"bike_id":"859e149a-28ed-47f2-8b43-aa3b6d220ae8","system_id":"levelo_inurba_marseille","lat":43.308012,"lon":5.381511,"is_reserved":false,"is_disabled":false,"rental_uris":{"android":"levelo://app?vid=859e149a-28ed-47f2-8b43-aa3b6d220ae8","ios":"levelo://app?vid=859e149a-28ed-47f2-8b43-aa3b6d220ae8"},"vehicle_type_id":"4","last_reported":1717618129,"current_range_meters":16400,"station_id":"ce4bgt12rcd13ifvqce0","pricing_plan_id":"cebpf4jnsgd1na2vs0mg"},{"bike_id":"03b7753a-df92-489d-aefe-2f8ba0a37b2e","system_id":"levelo_inurba_marseille","lat":43.324771,"lon":5.36557,"is_reserved":false,"is_disabled":false,"rental_uris":{"android":"levelo://app?vid=03b7753a-df92-489d-aefe-2f8ba0a37b2e","ios":"levelo://app?vid=03b7753a-df92-489d-aefe-2f8ba0a37b2e"},"vehicle_type_id":"4","last_reported":1717618129,"current_range_meters":3600,"station_id":"ce4bhs12rcd13ifvqhvg","pricing_plan_id":"cebpf4jnsgd1na2vs0mg"},{"bike_id":"b7fa8f81-5e5b-4808-8507-f7586caf403a","system_id":"levelo_inurba_marseille","lat":43.3108,"lon":5.3835,"is_reserved":false,"is_disabled":false,"rental_uris":{"android":"levelo://app?vid=b7fa8f81-5e5b-4808-8507-f7586caf403a","ios":"levelo://app?vid=b7fa8f81-5e5b-4808-8507-f7586caf403a"},"vehicle_type_id":"4","last_reported":1717618129,"current_range_meters":0,"station_id":"ce4bgv92rcd13ifvqcr0","pricing_plan_id":"cebpf4jnsgd1na2vs0mg"},{"bike_id":"569c08aa-f880-4b72-b1b6-ae22baaf0e5f","system_id":"levelo_inurba_marseille","lat":43.310804,"lon":5.38359,"is_reserved":false,"is_disabled":false,"rental_uris":{"android":"levelo://app?vid=569c08aa-f880-4b72-b1b6-ae22baaf0e5f","ios":"levelo://app?vid=569c08aa-f880-4b72-b1b6-ae22baaf0e5f"},"vehicle_type_id":"4","last_reported":1717618129,"current_range_meters":24800,"station_id":"ce4bgv92rcd13ifvqcr0","pricing_plan_id":"cebpf4jnsgd1na2vs0mg"},{"bike_id":"9efe1550-408c-4783-980a-8fdc560211ae","system_id":"levelo_inurba_marseille","lat":43.31075,"lon":5.38351,"is_reserved":false,"is_disabled":false,"rental_uris":{"android":"levelo://app?vid=9efe1550-408c-4783-980a-8fdc560211ae","ios":"levelo://app?vid=9efe1550-408c-4783-980a-8fdc560211ae"},"vehicle_type_id":"4","last_reported":1717618129,"current_range_meters":12000,"station_id":"ce4bgv92rcd13ifvqcr0","pricing_plan_id":"cebpf4jnsgd1na2vs0mg"},{"bike_id":"2b17ee5f-957f-412a-8df7-98c904592a7c","system_id":"levelo_inurba_marseille","lat":43.302834,"lon":5.376896,"is_reserved":false,"is_disabled":false,"rental_uris":{"android":"levelo://app?vid=2b17ee5f-957f-412a-8df7-98c904592a7c","ios":"levelo://app?vid=2b17ee5f-957f-412a-8df7-98c904592a7c"},"vehicle_type_id":"4","last_reported":1717618129,"current_range_meters":0,"station_id":"ce4bguh2rcd13ifvqcj0","pricing_plan_id":"cebpf4jnsgd1na2vs0mg"},{"bike_id":"2c0d4cfc-83ee-419b-b6fa-5edf123d6d28","system_id":"levelo_inurba_marseille","lat":43.310804,"lon":5.38359,"is_reserved":false,"is_disabled":false,"rental_uris":{"android":"levelo://app?vid=2c0d4cfc-83ee-419b-b6fa-5edf123d6d28","ios":"levelo://app?vid=2c0d4cfc-83ee-419b-b6fa-5edf123d6d28"},"vehicle_type_id":"4","last_reported":1717618129,"current_range_meters":6800,"station_id":"ce4bgv92rcd13ifvqcr0","pricing_plan_id":"cebpf4jnsgd1na2vs0mg"},{"bike_id":"d7544c1e-fd9d-437e-8021-334c89809b2b","system_id":"levelo_inurba_marseille","lat":43.31997,"lon":5.38153,"is_reserved":false,"is_disabled":false,"rental_uris":{"android":"levelo://app?vid=d7544c1e-fd9d-437e-8021-334c89809b2b","ios":"levelo://app?vid=d7544c1e-fd9d-437e-8021-334c89809b2b"},"vehicle_type_id":"4","last_reported":1717618129,"current_range_meters":800,"station_id":"ce4bhr12rcd13ifvqhpg","pricing_plan_id":"cebpf4jnsgd1na2vs0mg"},{"bike_id":"a7ae2bf3-f75a-45bb-aef0-342a352ac7b2","system_id":"levelo_inurba_marseille","lat":43.313571,"lon":5.384829,"is_reserved":false,"is_disabled":false,"rental_uris":{"android":"levelo://app?vid=a7ae2bf3-f75a-45bb-aef0-342a352ac7b2","ios":"levelo://app?vid=a7ae2bf3-f75a-45bb-aef0-342a352ac7b2"},"vehicle_type_id":"4","last_reported":1717618129,"current_range_meters":3600,"station_id":"ce4bgt92rcd13ifvqcf0","pricing_plan_id":"cebpf4jnsgd1na2vs0mg"},{"bike_id":"60f50dd9-9f70-46ef-a380-1a985824a0d4","system_id":"levelo_inurba_marseille","lat":43.313647,"lon":5.3849,"is_reserved":false,"is_disabled":false,"rental_uris":{"android":"levelo://app?vid=60f50dd9-9f70-46ef-a380-1a985824a0d4","ios":"levelo://app?vid=60f50dd9-9f70-46ef-a380-1a985824a0d4"},"vehicle_type_id":"4","last_reported":1717618129,"current_range_meters":0,"station_id":"ce4bgt92rcd13ifvqcf0","pricing_plan_id":"cebpf4jnsgd1na2vs0mg"},{"bike_id":"14c3e8ca-ff64-4997-b9f1-3d058b70bdc7","system_id":"levelo_inurba_marseille","lat":43.313571,"lon":5.384829,"is_reserved":false,"is_disabled":false,"rental_uris":{"android":"levelo://app?vid=14c3e8ca-ff64-4997-b9f1-3d058b70bdc7","ios":"levelo://app?vid=14c3e8ca-ff64-4997-b9f1-3d058b70bdc7"},"vehicle_type_id":"4","last_reported":1717618129,"current_range_meters":26400,"station_id":"ce4bgt92rcd13ifvqcf0","pricing_plan_id":"cebpf4jnsgd1na2vs0mg"},{"bike_id":"cbf51153-ef52-43cd-b518-347459d72d78","system_id":"levelo_inurba_marseille","lat":43.31363,"lon":5.38496,"is_reserved":false,"is_disabled":false,"rental_uris":{"android":"levelo://app?vid=cbf51153-ef52-43cd-b518-347459d72d78","ios":"levelo://app?vid=cbf51153-ef52-43cd-b518-347459d72d78"},"vehicle_type_id":"4","last_reported":1717618129,"current_range_meters":28800,"station_id":"","pricing_plan_id":"cebpf4jnsgd1na2vs0mg"},{"bike_id":"f7804af2-94fb-430a-9895-04c8630af2b3","system_id":"levelo_inurba_marseille","lat":43.313571,"lon":5.384829,"is_reserved":false,"is_disabled":false,"rental_uris":{"android":"levelo://app?vid=f7804af2-94fb-430a-9895-04c8630af2b3","ios":"levelo://app?vid=f7804af2-94fb-430a-9895-04c8630af2b3"},"vehicle_type_id":"4","last_reported":1717618129,"current_range_meters":28400,"station_id":"ce4bgt92rcd13ifvqcf0","pricing_plan_id":"cebpf4jnsgd1na2vs0mg"},{"bike_id":"ec28aa12-6016-437b-af92-e9f0a3a8ca85","system_id":"levelo_inurba_marseille","lat":43.313571,"lon":5.384829,"is_reserved":false,"is_disabled":false,"rental_uris":{"android":"levelo://app?vid=ec28aa12-6016-437b-af92-e9f0a3a8ca85","ios":"levelo://app?vid=ec28aa12-6016-437b-af92-e9f0a3a8ca85"},"vehicle_type_id":"4","last_reported":1717618129,"current_range_meters":0,"station_id":"ce4bgt92rcd13ifvqcf0","pricing_plan_id":"cebpf4jnsgd1na2vs0mg"},{"bike_id":"64ac4ea6-d001-4cab-95a9-e0e2ec197eee","system_id":"levelo_inurba_marseille","lat":43.29854,"lon":5.36285,"is_reserved":false,"is_disabled":false,"rental_uris":{"android":"levelo://app?vid=64ac4ea6-d001-4cab-95a9-e0e2ec197eee","ios":"levelo://app?vid=64ac4ea6-d001-4cab-95a9-e0e2ec197eee"},"vehicle_type_id":"4","last_reported":1717618129,"current_range_meters":0,"station_id":"ce4bgpp2rcd13ifvqc3g","pricing_plan_id":"cebpf4jnsgd1na2vs0mg"},{"bike_id":"be679425-1cd4-43ec-8d82-951d437b7ab9","system_id":"levelo_inurba_marseille","lat":43.30542,"lon":5.38418,"is_reserved":false,"is_disabled":false,"rental_uris":{"android":"levelo://app?vid=be679425-1cd4-43ec-8d82-951d437b7ab9","ios":"levelo://app?vid=be679425-1cd4-43ec-8d82-951d437b7ab9"},"vehicle_type_id":"4","last_reported":1717618129,"current_range_meters":20000,"station_id":"ce4bgg92rcd13ifvqb30","pricing_plan_id":"cebpf4jnsgd1na2vs0mg"},{"bike_id":"26630927-1850-4ccc-adcb-864795988a5b","system_id":"levelo_inurba_marseille","lat":43.29849,"lon":5.36286,"is_reserved":false,"is_disabled":false,"rental_uris":{"android":"levelo://app?vid=26630927-1850-4ccc-adcb-864795988a5b","ios":"levelo://app?vid=26630927-1850-4ccc-adcb-864795988a5b"},"vehicle_type_id":"4","last_reported":1717618129,"current_range_meters":0,"station_id":"ce4bgpp2rcd13ifvqc3g","pricing_plan_id":"cebpf4jnsgd1na2vs0mg"},{"bike_id":"0bd56887-b09d-4deb-bd22-e0ae63831ef6","system_id":"levelo_inurba_marseille","lat":43.305364,"lon":5.384119,"is_reserved":false,"is_disabled":false,"rental_uris":{"android":"levelo://app?vid=0bd56887-b09d-4deb-bd22-e0ae63831ef6","ios":"levelo://app?vid=0bd56887-b09d-4deb-bd22-e0ae63831ef6"},"vehicle_type_id":"4","last_reported":1717618129,"current_range_meters":8400,"station_id":"ce4bgg92rcd13ifvqb30","pricing_plan_id":"cebpf4jnsgd1na2vs0mg"},{"bike_id":"7e8a9f06-f2cd-4e52-aded-da3e9b3fa4f7","system_id":"levelo_inurba_marseille","lat":43.30535,"lon":5.38418,"is_reserved":false,"is_disabled":false,"rental_uris":{"android":"levelo://app?vid=7e8a9f06-f2cd-4e52-aded-da3e9b3fa4f7","ios":"levelo://app?vid=7e8a9f06-f2cd-4e52-aded-da3e9b3fa4f7"},"vehicle_type_id":"4","last_reported":1717618129,"current_range_meters":0,"station_id":"ce4bgg92rcd13ifvqb30","pricing_plan_id":"cebpf4jnsgd1na2vs0mg"},{"bike_id":"d92cf285-1119-497d-ab21-0ebc4e57b59f","system_id":"levelo_inurba_marseille","lat":43.3054,"lon":5.38428,"is_reserved":false,"is_disabled":false,"rental_uris":{"android":"levelo://app?vid=d92cf285-1119-497d-ab21-0ebc4e57b59f","ios":"levelo://app?vid=d92cf285-1119-497d-ab21-0ebc4e57b59f"},"vehicle_type_id":"4","last_reported":1717618129,"current_range_meters":22000,"station_id":"ce4bgg92rcd13ifvqb30","pricing_plan_id":"cebpf4jnsgd1na2vs0mg"},{"bike_id":"bc2a52a9-fd4b-435e-831c-94b73091920d","system_id":"levelo_inurba_marseille","lat":43.299243,"lon":5.374807,"is_reserved":false,"is_disabled":false,"rental_uris":{"android":"levelo://app?vid=bc2a52a9-fd4b-435e-831c-94b73091920d","ios":"levelo://app?vid=bc2a52a9-fd4b-435e-831c-94b73091920d"},"vehicle_type_id":"4","last_reported":1717618129,"current_range_meters":0,"station_id":"ce4bgjh2rcd13ifvqbg0","pricing_plan_id":"cebpf4jnsgd1na2vs0mg"},{"bike_id":"a9fddae9-f849-45ea-85f6-61d4b4494ce7","system_id":"levelo_inurba_marseille","lat":43.31187,"lon":5.38708,"is_reserved":false,"is_disabled":false,"rental_uris":{"android":"levelo://app?vid=a9fddae9-f849-45ea-85f6-61d4b4494ce7","ios":"levelo://app?vid=a9fddae9-f849-45ea-85f6-61d4b4494ce7"},"vehicle_type_id":"4","last_reported":1717618129,"current_range_meters":0,"station_id":"ce4bgv12rcd13ifvqcp0","pricing_plan_id":"cebpf4jnsgd1na2vs0mg"},{"bike_id":"6368fba0-548f-4b3e-a3de-7feb3a1c51d7","system_id":"levelo_inurba_marseille","lat":43.305364,"lon":5.384119,"is_reserved":false,"is_disabled":false,"rental_uris":{"android":"levelo://app?vid=6368fba0-548f-4b3e-a3de-7feb3a1c51d7","ios":"levelo://app?vid=6368fba0-548f-4b3e-a3de-7feb3a1c51d7"},"vehicle_type_id":"4","last_reported":1717618129,"current_range_meters":17600,"station_id":"ce4bgg92rcd13ifvqb30","pricing_plan_id":"cebpf4jnsgd1na2vs0mg"},{"bike_id":"0dacfdf9-249f-44b5-87ed-d59d160b6698","system_id":"levelo_inurba_marseille","lat":43.31179,"lon":5.38712,"is_reserved":false,"is_disabled":false,"rental_uris":{"android":"levelo://app?vid=0dacfdf9-249f-44b5-87ed-d59d160b6698","ios":"levelo://app?vid=0dacfdf9-249f-44b5-87ed-d59d160b6698"},"vehicle_type_id":"4","last_reported":1717618129,"current_range_meters":0,"station_id":"ce4bgv12rcd13ifvqcp0","pricing_plan_id":"cebpf4jnsgd1na2vs0mg"},{"bike_id":"b8799172-d57a-4836-9b23-cba7dbbd34a0","system_id":"levelo_inurba_marseille","lat":43.311723,"lon":5.387177,"is_reserved":false,"is_disabled":false,"rental_uris":{"android":"levelo://app?vid=b8799172-d57a-4836-9b23-cba7dbbd34a0","ios":"levelo://app?vid=b8799172-d57a-4836-9b23-cba7dbbd34a0"},"vehicle_type_id":"4","last_reported":1717618129,"current_range_meters":22000,"station_id":"ce4bgv12rcd13ifvqcp0","pricing_plan_id":"cebpf4jnsgd1na2vs0mg"},{"bike_id":"089733f8-c058-4ad7-91b8-99073dd4fa72","system_id":"levelo_inurba_marseille","lat":43.31173,"lon":5.38719,"is_reserved":false,"is_disabled":false,"rental_uris":{"android":"levelo://app?vid=089733f8-c058-4ad7-91b8-99073dd4fa72","ios":"levelo://app?vid=089733f8-c058-4ad7-91b8-99073dd4fa72"},"vehicle_type_id":"4","last_reported":1717618129,"current_range_meters":21600,"station_id":"ce4bgv12rcd13ifvqcp0","pricing_plan_id":"cebpf4jnsgd1na2vs0mg"},{"bike_id":"23ccb17a-1fbc-44bf-8e89-2a85f8179ca2","system_id":"levelo_inurba_marseille","lat":43.311722,"lon":5.387247,"is_reserved":false,"is_disabled":false,"rental_uris":{"android":"levelo://app?vid=23ccb17a-1fbc-44bf-8e89-2a85f8179ca2","ios":"levelo://app?vid=23ccb17a-1fbc-44bf-8e89-2a85f8179ca2"},"vehicle_type_id":"4","last_reported":1717618129,"current_range_meters":15600,"station_id":"ce4bgv12rcd13ifvqcp0","pricing_plan_id":"cebpf4jnsgd1na2vs0mg"},{"bike_id":"f8c929c6-6186-4d47-b7d8-6f745c14aada","system_id":"levelo_inurba_marseille","lat":43.31172,"lon":5.38722,"is_reserved":false,"is_disabled":false,"rental_uris":{"android":"levelo://app?vid=f8c929c6-6186-4d47-b7d8-6f745c14aada","ios":"levelo://app?vid=f8c929c6-6186-4d47-b7d8-6f745c14aada"},"vehicle_type_id":"4","last_reported":1717618129,"current_range_meters":23600,"station_id":"ce4bgv12rcd13ifvqcp0","pricing_plan_id":"cebpf4jnsgd1na2vs0mg"},{"bike_id":"c98aa96c-dab3-4bad-a294-4513374ce499","system_id":"levelo_inurba_marseille","lat":43.311722,"lon":5.387247,"is_reserved":false,"is_disabled":false,"rental_uris":{"android":"levelo://app?vid=c98aa96c-dab3-4bad-a294-4513374ce499","ios":"levelo://app?vid=c98aa96c-dab3-4bad-a294-4513374ce499"},"vehicle_type_id":"4","last_reported":1717618129,"current_range_meters":26400,"station_id":"ce4bgv12rcd13ifvqcp0","pricing_plan_id":"cebpf4jnsgd1na2vs0mg"},{"bike_id":"6eabf6c3-cab9-46af-a7be-e401ab418c7a","system_id":"levelo_inurba_marseille","lat":43.31167,"lon":5.38725,"is_reserved":false,"is_disabled":false,"rental_uris":{"android":"levelo://app?vid=6eabf6c3-cab9-46af-a7be-e401ab418c7a","ios":"levelo://app?vid=6eabf6c3-cab9-46af-a7be-e401ab418c7a"},"vehicle_type_id":"4","last_reported":1717618129,"current_range_meters":9200,"station_id":"ce4bgv12rcd13ifvqcp0","pricing_plan_id":"cebpf4jnsgd1na2vs0mg"},{"bike_id":"9b22b4a2-5d64-4ba6-ba30-1fb0bab5bceb","system_id":"levelo_inurba_marseille","lat":43.311727,"lon":5.387277,"is_reserved":false,"is_disabled":false,"rental_uris":{"android":"levelo://app?vid=9b22b4a2-5d64-4ba6-ba30-1fb0bab5bceb","ios":"levelo://app?vid=9b22b4a2-5d64-4ba6-ba30-1fb0bab5bceb"},"vehicle_type_id":"4","last_reported":1717618129,"current_range_meters":24000,"station_id":"ce4bgv12rcd13ifvqcp0","pricing_plan_id":"cebpf4jnsgd1na2vs0mg"},{"bike_id":"967731c2-b580-4644-a4ed-61c3382566c5","system_id":"levelo_inurba_marseille","lat":43.32292,"lon":5.38254,"is_reserved":false,"is_disabled":false,"rental_uris":{"android":"levelo://app?vid=967731c2-b580-4644-a4ed-61c3382566c5","ios":"levelo://app?vid=967731c2-b580-4644-a4ed-61c3382566c5"},"vehicle_type_id":"4","last_reported":1717618129,"current_range_meters":1600,"station_id":"ce4bhr12rcd13ifvqhqg","pricing_plan_id":"cebpf4jnsgd1na2vs0mg"},{"bike_id":"3bc8a8cb-a7ec-466e-98f7-16712543e8d8","system_id":"levelo_inurba_marseille","lat":43.322872,"lon":5.382756,"is_reserved":false,"is_disabled":false,"rental_uris":{"android":"levelo://app?vid=3bc8a8cb-a7ec-466e-98f7-16712543e8d8","ios":"levelo://app?vid=3bc8a8cb-a7ec-466e-98f7-16712543e8d8"},"vehicle_type_id":"4","last_reported":1717618129,"current_range_meters":8000,"station_id":"ce4bhr12rcd13ifvqhqg","pricing_plan_id":"cebpf4jnsgd1na2vs0mg"},{"bike_id":"9686fe01-8d90-41c3-ab2c-3eace059776b","system_id":"levelo_inurba_marseille","lat":43.297794,"lon":5.370888,"is_reserved":false,"is_disabled":false,"rental_uris":{"android":"levelo://app?vid=9686fe01-8d90-41c3-ab2c-3eace059776b","ios":"levelo://app?vid=9686fe01-8d90-41c3-ab2c-3eace059776b"},"vehicle_type_id":"4","last_reported":1717618129,"current_range_meters":12400,"station_id":"ce4bgop2rcd13ifvqc1g","pricing_plan_id":"cebpf4jnsgd1na2vs0mg"},{"bike_id":"6bd84a66-a8a7-4fa0-bc7f-955e8fb82fb5","system_id":"levelo_inurba_marseille","lat":43.297774,"lon":5.370875,"is_reserved":false,"is_disabled":false,"rental_uris":{"android":"levelo://app?vid=6bd84a66-a8a7-4fa0-bc7f-955e8fb82fb5","ios":"levelo://app?vid=6bd84a66-a8a7-4fa0-bc7f-955e8fb82fb5"},"vehicle_type_id":"4","last_reported":1717618129,"current_range_meters":12400,"station_id":"ce4bgop2rcd13ifvqc1g","pricing_plan_id":"cebpf4jnsgd1na2vs0mg"},{"bike_id":"130e65f6-46f7-459a-817e-92610534b0db","system_id":"levelo_inurba_marseille","lat":43.32294,"lon":5.38285,"is_reserved":false,"is_disabled":false,"rental_uris":{"android":"levelo://app?vid=130e65f6-46f7-459a-817e-92610534b0db","ios":"levelo://app?vid=130e65f6-46f7-459a-817e-92610534b0db"},"vehicle_type_id":"4","last_reported":1717618129,"current_range_meters":12400,"station_id":"ce4bhr12rcd13ifvqhqg","pricing_plan_id":"cebpf4jnsgd1na2vs0mg"},{"bike_id":"77f6069b-3c42-40bf-bb77-e908208bbe78","system_id":"levelo_inurba_marseille","lat":43.29727,"lon":5.36494,"is_reserved":false,"is_disabled":false,"rental_uris":{"android":"levelo://app?vid=77f6069b-3c42-40bf-bb77-e908208bbe78","ios":"levelo://app?vid=77f6069b-3c42-40bf-bb77-e908208bbe78"},"vehicle_type_id":"4","last_reported":1717618129,"current_range_meters":3600,"station_id":"","pricing_plan_id":"cebpf4jnsgd1na2vs0mg"},{"bike_id":"b872c82b-d408-4690-b2d0-9ee8a6f55c32","system_id":"levelo_inurba_marseille","lat":43.297072,"lon":5.366214,"is_reserved":false,"is_disabled":false,"rental_uris":{"android":"levelo://app?vid=b872c82b-d408-4690-b2d0-9ee8a6f55c32","ios":"levelo://app?vid=b872c82b-d408-4690-b2d0-9ee8a6f55c32"},"vehicle_type_id":"4","last_reported":1717618129,"current_range_meters":0,"station_id":"ce4bgn12rcd13ifvqbt0","pricing_plan_id":"cebpf4jnsgd1na2vs0mg"},{"bike_id":"9b3a6a16-4061-45ba-99c4-0876787be601","system_id":"levelo_inurba_marseille","lat":43.29673,"lon":5.37286,"is_reserved":false,"is_disabled":false,"rental_uris":{"android":"levelo://app?vid=9b3a6a16-4061-45ba-99c4-0876787be601","ios":"levelo://app?vid=9b3a6a16-4061-45ba-99c4-0876787be601"},"vehicle_type_id":"4","last_reported":1717618129,"current_range_meters":8800,"station_id":"ce4bgk12rcd13ifvqbj0","pricing_plan_id":"cebpf4jnsgd1na2vs0mg"},{"bike_id":"5e3bbb69-a9b0-484a-9d75-633c45276d35","system_id":"levelo_inurba_marseille","lat":43.296131,"lon":5.370791,"is_reserved":false,"is_disabled":false,"rental_uris":{"android":"levelo://app?vid=5e3bbb69-a9b0-484a-9d75-633c45276d35","ios":"levelo://app?vid=5e3bbb69-a9b0-484a-9d75-633c45276d35"},"vehicle_type_id":"4","last_reported":1717618129,"current_range_meters":7200,"station_id":"ce4bgnh2rcd13ifvqc0g","pricing_plan_id":"cebpf4jnsgd1na2vs0mg"},{"bike_id":"0d04a6ca-fb68-4d66-963b-985e71879930","system_id":"levelo_inurba_marseille","lat":43.29573,"lon":5.367355,"is_reserved":false,"is_disabled":false,"rental_uris":{"android":"levelo://app?vid=0d04a6ca-fb68-4d66-963b-985e71879930","ios":"levelo://app?vid=0d04a6ca-fb68-4d66-963b-985e71879930"},"vehicle_type_id":"4","last_reported":1717618129,"current_range_meters":1200,"station_id":"ce4bgph2rcd13ifvqc2g","pricing_plan_id":"cebpf4jnsgd1na2vs0mg"},{"bike_id":"83459f51-3b19-4ccf-8925-2c9b330ffb4f","system_id":"levelo_inurba_marseille","lat":43.29583,"lon":5.36742,"is_reserved":false,"is_disabled":false,"rental_uris":{"android":"levelo://app?vid=83459f51-3b19-4ccf-8925-2c9b330ffb4f","ios":"levelo://app?vid=83459f51-3b19-4ccf-8925-2c9b330ffb4f"},"vehicle_type_id":"4","last_reported":1717618129,"current_range_meters":0,"station_id":"ce4bgph2rcd13ifvqc2g","pricing_plan_id":"cebpf4jnsgd1na2vs0mg"},{"bike_id":"0630808b-b6d9-4138-8f3d-e0a6375eb3c1","system_id":"levelo_inurba_marseille","lat":43.321312,"lon":5.387434,"is_reserved":false,"is_disabled":false,"rental_uris":{"android":"levelo://app?vid=0630808b-b6d9-4138-8f3d-e0a6375eb3c1","ios":"levelo://app?vid=0630808b-b6d9-4138-8f3d-e0a6375eb3c1"},"vehicle_type_id":"4","last_reported":1717618129,"current_range_meters":6800,"station_id":"","pricing_plan_id":"cebpf4jnsgd1na2vs0mg"},{"bike_id":"86c90a56-1521-4663-8ed6-9e4f60bbc21c","system_id":"levelo_inurba_marseille","lat":43.299028,"lon":5.381509,"is_reserved":false,"is_disabled":false,"rental_uris":{"android":"levelo://app?vid=86c90a56-1521-4663-8ed6-9e4f60bbc21c","ios":"levelo://app?vid=86c90a56-1521-4663-8ed6-9e4f60bbc21c"},"vehicle_type_id":"4","last_reported":1717618129,"current_range_meters":18400,"station_id":"ce4bgj12rcd13ifvqbc0","pricing_plan_id":"cebpf4jnsgd1na2vs0mg"},{"bike_id":"9caccd1f-4a65-4a12-aefe-4fe72b20d6a6","system_id":"levelo_inurba_marseille","lat":43.299028,"lon":5.381509,"is_reserved":false,"is_disabled":false,"rental_uris":{"android":"levelo://app?vid=9caccd1f-4a65-4a12-aefe-4fe72b20d6a6","ios":"levelo://app?vid=9caccd1f-4a65-4a12-aefe-4fe72b20d6a6"},"vehicle_type_id":"4","last_reported":1717618129,"current_range_meters":28400,"station_id":"ce4bgj12rcd13ifvqbc0","pricing_plan_id":"cebpf4jnsgd1na2vs0mg"},{"bike_id":"180ff81d-adae-4c80-af99-3275a0ae0e3b","system_id":"levelo_inurba_marseille","lat":43.29712,"lon":5.37698,"is_reserved":false,"is_disabled":false,"rental_uris":{"android":"levelo://app?vid=180ff81d-adae-4c80-af99-3275a0ae0e3b","ios":"levelo://app?vid=180ff81d-adae-4c80-af99-3275a0ae0e3b"},"vehicle_type_id":"4","last_reported":1717618129,"current_range_meters":10800,"station_id":"ce4bgkh2rcd13ifvqbl0","pricing_plan_id":"cebpf4jnsgd1na2vs0mg"},{"bike_id":"1ce1cb54-c6a4-4afe-aa4d-a2315de976d7","system_id":"levelo_inurba_marseille","lat":43.299028,"lon":5.381509,"is_reserved":false,"is_disabled":false,"rental_uris":{"android":"levelo://app?vid=1ce1cb54-c6a4-4afe-aa4d-a2315de976d7","ios":"levelo://app?vid=1ce1cb54-c6a4-4afe-aa4d-a2315de976d7"},"vehicle_type_id":"4","last_reported":1717618129,"current_range_meters":7600,"station_id":"ce4bgj12rcd13ifvqbc0","pricing_plan_id":"cebpf4jnsgd1na2vs0mg"},{"bike_id":"ad430bd5-8df7-4677-8b19-2c920911580b","system_id":"levelo_inurba_marseille","lat":43.309522,"lon":5.390278,"is_reserved":false,"is_disabled":false,"rental_uris":{"android":"levelo://app?vid=ad430bd5-8df7-4677-8b19-2c920911580b","ios":"levelo://app?vid=ad430bd5-8df7-4677-8b19-2c920911580b"},"vehicle_type_id":"4","last_reported":1717618129,"current_range_meters":0,"station_id":"ce4bgup2rcd13ifvqco0","pricing_plan_id":"cebpf4jnsgd1na2vs0mg"},{"bike_id":"6fbb72ec-461a-4e63-a7fa-927cdfd9f5b1","system_id":"levelo_inurba_marseille","lat":43.299028,"lon":5.381509,"is_reserved":false,"is_disabled":false,"rental_uris":{"android":"levelo://app?vid=6fbb72ec-461a-4e63-a7fa-927cdfd9f5b1","ios":"levelo://app?vid=6fbb72ec-461a-4e63-a7fa-927cdfd9f5b1"},"vehicle_type_id":"4","last_reported":1717618129,"current_range_meters":16400,"station_id":"ce4bgj12rcd13ifvqbc0","pricing_plan_id":"cebpf4jnsgd1na2vs0mg"},{"bike_id":"709bfe6e-f1f9-47f3-9c99-cc4830851555","system_id":"levelo_inurba_marseille","lat":43.296921,"lon":5.376579,"is_reserved":false,"is_disabled":false,"rental_uris":{"android":"levelo://app?vid=709bfe6e-f1f9-47f3-9c99-cc4830851555","ios":"levelo://app?vid=709bfe6e-f1f9-47f3-9c99-cc4830851555"},"vehicle_type_id":"4","last_reported":1717618129,"current_range_meters":800,"station_id":"ce4bgkh2rcd13ifvqbl0","pricing_plan_id":"cebpf4jnsgd1na2vs0mg"},{"bike_id":"54c07c80-17b7-477b-9cd1-a7eb1bec1316","system_id":"levelo_inurba_marseille","lat":43.299028,"lon":5.381509,"is_reserved":false,"is_disabled":false,"rental_uris":{"android":"levelo://app?vid=54c07c80-17b7-477b-9cd1-a7eb1bec1316","ios":"levelo://app?vid=54c07c80-17b7-477b-9cd1-a7eb1bec1316"},"vehicle_type_id":"4","last_reported":1717618129,"current_range_meters":20400,"station_id":"ce4bgj12rcd13ifvqbc0","pricing_plan_id":"cebpf4jnsgd1na2vs0mg"},{"bike_id":"78590fdb-3092-44d4-975e-8c9fdf36a613","system_id":"levelo_inurba_marseille","lat":43.3177,"lon":5.390027,"is_reserved":false,"is_disabled":false,"rental_uris":{"android":"levelo://app?vid=78590fdb-3092-44d4-975e-8c9fdf36a613","ios":"levelo://app?vid=78590fdb-3092-44d4-975e-8c9fdf36a613"},"vehicle_type_id":"4","last_reported":1717618129,"current_range_meters":22000,"station_id":"ce4bhqp2rcd13ifvqhng","pricing_plan_id":"cebpf4jnsgd1na2vs0mg"},{"bike_id":"3ce220b3-089f-4002-a411-72e75238e09f","system_id":"levelo_inurba_marseille","lat":43.317557,"lon":5.390173,"is_reserved":false,"is_disabled":false,"rental_uris":{"android":"levelo://app?vid=3ce220b3-089f-4002-a411-72e75238e09f","ios":"levelo://app?vid=3ce220b3-089f-4002-a411-72e75238e09f"},"vehicle_type_id":"4","last_reported":1717618129,"current_range_meters":0,"station_id":"ce4bhqp2rcd13ifvqhng","pricing_plan_id":"cebpf4jnsgd1na2vs0mg"},{"bike_id":"a4e20f88-b46e-4163-b305-fe33ffc23c9f","system_id":"levelo_inurba_marseille","lat":43.317557,"lon":5.390173,"is_reserved":false,"is_disabled":false,"rental_uris":{"android":"levelo://app?vid=a4e20f88-b46e-4163-b305-fe33ffc23c9f","ios":"levelo://app?vid=a4e20f88-b46e-4163-b305-fe33ffc23c9f"},"vehicle_type_id":"4","last_reported":1717618129,"current_range_meters":2800,"station_id":"ce4bhqp2rcd13ifvqhng","pricing_plan_id":"cebpf4jnsgd1na2vs0mg"},{"bike_id":"def7450d-72e0-40f6-ac46-99da19bd711e","system_id":"levelo_inurba_marseille","lat":43.31759,"lon":5.39015,"is_reserved":false,"is_disabled":false,"rental_uris":{"android":"levelo://app?vid=def7450d-72e0-40f6-ac46-99da19bd711e","ios":"levelo://app?vid=def7450d-72e0-40f6-ac46-99da19bd711e"},"vehicle_type_id":"4","last_reported":1717618129,"current_range_meters":0,"station_id":"ce4bhqp2rcd13ifvqhng","pricing_plan_id":"cebpf4jnsgd1na2vs0mg"},{"bike_id":"361211f9-ff87-4769-9b76-d059988f2de4","system_id":"levelo_inurba_marseille","lat":43.298037,"lon":5.381066,"is_reserved":false,"is_disabled":false,"rental_uris":{"android":"levelo://app?vid=361211f9-ff87-4769-9b76-d059988f2de4","ios":"levelo://app?vid=361211f9-ff87-4769-9b76-d059988f2de4"},"vehicle_type_id":"4","last_reported":1717618129,"current_range_meters":21600,"station_id":"ce4bgip2rcd13ifvqbb0","pricing_plan_id":"cebpf4jnsgd1na2vs0mg"},{"bike_id":"140a5fb4-b042-4037-bef3-d5b5f9250275","system_id":"levelo_inurba_marseille","lat":43.29575,"lon":5.37498,"is_reserved":false,"is_disabled":false,"rental_uris":{"android":"levelo://app?vid=140a5fb4-b042-4037-bef3-d5b5f9250275","ios":"levelo://app?vid=140a5fb4-b042-4037-bef3-d5b5f9250275"},"vehicle_type_id":"4","last_reported":1717618129,"current_range_meters":18000,"station_id":"","pricing_plan_id":"cebpf4jnsgd1na2vs0mg"},{"bike_id":"1021b50b-8a05-42a0-a370-457620c1535a","system_id":"levelo_inurba_marseille","lat":43.29798,"lon":5.38104,"is_reserved":false,"is_disabled":false,"rental_uris":{"android":"levelo://app?vid=1021b50b-8a05-42a0-a370-457620c1535a","ios":"levelo://app?vid=1021b50b-8a05-42a0-a370-457620c1535a"},"vehicle_type_id":"4","last_reported":1717618129,"current_range_meters":3600,"station_id":"ce4bgip2rcd13ifvqbb0","pricing_plan_id":"cebpf4jnsgd1na2vs0mg"},{"bike_id":"8ebd2119-9dd1-48a3-99a7-949846858fc5","system_id":"levelo_inurba_marseille","lat":43.304274,"lon":5.388873,"is_reserved":false,"is_disabled":false,"rental_uris":{"android":"levelo://app?vid=8ebd2119-9dd1-48a3-99a7-949846858fc5","ios":"levelo://app?vid=8ebd2119-9dd1-48a3-99a7-949846858fc5"},"vehicle_type_id":"4","last_reported":1717618129,"current_range_meters":14000,"station_id":"ce4bgk12rcd13ifvqbi0","pricing_plan_id":"cebpf4jnsgd1na2vs0mg"},{"bike_id":"66fee8ee-a980-4067-81c1-6604a15264f1","system_id":"levelo_inurba_marseille","lat":43.304278,"lon":5.388868,"is_reserved":false,"is_disabled":false,"rental_uris":{"android":"levelo://app?vid=66fee8ee-a980-4067-81c1-6604a15264f1","ios":"levelo://app?vid=66fee8ee-a980-4067-81c1-6604a15264f1"},"vehicle_type_id":"4","last_reported":1717618129,"current_range_meters":11600,"station_id":"ce4bgk12rcd13ifvqbi0","pricing_plan_id":"cebpf4jnsgd1na2vs0mg"},{"bike_id":"08fdef95-ab9c-4271-a24f-f9041a7bf77e","system_id":"levelo_inurba_marseille","lat":43.30002,"lon":5.38456,"is_reserved":false,"is_disabled":false,"rental_uris":{"android":"levelo://app?vid=08fdef95-ab9c-4271-a24f-f9041a7bf77e","ios":"levelo://app?vid=08fdef95-ab9c-4271-a24f-f9041a7bf77e"},"vehicle_type_id":"4","last_reported":1717618129,"current_range_meters":15600,"station_id":"","pricing_plan_id":"cebpf4jnsgd1na2vs0mg"},{"bike_id":"c01ab16a-2331-471a-b0cc-ea37608297e3","system_id":"levelo_inurba_marseille","lat":43.304381,"lon":5.388946,"is_reserved":false,"is_disabled":false,"rental_uris":{"android":"levelo://app?vid=c01ab16a-2331-471a-b0cc-ea37608297e3","ios":"levelo://app?vid=c01ab16a-2331-471a-b0cc-ea37608297e3"},"vehicle_type_id":"4","last_reported":1717618129,"current_range_meters":3200,"station_id":"ce4bgk12rcd13ifvqbi0","pricing_plan_id":"cebpf4jnsgd1na2vs0mg"},{"bike_id":"d9bc1eda-028e-4fc9-ae4b-b861ec16b9da","system_id":"levelo_inurba_marseille","lat":43.295686,"lon":5.375198,"is_reserved":false,"is_disabled":false,"rental_uris":{"android":"levelo://app?vid=d9bc1eda-028e-4fc9-ae4b-b861ec16b9da","ios":"levelo://app?vid=d9bc1eda-028e-4fc9-ae4b-b861ec16b9da"},"vehicle_type_id":"4","last_reported":1717618129,"current_range_meters":0,"station_id":"","pricing_plan_id":"cebpf4jnsgd1na2vs0mg"},{"bike_id":"34c3cbdd-523e-4fbb-a7a2-ca8e99a1ba71","system_id":"levelo_inurba_marseille","lat":43.295748,"lon":5.37522,"is_reserved":false,"is_disabled":false,"rental_uris":{"android":"levelo://app?vid=34c3cbdd-523e-4fbb-a7a2-ca8e99a1ba71","ios":"levelo://app?vid=34c3cbdd-523e-4fbb-a7a2-ca8e99a1ba71"},"vehicle_type_id":"4","last_reported":1717618129,"current_range_meters":24800,"station_id":"ce4bgh92rcd13ifvqb50","pricing_plan_id":"cebpf4jnsgd1na2vs0mg"},{"bike_id":"d3ac8d57-4f5c-463b-be0c-7d0699cf614f","system_id":"levelo_inurba_marseille","lat":43.298037,"lon":5.381066,"is_reserved":false,"is_disabled":false,"rental_uris":{"android":"levelo://app?vid=d3ac8d57-4f5c-463b-be0c-7d0699cf614f","ios":"levelo://app?vid=d3ac8d57-4f5c-463b-be0c-7d0699cf614f"},"vehicle_type_id":"4","last_reported":1717618129,"current_range_meters":26800,"station_id":"ce4bgip2rcd13ifvqbb0","pricing_plan_id":"cebpf4jnsgd1na2vs0mg"},{"bike_id":"90bb66ac-af74-454c-ab4d-70699335bc25","system_id":"levelo_inurba_marseille","lat":43.296277,"lon":5.377108,"is_reserved":false,"is_disabled":false,"rental_uris":{"android":"levelo://app?vid=90bb66ac-af74-454c-ab4d-70699335bc25","ios":"levelo://app?vid=90bb66ac-af74-454c-ab4d-70699335bc25"},"vehicle_type_id":"4","last_reported":1717618129,"current_range_meters":31600,"station_id":"ce4bgi92rcd13ifvqb90","pricing_plan_id":"cebpf4jnsgd1na2vs0mg"},{"bike_id":"8d55ce67-1f9e-41ff-8651-b3b8e39887f4","system_id":"levelo_inurba_marseille","lat":43.296277,"lon":5.377108,"is_reserved":false,"is_disabled":false,"rental_uris":{"android":"levelo://app?vid=8d55ce67-1f9e-41ff-8651-b3b8e39887f4","ios":"levelo://app?vid=8d55ce67-1f9e-41ff-8651-b3b8e39887f4"},"vehicle_type_id":"4","last_reported":1717618129,"current_range_meters":13600,"station_id":"ce4bgi92rcd13ifvqb90","pricing_plan_id":"cebpf4jnsgd1na2vs0mg"},{"bike_id":"a3c94201-05ea-49e3-9516-a5da6944409b","system_id":"levelo_inurba_marseille","lat":43.299707,"lon":5.384859,"is_reserved":false,"is_disabled":false,"rental_uris":{"android":"levelo://app?vid=a3c94201-05ea-49e3-9516-a5da6944409b","ios":"levelo://app?vid=a3c94201-05ea-49e3-9516-a5da6944409b"},"vehicle_type_id":"4","last_reported":1717618129,"current_range_meters":9200,"station_id":"ce4bgj92rcd13ifvqbd0","pricing_plan_id":"cebpf4jnsgd1na2vs0mg"},{"bike_id":"2e2af5a3-1d14-4ab7-ae35-54978d5d7b07","system_id":"levelo_inurba_marseille","lat":43.295279,"lon":5.375048,"is_reserved":false,"is_disabled":false,"rental_uris":{"android":"levelo://app?vid=2e2af5a3-1d14-4ab7-ae35-54978d5d7b07","ios":"levelo://app?vid=2e2af5a3-1d14-4ab7-ae35-54978d5d7b07"},"vehicle_type_id":"4","last_reported":1717618129,"current_range_meters":26000,"station_id":"ce4bgkp2rcd13ifvqbmg","pricing_plan_id":"cebpf4jnsgd1na2vs0mg"},{"bike_id":"35bf68aa-a389-445b-9b49-49c27e6b60b5","system_id":"levelo_inurba_marseille","lat":43.29967,"lon":5.38486,"is_reserved":false,"is_disabled":false,"rental_uris":{"android":"levelo://app?vid=35bf68aa-a389-445b-9b49-49c27e6b60b5","ios":"levelo://app?vid=35bf68aa-a389-445b-9b49-49c27e6b60b5"},"vehicle_type_id":"4","last_reported":1717618129,"current_range_meters":0,"station_id":"ce4bgj92rcd13ifvqbd0","pricing_plan_id":"cebpf4jnsgd1na2vs0mg"},{"bike_id":"d4879565-8daf-425f-9c41-7f03a72a9fa4","system_id":"levelo_inurba_marseille","lat":43.299724,"lon":5.384848,"is_reserved":false,"is_disabled":false,"rental_uris":{"android":"levelo://app?vid=d4879565-8daf-425f-9c41-7f03a72a9fa4","ios":"levelo://app?vid=d4879565-8daf-425f-9c41-7f03a72a9fa4"},"vehicle_type_id":"4","last_reported":1717618129,"current_range_meters":15600,"station_id":"ce4bgj92rcd13ifvqbd0","pricing_plan_id":"cebpf4jnsgd1na2vs0mg"},{"bike_id":"989869c2-3d53-4d54-9cbb-06dc96be6e49","system_id":"levelo_inurba_marseille","lat":43.299717,"lon":5.384845,"is_reserved":false,"is_disabled":false,"rental_uris":{"android":"levelo://app?vid=989869c2-3d53-4d54-9cbb-06dc96be6e49","ios":"levelo://app?vid=989869c2-3d53-4d54-9cbb-06dc96be6e49"},"vehicle_type_id":"4","last_reported":1717618129,"current_range_meters":6000,"station_id":"ce4bgj92rcd13ifvqbd0","pricing_plan_id":"cebpf4jnsgd1na2vs0mg"},{"bike_id":"b0ec1ea6-d01b-4ef9-9459-39fff1bb5baa","system_id":"levelo_inurba_marseille","lat":43.323634,"lon":5.388764,"is_reserved":false,"is_disabled":false,"rental_uris":{"android":"levelo://app?vid=b0ec1ea6-d01b-4ef9-9459-39fff1bb5baa","ios":"levelo://app?vid=b0ec1ea6-d01b-4ef9-9459-39fff1bb5baa"},"vehicle_type_id":"4","last_reported":1717618129,"current_range_meters":17600,"station_id":"","pricing_plan_id":"cebpf4jnsgd1na2vs0mg"},{"bike_id":"8b2332cf-e3aa-439f-a353-c01116b3f783","system_id":"levelo_inurba_marseille","lat":43.32371,"lon":5.3887,"is_reserved":false,"is_disabled":false,"rental_uris":{"android":"levelo://app?vid=8b2332cf-e3aa-439f-a353-c01116b3f783","ios":"levelo://app?vid=8b2332cf-e3aa-439f-a353-c01116b3f783"},"vehicle_type_id":"4","last_reported":1717618129,"current_range_meters":0,"station_id":"ce4bhqp2rcd13ifvqhog","pricing_plan_id":"cebpf4jnsgd1na2vs0mg"},{"bike_id":"cb7a921a-7c15-4d7d-a73d-c6e299d91d26","system_id":"levelo_inurba_marseille","lat":43.32367,"lon":5.388836,"is_reserved":false,"is_disabled":false,"rental_uris":{"android":"levelo://app?vid=cb7a921a-7c15-4d7d-a73d-c6e299d91d26","ios":"levelo://app?vid=cb7a921a-7c15-4d7d-a73d-c6e299d91d26"},"vehicle_type_id":"4","last_reported":1717618129,"current_range_meters":400,"station_id":"ce4bhqp2rcd13ifvqhog","pricing_plan_id":"cebpf4jnsgd1na2vs0mg"},{"bike_id":"cd4f2c30-6a3e-445d-ad60-9c4115ab446a","system_id":"levelo_inurba_marseille","lat":43.32365,"lon":5.38886,"is_reserved":false,"is_disabled":false,"rental_uris":{"android":"levelo://app?vid=cd4f2c30-6a3e-445d-ad60-9c4115ab446a","ios":"levelo://app?vid=cd4f2c30-6a3e-445d-ad60-9c4115ab446a"},"vehicle_type_id":"4","last_reported":1717618129,"current_range_meters":0,"station_id":"ce4bhqp2rcd13ifvqhog","pricing_plan_id":"cebpf4jnsgd1na2vs0mg"},{"bike_id":"bafaca9f-85c8-4422-9fcf-e694ea0c861d","system_id":"levelo_inurba_marseille","lat":43.29601,"lon":5.381084,"is_reserved":false,"is_disabled":false,"rental_uris":{"android":"levelo://app?vid=bafaca9f-85c8-4422-9fcf-e694ea0c861d","ios":"levelo://app?vid=bafaca9f-85c8-4422-9fcf-e694ea0c861d"},"vehicle_type_id":"4","last_reported":1717618129,"current_range_meters":9200,"station_id":"ce4bgl12rcd13ifvqbo0","pricing_plan_id":"cebpf4jnsgd1na2vs0mg"},{"bike_id":"ade68a43-b5be-4e1a-94e2-1f256a9e65b8","system_id":"levelo_inurba_marseille","lat":43.29601,"lon":5.381084,"is_reserved":false,"is_disabled":false,"rental_uris":{"android":"levelo://app?vid=ade68a43-b5be-4e1a-94e2-1f256a9e65b8","ios":"levelo://app?vid=ade68a43-b5be-4e1a-94e2-1f256a9e65b8"},"vehicle_type_id":"4","last_reported":1717618129,"current_range_meters":14800,"station_id":"ce4bgl12rcd13ifvqbo0","pricing_plan_id":"cebpf4jnsgd1na2vs0mg"},{"bike_id":"660d7f05-0439-4af8-bb7a-69020a6b7a73","system_id":"levelo_inurba_marseille","lat":43.29602,"lon":5.381084,"is_reserved":false,"is_disabled":false,"rental_uris":{"android":"levelo://app?vid=660d7f05-0439-4af8-bb7a-69020a6b7a73","ios":"levelo://app?vid=660d7f05-0439-4af8-bb7a-69020a6b7a73"},"vehicle_type_id":"4","last_reported":1717618129,"current_range_meters":20800,"station_id":"ce4bgl12rcd13ifvqbo0","pricing_plan_id":"cebpf4jnsgd1na2vs0mg"},{"bike_id":"bdcdb8b2-b5e4-4d07-8aad-ac136fb0dba1","system_id":"levelo_inurba_marseille","lat":43.29602,"lon":5.381084,"is_reserved":false,"is_disabled":false,"rental_uris":{"android":"levelo://app?vid=bdcdb8b2-b5e4-4d07-8aad-ac136fb0dba1","ios":"levelo://app?vid=bdcdb8b2-b5e4-4d07-8aad-ac136fb0dba1"},"vehicle_type_id":"4","last_reported":1717618129,"current_range_meters":31600,"station_id":"ce4bgl12rcd13ifvqbo0","pricing_plan_id":"cebpf4jnsgd1na2vs0mg"},{"bike_id":"d766cdad-ef4e-408c-8578-633d242ba390","system_id":"levelo_inurba_marseille","lat":43.293249,"lon":5.371578,"is_reserved":false,"is_disabled":false,"rental_uris":{"android":"levelo://app?vid=d766cdad-ef4e-408c-8578-633d242ba390","ios":"levelo://app?vid=d766cdad-ef4e-408c-8578-633d242ba390"},"vehicle_type_id":"4","last_reported":1717618129,"current_range_meters":0,"station_id":"ce4bgh92rcd13ifvqb40","pricing_plan_id":"cebpf4jnsgd1na2vs0mg"},{"bike_id":"40953e26-2fe4-4ece-b06b-f9e2aff23f7b","system_id":"levelo_inurba_marseille","lat":43.29306,"lon":5.3717,"is_reserved":false,"is_disabled":false,"rental_uris":{"android":"levelo://app?vid=40953e26-2fe4-4ece-b06b-f9e2aff23f7b","ios":"levelo://app?vid=40953e26-2fe4-4ece-b06b-f9e2aff23f7b"},"vehicle_type_id":"4","last_reported":1717618129,"current_range_meters":19200,"station_id":"ce4bgh92rcd13ifvqb40","pricing_plan_id":"cebpf4jnsgd1na2vs0mg"},{"bike_id":"9ae0e8ed-805b-45cb-839e-223f4b2f9c62","system_id":"levelo_inurba_marseille","lat":43.293249,"lon":5.371578,"is_reserved":false,"is_disabled":false,"rental_uris":{"android":"levelo://app?vid=9ae0e8ed-805b-45cb-839e-223f4b2f9c62","ios":"levelo://app?vid=9ae0e8ed-805b-45cb-839e-223f4b2f9c62"},"vehicle_type_id":"4","last_reported":1717618129,"current_range_meters":31600,"station_id":"ce4bgh92rcd13ifvqb40","pricing_plan_id":"cebpf4jnsgd1na2vs0mg"},{"bike_id":"b3e7d827-d4f8-420b-acd0-dc960a156ed2","system_id":"levelo_inurba_marseille","lat":43.293249,"lon":5.371578,"is_reserved":false,"is_disabled":false,"rental_uris":{"android":"levelo://app?vid=b3e7d827-d4f8-420b-acd0-dc960a156ed2","ios":"levelo://app?vid=b3e7d827-d4f8-420b-acd0-dc960a156ed2"},"vehicle_type_id":"4","last_reported":1717618129,"current_range_meters":9600,"station_id":"ce4bgh92rcd13ifvqb40","pricing_plan_id":"cebpf4jnsgd1na2vs0mg"},{"bike_id":"a2704c4b-7ecb-45d4-84a5-abc7eebfead1","system_id":"levelo_inurba_marseille","lat":43.29267,"lon":5.36841,"is_reserved":false,"is_disabled":false,"rental_uris":{"android":"levelo://app?vid=a2704c4b-7ecb-45d4-84a5-abc7eebfead1","ios":"levelo://app?vid=a2704c4b-7ecb-45d4-84a5-abc7eebfead1"},"vehicle_type_id":"4","last_reported":1717618129,"current_range_meters":31600,"station_id":"ce4bhbp2rcd13ifvqesg","pricing_plan_id":"cebpf4jnsgd1na2vs0mg"},{"bike_id":"4595ad71-842b-4b5f-af94-183a5582c27f","system_id":"levelo_inurba_marseille","lat":43.29267,"lon":5.36846,"is_reserved":false,"is_disabled":false,"rental_uris":{"android":"levelo://app?vid=4595ad71-842b-4b5f-af94-183a5582c27f","ios":"levelo://app?vid=4595ad71-842b-4b5f-af94-183a5582c27f"},"vehicle_type_id":"4","last_reported":1717618129,"current_range_meters":22000,"station_id":"ce4bhbp2rcd13ifvqesg","pricing_plan_id":"cebpf4jnsgd1na2vs0mg"},{"bike_id":"061f6b97-d1e7-4bb5-81c2-0124702f9ed0","system_id":"levelo_inurba_marseille","lat":43.29304,"lon":5.374447,"is_reserved":false,"is_disabled":false,"rental_uris":{"android":"levelo://app?vid=061f6b97-d1e7-4bb5-81c2-0124702f9ed0","ios":"levelo://app?vid=061f6b97-d1e7-4bb5-81c2-0124702f9ed0"},"vehicle_type_id":"4","last_reported":1717618129,"current_range_meters":0,"station_id":"ce4bgi12rcd13ifvqb70","pricing_plan_id":"cebpf4jnsgd1na2vs0mg"},{"bike_id":"0c3960b2-26a1-4f24-ad43-6960f1802382","system_id":"levelo_inurba_marseille","lat":43.30598,"lon":5.393504,"is_reserved":false,"is_disabled":false,"rental_uris":{"android":"levelo://app?vid=0c3960b2-26a1-4f24-ad43-6960f1802382","ios":"levelo://app?vid=0c3960b2-26a1-4f24-ad43-6960f1802382"},"vehicle_type_id":"4","last_reported":1717618129,"current_range_meters":0,"station_id":"ce4bh0p2rcd13ifvqd80","pricing_plan_id":"cebpf4jnsgd1na2vs0mg"},{"bike_id":"98570920-f9ae-41e1-98b4-96c0c1e48c29","system_id":"levelo_inurba_marseille","lat":43.30588,"lon":5.39347,"is_reserved":false,"is_disabled":false,"rental_uris":{"android":"levelo://app?vid=98570920-f9ae-41e1-98b4-96c0c1e48c29","ios":"levelo://app?vid=98570920-f9ae-41e1-98b4-96c0c1e48c29"},"vehicle_type_id":"4","last_reported":1717618129,"current_range_meters":22000,"station_id":"ce4bh0p2rcd13ifvqd80","pricing_plan_id":"cebpf4jnsgd1na2vs0mg"},{"bike_id":"6b2bb9cc-fdaf-43e2-93c7-fff4b02dbafe","system_id":"levelo_inurba_marseille","lat":43.305994,"lon":5.393687,"is_reserved":false,"is_disabled":false,"rental_uris":{"android":"levelo://app?vid=6b2bb9cc-fdaf-43e2-93c7-fff4b02dbafe","ios":"levelo://app?vid=6b2bb9cc-fdaf-43e2-93c7-fff4b02dbafe"},"vehicle_type_id":"4","last_reported":1717618129,"current_range_meters":800,"station_id":"ce4bh0p2rcd13ifvqd80","pricing_plan_id":"cebpf4jnsgd1na2vs0mg"},{"bike_id":"4b509079-819b-4b90-ac8f-466d6097a3a3","system_id":"levelo_inurba_marseille","lat":43.305994,"lon":5.393687,"is_reserved":false,"is_disabled":false,"rental_uris":{"android":"levelo://app?vid=4b509079-819b-4b90-ac8f-466d6097a3a3","ios":"levelo://app?vid=4b509079-819b-4b90-ac8f-466d6097a3a3"},"vehicle_type_id":"4","last_reported":1717618129,"current_range_meters":9200,"station_id":"ce4bh0p2rcd13ifvqd80","pricing_plan_id":"cebpf4jnsgd1na2vs0mg"},{"bike_id":"2e90cbc2-1c4f-420d-8c07-c729780f6368","system_id":"levelo_inurba_marseille","lat":43.30317,"lon":5.392,"is_reserved":false,"is_disabled":false,"rental_uris":{"android":"levelo://app?vid=2e90cbc2-1c4f-420d-8c07-c729780f6368","ios":"levelo://app?vid=2e90cbc2-1c4f-420d-8c07-c729780f6368"},"vehicle_type_id":"4","last_reported":1717618129,"current_range_meters":0,"station_id":"ce4bgkh2rcd13ifvqbk0","pricing_plan_id":"cebpf4jnsgd1na2vs0mg"},{"bike_id":"ba25b4a0-a26d-43d2-b395-629ef4f346b0","system_id":"levelo_inurba_marseille","lat":43.303002,"lon":5.392142,"is_reserved":false,"is_disabled":false,"rental_uris":{"android":"levelo://app?vid=ba25b4a0-a26d-43d2-b395-629ef4f346b0","ios":"levelo://app?vid=ba25b4a0-a26d-43d2-b395-629ef4f346b0"},"vehicle_type_id":"4","last_reported":1717618129,"current_range_meters":2000,"station_id":"ce4bgkh2rcd13ifvqbk0","pricing_plan_id":"cebpf4jnsgd1na2vs0mg"},{"bike_id":"3b6bc5b9-87d6-451d-877f-78bc65b2ccf7","system_id":"levelo_inurba_marseille","lat":43.2936,"lon":5.37835,"is_reserved":false,"is_disabled":false,"rental_uris":{"android":"levelo://app?vid=3b6bc5b9-87d6-451d-877f-78bc65b2ccf7","ios":"levelo://app?vid=3b6bc5b9-87d6-451d-877f-78bc65b2ccf7"},"vehicle_type_id":"4","last_reported":1717618129,"current_range_meters":18800,"station_id":"ce4bgjh2rcd13ifvqbf0","pricing_plan_id":"cebpf4jnsgd1na2vs0mg"},{"bike_id":"84489e72-85e8-47cd-8767-bfd3ce74f872","system_id":"levelo_inurba_marseille","lat":43.30337,"lon":5.39252,"is_reserved":false,"is_disabled":false,"rental_uris":{"android":"levelo://app?vid=84489e72-85e8-47cd-8767-bfd3ce74f872","ios":"levelo://app?vid=84489e72-85e8-47cd-8767-bfd3ce74f872"},"vehicle_type_id":"4","last_reported":1717618129,"current_range_meters":400,"station_id":"","pricing_plan_id":"cebpf4jnsgd1na2vs0mg"},{"bike_id":"8dadf356-d023-4768-ba91-ba3087f62e8a","system_id":"levelo_inurba_marseille","lat":43.302992,"lon":5.392136,"is_reserved":false,"is_disabled":false,"rental_uris":{"android":"levelo://app?vid=8dadf356-d023-4768-ba91-ba3087f62e8a","ios":"levelo://app?vid=8dadf356-d023-4768-ba91-ba3087f62e8a"},"vehicle_type_id":"4","last_reported":1717618129,"current_range_meters":0,"station_id":"ce4bgkh2rcd13ifvqbk0","pricing_plan_id":"cebpf4jnsgd1na2vs0mg"},{"bike_id":"2fa0722d-eca1-4d88-81ef-76d198335e09","system_id":"levelo_inurba_marseille","lat":43.30085,"lon":5.390856,"is_reserved":false,"is_disabled":false,"rental_uris":{"android":"levelo://app?vid=2fa0722d-eca1-4d88-81ef-76d198335e09","ios":"levelo://app?vid=2fa0722d-eca1-4d88-81ef-76d198335e09"},"vehicle_type_id":"4","last_reported":1717618129,"current_range_meters":30800,"station_id":"ce4bh192rcd13ifvqdb0","pricing_plan_id":"cebpf4jnsgd1na2vs0mg"},{"bike_id":"1c06cfc2-a27f-448d-92cc-e37a68cddd4d","system_id":"levelo_inurba_marseille","lat":43.29225,"lon":5.36058,"is_reserved":false,"is_disabled":false,"rental_uris":{"android":"levelo://app?vid=1c06cfc2-a27f-448d-92cc-e37a68cddd4d","ios":"levelo://app?vid=1c06cfc2-a27f-448d-92cc-e37a68cddd4d"},"vehicle_type_id":"4","last_reported":1717618129,"current_range_meters":25200,"station_id":"ce4bhbh2rcd13ifvqeqg","pricing_plan_id":"cebpf4jnsgd1na2vs0mg"},{"bike_id":"55cbef4b-2f63-4efc-8eec-a7c35ed8bb29","system_id":"levelo_inurba_marseille","lat":43.29221,"lon":5.36053,"is_reserved":false,"is_disabled":false,"rental_uris":{"android":"levelo://app?vid=55cbef4b-2f63-4efc-8eec-a7c35ed8bb29","ios":"levelo://app?vid=55cbef4b-2f63-4efc-8eec-a7c35ed8bb29"},"vehicle_type_id":"4","last_reported":1717618129,"current_range_meters":0,"station_id":"ce4bhbh2rcd13ifvqeqg","pricing_plan_id":"cebpf4jnsgd1na2vs0mg"},{"bike_id":"317be1f0-8c50-43a9-a4bc-f1d00c04d972","system_id":"levelo_inurba_marseille","lat":43.298764,"lon":5.388973,"is_reserved":false,"is_disabled":false,"rental_uris":{"android":"levelo://app?vid=317be1f0-8c50-43a9-a4bc-f1d00c04d972","ios":"levelo://app?vid=317be1f0-8c50-43a9-a4bc-f1d00c04d972"},"vehicle_type_id":"4","last_reported":1717618129,"current_range_meters":18800,"station_id":"ce4bh392rcd13ifvqdl0","pricing_plan_id":"cebpf4jnsgd1na2vs0mg"},{"bike_id":"9f97c3a8-9481-49cd-8262-7a6cc5c07891","system_id":"levelo_inurba_marseille","lat":43.298764,"lon":5.388973,"is_reserved":false,"is_disabled":false,"rental_uris":{"android":"levelo://app?vid=9f97c3a8-9481-49cd-8262-7a6cc5c07891","ios":"levelo://app?vid=9f97c3a8-9481-49cd-8262-7a6cc5c07891"},"vehicle_type_id":"4","last_reported":1717618129,"current_range_meters":20400,"station_id":"ce4bh392rcd13ifvqdl0","pricing_plan_id":"cebpf4jnsgd1na2vs0mg"},{"bike_id":"9edc09c4-c63a-421b-8eb5-a679f3542796","system_id":"levelo_inurba_marseille","lat":43.291671,"lon":5.371575,"is_reserved":false,"is_disabled":false,"rental_uris":{"android":"levelo://app?vid=9edc09c4-c63a-421b-8eb5-a679f3542796","ios":"levelo://app?vid=9edc09c4-c63a-421b-8eb5-a679f3542796"},"vehicle_type_id":"4","last_reported":1717618129,"current_range_meters":0,"station_id":"ce4bha92rcd13ifvqeh0","pricing_plan_id":"cebpf4jnsgd1na2vs0mg"},{"bike_id":"b5dbd098-f5de-4750-a101-f0c8811b74b0","system_id":"levelo_inurba_marseille","lat":43.291671,"lon":5.371575,"is_reserved":false,"is_disabled":false,"rental_uris":{"android":"levelo://app?vid=b5dbd098-f5de-4750-a101-f0c8811b74b0","ios":"levelo://app?vid=b5dbd098-f5de-4750-a101-f0c8811b74b0"},"vehicle_type_id":"4","last_reported":1717618129,"current_range_meters":3200,"station_id":"ce4bha92rcd13ifvqeh0","pricing_plan_id":"cebpf4jnsgd1na2vs0mg"},{"bike_id":"05096b38-c538-46c1-a864-ef969005c576","system_id":"levelo_inurba_marseille","lat":43.291671,"lon":5.371575,"is_reserved":false,"is_disabled":false,"rental_uris":{"android":"levelo://app?vid=05096b38-c538-46c1-a864-ef969005c576","ios":"levelo://app?vid=05096b38-c538-46c1-a864-ef969005c576"},"vehicle_type_id":"4","last_reported":1717618129,"current_range_meters":28000,"station_id":"ce4bha92rcd13ifvqeh0","pricing_plan_id":"cebpf4jnsgd1na2vs0mg"},{"bike_id":"215b07c1-df95-4e7a-a20b-71c7f869557c","system_id":"levelo_inurba_marseille","lat":43.291675,"lon":5.371583,"is_reserved":false,"is_disabled":false,"rental_uris":{"android":"levelo://app?vid=215b07c1-df95-4e7a-a20b-71c7f869557c","ios":"levelo://app?vid=215b07c1-df95-4e7a-a20b-71c7f869557c"},"vehicle_type_id":"4","last_reported":1717618129,"current_range_meters":12800,"station_id":"ce4bha92rcd13ifvqeh0","pricing_plan_id":"cebpf4jnsgd1na2vs0mg"},{"bike_id":"ec03b25b-0d23-44e2-bc69-56ad579b4205","system_id":"levelo_inurba_marseille","lat":43.298764,"lon":5.388973,"is_reserved":false,"is_disabled":false,"rental_uris":{"android":"levelo://app?vid=ec03b25b-0d23-44e2-bc69-56ad579b4205","ios":"levelo://app?vid=ec03b25b-0d23-44e2-bc69-56ad579b4205"},"vehicle_type_id":"4","last_reported":1717618129,"current_range_meters":15600,"station_id":"ce4bh392rcd13ifvqdl0","pricing_plan_id":"cebpf4jnsgd1na2vs0mg"},{"bike_id":"832b065e-7a37-4b56-926d-12ece093a763","system_id":"levelo_inurba_marseille","lat":43.30888,"lon":5.39625,"is_reserved":false,"is_disabled":false,"rental_uris":{"android":"levelo://app?vid=832b065e-7a37-4b56-926d-12ece093a763","ios":"levelo://app?vid=832b065e-7a37-4b56-926d-12ece093a763"},"vehicle_type_id":"4","last_reported":1717618129,"current_range_meters":0,"station_id":"ce4bh012rcd13ifvqcv0","pricing_plan_id":"cebpf4jnsgd1na2vs0mg"},{"bike_id":"11b863b0-a931-4849-8181-0fd3ed1bf9f0","system_id":"levelo_inurba_marseille","lat":43.308887,"lon":5.396287,"is_reserved":false,"is_disabled":false,"rental_uris":{"android":"levelo://app?vid=11b863b0-a931-4849-8181-0fd3ed1bf9f0","ios":"levelo://app?vid=11b863b0-a931-4849-8181-0fd3ed1bf9f0"},"vehicle_type_id":"4","last_reported":1717618129,"current_range_meters":17200,"station_id":"ce4bh012rcd13ifvqcv0","pricing_plan_id":"cebpf4jnsgd1na2vs0mg"},{"bike_id":"404b2b49-3e3c-4623-a20d-d6d316c72eec","system_id":"levelo_inurba_marseille","lat":43.30888,"lon":5.39629,"is_reserved":false,"is_disabled":false,"rental_uris":{"android":"levelo://app?vid=404b2b49-3e3c-4623-a20d-d6d316c72eec","ios":"levelo://app?vid=404b2b49-3e3c-4623-a20d-d6d316c72eec"},"vehicle_type_id":"4","last_reported":1717618129,"current_range_meters":0,"station_id":"ce4bh012rcd13ifvqcv0","pricing_plan_id":"cebpf4jnsgd1na2vs0mg"},{"bike_id":"714bec18-0734-491c-8bb6-b83b441eba49","system_id":"levelo_inurba_marseille","lat":43.30886,"lon":5.3963,"is_reserved":false,"is_disabled":false,"rental_uris":{"android":"levelo://app?vid=714bec18-0734-491c-8bb6-b83b441eba49","ios":"levelo://app?vid=714bec18-0734-491c-8bb6-b83b441eba49"},"vehicle_type_id":"4","last_reported":1717618129,"current_range_meters":0,"station_id":"ce4bh012rcd13ifvqcv0","pricing_plan_id":"cebpf4jnsgd1na2vs0mg"},{"bike_id":"02d8997d-9947-4d2b-8b09-2e1f1a4077c0","system_id":"levelo_inurba_marseille","lat":43.30886,"lon":5.39638,"is_reserved":false,"is_disabled":false,"rental_uris":{"android":"levelo://app?vid=02d8997d-9947-4d2b-8b09-2e1f1a4077c0","ios":"levelo://app?vid=02d8997d-9947-4d2b-8b09-2e1f1a4077c0"},"vehicle_type_id":"4","last_reported":1717618129,"current_range_meters":0,"station_id":"ce4bh012rcd13ifvqcv0","pricing_plan_id":"cebpf4jnsgd1na2vs0mg"},{"bike_id":"02687933-f36a-400b-94f0-e183789667d2","system_id":"levelo_inurba_marseille","lat":43.309038,"lon":5.396546,"is_reserved":false,"is_disabled":false,"rental_uris":{"android":"levelo://app?vid=02687933-f36a-400b-94f0-e183789667d2","ios":"levelo://app?vid=02687933-f36a-400b-94f0-e183789667d2"},"vehicle_type_id":"4","last_reported":1717618129,"current_range_meters":20000,"station_id":"ce4bh012rcd13ifvqcv0","pricing_plan_id":"cebpf4jnsgd1na2vs0mg"},{"bike_id":"c712651c-872d-4468-a180-fe94131b6c7b","system_id":"levelo_inurba_marseille","lat":43.309038,"lon":5.396546,"is_reserved":false,"is_disabled":false,"rental_uris":{"android":"levelo://app?vid=c712651c-872d-4468-a180-fe94131b6c7b","ios":"levelo://app?vid=c712651c-872d-4468-a180-fe94131b6c7b"},"vehicle_type_id":"4","last_reported":1717618129,"current_range_meters":18000,"station_id":"ce4bh012rcd13ifvqcv0","pricing_plan_id":"cebpf4jnsgd1na2vs0mg"},{"bike_id":"4d3c82a3-c6c6-4d5c-a61a-301f82f9bcdc","system_id":"levelo_inurba_marseille","lat":43.313319,"lon":5.396949,"is_reserved":false,"is_disabled":false,"rental_uris":{"android":"levelo://app?vid=4d3c82a3-c6c6-4d5c-a61a-301f82f9bcdc","ios":"levelo://app?vid=4d3c82a3-c6c6-4d5c-a61a-301f82f9bcdc"},"vehicle_type_id":"4","last_reported":1717618129,"current_range_meters":28000,"station_id":"ce4bgvp2rcd13ifvqcu0","pricing_plan_id":"cebpf4jnsgd1na2vs0mg"},{"bike_id":"6dab6527-7644-44e1-afdf-af29337a75fd","system_id":"levelo_inurba_marseille","lat":43.309038,"lon":5.396546,"is_reserved":false,"is_disabled":false,"rental_uris":{"android":"levelo://app?vid=6dab6527-7644-44e1-afdf-af29337a75fd","ios":"levelo://app?vid=6dab6527-7644-44e1-afdf-af29337a75fd"},"vehicle_type_id":"4","last_reported":1717618129,"current_range_meters":0,"station_id":"ce4bh012rcd13ifvqcv0","pricing_plan_id":"cebpf4jnsgd1na2vs0mg"},{"bike_id":"0b504bf2-6dea-4f65-86a3-8a3eabb69ca0","system_id":"levelo_inurba_marseille","lat":43.31325,"lon":5.39698,"is_reserved":false,"is_disabled":false,"rental_uris":{"android":"levelo://app?vid=0b504bf2-6dea-4f65-86a3-8a3eabb69ca0","ios":"levelo://app?vid=0b504bf2-6dea-4f65-86a3-8a3eabb69ca0"},"vehicle_type_id":"4","last_reported":1717618129,"current_range_meters":0,"station_id":"ce4bgvp2rcd13ifvqcu0","pricing_plan_id":"cebpf4jnsgd1na2vs0mg"},{"bike_id":"105471be-57ba-4e75-a6df-5a56e0a86040","system_id":"levelo_inurba_marseille","lat":43.3089,"lon":5.396533,"is_reserved":false,"is_disabled":false,"rental_uris":{"android":"levelo://app?vid=105471be-57ba-4e75-a6df-5a56e0a86040","ios":"levelo://app?vid=105471be-57ba-4e75-a6df-5a56e0a86040"},"vehicle_type_id":"4","last_reported":1717618129,"current_range_meters":0,"station_id":"ce4bh012rcd13ifvqcv0","pricing_plan_id":"cebpf4jnsgd1na2vs0mg"},{"bike_id":"5c6dd8dd-bbf7-456c-85da-372d7054f721","system_id":"levelo_inurba_marseille","lat":43.29529,"lon":5.385581,"is_reserved":false,"is_disabled":false,"rental_uris":{"android":"levelo://app?vid=5c6dd8dd-bbf7-456c-85da-372d7054f721","ios":"levelo://app?vid=5c6dd8dd-bbf7-456c-85da-372d7054f721"},"vehicle_type_id":"4","last_reported":1717618129,"current_range_meters":24000,"station_id":"ce4bgih2rcd13ifvqba0","pricing_plan_id":"cebpf4jnsgd1na2vs0mg"},{"bike_id":"69dc11e3-945c-4c18-977f-3e2040d7e7b6","system_id":"levelo_inurba_marseille","lat":43.29529,"lon":5.385581,"is_reserved":false,"is_disabled":false,"rental_uris":{"android":"levelo://app?vid=69dc11e3-945c-4c18-977f-3e2040d7e7b6","ios":"levelo://app?vid=69dc11e3-945c-4c18-977f-3e2040d7e7b6"},"vehicle_type_id":"4","last_reported":1717618129,"current_range_meters":8000,"station_id":"ce4bgih2rcd13ifvqba0","pricing_plan_id":"cebpf4jnsgd1na2vs0mg"},{"bike_id":"5ba3b16b-6cc0-4c7a-ad04-7a76c400253f","system_id":"levelo_inurba_marseille","lat":43.29529,"lon":5.385581,"is_reserved":false,"is_disabled":false,"rental_uris":{"android":"levelo://app?vid=5ba3b16b-6cc0-4c7a-ad04-7a76c400253f","ios":"levelo://app?vid=5ba3b16b-6cc0-4c7a-ad04-7a76c400253f"},"vehicle_type_id":"4","last_reported":1717618129,"current_range_meters":11200,"station_id":"ce4bgih2rcd13ifvqba0","pricing_plan_id":"cebpf4jnsgd1na2vs0mg"},{"bike_id":"a978aeb5-e38c-4317-80c1-54ee9f75eed4","system_id":"levelo_inurba_marseille","lat":43.29262,"lon":5.38025,"is_reserved":false,"is_disabled":false,"rental_uris":{"android":"levelo://app?vid=a978aeb5-e38c-4317-80c1-54ee9f75eed4","ios":"levelo://app?vid=a978aeb5-e38c-4317-80c1-54ee9f75eed4"},"vehicle_type_id":"4","last_reported":1717618129,"current_range_meters":0,"station_id":"","pricing_plan_id":"cebpf4jnsgd1na2vs0mg"},{"bike_id":"5ef9cb1e-017c-4051-88ac-e5497d49a848","system_id":"levelo_inurba_marseille","lat":43.290779,"lon":5.371482,"is_reserved":false,"is_disabled":false,"rental_uris":{"android":"levelo://app?vid=5ef9cb1e-017c-4051-88ac-e5497d49a848","ios":"levelo://app?vid=5ef9cb1e-017c-4051-88ac-e5497d49a848"},"vehicle_type_id":"4","last_reported":1717618129,"current_range_meters":22800,"station_id":"ce4bh5p2rcd13ifvqe4g","pricing_plan_id":"cebpf4jnsgd1na2vs0mg"},{"bike_id":"997f4ebb-590b-4b62-8e59-867a9dc9f0c7","system_id":"levelo_inurba_marseille","lat":43.30212,"lon":5.39474,"is_reserved":false,"is_disabled":false,"rental_uris":{"android":"levelo://app?vid=997f4ebb-590b-4b62-8e59-867a9dc9f0c7","ios":"levelo://app?vid=997f4ebb-590b-4b62-8e59-867a9dc9f0c7"},"vehicle_type_id":"4","last_reported":1717618129,"current_range_meters":800,"station_id":"ce4bh0p2rcd13ifvqd70","pricing_plan_id":"cebpf4jnsgd1na2vs0mg"},{"bike_id":"a9492aff-187d-4d8b-adb1-feb76ba54010","system_id":"levelo_inurba_marseille","lat":43.28983,"lon":5.36672,"is_reserved":false,"is_disabled":false,"rental_uris":{"android":"levelo://app?vid=a9492aff-187d-4d8b-adb1-feb76ba54010","ios":"levelo://app?vid=a9492aff-187d-4d8b-adb1-feb76ba54010"},"vehicle_type_id":"4","last_reported":1717618129,"current_range_meters":14000,"station_id":"","pricing_plan_id":"cebpf4jnsgd1na2vs0mg"},{"bike_id":"8640ca06-7355-4c8a-9adc-62f3948c9708","system_id":"levelo_inurba_marseille","lat":43.290319,"lon":5.375732,"is_reserved":false,"is_disabled":false,"rental_uris":{"android":"levelo://app?vid=8640ca06-7355-4c8a-9adc-62f3948c9708","ios":"levelo://app?vid=8640ca06-7355-4c8a-9adc-62f3948c9708"},"vehicle_type_id":"4","last_reported":1717618129,"current_range_meters":7600,"station_id":"ce4bh692rcd13ifvqe90","pricing_plan_id":"cebpf4jnsgd1na2vs0mg"},{"bike_id":"3532e8c7-770a-4ef6-9886-9fcc95771a14","system_id":"levelo_inurba_marseille","lat":43.29426,"lon":5.38621,"is_reserved":false,"is_disabled":false,"rental_uris":{"android":"levelo://app?vid=3532e8c7-770a-4ef6-9886-9fcc95771a14","ios":"levelo://app?vid=3532e8c7-770a-4ef6-9886-9fcc95771a14"},"vehicle_type_id":"4","last_reported":1717618129,"current_range_meters":26400,"station_id":"ce4bh2h2rcd13ifvqdh0","pricing_plan_id":"cebpf4jnsgd1na2vs0mg"},{"bike_id":"b43dcde1-3e9c-4855-bbea-167f84165178","system_id":"levelo_inurba_marseille","lat":43.290319,"lon":5.375732,"is_reserved":false,"is_disabled":false,"rental_uris":{"android":"levelo://app?vid=b43dcde1-3e9c-4855-bbea-167f84165178","ios":"levelo://app?vid=b43dcde1-3e9c-4855-bbea-167f84165178"},"vehicle_type_id":"4","last_reported":1717618129,"current_range_meters":29200,"station_id":"ce4bh692rcd13ifvqe90","pricing_plan_id":"cebpf4jnsgd1na2vs0mg"},{"bike_id":"c5e75628-e1ce-4263-b5fc-13d7a624d64b","system_id":"levelo_inurba_marseille","lat":43.294153,"lon":5.386305,"is_reserved":false,"is_disabled":false,"rental_uris":{"android":"levelo://app?vid=c5e75628-e1ce-4263-b5fc-13d7a624d64b","ios":"levelo://app?vid=c5e75628-e1ce-4263-b5fc-13d7a624d64b"},"vehicle_type_id":"4","last_reported":1717618129,"current_range_meters":26000,"station_id":"ce4bh2h2rcd13ifvqdh0","pricing_plan_id":"cebpf4jnsgd1na2vs0mg"},{"bike_id":"beffdbea-0131-4465-a55b-41b66bebdfe9","system_id":"levelo_inurba_marseille","lat":43.29038,"lon":5.37563,"is_reserved":false,"is_disabled":false,"rental_uris":{"android":"levelo://app?vid=beffdbea-0131-4465-a55b-41b66bebdfe9","ios":"levelo://app?vid=beffdbea-0131-4465-a55b-41b66bebdfe9"},"vehicle_type_id":"4","last_reported":1717618129,"current_range_meters":4800,"station_id":"ce4bh692rcd13ifvqe90","pricing_plan_id":"cebpf4jnsgd1na2vs0mg"},{"bike_id":"96eb2d45-f8d4-4df4-850c-69c372b8193b","system_id":"levelo_inurba_marseille","lat":43.29422,"lon":5.38625,"is_reserved":false,"is_disabled":false,"rental_uris":{"android":"levelo://app?vid=96eb2d45-f8d4-4df4-850c-69c372b8193b","ios":"levelo://app?vid=96eb2d45-f8d4-4df4-850c-69c372b8193b"},"vehicle_type_id":"4","last_reported":1717618129,"current_range_meters":4800,"station_id":"ce4bh2h2rcd13ifvqdh0","pricing_plan_id":"cebpf4jnsgd1na2vs0mg"},{"bike_id":"e2b96b90-8e3b-4dea-a03a-f4a97c135366","system_id":"levelo_inurba_marseille","lat":43.29417,"lon":5.38619,"is_reserved":false,"is_disabled":false,"rental_uris":{"android":"levelo://app?vid=e2b96b90-8e3b-4dea-a03a-f4a97c135366","ios":"levelo://app?vid=e2b96b90-8e3b-4dea-a03a-f4a97c135366"},"vehicle_type_id":"4","last_reported":1717618129,"current_range_meters":26000,"station_id":"ce4bh2h2rcd13ifvqdh0","pricing_plan_id":"cebpf4jnsgd1na2vs0mg"},{"bike_id":"1c8b0432-ede9-4090-942c-777f207c08e1","system_id":"levelo_inurba_marseille","lat":43.29418,"lon":5.38625,"is_reserved":false,"is_disabled":false,"rental_uris":{"android":"levelo://app?vid=1c8b0432-ede9-4090-942c-777f207c08e1","ios":"levelo://app?vid=1c8b0432-ede9-4090-942c-777f207c08e1"},"vehicle_type_id":"4","last_reported":1717618129,"current_range_meters":0,"station_id":"ce4bh2h2rcd13ifvqdh0","pricing_plan_id":"cebpf4jnsgd1na2vs0mg"},{"bike_id":"3175b907-4e93-42a6-acb4-3c04fda7eb6a","system_id":"levelo_inurba_marseille","lat":43.29032,"lon":5.37561,"is_reserved":false,"is_disabled":false,"rental_uris":{"android":"levelo://app?vid=3175b907-4e93-42a6-acb4-3c04fda7eb6a","ios":"levelo://app?vid=3175b907-4e93-42a6-acb4-3c04fda7eb6a"},"vehicle_type_id":"4","last_reported":1717618129,"current_range_meters":4000,"station_id":"ce4bh692rcd13ifvqe90","pricing_plan_id":"cebpf4jnsgd1na2vs0mg"},{"bike_id":"26ee96f1-56be-4c95-a602-b4a7b51a8401","system_id":"levelo_inurba_marseille","lat":43.29415,"lon":5.38626,"is_reserved":false,"is_disabled":false,"rental_uris":{"android":"levelo://app?vid=26ee96f1-56be-4c95-a602-b4a7b51a8401","ios":"levelo://app?vid=26ee96f1-56be-4c95-a602-b4a7b51a8401"},"vehicle_type_id":"4","last_reported":1717618129,"current_range_meters":17200,"station_id":"","pricing_plan_id":"cebpf4jnsgd1na2vs0mg"},{"bike_id":"07423fdf-1a8f-4d0f-b39c-bd35569fb56d","system_id":"levelo_inurba_marseille","lat":43.289184,"lon":5.366408,"is_reserved":false,"is_disabled":false,"rental_uris":{"android":"levelo://app?vid=07423fdf-1a8f-4d0f-b39c-bd35569fb56d","ios":"levelo://app?vid=07423fdf-1a8f-4d0f-b39c-bd35569fb56d"},"vehicle_type_id":"4","last_reported":1717618129,"current_range_meters":0,"station_id":"ce4bhap2rcd13ifvqek0","pricing_plan_id":"cebpf4jnsgd1na2vs0mg"},{"bike_id":"02723fa7-e884-4f2f-8ef0-22f52aa8381b","system_id":"levelo_inurba_marseille","lat":43.294162,"lon":5.386292,"is_reserved":false,"is_disabled":false,"rental_uris":{"android":"levelo://app?vid=02723fa7-e884-4f2f-8ef0-22f52aa8381b","ios":"levelo://app?vid=02723fa7-e884-4f2f-8ef0-22f52aa8381b"},"vehicle_type_id":"4","last_reported":1717618129,"current_range_meters":26000,"station_id":"ce4bh2h2rcd13ifvqdh0","pricing_plan_id":"cebpf4jnsgd1na2vs0mg"},{"bike_id":"a5a43563-b9f8-460e-93a8-2ba3e9d647f4","system_id":"levelo_inurba_marseille","lat":43.294084,"lon":5.386224,"is_reserved":false,"is_disabled":false,"rental_uris":{"android":"levelo://app?vid=a5a43563-b9f8-460e-93a8-2ba3e9d647f4","ios":"levelo://app?vid=a5a43563-b9f8-460e-93a8-2ba3e9d647f4"},"vehicle_type_id":"4","last_reported":1717618129,"current_range_meters":5200,"station_id":"ce4bh2h2rcd13ifvqdh0","pricing_plan_id":"cebpf4jnsgd1na2vs0mg"},{"bike_id":"40734add-85da-497c-a769-24b4088d0ed7","system_id":"levelo_inurba_marseille","lat":43.290226,"lon":5.375506,"is_reserved":false,"is_disabled":false,"rental_uris":{"android":"levelo://app?vid=40734add-85da-497c-a769-24b4088d0ed7","ios":"levelo://app?vid=40734add-85da-497c-a769-24b4088d0ed7"},"vehicle_type_id":"4","last_reported":1717618129,"current_range_meters":2400,"station_id":"ce4bh692rcd13ifvqe90","pricing_plan_id":"cebpf4jnsgd1na2vs0mg"},{"bike_id":"4a3be763-944c-4925-87b6-d1923718f341","system_id":"levelo_inurba_marseille","lat":43.29405,"lon":5.3862,"is_reserved":false,"is_disabled":false,"rental_uris":{"android":"levelo://app?vid=4a3be763-944c-4925-87b6-d1923718f341","ios":"levelo://app?vid=4a3be763-944c-4925-87b6-d1923718f341"},"vehicle_type_id":"4","last_reported":1717618129,"current_range_meters":2400,"station_id":"ce4bh2h2rcd13ifvqdh0","pricing_plan_id":"cebpf4jnsgd1na2vs0mg"},{"bike_id":"1a8f6341-469a-4ec7-b82b-8c8c4a093eb6","system_id":"levelo_inurba_marseille","lat":43.289375,"lon":5.366385,"is_reserved":false,"is_disabled":false,"rental_uris":{"android":"levelo://app?vid=1a8f6341-469a-4ec7-b82b-8c8c4a093eb6","ios":"levelo://app?vid=1a8f6341-469a-4ec7-b82b-8c8c4a093eb6"},"vehicle_type_id":"4","last_reported":1717618129,"current_range_meters":0,"station_id":"ce4bhap2rcd13ifvqek0","pricing_plan_id":"cebpf4jnsgd1na2vs0mg"},{"bike_id":"25db7286-ee9e-4db7-85e3-bece91e88092","system_id":"levelo_inurba_marseille","lat":43.289184,"lon":5.366408,"is_reserved":false,"is_disabled":false,"rental_uris":{"android":"levelo://app?vid=25db7286-ee9e-4db7-85e3-bece91e88092","ios":"levelo://app?vid=25db7286-ee9e-4db7-85e3-bece91e88092"},"vehicle_type_id":"4","last_reported":1717618129,"current_range_meters":31600,"station_id":"ce4bhap2rcd13ifvqek0","pricing_plan_id":"cebpf4jnsgd1na2vs0mg"},{"bike_id":"8097273f-a5ff-4625-8478-f4e4f1d7cf04","system_id":"levelo_inurba_marseille","lat":43.289338,"lon":5.366322,"is_reserved":false,"is_disabled":false,"rental_uris":{"android":"levelo://app?vid=8097273f-a5ff-4625-8478-f4e4f1d7cf04","ios":"levelo://app?vid=8097273f-a5ff-4625-8478-f4e4f1d7cf04"},"vehicle_type_id":"4","last_reported":1717618129,"current_range_meters":0,"station_id":"ce4bhap2rcd13ifvqek0","pricing_plan_id":"cebpf4jnsgd1na2vs0mg"},{"bike_id":"5dc7f835-1347-4bbd-a8c5-9fc3a3d433e8","system_id":"levelo_inurba_marseille","lat":43.289184,"lon":5.366408,"is_reserved":false,"is_disabled":false,"rental_uris":{"android":"levelo://app?vid=5dc7f835-1347-4bbd-a8c5-9fc3a3d433e8","ios":"levelo://app?vid=5dc7f835-1347-4bbd-a8c5-9fc3a3d433e8"},"vehicle_type_id":"4","last_reported":1717618129,"current_range_meters":19200,"station_id":"ce4bhap2rcd13ifvqek0","pricing_plan_id":"cebpf4jnsgd1na2vs0mg"},{"bike_id":"fd60642a-4362-40e0-9f50-c0e1868302ec","system_id":"levelo_inurba_marseille","lat":43.294516,"lon":5.387335,"is_reserved":false,"is_disabled":false,"rental_uris":{"android":"levelo://app?vid=fd60642a-4362-40e0-9f50-c0e1868302ec","ios":"levelo://app?vid=fd60642a-4362-40e0-9f50-c0e1868302ec"},"vehicle_type_id":"4","last_reported":1717618129,"current_range_meters":3200,"station_id":"","pricing_plan_id":"cebpf4jnsgd1na2vs0mg"},{"bike_id":"39c39c8b-19f3-4dc1-820e-31ef1a028837","system_id":"levelo_inurba_marseille","lat":43.292642,"lon":5.384254,"is_reserved":false,"is_disabled":false,"rental_uris":{"android":"levelo://app?vid=39c39c8b-19f3-4dc1-820e-31ef1a028837","ios":"levelo://app?vid=39c39c8b-19f3-4dc1-820e-31ef1a028837"},"vehicle_type_id":"4","last_reported":1717618129,"current_range_meters":0,"station_id":"ce4bh692rcd13ifvqea0","pricing_plan_id":"cebpf4jnsgd1na2vs0mg"},{"bike_id":"0d022606-6a65-4109-8d1d-bed133a67e81","system_id":"levelo_inurba_marseille","lat":43.292642,"lon":5.384254,"is_reserved":false,"is_disabled":false,"rental_uris":{"android":"levelo://app?vid=0d022606-6a65-4109-8d1d-bed133a67e81","ios":"levelo://app?vid=0d022606-6a65-4109-8d1d-bed133a67e81"},"vehicle_type_id":"4","last_reported":1717618129,"current_range_meters":17200,"station_id":"ce4bh692rcd13ifvqea0","pricing_plan_id":"cebpf4jnsgd1na2vs0mg"},{"bike_id":"52c0fa84-9789-4cf4-a602-ec2aea117c15","system_id":"levelo_inurba_marseille","lat":43.292697,"lon":5.384402,"is_reserved":false,"is_disabled":false,"rental_uris":{"android":"levelo://app?vid=52c0fa84-9789-4cf4-a602-ec2aea117c15","ios":"levelo://app?vid=52c0fa84-9789-4cf4-a602-ec2aea117c15"},"vehicle_type_id":"4","last_reported":1717618129,"current_range_meters":28400,"station_id":"ce4bh692rcd13ifvqea0","pricing_plan_id":"cebpf4jnsgd1na2vs0mg"},{"bike_id":"23aee96c-0a65-48a0-982b-1724965a44d0","system_id":"levelo_inurba_marseille","lat":43.292673,"lon":5.38438,"is_reserved":false,"is_disabled":false,"rental_uris":{"android":"levelo://app?vid=23aee96c-0a65-48a0-982b-1724965a44d0","ios":"levelo://app?vid=23aee96c-0a65-48a0-982b-1724965a44d0"},"vehicle_type_id":"4","last_reported":1717618129,"current_range_meters":6000,"station_id":"ce4bh692rcd13ifvqea0","pricing_plan_id":"cebpf4jnsgd1na2vs0mg"},{"bike_id":"f3c662a8-0cd6-4d6d-819b-b84f96ff91c1","system_id":"levelo_inurba_marseille","lat":43.292644,"lon":5.384257,"is_reserved":false,"is_disabled":false,"rental_uris":{"android":"levelo://app?vid=f3c662a8-0cd6-4d6d-819b-b84f96ff91c1","ios":"levelo://app?vid=f3c662a8-0cd6-4d6d-819b-b84f96ff91c1"},"vehicle_type_id":"4","last_reported":1717618129,"current_range_meters":2400,"station_id":"ce4bh692rcd13ifvqea0","pricing_plan_id":"cebpf4jnsgd1na2vs0mg"},{"bike_id":"ca94998e-3c34-4ac7-a04b-7d76b6c655c2","system_id":"levelo_inurba_marseille","lat":43.304274,"lon":5.397513,"is_reserved":false,"is_disabled":false,"rental_uris":{"android":"levelo://app?vid=ca94998e-3c34-4ac7-a04b-7d76b6c655c2","ios":"levelo://app?vid=ca94998e-3c34-4ac7-a04b-7d76b6c655c2"},"vehicle_type_id":"4","last_reported":1717618129,"current_range_meters":12800,"station_id":"ce4bh092rcd13ifvqd20","pricing_plan_id":"cebpf4jnsgd1na2vs0mg"},{"bike_id":"12de6a62-d751-4023-a0f6-b78ed3bf374b","system_id":"levelo_inurba_marseille","lat":43.292642,"lon":5.384254,"is_reserved":false,"is_disabled":false,"rental_uris":{"android":"levelo://app?vid=12de6a62-d751-4023-a0f6-b78ed3bf374b","ios":"levelo://app?vid=12de6a62-d751-4023-a0f6-b78ed3bf374b"},"vehicle_type_id":"4","last_reported":1717618129,"current_range_meters":0,"station_id":"ce4bh692rcd13ifvqea0","pricing_plan_id":"cebpf4jnsgd1na2vs0mg"},{"bike_id":"0714f56d-6a4d-4aa7-a954-7d4b875d4467","system_id":"levelo_inurba_marseille","lat":43.29266,"lon":5.3844,"is_reserved":false,"is_disabled":false,"rental_uris":{"android":"levelo://app?vid=0714f56d-6a4d-4aa7-a954-7d4b875d4467","ios":"levelo://app?vid=0714f56d-6a4d-4aa7-a954-7d4b875d4467"},"vehicle_type_id":"4","last_reported":1717618129,"current_range_meters":0,"station_id":"ce4bh692rcd13ifvqea0","pricing_plan_id":"cebpf4jnsgd1na2vs0mg"},{"bike_id":"f4087919-33ce-4e19-b0ed-5eb730101e08","system_id":"levelo_inurba_marseille","lat":43.29266,"lon":5.384443,"is_reserved":false,"is_disabled":false,"rental_uris":{"android":"levelo://app?vid=f4087919-33ce-4e19-b0ed-5eb730101e08","ios":"levelo://app?vid=f4087919-33ce-4e19-b0ed-5eb730101e08"},"vehicle_type_id":"4","last_reported":1717618129,"current_range_meters":3600,"station_id":"ce4bh692rcd13ifvqea0","pricing_plan_id":"cebpf4jnsgd1na2vs0mg"},{"bike_id":"db0851a6-de7b-4f08-ae36-bc18b0dd6dd7","system_id":"levelo_inurba_marseille","lat":43.29265,"lon":5.38444,"is_reserved":false,"is_disabled":false,"rental_uris":{"android":"levelo://app?vid=db0851a6-de7b-4f08-ae36-bc18b0dd6dd7","ios":"levelo://app?vid=db0851a6-de7b-4f08-ae36-bc18b0dd6dd7"},"vehicle_type_id":"4","last_reported":1717618129,"current_range_meters":0,"station_id":"ce4bh692rcd13ifvqea0","pricing_plan_id":"cebpf4jnsgd1na2vs0mg"},{"bike_id":"2f695a8d-df52-494b-9f28-7aae615b4034","system_id":"levelo_inurba_marseille","lat":43.292642,"lon":5.384254,"is_reserved":false,"is_disabled":false,"rental_uris":{"android":"levelo://app?vid=2f695a8d-df52-494b-9f28-7aae615b4034","ios":"levelo://app?vid=2f695a8d-df52-494b-9f28-7aae615b4034"},"vehicle_type_id":"4","last_reported":1717618129,"current_range_meters":7600,"station_id":"ce4bh692rcd13ifvqea0","pricing_plan_id":"cebpf4jnsgd1na2vs0mg"},{"bike_id":"1cb50814-faff-4e76-9846-61cd5311f81e","system_id":"levelo_inurba_marseille","lat":43.292607,"lon":5.384449,"is_reserved":false,"is_disabled":false,"rental_uris":{"android":"levelo://app?vid=1cb50814-faff-4e76-9846-61cd5311f81e","ios":"levelo://app?vid=1cb50814-faff-4e76-9846-61cd5311f81e"},"vehicle_type_id":"4","last_reported":1717618129,"current_range_meters":30000,"station_id":"ce4bh692rcd13ifvqea0","pricing_plan_id":"cebpf4jnsgd1na2vs0mg"},{"bike_id":"79488021-fea6-45cd-9df7-f14a835702f0","system_id":"levelo_inurba_marseille","lat":43.29256,"lon":5.38442,"is_reserved":false,"is_disabled":false,"rental_uris":{"android":"levelo://app?vid=79488021-fea6-45cd-9df7-f14a835702f0","ios":"levelo://app?vid=79488021-fea6-45cd-9df7-f14a835702f0"},"vehicle_type_id":"4","last_reported":1717618129,"current_range_meters":6400,"station_id":"ce4bh692rcd13ifvqea0","pricing_plan_id":"cebpf4jnsgd1na2vs0mg"},{"bike_id":"d3767e2c-8d0f-432e-95b9-2f0b419475b2","system_id":"levelo_inurba_marseille","lat":43.29813,"lon":5.39293,"is_reserved":false,"is_disabled":false,"rental_uris":{"android":"levelo://app?vid=d3767e2c-8d0f-432e-95b9-2f0b419475b2","ios":"levelo://app?vid=d3767e2c-8d0f-432e-95b9-2f0b419475b2"},"vehicle_type_id":"4","last_reported":1717618129,"current_range_meters":2000,"station_id":"ce4bh4p2rcd13ifvqe0g","pricing_plan_id":"cebpf4jnsgd1na2vs0mg"},{"bike_id":"49a0b464-f7bf-4d21-8fc6-1d310c732b14","system_id":"levelo_inurba_marseille","lat":43.292497,"lon":5.384527,"is_reserved":false,"is_disabled":false,"rental_uris":{"android":"levelo://app?vid=49a0b464-f7bf-4d21-8fc6-1d310c732b14","ios":"levelo://app?vid=49a0b464-f7bf-4d21-8fc6-1d310c732b14"},"vehicle_type_id":"4","last_reported":1717618129,"current_range_meters":0,"station_id":"ce4bh692rcd13ifvqea0","pricing_plan_id":"cebpf4jnsgd1na2vs0mg"},{"bike_id":"b8ba811d-670a-4f8b-9d14-9949d8effdbb","system_id":"levelo_inurba_marseille","lat":43.290103,"lon":5.356114,"is_reserved":false,"is_disabled":false,"rental_uris":{"android":"levelo://app?vid=b8ba811d-670a-4f8b-9d14-9949d8effdbb","ios":"levelo://app?vid=b8ba811d-670a-4f8b-9d14-9949d8effdbb"},"vehicle_type_id":"4","last_reported":1717618129,"current_range_meters":0,"station_id":"ce4bhb92rcd13ifvqen0","pricing_plan_id":"cebpf4jnsgd1na2vs0mg"},{"bike_id":"393373e1-bdb9-4c0d-840e-5128ab9355e6","system_id":"levelo_inurba_marseille","lat":43.290995,"lon":5.381361,"is_reserved":false,"is_disabled":false,"rental_uris":{"android":"levelo://app?vid=393373e1-bdb9-4c0d-840e-5128ab9355e6","ios":"levelo://app?vid=393373e1-bdb9-4c0d-840e-5128ab9355e6"},"vehicle_type_id":"4","last_reported":1717618129,"current_range_meters":16800,"station_id":"ce4bh512rcd13ifvqe2g","pricing_plan_id":"cebpf4jnsgd1na2vs0mg"},{"bike_id":"be30c6d8-f7e7-4c40-9903-21a90f0eb87e","system_id":"levelo_inurba_marseille","lat":43.290995,"lon":5.381361,"is_reserved":false,"is_disabled":false,"rental_uris":{"android":"levelo://app?vid=be30c6d8-f7e7-4c40-9903-21a90f0eb87e","ios":"levelo://app?vid=be30c6d8-f7e7-4c40-9903-21a90f0eb87e"},"vehicle_type_id":"4","last_reported":1717618129,"current_range_meters":0,"station_id":"ce4bh512rcd13ifvqe2g","pricing_plan_id":"cebpf4jnsgd1na2vs0mg"},{"bike_id":"688c8a56-74e2-4c67-849a-bdd2e7af5dfd","system_id":"levelo_inurba_marseille","lat":43.29781,"lon":5.39327,"is_reserved":false,"is_disabled":false,"rental_uris":{"android":"levelo://app?vid=688c8a56-74e2-4c67-849a-bdd2e7af5dfd","ios":"levelo://app?vid=688c8a56-74e2-4c67-849a-bdd2e7af5dfd"},"vehicle_type_id":"4","last_reported":1717618129,"current_range_meters":6000,"station_id":"chh1huq6cuj3fo74tm60","pricing_plan_id":"cebpf4jnsgd1na2vs0mg"},{"bike_id":"4cd27647-95fd-4d97-97db-e27078cf49e9","system_id":"levelo_inurba_marseille","lat":43.30424,"lon":5.39821,"is_reserved":false,"is_disabled":false,"rental_uris":{"android":"levelo://app?vid=4cd27647-95fd-4d97-97db-e27078cf49e9","ios":"levelo://app?vid=4cd27647-95fd-4d97-97db-e27078cf49e9"},"vehicle_type_id":"4","last_reported":1717618129,"current_range_meters":11600,"station_id":"","pricing_plan_id":"cebpf4jnsgd1na2vs0mg"},{"bike_id":"df8beee0-398e-4e4e-9191-2ee1612dfc6b","system_id":"levelo_inurba_marseille","lat":43.297873,"lon":5.39336,"is_reserved":false,"is_disabled":false,"rental_uris":{"android":"levelo://app?vid=df8beee0-398e-4e4e-9191-2ee1612dfc6b","ios":"levelo://app?vid=df8beee0-398e-4e4e-9191-2ee1612dfc6b"},"vehicle_type_id":"4","last_reported":1717618129,"current_range_meters":3600,"station_id":"chh1huq6cuj3fo74tm60","pricing_plan_id":"cebpf4jnsgd1na2vs0mg"},{"bike_id":"a2fc549a-d16c-4829-9ea0-825d320ce458","system_id":"levelo_inurba_marseille","lat":43.295169,"lon":5.390426,"is_reserved":false,"is_disabled":false,"rental_uris":{"android":"levelo://app?vid=a2fc549a-d16c-4829-9ea0-825d320ce458","ios":"levelo://app?vid=a2fc549a-d16c-4829-9ea0-825d320ce458"},"vehicle_type_id":"4","last_reported":1717618129,"current_range_meters":11600,"station_id":"ce4bh3p2rcd13ifvqdp0","pricing_plan_id":"cebpf4jnsgd1na2vs0mg"},{"bike_id":"2b4866d6-daf6-4d9e-ba87-c453460a0746","system_id":"levelo_inurba_marseille","lat":43.295169,"lon":5.390426,"is_reserved":false,"is_disabled":false,"rental_uris":{"android":"levelo://app?vid=2b4866d6-daf6-4d9e-ba87-c453460a0746","ios":"levelo://app?vid=2b4866d6-daf6-4d9e-ba87-c453460a0746"},"vehicle_type_id":"4","last_reported":1717618129,"current_range_meters":23200,"station_id":"ce4bh3p2rcd13ifvqdp0","pricing_plan_id":"cebpf4jnsgd1na2vs0mg"},{"bike_id":"7b638e9f-3966-4f65-8d68-2c3c431c9f2b","system_id":"levelo_inurba_marseille","lat":43.295169,"lon":5.390426,"is_reserved":false,"is_disabled":false,"rental_uris":{"android":"levelo://app?vid=7b638e9f-3966-4f65-8d68-2c3c431c9f2b","ios":"levelo://app?vid=7b638e9f-3966-4f65-8d68-2c3c431c9f2b"},"vehicle_type_id":"4","last_reported":1717618129,"current_range_meters":6400,"station_id":"ce4bh3p2rcd13ifvqdp0","pricing_plan_id":"cebpf4jnsgd1na2vs0mg"},{"bike_id":"84e03916-a392-4411-a465-074a3465a07d","system_id":"levelo_inurba_marseille","lat":43.295169,"lon":5.390426,"is_reserved":false,"is_disabled":false,"rental_uris":{"android":"levelo://app?vid=84e03916-a392-4411-a465-074a3465a07d","ios":"levelo://app?vid=84e03916-a392-4411-a465-074a3465a07d"},"vehicle_type_id":"4","last_reported":1717618129,"current_range_meters":9600,"station_id":"ce4bh3p2rcd13ifvqdp0","pricing_plan_id":"cebpf4jnsgd1na2vs0mg"},{"bike_id":"251d311b-c1f9-4800-b2a6-20563beb717a","system_id":"levelo_inurba_marseille","lat":43.33026,"lon":5.39034,"is_reserved":false,"is_disabled":false,"rental_uris":{"android":"levelo://app?vid=251d311b-c1f9-4800-b2a6-20563beb717a","ios":"levelo://app?vid=251d311b-c1f9-4800-b2a6-20563beb717a"},"vehicle_type_id":"4","last_reported":1717618129,"current_range_meters":5600,"station_id":"ce4bhr92rcd13ifvqhrg","pricing_plan_id":"cebpf4jnsgd1na2vs0mg"},{"bike_id":"72c2816f-df41-4e44-aec5-2d25bb9fd371","system_id":"levelo_inurba_marseille","lat":43.295169,"lon":5.390426,"is_reserved":false,"is_disabled":false,"rental_uris":{"android":"levelo://app?vid=72c2816f-df41-4e44-aec5-2d25bb9fd371","ios":"levelo://app?vid=72c2816f-df41-4e44-aec5-2d25bb9fd371"},"vehicle_type_id":"4","last_reported":1717618129,"current_range_meters":29200,"station_id":"ce4bh3p2rcd13ifvqdp0","pricing_plan_id":"cebpf4jnsgd1na2vs0mg"},{"bike_id":"c2c42122-77df-466e-93a8-4103d7d3c2cb","system_id":"levelo_inurba_marseille","lat":43.295169,"lon":5.390426,"is_reserved":false,"is_disabled":false,"rental_uris":{"android":"levelo://app?vid=c2c42122-77df-466e-93a8-4103d7d3c2cb","ios":"levelo://app?vid=c2c42122-77df-466e-93a8-4103d7d3c2cb"},"vehicle_type_id":"4","last_reported":1717618129,"current_range_meters":25600,"station_id":"ce4bh3p2rcd13ifvqdp0","pricing_plan_id":"cebpf4jnsgd1na2vs0mg"},{"bike_id":"631d2e6a-1726-43d9-9d66-07506fc718a2","system_id":"levelo_inurba_marseille","lat":43.295169,"lon":5.390426,"is_reserved":false,"is_disabled":false,"rental_uris":{"android":"levelo://app?vid=631d2e6a-1726-43d9-9d66-07506fc718a2","ios":"levelo://app?vid=631d2e6a-1726-43d9-9d66-07506fc718a2"},"vehicle_type_id":"4","last_reported":1717618129,"current_range_meters":31600,"station_id":"ce4bh3p2rcd13ifvqdp0","pricing_plan_id":"cebpf4jnsgd1na2vs0mg"},{"bike_id":"5d8c38b9-1319-4b40-b433-588fe6ea32e7","system_id":"levelo_inurba_marseille","lat":43.33025,"lon":5.39043,"is_reserved":false,"is_disabled":false,"rental_uris":{"android":"levelo://app?vid=5d8c38b9-1319-4b40-b433-588fe6ea32e7","ios":"levelo://app?vid=5d8c38b9-1319-4b40-b433-588fe6ea32e7"},"vehicle_type_id":"4","last_reported":1717618129,"current_range_meters":20800,"station_id":"ce4bhr92rcd13ifvqhrg","pricing_plan_id":"cebpf4jnsgd1na2vs0mg"},{"bike_id":"46cd2ce3-d68b-49dd-aa13-ddb836999377","system_id":"levelo_inurba_marseille","lat":43.2978,"lon":5.39359,"is_reserved":false,"is_disabled":false,"rental_uris":{"android":"levelo://app?vid=46cd2ce3-d68b-49dd-aa13-ddb836999377","ios":"levelo://app?vid=46cd2ce3-d68b-49dd-aa13-ddb836999377"},"vehicle_type_id":"4","last_reported":1717618129,"current_range_meters":0,"station_id":"chh1huq6cuj3fo74tm60","pricing_plan_id":"cebpf4jnsgd1na2vs0mg"},{"bike_id":"cb842c1e-d351-43f4-ab02-ad3de6adb38d","system_id":"levelo_inurba_marseille","lat":43.3303,"lon":5.390393,"is_reserved":false,"is_disabled":false,"rental_uris":{"android":"levelo://app?vid=cb842c1e-d351-43f4-ab02-ad3de6adb38d","ios":"levelo://app?vid=cb842c1e-d351-43f4-ab02-ad3de6adb38d"},"vehicle_type_id":"4","last_reported":1717618129,"current_range_meters":10800,"station_id":"ce4bhr92rcd13ifvqhrg","pricing_plan_id":"cebpf4jnsgd1na2vs0mg"},{"bike_id":"70f73325-1854-4e11-a005-66c8fb124f74","system_id":"levelo_inurba_marseille","lat":43.295169,"lon":5.390426,"is_reserved":false,"is_disabled":false,"rental_uris":{"android":"levelo://app?vid=70f73325-1854-4e11-a005-66c8fb124f74","ios":"levelo://app?vid=70f73325-1854-4e11-a005-66c8fb124f74"},"vehicle_type_id":"4","last_reported":1717618129,"current_range_meters":18000,"station_id":"ce4bh3p2rcd13ifvqdp0","pricing_plan_id":"cebpf4jnsgd1na2vs0mg"},{"bike_id":"d3dc2403-03e9-40f2-a1c4-aae00f139bcd","system_id":"levelo_inurba_marseille","lat":43.330223,"lon":5.39058,"is_reserved":false,"is_disabled":false,"rental_uris":{"android":"levelo://app?vid=d3dc2403-03e9-40f2-a1c4-aae00f139bcd","ios":"levelo://app?vid=d3dc2403-03e9-40f2-a1c4-aae00f139bcd"},"vehicle_type_id":"4","last_reported":1717618129,"current_range_meters":0,"station_id":"ce4bhr92rcd13ifvqhrg","pricing_plan_id":"cebpf4jnsgd1na2vs0mg"},{"bike_id":"993d35b4-16e5-4a16-b575-3917ddd20cb7","system_id":"levelo_inurba_marseille","lat":43.29245,"lon":5.38606,"is_reserved":false,"is_disabled":false,"rental_uris":{"android":"levelo://app?vid=993d35b4-16e5-4a16-b575-3917ddd20cb7","ios":"levelo://app?vid=993d35b4-16e5-4a16-b575-3917ddd20cb7"},"vehicle_type_id":"4","last_reported":1717618129,"current_range_meters":8000,"station_id":"","pricing_plan_id":"cebpf4jnsgd1na2vs0mg"},{"bike_id":"323cbd72-f200-4748-8fec-1fde79085ac7","system_id":"levelo_inurba_marseille","lat":43.30036,"lon":5.39671,"is_reserved":false,"is_disabled":false,"rental_uris":{"android":"levelo://app?vid=323cbd72-f200-4748-8fec-1fde79085ac7","ios":"levelo://app?vid=323cbd72-f200-4748-8fec-1fde79085ac7"},"vehicle_type_id":"4","last_reported":1717618129,"current_range_meters":0,"station_id":"ce4bh0h2rcd13ifvqd40","pricing_plan_id":"cebpf4jnsgd1na2vs0mg"},{"bike_id":"5e6fecb0-40ef-4774-a829-e807711b04c6","system_id":"levelo_inurba_marseille","lat":43.288564,"lon":5.358348,"is_reserved":false,"is_disabled":false,"rental_uris":{"android":"levelo://app?vid=5e6fecb0-40ef-4774-a829-e807711b04c6","ios":"levelo://app?vid=5e6fecb0-40ef-4774-a829-e807711b04c6"},"vehicle_type_id":"4","last_reported":1717618129,"current_range_meters":0,"station_id":"ce4bhb12rcd13ifvqem0","pricing_plan_id":"cebpf4jnsgd1na2vs0mg"},{"bike_id":"44170794-5cc7-456d-a6bd-dea7b77ef0ed","system_id":"levelo_inurba_marseille","lat":43.28856,"lon":5.358371,"is_reserved":false,"is_disabled":false,"rental_uris":{"android":"levelo://app?vid=44170794-5cc7-456d-a6bd-dea7b77ef0ed","ios":"levelo://app?vid=44170794-5cc7-456d-a6bd-dea7b77ef0ed"},"vehicle_type_id":"4","last_reported":1717618129,"current_range_meters":17200,"station_id":"ce4bhb12rcd13ifvqem0","pricing_plan_id":"cebpf4jnsgd1na2vs0mg"},{"bike_id":"a61bfe10-c1a2-4968-97e9-3e822050e6dd","system_id":"levelo_inurba_marseille","lat":43.28856,"lon":5.358371,"is_reserved":false,"is_disabled":false,"rental_uris":{"android":"levelo://app?vid=a61bfe10-c1a2-4968-97e9-3e822050e6dd","ios":"levelo://app?vid=a61bfe10-c1a2-4968-97e9-3e822050e6dd"},"vehicle_type_id":"4","last_reported":1717618129,"current_range_meters":0,"station_id":"ce4bhb12rcd13ifvqem0","pricing_plan_id":"cebpf4jnsgd1na2vs0mg"},