{"last_updated":1687532845,"ttl":30,"version":"2.2","data":{"bikes":[{"bike_id":"fcd0fa28-e5ec-44cd-9703-deb33d1880a8","system_id":"levelo_inurba_marseille","lat":43.314811,"lon":5.373103,"is_reserved":false,"is_disabled":false,"rental_uris":{"android":"levelo://app?vid=fcd0fa28-e5ec-44cd-9703-deb33d1880a8","ios":"levelo://app?vid=fcd0fa28-e5ec-44cd-9703-deb33d1880a8"},"vehicle_type_id":"4","last_reported":1687532846,"current_range_meters":21200,"station_id":"ce4bgt12rcd13ifvqcd0","pricing_plan_id":"free"},{"bike_id":"ed0f9fe3-b0bd-429f-ac7b-04300f12d4c9","system_id":"levelo_inurba_marseille","lat":43.308606,"lon":5.372099,"is_reserved":false,"is_disabled":false,"rental_uris":{"android":"levelo://app?vid=ed0f9fe3-b0bd-429f-ac7b-04300f12d4c9","ios":"levelo://app?vid=ed0f9fe3-b0bd-429f-ac7b-04300f12d4c9"},"vehicle_type_id":"4","last_reported":1687532846,"current_range_meters":5600,"station_id":"ce4bguh2rcd13ifvqckg","pricing_plan_id":"free"},{"bike_id":"37c432a5-d97d-4508-b050-c621e46bcc6e","system_id":"levelo_inurba_marseille","lat":43.30939,"lon":5.37261,"is_reserved":false,"is_disabled":false,"rental_uris":{"android":"levelo://app?vid=37c432a5-d97d-4508-b050-c621e46bcc6e","ios":"levelo://app?vid=37c432a5-d97d-4508-b050-c621e46bcc6e"},"vehicle_type_id":"4","last_reported":1687532846,"current_range_meters":30000,"station_id":"","pricing_plan_id":"free"},{"bike_id":"585e3742-5923-4310-b697-d374eb7587bf","system_id":"levelo_inurba_marseille","lat":43.305712,"lon":5.365641,"is_reserved":false,"is_disabled":false,"rental_uris":{"android":"levelo://app?vid=585e3742-5923-4310-b697-d374eb7587bf","ios":"levelo://app?vid=585e3742-5923-4310-b697-d374eb7587bf"},"vehicle_type_id":"4","last_reported":1687532846,"current_range_meters":24800,"station_id":"ce4bgs12rcd13ifvqcag","pricing_plan_id":"free"},{"bike_id":"ca51c086-8bc8-4b55-befe-ccdea855e6d4","system_id":"levelo_inurba_marseille","lat":43.305714,"lon":5.365633,"is_reserved":false,"is_disabled":false,"rental_uris":{"android":"levelo://app?vid=ca51c086-8bc8-4b55-befe-ccdea855e6d4","ios":"levelo://app?vid=ca51c086-8bc8-4b55-befe-ccdea855e6d4"},"vehicle_type_id":"4","last_reported":1687532846,"current_range_meters":6800,"station_id":"ce4bgs12rcd13ifvqcag","pricing_plan_id":"free"},{"bike_id":"1366553e-bbfc-4503-afba-094aeab89fc5","system_id":"levelo_inurba_marseille","lat":43.305714,"lon":5.365633,"is_reserved":false,"is_disabled":false,"rental_uris":{"android":"levelo://app?vid=1366553e-bbfc-4503-afba-094aeab89fc5","ios":"levelo://app?vid=1366553e-bbfc-4503-afba-094aeab89fc5"},"vehicle_type_id":"4","last_reported":1687532846,"current_range_meters":5200,"station_id":"ce4bgs12rcd13ifvqcag","pricing_plan_id":"free"},{"bike_id":"534b1155-ddf1-45d0-ac36-acd4363cc154","system_id":"levelo_inurba_marseille","lat":43.305714,"lon":5.365633,"is_reserved":false,"is_disabled":false,"rental_uris":{"android":"levelo://app?vid=534b1155-ddf1-45d0-ac36-acd4363cc154","ios":"levelo://app?vid=534b1155-ddf1-45d0-ac36-acd4363cc154"},"vehicle_type_id":"4","last_reported":1687532846,"current_range_meters":22400,"station_id":"ce4bgs12rcd13ifvqcag","pricing_plan_id":"free"},{"bike_id":"4978cbaa-1eea-42ec-9b20-fe6f1343e56f","system_id":"levelo_inurba_marseille","lat":43.305714,"lon":5.365633,"is_reserved":false,"is_disabled":false,"rental_uris":{"android":"levelo://app?vid=4978cbaa-1eea-42ec-9b20-fe6f1343e56f","ios":"levelo://app?vid=4978cbaa-1eea-42ec-9b20-fe6f1343e56f"},"vehicle_type_id":"4","last_reported":1687532846,"current_range_meters":0,"station_id":"ce4bgs12rcd13ifvqcag","pricing_plan_id":"free"},{"bike_id":"990ba7c5-a935-4b56-acbc-dfce77a2d54b","system_id":"levelo_inurba_marseille","lat":43.30533,"lon":5.36556,"is_reserved":false,"is_disabled":false,"rental_uris":{"android":"levelo://app?vid=990ba7c5-a935-4b56-acbc-dfce77a2d54b","ios":"levelo://app?vid=990ba7c5-a935-4b56-acbc-dfce77a2d54b"},"vehicle_type_id":"4","last_reported":1687532846,"current_range_meters":16800,"station_id":"ce4bgs12rcd13ifvqcag","pricing_plan_id":"free"},{"bike_id":"2d444401-0b7e-4a0f-8c6a-584a898e22a8","system_id":"levelo_inurba_marseille","lat":43.30601,"lon":5.37227,"is_reserved":false,"is_disabled":false,"rental_uris":{"android":"levelo://app?vid=2d444401-0b7e-4a0f-8c6a-584a898e22a8","ios":"levelo://app?vid=2d444401-0b7e-4a0f-8c6a-584a898e22a8"},"vehicle_type_id":"4","last_reported":1687532846,"current_range_meters":14400,"station_id":"ce4bgqh2rcd13ifvqc4g","pricing_plan_id":"free"},{"bike_id":"b1c01aee-94bd-466f-990f-32ce58e5588a","system_id":"levelo_inurba_marseille","lat":43.30459,"lon":5.36717,"is_reserved":false,"is_disabled":false,"rental_uris":{"android":"levelo://app?vid=b1c01aee-94bd-466f-990f-32ce58e5588a","ios":"levelo://app?vid=b1c01aee-94bd-466f-990f-32ce58e5588a"},"vehicle_type_id":"4","last_reported":1687532846,"current_range_meters":1600,"station_id":"","pricing_plan_id":"free"},{"bike_id":"461e0e7b-540a-4809-b37d-d3fb7ec4741c","system_id":"levelo_inurba_marseille","lat":43.30308,"lon":5.36888,"is_reserved":false,"is_disabled":false,"rental_uris":{"android":"levelo://app?vid=461e0e7b-540a-4809-b37d-d3fb7ec4741c","ios":"levelo://app?vid=461e0e7b-540a-4809-b37d-d3fb7ec4741c"},"vehicle_type_id":"4","last_reported":1687532846,"current_range_meters":11600,"station_id":"ce4bgqh2rcd13ifvqc5g","pricing_plan_id":"free"},{"bike_id":"9409db56-750f-4140-b328-efadec6f4aff","system_id":"levelo_inurba_marseille","lat":43.30191,"lon":5.36611,"is_reserved":false,"is_disabled":false,"rental_uris":{"android":"levelo://app?vid=9409db56-750f-4140-b328-efadec6f4aff","ios":"levelo://app?vid=9409db56-750f-4140-b328-efadec6f4aff"},"vehicle_type_id":"4","last_reported":1687532846,"current_range_meters":0,"station_id":"ce4bgrh2rcd13ifvqc8g","pricing_plan_id":"free"},{"bike_id":"c98c824a-5a21-41d7-a2b3-cfad705b7985","system_id":"levelo_inurba_marseille","lat":43.292642,"lon":5.384254,"is_reserved":false,"is_disabled":false,"rental_uris":{"android":"levelo://app?vid=c98c824a-5a21-41d7-a2b3-cfad705b7985","ios":"levelo://app?vid=c98c824a-5a21-41d7-a2b3-cfad705b7985"},"vehicle_type_id":"4","last_reported":1687532846,"current_range_meters":0,"station_id":"ce4bh692rcd13ifvqea0","pricing_plan_id":"free"},{"bike_id":"a9d7232f-029b-4972-8110-0dd6d0698821","system_id":"levelo_inurba_marseille","lat":43.308012,"lon":5.381511,"is_reserved":false,"is_disabled":false,"rental_uris":{"android":"levelo://app?vid=a9d7232f-029b-4972-8110-0dd6d0698821","ios":"levelo://app?vid=a9d7232f-029b-4972-8110-0dd6d0698821"},"vehicle_type_id":"4","last_reported":1687532846,"current_range_meters":22400,"station_id":"ce4bgt12rcd13ifvqce0","pricing_plan_id":"free"},{"bike_id":"bd83a1c4-3e57-4fd8-8bc5-09aa6db84401","system_id":"levelo_inurba_marseille","lat":43.302784,"lon":5.377158,"is_reserved":false,"is_disabled":false,"rental_uris":{"android":"levelo://app?vid=bd83a1c4-3e57-4fd8-8bc5-09aa6db84401","ios":"levelo://app?vid=bd83a1c4-3e57-4fd8-8bc5-09aa6db84401"},"vehicle_type_id":"4","last_reported":1687532846,"current_range_meters":6400,"station_id":"ce4bguh2rcd13ifvqcj0","pricing_plan_id":"free"},{"bike_id":"11202099-5b45-4e6a-b9be-115704caa5c2","system_id":"levelo_inurba_marseille","lat":43.302784,"lon":5.377158,"is_reserved":false,"is_disabled":false,"rental_uris":{"android":"levelo://app?vid=11202099-5b45-4e6a-b9be-115704caa5c2","ios":"levelo://app?vid=11202099-5b45-4e6a-b9be-115704caa5c2"},"vehicle_type_id":"4","last_reported":1687532846,"current_range_meters":1200,"station_id":"ce4bguh2rcd13ifvqcj0","pricing_plan_id":"free"},{"bike_id":"0b03bed2-85b6-43ba-8a36-33c78d25df6b","system_id":"levelo_inurba_marseille","lat":43.30679,"lon":5.38252,"is_reserved":false,"is_disabled":false,"rental_uris":{"android":"levelo://app?vid=0b03bed2-85b6-43ba-8a36-33c78d25df6b","ios":"levelo://app?vid=0b03bed2-85b6-43ba-8a36-33c78d25df6b"},"vehicle_type_id":"4","last_reported":1687532846,"current_range_meters":29200,"station_id":"","pricing_plan_id":"free"},{"bike_id":"5f2c3d87-f9cc-47ce-9275-1dc49581e3e0","system_id":"levelo_inurba_marseille","lat":43.313571,"lon":5.384829,"is_reserved":false,"is_disabled":false,"rental_uris":{"android":"levelo://app?vid=5f2c3d87-f9cc-47ce-9275-1dc49581e3e0","ios":"levelo://app?vid=5f2c3d87-f9cc-47ce-9275-1dc49581e3e0"},"vehicle_type_id":"4","last_reported":1687532846,"current_range_meters":17200,"station_id":"ce4bgt92rcd13ifvqcf0","pricing_plan_id":"free"},{"bike_id":"cc7ccaed-aeac-4fb6-a249-e3eec1cb8751","system_id":"levelo_inurba_marseille","lat":43.32223,"lon":5.37925,"is_reserved":false,"is_disabled":false,"rental_uris":{"android":"levelo://app?vid=cc7ccaed-aeac-4fb6-a249-e3eec1cb8751","ios":"levelo://app?vid=cc7ccaed-aeac-4fb6-a249-e3eec1cb8751"},"vehicle_type_id":"4","last_reported":1687532846,"current_range_meters":26800,"station_id":"","pricing_plan_id":"free"},{"bike_id":"8ca2a6e2-deba-4f82-a5c0-43dcf1811432","system_id":"levelo_inurba_marseille","lat":43.29844,"lon":5.36265,"is_reserved":false,"is_disabled":false,"rental_uris":{"android":"levelo://app?vid=8ca2a6e2-deba-4f82-a5c0-43dcf1811432","ios":"levelo://app?vid=8ca2a6e2-deba-4f82-a5c0-43dcf1811432"},"vehicle_type_id":"4","last_reported":1687532846,"current_range_meters":25200,"station_id":"ce4bgpp2rcd13ifvqc3g","pricing_plan_id":"free"},{"bike_id":"8b79f336-2662-40f7-8921-ae84c83cb4a5","system_id":"levelo_inurba_marseille","lat":43.29839,"lon":5.36261,"is_reserved":false,"is_disabled":false,"rental_uris":{"android":"levelo://app?vid=8b79f336-2662-40f7-8921-ae84c83cb4a5","ios":"levelo://app?vid=8b79f336-2662-40f7-8921-ae84c83cb4a5"},"vehicle_type_id":"4","last_reported":1687532846,"current_range_meters":31200,"station_id":"ce4bgpp2rcd13ifvqc3g","pricing_plan_id":"free"},{"bike_id":"f29725c6-87c0-4998-96d6-7b7afbecb764","system_id":"levelo_inurba_marseille","lat":43.328371,"lon":5.366909,"is_reserved":false,"is_disabled":false,"rental_uris":{"android":"levelo://app?vid=f29725c6-87c0-4998-96d6-7b7afbecb764","ios":"levelo://app?vid=f29725c6-87c0-4998-96d6-7b7afbecb764"},"vehicle_type_id":"4","last_reported":1687532846,"current_range_meters":0,"station_id":"ce4bhs92rcd13ifvqi0g","pricing_plan_id":"free"},{"bike_id":"0ced3d16-9da6-477b-8a57-5f8348ffff5a","system_id":"levelo_inurba_marseille","lat":43.328371,"lon":5.366909,"is_reserved":false,"is_disabled":false,"rental_uris":{"android":"levelo://app?vid=0ced3d16-9da6-477b-8a57-5f8348ffff5a","ios":"levelo://app?vid=0ced3d16-9da6-477b-8a57-5f8348ffff5a"},"vehicle_type_id":"4","last_reported":1687532846,"current_range_meters":0,"station_id":"ce4bhs92rcd13ifvqi0g","pricing_plan_id":"free"},{"bike_id":"5d51e653-08d9-4997-947d-6ff278245dc1","system_id":"levelo_inurba_marseille","lat":43.328371,"lon":5.366909,"is_reserved":false,"is_disabled":false,"rental_uris":{"android":"levelo://app?vid=5d51e653-08d9-4997-947d-6ff278245dc1","ios":"levelo://app?vid=5d51e653-08d9-4997-947d-6ff278245dc1"},"vehicle_type_id":"4","last_reported":1687532846,"current_range_meters":4800,"station_id":"ce4bhs92rcd13ifvqi0g","pricing_plan_id":"free"},{"bike_id":"480eb0b8-a5bf-4aaa-ba1e-4e7681dd3436","system_id":"levelo_inurba_marseille","lat":43.328371,"lon":5.366909,"is_reserved":false,"is_disabled":false,"rental_uris":{"android":"levelo://app?vid=480eb0b8-a5bf-4aaa-ba1e-4e7681dd3436","ios":"levelo://app?vid=480eb0b8-a5bf-4aaa-ba1e-4e7681dd3436"},"vehicle_type_id":"4","last_reported":1687532846,"current_range_meters":0,"station_id":"ce4bhs92rcd13ifvqi0g","pricing_plan_id":"free"},{"bike_id":"f2a41c96-626c-416a-9bff-5f7cbf9a40ad","system_id":"levelo_inurba_marseille","lat":43.328371,"lon":5.366909,"is_reserved":false,"is_disabled":false,"rental_uris":{"android":"levelo://app?vid=f2a41c96-626c-416a-9bff-5f7cbf9a40ad","ios":"levelo://app?vid=f2a41c96-626c-416a-9bff-5f7cbf9a40ad"},"vehicle_type_id":"4","last_reported":1687532846,"current_range_meters":27600,"station_id":"ce4bhs92rcd13ifvqi0g","pricing_plan_id":"free"},{"bike_id":"32007623-af1f-4b13-99da-1a105ea60890","system_id":"levelo_inurba_marseille","lat":43.32835,"lon":5.36685,"is_reserved":false,"is_disabled":false,"rental_uris":{"android":"levelo://app?vid=32007623-af1f-4b13-99da-1a105ea60890","ios":"levelo://app?vid=32007623-af1f-4b13-99da-1a105ea60890"},"vehicle_type_id":"4","last_reported":1687532846,"current_range_meters":29200,"station_id":"ce4bhs92rcd13ifvqi0g","pricing_plan_id":"free"},{"bike_id":"cef67b5f-25ba-44d5-8dee-c20da3ebea1d","system_id":"levelo_inurba_marseille","lat":43.328371,"lon":5.366909,"is_reserved":false,"is_disabled":false,"rental_uris":{"android":"levelo://app?vid=cef67b5f-25ba-44d5-8dee-c20da3ebea1d","ios":"levelo://app?vid=cef67b5f-25ba-44d5-8dee-c20da3ebea1d"},"vehicle_type_id":"4","last_reported":1687532846,"current_range_meters":0,"station_id":"ce4bhs92rcd13ifvqi0g","pricing_plan_id":"free"},{"bike_id":"41235149-f42e-4673-9d1a-055ac92c3df6","system_id":"levelo_inurba_marseille","lat":43.32837,"lon":5.36683,"is_reserved":false,"is_disabled":false,"rental_uris":{"android":"levelo://app?vid=41235149-f42e-4673-9d1a-055ac92c3df6","ios":"levelo://app?vid=41235149-f42e-4673-9d1a-055ac92c3df6"},"vehicle_type_id":"4","last_reported":1687532846,"current_range_meters":25200,"station_id":"ce4bhs92rcd13ifvqi0g","pricing_plan_id":"free"},{"bike_id":"d6aa4b8f-0fbd-492f-a726-f1b64033634e","system_id":"levelo_inurba_marseille","lat":43.29704,"lon":5.36414,"is_reserved":false,"is_disabled":false,"rental_uris":{"android":"levelo://app?vid=d6aa4b8f-0fbd-492f-a726-f1b64033634e","ios":"levelo://app?vid=d6aa4b8f-0fbd-492f-a726-f1b64033634e"},"vehicle_type_id":"4","last_reported":1687532846,"current_range_meters":10400,"station_id":"","pricing_plan_id":"free"},{"bike_id":"ce99488a-be9e-4e66-a1a3-0fcdecd3ea12","system_id":"levelo_inurba_marseille","lat":43.2968,"lon":5.37291,"is_reserved":false,"is_disabled":false,"rental_uris":{"android":"levelo://app?vid=ce99488a-be9e-4e66-a1a3-0fcdecd3ea12","ios":"levelo://app?vid=ce99488a-be9e-4e66-a1a3-0fcdecd3ea12"},"vehicle_type_id":"4","last_reported":1687532846,"current_range_meters":26400,"station_id":"ce4bgk12rcd13ifvqbj0","pricing_plan_id":"free"},{"bike_id":"fabb4977-ea95-4a85-b910-b7f35cae8bc4","system_id":"levelo_inurba_marseille","lat":43.29573,"lon":5.367355,"is_reserved":false,"is_disabled":false,"rental_uris":{"android":"levelo://app?vid=fabb4977-ea95-4a85-b910-b7f35cae8bc4","ios":"levelo://app?vid=fabb4977-ea95-4a85-b910-b7f35cae8bc4"},"vehicle_type_id":"4","last_reported":1687532846,"current_range_meters":30800,"station_id":"ce4bgph2rcd13ifvqc2g","pricing_plan_id":"free"},{"bike_id":"225647a9-8ec8-4fe3-b4e9-05fe8add5cad","system_id":"levelo_inurba_marseille","lat":43.29573,"lon":5.367355,"is_reserved":false,"is_disabled":false,"rental_uris":{"android":"levelo://app?vid=225647a9-8ec8-4fe3-b4e9-05fe8add5cad","ios":"levelo://app?vid=225647a9-8ec8-4fe3-b4e9-05fe8add5cad"},"vehicle_type_id":"4","last_reported":1687532846,"current_range_meters":28400,"station_id":"ce4bgph2rcd13ifvqc2g","pricing_plan_id":"free"},{"bike_id":"d38075e8-35e1-4454-a372-e3bebd8db95a","system_id":"levelo_inurba_marseille","lat":43.29906,"lon":5.38135,"is_reserved":false,"is_disabled":false,"rental_uris":{"android":"levelo://app?vid=d38075e8-35e1-4454-a372-e3bebd8db95a","ios":"levelo://app?vid=d38075e8-35e1-4454-a372-e3bebd8db95a"},"vehicle_type_id":"4","last_reported":1687532846,"current_range_meters":8800,"station_id":"ce4bgj12rcd13ifvqbc0","pricing_plan_id":"free"},{"bike_id":"041bc147-ef2f-419b-bb81-deca3bdf89e2","system_id":"levelo_inurba_marseille","lat":43.29611,"lon":5.36046,"is_reserved":false,"is_disabled":false,"rental_uris":{"android":"levelo://app?vid=041bc147-ef2f-419b-bb81-deca3bdf89e2","ios":"levelo://app?vid=041bc147-ef2f-419b-bb81-deca3bdf89e2"},"vehicle_type_id":"4","last_reported":1687532846,"current_range_meters":10400,"station_id":"","pricing_plan_id":"free"},{"bike_id":"27e72ffc-adfa-4665-bd39-73c5954241e2","system_id":"levelo_inurba_marseille","lat":43.309589,"lon":5.390258,"is_reserved":false,"is_disabled":false,"rental_uris":{"android":"levelo://app?vid=27e72ffc-adfa-4665-bd39-73c5954241e2","ios":"levelo://app?vid=27e72ffc-adfa-4665-bd39-73c5954241e2"},"vehicle_type_id":"4","last_reported":1687532846,"current_range_meters":4800,"station_id":"ce4bgup2rcd13ifvqco0","pricing_plan_id":"free"},{"bike_id":"2077a4ec-aa6f-4515-a227-9f4496a9457d","system_id":"levelo_inurba_marseille","lat":43.317557,"lon":5.390173,"is_reserved":false,"is_disabled":false,"rental_uris":{"android":"levelo://app?vid=2077a4ec-aa6f-4515-a227-9f4496a9457d","ios":"levelo://app?vid=2077a4ec-aa6f-4515-a227-9f4496a9457d"},"vehicle_type_id":"4","last_reported":1687532846,"current_range_meters":20400,"station_id":"ce4bhqp2rcd13ifvqhng","pricing_plan_id":"free"},{"bike_id":"9e26b51a-fe66-4060-945d-6bcdc1922a2a","system_id":"levelo_inurba_marseille","lat":43.317557,"lon":5.390173,"is_reserved":false,"is_disabled":false,"rental_uris":{"android":"levelo://app?vid=9e26b51a-fe66-4060-945d-6bcdc1922a2a","ios":"levelo://app?vid=9e26b51a-fe66-4060-945d-6bcdc1922a2a"},"vehicle_type_id":"4","last_reported":1687532846,"current_range_meters":2000,"station_id":"ce4bhqp2rcd13ifvqhng","pricing_plan_id":"free"},{"bike_id":"039e2417-326e-48e9-87cd-8895cb0620b8","system_id":"levelo_inurba_marseille","lat":43.317557,"lon":5.390173,"is_reserved":false,"is_disabled":false,"rental_uris":{"android":"levelo://app?vid=039e2417-326e-48e9-87cd-8895cb0620b8","ios":"levelo://app?vid=039e2417-326e-48e9-87cd-8895cb0620b8"},"vehicle_type_id":"4","last_reported":1687532846,"current_range_meters":17600,"station_id":"ce4bhqp2rcd13ifvqhng","pricing_plan_id":"free"},{"bike_id":"a26b3693-5eee-4958-8ca8-8a69361289e6","system_id":"levelo_inurba_marseille","lat":43.317557,"lon":5.390173,"is_reserved":false,"is_disabled":false,"rental_uris":{"android":"levelo://app?vid=a26b3693-5eee-4958-8ca8-8a69361289e6","ios":"levelo://app?vid=a26b3693-5eee-4958-8ca8-8a69361289e6"},"vehicle_type_id":"4","last_reported":1687532846,"current_range_meters":30000,"station_id":"ce4bhqp2rcd13ifvqhng","pricing_plan_id":"free"},{"bike_id":"9c46eda4-ce28-4132-a992-9b4bc94941ea","system_id":"levelo_inurba_marseille","lat":43.31756,"lon":5.39031,"is_reserved":false,"is_disabled":false,"rental_uris":{"android":"levelo://app?vid=9c46eda4-ce28-4132-a992-9b4bc94941ea","ios":"levelo://app?vid=9c46eda4-ce28-4132-a992-9b4bc94941ea"},"vehicle_type_id":"4","last_reported":1687532846,"current_range_meters":21200,"station_id":"ce4bhqp2rcd13ifvqhng","pricing_plan_id":"free"},{"bike_id":"3c512352-c649-4d84-8868-fd3a8bfe1120","system_id":"levelo_inurba_marseille","lat":43.317557,"lon":5.390173,"is_reserved":false,"is_disabled":false,"rental_uris":{"android":"levelo://app?vid=3c512352-c649-4d84-8868-fd3a8bfe1120","ios":"levelo://app?vid=3c512352-c649-4d84-8868-fd3a8bfe1120"},"vehicle_type_id":"4","last_reported":1687532846,"current_range_meters":14800,"station_id":"ce4bhqp2rcd13ifvqhng","pricing_plan_id":"free"},{"bike_id":"c33a1675-ab0a-47b6-8c7e-561364e86f4f","system_id":"levelo_inurba_marseille","lat":43.304368,"lon":5.389032,"is_reserved":false,"is_disabled":false,"rental_uris":{"android":"levelo://app?vid=c33a1675-ab0a-47b6-8c7e-561364e86f4f","ios":"levelo://app?vid=c33a1675-ab0a-47b6-8c7e-561364e86f4f"},"vehicle_type_id":"4","last_reported":1687532846,"current_range_meters":12800,"station_id":"","pricing_plan_id":"free"},{"bike_id":"37441101-fabd-43b6-acda-6af00ab2e345","system_id":"levelo_inurba_marseille","lat":43.298764,"lon":5.388973,"is_reserved":false,"is_disabled":false,"rental_uris":{"android":"levelo://app?vid=37441101-fabd-43b6-acda-6af00ab2e345","ios":"levelo://app?vid=37441101-fabd-43b6-acda-6af00ab2e345"},"vehicle_type_id":"4","last_reported":1687532846,"current_range_meters":17600,"station_id":"ce4bh392rcd13ifvqdl0","pricing_plan_id":"free"},{"bike_id":"481c6e33-7a45-49a3-b29a-c9f8b721f0e8","system_id":"levelo_inurba_marseille","lat":43.32371,"lon":5.38876,"is_reserved":false,"is_disabled":false,"rental_uris":{"android":"levelo://app?vid=481c6e33-7a45-49a3-b29a-c9f8b721f0e8","ios":"levelo://app?vid=481c6e33-7a45-49a3-b29a-c9f8b721f0e8"},"vehicle_type_id":"4","last_reported":1687532846,"current_range_meters":12000,"station_id":"ce4bhqp2rcd13ifvqhog","pricing_plan_id":"free"},{"bike_id":"1d2005e5-3326-4206-81a0-da580d2a3ff7","system_id":"levelo_inurba_marseille","lat":43.32363,"lon":5.38885,"is_reserved":false,"is_disabled":false,"rental_uris":{"android":"levelo://app?vid=1d2005e5-3326-4206-81a0-da580d2a3ff7","ios":"levelo://app?vid=1d2005e5-3326-4206-81a0-da580d2a3ff7"},"vehicle_type_id":"4","last_reported":1687532846,"current_range_meters":8800,"station_id":"ce4bhqp2rcd13ifvqhog","pricing_plan_id":"free"},{"bike_id":"5a9fb7c4-4b3d-40fb-ab99-bcfe93852ee9","system_id":"levelo_inurba_marseille","lat":43.292749,"lon":5.368402,"is_reserved":false,"is_disabled":false,"rental_uris":{"android":"levelo://app?vid=5a9fb7c4-4b3d-40fb-ab99-bcfe93852ee9","ios":"levelo://app?vid=5a9fb7c4-4b3d-40fb-ab99-bcfe93852ee9"},"vehicle_type_id":"4","last_reported":1687532846,"current_range_meters":31200,"station_id":"ce4bhbp2rcd13ifvqesg","pricing_plan_id":"free"},{"bike_id":"09360ece-bd11-40f3-bee4-523d2d754986","system_id":"levelo_inurba_marseille","lat":43.292749,"lon":5.368402,"is_reserved":false,"is_disabled":false,"rental_uris":{"android":"levelo://app?vid=09360ece-bd11-40f3-bee4-523d2d754986","ios":"levelo://app?vid=09360ece-bd11-40f3-bee4-523d2d754986"},"vehicle_type_id":"4","last_reported":1687532846,"current_range_meters":14000,"station_id":"ce4bhbp2rcd13ifvqesg","pricing_plan_id":"free"},{"bike_id":"18b12323-9ae3-480b-8627-1efb299f70da","system_id":"levelo_inurba_marseille","lat":43.30299,"lon":5.39205,"is_reserved":false,"is_disabled":false,"rental_uris":{"android":"levelo://app?vid=18b12323-9ae3-480b-8627-1efb299f70da","ios":"levelo://app?vid=18b12323-9ae3-480b-8627-1efb299f70da"},"vehicle_type_id":"4","last_reported":1687532846,"current_range_meters":0,"station_id":"ce4bgkh2rcd13ifvqbk0","pricing_plan_id":"free"},{"bike_id":"53e58073-519b-4f8d-96ad-f7b95459428f","system_id":"levelo_inurba_marseille","lat":43.29266,"lon":5.35969,"is_reserved":false,"is_disabled":false,"rental_uris":{"android":"levelo://app?vid=53e58073-519b-4f8d-96ad-f7b95459428f","ios":"levelo://app?vid=53e58073-519b-4f8d-96ad-f7b95459428f"},"vehicle_type_id":"4","last_reported":1687532846,"current_range_meters":8400,"station_id":"","pricing_plan_id":"free"},{"bike_id":"e8faf3e9-ba98-402b-bfb3-95187022e436","system_id":"levelo_inurba_marseille","lat":43.30085,"lon":5.390856,"is_reserved":false,"is_disabled":false,"rental_uris":{"android":"levelo://app?vid=e8faf3e9-ba98-402b-bfb3-95187022e436","ios":"levelo://app?vid=e8faf3e9-ba98-402b-bfb3-95187022e436"},"vehicle_type_id":"4","last_reported":1687532846,"current_range_meters":28000,"station_id":"ce4bh192rcd13ifvqdb0","pricing_plan_id":"free"},{"bike_id":"357cb5a7-c789-4918-832a-46f7256ff98f","system_id":"levelo_inurba_marseille","lat":43.30085,"lon":5.390856,"is_reserved":false,"is_disabled":false,"rental_uris":{"android":"levelo://app?vid=357cb5a7-c789-4918-832a-46f7256ff98f","ios":"levelo://app?vid=357cb5a7-c789-4918-832a-46f7256ff98f"},"vehicle_type_id":"4","last_reported":1687532846,"current_range_meters":16800,"station_id":"ce4bh192rcd13ifvqdb0","pricing_plan_id":"free"},{"bike_id":"f4b6f889-de6e-4e89-9c61-f7eeb9ab6806","system_id":"levelo_inurba_marseille","lat":43.29217,"lon":5.36016,"is_reserved":false,"is_disabled":false,"rental_uris":{"android":"levelo://app?vid=f4b6f889-de6e-4e89-9c61-f7eeb9ab6806","ios":"levelo://app?vid=f4b6f889-de6e-4e89-9c61-f7eeb9ab6806"},"vehicle_type_id":"4","last_reported":1687532846,"current_range_meters":25600,"station_id":"","pricing_plan_id":"free"},{"bike_id":"577182af-5f91-443c-90cb-dcd8b92e03ed","system_id":"levelo_inurba_marseille","lat":43.291671,"lon":5.371575,"is_reserved":false,"is_disabled":false,"rental_uris":{"android":"levelo://app?vid=577182af-5f91-443c-90cb-dcd8b92e03ed","ios":"levelo://app?vid=577182af-5f91-443c-90cb-dcd8b92e03ed"},"vehicle_type_id":"4","last_reported":1687532846,"current_range_meters":0,"station_id":"ce4bha92rcd13ifvqeh0","pricing_plan_id":"free"},{"bike_id":"9879053a-009c-4515-9839-f41ea1749f4f","system_id":"levelo_inurba_marseille","lat":43.298764,"lon":5.388973,"is_reserved":false,"is_disabled":false,"rental_uris":{"android":"levelo://app?vid=9879053a-009c-4515-9839-f41ea1749f4f","ios":"levelo://app?vid=9879053a-009c-4515-9839-f41ea1749f4f"},"vehicle_type_id":"4","last_reported":1687532846,"current_range_meters":24800,"station_id":"ce4bh392rcd13ifvqdl0","pricing_plan_id":"free"},{"bike_id":"b33bdd1c-a214-4b97-bac1-4873584c1db6","system_id":"levelo_inurba_marseille","lat":43.298764,"lon":5.388973,"is_reserved":false,"is_disabled":false,"rental_uris":{"android":"levelo://app?vid=b33bdd1c-a214-4b97-bac1-4873584c1db6","ios":"levelo://app?vid=b33bdd1c-a214-4b97-bac1-4873584c1db6"},"vehicle_type_id":"4","last_reported":1687532846,"current_range_meters":21200,"station_id":"ce4bh392rcd13ifvqdl0","pricing_plan_id":"free"},{"bike_id":"54fda2f9-7b1a-4838-9b70-087d4101d0ae","system_id":"levelo_inurba_marseille","lat":43.33248,"lon":5.37937,"is_reserved":false,"is_disabled":false,"rental_uris":{"android":"levelo://app?vid=54fda2f9-7b1a-4838-9b70-087d4101d0ae","ios":"levelo://app?vid=54fda2f9-7b1a-4838-9b70-087d4101d0ae"},"vehicle_type_id":"4","last_reported":1687532846,"current_range_meters":2800,"station_id":"","pricing_plan_id":"free"},{"bike_id":"71d76aea-6519-497e-949b-7fcb896cc004","system_id":"levelo_inurba_marseille","lat":43.29194,"lon":5.35812,"is_reserved":false,"is_disabled":false,"rental_uris":{"android":"levelo://app?vid=71d76aea-6519-497e-949b-7fcb896cc004","ios":"levelo://app?vid=71d76aea-6519-497e-949b-7fcb896cc004"},"vehicle_type_id":"4","last_reported":1687532846,"current_range_meters":22800,"station_id":"ce4bhb12rcd13ifvqel0","pricing_plan_id":"free"},{"bike_id":"ab81f6ff-d152-48a8-b400-b20370747458","system_id":"levelo_inurba_marseille","lat":43.291994,"lon":5.357886,"is_reserved":false,"is_disabled":false,"rental_uris":{"android":"levelo://app?vid=ab81f6ff-d152-48a8-b400-b20370747458","ios":"levelo://app?vid=ab81f6ff-d152-48a8-b400-b20370747458"},"vehicle_type_id":"4","last_reported":1687532846,"current_range_meters":20800,"station_id":"ce4bhb12rcd13ifvqel0","pricing_plan_id":"free"},{"bike_id":"03502b55-9b84-4908-823f-f554b46258fd","system_id":"levelo_inurba_marseille","lat":43.309038,"lon":5.396546,"is_reserved":false,"is_disabled":false,"rental_uris":{"android":"levelo://app?vid=03502b55-9b84-4908-823f-f554b46258fd","ios":"levelo://app?vid=03502b55-9b84-4908-823f-f554b46258fd"},"vehicle_type_id":"4","last_reported":1687532846,"current_range_meters":14800,"station_id":"ce4bh012rcd13ifvqcv0","pricing_plan_id":"free"},{"bike_id":"9d4e92c6-85d9-44ef-91a5-61a8eaacb2b7","system_id":"levelo_inurba_marseille","lat":43.309038,"lon":5.396546,"is_reserved":false,"is_disabled":false,"rental_uris":{"android":"levelo://app?vid=9d4e92c6-85d9-44ef-91a5-61a8eaacb2b7","ios":"levelo://app?vid=9d4e92c6-85d9-44ef-91a5-61a8eaacb2b7"},"vehicle_type_id":"4","last_reported":1687532846,"current_range_meters":19200,"station_id":"ce4bh012rcd13ifvqcv0","pricing_plan_id":"free"},{"bike_id":"307c8ef7-ed4d-4b34-9827-7bddab41fd59","system_id":"levelo_inurba_marseille","lat":43.302008,"lon":5.394694,"is_reserved":false,"is_disabled":false,"rental_uris":{"android":"levelo://app?vid=307c8ef7-ed4d-4b34-9827-7bddab41fd59","ios":"levelo://app?vid=307c8ef7-ed4d-4b34-9827-7bddab41fd59"},"vehicle_type_id":"4","last_reported":1687532846,"current_range_meters":7200,"station_id":"ce4bh0p2rcd13ifvqd70","pricing_plan_id":"free"},{"bike_id":"dbf684ff-e6c9-443e-b0ea-d13f8e29d625","system_id":"levelo_inurba_marseille","lat":43.294153,"lon":5.386305,"is_reserved":false,"is_disabled":false,"rental_uris":{"android":"levelo://app?vid=dbf684ff-e6c9-443e-b0ea-d13f8e29d625","ios":"levelo://app?vid=dbf684ff-e6c9-443e-b0ea-d13f8e29d625"},"vehicle_type_id":"4","last_reported":1687532846,"current_range_meters":28400,"station_id":"ce4bh2h2rcd13ifvqdh0","pricing_plan_id":"free"},{"bike_id":"714359e5-a001-4f77-846d-5eb40d09267b","system_id":"levelo_inurba_marseille","lat":43.2942,"lon":5.38622,"is_reserved":false,"is_disabled":false,"rental_uris":{"android":"levelo://app?vid=714359e5-a001-4f77-846d-5eb40d09267b","ios":"levelo://app?vid=714359e5-a001-4f77-846d-5eb40d09267b"},"vehicle_type_id":"4","last_reported":1687532846,"current_range_meters":0,"station_id":"ce4bh2h2rcd13ifvqdh0","pricing_plan_id":"free"},{"bike_id":"33eea552-d6e5-4dc9-8b79-48cb08553442","system_id":"levelo_inurba_marseille","lat":43.29417,"lon":5.38617,"is_reserved":false,"is_disabled":false,"rental_uris":{"android":"levelo://app?vid=33eea552-d6e5-4dc9-8b79-48cb08553442","ios":"levelo://app?vid=33eea552-d6e5-4dc9-8b79-48cb08553442"},"vehicle_type_id":"4","last_reported":1687532846,"current_range_meters":22000,"station_id":"ce4bh2h2rcd13ifvqdh0","pricing_plan_id":"free"},{"bike_id":"ec6e2896-472c-4648-b9f5-3d8f7b2a056e","system_id":"levelo_inurba_marseille","lat":43.294153,"lon":5.386305,"is_reserved":false,"is_disabled":false,"rental_uris":{"android":"levelo://app?vid=ec6e2896-472c-4648-b9f5-3d8f7b2a056e","ios":"levelo://app?vid=ec6e2896-472c-4648-b9f5-3d8f7b2a056e"},"vehicle_type_id":"4","last_reported":1687532846,"current_range_meters":28800,"station_id":"ce4bh2h2rcd13ifvqdh0","pricing_plan_id":"free"},{"bike_id":"2723f7e3-7ffe-4cd1-8150-01a3a077a656","system_id":"levelo_inurba_marseille","lat":43.29411,"lon":5.38607,"is_reserved":false,"is_disabled":false,"rental_uris":{"android":"levelo://app?vid=2723f7e3-7ffe-4cd1-8150-01a3a077a656","ios":"levelo://app?vid=2723f7e3-7ffe-4cd1-8150-01a3a077a656"},"vehicle_type_id":"4","last_reported":1687532846,"current_range_meters":19600,"station_id":"ce4bh2h2rcd13ifvqdh0","pricing_plan_id":"free"},{"bike_id":"5f51b425-d2e1-4a18-a1ec-da98459bcdf7","system_id":"levelo_inurba_marseille","lat":43.29423,"lon":5.38629,"is_reserved":false,"is_disabled":false,"rental_uris":{"android":"levelo://app?vid=5f51b425-d2e1-4a18-a1ec-da98459bcdf7","ios":"levelo://app?vid=5f51b425-d2e1-4a18-a1ec-da98459bcdf7"},"vehicle_type_id":"4","last_reported":1687532846,"current_range_meters":14000,"station_id":"ce4bh2h2rcd13ifvqdh0","pricing_plan_id":"free"},{"bike_id":"0e75f15e-6c0a-4e29-8321-80457bcf74bb","system_id":"levelo_inurba_marseille","lat":43.29421,"lon":5.38632,"is_reserved":false,"is_disabled":false,"rental_uris":{"android":"levelo://app?vid=0e75f15e-6c0a-4e29-8321-80457bcf74bb","ios":"levelo://app?vid=0e75f15e-6c0a-4e29-8321-80457bcf74bb"},"vehicle_type_id":"4","last_reported":1687532846,"current_range_meters":24800,"station_id":"ce4bh2h2rcd13ifvqdh0","pricing_plan_id":"free"},{"bike_id":"20b2702a-2cf1-439f-b7da-41f192fa1a0a","system_id":"levelo_inurba_marseille","lat":43.29411,"lon":5.38614,"is_reserved":false,"is_disabled":false,"rental_uris":{"android":"levelo://app?vid=20b2702a-2cf1-439f-b7da-41f192fa1a0a","ios":"levelo://app?vid=20b2702a-2cf1-439f-b7da-41f192fa1a0a"},"vehicle_type_id":"4","last_reported":1687532846,"current_range_meters":22800,"station_id":"","pricing_plan_id":"free"},{"bike_id":"d114d56a-3b03-4f84-9182-cd278b00e2af","system_id":"levelo_inurba_marseille","lat":43.29411,"lon":5.38615,"is_reserved":false,"is_disabled":false,"rental_uris":{"android":"levelo://app?vid=d114d56a-3b03-4f84-9182-cd278b00e2af","ios":"levelo://app?vid=d114d56a-3b03-4f84-9182-cd278b00e2af"},"vehicle_type_id":"4","last_reported":1687532846,"current_range_meters":12800,"station_id":"ce4bh2h2rcd13ifvqdh0","pricing_plan_id":"free"},{"bike_id":"2bc57a65-4660-4b02-b5f4-96834750d136","system_id":"levelo_inurba_marseille","lat":43.29412,"lon":5.38618,"is_reserved":false,"is_disabled":false,"rental_uris":{"android":"levelo://app?vid=2bc57a65-4660-4b02-b5f4-96834750d136","ios":"levelo://app?vid=2bc57a65-4660-4b02-b5f4-96834750d136"},"vehicle_type_id":"4","last_reported":1687532846,"current_range_meters":20000,"station_id":"ce4bh2h2rcd13ifvqdh0","pricing_plan_id":"free"},{"bike_id":"eb9432b5-0ee8-4ac6-a3e6-8b75b2334546","system_id":"levelo_inurba_marseille","lat":43.29406,"lon":5.38608,"is_reserved":false,"is_disabled":false,"rental_uris":{"android":"levelo://app?vid=eb9432b5-0ee8-4ac6-a3e6-8b75b2334546","ios":"levelo://app?vid=eb9432b5-0ee8-4ac6-a3e6-8b75b2334546"},"vehicle_type_id":"4","last_reported":1687532846,"current_range_meters":20800,"station_id":"ce4bh2h2rcd13ifvqdh0","pricing_plan_id":"free"},{"bike_id":"f298404a-f486-4d0b-b298-70a4a7f17add","system_id":"levelo_inurba_marseille","lat":43.29411,"lon":5.38618,"is_reserved":false,"is_disabled":false,"rental_uris":{"android":"levelo://app?vid=f298404a-f486-4d0b-b298-70a4a7f17add","ios":"levelo://app?vid=f298404a-f486-4d0b-b298-70a4a7f17add"},"vehicle_type_id":"4","last_reported":1687532846,"current_range_meters":28800,"station_id":"ce4bh2h2rcd13ifvqdh0","pricing_plan_id":"free"},{"bike_id":"e8a4f2ca-874f-4538-954f-31d3121818ad","system_id":"levelo_inurba_marseille","lat":43.29418,"lon":5.38631,"is_reserved":false,"is_disabled":false,"rental_uris":{"android":"levelo://app?vid=e8a4f2ca-874f-4538-954f-31d3121818ad","ios":"levelo://app?vid=e8a4f2ca-874f-4538-954f-31d3121818ad"},"vehicle_type_id":"4","last_reported":1687532846,"current_range_meters":4400,"station_id":"ce4bh2h2rcd13ifvqdh0","pricing_plan_id":"free"},{"bike_id":"278df56a-e788-4155-ae46-dabec27f0d5c","system_id":"levelo_inurba_marseille","lat":43.29411,"lon":5.38619,"is_reserved":false,"is_disabled":false,"rental_uris":{"android":"levelo://app?vid=278df56a-e788-4155-ae46-dabec27f0d5c","ios":"levelo://app?vid=278df56a-e788-4155-ae46-dabec27f0d5c"},"vehicle_type_id":"4","last_reported":1687532846,"current_range_meters":29600,"station_id":"ce4bh2h2rcd13ifvqdh0","pricing_plan_id":"free"},{"bike_id":"31887296-a099-413b-9508-fc0aac1658d9","system_id":"levelo_inurba_marseille","lat":43.29409,"lon":5.38617,"is_reserved":false,"is_disabled":false,"rental_uris":{"android":"levelo://app?vid=31887296-a099-413b-9508-fc0aac1658d9","ios":"levelo://app?vid=31887296-a099-413b-9508-fc0aac1658d9"},"vehicle_type_id":"4","last_reported":1687532846,"current_range_meters":22000,"station_id":"ce4bh2h2rcd13ifvqdh0","pricing_plan_id":"free"},{"bike_id":"1b8fff86-cb5a-42c3-bc9c-85f845660db2","system_id":"levelo_inurba_marseille","lat":43.29415,"lon":5.38629,"is_reserved":false,"is_disabled":false,"rental_uris":{"android":"levelo://app?vid=1b8fff86-cb5a-42c3-bc9c-85f845660db2","ios":"levelo://app?vid=1b8fff86-cb5a-42c3-bc9c-85f845660db2"},"vehicle_type_id":"4","last_reported":1687532846,"current_range_meters":30000,"station_id":"ce4bh2h2rcd13ifvqdh0","pricing_plan_id":"free"},{"bike_id":"50deba2c-4b19-4ba6-9935-e9dffd6cb45c","system_id":"levelo_inurba_marseille","lat":43.29416,"lon":5.38631,"is_reserved":false,"is_disabled":false,"rental_uris":{"android":"levelo://app?vid=50deba2c-4b19-4ba6-9935-e9dffd6cb45c","ios":"levelo://app?vid=50deba2c-4b19-4ba6-9935-e9dffd6cb45c"},"vehicle_type_id":"4","last_reported":1687532846,"current_range_meters":2400,"station_id":"ce4bh2h2rcd13ifvqdh0","pricing_plan_id":"free"},{"bike_id":"9b36b4ad-fc48-4456-a417-b1d6811d92da","system_id":"levelo_inurba_marseille","lat":43.29402,"lon":5.38614,"is_reserved":false,"is_disabled":false,"rental_uris":{"android":"levelo://app?vid=9b36b4ad-fc48-4456-a417-b1d6811d92da","ios":"levelo://app?vid=9b36b4ad-fc48-4456-a417-b1d6811d92da"},"vehicle_type_id":"4","last_reported":1687532846,"current_range_meters":14000,"station_id":"ce4bh2h2rcd13ifvqdh0","pricing_plan_id":"free"},{"bike_id":"52b84f67-84a9-4511-afca-e36bf9f8d0e5","system_id":"levelo_inurba_marseille","lat":43.29272,"lon":5.38431,"is_reserved":false,"is_disabled":false,"rental_uris":{"android":"levelo://app?vid=52b84f67-84a9-4511-afca-e36bf9f8d0e5","ios":"levelo://app?vid=52b84f67-84a9-4511-afca-e36bf9f8d0e5"},"vehicle_type_id":"4","last_reported":1687532846,"current_range_meters":1200,"station_id":"ce4bh692rcd13ifvqea0","pricing_plan_id":"free"},{"bike_id":"5a4d3fa7-66c3-41f4-9451-f756b8157dfb","system_id":"levelo_inurba_marseille","lat":43.3044,"lon":5.39748,"is_reserved":false,"is_disabled":false,"rental_uris":{"android":"levelo://app?vid=5a4d3fa7-66c3-41f4-9451-f756b8157dfb","ios":"levelo://app?vid=5a4d3fa7-66c3-41f4-9451-f756b8157dfb"},"vehicle_type_id":"4","last_reported":1687532846,"current_range_meters":4400,"station_id":"ce4bh092rcd13ifvqd20","pricing_plan_id":"free"},{"bike_id":"e36874dc-7135-4ebc-b4cd-8f7cd3793fb7","system_id":"levelo_inurba_marseille","lat":43.30359,"lon":5.39711,"is_reserved":false,"is_disabled":false,"rental_uris":{"android":"levelo://app?vid=e36874dc-7135-4ebc-b4cd-8f7cd3793fb7","ios":"levelo://app?vid=e36874dc-7135-4ebc-b4cd-8f7cd3793fb7"},"vehicle_type_id":"4","last_reported":1687532846,"current_range_meters":26400,"station_id":"","pricing_plan_id":"free"},{"bike_id":"9b693b58-8dfe-4e7c-8ce6-cf1766c81ae5","system_id":"levelo_inurba_marseille","lat":43.290103,"lon":5.356114,"is_reserved":false,"is_disabled":false,"rental_uris":{"android":"levelo://app?vid=9b693b58-8dfe-4e7c-8ce6-cf1766c81ae5","ios":"levelo://app?vid=9b693b58-8dfe-4e7c-8ce6-cf1766c81ae5"},"vehicle_type_id":"4","last_reported":1687532846,"current_range_meters":27600,"station_id":"ce4bhb92rcd13ifvqen0","pricing_plan_id":"free"},{"bike_id":"2e156766-e284-4dcf-bfd8-dca09b5d81ef","system_id":"levelo_inurba_marseille","lat":43.290104,"lon":5.356111,"is_reserved":false,"is_disabled":false,"rental_uris":{"android":"levelo://app?vid=2e156766-e284-4dcf-bfd8-dca09b5d81ef","ios":"levelo://app?vid=2e156766-e284-4dcf-bfd8-dca09b5d81ef"},"vehicle_type_id":"4","last_reported":1687532846,"current_range_meters":2800,"station_id":"ce4bhb92rcd13ifvqen0","pricing_plan_id":"free"},{"bike_id":"384021af-e955-47b7-9675-8312c1029396","system_id":"levelo_inurba_marseille","lat":43.330442,"lon":5.389148,"is_reserved":false,"is_disabled":false,"rental_uris":{"android":"levelo://app?vid=384021af-e955-47b7-9675-8312c1029396","ios":"levelo://app?vid=384021af-e955-47b7-9675-8312c1029396"},"vehicle_type_id":"4","last_reported":1687532846,"current_range_meters":16000,"station_id":"ce4bhr92rcd13ifvqhrg","pricing_plan_id":"free"},{"bike_id":"bf8977a9-af61-4081-b4e8-cb90314662fe","system_id":"levelo_inurba_marseille","lat":43.290104,"lon":5.356111,"is_reserved":false,"is_disabled":false,"rental_uris":{"android":"levelo://app?vid=bf8977a9-af61-4081-b4e8-cb90314662fe","ios":"levelo://app?vid=bf8977a9-af61-4081-b4e8-cb90314662fe"},"vehicle_type_id":"4","last_reported":1687532846,"current_range_meters":4400,"station_id":"ce4bhb92rcd13ifvqen0","pricing_plan_id":"free"},{"bike_id":"16910be4-5c9a-4941-9e5a-acb8286611ce","system_id":"levelo_inurba_marseille","lat":43.33048,"lon":5.38917,"is_reserved":false,"is_disabled":false,"rental_uris":{"android":"levelo://app?vid=16910be4-5c9a-4941-9e5a-acb8286611ce","ios":"levelo://app?vid=16910be4-5c9a-4941-9e5a-acb8286611ce"},"vehicle_type_id":"4","last_reported":1687532846,"current_range_meters":29600,"station_id":"ce4bhr92rcd13ifvqhrg","pricing_plan_id":"free"},{"bike_id":"3beb8e76-b6af-4276-a03c-40988a8c2342","system_id":"levelo_inurba_marseille","lat":43.290104,"lon":5.356111,"is_reserved":false,"is_disabled":false,"rental_uris":{"android":"levelo://app?vid=3beb8e76-b6af-4276-a03c-40988a8c2342","ios":"levelo://app?vid=3beb8e76-b6af-4276-a03c-40988a8c2342"},"vehicle_type_id":"4","last_reported":1687532846,"current_range_meters":4800,"station_id":"ce4bhb92rcd13ifvqen0","pricing_plan_id":"free"},{"bike_id":"ce41aa8a-8ea9-46c2-b85e-b11060f2af87","system_id":"levelo_inurba_marseille","lat":43.330442,"lon":5.389148,"is_reserved":false,"is_disabled":false,"rental_uris":{"android":"levelo://app?vid=ce41aa8a-8ea9-46c2-b85e-b11060f2af87","ios":"levelo://app?vid=ce41aa8a-8ea9-46c2-b85e-b11060f2af87"},"vehicle_type_id":"4","last_reported":1687532846,"current_range_meters":3200,"station_id":"ce4bhr92rcd13ifvqhrg","pricing_plan_id":"free"},{"bike_id":"e62299df-1cf4-4e0d-9f43-cd22f6a53e4c","system_id":"levelo_inurba_marseille","lat":43.30237,"lon":5.39712,"is_reserved":false,"is_disabled":false,"rental_uris":{"android":"levelo://app?vid=e62299df-1cf4-4e0d-9f43-cd22f6a53e4c","ios":"levelo://app?vid=e62299df-1cf4-4e0d-9f43-cd22f6a53e4c"},"vehicle_type_id":"4","last_reported":1687532846,"current_range_meters":18800,"station_id":"","pricing_plan_id":"free"},{"bike_id":"c881a73b-0498-45b4-9156-0f676a989249","system_id":"levelo_inurba_marseille","lat":43.295169,"lon":5.390426,"is_reserved":false,"is_disabled":false,"rental_uris":{"android":"levelo://app?vid=c881a73b-0498-45b4-9156-0f676a989249","ios":"levelo://app?vid=c881a73b-0498-45b4-9156-0f676a989249"},"vehicle_type_id":"4","last_reported":1687532846,"current_range_meters":18000,"station_id":"ce4bh3p2rcd13ifvqdp0","pricing_plan_id":"free"},{"bike_id":"4cae1e31-10bb-4810-a0a0-2fb24e9be6ee","system_id":"levelo_inurba_marseille","lat":43.298764,"lon":5.388973,"is_reserved":false,"is_disabled":false,"rental_uris":{"android":"levelo://app?vid=4cae1e31-10bb-4810-a0a0-2fb24e9be6ee","ios":"levelo://app?vid=4cae1e31-10bb-4810-a0a0-2fb24e9be6ee"},"vehicle_type_id":"4","last_reported":1687532846,"current_range_meters":6000,"station_id":"ce4bh392rcd13ifvqdl0","pricing_plan_id":"free"},{"bike_id":"7f54b8e6-2a46-41c5-8308-91d5734605e3","system_id":"levelo_inurba_marseille","lat":43.29792,"lon":5.39361,"is_reserved":false,"is_disabled":false,"rental_uris":{"android":"levelo://app?vid=7f54b8e6-2a46-41c5-8308-91d5734605e3","ios":"levelo://app?vid=7f54b8e6-2a46-41c5-8308-91d5734605e3"},"vehicle_type_id":"4","last_reported":1687532846,"current_range_meters":7200,"station_id":"chh1huq6cuj3fo74tm60","pricing_plan_id":"free"},{"bike_id":"e1a1221a-c606-4998-8988-12a9a726f588","system_id":"levelo_inurba_marseille","lat":43.289741,"lon":5.378306,"is_reserved":false,"is_disabled":false,"rental_uris":{"android":"levelo://app?vid=e1a1221a-c606-4998-8988-12a9a726f588","ios":"levelo://app?vid=e1a1221a-c606-4998-8988-12a9a726f588"},"vehicle_type_id":"4","last_reported":1687532846,"current_range_meters":17200,"station_id":"ce4bh9p2rcd13ifvqed0","pricing_plan_id":"free"},{"bike_id":"aef4d188-c662-4ac7-9032-4ab09316d19a","system_id":"levelo_inurba_marseille","lat":43.29524,"lon":5.39038,"is_reserved":false,"is_disabled":false,"rental_uris":{"android":"levelo://app?vid=aef4d188-c662-4ac7-9032-4ab09316d19a","ios":"levelo://app?vid=aef4d188-c662-4ac7-9032-4ab09316d19a"},"vehicle_type_id":"4","last_reported":1687532846,"current_range_meters":25600,"station_id":"ce4bh3p2rcd13ifvqdp0","pricing_plan_id":"free"},{"bike_id":"0db051d6-4cd4-439b-90b4-9149f761b459","system_id":"levelo_inurba_marseille","lat":43.295169,"lon":5.390426,"is_reserved":false,"is_disabled":false,"rental_uris":{"android":"levelo://app?vid=0db051d6-4cd4-439b-90b4-9149f761b459","ios":"levelo://app?vid=0db051d6-4cd4-439b-90b4-9149f761b459"},"vehicle_type_id":"4","last_reported":1687532846,"current_range_meters":4400,"station_id":"ce4bh3p2rcd13ifvqdp0","pricing_plan_id":"free"},{"bike_id":"ecb0999e-c9e9-414c-a196-2b23f9ff9bdb","system_id":"levelo_inurba_marseille","lat":43.29343,"lon":5.38837,"is_reserved":false,"is_disabled":false,"rental_uris":{"android":"levelo://app?vid=ecb0999e-c9e9-414c-a196-2b23f9ff9bdb","ios":"levelo://app?vid=ecb0999e-c9e9-414c-a196-2b23f9ff9bdb"},"vehicle_type_id":"4","last_reported":1687532846,"current_range_meters":23200,"station_id":"","pricing_plan_id":"free"},{"bike_id":"4df2007d-9a97-4f4f-bbfa-d79703ee1467","system_id":"levelo_inurba_marseille","lat":43.28856,"lon":5.35858,"is_reserved":false,"is_disabled":false,"rental_uris":{"android":"levelo://app?vid=4df2007d-9a97-4f4f-bbfa-d79703ee1467","ios":"levelo://app?vid=4df2007d-9a97-4f4f-bbfa-d79703ee1467"},"vehicle_type_id":"4","last_reported":1687532846,"current_range_meters":21200,"station_id":"ce4bhb12rcd13ifvqem0","pricing_plan_id":"free"},{"bike_id":"3f8a925a-6a54-4259-a38f-9cf091aab246","system_id":"levelo_inurba_marseille","lat":43.29267,"lon":5.3876,"is_reserved":false,"is_disabled":false,"rental_uris":{"android":"levelo://app?vid=3f8a925a-6a54-4259-a38f-9cf091aab246","ios":"levelo://app?vid=3f8a925a-6a54-4259-a38f-9cf091aab246"},"vehicle_type_id":"4","last_reported":1687532846,"current_range_meters":24800,"station_id":"","pricing_plan_id":"free"},{"bike_id":"79b74f72-5a9f-4f37-bded-26ada7e62f56","system_id":"levelo_inurba_marseille","lat":43.309371,"lon":5.401449,"is_reserved":false,"is_disabled":false,"rental_uris":{"android":"levelo://app?vid=79b74f72-5a9f-4f37-bded-26ada7e62f56","ios":"levelo://app?vid=79b74f72-5a9f-4f37-bded-26ada7e62f56"},"vehicle_type_id":"4","last_reported":1687532846,"current_range_meters":25200,"station_id":"ce4bgvp2rcd13ifvqct0","pricing_plan_id":"free"},{"bike_id":"c180ae38-f769-441f-8a55-5a6e4930e6ad","system_id":"levelo_inurba_marseille","lat":43.3375,"lon":5.37439,"is_reserved":false,"is_disabled":false,"rental_uris":{"android":"levelo://app?vid=c180ae38-f769-441f-8a55-5a6e4930e6ad","ios":"levelo://app?vid=c180ae38-f769-441f-8a55-5a6e4930e6ad"},"vehicle_type_id":"4","last_reported":1687532846,"current_range_meters":28000,"station_id":"","pricing_plan_id":"free"},{"bike_id":"b0bd3bcb-bd35-4f75-8285-8f528f09b8d5","system_id":"levelo_inurba_marseille","lat":43.3375,"lon":5.37447,"is_reserved":false,"is_disabled":false,"rental_uris":{"android":"levelo://app?vid=b0bd3bcb-bd35-4f75-8285-8f528f09b8d5","ios":"levelo://app?vid=b0bd3bcb-bd35-4f75-8285-8f528f09b8d5"},"vehicle_type_id":"4","last_reported":1687532846,"current_range_meters":18800,"station_id":"","pricing_plan_id":"free"},{"bike_id":"10f964a5-e76e-4fda-9187-083843f7e111","system_id":"levelo_inurba_marseille","lat":43.30642,"lon":5.401031,"is_reserved":false,"is_disabled":false,"rental_uris":{"android":"levelo://app?vid=10f964a5-e76e-4fda-9187-083843f7e111","ios":"levelo://app?vid=10f964a5-e76e-4fda-9187-083843f7e111"},"vehicle_type_id":"4","last_reported":1687532846,"current_range_meters":22400,"station_id":"ce4bh112rcd13ifvqda0","pricing_plan_id":"free"},{"bike_id":"282bd514-cce1-4e94-b959-30b7979ea0e0","system_id":"levelo_inurba_marseille","lat":43.295196,"lon":5.39397,"is_reserved":false,"is_disabled":false,"rental_uris":{"android":"levelo://app?vid=282bd514-cce1-4e94-b959-30b7979ea0e0","ios":"levelo://app?vid=282bd514-cce1-4e94-b959-30b7979ea0e0"},"vehicle_type_id":"4","last_reported":1687532846,"current_range_meters":12000,"station_id":"ce4bh292rcd13ifvqdf0","pricing_plan_id":"free"},{"bike_id":"73388365-5fb2-4b09-b87b-a9d624d3a3ed","system_id":"levelo_inurba_marseille","lat":43.295196,"lon":5.39397,"is_reserved":false,"is_disabled":false,"rental_uris":{"android":"levelo://app?vid=73388365-5fb2-4b09-b87b-a9d624d3a3ed","ios":"levelo://app?vid=73388365-5fb2-4b09-b87b-a9d624d3a3ed"},"vehicle_type_id":"4","last_reported":1687532846,"current_range_meters":800,"station_id":"ce4bh292rcd13ifvqdf0","pricing_plan_id":"free"},{"bike_id":"ab37d781-c81b-46d0-9ae5-9a96d3732f3e","system_id":"levelo_inurba_marseille","lat":43.316517,"lon":5.404375,"is_reserved":false,"is_disabled":false,"rental_uris":{"android":"levelo://app?vid=ab37d781-c81b-46d0-9ae5-9a96d3732f3e","ios":"levelo://app?vid=ab37d781-c81b-46d0-9ae5-9a96d3732f3e"},"vehicle_type_id":"4","last_reported":1687532846,"current_range_meters":1600,"station_id":"ce4bh012rcd13ifvqd00","pricing_plan_id":"free"},{"bike_id":"67acb0db-a553-405e-8217-374d136b820b","system_id":"levelo_inurba_marseille","lat":43.291994,"lon":5.392907,"is_reserved":false,"is_disabled":false,"rental_uris":{"android":"levelo://app?vid=67acb0db-a553-405e-8217-374d136b820b","ios":"levelo://app?vid=67acb0db-a553-405e-8217-374d136b820b"},"vehicle_type_id":"4","last_reported":1687532846,"current_range_meters":0,"station_id":"ce4bh192rcd13ifvqdd0","pricing_plan_id":"free"},{"bike_id":"4a6748ee-efe8-4bab-aeb8-f9fccfd6cc02","system_id":"levelo_inurba_marseille","lat":43.291994,"lon":5.392907,"is_reserved":false,"is_disabled":false,"rental_uris":{"android":"levelo://app?vid=4a6748ee-efe8-4bab-aeb8-f9fccfd6cc02","ios":"levelo://app?vid=4a6748ee-efe8-4bab-aeb8-f9fccfd6cc02"},"vehicle_type_id":"4","last_reported":1687532846,"current_range_meters":7600,"station_id":"ce4bh192rcd13ifvqdd0","pricing_plan_id":"free"},{"bike_id":"6d0265b0-ff53-4b4c-ba9f-5a7a700fd2ca","system_id":"levelo_inurba_marseille","lat":43.291994,"lon":5.392907,"is_reserved":false,"is_disabled":false,"rental_uris":{"android":"levelo://app?vid=6d0265b0-ff53-4b4c-ba9f-5a7a700fd2ca","ios":"levelo://app?vid=6d0265b0-ff53-4b4c-ba9f-5a7a700fd2ca"},"vehicle_type_id":"4","last_reported":1687532846,"current_range_meters":3200,"station_id":"ce4bh192rcd13ifvqdd0","pricing_plan_id":"free"},{"bike_id":"bae70ccc-f912-454f-b9d7-3718d8503f27","system_id":"levelo_inurba_marseille","lat":43.284534,"lon":5.358662,"is_reserved":false,"is_disabled":false,"rental_uris":{"android":"levelo://app?vid=bae70ccc-f912-454f-b9d7-3718d8503f27","ios":"levelo://app?vid=bae70ccc-f912-454f-b9d7-3718d8503f27"},"vehicle_type_id":"4","last_reported":1687532846,"current_range_meters":6400,"station_id":"ce4bhah2rcd13ifvqei0","pricing_plan_id":"free"},{"bike_id":"1bf92770-e38d-432f-87c6-36a076a93334","system_id":"levelo_inurba_marseille","lat":43.284534,"lon":5.358662,"is_reserved":false,"is_disabled":false,"rental_uris":{"android":"levelo://app?vid=1bf92770-e38d-432f-87c6-36a076a93334","ios":"levelo://app?vid=1bf92770-e38d-432f-87c6-36a076a93334"},"vehicle_type_id":"4","last_reported":1687532846,"current_range_meters":4400,"station_id":"ce4bhah2rcd13ifvqei0","pricing_plan_id":"free"},{"bike_id":"60b2191e-e1ad-4685-a153-af5621803692","system_id":"levelo_inurba_marseille","lat":43.285856,"lon":5.350771,"is_reserved":false,"is_disabled":false,"rental_uris":{"android":"levelo://app?vid=60b2191e-e1ad-4685-a153-af5621803692","ios":"levelo://app?vid=60b2191e-e1ad-4685-a153-af5621803692"},"vehicle_type_id":"4","last_reported":1687532846,"current_range_meters":16800,"station_id":"ce4bhch2rcd13ifvqeug","pricing_plan_id":"free"},{"bike_id":"1953da4d-3033-40df-83ec-f161b0778af6","system_id":"levelo_inurba_marseille","lat":43.285848,"lon":5.350787,"is_reserved":false,"is_disabled":false,"rental_uris":{"android":"levelo://app?vid=1953da4d-3033-40df-83ec-f161b0778af6","ios":"levelo://app?vid=1953da4d-3033-40df-83ec-f161b0778af6"},"vehicle_type_id":"4","last_reported":1687532846,"current_range_meters":31200,"station_id":"ce4bhch2rcd13ifvqeug","pricing_plan_id":"free"},{"bike_id":"5622b5f9-1c70-4cee-bee2-1135d8f03170","system_id":"levelo_inurba_marseille","lat":43.285856,"lon":5.350771,"is_reserved":false,"is_disabled":false,"rental_uris":{"android":"levelo://app?vid=5622b5f9-1c70-4cee-bee2-1135d8f03170","ios":"levelo://app?vid=5622b5f9-1c70-4cee-bee2-1135d8f03170"},"vehicle_type_id":"4","last_reported":1687532846,"current_range_meters":22400,"station_id":"ce4bhch2rcd13ifvqeug","pricing_plan_id":"free"},{"bike_id":"9b3a11b3-9429-41ed-bd28-db7afd38abc7","system_id":"levelo_inurba_marseille","lat":43.285856,"lon":5.350771,"is_reserved":false,"is_disabled":false,"rental_uris":{"android":"levelo://app?vid=9b3a11b3-9429-41ed-bd28-db7afd38abc7","ios":"levelo://app?vid=9b3a11b3-9429-41ed-bd28-db7afd38abc7"},"vehicle_type_id":"4","last_reported":1687532846,"current_range_meters":31200,"station_id":"ce4bhch2rcd13ifvqeug","pricing_plan_id":"free"},{"bike_id":"eca98234-8676-42e5-90cc-a2c28c39eb2d","system_id":"levelo_inurba_marseille","lat":43.286131,"lon":5.351112,"is_reserved":false,"is_disabled":false,"rental_uris":{"android":"levelo://app?vid=eca98234-8676-42e5-90cc-a2c28c39eb2d","ios":"levelo://app?vid=eca98234-8676-42e5-90cc-a2c28c39eb2d"},"vehicle_type_id":"4","last_reported":1687532846,"current_range_meters":30000,"station_id":"ce4bhch2rcd13ifvqeug","pricing_plan_id":"free"},{"bike_id":"c33a7a26-2b2f-4597-a72d-d74c6a73e849","system_id":"levelo_inurba_marseille","lat":43.285856,"lon":5.350771,"is_reserved":false,"is_disabled":false,"rental_uris":{"android":"levelo://app?vid=c33a7a26-2b2f-4597-a72d-d74c6a73e849","ios":"levelo://app?vid=c33a7a26-2b2f-4597-a72d-d74c6a73e849"},"vehicle_type_id":"4","last_reported":1687532846,"current_range_meters":20800,"station_id":"ce4bhch2rcd13ifvqeug","pricing_plan_id":"free"},{"bike_id":"4b9ad487-33e6-4ba1-b11f-c42042c2389b","system_id":"levelo_inurba_marseille","lat":43.285856,"lon":5.350771,"is_reserved":false,"is_disabled":false,"rental_uris":{"android":"levelo://app?vid=4b9ad487-33e6-4ba1-b11f-c42042c2389b","ios":"levelo://app?vid=4b9ad487-33e6-4ba1-b11f-c42042c2389b"},"vehicle_type_id":"4","last_reported":1687532846,"current_range_meters":31200,"station_id":"ce4bhch2rcd13ifvqeug","pricing_plan_id":"free"},{"bike_id":"d0d76c37-1e22-4d0d-9cca-c6516aabfe36","system_id":"levelo_inurba_marseille","lat":43.285848,"lon":5.350787,"is_reserved":false,"is_disabled":false,"rental_uris":{"android":"levelo://app?vid=d0d76c37-1e22-4d0d-9cca-c6516aabfe36","ios":"levelo://app?vid=d0d76c37-1e22-4d0d-9cca-c6516aabfe36"},"vehicle_type_id":"4","last_reported":1687532846,"current_range_meters":31200,"station_id":"ce4bhch2rcd13ifvqeug","pricing_plan_id":"free"},{"bike_id":"264fda9b-b20b-43e9-b877-e230a1dac868","system_id":"levelo_inurba_marseille","lat":43.286095,"lon":5.35108,"is_reserved":false,"is_disabled":false,"rental_uris":{"android":"levelo://app?vid=264fda9b-b20b-43e9-b877-e230a1dac868","ios":"levelo://app?vid=264fda9b-b20b-43e9-b877-e230a1dac868"},"vehicle_type_id":"4","last_reported":1687532846,"current_range_meters":22400,"station_id":"ce4bhch2rcd13ifvqeug","pricing_plan_id":"free"},{"bike_id":"e9806f1a-1c39-43c2-a118-41d19ea05d5c","system_id":"levelo_inurba_marseille","lat":43.285848,"lon":5.350787,"is_reserved":false,"is_disabled":false,"rental_uris":{"android":"levelo://app?vid=e9806f1a-1c39-43c2-a118-41d19ea05d5c","ios":"levelo://app?vid=e9806f1a-1c39-43c2-a118-41d19ea05d5c"},"vehicle_type_id":"4","last_reported":1687532846,"current_range_meters":0,"station_id":"ce4bhch2rcd13ifvqeug","pricing_plan_id":"free"},{"bike_id":"31773a67-a98d-4552-9b3d-98ad3df9ceb2","system_id":"levelo_inurba_marseille","lat":43.285856,"lon":5.350771,"is_reserved":false,"is_disabled":false,"rental_uris":{"android":"levelo://app?vid=31773a67-a98d-4552-9b3d-98ad3df9ceb2","ios":"levelo://app?vid=31773a67-a98d-4552-9b3d-98ad3df9ceb2"},"vehicle_type_id":"4","last_reported":1687532846,"current_range_meters":22400,"station_id":"ce4bhch2rcd13ifvqeug","pricing_plan_id":"free"},{"bike_id":"c963e5a2-13ba-4229-a70f-e1e16fe3114f","system_id":"levelo_inurba_marseille","lat":43.286595,"lon":5.386795,"is_reserved":false,"is_disabled":false,"rental_uris":{"android":"levelo://app?vid=c963e5a2-13ba-4229-a70f-e1e16fe3114f","ios":"levelo://app?vid=c963e5a2-13ba-4229-a70f-e1e16fe3114f"},"vehicle_type_id":"4","last_reported":1687532846,"current_range_meters":0,"station_id":"ce4bh492rcd13ifvqdug","pricing_plan_id":"free"},{"bike_id":"023e4546-4bbe-4579-9c25-eb0f80bbce2f","system_id":"levelo_inurba_marseille","lat":43.32334,"lon":5.40618,"is_reserved":false,"is_disabled":false,"rental_uris":{"android":"levelo://app?vid=023e4546-4bbe-4579-9c25-eb0f80bbce2f","ios":"levelo://app?vid=023e4546-4bbe-4579-9c25-eb0f80bbce2f"},"vehicle_type_id":"4","last_reported":1687532846,"current_range_meters":19600,"station_id":"ce4bhq92rcd13ifvqhjg","pricing_plan_id":"free"},{"bike_id":"a54c5183-d12c-4b5d-b1a7-e6c2a62eb9b5","system_id":"levelo_inurba_marseille","lat":43.323464,"lon":5.406297,"is_reserved":false,"is_disabled":false,"rental_uris":{"android":"levelo://app?vid=a54c5183-d12c-4b5d-b1a7-e6c2a62eb9b5","ios":"levelo://app?vid=a54c5183-d12c-4b5d-b1a7-e6c2a62eb9b5"},"vehicle_type_id":"4","last_reported":1687532846,"current_range_meters":22400,"station_id":"ce4bhq92rcd13ifvqhjg","pricing_plan_id":"free"},{"bike_id":"d325dede-0317-497c-ba44-dfeac0e78567","system_id":"levelo_inurba_marseille","lat":43.32337,"lon":5.40624,"is_reserved":false,"is_disabled":false,"rental_uris":{"android":"levelo://app?vid=d325dede-0317-497c-ba44-dfeac0e78567","ios":"levelo://app?vid=d325dede-0317-497c-ba44-dfeac0e78567"},"vehicle_type_id":"4","last_reported":1687532846,"current_range_meters":28400,"station_id":"ce4bhq92rcd13ifvqhjg","pricing_plan_id":"free"},{"bike_id":"1d6451d3-95d8-4c84-90e0-ca873e7720cc","system_id":"levelo_inurba_marseille","lat":43.32349,"lon":5.40624,"is_reserved":false,"is_disabled":false,"rental_uris":{"android":"levelo://app?vid=1d6451d3-95d8-4c84-90e0-ca873e7720cc","ios":"levelo://app?vid=1d6451d3-95d8-4c84-90e0-ca873e7720cc"},"vehicle_type_id":"4","last_reported":1687532846,"current_range_meters":25200,"station_id":"ce4bhq92rcd13ifvqhjg","pricing_plan_id":"free"},{"bike_id":"88d032e3-9fa3-49e6-9ac1-9e8488287c86","system_id":"levelo_inurba_marseille","lat":43.284793,"lon":5.384113,"is_reserved":false,"is_disabled":false,"rental_uris":{"android":"levelo://app?vid=88d032e3-9fa3-49e6-9ac1-9e8488287c86","ios":"levelo://app?vid=88d032e3-9fa3-49e6-9ac1-9e8488287c86"},"vehicle_type_id":"4","last_reported":1687532846,"current_range_meters":20000,"station_id":"ce4bh512rcd13ifvqe3g","pricing_plan_id":"free"},{"bike_id":"32c8e441-2206-46a5-aafd-13431c315536","system_id":"levelo_inurba_marseille","lat":43.284787,"lon":5.384116,"is_reserved":false,"is_disabled":false,"rental_uris":{"android":"levelo://app?vid=32c8e441-2206-46a5-aafd-13431c315536","ios":"levelo://app?vid=32c8e441-2206-46a5-aafd-13431c315536"},"vehicle_type_id":"4","last_reported":1687532846,"current_range_meters":12000,"station_id":"ce4bh512rcd13ifvqe3g","pricing_plan_id":"free"},{"bike_id":"b4c950db-352f-4a1a-8e3c-c05101a6dad0","system_id":"levelo_inurba_marseille","lat":43.2885,"lon":5.39334,"is_reserved":false,"is_disabled":false,"rental_uris":{"android":"levelo://app?vid=b4c950db-352f-4a1a-8e3c-c05101a6dad0","ios":"levelo://app?vid=b4c950db-352f-4a1a-8e3c-c05101a6dad0"},"vehicle_type_id":"4","last_reported":1687532846,"current_range_meters":31200,"station_id":"ce4bh2p2rcd13ifvqdi0","pricing_plan_id":"free"},{"bike_id":"d7bfc071-8a7d-4573-b7ca-98b0a6b2d584","system_id":"levelo_inurba_marseille","lat":43.284219,"lon":5.3497,"is_reserved":false,"is_disabled":false,"rental_uris":{"android":"levelo://app?vid=d7bfc071-8a7d-4573-b7ca-98b0a6b2d584","ios":"levelo://app?vid=d7bfc071-8a7d-4573-b7ca-98b0a6b2d584"},"vehicle_type_id":"4","last_reported":1687532846,"current_range_meters":15200,"station_id":"ce4bhbh2rcd13ifvqepg","pricing_plan_id":"free"},{"bike_id":"3e82b7ac-c1bf-4de5-bf14-4daaa66ab493","system_id":"levelo_inurba_marseille","lat":43.284219,"lon":5.3497,"is_reserved":false,"is_disabled":false,"rental_uris":{"android":"levelo://app?vid=3e82b7ac-c1bf-4de5-bf14-4daaa66ab493","ios":"levelo://app?vid=3e82b7ac-c1bf-4de5-bf14-4daaa66ab493"},"vehicle_type_id":"4","last_reported":1687532846,"current_range_meters":10000,"station_id":"ce4bhbh2rcd13ifvqepg","pricing_plan_id":"free"},{"bike_id":"2b4a60c4-bfaa-44d6-9c9d-0500997f9844","system_id":"levelo_inurba_marseille","lat":43.28425,"lon":5.349785,"is_reserved":false,"is_disabled":false,"rental_uris":{"android":"levelo://app?vid=2b4a60c4-bfaa-44d6-9c9d-0500997f9844","ios":"levelo://app?vid=2b4a60c4-bfaa-44d6-9c9d-0500997f9844"},"vehicle_type_id":"4","last_reported":1687532846,"current_range_meters":15200,"station_id":"","pricing_plan_id":"free"},{"bike_id":"6bc3c24b-2888-473a-afe2-b4cf73586357","system_id":"levelo_inurba_marseille","lat":43.284219,"lon":5.3497,"is_reserved":false,"is_disabled":false,"rental_uris":{"android":"levelo://app?vid=6bc3c24b-2888-473a-afe2-b4cf73586357","ios":"levelo://app?vid=6bc3c24b-2888-473a-afe2-b4cf73586357"},"vehicle_type_id":"4","last_reported":1687532846,"current_range_meters":16400,"station_id":"ce4bhbh2rcd13ifvqepg","pricing_plan_id":"free"},{"bike_id":"d7794388-932e-4da4-91d7-b4cb92d1f6f0","system_id":"levelo_inurba_marseille","lat":43.284219,"lon":5.3497,"is_reserved":false,"is_disabled":false,"rental_uris":{"android":"levelo://app?vid=d7794388-932e-4da4-91d7-b4cb92d1f6f0","ios":"levelo://app?vid=d7794388-932e-4da4-91d7-b4cb92d1f6f0"},"vehicle_type_id":"4","last_reported":1687532846,"current_range_meters":31200,"station_id":"ce4bhbh2rcd13ifvqepg","pricing_plan_id":"free"},{"bike_id":"a7440784-94e3-47b4-8b8e-d7a74f5d5b58","system_id":"levelo_inurba_marseille","lat":43.28422,"lon":5.34984,"is_reserved":false,"is_disabled":false,"rental_uris":{"android":"levelo://app?vid=a7440784-94e3-47b4-8b8e-d7a74f5d5b58","ios":"levelo://app?vid=a7440784-94e3-47b4-8b8e-d7a74f5d5b58"},"vehicle_type_id":"4","last_reported":1687532846,"current_range_meters":14000,"station_id":"ce4bhbh2rcd13ifvqepg","pricing_plan_id":"free"},{"bike_id":"c4ea4aa4-83ad-4ed5-9f31-ff76e4314eff","system_id":"levelo_inurba_marseille","lat":43.284219,"lon":5.3497,"is_reserved":false,"is_disabled":false,"rental_uris":{"android":"levelo://app?vid=c4ea4aa4-83ad-4ed5-9f31-ff76e4314eff","ios":"levelo://app?vid=c4ea4aa4-83ad-4ed5-9f31-ff76e4314eff"},"vehicle_type_id":"4","last_reported":1687532846,"current_range_meters":6800,"station_id":"ce4bhbh2rcd13ifvqepg","pricing_plan_id":"free"},{"bike_id":"7c4e681f-8a67-4ed2-8470-3d40719d89cf","system_id":"levelo_inurba_marseille","lat":43.28419,"lon":5.34983,"is_reserved":false,"is_disabled":false,"rental_uris":{"android":"levelo://app?vid=7c4e681f-8a67-4ed2-8470-3d40719d89cf","ios":"levelo://app?vid=7c4e681f-8a67-4ed2-8470-3d40719d89cf"},"vehicle_type_id":"4","last_reported":1687532846,"current_range_meters":30000,"station_id":"ce4bhbh2rcd13ifvqepg","pricing_plan_id":"free"},{"bike_id":"5d7ddac6-5d1f-443d-b467-5db86d9e652d","system_id":"levelo_inurba_marseille","lat":43.28419,"lon":5.349805,"is_reserved":false,"is_disabled":false,"rental_uris":{"android":"levelo://app?vid=5d7ddac6-5d1f-443d-b467-5db86d9e652d","ios":"levelo://app?vid=5d7ddac6-5d1f-443d-b467-5db86d9e652d"},"vehicle_type_id":"4","last_reported":1687532846,"current_range_meters":5600,"station_id":"ce4bhbh2rcd13ifvqepg","pricing_plan_id":"free"},{"bike_id":"22f5e624-39af-4a83-8252-cf5f9e855a58","system_id":"levelo_inurba_marseille","lat":43.284186,"lon":5.349815,"is_reserved":false,"is_disabled":false,"rental_uris":{"android":"levelo://app?vid=22f5e624-39af-4a83-8252-cf5f9e855a58","ios":"levelo://app?vid=22f5e624-39af-4a83-8252-cf5f9e855a58"},"vehicle_type_id":"4","last_reported":1687532846,"current_range_meters":20400,"station_id":"","pricing_plan_id":"free"},{"bike_id":"21c36aa3-829d-486e-a2c8-5cb2cc3c357c","system_id":"levelo_inurba_marseille","lat":43.284182,"lon":5.349816,"is_reserved":false,"is_disabled":false,"rental_uris":{"android":"levelo://app?vid=21c36aa3-829d-486e-a2c8-5cb2cc3c357c","ios":"levelo://app?vid=21c36aa3-829d-486e-a2c8-5cb2cc3c357c"},"vehicle_type_id":"4","last_reported":1687532846,"current_range_meters":17200,"station_id":"ce4bhbh2rcd13ifvqepg","pricing_plan_id":"free"},{"bike_id":"f6d1b9eb-7a68-4a6e-9d0f-b8d2a48a2807","system_id":"levelo_inurba_marseille","lat":43.284187,"lon":5.349795,"is_reserved":false,"is_disabled":false,"rental_uris":{"android":"levelo://app?vid=f6d1b9eb-7a68-4a6e-9d0f-b8d2a48a2807","ios":"levelo://app?vid=f6d1b9eb-7a68-4a6e-9d0f-b8d2a48a2807"},"vehicle_type_id":"4","last_reported":1687532846,"current_range_meters":24000,"station_id":"ce4bhbh2rcd13ifvqepg","pricing_plan_id":"free"},{"bike_id":"fb0bbb20-22b6-4ab6-82ea-2b2f7c96fabf","system_id":"levelo_inurba_marseille","lat":43.284219,"lon":5.3497,"is_reserved":false,"is_disabled":false,"rental_uris":{"android":"levelo://app?vid=fb0bbb20-22b6-4ab6-82ea-2b2f7c96fabf","ios":"levelo://app?vid=fb0bbb20-22b6-4ab6-82ea-2b2f7c96fabf"},"vehicle_type_id":"4","last_reported":1687532846,"current_range_meters":18000,"station_id":"ce4bhbh2rcd13ifvqepg","pricing_plan_id":"free"},{"bike_id":"b06ccbb7-8985-408b-bd8d-2e98a029a3e4","system_id":"levelo_inurba_marseille","lat":43.284219,"lon":5.3497,"is_reserved":false,"is_disabled":false,"rental_uris":{"android":"levelo://app?vid=b06ccbb7-8985-408b-bd8d-2e98a029a3e4","ios":"levelo://app?vid=b06ccbb7-8985-408b-bd8d-2e98a029a3e4"},"vehicle_type_id":"4","last_reported":1687532846,"current_range_meters":21200,"station_id":"ce4bhbh2rcd13ifvqepg","pricing_plan_id":"free"},{"bike_id":"75c02a91-84d0-4c22-b34c-92635beba362","system_id":"levelo_inurba_marseille","lat":43.284219,"lon":5.3497,"is_reserved":false,"is_disabled":false,"rental_uris":{"android":"levelo://app?vid=75c02a91-84d0-4c22-b34c-92635beba362","ios":"levelo://app?vid=75c02a91-84d0-4c22-b34c-92635beba362"},"vehicle_type_id":"4","last_reported":1687532846,"current_range_meters":8400,"station_id":"ce4bhbh2rcd13ifvqepg","pricing_plan_id":"free"},{"bike_id":"067725d8-6bc9-4357-9125-2523cd206564","system_id":"levelo_inurba_marseille","lat":43.28413,"lon":5.34978,"is_reserved":false,"is_disabled":false,"rental_uris":{"android":"levelo://app?vid=067725d8-6bc9-4357-9125-2523cd206564","ios":"levelo://app?vid=067725d8-6bc9-4357-9125-2523cd206564"},"vehicle_type_id":"4","last_reported":1687532846,"current_range_meters":21200,"station_id":"ce4bhbh2rcd13ifvqepg","pricing_plan_id":"free"},{"bike_id":"aee2e40a-cce8-43c6-94a9-216ea819aa55","system_id":"levelo_inurba_marseille","lat":43.292724,"lon":5.401131,"is_reserved":false,"is_disabled":false,"rental_uris":{"android":"levelo://app?vid=aee2e40a-cce8-43c6-94a9-216ea819aa55","ios":"levelo://app?vid=aee2e40a-cce8-43c6-94a9-216ea819aa55"},"vehicle_type_id":"4","last_reported":1687532846,"current_range_meters":29200,"station_id":"ce4bh312rcd13ifvqdk0","pricing_plan_id":"free"},{"bike_id":"9b9c38da-8980-4036-a865-baecdf11ed23","system_id":"levelo_inurba_marseille","lat":43.282744,"lon":5.350533,"is_reserved":false,"is_disabled":false,"rental_uris":{"android":"levelo://app?vid=9b9c38da-8980-4036-a865-baecdf11ed23","ios":"levelo://app?vid=9b9c38da-8980-4036-a865-baecdf11ed23"},"vehicle_type_id":"4","last_reported":1687532846,"current_range_meters":26800,"station_id":"ce4bhbp2rcd13ifvqerg","pricing_plan_id":"free"},{"bike_id":"03f29601-7be2-460b-9aba-e01c87cea381","system_id":"levelo_inurba_marseille","lat":43.28274,"lon":5.35077,"is_reserved":false,"is_disabled":false,"rental_uris":{"android":"levelo://app?vid=03f29601-7be2-460b-9aba-e01c87cea381","ios":"levelo://app?vid=03f29601-7be2-460b-9aba-e01c87cea381"},"vehicle_type_id":"4","last_reported":1687532846,"current_range_meters":15200,"station_id":"ce4bhbp2rcd13ifvqerg","pricing_plan_id":"free"},{"bike_id":"98a1effb-0615-40a8-9dd6-73f49ef1b8ba","system_id":"levelo_inurba_marseille","lat":43.28271,"lon":5.35075,"is_reserved":false,"is_disabled":false,"rental_uris":{"android":"levelo://app?vid=98a1effb-0615-40a8-9dd6-73f49ef1b8ba","ios":"levelo://app?vid=98a1effb-0615-40a8-9dd6-73f49ef1b8ba"},"vehicle_type_id":"4","last_reported":1687532846,"current_range_meters":30800,"station_id":"ce4bhbp2rcd13ifvqerg","pricing_plan_id":"free"},{"bike_id":"b684bfcd-e35d-4a06-93fa-200949439813","system_id":"levelo_inurba_marseille","lat":43.282744,"lon":5.350533,"is_reserved":false,"is_disabled":false,"rental_uris":{"android":"levelo://app?vid=b684bfcd-e35d-4a06-93fa-200949439813","ios":"levelo://app?vid=b684bfcd-e35d-4a06-93fa-200949439813"},"vehicle_type_id":"4","last_reported":1687532846,"current_range_meters":31200,"station_id":"ce4bhbp2rcd13ifvqerg","pricing_plan_id":"free"},{"bike_id":"f3f01f50-baad-4def-8c8a-741783ba8bb0","system_id":"levelo_inurba_marseille","lat":43.2827,"lon":5.35073,"is_reserved":false,"is_disabled":false,"rental_uris":{"android":"levelo://app?vid=f3f01f50-baad-4def-8c8a-741783ba8bb0","ios":"levelo://app?vid=f3f01f50-baad-4def-8c8a-741783ba8bb0"},"vehicle_type_id":"4","last_reported":1687532846,"current_range_meters":25200,"station_id":"ce4bhbp2rcd13ifvqerg","pricing_plan_id":"free"},{"bike_id":"92f64840-aca1-4d0a-8396-64bd9662f360","system_id":"levelo_inurba_marseille","lat":43.28268,"lon":5.35076,"is_reserved":false,"is_disabled":false,"rental_uris":{"android":"levelo://app?vid=92f64840-aca1-4d0a-8396-64bd9662f360","ios":"levelo://app?vid=92f64840-aca1-4d0a-8396-64bd9662f360"},"vehicle_type_id":"4","last_reported":1687532846,"current_range_meters":18400,"station_id":"ce4bhbp2rcd13ifvqerg","pricing_plan_id":"free"},{"bike_id":"b71ee3cf-6bab-41a9-a90d-3560633a1a5b","system_id":"levelo_inurba_marseille","lat":43.28267,"lon":5.35071,"is_reserved":false,"is_disabled":false,"rental_uris":{"android":"levelo://app?vid=b71ee3cf-6bab-41a9-a90d-3560633a1a5b","ios":"levelo://app?vid=b71ee3cf-6bab-41a9-a90d-3560633a1a5b"},"vehicle_type_id":"4","last_reported":1687532846,"current_range_meters":31200,"station_id":"ce4bhbp2rcd13ifvqerg","pricing_plan_id":"free"},{"bike_id":"3022ece8-002b-4715-9b2c-530fe449f3d8","system_id":"levelo_inurba_marseille","lat":43.283502,"lon":5.386471,"is_reserved":false,"is_disabled":false,"rental_uris":{"android":"levelo://app?vid=3022ece8-002b-4715-9b2c-530fe449f3d8","ios":"levelo://app?vid=3022ece8-002b-4715-9b2c-530fe449f3d8"},"vehicle_type_id":"4","last_reported":1687532846,"current_range_meters":6800,"station_id":"ce4bh492rcd13ifvqdvg","pricing_plan_id":"free"},{"bike_id":"d83c0b59-ef9e-4c05-a18b-402ebbf97852","system_id":"levelo_inurba_marseille","lat":43.280382,"lon":5.369291,"is_reserved":false,"is_disabled":false,"rental_uris":{"android":"levelo://app?vid=d83c0b59-ef9e-4c05-a18b-402ebbf97852","ios":"levelo://app?vid=d83c0b59-ef9e-4c05-a18b-402ebbf97852"},"vehicle_type_id":"4","last_reported":1687532846,"current_range_meters":31200,"station_id":"ce4bha12rcd13ifvqef0","pricing_plan_id":"free"},{"bike_id":"50f3a798-ec79-4fe0-b285-1326ae52c348","system_id":"levelo_inurba_marseille","lat":43.290394,"lon":5.399781,"is_reserved":false,"is_disabled":false,"rental_uris":{"android":"levelo://app?vid=50f3a798-ec79-4fe0-b285-1326ae52c348","ios":"levelo://app?vid=50f3a798-ec79-4fe0-b285-1326ae52c348"},"vehicle_type_id":"4","last_reported":1687532846,"current_range_meters":0,"station_id":"","pricing_plan_id":"free"},{"bike_id":"89b8dae0-5652-4fa2-b965-544a2cc072de","system_id":"levelo_inurba_marseille","lat":43.296263,"lon":5.40601,"is_reserved":false,"is_disabled":false,"rental_uris":{"android":"levelo://app?vid=89b8dae0-5652-4fa2-b965-544a2cc072de","ios":"levelo://app?vid=89b8dae0-5652-4fa2-b965-544a2cc072de"},"vehicle_type_id":"4","last_reported":1687532846,"current_range_meters":12000,"station_id":"ce4bh0h2rcd13ifvqd60","pricing_plan_id":"free"},{"bike_id":"ff60adae-f71a-4e2f-9c03-c28e9ecc3c45","system_id":"levelo_inurba_marseille","lat":43.32765,"lon":5.40743,"is_reserved":false,"is_disabled":false,"rental_uris":{"android":"levelo://app?vid=ff60adae-f71a-4e2f-9c03-c28e9ecc3c45","ios":"levelo://app?vid=ff60adae-f71a-4e2f-9c03-c28e9ecc3c45"},"vehicle_type_id":"4","last_reported":1687532846,"current_range_meters":10000,"station_id":"","pricing_plan_id":"free"},{"bike_id":"3cd10ad7-a316-4ed6-a3d9-f31d3f3622ac","system_id":"levelo_inurba_marseille","lat":43.34475,"lon":5.37823,"is_reserved":false,"is_disabled":false,"rental_uris":{"android":"levelo://app?vid=3cd10ad7-a316-4ed6-a3d9-f31d3f3622ac","ios":"levelo://app?vid=3cd10ad7-a316-4ed6-a3d9-f31d3f3622ac"},"vehicle_type_id":"4","last_reported":1687532846,"current_range_meters":0,"station_id":"","pricing_plan_id":"free"},{"bike_id":"7babbe14-b96b-4eed-b6de-1cd28b11868e","system_id":"levelo_inurba_marseille","lat":43.28573,"lon":5.394992,"is_reserved":false,"is_disabled":false,"rental_uris":{"android":"levelo://app?vid=7babbe14-b96b-4eed-b6de-1cd28b11868e","ios":"levelo://app?vid=7babbe14-b96b-4eed-b6de-1cd28b11868e"},"vehicle_type_id":"4","last_reported":1687532846,"current_range_meters":9600,"station_id":"ce4bh292rcd13ifvqdg0","pricing_plan_id":"free"},{"bike_id":"03ead6c8-7b89-4c76-a2ac-ec1bd42bb8db","system_id":"levelo_inurba_marseille","lat":43.28573,"lon":5.394992,"is_reserved":false,"is_disabled":false,"rental_uris":{"android":"levelo://app?vid=03ead6c8-7b89-4c76-a2ac-ec1bd42bb8db","ios":"levelo://app?vid=03ead6c8-7b89-4c76-a2ac-ec1bd42bb8db"},"vehicle_type_id":"4","last_reported":1687532846,"current_range_meters":0,"station_id":"ce4bh292rcd13ifvqdg0","pricing_plan_id":"free"},{"bike_id":"8ba70a55-4fcb-41bb-97e4-18961bf7b561","system_id":"levelo_inurba_marseille","lat":43.32656,"lon":5.40987,"is_reserved":false,"is_disabled":false,"rental_uris":{"android":"levelo://app?vid=8ba70a55-4fcb-41bb-97e4-18961bf7b561","ios":"levelo://app?vid=8ba70a55-4fcb-41bb-97e4-18961bf7b561"},"vehicle_type_id":"4","last_reported":1687532846,"current_range_meters":26000,"station_id":"ce4bhpp2rcd13ifvqhgg","pricing_plan_id":"free"},{"bike_id":"396b44d2-0222-401b-ad95-29df0edcef80","system_id":"levelo_inurba_marseille","lat":43.32655,"lon":5.40991,"is_reserved":false,"is_disabled":false,"rental_uris":{"android":"levelo://app?vid=396b44d2-0222-401b-ad95-29df0edcef80","ios":"levelo://app?vid=396b44d2-0222-401b-ad95-29df0edcef80"},"vehicle_type_id":"4","last_reported":1687532846,"current_range_meters":20800,"station_id":"ce4bhpp2rcd13ifvqhgg","pricing_plan_id":"free"},{"bike_id":"98303904-3e78-415b-a87f-14d974bd0418","system_id":"levelo_inurba_marseille","lat":43.32657,"lon":5.4099,"is_reserved":false,"is_disabled":false,"rental_uris":{"android":"levelo://app?vid=98303904-3e78-415b-a87f-14d974bd0418","ios":"levelo://app?vid=98303904-3e78-415b-a87f-14d974bd0418"},"vehicle_type_id":"4","last_reported":1687532846,"current_range_meters":5600,"station_id":"ce4bhpp2rcd13ifvqhgg","pricing_plan_id":"free"},{"bike_id":"fc2a51fe-3bf8-46f3-9fe8-f24612d4a02a","system_id":"levelo_inurba_marseille","lat":43.326565,"lon":5.409975,"is_reserved":false,"is_disabled":false,"rental_uris":{"android":"levelo://app?vid=fc2a51fe-3bf8-46f3-9fe8-f24612d4a02a","ios":"levelo://app?vid=fc2a51fe-3bf8-46f3-9fe8-f24612d4a02a"},"vehicle_type_id":"4","last_reported":1687532846,"current_range_meters":7200,"station_id":"ce4bhpp2rcd13ifvqhgg","pricing_plan_id":"free"},{"bike_id":"65cfc88b-4e48-4fd7-b8aa-da7e4228ff23","system_id":"levelo_inurba_marseille","lat":43.32665,"lon":5.40996,"is_reserved":false,"is_disabled":false,"rental_uris":{"android":"levelo://app?vid=65cfc88b-4e48-4fd7-b8aa-da7e4228ff23","ios":"levelo://app?vid=65cfc88b-4e48-4fd7-b8aa-da7e4228ff23"},"vehicle_type_id":"4","last_reported":1687532846,"current_range_meters":0,"station_id":"ce4bhpp2rcd13ifvqhgg","pricing_plan_id":"free"},{"bike_id":"f768ccf6-8636-48a8-bc24-82fbe4a49a04","system_id":"levelo_inurba_marseille","lat":43.279087,"lon":5.380114,"is_reserved":false,"is_disabled":false,"rental_uris":{"android":"levelo://app?vid=f768ccf6-8636-48a8-bc24-82fbe4a49a04","ios":"levelo://app?vid=f768ccf6-8636-48a8-bc24-82fbe4a49a04"},"vehicle_type_id":"4","last_reported":1687532846,"current_range_meters":16800,"station_id":"ce4bhf92rcd13ifvqf50","pricing_plan_id":"free"},{"bike_id":"f47d889e-f3a7-4cf7-b89b-498d12032e77","system_id":"levelo_inurba_marseille","lat":43.29289,"lon":5.40654,"is_reserved":false,"is_disabled":false,"rental_uris":{"android":"levelo://app?vid=f47d889e-f3a7-4cf7-b89b-498d12032e77","ios":"levelo://app?vid=f47d889e-f3a7-4cf7-b89b-498d12032e77"},"vehicle_type_id":"4","last_reported":1687532846,"current_range_meters":8000,"station_id":"","pricing_plan_id":"free"},{"bike_id":"50fd953c-9754-45f4-aec7-ae52bb9eb6fe","system_id":"levelo_inurba_marseille","lat":43.287154,"lon":5.399979,"is_reserved":false,"is_disabled":false,"rental_uris":{"android":"levelo://app?vid=50fd953c-9754-45f4-aec7-ae52bb9eb6fe","ios":"levelo://app?vid=50fd953c-9754-45f4-aec7-ae52bb9eb6fe"},"vehicle_type_id":"4","last_reported":1687532846,"current_range_meters":31200,"station_id":"ce4bho92rcd13ifvqh3g","pricing_plan_id":"free"},{"bike_id":"b491ba11-4ea0-4733-bd4a-bdad7ee5e8b2","system_id":"levelo_inurba_marseille","lat":43.320045,"lon":5.415048,"is_reserved":false,"is_disabled":false,"rental_uris":{"android":"levelo://app?vid=b491ba11-4ea0-4733-bd4a-bdad7ee5e8b2","ios":"levelo://app?vid=b491ba11-4ea0-4733-bd4a-bdad7ee5e8b2"},"vehicle_type_id":"4","last_reported":1687532846,"current_range_meters":30800,"station_id":"ce4bhq92rcd13ifvqhkg","pricing_plan_id":"free"},{"bike_id":"405b7460-9ae4-4673-b66c-0fa15f26c81d","system_id":"levelo_inurba_marseille","lat":43.29958,"lon":5.41324,"is_reserved":false,"is_disabled":false,"rental_uris":{"android":"levelo://app?vid=405b7460-9ae4-4673-b66c-0fa15f26c81d","ios":"levelo://app?vid=405b7460-9ae4-4673-b66c-0fa15f26c81d"},"vehicle_type_id":"4","last_reported":1687532846,"current_range_meters":23600,"station_id":"ce4bhp12rcd13ifvqh9g","pricing_plan_id":"free"},{"bike_id":"38b7fe0f-5498-424b-98d0-b28fcf035875","system_id":"levelo_inurba_marseille","lat":43.299577,"lon":5.413277,"is_reserved":false,"is_disabled":false,"rental_uris":{"android":"levelo://app?vid=38b7fe0f-5498-424b-98d0-b28fcf035875","ios":"levelo://app?vid=38b7fe0f-5498-424b-98d0-b28fcf035875"},"vehicle_type_id":"4","last_reported":1687532846,"current_range_meters":15200,"station_id":"ce4bhp12rcd13ifvqh9g","pricing_plan_id":"free"},{"bike_id":"a0bdb3ed-a59e-4801-a9fb-c97bbdda3e74","system_id":"levelo_inurba_marseille","lat":43.320045,"lon":5.415048,"is_reserved":false,"is_disabled":false,"rental_uris":{"android":"levelo://app?vid=a0bdb3ed-a59e-4801-a9fb-c97bbdda3e74","ios":"levelo://app?vid=a0bdb3ed-a59e-4801-a9fb-c97bbdda3e74"},"vehicle_type_id":"4","last_reported":1687532846,"current_range_meters":3600,"station_id":"ce4bhq92rcd13ifvqhkg","pricing_plan_id":"free"},{"bike_id":"079d8622-10ac-4cc8-8c29-2938ff494dff","system_id":"levelo_inurba_marseille","lat":43.279742,"lon":5.38744,"is_reserved":false,"is_disabled":false,"rental_uris":{"android":"levelo://app?vid=079d8622-10ac-4cc8-8c29-2938ff494dff","ios":"levelo://app?vid=079d8622-10ac-4cc8-8c29-2938ff494dff"},"vehicle_type_id":"4","last_reported":1687532846,"current_range_meters":18400,"station_id":"ce4bhg12rcd13ifvqf80","pricing_plan_id":"free"},{"bike_id":"23fd6557-7f1d-4b47-8103-8a284a80c06c","system_id":"levelo_inurba_marseille","lat":43.292569,"lon":5.409107,"is_reserved":false,"is_disabled":false,"rental_uris":{"android":"levelo://app?vid=23fd6557-7f1d-4b47-8103-8a284a80c06c","ios":"levelo://app?vid=23fd6557-7f1d-4b47-8103-8a284a80c06c"},"vehicle_type_id":"4","last_reported":1687532846,"current_range_meters":14800,"station_id":"ce4bh192rcd13ifvqdc0","pricing_plan_id":"free"},{"bike_id":"475950cf-907d-4392-95e7-eff604a362ed","system_id":"levelo_inurba_marseille","lat":43.29256,"lon":5.40903,"is_reserved":false,"is_disabled":false,"rental_uris":{"android":"levelo://app?vid=475950cf-907d-4392-95e7-eff604a362ed","ios":"levelo://app?vid=475950cf-907d-4392-95e7-eff604a362ed"},"vehicle_type_id":"4","last_reported":1687532846,"current_range_meters":12400,"station_id":"ce4bh192rcd13ifvqdc0","pricing_plan_id":"free"},{"bike_id":"639f3dd0-e1fc-4dac-9135-b3eabe7426b9","system_id":"levelo_inurba_marseille","lat":43.29253,"lon":5.40904,"is_reserved":false,"is_disabled":false,"rental_uris":{"android":"levelo://app?vid=639f3dd0-e1fc-4dac-9135-b3eabe7426b9","ios":"levelo://app?vid=639f3dd0-e1fc-4dac-9135-b3eabe7426b9"},"vehicle_type_id":"4","last_reported":1687532846,"current_range_meters":7200,"station_id":"ce4bh192rcd13ifvqdc0","pricing_plan_id":"free"},{"bike_id":"8588f262-f8e8-462c-9aa6-6c7597f0579b","system_id":"levelo_inurba_marseille","lat":43.292569,"lon":5.409107,"is_reserved":false,"is_disabled":false,"rental_uris":{"android":"levelo://app?vid=8588f262-f8e8-462c-9aa6-6c7597f0579b","ios":"levelo://app?vid=8588f262-f8e8-462c-9aa6-6c7597f0579b"},"vehicle_type_id":"4","last_reported":1687532846,"current_range_meters":20400,"station_id":"ce4bh192rcd13ifvqdc0","pricing_plan_id":"free"},{"bike_id":"55355c8a-0526-469d-8ed0-1146f30baa8d","system_id":"levelo_inurba_marseille","lat":43.29255,"lon":5.40914,"is_reserved":false,"is_disabled":false,"rental_uris":{"android":"levelo://app?vid=55355c8a-0526-469d-8ed0-1146f30baa8d","ios":"levelo://app?vid=55355c8a-0526-469d-8ed0-1146f30baa8d"},"vehicle_type_id":"4","last_reported":1687532846,"current_range_meters":5600,"station_id":"ce4bh192rcd13ifvqdc0","pricing_plan_id":"free"},{"bike_id":"eb3285c2-e2a4-4f31-99a5-1d535ea34a14","system_id":"levelo_inurba_marseille","lat":43.29253,"lon":5.40913,"is_reserved":false,"is_disabled":false,"rental_uris":{"android":"levelo://app?vid=eb3285c2-e2a4-4f31-99a5-1d535ea34a14","ios":"levelo://app?vid=eb3285c2-e2a4-4f31-99a5-1d535ea34a14"},"vehicle_type_id":"4","last_reported":1687532846,"current_range_meters":5600,"station_id":"ce4bh192rcd13ifvqdc0","pricing_plan_id":"free"},{"bike_id":"e7ab150e-dcf6-4620-a3b5-e79fdeeb6168","system_id":"levelo_inurba_marseille","lat":43.32541,"lon":5.41449,"is_reserved":false,"is_disabled":false,"rental_uris":{"android":"levelo://app?vid=e7ab150e-dcf6-4620-a3b5-e79fdeeb6168","ios":"levelo://app?vid=e7ab150e-dcf6-4620-a3b5-e79fdeeb6168"},"vehicle_type_id":"4","last_reported":1687532846,"current_range_meters":23600,"station_id":"ce4bhq12rcd13ifvqhhg","pricing_plan_id":"free"},{"bike_id":"d3345530-d673-4d38-b723-bd38e3a12595","system_id":"levelo_inurba_marseille","lat":43.32541,"lon":5.41451,"is_reserved":false,"is_disabled":false,"rental_uris":{"android":"levelo://app?vid=d3345530-d673-4d38-b723-bd38e3a12595","ios":"levelo://app?vid=d3345530-d673-4d38-b723-bd38e3a12595"},"vehicle_type_id":"4","last_reported":1687532846,"current_range_meters":28800,"station_id":"ce4bhq12rcd13ifvqhhg","pricing_plan_id":"free"},{"bike_id":"d00cc9c4-9c4c-4fc5-bf36-e50bd080776d","system_id":"levelo_inurba_marseille","lat":43.32543,"lon":5.41452,"is_reserved":false,"is_disabled":false,"rental_uris":{"android":"levelo://app?vid=d00cc9c4-9c4c-4fc5-bf36-e50bd080776d","ios":"levelo://app?vid=d00cc9c4-9c4c-4fc5-bf36-e50bd080776d"},"vehicle_type_id":"4","last_reported":1687532846,"current_range_meters":24400,"station_id":"ce4bhq12rcd13ifvqhhg","pricing_plan_id":"free"},{"bike_id":"31ec9f26-9e48-441d-8f18-9c89c05804fe","system_id":"levelo_inurba_marseille","lat":43.32542,"lon":5.41453,"is_reserved":false,"is_disabled":false,"rental_uris":{"android":"levelo://app?vid=31ec9f26-9e48-441d-8f18-9c89c05804fe","ios":"levelo://app?vid=31ec9f26-9e48-441d-8f18-9c89c05804fe"},"vehicle_type_id":"4","last_reported":1687532846,"current_range_meters":30400,"station_id":"ce4bhq12rcd13ifvqhhg","pricing_plan_id":"free"},{"bike_id":"6911cee1-51a0-4b2b-bd85-3da5449afbf8","system_id":"levelo_inurba_marseille","lat":43.28082,"lon":5.3966,"is_reserved":false,"is_disabled":false,"rental_uris":{"android":"levelo://app?vid=6911cee1-51a0-4b2b-bd85-3da5449afbf8","ios":"levelo://app?vid=6911cee1-51a0-4b2b-bd85-3da5449afbf8"},"vehicle_type_id":"4","last_reported":1687532846,"current_range_meters":29600,"station_id":"ce4bho12rcd13ifvqh2g","pricing_plan_id":"free"},{"bike_id":"2d0bf4dc-776f-4d6a-8758-5cd028b3cf86","system_id":"levelo_inurba_marseille","lat":43.28081,"lon":5.39658,"is_reserved":false,"is_disabled":false,"rental_uris":{"android":"levelo://app?vid=2d0bf4dc-776f-4d6a-8758-5cd028b3cf86","ios":"levelo://app?vid=2d0bf4dc-776f-4d6a-8758-5cd028b3cf86"},"vehicle_type_id":"4","last_reported":1687532846,"current_range_meters":19200,"station_id":"ce4bho12rcd13ifvqh2g","pricing_plan_id":"free"},{"bike_id":"7aa5bc38-28ee-4937-8b28-610b53412751","system_id":"levelo_inurba_marseille","lat":43.2808,"lon":5.39666,"is_reserved":false,"is_disabled":false,"rental_uris":{"android":"levelo://app?vid=7aa5bc38-28ee-4937-8b28-610b53412751","ios":"levelo://app?vid=7aa5bc38-28ee-4937-8b28-610b53412751"},"vehicle_type_id":"4","last_reported":1687532846,"current_range_meters":30400,"station_id":"ce4bho12rcd13ifvqh2g","pricing_plan_id":"free"},{"bike_id":"63c46ca6-4fdb-4f4b-8b8a-d2949a82fa1f","system_id":"levelo_inurba_marseille","lat":43.278399,"lon":5.392139,"is_reserved":false,"is_disabled":false,"rental_uris":{"android":"levelo://app?vid=63c46ca6-4fdb-4f4b-8b8a-d2949a82fa1f","ios":"levelo://app?vid=63c46ca6-4fdb-4f4b-8b8a-d2949a82fa1f"},"vehicle_type_id":"4","last_reported":1687532846,"current_range_meters":25600,"station_id":"ce4bhjp2rcd13ifvqga0","pricing_plan_id":"free"},{"bike_id":"13195196-8b16-4b0e-85c0-909d3eb20ff8","system_id":"levelo_inurba_marseille","lat":43.278399,"lon":5.392139,"is_reserved":false,"is_disabled":false,"rental_uris":{"android":"levelo://app?vid=13195196-8b16-4b0e-85c0-909d3eb20ff8","ios":"levelo://app?vid=13195196-8b16-4b0e-85c0-909d3eb20ff8"},"vehicle_type_id":"4","last_reported":1687532846,"current_range_meters":26800,"station_id":"ce4bhjp2rcd13ifvqga0","pricing_plan_id":"free"},{"bike_id":"afb152bc-d383-44d2-9ae6-4c419c9d6e0d","system_id":"levelo_inurba_marseille","lat":43.278399,"lon":5.392139,"is_reserved":false,"is_disabled":false,"rental_uris":{"android":"levelo://app?vid=afb152bc-d383-44d2-9ae6-4c419c9d6e0d","ios":"levelo://app?vid=afb152bc-d383-44d2-9ae6-4c419c9d6e0d"},"vehicle_type_id":"4","last_reported":1687532846,"current_range_meters":18000,"station_id":"ce4bhjp2rcd13ifvqga0","pricing_plan_id":"free"},{"bike_id":"0c7bf18f-03ea-4058-ac7e-79bb506ee984","system_id":"levelo_inurba_marseille","lat":43.27385,"lon":5.36256,"is_reserved":false,"is_disabled":false,"rental_uris":{"android":"levelo://app?vid=0c7bf18f-03ea-4058-ac7e-79bb506ee984","ios":"levelo://app?vid=0c7bf18f-03ea-4058-ac7e-79bb506ee984"},"vehicle_type_id":"4","last_reported":1687532846,"current_range_meters":16800,"station_id":"","pricing_plan_id":"free"},{"bike_id":"c7279e1d-fe9e-4743-9f24-996696035517","system_id":"levelo_inurba_marseille","lat":43.273613,"lon":5.362705,"is_reserved":false,"is_disabled":false,"rental_uris":{"android":"levelo://app?vid=c7279e1d-fe9e-4743-9f24-996696035517","ios":"levelo://app?vid=c7279e1d-fe9e-4743-9f24-996696035517"},"vehicle_type_id":"4","last_reported":1687532846,"current_range_meters":14000,"station_id":"ce4bhbh2rcd13ifvqeo0","pricing_plan_id":"free"},{"bike_id":"bd1fc105-3bac-4f68-be91-9926b8b6834a","system_id":"levelo_inurba_marseille","lat":43.27384,"lon":5.36253,"is_reserved":false,"is_disabled":false,"rental_uris":{"android":"levelo://app?vid=bd1fc105-3bac-4f68-be91-9926b8b6834a","ios":"levelo://app?vid=bd1fc105-3bac-4f68-be91-9926b8b6834a"},"vehicle_type_id":"4","last_reported":1687532846,"current_range_meters":5600,"station_id":"","pricing_plan_id":"free"},{"bike_id":"e74898a7-cce6-4a65-b4c4-22b5126902df","system_id":"levelo_inurba_marseille","lat":43.273609,"lon":5.362708,"is_reserved":false,"is_disabled":false,"rental_uris":{"android":"levelo://app?vid=e74898a7-cce6-4a65-b4c4-22b5126902df","ios":"levelo://app?vid=e74898a7-cce6-4a65-b4c4-22b5126902df"},"vehicle_type_id":"4","last_reported":1687532846,"current_range_meters":29200,"station_id":"ce4bhbh2rcd13ifvqeo0","pricing_plan_id":"free"},{"bike_id":"72e7bc03-e234-4515-b6d8-7f510adbe886","system_id":"levelo_inurba_marseille","lat":43.27381,"lon":5.36252,"is_reserved":false,"is_disabled":false,"rental_uris":{"android":"levelo://app?vid=72e7bc03-e234-4515-b6d8-7f510adbe886","ios":"levelo://app?vid=72e7bc03-e234-4515-b6d8-7f510adbe886"},"vehicle_type_id":"4","last_reported":1687532846,"current_range_meters":31200,"station_id":"","pricing_plan_id":"free"},{"bike_id":"4bf50f3c-6d74-4ec6-b257-7ec0cbf3424a","system_id":"levelo_inurba_marseille","lat":43.273613,"lon":5.362705,"is_reserved":false,"is_disabled":false,"rental_uris":{"android":"levelo://app?vid=4bf50f3c-6d74-4ec6-b257-7ec0cbf3424a","ios":"levelo://app?vid=4bf50f3c-6d74-4ec6-b257-7ec0cbf3424a"},"vehicle_type_id":"4","last_reported":1687532846,"current_range_meters":22400,"station_id":"ce4bhbh2rcd13ifvqeo0","pricing_plan_id":"free"},{"bike_id":"419d291c-f4eb-4681-8fba-123d4de12471","system_id":"levelo_inurba_marseille","lat":43.273613,"lon":5.362705,"is_reserved":false,"is_disabled":false,"rental_uris":{"android":"levelo://app?vid=419d291c-f4eb-4681-8fba-123d4de12471","ios":"levelo://app?vid=419d291c-f4eb-4681-8fba-123d4de12471"},"vehicle_type_id":"4","last_reported":1687532846,"current_range_meters":31200,"station_id":"ce4bhbh2rcd13ifvqeo0","pricing_plan_id":"free"},{"bike_id":"30dbc02c-6c36-491e-a499-500262cb0038","system_id":"levelo_inurba_marseille","lat":43.273613,"lon":5.362705,"is_reserved":false,"is_disabled":false,"rental_uris":{"android":"levelo://app?vid=30dbc02c-6c36-491e-a499-500262cb0038","ios":"levelo://app?vid=30dbc02c-6c36-491e-a499-500262cb0038"},"vehicle_type_id":"4","last_reported":1687532846,"current_range_meters":28800,"station_id":"ce4bhbh2rcd13ifvqeo0","pricing_plan_id":"free"},{"bike_id":"bfeea1f0-6330-49bb-b8cd-0bbc04d44a48","system_id":"levelo_inurba_marseille","lat":43.2738,"lon":5.36253,"is_reserved":false,"is_disabled":false,"rental_uris":{"android":"levelo://app?vid=bfeea1f0-6330-49bb-b8cd-0bbc04d44a48","ios":"levelo://app?vid=bfeea1f0-6330-49bb-b8cd-0bbc04d44a48"},"vehicle_type_id":"4","last_reported":1687532846,"current_range_meters":0,"station_id":"ce4bhbh2rcd13ifvqeo0","pricing_plan_id":"free"},{"bike_id":"f2aa614a-e96c-4b71-b376-bc456ffaa715","system_id":"levelo_inurba_marseille","lat":43.273613,"lon":5.362705,"is_reserved":false,"is_disabled":false,"rental_uris":{"android":"levelo://app?vid=f2aa614a-e96c-4b71-b376-bc456ffaa715","ios":"levelo://app?vid=f2aa614a-e96c-4b71-b376-bc456ffaa715"},"vehicle_type_id":"4","last_reported":1687532846,"current_range_meters":31600,"station_id":"ce4bhbh2rcd13ifvqeo0","pricing_plan_id":"free"},{"bike_id":"ed3cdc09-112d-4b31-8099-c7ba8b81c2fa","system_id":"levelo_inurba_marseille","lat":43.273613,"lon":5.362705,"is_reserved":false,"is_disabled":false,"rental_uris":{"android":"levelo://app?vid=ed3cdc09-112d-4b31-8099-c7ba8b81c2fa","ios":"levelo://app?vid=ed3cdc09-112d-4b31-8099-c7ba8b81c2fa"},"vehicle_type_id":"4","last_reported":1687532846,"current_range_meters":14000,"station_id":"ce4bhbh2rcd13ifvqeo0","pricing_plan_id":"free"},{"bike_id":"63b7dc3e-cff3-4ab2-bd20-d54492e22670","system_id":"levelo_inurba_marseille","lat":43.273613,"lon":5.362705,"is_reserved":false,"is_disabled":false,"rental_uris":{"android":"levelo://app?vid=63b7dc3e-cff3-4ab2-bd20-d54492e22670","ios":"levelo://app?vid=63b7dc3e-cff3-4ab2-bd20-d54492e22670"},"vehicle_type_id":"4","last_reported":1687532846,"current_range_meters":16800,"station_id":"ce4bhbh2rcd13ifvqeo0","pricing_plan_id":"free"},{"bike_id":"6408a9e9-1abc-4e0c-b4cc-2e39d42f0f38","system_id":"levelo_inurba_marseille","lat":43.27378,"lon":5.36249,"is_reserved":false,"is_disabled":false,"rental_uris":{"android":"levelo://app?vid=6408a9e9-1abc-4e0c-b4cc-2e39d42f0f38","ios":"levelo://app?vid=6408a9e9-1abc-4e0c-b4cc-2e39d42f0f38"},"vehicle_type_id":"4","last_reported":1687532846,"current_range_meters":30800,"station_id":"ce4bhbh2rcd13ifvqeo0","pricing_plan_id":"free"},{"bike_id":"2a31247c-43af-46d3-bd9a-5a8a4ee110ae","system_id":"levelo_inurba_marseille","lat":43.273609,"lon":5.362708,"is_reserved":false,"is_disabled":false,"rental_uris":{"android":"levelo://app?vid=2a31247c-43af-46d3-bd9a-5a8a4ee110ae","ios":"levelo://app?vid=2a31247c-43af-46d3-bd9a-5a8a4ee110ae"},"vehicle_type_id":"4","last_reported":1687532846,"current_range_meters":0,"station_id":"ce4bhbh2rcd13ifvqeo0","pricing_plan_id":"free"},{"bike_id":"f6a67603-3dcc-47ec-9573-baac21887058","system_id":"levelo_inurba_marseille","lat":43.273613,"lon":5.362705,"is_reserved":false,"is_disabled":false,"rental_uris":{"android":"levelo://app?vid=f6a67603-3dcc-47ec-9573-baac21887058","ios":"levelo://app?vid=f6a67603-3dcc-47ec-9573-baac21887058"},"vehicle_type_id":"4","last_reported":1687532846,"current_range_meters":31200,"station_id":"ce4bhbh2rcd13ifvqeo0","pricing_plan_id":"free"},{"bike_id":"85db9d95-d303-4b55-9693-c3a975ead4d7","system_id":"levelo_inurba_marseille","lat":43.273613,"lon":5.362705,"is_reserved":false,"is_disabled":false,"rental_uris":{"android":"levelo://app?vid=85db9d95-d303-4b55-9693-c3a975ead4d7","ios":"levelo://app?vid=85db9d95-d303-4b55-9693-c3a975ead4d7"},"vehicle_type_id":"4","last_reported":1687532846,"current_range_meters":31600,"station_id":"ce4bhbh2rcd13ifvqeo0","pricing_plan_id":"free"},{"bike_id":"0ea27bba-e3a4-4dae-8e7f-db48fb16b261","system_id":"levelo_inurba_marseille","lat":43.273609,"lon":5.362708,"is_reserved":false,"is_disabled":false,"rental_uris":{"android":"levelo://app?vid=0ea27bba-e3a4-4dae-8e7f-db48fb16b261","ios":"levelo://app?vid=0ea27bba-e3a4-4dae-8e7f-db48fb16b261"},"vehicle_type_id":"4","last_reported":1687532846,"current_range_meters":27200,"station_id":"ce4bhbh2rcd13ifvqeo0","pricing_plan_id":"free"},{"bike_id":"2f595496-d0e0-45f7-85b8-549ec164de6a","system_id":"levelo_inurba_marseille","lat":43.273613,"lon":5.362705,"is_reserved":false,"is_disabled":false,"rental_uris":{"android":"levelo://app?vid=2f595496-d0e0-45f7-85b8-549ec164de6a","ios":"levelo://app?vid=2f595496-d0e0-45f7-85b8-549ec164de6a"},"vehicle_type_id":"4","last_reported":1687532846,"current_range_meters":31200,"station_id":"ce4bhbh2rcd13ifvqeo0","pricing_plan_id":"free"},{"bike_id":"dd46e34a-e2fd-4455-9169-e74772468c8b","system_id":"levelo_inurba_marseille","lat":43.273609,"lon":5.362708,"is_reserved":false,"is_disabled":false,"rental_uris":{"android":"levelo://app?vid=dd46e34a-e2fd-4455-9169-e74772468c8b","ios":"levelo://app?vid=dd46e34a-e2fd-4455-9169-e74772468c8b"},"vehicle_type_id":"4","last_reported":1687532846,"current_range_meters":31600,"station_id":"ce4bhbh2rcd13ifvqeo0","pricing_plan_id":"free"},{"bike_id":"fda8ca2a-dc2b-4a59-b36c-34678131d292","system_id":"levelo_inurba_marseille","lat":43.273609,"lon":5.362708,"is_reserved":false,"is_disabled":false,"rental_uris":{"android":"levelo://app?vid=fda8ca2a-dc2b-4a59-b36c-34678131d292","ios":"levelo://app?vid=fda8ca2a-dc2b-4a59-b36c-34678131d292"},"vehicle_type_id":"4","last_reported":1687532846,"current_range_meters":28800,"station_id":"ce4bhbh2rcd13ifvqeo0","pricing_plan_id":"free"},{"bike_id":"8007a5b5-ef17-442b-b401-d16f3e2817ee","system_id":"levelo_inurba_marseille","lat":43.273609,"lon":5.362708,"is_reserved":false,"is_disabled":false,"rental_uris":{"android":"levelo://app?vid=8007a5b5-ef17-442b-b401-d16f3e2817ee","ios":"levelo://app?vid=8007a5b5-ef17-442b-b401-d16f3e2817ee"},"vehicle_type_id":"4","last_reported":1687532846,"current_range_meters":27600,"station_id":"ce4bhbh2rcd13ifvqeo0","pricing_plan_id":"free"},{"bike_id":"ee53544b-a941-482b-acf6-df4d60c9fce0","system_id":"levelo_inurba_marseille","lat":43.273609,"lon":5.362708,"is_reserved":false,"is_disabled":false,"rental_uris":{"android":"levelo://app?vid=ee53544b-a941-482b-acf6-df4d60c9fce0","ios":"levelo://app?vid=ee53544b-a941-482b-acf6-df4d60c9fce0"},"vehicle_type_id":"4","last_reported":1687532846,"current_range_meters":21200,"station_id":"ce4bhbh2rcd13ifvqeo0","pricing_plan_id":"free"},{"bike_id":"3a6d3d99-d029-4ba7-87bb-f6ec06fdeb6d","system_id":"levelo_inurba_marseille","lat":43.33617,"lon":5.41038,"is_reserved":false,"is_disabled":false,"rental_uris":{"android":"levelo://app?vid=3a6d3d99-d029-4ba7-87bb-f6ec06fdeb6d","ios":"levelo://app?vid=3a6d3d99-d029-4ba7-87bb-f6ec06fdeb6d"},"vehicle_type_id":"4","last_reported":1687532846,"current_range_meters":28000,"station_id":"ce4bhqh2rcd13ifvqhmg","pricing_plan_id":"free"},{"bike_id":"9b6c54c0-4d25-47ce-9c15-25eb72ea7e95","system_id":"levelo_inurba_marseille","lat":43.317121,"lon":5.423936,"is_reserved":false,"is_disabled":false,"rental_uris":{"android":"levelo://app?vid=9b6c54c0-4d25-47ce-9c15-25eb72ea7e95","ios":"levelo://app?vid=9b6c54c0-4d25-47ce-9c15-25eb72ea7e95"},"vehicle_type_id":"4","last_reported":1687532846,"current_range_meters":24800,"station_id":"ce4bhp92rcd13ifvqhbg","pricing_plan_id":"free"},{"bike_id":"ef72ab91-2892-4738-9fef-266c11f889f3","system_id":"levelo_inurba_marseille","lat":43.310785,"lon":5.424305,"is_reserved":false,"is_disabled":false,"rental_uris":{"android":"levelo://app?vid=ef72ab91-2892-4738-9fef-266c11f889f3","ios":"levelo://app?vid=ef72ab91-2892-4738-9fef-266c11f889f3"},"vehicle_type_id":"4","last_reported":1687532846,"current_range_meters":20400,"station_id":"ce4bhp92rcd13ifvqhag","pricing_plan_id":"free"},{"bike_id":"d2dd41f5-a4b8-46de-ac72-b3bbf27aca53","system_id":"levelo_inurba_marseille","lat":43.317121,"lon":5.423936,"is_reserved":false,"is_disabled":false,"rental_uris":{"android":"levelo://app?vid=d2dd41f5-a4b8-46de-ac72-b3bbf27aca53","ios":"levelo://app?vid=d2dd41f5-a4b8-46de-ac72-b3bbf27aca53"},"vehicle_type_id":"4","last_reported":1687532846,"current_range_meters":30400,"station_id":"ce4bhp92rcd13ifvqhbg","pricing_plan_id":"free"},{"bike_id":"01208fbe-9431-4ed6-ac1f-e90329c35bdb","system_id":"levelo_inurba_marseille","lat":43.26955,"lon":5.36633,"is_reserved":false,"is_disabled":false,"rental_uris":{"android":"levelo://app?vid=01208fbe-9431-4ed6-ac1f-e90329c35bdb","ios":"levelo://app?vid=01208fbe-9431-4ed6-ac1f-e90329c35bdb"},"vehicle_type_id":"4","last_reported":1687532846,"current_range_meters":7200,"station_id":"","pricing_plan_id":"free"},{"bike_id":"763368fc-da42-4aa8-b21c-2aa0435a4a97","system_id":"levelo_inurba_marseille","lat":43.304096,"lon":5.425385,"is_reserved":false,"is_disabled":false,"rental_uris":{"android":"levelo://app?vid=763368fc-da42-4aa8-b21c-2aa0435a4a97","ios":"levelo://app?vid=763368fc-da42-4aa8-b21c-2aa0435a4a97"},"vehicle_type_id":"4","last_reported":1687532846,"current_range_meters":29600,"station_id":"ce4bhoh2rcd13ifvqh6g","pricing_plan_id":"free"},{"bike_id":"4fa21102-9c5c-4785-8da0-3d7f957b0c31","system_id":"levelo_inurba_marseille","lat":43.272124,"lon":5.391768,"is_reserved":false,"is_disabled":false,"rental_uris":{"android":"levelo://app?vid=4fa21102-9c5c-4785-8da0-3d7f957b0c31","ios":"levelo://app?vid=4fa21102-9c5c-4785-8da0-3d7f957b0c31"},"vehicle_type_id":"4","last_reported":1687532846,"current_range_meters":28400,"station_id":"ce4bhhp2rcd13ifvqfm0","pricing_plan_id":"free"},{"bike_id":"d69fed3a-efe9-46fb-b1dc-1240b8978d3e","system_id":"levelo_inurba_marseille","lat":43.272116,"lon":5.391763,"is_reserved":false,"is_disabled":false,"rental_uris":{"android":"levelo://app?vid=d69fed3a-efe9-46fb-b1dc-1240b8978d3e","ios":"levelo://app?vid=d69fed3a-efe9-46fb-b1dc-1240b8978d3e"},"vehicle_type_id":"4","last_reported":1687532846,"current_range_meters":30000,"station_id":"ce4bhhp2rcd13ifvqfm0","pricing_plan_id":"free"},{"bike_id":"be5dc7c4-02c1-4cb5-8b57-e581158a06c0","system_id":"levelo_inurba_marseille","lat":43.27203,"lon":5.39191,"is_reserved":false,"is_disabled":false,"rental_uris":{"android":"levelo://app?vid=be5dc7c4-02c1-4cb5-8b57-e581158a06c0","ios":"levelo://app?vid=be5dc7c4-02c1-4cb5-8b57-e581158a06c0"},"vehicle_type_id":"4","last_reported":1687532846,"current_range_meters":23600,"station_id":"ce4bhhp2rcd13ifvqfm0","pricing_plan_id":"free"},{"bike_id":"49ab409f-fa57-4046-ba0e-1a34adf52115","system_id":"levelo_inurba_marseille","lat":43.26933,"lon":5.38155,"is_reserved":false,"is_disabled":false,"rental_uris":{"android":"levelo://app?vid=49ab409f-fa57-4046-ba0e-1a34adf52115","ios":"levelo://app?vid=49ab409f-fa57-4046-ba0e-1a34adf52115"},"vehicle_type_id":"4","last_reported":1687532846,"current_range_meters":4000,"station_id":"","pricing_plan_id":"free"},{"bike_id":"6bae4f67-5d67-4eb0-a75b-ce4ea62eb850","system_id":"levelo_inurba_marseille","lat":43.26933,"lon":5.38922,"is_reserved":false,"is_disabled":false,"rental_uris":{"android":"levelo://app?vid=6bae4f67-5d67-4eb0-a75b-ce4ea62eb850","ios":"levelo://app?vid=6bae4f67-5d67-4eb0-a75b-ce4ea62eb850"},"vehicle_type_id":"4","last_reported":1687532846,"current_range_meters":28800,"station_id":"ce4bhhh2rcd13ifvqfl0","pricing_plan_id":"free"},{"bike_id":"4e295c9e-8d19-4a89-b33f-6bbba23fd55c","system_id":"levelo_inurba_marseille","lat":43.269319,"lon":5.389397,"is_reserved":false,"is_disabled":false,"rental_uris":{"android":"levelo://app?vid=4e295c9e-8d19-4a89-b33f-6bbba23fd55c","ios":"levelo://app?vid=4e295c9e-8d19-4a89-b33f-6bbba23fd55c"},"vehicle_type_id":"4","last_reported":1687532846,"current_range_meters":3600,"station_id":"ce4bhhh2rcd13ifvqfl0","pricing_plan_id":"free"},