{"last_updated":1750011179,"ttl":60,"version":"2.2","data":{"bikes":[{"bike_id":"b31f0139-170f-4194-984f-4386218a1e9d","system_id":"levelo_inurba_marseille","lat":43.33771,"lon":5.37424,"is_reserved":false,"is_disabled":true,"rental_uris":{"android":"levelo://app?vid=b31f0139-170f-4194-984f-4386218a1e9d","ios":"levelo://app?vid=b31f0139-170f-4194-984f-4386218a1e9d"},"vehicle_type_id":"4","last_reported":1750011179,"current_range_meters":0,"station_id":"","pricing_plan_id":"cebpf4jnsgd1na2vs0mg"},{"bike_id":"1acfb620-cad7-48c0-8901-d7a5b74a5b65","system_id":"levelo_inurba_marseille","lat":43.33751,"lon":5.37456,"is_reserved":false,"is_disabled":true,"rental_uris":{"android":"levelo://app?vid=1acfb620-cad7-48c0-8901-d7a5b74a5b65","ios":"levelo://app?vid=1acfb620-cad7-48c0-8901-d7a5b74a5b65"},"vehicle_type_id":"4","last_reported":1750011179,"current_range_meters":0,"station_id":"","pricing_plan_id":"cebpf4jnsgd1na2vs0mg"},{"bike_id":"bf89d78c-eb96-40d5-beb0-f402ef102cc1","system_id":"levelo_inurba_marseille","lat":43.337444,"lon":5.374475,"is_reserved":false,"is_disabled":true,"rental_uris":{"android":"levelo://app?vid=bf89d78c-eb96-40d5-beb0-f402ef102cc1","ios":"levelo://app?vid=bf89d78c-eb96-40d5-beb0-f402ef102cc1"},"vehicle_type_id":"4","last_reported":1750011179,"current_range_meters":0,"station_id":"","pricing_plan_id":"cebpf4jnsgd1na2vs0mg"},{"bike_id":"3d6ef34c-1ec6-4ed3-88e4-07359f729c42","system_id":"levelo_inurba_marseille","lat":43.27579,"lon":5.43394,"is_reserved":false,"is_disabled":true,"rental_uris":{"android":"levelo://app?vid=3d6ef34c-1ec6-4ed3-88e4-07359f729c42","ios":"levelo://app?vid=3d6ef34c-1ec6-4ed3-88e4-07359f729c42"},"vehicle_type_id":"4","last_reported":1750011179,"current_range_meters":0,"station_id":"","pricing_plan_id":"cebpf4jnsgd1na2vs0mg"},{"bike_id":"5077581b-cebb-46fc-ba69-4fa8272d4810","system_id":"levelo_inurba_marseille","lat":43.21375,"lon":5.35503,"is_reserved":false,"is_disabled":true,"rental_uris":{"android":"levelo://app?vid=5077581b-cebb-46fc-ba69-4fa8272d4810","ios":"levelo://app?vid=5077581b-cebb-46fc-ba69-4fa8272d4810"},"vehicle_type_id":"4","last_reported":1750011179,"current_range_meters":0,"station_id":"","pricing_plan_id":"cebpf4jnsgd1na2vs0mg"},{"bike_id":"b700b739-d84e-40eb-a0b6-5cbfa9485ee2","system_id":"levelo_inurba_marseille","lat":43.278448,"lon":5.421852,"is_reserved":false,"is_disabled":true,"rental_uris":{"android":"levelo://app?vid=b700b739-d84e-40eb-a0b6-5cbfa9485ee2","ios":"levelo://app?vid=b700b739-d84e-40eb-a0b6-5cbfa9485ee2"},"vehicle_type_id":"4","last_reported":1750011179,"current_range_meters":0,"station_id":"","pricing_plan_id":"cebpf4jnsgd1na2vs0mg"},{"bike_id":"97421c04-2630-4fc1-9da9-b17d88602c5f","system_id":"levelo_inurba_marseille","lat":43.337682,"lon":5.374519,"is_reserved":false,"is_disabled":true,"rental_uris":{"android":"levelo://app?vid=97421c04-2630-4fc1-9da9-b17d88602c5f","ios":"levelo://app?vid=97421c04-2630-4fc1-9da9-b17d88602c5f"},"vehicle_type_id":"4","last_reported":1750011179,"current_range_meters":0,"station_id":"","pricing_plan_id":"cebpf4jnsgd1na2vs0mg"},{"bike_id":"ac061617-9a3c-4de6-bd1d-cee5ca15e0fc","system_id":"levelo_inurba_marseille","lat":43.282958,"lon":5.387522,"is_reserved":false,"is_disabled":true,"rental_uris":{"android":"levelo://app?vid=ac061617-9a3c-4de6-bd1d-cee5ca15e0fc","ios":"levelo://app?vid=ac061617-9a3c-4de6-bd1d-cee5ca15e0fc"},"vehicle_type_id":"4","last_reported":1750011179,"current_range_meters":0,"station_id":"","pricing_plan_id":"cebpf4jnsgd1na2vs0mg"},{"bike_id":"ebf89cec-3e1a-4275-9cd0-a3d19d69b5cf","system_id":"levelo_inurba_marseille","lat":43.28002,"lon":5.38472,"is_reserved":false,"is_disabled":true,"rental_uris":{"android":"levelo://app?vid=ebf89cec-3e1a-4275-9cd0-a3d19d69b5cf","ios":"levelo://app?vid=ebf89cec-3e1a-4275-9cd0-a3d19d69b5cf"},"vehicle_type_id":"4","last_reported":1750011179,"current_range_meters":0,"station_id":"","pricing_plan_id":"cebpf4jnsgd1na2vs0mg"},{"bike_id":"8d60347d-541c-40fb-90ca-203bf6bd520a","system_id":"levelo_inurba_marseille","lat":43.271251,"lon":5.363913,"is_reserved":false,"is_disabled":true,"rental_uris":{"android":"levelo://app?vid=8d60347d-541c-40fb-90ca-203bf6bd520a","ios":"levelo://app?vid=8d60347d-541c-40fb-90ca-203bf6bd520a"},"vehicle_type_id":"4","last_reported":1750011179,"current_range_meters":0,"station_id":"","pricing_plan_id":"cebpf4jnsgd1na2vs0mg"},{"bike_id":"98afa141-26c5-45c8-a0a6-15fd54ac73ab","system_id":"levelo_inurba_marseille","lat":43.21531,"lon":5.34738,"is_reserved":false,"is_disabled":true,"rental_uris":{"android":"levelo://app?vid=98afa141-26c5-45c8-a0a6-15fd54ac73ab","ios":"levelo://app?vid=98afa141-26c5-45c8-a0a6-15fd54ac73ab"},"vehicle_type_id":"4","last_reported":1750011179,"current_range_meters":0,"station_id":"","pricing_plan_id":"cebpf4jnsgd1na2vs0mg"},{"bike_id":"492f4bbd-1190-4ef2-b66a-479ffe91b09b","system_id":"levelo_inurba_marseille","lat":43.337444,"lon":5.374475,"is_reserved":false,"is_disabled":true,"rental_uris":{"android":"levelo://app?vid=492f4bbd-1190-4ef2-b66a-479ffe91b09b","ios":"levelo://app?vid=492f4bbd-1190-4ef2-b66a-479ffe91b09b"},"vehicle_type_id":"4","last_reported":1750011179,"current_range_meters":0,"station_id":"","pricing_plan_id":"cebpf4jnsgd1na2vs0mg"},{"bike_id":"a9b6bf99-4070-4437-bb20-72962ae30b90","system_id":"levelo_inurba_marseille","lat":43.27455,"lon":5.36381,"is_reserved":false,"is_disabled":true,"rental_uris":{"android":"levelo://app?vid=a9b6bf99-4070-4437-bb20-72962ae30b90","ios":"levelo://app?vid=a9b6bf99-4070-4437-bb20-72962ae30b90"},"vehicle_type_id":"4","last_reported":1750011179,"current_range_meters":0,"station_id":"","pricing_plan_id":"cebpf4jnsgd1na2vs0mg"},{"bike_id":"087db791-b9f1-4647-a1a3-1a3763076e03","system_id":"levelo_inurba_marseille","lat":43.2762,"lon":5.36108,"is_reserved":false,"is_disabled":true,"rental_uris":{"android":"levelo://app?vid=087db791-b9f1-4647-a1a3-1a3763076e03","ios":"levelo://app?vid=087db791-b9f1-4647-a1a3-1a3763076e03"},"vehicle_type_id":"4","last_reported":1750011179,"current_range_meters":0,"station_id":"ce4bgj92rcd13ifvqbe0","pricing_plan_id":"cebpf4jnsgd1na2vs0mg"},{"bike_id":"926571e9-0887-4407-8a1a-e5ecccdd0a23","system_id":"levelo_inurba_marseille","lat":43.30455,"lon":5.37907,"is_reserved":false,"is_disabled":true,"rental_uris":{"android":"levelo://app?vid=926571e9-0887-4407-8a1a-e5ecccdd0a23","ios":"levelo://app?vid=926571e9-0887-4407-8a1a-e5ecccdd0a23"},"vehicle_type_id":"4","last_reported":1750011179,"current_range_meters":0,"station_id":"ce4bgup2rcd13ifvqcn0","pricing_plan_id":"cebpf4jnsgd1na2vs0mg"},{"bike_id":"a43662fd-7cda-4544-b421-c948ab84d448","system_id":"levelo_inurba_marseille","lat":43.3024,"lon":5.40039,"is_reserved":false,"is_disabled":true,"rental_uris":{"android":"levelo://app?vid=a43662fd-7cda-4544-b421-c948ab84d448","ios":"levelo://app?vid=a43662fd-7cda-4544-b421-c948ab84d448"},"vehicle_type_id":"4","last_reported":1750011179,"current_range_meters":0,"station_id":"ce4bgvh2rcd13ifvqcs0","pricing_plan_id":"cebpf4jnsgd1na2vs0mg"},{"bike_id":"a38ae4d9-8370-4b0c-9a3c-b1f90cb36f33","system_id":"levelo_inurba_marseille","lat":43.29517,"lon":5.39403,"is_reserved":false,"is_disabled":true,"rental_uris":{"android":"levelo://app?vid=a38ae4d9-8370-4b0c-9a3c-b1f90cb36f33","ios":"levelo://app?vid=a38ae4d9-8370-4b0c-9a3c-b1f90cb36f33"},"vehicle_type_id":"4","last_reported":1750011179,"current_range_meters":0,"station_id":"ce4bh292rcd13ifvqdf0","pricing_plan_id":"cebpf4jnsgd1na2vs0mg"},{"bike_id":"5096cabc-ab4d-4442-87ec-5c42d282d932","system_id":"levelo_inurba_marseille","lat":43.29276,"lon":5.40113,"is_reserved":false,"is_disabled":true,"rental_uris":{"android":"levelo://app?vid=5096cabc-ab4d-4442-87ec-5c42d282d932","ios":"levelo://app?vid=5096cabc-ab4d-4442-87ec-5c42d282d932"},"vehicle_type_id":"4","last_reported":1750011179,"current_range_meters":0,"station_id":"ce4bh312rcd13ifvqdk0","pricing_plan_id":"cebpf4jnsgd1na2vs0mg"},{"bike_id":"eeac80a3-d692-4eb6-8015-ddc8fd43fb06","system_id":"levelo_inurba_marseille","lat":43.28477,"lon":5.3841,"is_reserved":false,"is_disabled":true,"rental_uris":{"android":"levelo://app?vid=eeac80a3-d692-4eb6-8015-ddc8fd43fb06","ios":"levelo://app?vid=eeac80a3-d692-4eb6-8015-ddc8fd43fb06"},"vehicle_type_id":"4","last_reported":1750011179,"current_range_meters":0,"station_id":"ce4bh512rcd13ifvqe3g","pricing_plan_id":"cebpf4jnsgd1na2vs0mg"},{"bike_id":"98c2601f-fbc8-47bb-92b9-2bc2fc03b9f5","system_id":"levelo_inurba_marseille","lat":43.260223,"lon":5.375553,"is_reserved":false,"is_disabled":true,"rental_uris":{"android":"levelo://app?vid=98c2601f-fbc8-47bb-92b9-2bc2fc03b9f5","ios":"levelo://app?vid=98c2601f-fbc8-47bb-92b9-2bc2fc03b9f5"},"vehicle_type_id":"4","last_reported":1750011179,"current_range_meters":0,"station_id":"ce4bhgh2rcd13ifvqfa0","pricing_plan_id":"cebpf4jnsgd1na2vs0mg"},{"bike_id":"229d678c-b546-4f58-9dbd-f58bada72eb0","system_id":"levelo_inurba_marseille","lat":43.27213,"lon":5.39179,"is_reserved":false,"is_disabled":true,"rental_uris":{"android":"levelo://app?vid=229d678c-b546-4f58-9dbd-f58bada72eb0","ios":"levelo://app?vid=229d678c-b546-4f58-9dbd-f58bada72eb0"},"vehicle_type_id":"4","last_reported":1750011179,"current_range_meters":0,"station_id":"ce4bhhp2rcd13ifvqfm0","pricing_plan_id":"cebpf4jnsgd1na2vs0mg"},{"bike_id":"1a053efc-6835-4fe3-8b2d-e42486c2efbb","system_id":"levelo_inurba_marseille","lat":43.23167,"lon":5.437,"is_reserved":false,"is_disabled":true,"rental_uris":{"android":"levelo://app?vid=1a053efc-6835-4fe3-8b2d-e42486c2efbb","ios":"levelo://app?vid=1a053efc-6835-4fe3-8b2d-e42486c2efbb"},"vehicle_type_id":"4","last_reported":1750011179,"current_range_meters":0,"station_id":"ce4bhmp2rcd13ifvqgog","pricing_plan_id":"cebpf4jnsgd1na2vs0mg"},{"bike_id":"9aea8b8c-7d2c-47e6-9e92-fd12236b644f","system_id":"levelo_inurba_marseille","lat":43.2175,"lon":5.34603,"is_reserved":false,"is_disabled":true,"rental_uris":{"android":"levelo://app?vid=9aea8b8c-7d2c-47e6-9e92-fd12236b644f","ios":"levelo://app?vid=9aea8b8c-7d2c-47e6-9e92-fd12236b644f"},"vehicle_type_id":"4","last_reported":1750011179,"current_range_meters":0,"station_id":"st_cvj6r9ubvosntc0bgbag","pricing_plan_id":"cebpf4jnsgd1na2vs0mg"},{"bike_id":"9c6b6fda-54ac-455a-af83-fd64e746d7f8","system_id":"levelo_inurba_marseille","lat":43.304,"lon":5.40107,"is_reserved":false,"is_disabled":true,"rental_uris":{"android":"levelo://app?vid=9c6b6fda-54ac-455a-af83-fd64e746d7f8","ios":"levelo://app?vid=9c6b6fda-54ac-455a-af83-fd64e746d7f8"},"vehicle_type_id":"4","last_reported":1750011179,"current_range_meters":400,"station_id":"","pricing_plan_id":"cebpf4jnsgd1na2vs0mg"},{"bike_id":"3549c417-798a-436a-aa41-121a861b96ac","system_id":"levelo_inurba_marseille","lat":43.29422,"lon":5.38622,"is_reserved":false,"is_disabled":true,"rental_uris":{"android":"levelo://app?vid=3549c417-798a-436a-aa41-121a861b96ac","ios":"levelo://app?vid=3549c417-798a-436a-aa41-121a861b96ac"},"vehicle_type_id":"4","last_reported":1750011179,"current_range_meters":400,"station_id":"ce4bh2h2rcd13ifvqdh0","pricing_plan_id":"cebpf4jnsgd1na2vs0mg"},{"bike_id":"108ec32b-e109-4022-882b-0366e381f7d9","system_id":"levelo_inurba_marseille","lat":43.262335,"lon":5.404507,"is_reserved":false,"is_disabled":true,"rental_uris":{"android":"levelo://app?vid=108ec32b-e109-4022-882b-0366e381f7d9","ios":"levelo://app?vid=108ec32b-e109-4022-882b-0366e381f7d9"},"vehicle_type_id":"4","last_reported":1750011179,"current_range_meters":400,"station_id":"ce4bhmh2rcd13ifvqgmg","pricing_plan_id":"cebpf4jnsgd1na2vs0mg"},{"bike_id":"2a83ae2f-a99a-4a3e-9402-1e60d522e115","system_id":"levelo_inurba_marseille","lat":43.21193,"lon":5.35075,"is_reserved":false,"is_disabled":true,"rental_uris":{"android":"levelo://app?vid=2a83ae2f-a99a-4a3e-9402-1e60d522e115","ios":"levelo://app?vid=2a83ae2f-a99a-4a3e-9402-1e60d522e115"},"vehicle_type_id":"4","last_reported":1750011179,"current_range_meters":400,"station_id":"st_cvj6sg6p6f1abm77japg","pricing_plan_id":"cebpf4jnsgd1na2vs0mg"},{"bike_id":"db44adc3-05fc-4613-a668-5d6bbeee6e27","system_id":"levelo_inurba_marseille","lat":43.31082,"lon":5.38343,"is_reserved":false,"is_disabled":true,"rental_uris":{"android":"levelo://app?vid=db44adc3-05fc-4613-a668-5d6bbeee6e27","ios":"levelo://app?vid=db44adc3-05fc-4613-a668-5d6bbeee6e27"},"vehicle_type_id":"4","last_reported":1750011179,"current_range_meters":800,"station_id":"ce4bgv92rcd13ifvqcr0","pricing_plan_id":"cebpf4jnsgd1na2vs0mg"},{"bike_id":"375cf6e2-9084-4098-ab27-8d4a8a4f6660","system_id":"levelo_inurba_marseille","lat":43.225072,"lon":5.347849,"is_reserved":false,"is_disabled":true,"rental_uris":{"android":"levelo://app?vid=375cf6e2-9084-4098-ab27-8d4a8a4f6660","ios":"levelo://app?vid=375cf6e2-9084-4098-ab27-8d4a8a4f6660"},"vehicle_type_id":"4","last_reported":1750011179,"current_range_meters":1200,"station_id":"","pricing_plan_id":"cebpf4jnsgd1na2vs0mg"},{"bike_id":"954660c5-4bee-4faf-afce-5c011770dd21","system_id":"levelo_inurba_marseille","lat":43.29795,"lon":5.38102,"is_reserved":false,"is_disabled":true,"rental_uris":{"android":"levelo://app?vid=954660c5-4bee-4faf-afce-5c011770dd21","ios":"levelo://app?vid=954660c5-4bee-4faf-afce-5c011770dd21"},"vehicle_type_id":"4","last_reported":1750011179,"current_range_meters":1200,"station_id":"ce4bgip2rcd13ifvqbb0","pricing_plan_id":"cebpf4jnsgd1na2vs0mg"},{"bike_id":"2b0ea2a5-3d65-4c59-9896-8bd7591f0d29","system_id":"levelo_inurba_marseille","lat":43.27378,"lon":5.3625,"is_reserved":false,"is_disabled":true,"rental_uris":{"android":"levelo://app?vid=2b0ea2a5-3d65-4c59-9896-8bd7591f0d29","ios":"levelo://app?vid=2b0ea2a5-3d65-4c59-9896-8bd7591f0d29"},"vehicle_type_id":"4","last_reported":1750011179,"current_range_meters":1600,"station_id":"ce4bhbh2rcd13ifvqeo0","pricing_plan_id":"cebpf4jnsgd1na2vs0mg"},{"bike_id":"c9cbd06b-f88f-4ec1-82d9-a687811909f0","system_id":"levelo_inurba_marseille","lat":43.28265,"lon":5.35061,"is_reserved":false,"is_disabled":true,"rental_uris":{"android":"levelo://app?vid=c9cbd06b-f88f-4ec1-82d9-a687811909f0","ios":"levelo://app?vid=c9cbd06b-f88f-4ec1-82d9-a687811909f0"},"vehicle_type_id":"4","last_reported":1750011179,"current_range_meters":1600,"station_id":"ce4bhbp2rcd13ifvqerg","pricing_plan_id":"cebpf4jnsgd1na2vs0mg"},{"bike_id":"a2db9df0-4192-4d67-9d9b-8d4d5e6cbbf7","system_id":"levelo_inurba_marseille","lat":43.27973,"lon":5.38737,"is_reserved":false,"is_disabled":false,"rental_uris":{"android":"levelo://app?vid=a2db9df0-4192-4d67-9d9b-8d4d5e6cbbf7","ios":"levelo://app?vid=a2db9df0-4192-4d67-9d9b-8d4d5e6cbbf7"},"vehicle_type_id":"4","last_reported":1750011179,"current_range_meters":3200,"station_id":"ce4bhg12rcd13ifvqf80","pricing_plan_id":"cebpf4jnsgd1na2vs0mg"},{"bike_id":"2ae05012-acf6-42d2-b524-11c34724226c","system_id":"levelo_inurba_marseille","lat":43.295948,"lon":5.381018,"is_reserved":false,"is_disabled":false,"rental_uris":{"android":"levelo://app?vid=2ae05012-acf6-42d2-b524-11c34724226c","ios":"levelo://app?vid=2ae05012-acf6-42d2-b524-11c34724226c"},"vehicle_type_id":"4","last_reported":1750011179,"current_range_meters":3600,"station_id":"ce4bgl12rcd13ifvqbo0","pricing_plan_id":"cebpf4jnsgd1na2vs0mg"},{"bike_id":"19f36125-5356-4c09-86ba-b894f9e8107a","system_id":"levelo_inurba_marseille","lat":43.29179,"lon":5.37533,"is_reserved":false,"is_disabled":false,"rental_uris":{"android":"levelo://app?vid=19f36125-5356-4c09-86ba-b894f9e8107a","ios":"levelo://app?vid=19f36125-5356-4c09-86ba-b894f9e8107a"},"vehicle_type_id":"4","last_reported":1750011179,"current_range_meters":4000,"station_id":"","pricing_plan_id":"cebpf4jnsgd1na2vs0mg"},{"bike_id":"c0fa8115-bb8e-44d1-abfa-1f8325a14ba1","system_id":"levelo_inurba_marseille","lat":43.30618,"lon":5.38333,"is_reserved":false,"is_disabled":false,"rental_uris":{"android":"levelo://app?vid=c0fa8115-bb8e-44d1-abfa-1f8325a14ba1","ios":"levelo://app?vid=c0fa8115-bb8e-44d1-abfa-1f8325a14ba1"},"vehicle_type_id":"4","last_reported":1750011179,"current_range_meters":4000,"station_id":"","pricing_plan_id":"cebpf4jnsgd1na2vs0mg"},{"bike_id":"2a605d31-68ff-43ed-b6f3-63b169f7310e","system_id":"levelo_inurba_marseille","lat":43.31498,"lon":5.37286,"is_reserved":false,"is_disabled":false,"rental_uris":{"android":"levelo://app?vid=2a605d31-68ff-43ed-b6f3-63b169f7310e","ios":"levelo://app?vid=2a605d31-68ff-43ed-b6f3-63b169f7310e"},"vehicle_type_id":"4","last_reported":1750011179,"current_range_meters":4000,"station_id":"ce4bgt12rcd13ifvqcd0","pricing_plan_id":"cebpf4jnsgd1na2vs0mg"},{"bike_id":"fa05ef90-2f96-42e6-976a-fbe90644d3f8","system_id":"levelo_inurba_marseille","lat":43.31322,"lon":5.3969,"is_reserved":false,"is_disabled":false,"rental_uris":{"android":"levelo://app?vid=fa05ef90-2f96-42e6-976a-fbe90644d3f8","ios":"levelo://app?vid=fa05ef90-2f96-42e6-976a-fbe90644d3f8"},"vehicle_type_id":"4","last_reported":1750011179,"current_range_meters":4000,"station_id":"ce4bgvp2rcd13ifvqcu0","pricing_plan_id":"cebpf4jnsgd1na2vs0mg"},{"bike_id":"fa6689e2-810e-41a0-bd2d-9dd7ea1c1180","system_id":"levelo_inurba_marseille","lat":43.28336,"lon":5.38103,"is_reserved":false,"is_disabled":false,"rental_uris":{"android":"levelo://app?vid=fa6689e2-810e-41a0-bd2d-9dd7ea1c1180","ios":"levelo://app?vid=fa6689e2-810e-41a0-bd2d-9dd7ea1c1180"},"vehicle_type_id":"4","last_reported":1750011179,"current_range_meters":4000,"station_id":"ce4bh412rcd13ifvqdr0","pricing_plan_id":"cebpf4jnsgd1na2vs0mg"},{"bike_id":"2ab31527-f915-4286-b3a0-0beafd2cdd50","system_id":"levelo_inurba_marseille","lat":43.30028,"lon":5.37018,"is_reserved":false,"is_disabled":false,"rental_uris":{"android":"levelo://app?vid=2ab31527-f915-4286-b3a0-0beafd2cdd50","ios":"levelo://app?vid=2ab31527-f915-4286-b3a0-0beafd2cdd50"},"vehicle_type_id":"4","last_reported":1750011179,"current_range_meters":4400,"station_id":"","pricing_plan_id":"cebpf4jnsgd1na2vs0mg"},{"bike_id":"d8268567-7cc0-46a6-b22a-431887393e17","system_id":"levelo_inurba_marseille","lat":43.31167,"lon":5.38724,"is_reserved":false,"is_disabled":false,"rental_uris":{"android":"levelo://app?vid=d8268567-7cc0-46a6-b22a-431887393e17","ios":"levelo://app?vid=d8268567-7cc0-46a6-b22a-431887393e17"},"vehicle_type_id":"4","last_reported":1750011179,"current_range_meters":4400,"station_id":"ce4bgv12rcd13ifvqcp0","pricing_plan_id":"cebpf4jnsgd1na2vs0mg"},{"bike_id":"609bf5b6-b65d-43a3-a5fc-65a92c3604a2","system_id":"levelo_inurba_marseille","lat":43.25496,"lon":5.37663,"is_reserved":false,"is_disabled":false,"rental_uris":{"android":"levelo://app?vid=609bf5b6-b65d-43a3-a5fc-65a92c3604a2","ios":"levelo://app?vid=609bf5b6-b65d-43a3-a5fc-65a92c3604a2"},"vehicle_type_id":"4","last_reported":1750011179,"current_range_meters":4400,"station_id":"ce4bhh12rcd13ifvqff0","pricing_plan_id":"cebpf4jnsgd1na2vs0mg"},{"bike_id":"fa3cfc4d-0123-4526-a8de-b8f6bb7c6101","system_id":"levelo_inurba_marseille","lat":43.28724,"lon":5.38917,"is_reserved":false,"is_disabled":false,"rental_uris":{"android":"levelo://app?vid=fa3cfc4d-0123-4526-a8de-b8f6bb7c6101","ios":"levelo://app?vid=fa3cfc4d-0123-4526-a8de-b8f6bb7c6101"},"vehicle_type_id":"4","last_reported":1750011179,"current_range_meters":4800,"station_id":"","pricing_plan_id":"cebpf4jnsgd1na2vs0mg"},{"bike_id":"c0392f87-130a-4793-af00-7f06d2c4cb01","system_id":"levelo_inurba_marseille","lat":43.2837,"lon":5.3863,"is_reserved":false,"is_disabled":false,"rental_uris":{"android":"levelo://app?vid=c0392f87-130a-4793-af00-7f06d2c4cb01","ios":"levelo://app?vid=c0392f87-130a-4793-af00-7f06d2c4cb01"},"vehicle_type_id":"4","last_reported":1750011179,"current_range_meters":4800,"station_id":"ce4bh492rcd13ifvqdvg","pricing_plan_id":"cebpf4jnsgd1na2vs0mg"},{"bike_id":"7c3f2b93-e173-4d2f-be4a-a8687f2cb95f","system_id":"levelo_inurba_marseille","lat":43.29619,"lon":5.37154,"is_reserved":false,"is_disabled":false,"rental_uris":{"android":"levelo://app?vid=7c3f2b93-e173-4d2f-be4a-a8687f2cb95f","ios":"levelo://app?vid=7c3f2b93-e173-4d2f-be4a-a8687f2cb95f"},"vehicle_type_id":"4","last_reported":1750011179,"current_range_meters":5600,"station_id":"ce4bgnh2rcd13ifvqc0g","pricing_plan_id":"cebpf4jnsgd1na2vs0mg"},{"bike_id":"afb51891-7343-440c-920e-05a16359c2ff","system_id":"levelo_inurba_marseille","lat":43.29569,"lon":5.39951,"is_reserved":false,"is_disabled":false,"rental_uris":{"android":"levelo://app?vid=afb51891-7343-440c-920e-05a16359c2ff","ios":"levelo://app?vid=afb51891-7343-440c-920e-05a16359c2ff"},"vehicle_type_id":"4","last_reported":1750011179,"current_range_meters":5600,"station_id":"ce4bh312rcd13ifvqdj0","pricing_plan_id":"cebpf4jnsgd1na2vs0mg"},{"bike_id":"16f2ef34-1fc5-46ca-afb5-9cce11cd1cb5","system_id":"levelo_inurba_marseille","lat":43.26768,"lon":5.3944,"is_reserved":false,"is_disabled":false,"rental_uris":{"android":"levelo://app?vid=16f2ef34-1fc5-46ca-afb5-9cce11cd1cb5","ios":"levelo://app?vid=16f2ef34-1fc5-46ca-afb5-9cce11cd1cb5"},"vehicle_type_id":"4","last_reported":1750011179,"current_range_meters":5600,"station_id":"ce4bhh12rcd13ifvqfg0","pricing_plan_id":"cebpf4jnsgd1na2vs0mg"},{"bike_id":"357558f0-8b10-41dc-8e13-5c366ecd37b5","system_id":"levelo_inurba_marseille","lat":43.21179,"lon":5.35079,"is_reserved":false,"is_disabled":false,"rental_uris":{"android":"levelo://app?vid=357558f0-8b10-41dc-8e13-5c366ecd37b5","ios":"levelo://app?vid=357558f0-8b10-41dc-8e13-5c366ecd37b5"},"vehicle_type_id":"4","last_reported":1750011179,"current_range_meters":5600,"station_id":"st_cvj6sg6p6f1abm77japg","pricing_plan_id":"cebpf4jnsgd1na2vs0mg"},{"bike_id":"688f9a58-4937-4304-9d12-43324ddebe75","system_id":"levelo_inurba_marseille","lat":43.27608,"lon":5.36111,"is_reserved":false,"is_disabled":false,"rental_uris":{"android":"levelo://app?vid=688f9a58-4937-4304-9d12-43324ddebe75","ios":"levelo://app?vid=688f9a58-4937-4304-9d12-43324ddebe75"},"vehicle_type_id":"4","last_reported":1750011179,"current_range_meters":6000,"station_id":"ce4bgj92rcd13ifvqbe0","pricing_plan_id":"cebpf4jnsgd1na2vs0mg"},{"bike_id":"3dc4f831-dc38-4fd1-91c1-74c6c49fefae","system_id":"levelo_inurba_marseille","lat":43.29622,"lon":5.37159,"is_reserved":false,"is_disabled":false,"rental_uris":{"android":"levelo://app?vid=3dc4f831-dc38-4fd1-91c1-74c6c49fefae","ios":"levelo://app?vid=3dc4f831-dc38-4fd1-91c1-74c6c49fefae"},"vehicle_type_id":"4","last_reported":1750011179,"current_range_meters":6400,"station_id":"ce4bgnh2rcd13ifvqc0g","pricing_plan_id":"cebpf4jnsgd1na2vs0mg"},{"bike_id":"98188997-2bb2-4976-9df6-486350f8d8cf","system_id":"levelo_inurba_marseille","lat":43.31719,"lon":5.42393,"is_reserved":false,"is_disabled":false,"rental_uris":{"android":"levelo://app?vid=98188997-2bb2-4976-9df6-486350f8d8cf","ios":"levelo://app?vid=98188997-2bb2-4976-9df6-486350f8d8cf"},"vehicle_type_id":"4","last_reported":1750011179,"current_range_meters":6400,"station_id":"ce4bhp92rcd13ifvqhbg","pricing_plan_id":"cebpf4jnsgd1na2vs0mg"},{"bike_id":"58cadb36-f6f2-4dff-aa62-163f99f3d134","system_id":"levelo_inurba_marseille","lat":43.31484,"lon":5.37304,"is_reserved":false,"is_disabled":false,"rental_uris":{"android":"levelo://app?vid=58cadb36-f6f2-4dff-aa62-163f99f3d134","ios":"levelo://app?vid=58cadb36-f6f2-4dff-aa62-163f99f3d134"},"vehicle_type_id":"4","last_reported":1750011179,"current_range_meters":6800,"station_id":"ce4bgt12rcd13ifvqcd0","pricing_plan_id":"cebpf4jnsgd1na2vs0mg"},{"bike_id":"effec905-fead-4ba4-aadd-74e9658f5c11","system_id":"levelo_inurba_marseille","lat":43.29268,"lon":5.38433,"is_reserved":false,"is_disabled":false,"rental_uris":{"android":"levelo://app?vid=effec905-fead-4ba4-aadd-74e9658f5c11","ios":"levelo://app?vid=effec905-fead-4ba4-aadd-74e9658f5c11"},"vehicle_type_id":"4","last_reported":1750011179,"current_range_meters":6800,"station_id":"ce4bh692rcd13ifvqea0","pricing_plan_id":"cebpf4jnsgd1na2vs0mg"},{"bike_id":"2411608e-040a-4b77-8c10-9fd71aa88b19","system_id":"levelo_inurba_marseille","lat":43.24073,"lon":5.37761,"is_reserved":false,"is_disabled":false,"rental_uris":{"android":"levelo://app?vid=2411608e-040a-4b77-8c10-9fd71aa88b19","ios":"levelo://app?vid=2411608e-040a-4b77-8c10-9fd71aa88b19"},"vehicle_type_id":"4","last_reported":1750011179,"current_range_meters":6800,"station_id":"ce4bhnp2rcd13ifvqgvg","pricing_plan_id":"cebpf4jnsgd1na2vs0mg"},{"bike_id":"6f951ace-68c6-4e7a-97d5-0daa4666f16d","system_id":"levelo_inurba_marseille","lat":43.29623,"lon":5.37719,"is_reserved":false,"is_disabled":false,"rental_uris":{"android":"levelo://app?vid=6f951ace-68c6-4e7a-97d5-0daa4666f16d","ios":"levelo://app?vid=6f951ace-68c6-4e7a-97d5-0daa4666f16d"},"vehicle_type_id":"4","last_reported":1750011179,"current_range_meters":7200,"station_id":"ce4bgi92rcd13ifvqb90","pricing_plan_id":"cebpf4jnsgd1na2vs0mg"},{"bike_id":"bbb05127-3461-411b-b53c-ab75ec6a6a84","system_id":"levelo_inurba_marseille","lat":43.31077,"lon":5.38346,"is_reserved":false,"is_disabled":false,"rental_uris":{"android":"levelo://app?vid=bbb05127-3461-411b-b53c-ab75ec6a6a84","ios":"levelo://app?vid=bbb05127-3461-411b-b53c-ab75ec6a6a84"},"vehicle_type_id":"4","last_reported":1750011179,"current_range_meters":7200,"station_id":"ce4bgv92rcd13ifvqcr0","pricing_plan_id":"cebpf4jnsgd1na2vs0mg"},{"bike_id":"1832e110-b916-4383-b07b-1f4612cfb1aa","system_id":"levelo_inurba_marseille","lat":43.29054,"lon":5.37178,"is_reserved":false,"is_disabled":false,"rental_uris":{"android":"levelo://app?vid=1832e110-b916-4383-b07b-1f4612cfb1aa","ios":"levelo://app?vid=1832e110-b916-4383-b07b-1f4612cfb1aa"},"vehicle_type_id":"4","last_reported":1750011179,"current_range_meters":7200,"station_id":"ce4bh5p2rcd13ifvqe4g","pricing_plan_id":"cebpf4jnsgd1na2vs0mg"},{"bike_id":"c04198bf-81c0-4c1e-aa21-fabf5af7c1fe","system_id":"levelo_inurba_marseille","lat":43.29276,"lon":5.38432,"is_reserved":false,"is_disabled":false,"rental_uris":{"android":"levelo://app?vid=c04198bf-81c0-4c1e-aa21-fabf5af7c1fe","ios":"levelo://app?vid=c04198bf-81c0-4c1e-aa21-fabf5af7c1fe"},"vehicle_type_id":"4","last_reported":1750011179,"current_range_meters":7200,"station_id":"ce4bh692rcd13ifvqea0","pricing_plan_id":"cebpf4jnsgd1na2vs0mg"},{"bike_id":"1ac9bb60-d0fa-4c83-9b6f-40e2166ba474","system_id":"levelo_inurba_marseille","lat":43.27823,"lon":5.40709,"is_reserved":false,"is_disabled":false,"rental_uris":{"android":"levelo://app?vid=1ac9bb60-d0fa-4c83-9b6f-40e2166ba474","ios":"levelo://app?vid=1ac9bb60-d0fa-4c83-9b6f-40e2166ba474"},"vehicle_type_id":"4","last_reported":1750011179,"current_range_meters":7200,"station_id":"ce4bhnh2rcd13ifvqgtg","pricing_plan_id":"cebpf4jnsgd1na2vs0mg"},{"bike_id":"d8b9b35c-c567-4c31-8526-a5c5d5bdd613","system_id":"levelo_inurba_marseille","lat":43.29365,"lon":5.37278,"is_reserved":false,"is_disabled":false,"rental_uris":{"android":"levelo://app?vid=d8b9b35c-c567-4c31-8526-a5c5d5bdd613","ios":"levelo://app?vid=d8b9b35c-c567-4c31-8526-a5c5d5bdd613"},"vehicle_type_id":"4","last_reported":1750011179,"current_range_meters":8000,"station_id":"","pricing_plan_id":"cebpf4jnsgd1na2vs0mg"},{"bike_id":"3a4bc336-ab61-430a-a05f-66e875b33a3a","system_id":"levelo_inurba_marseille","lat":43.31481,"lon":5.37304,"is_reserved":false,"is_disabled":false,"rental_uris":{"android":"levelo://app?vid=3a4bc336-ab61-430a-a05f-66e875b33a3a","ios":"levelo://app?vid=3a4bc336-ab61-430a-a05f-66e875b33a3a"},"vehicle_type_id":"4","last_reported":1750011179,"current_range_meters":8400,"station_id":"ce4bgt12rcd13ifvqcd0","pricing_plan_id":"cebpf4jnsgd1na2vs0mg"},{"bike_id":"88a18792-1509-4076-95d3-923deceaa968","system_id":"levelo_inurba_marseille","lat":43.29029,"lon":5.38638,"is_reserved":false,"is_disabled":false,"rental_uris":{"android":"levelo://app?vid=88a18792-1509-4076-95d3-923deceaa968","ios":"levelo://app?vid=88a18792-1509-4076-95d3-923deceaa968"},"vehicle_type_id":"4","last_reported":1750011179,"current_range_meters":8400,"station_id":"ce4bh4p2rcd13ifvqe0g","pricing_plan_id":"cebpf4jnsgd1na2vs0mg"},{"bike_id":"35547007-e06c-4c11-a52e-3fa2af3ce978","system_id":"levelo_inurba_marseille","lat":43.28614,"lon":5.35105,"is_reserved":false,"is_disabled":false,"rental_uris":{"android":"levelo://app?vid=35547007-e06c-4c11-a52e-3fa2af3ce978","ios":"levelo://app?vid=35547007-e06c-4c11-a52e-3fa2af3ce978"},"vehicle_type_id":"4","last_reported":1750011179,"current_range_meters":8400,"station_id":"ce4bhch2rcd13ifvqeug","pricing_plan_id":"cebpf4jnsgd1na2vs0mg"},{"bike_id":"778ec718-9fc3-4714-9d6e-b9897e3cb0df","system_id":"levelo_inurba_marseille","lat":43.30307,"lon":5.39212,"is_reserved":false,"is_disabled":false,"rental_uris":{"android":"levelo://app?vid=778ec718-9fc3-4714-9d6e-b9897e3cb0df","ios":"levelo://app?vid=778ec718-9fc3-4714-9d6e-b9897e3cb0df"},"vehicle_type_id":"4","last_reported":1750011179,"current_range_meters":8800,"station_id":"ce4bgkh2rcd13ifvqbk0","pricing_plan_id":"cebpf4jnsgd1na2vs0mg"},{"bike_id":"c6c7c085-e9d8-4fd4-baef-90a4ca7d698f","system_id":"levelo_inurba_marseille","lat":43.30281,"lon":5.4009,"is_reserved":false,"is_disabled":false,"rental_uris":{"android":"levelo://app?vid=c6c7c085-e9d8-4fd4-baef-90a4ca7d698f","ios":"levelo://app?vid=c6c7c085-e9d8-4fd4-baef-90a4ca7d698f"},"vehicle_type_id":"4","last_reported":1750011179,"current_range_meters":8800,"station_id":"ce4bgvh2rcd13ifvqcs0","pricing_plan_id":"cebpf4jnsgd1na2vs0mg"},{"bike_id":"eee37b92-da8f-4086-9175-f308ed9ddece","system_id":"levelo_inurba_marseille","lat":43.21184,"lon":5.35069,"is_reserved":false,"is_disabled":false,"rental_uris":{"android":"levelo://app?vid=eee37b92-da8f-4086-9175-f308ed9ddece","ios":"levelo://app?vid=eee37b92-da8f-4086-9175-f308ed9ddece"},"vehicle_type_id":"4","last_reported":1750011179,"current_range_meters":8800,"station_id":"st_cvj6sg6p6f1abm77japg","pricing_plan_id":"cebpf4jnsgd1na2vs0mg"},{"bike_id":"275fae90-d601-4ef8-87d7-6aa8403d0ad5","system_id":"levelo_inurba_marseille","lat":43.21746,"lon":5.34604,"is_reserved":false,"is_disabled":false,"rental_uris":{"android":"levelo://app?vid=275fae90-d601-4ef8-87d7-6aa8403d0ad5","ios":"levelo://app?vid=275fae90-d601-4ef8-87d7-6aa8403d0ad5"},"vehicle_type_id":"4","last_reported":1750011179,"current_range_meters":9200,"station_id":"","pricing_plan_id":"cebpf4jnsgd1na2vs0mg"},{"bike_id":"138ceb4c-42fd-4844-89df-0be72a1bcff4","system_id":"levelo_inurba_marseille","lat":43.27449,"lon":5.42427,"is_reserved":false,"is_disabled":false,"rental_uris":{"android":"levelo://app?vid=138ceb4c-42fd-4844-89df-0be72a1bcff4","ios":"levelo://app?vid=138ceb4c-42fd-4844-89df-0be72a1bcff4"},"vehicle_type_id":"4","last_reported":1750011179,"current_range_meters":9200,"station_id":"","pricing_plan_id":"cebpf4jnsgd1na2vs0mg"},{"bike_id":"2f0afe3d-02bb-409b-a415-aae3030b4b1c","system_id":"levelo_inurba_marseille","lat":43.313225,"lon":5.396921,"is_reserved":false,"is_disabled":false,"rental_uris":{"android":"levelo://app?vid=2f0afe3d-02bb-409b-a415-aae3030b4b1c","ios":"levelo://app?vid=2f0afe3d-02bb-409b-a415-aae3030b4b1c"},"vehicle_type_id":"4","last_reported":1750011179,"current_range_meters":9200,"station_id":"ce4bgvp2rcd13ifvqcu0","pricing_plan_id":"cebpf4jnsgd1na2vs0mg"},{"bike_id":"b114b698-5176-479d-804e-aa587a7e4c57","system_id":"levelo_inurba_marseille","lat":43.31329,"lon":5.39691,"is_reserved":false,"is_disabled":false,"rental_uris":{"android":"levelo://app?vid=b114b698-5176-479d-804e-aa587a7e4c57","ios":"levelo://app?vid=b114b698-5176-479d-804e-aa587a7e4c57"},"vehicle_type_id":"4","last_reported":1750011179,"current_range_meters":9200,"station_id":"ce4bgvp2rcd13ifvqcu0","pricing_plan_id":"cebpf4jnsgd1na2vs0mg"},{"bike_id":"ac466850-9a61-464b-b6df-c6eef6e07763","system_id":"levelo_inurba_marseille","lat":43.21757,"lon":5.34582,"is_reserved":false,"is_disabled":true,"rental_uris":{"android":"levelo://app?vid=ac466850-9a61-464b-b6df-c6eef6e07763","ios":"levelo://app?vid=ac466850-9a61-464b-b6df-c6eef6e07763"},"vehicle_type_id":"4","last_reported":1750011179,"current_range_meters":9200,"station_id":"st_cvj6r9ubvosntc0bgbag","pricing_plan_id":"cebpf4jnsgd1na2vs0mg"},{"bike_id":"387d1fed-118c-437b-bd55-020621253e35","system_id":"levelo_inurba_marseille","lat":43.241006,"lon":5.36829,"is_reserved":false,"is_disabled":false,"rental_uris":{"android":"levelo://app?vid=387d1fed-118c-437b-bd55-020621253e35","ios":"levelo://app?vid=387d1fed-118c-437b-bd55-020621253e35"},"vehicle_type_id":"4","last_reported":1750011179,"current_range_meters":9600,"station_id":"","pricing_plan_id":"cebpf4jnsgd1na2vs0mg"},{"bike_id":"43c7bb85-ee4b-4fc4-bf1e-9cfc5ad467de","system_id":"levelo_inurba_marseille","lat":43.29416,"lon":5.38625,"is_reserved":false,"is_disabled":false,"rental_uris":{"android":"levelo://app?vid=43c7bb85-ee4b-4fc4-bf1e-9cfc5ad467de","ios":"levelo://app?vid=43c7bb85-ee4b-4fc4-bf1e-9cfc5ad467de"},"vehicle_type_id":"4","last_reported":1750011179,"current_range_meters":9600,"station_id":"ce4bh2h2rcd13ifvqdh0","pricing_plan_id":"cebpf4jnsgd1na2vs0mg"},{"bike_id":"fc6eeb15-c047-41e6-af14-edc0dcd87508","system_id":"levelo_inurba_marseille","lat":43.25736,"lon":5.41062,"is_reserved":false,"is_disabled":false,"rental_uris":{"android":"levelo://app?vid=fc6eeb15-c047-41e6-af14-edc0dcd87508","ios":"levelo://app?vid=fc6eeb15-c047-41e6-af14-edc0dcd87508"},"vehicle_type_id":"4","last_reported":1750011179,"current_range_meters":9600,"station_id":"ce4bhkp2rcd13ifvqgd0","pricing_plan_id":"cebpf4jnsgd1na2vs0mg"},{"bike_id":"4bc78641-4d17-41ec-8d24-5a883318f70f","system_id":"levelo_inurba_marseille","lat":43.29549,"lon":5.42291,"is_reserved":false,"is_disabled":false,"rental_uris":{"android":"levelo://app?vid=4bc78641-4d17-41ec-8d24-5a883318f70f","ios":"levelo://app?vid=4bc78641-4d17-41ec-8d24-5a883318f70f"},"vehicle_type_id":"4","last_reported":1750011179,"current_range_meters":9600,"station_id":"ce4bhph2rcd13ifvqhdg","pricing_plan_id":"cebpf4jnsgd1na2vs0mg"},{"bike_id":"d97dc030-8405-4eb1-abbf-845730c8e3dc","system_id":"levelo_inurba_marseille","lat":43.21191,"lon":5.3509,"is_reserved":false,"is_disabled":false,"rental_uris":{"android":"levelo://app?vid=d97dc030-8405-4eb1-abbf-845730c8e3dc","ios":"levelo://app?vid=d97dc030-8405-4eb1-abbf-845730c8e3dc"},"vehicle_type_id":"4","last_reported":1750011179,"current_range_meters":9600,"station_id":"st_cvj6sg6p6f1abm77japg","pricing_plan_id":"cebpf4jnsgd1na2vs0mg"},{"bike_id":"c7364910-c5b6-463c-a8db-fdceb3a7742c","system_id":"levelo_inurba_marseille","lat":43.29203,"lon":5.38457,"is_reserved":false,"is_disabled":false,"rental_uris":{"android":"levelo://app?vid=c7364910-c5b6-463c-a8db-fdceb3a7742c","ios":"levelo://app?vid=c7364910-c5b6-463c-a8db-fdceb3a7742c"},"vehicle_type_id":"4","last_reported":1750011179,"current_range_meters":10000,"station_id":"","pricing_plan_id":"cebpf4jnsgd1na2vs0mg"},{"bike_id":"c70160c8-010c-406b-964e-e04564a0ce82","system_id":"levelo_inurba_marseille","lat":43.29044,"lon":5.39942,"is_reserved":false,"is_disabled":false,"rental_uris":{"android":"levelo://app?vid=c70160c8-010c-406b-964e-e04564a0ce82","ios":"levelo://app?vid=c70160c8-010c-406b-964e-e04564a0ce82"},"vehicle_type_id":"4","last_reported":1750011179,"current_range_meters":10000,"station_id":"ce4bh392rcd13ifvqdm0","pricing_plan_id":"cebpf4jnsgd1na2vs0mg"},{"bike_id":"d466030e-288a-4dc6-befe-6e0661cea7cf","system_id":"levelo_inurba_marseille","lat":43.28035,"lon":5.36942,"is_reserved":false,"is_disabled":false,"rental_uris":{"android":"levelo://app?vid=d466030e-288a-4dc6-befe-6e0661cea7cf","ios":"levelo://app?vid=d466030e-288a-4dc6-befe-6e0661cea7cf"},"vehicle_type_id":"4","last_reported":1750011179,"current_range_meters":10000,"station_id":"ce4bha12rcd13ifvqef0","pricing_plan_id":"cebpf4jnsgd1na2vs0mg"},{"bike_id":"0b798a99-9c12-4b74-983d-a1d333e24bd7","system_id":"levelo_inurba_marseille","lat":43.28619,"lon":5.35104,"is_reserved":false,"is_disabled":false,"rental_uris":{"android":"levelo://app?vid=0b798a99-9c12-4b74-983d-a1d333e24bd7","ios":"levelo://app?vid=0b798a99-9c12-4b74-983d-a1d333e24bd7"},"vehicle_type_id":"4","last_reported":1750011179,"current_range_meters":10000,"station_id":"ce4bhch2rcd13ifvqeug","pricing_plan_id":"cebpf4jnsgd1na2vs0mg"},{"bike_id":"bac285e7-c068-4764-9660-eb5a5218ed83","system_id":"levelo_inurba_marseille","lat":43.32115,"lon":5.36766,"is_reserved":false,"is_disabled":false,"rental_uris":{"android":"levelo://app?vid=bac285e7-c068-4764-9660-eb5a5218ed83","ios":"levelo://app?vid=bac285e7-c068-4764-9660-eb5a5218ed83"},"vehicle_type_id":"4","last_reported":1750011179,"current_range_meters":10000,"station_id":"ce4bhrh2rcd13ifvqhug","pricing_plan_id":"cebpf4jnsgd1na2vs0mg"},{"bike_id":"a112d53b-ad54-4060-8f8e-fad339f5de6e","system_id":"levelo_inurba_marseille","lat":43.21199,"lon":5.35067,"is_reserved":false,"is_disabled":false,"rental_uris":{"android":"levelo://app?vid=a112d53b-ad54-4060-8f8e-fad339f5de6e","ios":"levelo://app?vid=a112d53b-ad54-4060-8f8e-fad339f5de6e"},"vehicle_type_id":"4","last_reported":1750011179,"current_range_meters":10000,"station_id":"st_cvj6sg6p6f1abm77japg","pricing_plan_id":"cebpf4jnsgd1na2vs0mg"},{"bike_id":"d8a4f7b4-052d-4bce-ae83-b9167311e0ea","system_id":"levelo_inurba_marseille","lat":43.21188,"lon":5.35074,"is_reserved":false,"is_disabled":false,"rental_uris":{"android":"levelo://app?vid=d8a4f7b4-052d-4bce-ae83-b9167311e0ea","ios":"levelo://app?vid=d8a4f7b4-052d-4bce-ae83-b9167311e0ea"},"vehicle_type_id":"4","last_reported":1750011179,"current_range_meters":10000,"station_id":"st_cvj6sg6p6f1abm77japg","pricing_plan_id":"cebpf4jnsgd1na2vs0mg"},{"bike_id":"7b20ab34-1f23-40f3-b6ae-8edd853c6307","system_id":"levelo_inurba_marseille","lat":43.29704,"lon":5.36618,"is_reserved":false,"is_disabled":false,"rental_uris":{"android":"levelo://app?vid=7b20ab34-1f23-40f3-b6ae-8edd853c6307","ios":"levelo://app?vid=7b20ab34-1f23-40f3-b6ae-8edd853c6307"},"vehicle_type_id":"4","last_reported":1750011179,"current_range_meters":10800,"station_id":"ce4bgn12rcd13ifvqbt0","pricing_plan_id":"cebpf4jnsgd1na2vs0mg"},{"bike_id":"2957e62e-2618-4bcc-ad72-7d1bfb6befd3","system_id":"levelo_inurba_marseille","lat":43.29449,"lon":5.38799,"is_reserved":false,"is_disabled":false,"rental_uris":{"android":"levelo://app?vid=2957e62e-2618-4bcc-ad72-7d1bfb6befd3","ios":"levelo://app?vid=2957e62e-2618-4bcc-ad72-7d1bfb6befd3"},"vehicle_type_id":"4","last_reported":1750011179,"current_range_meters":11200,"station_id":"","pricing_plan_id":"cebpf4jnsgd1na2vs0mg"},{"bike_id":"bf61062e-31f1-4a6f-8966-c2c74d688473","system_id":"levelo_inurba_marseille","lat":43.26965,"lon":5.39105,"is_reserved":false,"is_disabled":false,"rental_uris":{"android":"levelo://app?vid=bf61062e-31f1-4a6f-8966-c2c74d688473","ios":"levelo://app?vid=bf61062e-31f1-4a6f-8966-c2c74d688473"},"vehicle_type_id":"4","last_reported":1750011179,"current_range_meters":11200,"station_id":"","pricing_plan_id":"cebpf4jnsgd1na2vs0mg"},{"bike_id":"8f67339b-ac40-4bbf-82d5-606f44f22f76","system_id":"levelo_inurba_marseille","lat":43.30303,"lon":5.39209,"is_reserved":false,"is_disabled":false,"rental_uris":{"android":"levelo://app?vid=8f67339b-ac40-4bbf-82d5-606f44f22f76","ios":"levelo://app?vid=8f67339b-ac40-4bbf-82d5-606f44f22f76"},"vehicle_type_id":"4","last_reported":1750011179,"current_range_meters":11200,"station_id":"ce4bgkh2rcd13ifvqbk0","pricing_plan_id":"cebpf4jnsgd1na2vs0mg"},{"bike_id":"9a43b84d-6cf1-4a38-beb9-87f8b42f5867","system_id":"levelo_inurba_marseille","lat":43.27176,"lon":5.40996,"is_reserved":false,"is_disabled":false,"rental_uris":{"android":"levelo://app?vid=9a43b84d-6cf1-4a38-beb9-87f8b42f5867","ios":"levelo://app?vid=9a43b84d-6cf1-4a38-beb9-87f8b42f5867"},"vehicle_type_id":"4","last_reported":1750011179,"current_range_meters":11200,"station_id":"ce4bhl12rcd13ifvqgf0","pricing_plan_id":"cebpf4jnsgd1na2vs0mg"},{"bike_id":"3b62bc9e-1f9e-448d-9aed-48705165ccb0","system_id":"levelo_inurba_marseille","lat":43.26212,"lon":5.40535,"is_reserved":false,"is_disabled":false,"rental_uris":{"android":"levelo://app?vid=3b62bc9e-1f9e-448d-9aed-48705165ccb0","ios":"levelo://app?vid=3b62bc9e-1f9e-448d-9aed-48705165ccb0"},"vehicle_type_id":"4","last_reported":1750011179,"current_range_meters":11200,"station_id":"ce4bhmh2rcd13ifvqgmg","pricing_plan_id":"cebpf4jnsgd1na2vs0mg"},{"bike_id":"6b5de963-a57e-4f78-a3c4-3d898c54c045","system_id":"levelo_inurba_marseille","lat":43.231912,"lon":5.40004,"is_reserved":false,"is_disabled":false,"rental_uris":{"android":"levelo://app?vid=6b5de963-a57e-4f78-a3c4-3d898c54c045","ios":"levelo://app?vid=6b5de963-a57e-4f78-a3c4-3d898c54c045"},"vehicle_type_id":"4","last_reported":1750011179,"current_range_meters":11200,"station_id":"ce4bhn12rcd13ifvqgqg","pricing_plan_id":"cebpf4jnsgd1na2vs0mg"},{"bike_id":"bad824e5-b994-4dfd-b957-52ab71e0110b","system_id":"levelo_inurba_marseille","lat":43.318897,"lon":5.407423,"is_reserved":false,"is_disabled":false,"rental_uris":{"android":"levelo://app?vid=bad824e5-b994-4dfd-b957-52ab71e0110b","ios":"levelo://app?vid=bad824e5-b994-4dfd-b957-52ab71e0110b"},"vehicle_type_id":"4","last_reported":1750011179,"current_range_meters":11200,"station_id":"ce4bhq12rcd13ifvqhig","pricing_plan_id":"cebpf4jnsgd1na2vs0mg"},{"bike_id":"7e70f3fe-44fb-4e7b-ad88-a6a3314e84a0","system_id":"levelo_inurba_marseille","lat":43.30152,"lon":5.38777,"is_reserved":false,"is_disabled":false,"rental_uris":{"android":"levelo://app?vid=7e70f3fe-44fb-4e7b-ad88-a6a3314e84a0","ios":"levelo://app?vid=7e70f3fe-44fb-4e7b-ad88-a6a3314e84a0"},"vehicle_type_id":"4","last_reported":1750011179,"current_range_meters":11600,"station_id":"ce4bghh2rcd13ifvqb60","pricing_plan_id":"cebpf4jnsgd1na2vs0mg"},{"bike_id":"4bc0026e-95c4-46ee-8e2f-cb98d1f4f426","system_id":"levelo_inurba_marseille","lat":43.3014,"lon":5.38774,"is_reserved":false,"is_disabled":false,"rental_uris":{"android":"levelo://app?vid=4bc0026e-95c4-46ee-8e2f-cb98d1f4f426","ios":"levelo://app?vid=4bc0026e-95c4-46ee-8e2f-cb98d1f4f426"},"vehicle_type_id":"4","last_reported":1750011179,"current_range_meters":11600,"station_id":"ce4bghh2rcd13ifvqb60","pricing_plan_id":"cebpf4jnsgd1na2vs0mg"},{"bike_id":"7f366ca8-525b-4d7a-b871-2cb6dce50520","system_id":"levelo_inurba_marseille","lat":43.26059,"lon":5.39386,"is_reserved":false,"is_disabled":false,"rental_uris":{"android":"levelo://app?vid=7f366ca8-525b-4d7a-b871-2cb6dce50520","ios":"levelo://app?vid=7f366ca8-525b-4d7a-b871-2cb6dce50520"},"vehicle_type_id":"4","last_reported":1750011179,"current_range_meters":11600,"station_id":"ce4bhh92rcd13ifvqfj0","pricing_plan_id":"cebpf4jnsgd1na2vs0mg"},{"bike_id":"3c4d4cd2-050e-46ac-85d6-64baa38305d9","system_id":"levelo_inurba_marseille","lat":43.23201,"lon":5.35561,"is_reserved":false,"is_disabled":false,"rental_uris":{"android":"levelo://app?vid=3c4d4cd2-050e-46ac-85d6-64baa38305d9","ios":"levelo://app?vid=3c4d4cd2-050e-46ac-85d6-64baa38305d9"},"vehicle_type_id":"4","last_reported":1750011179,"current_range_meters":11600,"station_id":"ce4bhu92rcd13ifvqi70","pricing_plan_id":"cebpf4jnsgd1na2vs0mg"},{"bike_id":"3fdb5adb-8fa9-48d9-95bb-bfc2bca594fc","system_id":"levelo_inurba_marseille","lat":43.29935,"lon":5.36549,"is_reserved":false,"is_disabled":false,"rental_uris":{"android":"levelo://app?vid=3fdb5adb-8fa9-48d9-95bb-bfc2bca594fc","ios":"levelo://app?vid=3fdb5adb-8fa9-48d9-95bb-bfc2bca594fc"},"vehicle_type_id":"4","last_reported":1750011179,"current_range_meters":12000,"station_id":"ce4bgm92rcd13ifvqbr0","pricing_plan_id":"cebpf4jnsgd1na2vs0mg"},{"bike_id":"724caf0a-a332-4c79-8ade-ed4cdbc1a79b","system_id":"levelo_inurba_marseille","lat":43.313235,"lon":5.397085,"is_reserved":false,"is_disabled":false,"rental_uris":{"android":"levelo://app?vid=724caf0a-a332-4c79-8ade-ed4cdbc1a79b","ios":"levelo://app?vid=724caf0a-a332-4c79-8ade-ed4cdbc1a79b"},"vehicle_type_id":"4","last_reported":1750011179,"current_range_meters":12000,"station_id":"ce4bgvp2rcd13ifvqcu0","pricing_plan_id":"cebpf4jnsgd1na2vs0mg"},{"bike_id":"4afc5aa5-bdb0-4971-8e53-a4c8d612cfe0","system_id":"levelo_inurba_marseille","lat":43.29092,"lon":5.38146,"is_reserved":false,"is_disabled":false,"rental_uris":{"android":"levelo://app?vid=4afc5aa5-bdb0-4971-8e53-a4c8d612cfe0","ios":"levelo://app?vid=4afc5aa5-bdb0-4971-8e53-a4c8d612cfe0"},"vehicle_type_id":"4","last_reported":1750011179,"current_range_meters":12000,"station_id":"ce4bh512rcd13ifvqe2g","pricing_plan_id":"cebpf4jnsgd1na2vs0mg"},{"bike_id":"28a4af07-b22d-428b-b25a-4422731f0622","system_id":"levelo_inurba_marseille","lat":43.26063,"lon":5.39369,"is_reserved":false,"is_disabled":false,"rental_uris":{"android":"levelo://app?vid=28a4af07-b22d-428b-b25a-4422731f0622","ios":"levelo://app?vid=28a4af07-b22d-428b-b25a-4422731f0622"},"vehicle_type_id":"4","last_reported":1750011179,"current_range_meters":12000,"station_id":"ce4bhh92rcd13ifvqfj0","pricing_plan_id":"cebpf4jnsgd1na2vs0mg"},{"bike_id":"3ca62b8c-20e4-4cae-9d22-9b0de08bc596","system_id":"levelo_inurba_marseille","lat":43.26938,"lon":5.40248,"is_reserved":false,"is_disabled":false,"rental_uris":{"android":"levelo://app?vid=3ca62b8c-20e4-4cae-9d22-9b0de08bc596","ios":"levelo://app?vid=3ca62b8c-20e4-4cae-9d22-9b0de08bc596"},"vehicle_type_id":"4","last_reported":1750011179,"current_range_meters":12000,"station_id":"cjm6bp8fraef2m0cb0m0","pricing_plan_id":"cebpf4jnsgd1na2vs0mg"},{"bike_id":"73d2bea6-f99d-4671-8954-580edff743bc","system_id":"levelo_inurba_marseille","lat":43.21188,"lon":5.3508,"is_reserved":false,"is_disabled":false,"rental_uris":{"android":"levelo://app?vid=73d2bea6-f99d-4671-8954-580edff743bc","ios":"levelo://app?vid=73d2bea6-f99d-4671-8954-580edff743bc"},"vehicle_type_id":"4","last_reported":1750011179,"current_range_meters":12000,"station_id":"st_cvj6sg6p6f1abm77japg","pricing_plan_id":"cebpf4jnsgd1na2vs0mg"},{"bike_id":"bf347de6-2044-4d65-a916-5e9dd76266b6","system_id":"levelo_inurba_marseille","lat":43.24653,"lon":5.38892,"is_reserved":false,"is_disabled":false,"rental_uris":{"android":"levelo://app?vid=bf347de6-2044-4d65-a916-5e9dd76266b6","ios":"levelo://app?vid=bf347de6-2044-4d65-a916-5e9dd76266b6"},"vehicle_type_id":"4","last_reported":1750011179,"current_range_meters":12400,"station_id":"ce4bhg12rcd13ifvqf60","pricing_plan_id":"cebpf4jnsgd1na2vs0mg"},{"bike_id":"a4fe463c-fe22-4d92-91c2-39fb2795f219","system_id":"levelo_inurba_marseille","lat":43.26032,"lon":5.37546,"is_reserved":false,"is_disabled":false,"rental_uris":{"android":"levelo://app?vid=a4fe463c-fe22-4d92-91c2-39fb2795f219","ios":"levelo://app?vid=a4fe463c-fe22-4d92-91c2-39fb2795f219"},"vehicle_type_id":"4","last_reported":1750011179,"current_range_meters":12800,"station_id":"ce4bhgh2rcd13ifvqfa0","pricing_plan_id":"cebpf4jnsgd1na2vs0mg"},{"bike_id":"8d05a31a-b27b-46ed-87f5-b4621a005fa9","system_id":"levelo_inurba_marseille","lat":43.23201,"lon":5.3555,"is_reserved":false,"is_disabled":false,"rental_uris":{"android":"levelo://app?vid=8d05a31a-b27b-46ed-87f5-b4621a005fa9","ios":"levelo://app?vid=8d05a31a-b27b-46ed-87f5-b4621a005fa9"},"vehicle_type_id":"4","last_reported":1750011179,"current_range_meters":12800,"station_id":"ce4bhu92rcd13ifvqi70","pricing_plan_id":"cebpf4jnsgd1na2vs0mg"},{"bike_id":"2319ce10-a51c-42ad-ad50-827b68e4f300","system_id":"levelo_inurba_marseille","lat":43.29714,"lon":5.38074,"is_reserved":false,"is_disabled":false,"rental_uris":{"android":"levelo://app?vid=2319ce10-a51c-42ad-ad50-827b68e4f300","ios":"levelo://app?vid=2319ce10-a51c-42ad-ad50-827b68e4f300"},"vehicle_type_id":"4","last_reported":1750011179,"current_range_meters":13600,"station_id":"","pricing_plan_id":"cebpf4jnsgd1na2vs0mg"},{"bike_id":"060b4b49-1c05-48ba-9f11-13b4737acf8d","system_id":"levelo_inurba_marseille","lat":43.2927,"lon":5.38445,"is_reserved":false,"is_disabled":false,"rental_uris":{"android":"levelo://app?vid=060b4b49-1c05-48ba-9f11-13b4737acf8d","ios":"levelo://app?vid=060b4b49-1c05-48ba-9f11-13b4737acf8d"},"vehicle_type_id":"4","last_reported":1750011179,"current_range_meters":13600,"station_id":"ce4bh692rcd13ifvqea0","pricing_plan_id":"cebpf4jnsgd1na2vs0mg"},{"bike_id":"5bf19c18-d0ad-489b-bd15-9440a1d65b2d","system_id":"levelo_inurba_marseille","lat":43.21186,"lon":5.35075,"is_reserved":false,"is_disabled":false,"rental_uris":{"android":"levelo://app?vid=5bf19c18-d0ad-489b-bd15-9440a1d65b2d","ios":"levelo://app?vid=5bf19c18-d0ad-489b-bd15-9440a1d65b2d"},"vehicle_type_id":"4","last_reported":1750011179,"current_range_meters":13600,"station_id":"st_cvj6sg6p6f1abm77japg","pricing_plan_id":"cebpf4jnsgd1na2vs0mg"},{"bike_id":"0e151c77-87da-4094-a238-db040f2b0c67","system_id":"levelo_inurba_marseille","lat":43.29285,"lon":5.38476,"is_reserved":false,"is_disabled":false,"rental_uris":{"android":"levelo://app?vid=0e151c77-87da-4094-a238-db040f2b0c67","ios":"levelo://app?vid=0e151c77-87da-4094-a238-db040f2b0c67"},"vehicle_type_id":"4","last_reported":1750011179,"current_range_meters":14000,"station_id":"","pricing_plan_id":"cebpf4jnsgd1na2vs0mg"},{"bike_id":"c9e76a0f-44ca-4718-b675-9d4850e48b2a","system_id":"levelo_inurba_marseille","lat":43.29259,"lon":5.3844,"is_reserved":false,"is_disabled":false,"rental_uris":{"android":"levelo://app?vid=c9e76a0f-44ca-4718-b675-9d4850e48b2a","ios":"levelo://app?vid=c9e76a0f-44ca-4718-b675-9d4850e48b2a"},"vehicle_type_id":"4","last_reported":1750011179,"current_range_meters":14000,"station_id":"ce4bh692rcd13ifvqea0","pricing_plan_id":"cebpf4jnsgd1na2vs0mg"},{"bike_id":"4db5b377-fb77-4cdf-a46e-c08a66c0edc9","system_id":"levelo_inurba_marseille","lat":43.29178,"lon":5.37151,"is_reserved":false,"is_disabled":false,"rental_uris":{"android":"levelo://app?vid=4db5b377-fb77-4cdf-a46e-c08a66c0edc9","ios":"levelo://app?vid=4db5b377-fb77-4cdf-a46e-c08a66c0edc9"},"vehicle_type_id":"4","last_reported":1750011179,"current_range_meters":14000,"station_id":"ce4bha92rcd13ifvqeh0","pricing_plan_id":"cebpf4jnsgd1na2vs0mg"},{"bike_id":"35f04850-e512-49c2-8b54-022449aee064","system_id":"levelo_inurba_marseille","lat":43.2707,"lon":5.4228,"is_reserved":false,"is_disabled":false,"rental_uris":{"android":"levelo://app?vid=35f04850-e512-49c2-8b54-022449aee064","ios":"levelo://app?vid=35f04850-e512-49c2-8b54-022449aee064"},"vehicle_type_id":"4","last_reported":1750011179,"current_range_meters":14000,"station_id":"ce4bhk92rcd13ifvqgb0","pricing_plan_id":"cebpf4jnsgd1na2vs0mg"},{"bike_id":"52392210-51c3-4094-8fde-d4da5afbfe6b","system_id":"levelo_inurba_marseille","lat":43.254852,"lon":5.409194,"is_reserved":false,"is_disabled":false,"rental_uris":{"android":"levelo://app?vid=52392210-51c3-4094-8fde-d4da5afbfe6b","ios":"levelo://app?vid=52392210-51c3-4094-8fde-d4da5afbfe6b"},"vehicle_type_id":"4","last_reported":1750011179,"current_range_meters":14000,"station_id":"ce4bhq12rcd13ifvqhig","pricing_plan_id":"cebpf4jnsgd1na2vs0mg"},{"bike_id":"516d9f5c-a9ce-43ab-ac30-5393e9b521d3","system_id":"levelo_inurba_marseille","lat":43.2307,"lon":5.35492,"is_reserved":false,"is_disabled":false,"rental_uris":{"android":"levelo://app?vid=516d9f5c-a9ce-43ab-ac30-5393e9b521d3","ios":"levelo://app?vid=516d9f5c-a9ce-43ab-ac30-5393e9b521d3"},"vehicle_type_id":"4","last_reported":1750011179,"current_range_meters":14000,"station_id":"cpo3342slgdg3j2ifvpg","pricing_plan_id":"cebpf4jnsgd1na2vs0mg"},{"bike_id":"a3314fa1-d8cf-4847-946a-7595d70f87ad","system_id":"levelo_inurba_marseille","lat":43.28774,"lon":5.36173,"is_reserved":false,"is_disabled":false,"rental_uris":{"android":"levelo://app?vid=a3314fa1-d8cf-4847-946a-7595d70f87ad","ios":"levelo://app?vid=a3314fa1-d8cf-4847-946a-7595d70f87ad"},"vehicle_type_id":"4","last_reported":1750011179,"current_range_meters":14400,"station_id":"","pricing_plan_id":"cebpf4jnsgd1na2vs0mg"},{"bike_id":"7ba50793-ca78-46bf-b55e-7e1fa892287b","system_id":"levelo_inurba_marseille","lat":43.30137,"lon":5.3985,"is_reserved":false,"is_disabled":false,"rental_uris":{"android":"levelo://app?vid=7ba50793-ca78-46bf-b55e-7e1fa892287b","ios":"levelo://app?vid=7ba50793-ca78-46bf-b55e-7e1fa892287b"},"vehicle_type_id":"4","last_reported":1750011179,"current_range_meters":14400,"station_id":"ce4bh0h2rcd13ifvqd40","pricing_plan_id":"cebpf4jnsgd1na2vs0mg"},{"bike_id":"bbb605ca-897a-4398-8822-8e77b6baed1e","system_id":"levelo_inurba_marseille","lat":43.26216,"lon":5.37904,"is_reserved":false,"is_disabled":false,"rental_uris":{"android":"levelo://app?vid=bbb605ca-897a-4398-8822-8e77b6baed1e","ios":"levelo://app?vid=bbb605ca-897a-4398-8822-8e77b6baed1e"},"vehicle_type_id":"4","last_reported":1750011179,"current_range_meters":14400,"station_id":"ce4bhjp2rcd13ifvqg90","pricing_plan_id":"cebpf4jnsgd1na2vs0mg"},{"bike_id":"c17ddc81-41be-4ea9-9d08-186733aefa94","system_id":"levelo_inurba_marseille","lat":43.24805,"lon":5.37454,"is_reserved":false,"is_disabled":false,"rental_uris":{"android":"levelo://app?vid=c17ddc81-41be-4ea9-9d08-186733aefa94","ios":"levelo://app?vid=c17ddc81-41be-4ea9-9d08-186733aefa94"},"vehicle_type_id":"4","last_reported":1750011179,"current_range_meters":14800,"station_id":"ce4bhgh2rcd13ifvqfb0","pricing_plan_id":"cebpf4jnsgd1na2vs0mg"},{"bike_id":"9a0c3f99-8244-4ee9-a116-a84f3fe33d04","system_id":"levelo_inurba_marseille","lat":43.23195,"lon":5.35551,"is_reserved":false,"is_disabled":false,"rental_uris":{"android":"levelo://app?vid=9a0c3f99-8244-4ee9-a116-a84f3fe33d04","ios":"levelo://app?vid=9a0c3f99-8244-4ee9-a116-a84f3fe33d04"},"vehicle_type_id":"4","last_reported":1750011179,"current_range_meters":14800,"station_id":"ce4bhu92rcd13ifvqi70","pricing_plan_id":"cebpf4jnsgd1na2vs0mg"},{"bike_id":"cae08f8a-9511-476d-9ad2-fc5efb61a8eb","system_id":"levelo_inurba_marseille","lat":43.215431,"lon":5.347186,"is_reserved":false,"is_disabled":false,"rental_uris":{"android":"levelo://app?vid=cae08f8a-9511-476d-9ad2-fc5efb61a8eb","ios":"levelo://app?vid=cae08f8a-9511-476d-9ad2-fc5efb61a8eb"},"vehicle_type_id":"4","last_reported":1750011179,"current_range_meters":15200,"station_id":"","pricing_plan_id":"cebpf4jnsgd1na2vs0mg"},{"bike_id":"91753df6-b383-4702-8414-24237e81fab8","system_id":"levelo_inurba_marseille","lat":43.24389,"lon":5.37185,"is_reserved":false,"is_disabled":false,"rental_uris":{"android":"levelo://app?vid=91753df6-b383-4702-8414-24237e81fab8","ios":"levelo://app?vid=91753df6-b383-4702-8414-24237e81fab8"},"vehicle_type_id":"4","last_reported":1750011179,"current_range_meters":15200,"station_id":"","pricing_plan_id":"cebpf4jnsgd1na2vs0mg"},{"bike_id":"0fe8d47d-0db3-437d-9239-f712b4736eb4","system_id":"levelo_inurba_marseille","lat":43.32137,"lon":5.36753,"is_reserved":false,"is_disabled":false,"rental_uris":{"android":"levelo://app?vid=0fe8d47d-0db3-437d-9239-f712b4736eb4","ios":"levelo://app?vid=0fe8d47d-0db3-437d-9239-f712b4736eb4"},"vehicle_type_id":"4","last_reported":1750011179,"current_range_meters":15200,"station_id":"","pricing_plan_id":"cebpf4jnsgd1na2vs0mg"},{"bike_id":"2c2106ff-9791-4a35-b31f-c921358efba7","system_id":"levelo_inurba_marseille","lat":43.30922,"lon":5.40144,"is_reserved":false,"is_disabled":false,"rental_uris":{"android":"levelo://app?vid=2c2106ff-9791-4a35-b31f-c921358efba7","ios":"levelo://app?vid=2c2106ff-9791-4a35-b31f-c921358efba7"},"vehicle_type_id":"4","last_reported":1750011179,"current_range_meters":15200,"station_id":"ce4bgvp2rcd13ifvqct0","pricing_plan_id":"cebpf4jnsgd1na2vs0mg"},{"bike_id":"eb312711-0fdd-4be9-b12f-083d5b29e8ae","system_id":"levelo_inurba_marseille","lat":43.3133,"lon":5.39703,"is_reserved":false,"is_disabled":false,"rental_uris":{"android":"levelo://app?vid=eb312711-0fdd-4be9-b12f-083d5b29e8ae","ios":"levelo://app?vid=eb312711-0fdd-4be9-b12f-083d5b29e8ae"},"vehicle_type_id":"4","last_reported":1750011179,"current_range_meters":15200,"station_id":"ce4bgvp2rcd13ifvqcu0","pricing_plan_id":"cebpf4jnsgd1na2vs0mg"},{"bike_id":"640a892c-692d-4ed4-8342-0b7917746949","system_id":"levelo_inurba_marseille","lat":43.29046,"lon":5.38653,"is_reserved":false,"is_disabled":false,"rental_uris":{"android":"levelo://app?vid=640a892c-692d-4ed4-8342-0b7917746949","ios":"levelo://app?vid=640a892c-692d-4ed4-8342-0b7917746949"},"vehicle_type_id":"4","last_reported":1750011179,"current_range_meters":15200,"station_id":"ce4bh4p2rcd13ifvqe0g","pricing_plan_id":"cebpf4jnsgd1na2vs0mg"},{"bike_id":"97f8851e-21a3-4c6a-8d82-1c239c500fcb","system_id":"levelo_inurba_marseille","lat":43.273777,"lon":5.362576,"is_reserved":false,"is_disabled":false,"rental_uris":{"android":"levelo://app?vid=97f8851e-21a3-4c6a-8d82-1c239c500fcb","ios":"levelo://app?vid=97f8851e-21a3-4c6a-8d82-1c239c500fcb"},"vehicle_type_id":"4","last_reported":1750011179,"current_range_meters":16000,"station_id":"","pricing_plan_id":"cebpf4jnsgd1na2vs0mg"},{"bike_id":"38e08ec6-738b-4a04-a092-dec10c6891d3","system_id":"levelo_inurba_marseille","lat":43.26878,"lon":5.40708,"is_reserved":false,"is_disabled":false,"rental_uris":{"android":"levelo://app?vid=38e08ec6-738b-4a04-a092-dec10c6891d3","ios":"levelo://app?vid=38e08ec6-738b-4a04-a092-dec10c6891d3"},"vehicle_type_id":"4","last_reported":1750011179,"current_range_meters":16000,"station_id":"","pricing_plan_id":"cebpf4jnsgd1na2vs0mg"},{"bike_id":"26d84882-e773-4cc1-a254-270e00b79cd4","system_id":"levelo_inurba_marseille","lat":43.260638,"lon":5.39395,"is_reserved":false,"is_disabled":false,"rental_uris":{"android":"levelo://app?vid=26d84882-e773-4cc1-a254-270e00b79cd4","ios":"levelo://app?vid=26d84882-e773-4cc1-a254-270e00b79cd4"},"vehicle_type_id":"4","last_reported":1750011179,"current_range_meters":16000,"station_id":"ce4bhh92rcd13ifvqfj0","pricing_plan_id":"cebpf4jnsgd1na2vs0mg"},{"bike_id":"6ab6b5e9-2b2f-476c-861d-e735f21df255","system_id":"levelo_inurba_marseille","lat":43.26228,"lon":5.40459,"is_reserved":false,"is_disabled":false,"rental_uris":{"android":"levelo://app?vid=6ab6b5e9-2b2f-476c-861d-e735f21df255","ios":"levelo://app?vid=6ab6b5e9-2b2f-476c-861d-e735f21df255"},"vehicle_type_id":"4","last_reported":1750011179,"current_range_meters":16000,"station_id":"ce4bhmh2rcd13ifvqgmg","pricing_plan_id":"cebpf4jnsgd1na2vs0mg"},{"bike_id":"ca404674-a7bb-4909-82c7-65fa93f0b6de","system_id":"levelo_inurba_marseille","lat":43.21202,"lon":5.35076,"is_reserved":false,"is_disabled":false,"rental_uris":{"android":"levelo://app?vid=ca404674-a7bb-4909-82c7-65fa93f0b6de","ios":"levelo://app?vid=ca404674-a7bb-4909-82c7-65fa93f0b6de"},"vehicle_type_id":"4","last_reported":1750011179,"current_range_meters":16000,"station_id":"st_cvj6sg6p6f1abm77japg","pricing_plan_id":"cebpf4jnsgd1na2vs0mg"},{"bike_id":"9f67ff39-2b86-422f-94a3-730fe36fa592","system_id":"levelo_inurba_marseille","lat":43.2508,"lon":5.39504,"is_reserved":false,"is_disabled":false,"rental_uris":{"android":"levelo://app?vid=9f67ff39-2b86-422f-94a3-730fe36fa592","ios":"levelo://app?vid=9f67ff39-2b86-422f-94a3-730fe36fa592"},"vehicle_type_id":"4","last_reported":1750011179,"current_range_meters":16400,"station_id":"ce4bhm12rcd13ifvqgkg","pricing_plan_id":"cebpf4jnsgd1na2vs0mg"},{"bike_id":"1d9df16e-4abf-44d7-b6e8-a27dd4aa3ffb","system_id":"levelo_inurba_marseille","lat":43.23182,"lon":5.35578,"is_reserved":false,"is_disabled":false,"rental_uris":{"android":"levelo://app?vid=1d9df16e-4abf-44d7-b6e8-a27dd4aa3ffb","ios":"levelo://app?vid=1d9df16e-4abf-44d7-b6e8-a27dd4aa3ffb"},"vehicle_type_id":"4","last_reported":1750011179,"current_range_meters":16400,"station_id":"ce4bhu92rcd13ifvqi70","pricing_plan_id":"cebpf4jnsgd1na2vs0mg"},{"bike_id":"2d16d2b6-c684-45ab-831f-9a77e91e8afb","system_id":"levelo_inurba_marseille","lat":43.211906,"lon":5.350745,"is_reserved":false,"is_disabled":false,"rental_uris":{"android":"levelo://app?vid=2d16d2b6-c684-45ab-831f-9a77e91e8afb","ios":"levelo://app?vid=2d16d2b6-c684-45ab-831f-9a77e91e8afb"},"vehicle_type_id":"4","last_reported":1750011179,"current_range_meters":16400,"station_id":"st_cvj6sg6p6f1abm77japg","pricing_plan_id":"cebpf4jnsgd1na2vs0mg"},{"bike_id":"cdc7b1a5-e40c-4229-915a-1c5c87e8ac2e","system_id":"levelo_inurba_marseille","lat":43.33119,"lon":5.38184,"is_reserved":false,"is_disabled":false,"rental_uris":{"android":"levelo://app?vid=cdc7b1a5-e40c-4229-915a-1c5c87e8ac2e","ios":"levelo://app?vid=cdc7b1a5-e40c-4229-915a-1c5c87e8ac2e"},"vehicle_type_id":"4","last_reported":1750011179,"current_range_meters":16800,"station_id":"","pricing_plan_id":"cebpf4jnsgd1na2vs0mg"},{"bike_id":"44ded28a-80f1-4b31-ba8c-72302ba186cc","system_id":"levelo_inurba_marseille","lat":43.28577,"lon":5.35087,"is_reserved":false,"is_disabled":false,"rental_uris":{"android":"levelo://app?vid=44ded28a-80f1-4b31-ba8c-72302ba186cc","ios":"levelo://app?vid=44ded28a-80f1-4b31-ba8c-72302ba186cc"},"vehicle_type_id":"4","last_reported":1750011179,"current_range_meters":16800,"station_id":"","pricing_plan_id":"cebpf4jnsgd1na2vs0mg"},{"bike_id":"04880f75-1d2a-4eea-ac78-1e005ba87f63","system_id":"levelo_inurba_marseille","lat":43.26029,"lon":5.37548,"is_reserved":false,"is_disabled":false,"rental_uris":{"android":"levelo://app?vid=04880f75-1d2a-4eea-ac78-1e005ba87f63","ios":"levelo://app?vid=04880f75-1d2a-4eea-ac78-1e005ba87f63"},"vehicle_type_id":"4","last_reported":1750011179,"current_range_meters":16800,"station_id":"ce4bhgh2rcd13ifvqfa0","pricing_plan_id":"cebpf4jnsgd1na2vs0mg"},{"bike_id":"06f33f94-0b50-4b92-bb32-ba4533402606","system_id":"levelo_inurba_marseille","lat":43.27373,"lon":5.36258,"is_reserved":false,"is_disabled":false,"rental_uris":{"android":"levelo://app?vid=06f33f94-0b50-4b92-bb32-ba4533402606","ios":"levelo://app?vid=06f33f94-0b50-4b92-bb32-ba4533402606"},"vehicle_type_id":"4","last_reported":1750011179,"current_range_meters":17200,"station_id":"ce4bhbh2rcd13ifvqeo0","pricing_plan_id":"cebpf4jnsgd1na2vs0mg"},{"bike_id":"80d7c1dd-9c05-478f-a308-632c27a6be9f","system_id":"levelo_inurba_marseille","lat":43.27061,"lon":5.42261,"is_reserved":false,"is_disabled":false,"rental_uris":{"android":"levelo://app?vid=80d7c1dd-9c05-478f-a308-632c27a6be9f","ios":"levelo://app?vid=80d7c1dd-9c05-478f-a308-632c27a6be9f"},"vehicle_type_id":"4","last_reported":1750011179,"current_range_meters":17200,"station_id":"ce4bhk92rcd13ifvqgb0","pricing_plan_id":"cebpf4jnsgd1na2vs0mg"},{"bike_id":"0d51830a-756f-4f39-bdf4-2fe9707991c7","system_id":"levelo_inurba_marseille","lat":43.21203,"lon":5.35076,"is_reserved":false,"is_disabled":false,"rental_uris":{"android":"levelo://app?vid=0d51830a-756f-4f39-bdf4-2fe9707991c7","ios":"levelo://app?vid=0d51830a-756f-4f39-bdf4-2fe9707991c7"},"vehicle_type_id":"4","last_reported":1750011179,"current_range_meters":17200,"station_id":"st_cvj6sg6p6f1abm77japg","pricing_plan_id":"cebpf4jnsgd1na2vs0mg"},{"bike_id":"ea43431a-ba21-4b59-af70-df9a29a07e9d","system_id":"levelo_inurba_marseille","lat":43.31327,"lon":5.3969,"is_reserved":false,"is_disabled":false,"rental_uris":{"android":"levelo://app?vid=ea43431a-ba21-4b59-af70-df9a29a07e9d","ios":"levelo://app?vid=ea43431a-ba21-4b59-af70-df9a29a07e9d"},"vehicle_type_id":"4","last_reported":1750011179,"current_range_meters":17600,"station_id":"ce4bgvp2rcd13ifvqcu0","pricing_plan_id":"cebpf4jnsgd1na2vs0mg"},{"bike_id":"384edf98-156d-4b16-af67-7712319498ad","system_id":"levelo_inurba_marseille","lat":43.290222,"lon":5.386354,"is_reserved":false,"is_disabled":false,"rental_uris":{"android":"levelo://app?vid=384edf98-156d-4b16-af67-7712319498ad","ios":"levelo://app?vid=384edf98-156d-4b16-af67-7712319498ad"},"vehicle_type_id":"4","last_reported":1750011179,"current_range_meters":17600,"station_id":"ce4bh4p2rcd13ifvqe0g","pricing_plan_id":"cebpf4jnsgd1na2vs0mg"},{"bike_id":"7183bf46-ab0e-45c2-8a6d-5d074d526ac0","system_id":"levelo_inurba_marseille","lat":43.24071,"lon":5.37764,"is_reserved":false,"is_disabled":false,"rental_uris":{"android":"levelo://app?vid=7183bf46-ab0e-45c2-8a6d-5d074d526ac0","ios":"levelo://app?vid=7183bf46-ab0e-45c2-8a6d-5d074d526ac0"},"vehicle_type_id":"4","last_reported":1750011179,"current_range_meters":17600,"station_id":"ce4bhnp2rcd13ifvqgvg","pricing_plan_id":"cebpf4jnsgd1na2vs0mg"},{"bike_id":"399d1fd5-fa0e-4c84-be07-dcd138f04024","system_id":"levelo_inurba_marseille","lat":43.3014,"lon":5.38773,"is_reserved":false,"is_disabled":false,"rental_uris":{"android":"levelo://app?vid=399d1fd5-fa0e-4c84-be07-dcd138f04024","ios":"levelo://app?vid=399d1fd5-fa0e-4c84-be07-dcd138f04024"},"vehicle_type_id":"4","last_reported":1750011179,"current_range_meters":18000,"station_id":"ce4bghh2rcd13ifvqb60","pricing_plan_id":"cebpf4jnsgd1na2vs0mg"},{"bike_id":"84b43430-4d99-410c-abfb-327015b70be1","system_id":"levelo_inurba_marseille","lat":43.33155,"lon":5.38157,"is_reserved":false,"is_disabled":false,"rental_uris":{"android":"levelo://app?vid=84b43430-4d99-410c-abfb-327015b70be1","ios":"levelo://app?vid=84b43430-4d99-410c-abfb-327015b70be1"},"vehicle_type_id":"4","last_reported":1750011179,"current_range_meters":18800,"station_id":"","pricing_plan_id":"cebpf4jnsgd1na2vs0mg"},{"bike_id":"f9de72c2-0951-4ee0-8d52-f0270a2fd45d","system_id":"levelo_inurba_marseille","lat":43.29416,"lon":5.38612,"is_reserved":false,"is_disabled":false,"rental_uris":{"android":"levelo://app?vid=f9de72c2-0951-4ee0-8d52-f0270a2fd45d","ios":"levelo://app?vid=f9de72c2-0951-4ee0-8d52-f0270a2fd45d"},"vehicle_type_id":"4","last_reported":1750011179,"current_range_meters":18800,"station_id":"ce4bh2h2rcd13ifvqdh0","pricing_plan_id":"cebpf4jnsgd1na2vs0mg"},{"bike_id":"2ce0c462-54ba-4a69-8310-4c5da0d48ebe","system_id":"levelo_inurba_marseille","lat":43.28346,"lon":5.38106,"is_reserved":false,"is_disabled":false,"rental_uris":{"android":"levelo://app?vid=2ce0c462-54ba-4a69-8310-4c5da0d48ebe","ios":"levelo://app?vid=2ce0c462-54ba-4a69-8310-4c5da0d48ebe"},"vehicle_type_id":"4","last_reported":1750011179,"current_range_meters":18800,"station_id":"ce4bh412rcd13ifvqdr0","pricing_plan_id":"cebpf4jnsgd1na2vs0mg"},{"bike_id":"65dc08ce-4223-4678-9d71-550bf75ca16a","system_id":"levelo_inurba_marseille","lat":43.25721,"lon":5.41112,"is_reserved":false,"is_disabled":false,"rental_uris":{"android":"levelo://app?vid=65dc08ce-4223-4678-9d71-550bf75ca16a","ios":"levelo://app?vid=65dc08ce-4223-4678-9d71-550bf75ca16a"},"vehicle_type_id":"4","last_reported":1750011179,"current_range_meters":18800,"station_id":"ce4bhkp2rcd13ifvqgd0","pricing_plan_id":"cebpf4jnsgd1na2vs0mg"},{"bike_id":"6236337f-f2f2-4734-9d05-e21827a027fc","system_id":"levelo_inurba_marseille","lat":43.33024,"lon":5.3904,"is_reserved":false,"is_disabled":false,"rental_uris":{"android":"levelo://app?vid=6236337f-f2f2-4734-9d05-e21827a027fc","ios":"levelo://app?vid=6236337f-f2f2-4734-9d05-e21827a027fc"},"vehicle_type_id":"4","last_reported":1750011179,"current_range_meters":18800,"station_id":"ce4bhr92rcd13ifvqhrg","pricing_plan_id":"cebpf4jnsgd1na2vs0mg"},{"bike_id":"011d9f3f-2654-4b9a-a804-395d5992c6c9","system_id":"levelo_inurba_marseille","lat":43.26931,"lon":5.40231,"is_reserved":false,"is_disabled":false,"rental_uris":{"android":"levelo://app?vid=011d9f3f-2654-4b9a-a804-395d5992c6c9","ios":"levelo://app?vid=011d9f3f-2654-4b9a-a804-395d5992c6c9"},"vehicle_type_id":"4","last_reported":1750011179,"current_range_meters":18800,"station_id":"cjm6bp8fraef2m0cb0m0","pricing_plan_id":"cebpf4jnsgd1na2vs0mg"},{"bike_id":"6f904e79-074e-44f7-a4ee-8b0cd00a4a95","system_id":"levelo_inurba_marseille","lat":43.21198,"lon":5.3507,"is_reserved":false,"is_disabled":false,"rental_uris":{"android":"levelo://app?vid=6f904e79-074e-44f7-a4ee-8b0cd00a4a95","ios":"levelo://app?vid=6f904e79-074e-44f7-a4ee-8b0cd00a4a95"},"vehicle_type_id":"4","last_reported":1750011179,"current_range_meters":18800,"station_id":"st_cvj6sg6p6f1abm77japg","pricing_plan_id":"cebpf4jnsgd1na2vs0mg"},{"bike_id":"c937b220-d077-480a-817b-887f33f079c0","system_id":"levelo_inurba_marseille","lat":43.3177,"lon":5.37283,"is_reserved":false,"is_disabled":false,"rental_uris":{"android":"levelo://app?vid=c937b220-d077-480a-817b-887f33f079c0","ios":"levelo://app?vid=c937b220-d077-480a-817b-887f33f079c0"},"vehicle_type_id":"4","last_reported":1750011179,"current_range_meters":19200,"station_id":"","pricing_plan_id":"cebpf4jnsgd1na2vs0mg"},{"bike_id":"bdf85dfb-2eea-47f4-acf9-296fdd93897d","system_id":"levelo_inurba_marseille","lat":43.299622,"lon":5.38485,"is_reserved":false,"is_disabled":false,"rental_uris":{"android":"levelo://app?vid=bdf85dfb-2eea-47f4-acf9-296fdd93897d","ios":"levelo://app?vid=bdf85dfb-2eea-47f4-acf9-296fdd93897d"},"vehicle_type_id":"4","last_reported":1750011179,"current_range_meters":19200,"station_id":"","pricing_plan_id":"cebpf4jnsgd1na2vs0mg"},{"bike_id":"b31d3165-d5e1-4bc6-a607-ca1a1c981148","system_id":"levelo_inurba_marseille","lat":43.27583,"lon":5.4176,"is_reserved":false,"is_disabled":false,"rental_uris":{"android":"levelo://app?vid=b31d3165-d5e1-4bc6-a607-ca1a1c981148","ios":"levelo://app?vid=b31d3165-d5e1-4bc6-a607-ca1a1c981148"},"vehicle_type_id":"4","last_reported":1750011179,"current_range_meters":19200,"station_id":"","pricing_plan_id":"cebpf4jnsgd1na2vs0mg"},{"bike_id":"46261288-1d65-42a5-b499-90b6b78b0002","system_id":"levelo_inurba_marseille","lat":43.27051,"lon":5.40261,"is_reserved":false,"is_disabled":false,"rental_uris":{"android":"levelo://app?vid=46261288-1d65-42a5-b499-90b6b78b0002","ios":"levelo://app?vid=46261288-1d65-42a5-b499-90b6b78b0002"},"vehicle_type_id":"4","last_reported":1750011179,"current_range_meters":19200,"station_id":"ce4bhk92rcd13ifvqgc0","pricing_plan_id":"cebpf4jnsgd1na2vs0mg"},{"bike_id":"efb971b9-12e8-413c-a6eb-96a5da00fff8","system_id":"levelo_inurba_marseille","lat":43.31716,"lon":5.42388,"is_reserved":false,"is_disabled":false,"rental_uris":{"android":"levelo://app?vid=efb971b9-12e8-413c-a6eb-96a5da00fff8","ios":"levelo://app?vid=efb971b9-12e8-413c-a6eb-96a5da00fff8"},"vehicle_type_id":"4","last_reported":1750011179,"current_range_meters":19200,"station_id":"ce4bhp92rcd13ifvqhbg","pricing_plan_id":"cebpf4jnsgd1na2vs0mg"},{"bike_id":"b200674b-2afa-40ff-b238-2359448b6baf","system_id":"levelo_inurba_marseille","lat":43.232,"lon":5.35553,"is_reserved":false,"is_disabled":false,"rental_uris":{"android":"levelo://app?vid=b200674b-2afa-40ff-b238-2359448b6baf","ios":"levelo://app?vid=b200674b-2afa-40ff-b238-2359448b6baf"},"vehicle_type_id":"4","last_reported":1750011179,"current_range_meters":19200,"station_id":"ce4bhu92rcd13ifvqi70","pricing_plan_id":"cebpf4jnsgd1na2vs0mg"},{"bike_id":"ab27ac5c-ef75-403a-850b-e0d9f203b623","system_id":"levelo_inurba_marseille","lat":43.22495,"lon":5.34775,"is_reserved":false,"is_disabled":false,"rental_uris":{"android":"levelo://app?vid=ab27ac5c-ef75-403a-850b-e0d9f203b623","ios":"levelo://app?vid=ab27ac5c-ef75-403a-850b-e0d9f203b623"},"vehicle_type_id":"4","last_reported":1750011179,"current_range_meters":19200,"station_id":"st_cvj5dfep6f1abm77gieg","pricing_plan_id":"cebpf4jnsgd1na2vs0mg"},{"bike_id":"826f0ca3-e5fc-4cf8-8696-cb1fe62172b3","system_id":"levelo_inurba_marseille","lat":43.21198,"lon":5.350783,"is_reserved":false,"is_disabled":false,"rental_uris":{"android":"levelo://app?vid=826f0ca3-e5fc-4cf8-8696-cb1fe62172b3","ios":"levelo://app?vid=826f0ca3-e5fc-4cf8-8696-cb1fe62172b3"},"vehicle_type_id":"4","last_reported":1750011179,"current_range_meters":19600,"station_id":"","pricing_plan_id":"cebpf4jnsgd1na2vs0mg"},{"bike_id":"bd7bc889-0ace-44ba-adc2-5e336bdf27e2","system_id":"levelo_inurba_marseille","lat":43.31,"lon":5.37453,"is_reserved":false,"is_disabled":false,"rental_uris":{"android":"levelo://app?vid=bd7bc889-0ace-44ba-adc2-5e336bdf27e2","ios":"levelo://app?vid=bd7bc889-0ace-44ba-adc2-5e336bdf27e2"},"vehicle_type_id":"4","last_reported":1750011179,"current_range_meters":19600,"station_id":"","pricing_plan_id":"cebpf4jnsgd1na2vs0mg"},{"bike_id":"a5605d9c-1d6c-47ae-b81d-6e65cb8eb85c","system_id":"levelo_inurba_marseille","lat":43.26055,"lon":5.39402,"is_reserved":false,"is_disabled":false,"rental_uris":{"android":"levelo://app?vid=a5605d9c-1d6c-47ae-b81d-6e65cb8eb85c","ios":"levelo://app?vid=a5605d9c-1d6c-47ae-b81d-6e65cb8eb85c"},"vehicle_type_id":"4","last_reported":1750011179,"current_range_meters":19600,"station_id":"ce4bhh92rcd13ifvqfj0","pricing_plan_id":"cebpf4jnsgd1na2vs0mg"},{"bike_id":"d407bde8-8212-4dee-a290-de2b03fa2147","system_id":"levelo_inurba_marseille","lat":43.239661,"lon":5.366281,"is_reserved":false,"is_disabled":false,"rental_uris":{"android":"levelo://app?vid=d407bde8-8212-4dee-a290-de2b03fa2147","ios":"levelo://app?vid=d407bde8-8212-4dee-a290-de2b03fa2147"},"vehicle_type_id":"4","last_reported":1750011179,"current_range_meters":19600,"station_id":"ce4bhi12rcd13ifvqfp0","pricing_plan_id":"cebpf4jnsgd1na2vs0mg"},{"bike_id":"f4960cb7-92f3-48e4-a1cc-a2b8a605a4b3","system_id":"levelo_inurba_marseille","lat":43.337661,"lon":5.37425,"is_reserved":false,"is_disabled":false,"rental_uris":{"android":"levelo://app?vid=f4960cb7-92f3-48e4-a1cc-a2b8a605a4b3","ios":"levelo://app?vid=f4960cb7-92f3-48e4-a1cc-a2b8a605a4b3"},"vehicle_type_id":"4","last_reported":1750011179,"current_range_meters":20000,"station_id":"","pricing_plan_id":"cebpf4jnsgd1na2vs0mg"},{"bike_id":"779c0506-929d-4e5b-8652-54d1acdda86f","system_id":"levelo_inurba_marseille","lat":43.21187,"lon":5.35072,"is_reserved":false,"is_disabled":false,"rental_uris":{"android":"levelo://app?vid=779c0506-929d-4e5b-8652-54d1acdda86f","ios":"levelo://app?vid=779c0506-929d-4e5b-8652-54d1acdda86f"},"vehicle_type_id":"4","last_reported":1750011179,"current_range_meters":20000,"station_id":"st_cvj6sg6p6f1abm77japg","pricing_plan_id":"cebpf4jnsgd1na2vs0mg"},{"bike_id":"115bc463-25cf-499b-9d0c-1e5446b33067","system_id":"levelo_inurba_marseille","lat":43.29973,"lon":5.38489,"is_reserved":false,"is_disabled":false,"rental_uris":{"android":"levelo://app?vid=115bc463-25cf-499b-9d0c-1e5446b33067","ios":"levelo://app?vid=115bc463-25cf-499b-9d0c-1e5446b33067"},"vehicle_type_id":"4","last_reported":1750011179,"current_range_meters":20400,"station_id":"ce4bgj92rcd13ifvqbd0","pricing_plan_id":"cebpf4jnsgd1na2vs0mg"},{"bike_id":"b209c5e1-6cd5-44d0-ae68-4bef77f939de","system_id":"levelo_inurba_marseille","lat":43.27617,"lon":5.36101,"is_reserved":false,"is_disabled":false,"rental_uris":{"android":"levelo://app?vid=b209c5e1-6cd5-44d0-ae68-4bef77f939de","ios":"levelo://app?vid=b209c5e1-6cd5-44d0-ae68-4bef77f939de"},"vehicle_type_id":"4","last_reported":1750011179,"current_range_meters":20400,"station_id":"ce4bgj92rcd13ifvqbe0","pricing_plan_id":"cebpf4jnsgd1na2vs0mg"},{"bike_id":"69bcc412-41e3-4005-8276-98a5db313a1f","system_id":"levelo_inurba_marseille","lat":43.30885,"lon":5.39653,"is_reserved":false,"is_disabled":false,"rental_uris":{"android":"levelo://app?vid=69bcc412-41e3-4005-8276-98a5db313a1f","ios":"levelo://app?vid=69bcc412-41e3-4005-8276-98a5db313a1f"},"vehicle_type_id":"4","last_reported":1750011179,"current_range_meters":20400,"station_id":"ce4bh012rcd13ifvqcv0","pricing_plan_id":"cebpf4jnsgd1na2vs0mg"},{"bike_id":"4971e09a-6fa0-4d6b-8fcb-78ca44f02791","system_id":"levelo_inurba_marseille","lat":43.30172,"lon":5.45334,"is_reserved":false,"is_disabled":false,"rental_uris":{"android":"levelo://app?vid=4971e09a-6fa0-4d6b-8fcb-78ca44f02791","ios":"levelo://app?vid=4971e09a-6fa0-4d6b-8fcb-78ca44f02791"},"vehicle_type_id":"4","last_reported":1750011179,"current_range_meters":20800,"station_id":"","pricing_plan_id":"cebpf4jnsgd1na2vs0mg"},{"bike_id":"e50804f9-8747-4549-9084-7e5118e88ce7","system_id":"levelo_inurba_marseille","lat":43.28697,"lon":5.373935,"is_reserved":false,"is_disabled":false,"rental_uris":{"android":"levelo://app?vid=e50804f9-8747-4549-9084-7e5118e88ce7","ios":"levelo://app?vid=e50804f9-8747-4549-9084-7e5118e88ce7"},"vehicle_type_id":"4","last_reported":1750011179,"current_range_meters":20800,"station_id":"ce4bh3p2rcd13ifvqdq0","pricing_plan_id":"cebpf4jnsgd1na2vs0mg"},{"bike_id":"cffe493f-0864-4d9c-b541-735314174601","system_id":"levelo_inurba_marseille","lat":43.21192,"lon":5.35078,"is_reserved":false,"is_disabled":false,"rental_uris":{"android":"levelo://app?vid=cffe493f-0864-4d9c-b541-735314174601","ios":"levelo://app?vid=cffe493f-0864-4d9c-b541-735314174601"},"vehicle_type_id":"4","last_reported":1750011179,"current_range_meters":20800,"station_id":"st_cvj6sg6p6f1abm77japg","pricing_plan_id":"cebpf4jnsgd1na2vs0mg"},{"bike_id":"50226e4e-408f-44ee-b0e9-d1b7eaaa8af6","system_id":"levelo_inurba_marseille","lat":43.30143,"lon":5.37411,"is_reserved":false,"is_disabled":false,"rental_uris":{"android":"levelo://app?vid=50226e4e-408f-44ee-b0e9-d1b7eaaa8af6","ios":"levelo://app?vid=50226e4e-408f-44ee-b0e9-d1b7eaaa8af6"},"vehicle_type_id":"4","last_reported":1750011179,"current_range_meters":21600,"station_id":"ce4bgs92rcd13ifvqcc0","pricing_plan_id":"cebpf4jnsgd1na2vs0mg"},{"bike_id":"064f09c5-29a1-4ab3-ae7c-b86c57d1baba","system_id":"levelo_inurba_marseille","lat":43.29266,"lon":5.38434,"is_reserved":false,"is_disabled":false,"rental_uris":{"android":"levelo://app?vid=064f09c5-29a1-4ab3-ae7c-b86c57d1baba","ios":"levelo://app?vid=064f09c5-29a1-4ab3-ae7c-b86c57d1baba"},"vehicle_type_id":"4","last_reported":1750011179,"current_range_meters":21600,"station_id":"ce4bh692rcd13ifvqea0","pricing_plan_id":"cebpf4jnsgd1na2vs0mg"},{"bike_id":"e612b7a7-3207-4aae-b53e-c8d480fc9283","system_id":"levelo_inurba_marseille","lat":43.23194,"lon":5.35554,"is_reserved":false,"is_disabled":false,"rental_uris":{"android":"levelo://app?vid=e612b7a7-3207-4aae-b53e-c8d480fc9283","ios":"levelo://app?vid=e612b7a7-3207-4aae-b53e-c8d480fc9283"},"vehicle_type_id":"4","last_reported":1750011179,"current_range_meters":21600,"station_id":"ce4bhu92rcd13ifvqi70","pricing_plan_id":"cebpf4jnsgd1na2vs0mg"},{"bike_id":"a90779a4-98dc-45b1-943a-212e01e584d9","system_id":"levelo_inurba_marseille","lat":43.23222,"lon":5.35572,"is_reserved":false,"is_disabled":false,"rental_uris":{"android":"levelo://app?vid=a90779a4-98dc-45b1-943a-212e01e584d9","ios":"levelo://app?vid=a90779a4-98dc-45b1-943a-212e01e584d9"},"vehicle_type_id":"4","last_reported":1750011179,"current_range_meters":22000,"station_id":"ce4bhu92rcd13ifvqi70","pricing_plan_id":"cebpf4jnsgd1na2vs0mg"},{"bike_id":"db696f9f-9ecc-4e26-bd9c-bd73bc64204b","system_id":"levelo_inurba_marseille","lat":43.29896,"lon":5.43682,"is_reserved":false,"is_disabled":false,"rental_uris":{"android":"levelo://app?vid=db696f9f-9ecc-4e26-bd9c-bd73bc64204b","ios":"levelo://app?vid=db696f9f-9ecc-4e26-bd9c-bd73bc64204b"},"vehicle_type_id":"4","last_reported":1750011179,"current_range_meters":22400,"station_id":"ce4bhpp2rcd13ifvqhfg","pricing_plan_id":"cebpf4jnsgd1na2vs0mg"},{"bike_id":"b155387a-7110-4142-8cfe-9bd4676d3fdd","system_id":"levelo_inurba_marseille","lat":43.2861,"lon":5.37059,"is_reserved":false,"is_disabled":false,"rental_uris":{"android":"levelo://app?vid=b155387a-7110-4142-8cfe-9bd4676d3fdd","ios":"levelo://app?vid=b155387a-7110-4142-8cfe-9bd4676d3fdd"},"vehicle_type_id":"4","last_reported":1750011179,"current_range_meters":22400,"station_id":"ce4bht12rcd13ifvqi60","pricing_plan_id":"cebpf4jnsgd1na2vs0mg"},{"bike_id":"09f811fc-ab4a-42b7-a739-0f8c9be6dce4","system_id":"levelo_inurba_marseille","lat":43.21186,"lon":5.35077,"is_reserved":false,"is_disabled":false,"rental_uris":{"android":"levelo://app?vid=09f811fc-ab4a-42b7-a739-0f8c9be6dce4","ios":"levelo://app?vid=09f811fc-ab4a-42b7-a739-0f8c9be6dce4"},"vehicle_type_id":"4","last_reported":1750011179,"current_range_meters":22400,"station_id":"st_cvj6sg6p6f1abm77japg","pricing_plan_id":"cebpf4jnsgd1na2vs0mg"},{"bike_id":"b38da09b-f621-4f83-85a7-31d404e707f9","system_id":"levelo_inurba_marseille","lat":43.25303,"lon":5.39352,"is_reserved":false,"is_disabled":false,"rental_uris":{"android":"levelo://app?vid=b38da09b-f621-4f83-85a7-31d404e707f9","ios":"levelo://app?vid=b38da09b-f621-4f83-85a7-31d404e707f9"},"vehicle_type_id":"4","last_reported":1750011179,"current_range_meters":22800,"station_id":"","pricing_plan_id":"cebpf4jnsgd1na2vs0mg"},{"bike_id":"aabb4ced-14a9-4190-9b67-fabd0f332ef1","system_id":"levelo_inurba_marseille","lat":43.30946,"lon":5.39022,"is_reserved":false,"is_disabled":false,"rental_uris":{"android":"levelo://app?vid=aabb4ced-14a9-4190-9b67-fabd0f332ef1","ios":"levelo://app?vid=aabb4ced-14a9-4190-9b67-fabd0f332ef1"},"vehicle_type_id":"4","last_reported":1750011179,"current_range_meters":22800,"station_id":"ce4bgup2rcd13ifvqco0","pricing_plan_id":"cebpf4jnsgd1na2vs0mg"},{"bike_id":"40527b77-2705-4a55-a6a4-84bf3a9cfdb8","system_id":"levelo_inurba_marseille","lat":43.29034,"lon":5.38656,"is_reserved":false,"is_disabled":false,"rental_uris":{"android":"levelo://app?vid=40527b77-2705-4a55-a6a4-84bf3a9cfdb8","ios":"levelo://app?vid=40527b77-2705-4a55-a6a4-84bf3a9cfdb8"},"vehicle_type_id":"4","last_reported":1750011179,"current_range_meters":22800,"station_id":"ce4bh4p2rcd13ifvqe0g","pricing_plan_id":"cebpf4jnsgd1na2vs0mg"},{"bike_id":"4da5dc54-e758-4d30-9774-0a39b2f0ad01","system_id":"levelo_inurba_marseille","lat":43.23959,"lon":5.36639,"is_reserved":false,"is_disabled":false,"rental_uris":{"android":"levelo://app?vid=4da5dc54-e758-4d30-9774-0a39b2f0ad01","ios":"levelo://app?vid=4da5dc54-e758-4d30-9774-0a39b2f0ad01"},"vehicle_type_id":"4","last_reported":1750011179,"current_range_meters":22800,"station_id":"ce4bhi12rcd13ifvqfp0","pricing_plan_id":"cebpf4jnsgd1na2vs0mg"},{"bike_id":"1a7d4bc9-d8c1-4807-9716-f39a0a11365e","system_id":"levelo_inurba_marseille","lat":43.23142,"lon":5.43694,"is_reserved":false,"is_disabled":false,"rental_uris":{"android":"levelo://app?vid=1a7d4bc9-d8c1-4807-9716-f39a0a11365e","ios":"levelo://app?vid=1a7d4bc9-d8c1-4807-9716-f39a0a11365e"},"vehicle_type_id":"4","last_reported":1750011179,"current_range_meters":22800,"station_id":"ce4bhmp2rcd13ifvqgog","pricing_plan_id":"cebpf4jnsgd1na2vs0mg"},{"bike_id":"113b35ba-4bfc-4653-9981-9c94fd020996","system_id":"levelo_inurba_marseille","lat":43.23189,"lon":5.35547,"is_reserved":false,"is_disabled":false,"rental_uris":{"android":"levelo://app?vid=113b35ba-4bfc-4653-9981-9c94fd020996","ios":"levelo://app?vid=113b35ba-4bfc-4653-9981-9c94fd020996"},"vehicle_type_id":"4","last_reported":1750011179,"current_range_meters":22800,"station_id":"ce4bhu92rcd13ifvqi70","pricing_plan_id":"cebpf4jnsgd1na2vs0mg"},{"bike_id":"f8f5c739-72f4-49b1-b3d4-90e1f195211d","system_id":"levelo_inurba_marseille","lat":43.211917,"lon":5.350763,"is_reserved":false,"is_disabled":false,"rental_uris":{"android":"levelo://app?vid=f8f5c739-72f4-49b1-b3d4-90e1f195211d","ios":"levelo://app?vid=f8f5c739-72f4-49b1-b3d4-90e1f195211d"},"vehicle_type_id":"4","last_reported":1750011179,"current_range_meters":22800,"station_id":"st_cvj6sg6p6f1abm77japg","pricing_plan_id":"cebpf4jnsgd1na2vs0mg"},{"bike_id":"bd6e1229-6d0a-4e94-8e67-3f9a17417cf8","system_id":"levelo_inurba_marseille","lat":43.29107,"lon":5.38254,"is_reserved":false,"is_disabled":false,"rental_uris":{"android":"levelo://app?vid=bd6e1229-6d0a-4e94-8e67-3f9a17417cf8","ios":"levelo://app?vid=bd6e1229-6d0a-4e94-8e67-3f9a17417cf8"},"vehicle_type_id":"4","last_reported":1750011179,"current_range_meters":23200,"station_id":"","pricing_plan_id":"cebpf4jnsgd1na2vs0mg"},{"bike_id":"7e2d3777-cd11-4fc7-b03d-5431ef86e495","system_id":"levelo_inurba_marseille","lat":43.3055,"lon":5.36711,"is_reserved":false,"is_disabled":false,"rental_uris":{"android":"levelo://app?vid=7e2d3777-cd11-4fc7-b03d-5431ef86e495","ios":"levelo://app?vid=7e2d3777-cd11-4fc7-b03d-5431ef86e495"},"vehicle_type_id":"4","last_reported":1750011179,"current_range_meters":23200,"station_id":"ce4bgrp2rcd13ifvqc9g","pricing_plan_id":"cebpf4jnsgd1na2vs0mg"},{"bike_id":"a895562e-7b04-44b7-9a5e-95b4c43fd47e","system_id":"levelo_inurba_marseille","lat":43.31802,"lon":5.37438,"is_reserved":false,"is_disabled":false,"rental_uris":{"android":"levelo://app?vid=a895562e-7b04-44b7-9a5e-95b4c43fd47e","ios":"levelo://app?vid=a895562e-7b04-44b7-9a5e-95b4c43fd47e"},"vehicle_type_id":"4","last_reported":1750011179,"current_range_meters":24000,"station_id":"","pricing_plan_id":"cebpf4jnsgd1na2vs0mg"},{"bike_id":"1ac79cd5-ec23-43d3-b4f8-ceb61207651b","system_id":"levelo_inurba_marseille","lat":43.32096,"lon":5.36782,"is_reserved":false,"is_disabled":false,"rental_uris":{"android":"levelo://app?vid=1ac79cd5-ec23-43d3-b4f8-ceb61207651b","ios":"levelo://app?vid=1ac79cd5-ec23-43d3-b4f8-ceb61207651b"},"vehicle_type_id":"4","last_reported":1750011179,"current_range_meters":24000,"station_id":"ce4bhrh2rcd13ifvqhug","pricing_plan_id":"cebpf4jnsgd1na2vs0mg"},{"bike_id":"6e109a25-b453-4c60-b595-9be2ab1913b0","system_id":"levelo_inurba_marseille","lat":43.2293,"lon":5.35367,"is_reserved":false,"is_disabled":false,"rental_uris":{"android":"levelo://app?vid=6e109a25-b453-4c60-b595-9be2ab1913b0","ios":"levelo://app?vid=6e109a25-b453-4c60-b595-9be2ab1913b0"},"vehicle_type_id":"4","last_reported":1750011179,"current_range_meters":24000,"station_id":"cpo3532slgdg3j2ikp40","pricing_plan_id":"cebpf4jnsgd1na2vs0mg"},{"bike_id":"c12de7de-5c91-4232-bff8-bcefa9eb4caf","system_id":"levelo_inurba_marseille","lat":43.26366,"lon":5.39896,"is_reserved":false,"is_disabled":false,"rental_uris":{"android":"levelo://app?vid=c12de7de-5c91-4232-bff8-bcefa9eb4caf","ios":"levelo://app?vid=c12de7de-5c91-4232-bff8-bcefa9eb4caf"},"vehicle_type_id":"4","last_reported":1750011179,"current_range_meters":24400,"station_id":"","pricing_plan_id":"cebpf4jnsgd1na2vs0mg"},{"bike_id":"6eb937ac-56fb-4529-beb5-6fe68138388e","system_id":"levelo_inurba_marseille","lat":43.28542,"lon":5.405477,"is_reserved":false,"is_disabled":false,"rental_uris":{"android":"levelo://app?vid=6eb937ac-56fb-4529-beb5-6fe68138388e","ios":"levelo://app?vid=6eb937ac-56fb-4529-beb5-6fe68138388e"},"vehicle_type_id":"4","last_reported":1750011179,"current_range_meters":24400,"station_id":"","pricing_plan_id":"cebpf4jnsgd1na2vs0mg"},{"bike_id":"cbd7bdb7-1d4d-4869-8924-d7daeae0eda1","system_id":"levelo_inurba_marseille","lat":43.293019,"lon":5.374523,"is_reserved":false,"is_disabled":false,"rental_uris":{"android":"levelo://app?vid=cbd7bdb7-1d4d-4869-8924-d7daeae0eda1","ios":"levelo://app?vid=cbd7bdb7-1d4d-4869-8924-d7daeae0eda1"},"vehicle_type_id":"4","last_reported":1750011179,"current_range_meters":24400,"station_id":"ce4bgi12rcd13ifvqb70","pricing_plan_id":"cebpf4jnsgd1na2vs0mg"},{"bike_id":"f520fbf3-94d3-40d8-9697-86781f6f86d3","system_id":"levelo_inurba_marseille","lat":43.29625,"lon":5.37726,"is_reserved":false,"is_disabled":false,"rental_uris":{"android":"levelo://app?vid=f520fbf3-94d3-40d8-9697-86781f6f86d3","ios":"levelo://app?vid=f520fbf3-94d3-40d8-9697-86781f6f86d3"},"vehicle_type_id":"4","last_reported":1750011179,"current_range_meters":24400,"station_id":"ce4bgi92rcd13ifvqb90","pricing_plan_id":"cebpf4jnsgd1na2vs0mg"},{"bike_id":"28b890c0-b7b2-4d3f-af9c-8f54ca13c3b4","system_id":"levelo_inurba_marseille","lat":43.284172,"lon":5.375038,"is_reserved":false,"is_disabled":false,"rental_uris":{"android":"levelo://app?vid=28b890c0-b7b2-4d3f-af9c-8f54ca13c3b4","ios":"levelo://app?vid=28b890c0-b7b2-4d3f-af9c-8f54ca13c3b4"},"vehicle_type_id":"4","last_reported":1750011179,"current_range_meters":24400,"station_id":"ce4bh412rcd13ifvqds0","pricing_plan_id":"cebpf4jnsgd1na2vs0mg"},{"bike_id":"ba3a1599-8aba-4abc-bfec-73f29d321f50","system_id":"levelo_inurba_marseille","lat":43.29281,"lon":5.38444,"is_reserved":false,"is_disabled":false,"rental_uris":{"android":"levelo://app?vid=ba3a1599-8aba-4abc-bfec-73f29d321f50","ios":"levelo://app?vid=ba3a1599-8aba-4abc-bfec-73f29d321f50"},"vehicle_type_id":"4","last_reported":1750011179,"current_range_meters":24400,"station_id":"ce4bh692rcd13ifvqea0","pricing_plan_id":"cebpf4jnsgd1na2vs0mg"},{"bike_id":"34f5df7b-679a-4642-9fb7-a2d3a3127c11","system_id":"levelo_inurba_marseille","lat":43.279929,"lon":5.387333,"is_reserved":false,"is_disabled":false,"rental_uris":{"android":"levelo://app?vid=34f5df7b-679a-4642-9fb7-a2d3a3127c11","ios":"levelo://app?vid=34f5df7b-679a-4642-9fb7-a2d3a3127c11"},"vehicle_type_id":"4","last_reported":1750011179,"current_range_meters":24400,"station_id":"ce4bhg12rcd13ifvqf80","pricing_plan_id":"cebpf4jnsgd1na2vs0mg"},{"bike_id":"c8dfb0ea-7452-4653-979a-81a495939d6b","system_id":"levelo_inurba_marseille","lat":43.298992,"lon":5.436736,"is_reserved":false,"is_disabled":false,"rental_uris":{"android":"levelo://app?vid=c8dfb0ea-7452-4653-979a-81a495939d6b","ios":"levelo://app?vid=c8dfb0ea-7452-4653-979a-81a495939d6b"},"vehicle_type_id":"4","last_reported":1750011179,"current_range_meters":24400,"station_id":"ce4bhpp2rcd13ifvqhfg","pricing_plan_id":"cebpf4jnsgd1na2vs0mg"},{"bike_id":"508c6318-2e37-4161-9247-29cc1ffa502e","system_id":"levelo_inurba_marseille","lat":43.311576,"lon":5.405245,"is_reserved":false,"is_disabled":false,"rental_uris":{"android":"levelo://app?vid=508c6318-2e37-4161-9247-29cc1ffa502e","ios":"levelo://app?vid=508c6318-2e37-4161-9247-29cc1ffa502e"},"vehicle_type_id":"4","last_reported":1750011179,"current_range_meters":24400,"station_id":"ce4bhq12rcd13ifvqhig","pricing_plan_id":"cebpf4jnsgd1na2vs0mg"},{"bike_id":"1a5ada1c-a5af-491e-8169-4d16d8f96188","system_id":"levelo_inurba_marseille","lat":43.323614,"lon":5.367733,"is_reserved":false,"is_disabled":false,"rental_uris":{"android":"levelo://app?vid=1a5ada1c-a5af-491e-8169-4d16d8f96188","ios":"levelo://app?vid=1a5ada1c-a5af-491e-8169-4d16d8f96188"},"vehicle_type_id":"4","last_reported":1750011179,"current_range_meters":24400,"station_id":"ce4bhsh2rcd13ifvqi2g","pricing_plan_id":"cebpf4jnsgd1na2vs0mg"},{"bike_id":"39d32260-51d5-455a-ba53-6471389bd255","system_id":"levelo_inurba_marseille","lat":43.31941,"lon":5.37676,"is_reserved":false,"is_disabled":false,"rental_uris":{"android":"levelo://app?vid=39d32260-51d5-455a-ba53-6471389bd255","ios":"levelo://app?vid=39d32260-51d5-455a-ba53-6471389bd255"},"vehicle_type_id":"4","last_reported":1750011179,"current_range_meters":24800,"station_id":"","pricing_plan_id":"cebpf4jnsgd1na2vs0mg"},{"bike_id":"d9b473ff-dd77-4097-af79-177759489fc1","system_id":"levelo_inurba_marseille","lat":43.29521,"lon":5.39034,"is_reserved":false,"is_disabled":false,"rental_uris":{"android":"levelo://app?vid=d9b473ff-dd77-4097-af79-177759489fc1","ios":"levelo://app?vid=d9b473ff-dd77-4097-af79-177759489fc1"},"vehicle_type_id":"4","last_reported":1750011179,"current_range_meters":24800,"station_id":"ce4bh3p2rcd13ifvqdp0","pricing_plan_id":"cebpf4jnsgd1na2vs0mg"},{"bike_id":"32e6d034-8d54-4360-913d-04d10c8dc504","system_id":"levelo_inurba_marseille","lat":43.25721,"lon":5.41112,"is_reserved":false,"is_disabled":false,"rental_uris":{"android":"levelo://app?vid=32e6d034-8d54-4360-913d-04d10c8dc504","ios":"levelo://app?vid=32e6d034-8d54-4360-913d-04d10c8dc504"},"vehicle_type_id":"4","last_reported":1750011179,"current_range_meters":24800,"station_id":"ce4bhkp2rcd13ifvqgd0","pricing_plan_id":"cebpf4jnsgd1na2vs0mg"},{"bike_id":"4964a446-08e6-489d-880e-44799a06e92f","system_id":"levelo_inurba_marseille","lat":43.31886,"lon":5.40744,"is_reserved":false,"is_disabled":false,"rental_uris":{"android":"levelo://app?vid=4964a446-08e6-489d-880e-44799a06e92f","ios":"levelo://app?vid=4964a446-08e6-489d-880e-44799a06e92f"},"vehicle_type_id":"4","last_reported":1750011179,"current_range_meters":24800,"station_id":"ce4bhq12rcd13ifvqhig","pricing_plan_id":"cebpf4jnsgd1na2vs0mg"},{"bike_id":"e92f5c35-482e-4290-99a9-307d1246875e","system_id":"levelo_inurba_marseille","lat":43.303104,"lon":5.392135,"is_reserved":false,"is_disabled":false,"rental_uris":{"android":"levelo://app?vid=e92f5c35-482e-4290-99a9-307d1246875e","ios":"levelo://app?vid=e92f5c35-482e-4290-99a9-307d1246875e"},"vehicle_type_id":"4","last_reported":1750011179,"current_range_meters":25200,"station_id":"ce4bgkh2rcd13ifvqbk0","pricing_plan_id":"cebpf4jnsgd1na2vs0mg"},{"bike_id":"cba91c68-3193-4eea-abdb-3d1826da54e2","system_id":"levelo_inurba_marseille","lat":43.29194,"lon":5.39327,"is_reserved":false,"is_disabled":false,"rental_uris":{"android":"levelo://app?vid=cba91c68-3193-4eea-abdb-3d1826da54e2","ios":"levelo://app?vid=cba91c68-3193-4eea-abdb-3d1826da54e2"},"vehicle_type_id":"4","last_reported":1750011179,"current_range_meters":25200,"station_id":"ce4bh192rcd13ifvqdd0","pricing_plan_id":"cebpf4jnsgd1na2vs0mg"},{"bike_id":"835d1b68-3bb3-4ba2-a2a6-e35e2a260e9c","system_id":"levelo_inurba_marseille","lat":43.2814,"lon":5.42659,"is_reserved":false,"is_disabled":false,"rental_uris":{"android":"levelo://app?vid=835d1b68-3bb3-4ba2-a2a6-e35e2a260e9c","ios":"levelo://app?vid=835d1b68-3bb3-4ba2-a2a6-e35e2a260e9c"},"vehicle_type_id":"4","last_reported":1750011179,"current_range_meters":25200,"station_id":"ce4bhnh2rcd13ifvqgug","pricing_plan_id":"cebpf4jnsgd1na2vs0mg"},{"bike_id":"5b27f6a3-dfa4-4298-873d-1cde9d444ecd","system_id":"levelo_inurba_marseille","lat":43.32344,"lon":5.40622,"is_reserved":false,"is_disabled":false,"rental_uris":{"android":"levelo://app?vid=5b27f6a3-dfa4-4298-873d-1cde9d444ecd","ios":"levelo://app?vid=5b27f6a3-dfa4-4298-873d-1cde9d444ecd"},"vehicle_type_id":"4","last_reported":1750011179,"current_range_meters":25200,"station_id":"ce4bhq92rcd13ifvqhjg","pricing_plan_id":"cebpf4jnsgd1na2vs0mg"},{"bike_id":"d55c6d2b-5336-46f2-97dd-90834fd3b35e","system_id":"levelo_inurba_marseille","lat":43.2119,"lon":5.35075,"is_reserved":false,"is_disabled":false,"rental_uris":{"android":"levelo://app?vid=d55c6d2b-5336-46f2-97dd-90834fd3b35e","ios":"levelo://app?vid=d55c6d2b-5336-46f2-97dd-90834fd3b35e"},"vehicle_type_id":"4","last_reported":1750011179,"current_range_meters":25200,"station_id":"st_cvj6sg6p6f1abm77japg","pricing_plan_id":"cebpf4jnsgd1na2vs0mg"},{"bike_id":"8e628f81-9b1b-4066-968f-b1af6e1b58a3","system_id":"levelo_inurba_marseille","lat":43.23137,"lon":5.35505,"is_reserved":false,"is_disabled":false,"rental_uris":{"android":"levelo://app?vid=8e628f81-9b1b-4066-968f-b1af6e1b58a3","ios":"levelo://app?vid=8e628f81-9b1b-4066-968f-b1af6e1b58a3"},"vehicle_type_id":"4","last_reported":1750011179,"current_range_meters":25600,"station_id":"","pricing_plan_id":"cebpf4jnsgd1na2vs0mg"},{"bike_id":"407f0983-9847-4bb5-814b-599e964e48eb","system_id":"levelo_inurba_marseille","lat":43.29962,"lon":5.38479,"is_reserved":false,"is_disabled":false,"rental_uris":{"android":"levelo://app?vid=407f0983-9847-4bb5-814b-599e964e48eb","ios":"levelo://app?vid=407f0983-9847-4bb5-814b-599e964e48eb"},"vehicle_type_id":"4","last_reported":1750011179,"current_range_meters":25600,"station_id":"ce4bgj92rcd13ifvqbd0","pricing_plan_id":"cebpf4jnsgd1na2vs0mg"},{"bike_id":"611f3dd7-cb7c-4115-91dd-1b7925c967ed","system_id":"levelo_inurba_marseille","lat":43.30133,"lon":5.39869,"is_reserved":false,"is_disabled":false,"rental_uris":{"android":"levelo://app?vid=611f3dd7-cb7c-4115-91dd-1b7925c967ed","ios":"levelo://app?vid=611f3dd7-cb7c-4115-91dd-1b7925c967ed"},"vehicle_type_id":"4","last_reported":1750011179,"current_range_meters":25600,"station_id":"ce4bh0h2rcd13ifvqd40","pricing_plan_id":"cebpf4jnsgd1na2vs0mg"},{"bike_id":"db012d1b-8ddb-4d21-9e74-561b48aecc91","system_id":"levelo_inurba_marseille","lat":43.32367,"lon":5.36772,"is_reserved":false,"is_disabled":false,"rental_uris":{"android":"levelo://app?vid=db012d1b-8ddb-4d21-9e74-561b48aecc91","ios":"levelo://app?vid=db012d1b-8ddb-4d21-9e74-561b48aecc91"},"vehicle_type_id":"4","last_reported":1750011179,"current_range_meters":25600,"station_id":"ce4bhsh2rcd13ifvqi2g","pricing_plan_id":"cebpf4jnsgd1na2vs0mg"},{"bike_id":"d00b38b4-7d70-4669-9c26-1a2a784b611e","system_id":"levelo_inurba_marseille","lat":43.23062,"lon":5.35488,"is_reserved":false,"is_disabled":false,"rental_uris":{"android":"levelo://app?vid=d00b38b4-7d70-4669-9c26-1a2a784b611e","ios":"levelo://app?vid=d00b38b4-7d70-4669-9c26-1a2a784b611e"},"vehicle_type_id":"4","last_reported":1750011179,"current_range_meters":25600,"station_id":"cpo3342slgdg3j2ifvpg","pricing_plan_id":"cebpf4jnsgd1na2vs0mg"},{"bike_id":"5133f30b-16de-4240-972c-55b7b8c92173","system_id":"levelo_inurba_marseille","lat":43.23061,"lon":5.35492,"is_reserved":false,"is_disabled":false,"rental_uris":{"android":"levelo://app?vid=5133f30b-16de-4240-972c-55b7b8c92173","ios":"levelo://app?vid=5133f30b-16de-4240-972c-55b7b8c92173"},"vehicle_type_id":"4","last_reported":1750011179,"current_range_meters":25600,"station_id":"cpo3342slgdg3j2ifvpg","pricing_plan_id":"cebpf4jnsgd1na2vs0mg"},{"bike_id":"1c1c7580-6a1a-4c72-8e5e-39cc37b8dfe6","system_id":"levelo_inurba_marseille","lat":43.21191,"lon":5.35088,"is_reserved":false,"is_disabled":false,"rental_uris":{"android":"levelo://app?vid=1c1c7580-6a1a-4c72-8e5e-39cc37b8dfe6","ios":"levelo://app?vid=1c1c7580-6a1a-4c72-8e5e-39cc37b8dfe6"},"vehicle_type_id":"4","last_reported":1750011179,"current_range_meters":25600,"station_id":"st_cvj6sg6p6f1abm77japg","pricing_plan_id":"cebpf4jnsgd1na2vs0mg"},{"bike_id":"9f1ac412-eaf9-48ab-af28-9f8597d6903b","system_id":"levelo_inurba_marseille","lat":43.29274,"lon":5.38427,"is_reserved":false,"is_disabled":false,"rental_uris":{"android":"levelo://app?vid=9f1ac412-eaf9-48ab-af28-9f8597d6903b","ios":"levelo://app?vid=9f1ac412-eaf9-48ab-af28-9f8597d6903b"},"vehicle_type_id":"4","last_reported":1750011179,"current_range_meters":26000,"station_id":"ce4bh692rcd13ifvqea0","pricing_plan_id":"cebpf4jnsgd1na2vs0mg"},{"bike_id":"fa1edba4-f090-4873-b496-11eff1d6aaa9","system_id":"levelo_inurba_marseille","lat":43.243615,"lon":5.411673,"is_reserved":false,"is_disabled":false,"rental_uris":{"android":"levelo://app?vid=fa1edba4-f090-4873-b496-11eff1d6aaa9","ios":"levelo://app?vid=fa1edba4-f090-4873-b496-11eff1d6aaa9"},"vehicle_type_id":"4","last_reported":1750011179,"current_range_meters":26800,"station_id":"","pricing_plan_id":"cebpf4jnsgd1na2vs0mg"},{"bike_id":"cffe0652-2035-4c3e-83f5-71cbc6289b80","system_id":"levelo_inurba_marseille","lat":43.24459,"lon":5.36964,"is_reserved":false,"is_disabled":false,"rental_uris":{"android":"levelo://app?vid=cffe0652-2035-4c3e-83f5-71cbc6289b80","ios":"levelo://app?vid=cffe0652-2035-4c3e-83f5-71cbc6289b80"},"vehicle_type_id":"4","last_reported":1750011179,"current_range_meters":26800,"station_id":"","pricing_plan_id":"cebpf4jnsgd1na2vs0mg"},{"bike_id":"502ac234-14b4-4174-b970-e37202b6f661","system_id":"levelo_inurba_marseille","lat":43.34039,"lon":5.3749,"is_reserved":false,"is_disabled":false,"rental_uris":{"android":"levelo://app?vid=502ac234-14b4-4174-b970-e37202b6f661","ios":"levelo://app?vid=502ac234-14b4-4174-b970-e37202b6f661"},"vehicle_type_id":"4","last_reported":1750011179,"current_range_meters":26800,"station_id":"","pricing_plan_id":"cebpf4jnsgd1na2vs0mg"},{"bike_id":"dc442b2e-85af-4e3b-84a7-eff4c023aa11","system_id":"levelo_inurba_marseille","lat":43.31333,"lon":5.39692,"is_reserved":false,"is_disabled":false,"rental_uris":{"android":"levelo://app?vid=dc442b2e-85af-4e3b-84a7-eff4c023aa11","ios":"levelo://app?vid=dc442b2e-85af-4e3b-84a7-eff4c023aa11"},"vehicle_type_id":"4","last_reported":1750011179,"current_range_meters":26800,"station_id":"ce4bgvp2rcd13ifvqcu0","pricing_plan_id":"cebpf4jnsgd1na2vs0mg"},{"bike_id":"add59bed-0a3e-4f97-8f37-31adab549f5e","system_id":"levelo_inurba_marseille","lat":43.23188,"lon":5.399848,"is_reserved":false,"is_disabled":false,"rental_uris":{"android":"levelo://app?vid=add59bed-0a3e-4f97-8f37-31adab549f5e","ios":"levelo://app?vid=add59bed-0a3e-4f97-8f37-31adab549f5e"},"vehicle_type_id":"4","last_reported":1750011179,"current_range_meters":26800,"station_id":"ce4bhn12rcd13ifvqgqg","pricing_plan_id":"cebpf4jnsgd1na2vs0mg"},{"bike_id":"1864a967-7be2-4414-94cf-03be59fd5a18","system_id":"levelo_inurba_marseille","lat":43.24062,"lon":5.37755,"is_reserved":false,"is_disabled":false,"rental_uris":{"android":"levelo://app?vid=1864a967-7be2-4414-94cf-03be59fd5a18","ios":"levelo://app?vid=1864a967-7be2-4414-94cf-03be59fd5a18"},"vehicle_type_id":"4","last_reported":1750011179,"current_range_meters":26800,"station_id":"ce4bhnp2rcd13ifvqgvg","pricing_plan_id":"cebpf4jnsgd1na2vs0mg"},{"bike_id":"9fb6f18d-4852-43b5-ba55-a4e15c339a9b","system_id":"levelo_inurba_marseille","lat":43.23188,"lon":5.35551,"is_reserved":false,"is_disabled":false,"rental_uris":{"android":"levelo://app?vid=9fb6f18d-4852-43b5-ba55-a4e15c339a9b","ios":"levelo://app?vid=9fb6f18d-4852-43b5-ba55-a4e15c339a9b"},"vehicle_type_id":"4","last_reported":1750011179,"current_range_meters":26800,"station_id":"ce4bhu92rcd13ifvqi70","pricing_plan_id":"cebpf4jnsgd1na2vs0mg"},