{"last_updated":1741637472,"ttl":60,"version":"2.2","data":{"bikes":[{"bike_id":"1afb6c21-592b-4c21-bf9d-c2e1694fea2f","system_id":"levelo_inurba_marseille","lat":43.27983,"lon":5.41654,"is_reserved":false,"is_disabled":false,"rental_uris":{"android":"levelo://app?vid=1afb6c21-592b-4c21-bf9d-c2e1694fea2f","ios":"levelo://app?vid=1afb6c21-592b-4c21-bf9d-c2e1694fea2f"},"vehicle_type_id":"4","last_reported":1741637472,"current_range_meters":2800,"station_id":"ce4bho12rcd13ifvqh1g","pricing_plan_id":"cebpf4jnsgd1na2vs0mg"},{"bike_id":"5e81d631-bac7-479e-b2e8-f374d04661cc","system_id":"levelo_inurba_marseille","lat":43.32335,"lon":5.40614,"is_reserved":false,"is_disabled":false,"rental_uris":{"android":"levelo://app?vid=5e81d631-bac7-479e-b2e8-f374d04661cc","ios":"levelo://app?vid=5e81d631-bac7-479e-b2e8-f374d04661cc"},"vehicle_type_id":"4","last_reported":1741637472,"current_range_meters":2800,"station_id":"ce4bhq92rcd13ifvqhjg","pricing_plan_id":"cebpf4jnsgd1na2vs0mg"},{"bike_id":"1060ed3d-d29f-44dc-8ec5-e40675c34371","system_id":"levelo_inurba_marseille","lat":43.30882,"lon":5.3965,"is_reserved":false,"is_disabled":false,"rental_uris":{"android":"levelo://app?vid=1060ed3d-d29f-44dc-8ec5-e40675c34371","ios":"levelo://app?vid=1060ed3d-d29f-44dc-8ec5-e40675c34371"},"vehicle_type_id":"4","last_reported":1741637472,"current_range_meters":2800,"station_id":"ce4bh012rcd13ifvqcv0","pricing_plan_id":"cebpf4jnsgd1na2vs0mg"},{"bike_id":"7e41a6b1-b745-4a2f-b7c5-d1162b123159","system_id":"levelo_inurba_marseille","lat":43.27997,"lon":5.40019,"is_reserved":false,"is_disabled":false,"rental_uris":{"android":"levelo://app?vid=7e41a6b1-b745-4a2f-b7c5-d1162b123159","ios":"levelo://app?vid=7e41a6b1-b745-4a2f-b7c5-d1162b123159"},"vehicle_type_id":"4","last_reported":1741637472,"current_range_meters":2800,"station_id":"ce4bho92rcd13ifvqh4g","pricing_plan_id":"cebpf4jnsgd1na2vs0mg"},{"bike_id":"99b49a92-b076-41b9-88e7-09cd6ee45423","system_id":"levelo_inurba_marseille","lat":43.31364,"lon":5.38502,"is_reserved":false,"is_disabled":false,"rental_uris":{"android":"levelo://app?vid=99b49a92-b076-41b9-88e7-09cd6ee45423","ios":"levelo://app?vid=99b49a92-b076-41b9-88e7-09cd6ee45423"},"vehicle_type_id":"4","last_reported":1741637472,"current_range_meters":2800,"station_id":"ce4bgt92rcd13ifvqcf0","pricing_plan_id":"cebpf4jnsgd1na2vs0mg"},{"bike_id":"19bbe8da-d7df-496e-a677-cbaab925cf5e","system_id":"levelo_inurba_marseille","lat":43.24888,"lon":5.42541,"is_reserved":false,"is_disabled":false,"rental_uris":{"android":"levelo://app?vid=19bbe8da-d7df-496e-a677-cbaab925cf5e","ios":"levelo://app?vid=19bbe8da-d7df-496e-a677-cbaab925cf5e"},"vehicle_type_id":"4","last_reported":1741637472,"current_range_meters":3200,"station_id":"","pricing_plan_id":"cebpf4jnsgd1na2vs0mg"},{"bike_id":"0237689c-b5f5-4c16-a927-51dc56fce20a","system_id":"levelo_inurba_marseille","lat":43.31009,"lon":5.38964,"is_reserved":false,"is_disabled":false,"rental_uris":{"android":"levelo://app?vid=0237689c-b5f5-4c16-a927-51dc56fce20a","ios":"levelo://app?vid=0237689c-b5f5-4c16-a927-51dc56fce20a"},"vehicle_type_id":"4","last_reported":1741637472,"current_range_meters":3200,"station_id":"ce4bgv12rcd13ifvqcp0","pricing_plan_id":"cebpf4jnsgd1na2vs0mg"},{"bike_id":"7e3b6732-5d30-44ba-8ff3-1bbc6583984b","system_id":"levelo_inurba_marseille","lat":43.31295,"lon":5.38509,"is_reserved":false,"is_disabled":false,"rental_uris":{"android":"levelo://app?vid=7e3b6732-5d30-44ba-8ff3-1bbc6583984b","ios":"levelo://app?vid=7e3b6732-5d30-44ba-8ff3-1bbc6583984b"},"vehicle_type_id":"4","last_reported":1741637472,"current_range_meters":3200,"station_id":"","pricing_plan_id":"cebpf4jnsgd1na2vs0mg"},{"bike_id":"d0a6dfb7-95e9-4255-bedd-ed22dabd6261","system_id":"levelo_inurba_marseille","lat":43.32068,"lon":5.41541,"is_reserved":false,"is_disabled":false,"rental_uris":{"android":"levelo://app?vid=d0a6dfb7-95e9-4255-bedd-ed22dabd6261","ios":"levelo://app?vid=d0a6dfb7-95e9-4255-bedd-ed22dabd6261"},"vehicle_type_id":"4","last_reported":1741637472,"current_range_meters":3600,"station_id":"ce4bhq92rcd13ifvqhkg","pricing_plan_id":"cebpf4jnsgd1na2vs0mg"},{"bike_id":"ade3938e-b791-4112-8665-494d9c740333","system_id":"levelo_inurba_marseille","lat":43.28461,"lon":5.35895,"is_reserved":false,"is_disabled":false,"rental_uris":{"android":"levelo://app?vid=ade3938e-b791-4112-8665-494d9c740333","ios":"levelo://app?vid=ade3938e-b791-4112-8665-494d9c740333"},"vehicle_type_id":"4","last_reported":1741637472,"current_range_meters":3600,"station_id":"ce4bhah2rcd13ifvqei0","pricing_plan_id":"cebpf4jnsgd1na2vs0mg"},{"bike_id":"c2309335-af79-4267-886b-cf11af772657","system_id":"levelo_inurba_marseille","lat":43.27952,"lon":5.41042,"is_reserved":false,"is_disabled":true,"rental_uris":{"android":"levelo://app?vid=c2309335-af79-4267-886b-cf11af772657","ios":"levelo://app?vid=c2309335-af79-4267-886b-cf11af772657"},"vehicle_type_id":"4","last_reported":1741637472,"current_range_meters":3600,"station_id":"ce4bhnp2rcd13ifvqh0g","pricing_plan_id":"cebpf4jnsgd1na2vs0mg"},{"bike_id":"d8c6013c-d253-4427-aac6-a3e3798286c2","system_id":"levelo_inurba_marseille","lat":43.26952,"lon":5.38638,"is_reserved":false,"is_disabled":false,"rental_uris":{"android":"levelo://app?vid=d8c6013c-d253-4427-aac6-a3e3798286c2","ios":"levelo://app?vid=d8c6013c-d253-4427-aac6-a3e3798286c2"},"vehicle_type_id":"4","last_reported":1741637472,"current_range_meters":3600,"station_id":"ce4bhh92rcd13ifvqfh0","pricing_plan_id":"cebpf4jnsgd1na2vs0mg"},{"bike_id":"0eab35a5-dc95-4414-8d94-9322e895d4d5","system_id":"levelo_inurba_marseille","lat":43.29719,"lon":5.36604,"is_reserved":false,"is_disabled":false,"rental_uris":{"android":"levelo://app?vid=0eab35a5-dc95-4414-8d94-9322e895d4d5","ios":"levelo://app?vid=0eab35a5-dc95-4414-8d94-9322e895d4d5"},"vehicle_type_id":"4","last_reported":1741637472,"current_range_meters":4400,"station_id":"ce4bgn12rcd13ifvqbt0","pricing_plan_id":"cebpf4jnsgd1na2vs0mg"},{"bike_id":"d4344590-ead5-44d9-b164-201547082cf4","system_id":"levelo_inurba_marseille","lat":43.28363,"lon":5.38107,"is_reserved":false,"is_disabled":false,"rental_uris":{"android":"levelo://app?vid=d4344590-ead5-44d9-b164-201547082cf4","ios":"levelo://app?vid=d4344590-ead5-44d9-b164-201547082cf4"},"vehicle_type_id":"4","last_reported":1741637472,"current_range_meters":5600,"station_id":"ce4bh412rcd13ifvqdr0","pricing_plan_id":"cebpf4jnsgd1na2vs0mg"},{"bike_id":"4711a0d3-184b-4ba2-86aa-fea8964a4a5c","system_id":"levelo_inurba_marseille","lat":43.31083,"lon":5.42425,"is_reserved":false,"is_disabled":false,"rental_uris":{"android":"levelo://app?vid=4711a0d3-184b-4ba2-86aa-fea8964a4a5c","ios":"levelo://app?vid=4711a0d3-184b-4ba2-86aa-fea8964a4a5c"},"vehicle_type_id":"4","last_reported":1741637472,"current_range_meters":5600,"station_id":"ce4bhp92rcd13ifvqhag","pricing_plan_id":"cebpf4jnsgd1na2vs0mg"},{"bike_id":"ffabacd6-59d5-4e93-b987-7e83309d9413","system_id":"levelo_inurba_marseille","lat":43.29764,"lon":5.40077,"is_reserved":false,"is_disabled":false,"rental_uris":{"android":"levelo://app?vid=ffabacd6-59d5-4e93-b987-7e83309d9413","ios":"levelo://app?vid=ffabacd6-59d5-4e93-b987-7e83309d9413"},"vehicle_type_id":"4","last_reported":1741637472,"current_range_meters":5600,"station_id":"","pricing_plan_id":"cebpf4jnsgd1na2vs0mg"},{"bike_id":"96886562-387d-4deb-8b80-1bc6653e972f","system_id":"levelo_inurba_marseille","lat":43.262268,"lon":5.404487,"is_reserved":false,"is_disabled":false,"rental_uris":{"android":"levelo://app?vid=96886562-387d-4deb-8b80-1bc6653e972f","ios":"levelo://app?vid=96886562-387d-4deb-8b80-1bc6653e972f"},"vehicle_type_id":"4","last_reported":1741637472,"current_range_meters":6400,"station_id":"ce4bhmh2rcd13ifvqgmg","pricing_plan_id":"cebpf4jnsgd1na2vs0mg"},{"bike_id":"eda90d26-077b-496f-9b07-236a330828c6","system_id":"levelo_inurba_marseille","lat":43.28949,"lon":5.36639,"is_reserved":false,"is_disabled":false,"rental_uris":{"android":"levelo://app?vid=eda90d26-077b-496f-9b07-236a330828c6","ios":"levelo://app?vid=eda90d26-077b-496f-9b07-236a330828c6"},"vehicle_type_id":"4","last_reported":1741637472,"current_range_meters":6400,"station_id":"ce4bhap2rcd13ifvqek0","pricing_plan_id":"cebpf4jnsgd1na2vs0mg"},{"bike_id":"089fa96c-06f0-4a31-aa59-e3a83d994d6c","system_id":"levelo_inurba_marseille","lat":43.28151,"lon":5.42625,"is_reserved":false,"is_disabled":false,"rental_uris":{"android":"levelo://app?vid=089fa96c-06f0-4a31-aa59-e3a83d994d6c","ios":"levelo://app?vid=089fa96c-06f0-4a31-aa59-e3a83d994d6c"},"vehicle_type_id":"4","last_reported":1741637472,"current_range_meters":6400,"station_id":"ce4bhnh2rcd13ifvqgug","pricing_plan_id":"cebpf4jnsgd1na2vs0mg"},{"bike_id":"65ebf940-f6f1-4ba2-8b75-2b2127dd3199","system_id":"levelo_inurba_marseille","lat":43.2502,"lon":5.3809,"is_reserved":false,"is_disabled":false,"rental_uris":{"android":"levelo://app?vid=65ebf940-f6f1-4ba2-8b75-2b2127dd3199","ios":"levelo://app?vid=65ebf940-f6f1-4ba2-8b75-2b2127dd3199"},"vehicle_type_id":"4","last_reported":1741637472,"current_range_meters":6400,"station_id":"","pricing_plan_id":"cebpf4jnsgd1na2vs0mg"},{"bike_id":"31539c7e-263f-41a0-9bbd-d84ef61afda0","system_id":"levelo_inurba_marseille","lat":43.24401,"lon":5.37049,"is_reserved":false,"is_disabled":false,"rental_uris":{"android":"levelo://app?vid=31539c7e-263f-41a0-9bbd-d84ef61afda0","ios":"levelo://app?vid=31539c7e-263f-41a0-9bbd-d84ef61afda0"},"vehicle_type_id":"4","last_reported":1741637472,"current_range_meters":6400,"station_id":"ce4bhhh2rcd13ifvqfk0","pricing_plan_id":"cebpf4jnsgd1na2vs0mg"},{"bike_id":"a9513c60-8354-4509-925d-b24d71f9c0c5","system_id":"levelo_inurba_marseille","lat":43.25859,"lon":5.39911,"is_reserved":false,"is_disabled":false,"rental_uris":{"android":"levelo://app?vid=a9513c60-8354-4509-925d-b24d71f9c0c5","ios":"levelo://app?vid=a9513c60-8354-4509-925d-b24d71f9c0c5"},"vehicle_type_id":"4","last_reported":1741637472,"current_range_meters":6800,"station_id":"ce4bhl92rcd13ifvqghg","pricing_plan_id":"cebpf4jnsgd1na2vs0mg"},{"bike_id":"35be52e8-6b84-4099-8ea0-f38652827724","system_id":"levelo_inurba_marseille","lat":43.30613,"lon":5.39355,"is_reserved":false,"is_disabled":true,"rental_uris":{"android":"levelo://app?vid=35be52e8-6b84-4099-8ea0-f38652827724","ios":"levelo://app?vid=35be52e8-6b84-4099-8ea0-f38652827724"},"vehicle_type_id":"4","last_reported":1741637472,"current_range_meters":6800,"station_id":"ce4bh0p2rcd13ifvqd80","pricing_plan_id":"cebpf4jnsgd1na2vs0mg"},{"bike_id":"e1d637b9-c6a3-4beb-886b-6fae1d961dfa","system_id":"levelo_inurba_marseille","lat":43.32658,"lon":5.40993,"is_reserved":false,"is_disabled":false,"rental_uris":{"android":"levelo://app?vid=e1d637b9-c6a3-4beb-886b-6fae1d961dfa","ios":"levelo://app?vid=e1d637b9-c6a3-4beb-886b-6fae1d961dfa"},"vehicle_type_id":"4","last_reported":1741637472,"current_range_meters":6800,"station_id":"ce4bhpp2rcd13ifvqhgg","pricing_plan_id":"cebpf4jnsgd1na2vs0mg"},{"bike_id":"7f5c0b4b-b53d-4d85-a954-23247f299b75","system_id":"levelo_inurba_marseille","lat":43.25149,"lon":5.40349,"is_reserved":false,"is_disabled":false,"rental_uris":{"android":"levelo://app?vid=7f5c0b4b-b53d-4d85-a954-23247f299b75","ios":"levelo://app?vid=7f5c0b4b-b53d-4d85-a954-23247f299b75"},"vehicle_type_id":"4","last_reported":1741637472,"current_range_meters":6800,"station_id":"","pricing_plan_id":"cebpf4jnsgd1na2vs0mg"},{"bike_id":"b104001a-10f7-4c93-b613-2b76cb885027","system_id":"levelo_inurba_marseille","lat":43.31159,"lon":5.37086,"is_reserved":false,"is_disabled":false,"rental_uris":{"android":"levelo://app?vid=b104001a-10f7-4c93-b613-2b76cb885027","ios":"levelo://app?vid=b104001a-10f7-4c93-b613-2b76cb885027"},"vehicle_type_id":"4","last_reported":1741637472,"current_range_meters":6800,"station_id":"","pricing_plan_id":"cebpf4jnsgd1na2vs0mg"},{"bike_id":"b2a36fb1-e467-42a8-8a29-7da169d1c670","system_id":"levelo_inurba_marseille","lat":43.3266,"lon":5.40998,"is_reserved":false,"is_disabled":false,"rental_uris":{"android":"levelo://app?vid=b2a36fb1-e467-42a8-8a29-7da169d1c670","ios":"levelo://app?vid=b2a36fb1-e467-42a8-8a29-7da169d1c670"},"vehicle_type_id":"4","last_reported":1741637472,"current_range_meters":6800,"station_id":"ce4bhpp2rcd13ifvqhgg","pricing_plan_id":"cebpf4jnsgd1na2vs0mg"},{"bike_id":"85858945-288d-4d7b-aac5-8cf9d060c580","system_id":"levelo_inurba_marseille","lat":43.32354,"lon":5.36733,"is_reserved":false,"is_disabled":false,"rental_uris":{"android":"levelo://app?vid=85858945-288d-4d7b-aac5-8cf9d060c580","ios":"levelo://app?vid=85858945-288d-4d7b-aac5-8cf9d060c580"},"vehicle_type_id":"4","last_reported":1741637472,"current_range_meters":6800,"station_id":"ce4bhsh2rcd13ifvqi2g","pricing_plan_id":"cebpf4jnsgd1na2vs0mg"},{"bike_id":"61193e8a-8e60-4220-8577-846bbeba5e58","system_id":"levelo_inurba_marseille","lat":43.31434,"lon":5.38633,"is_reserved":false,"is_disabled":false,"rental_uris":{"android":"levelo://app?vid=61193e8a-8e60-4220-8577-846bbeba5e58","ios":"levelo://app?vid=61193e8a-8e60-4220-8577-846bbeba5e58"},"vehicle_type_id":"4","last_reported":1741637472,"current_range_meters":6800,"station_id":"","pricing_plan_id":"cebpf4jnsgd1na2vs0mg"},{"bike_id":"985f52b8-4d4c-4dfb-9514-2c7fb63e1202","system_id":"levelo_inurba_marseille","lat":43.244,"lon":5.37055,"is_reserved":false,"is_disabled":true,"rental_uris":{"android":"levelo://app?vid=985f52b8-4d4c-4dfb-9514-2c7fb63e1202","ios":"levelo://app?vid=985f52b8-4d4c-4dfb-9514-2c7fb63e1202"},"vehicle_type_id":"4","last_reported":1741637472,"current_range_meters":7200,"station_id":"ce4bhhh2rcd13ifvqfk0","pricing_plan_id":"cebpf4jnsgd1na2vs0mg"},{"bike_id":"e76313b8-3e60-4be6-ad0e-db0ed228236c","system_id":"levelo_inurba_marseille","lat":43.27995,"lon":5.40019,"is_reserved":false,"is_disabled":false,"rental_uris":{"android":"levelo://app?vid=e76313b8-3e60-4be6-ad0e-db0ed228236c","ios":"levelo://app?vid=e76313b8-3e60-4be6-ad0e-db0ed228236c"},"vehicle_type_id":"4","last_reported":1741637472,"current_range_meters":7200,"station_id":"ce4bho92rcd13ifvqh4g","pricing_plan_id":"cebpf4jnsgd1na2vs0mg"},{"bike_id":"7f08542c-3622-4bee-8852-d0974c0ec085","system_id":"levelo_inurba_marseille","lat":43.241445,"lon":5.363394,"is_reserved":false,"is_disabled":false,"rental_uris":{"android":"levelo://app?vid=7f08542c-3622-4bee-8852-d0974c0ec085","ios":"levelo://app?vid=7f08542c-3622-4bee-8852-d0974c0ec085"},"vehicle_type_id":"4","last_reported":1741637472,"current_range_meters":7200,"station_id":"","pricing_plan_id":"cebpf4jnsgd1na2vs0mg"},{"bike_id":"dfe85f43-440a-4855-9184-d3de4832bcc7","system_id":"levelo_inurba_marseille","lat":43.26558,"lon":5.37306,"is_reserved":false,"is_disabled":true,"rental_uris":{"android":"levelo://app?vid=dfe85f43-440a-4855-9184-d3de4832bcc7","ios":"levelo://app?vid=dfe85f43-440a-4855-9184-d3de4832bcc7"},"vehicle_type_id":"4","last_reported":1741637472,"current_range_meters":7200,"station_id":"ce4bhg12rcd13ifvqf70","pricing_plan_id":"cebpf4jnsgd1na2vs0mg"},{"bike_id":"b437b5fa-55a9-4111-a0a3-6e53788b5f2e","system_id":"levelo_inurba_marseille","lat":43.31532,"lon":5.38039,"is_reserved":false,"is_disabled":false,"rental_uris":{"android":"levelo://app?vid=b437b5fa-55a9-4111-a0a3-6e53788b5f2e","ios":"levelo://app?vid=b437b5fa-55a9-4111-a0a3-6e53788b5f2e"},"vehicle_type_id":"4","last_reported":1741637472,"current_range_meters":7200,"station_id":"ce4bhsp2rcd13ifvqi50","pricing_plan_id":"cebpf4jnsgd1na2vs0mg"},{"bike_id":"4ddba822-ae05-4c99-afc3-aa92bf1e272b","system_id":"levelo_inurba_marseille","lat":43.30428,"lon":5.37095,"is_reserved":false,"is_disabled":false,"rental_uris":{"android":"levelo://app?vid=4ddba822-ae05-4c99-afc3-aa92bf1e272b","ios":"levelo://app?vid=4ddba822-ae05-4c99-afc3-aa92bf1e272b"},"vehicle_type_id":"4","last_reported":1741637472,"current_range_meters":7200,"station_id":"","pricing_plan_id":"cebpf4jnsgd1na2vs0mg"},{"bike_id":"7e4fb9e0-3677-4bd5-bd29-d1a197242817","system_id":"levelo_inurba_marseille","lat":43.28153,"lon":5.42639,"is_reserved":false,"is_disabled":false,"rental_uris":{"android":"levelo://app?vid=7e4fb9e0-3677-4bd5-bd29-d1a197242817","ios":"levelo://app?vid=7e4fb9e0-3677-4bd5-bd29-d1a197242817"},"vehicle_type_id":"4","last_reported":1741637472,"current_range_meters":7200,"station_id":"ce4bhnh2rcd13ifvqgug","pricing_plan_id":"cebpf4jnsgd1na2vs0mg"},{"bike_id":"57bb9620-7e1d-4375-9183-8aca42377c8c","system_id":"levelo_inurba_marseille","lat":43.30461,"lon":5.38223,"is_reserved":false,"is_disabled":false,"rental_uris":{"android":"levelo://app?vid=57bb9620-7e1d-4375-9183-8aca42377c8c","ios":"levelo://app?vid=57bb9620-7e1d-4375-9183-8aca42377c8c"},"vehicle_type_id":"4","last_reported":1741637472,"current_range_meters":7200,"station_id":"","pricing_plan_id":"cebpf4jnsgd1na2vs0mg"},{"bike_id":"3c57a3fc-75b6-4e79-8a13-aa2e0eee3189","system_id":"levelo_inurba_marseille","lat":43.281507,"lon":5.42633,"is_reserved":false,"is_disabled":false,"rental_uris":{"android":"levelo://app?vid=3c57a3fc-75b6-4e79-8a13-aa2e0eee3189","ios":"levelo://app?vid=3c57a3fc-75b6-4e79-8a13-aa2e0eee3189"},"vehicle_type_id":"4","last_reported":1741637472,"current_range_meters":8000,"station_id":"ce4bhnh2rcd13ifvqgug","pricing_plan_id":"cebpf4jnsgd1na2vs0mg"},{"bike_id":"87c40d47-5266-4f6a-9a89-01987f8bf62c","system_id":"levelo_inurba_marseille","lat":43.26198,"lon":5.40416,"is_reserved":false,"is_disabled":false,"rental_uris":{"android":"levelo://app?vid=87c40d47-5266-4f6a-9a89-01987f8bf62c","ios":"levelo://app?vid=87c40d47-5266-4f6a-9a89-01987f8bf62c"},"vehicle_type_id":"4","last_reported":1741637472,"current_range_meters":8000,"station_id":"ce4bhmh2rcd13ifvqgmg","pricing_plan_id":"cebpf4jnsgd1na2vs0mg"},{"bike_id":"5d44eec5-0f76-4d9d-87c9-f425c19e364b","system_id":"levelo_inurba_marseille","lat":43.25099,"lon":5.39497,"is_reserved":false,"is_disabled":false,"rental_uris":{"android":"levelo://app?vid=5d44eec5-0f76-4d9d-87c9-f425c19e364b","ios":"levelo://app?vid=5d44eec5-0f76-4d9d-87c9-f425c19e364b"},"vehicle_type_id":"4","last_reported":1741637472,"current_range_meters":8000,"station_id":"ce4bhm12rcd13ifvqgkg","pricing_plan_id":"cebpf4jnsgd1na2vs0mg"},{"bike_id":"f61dba5c-8160-4a63-8f49-daffec2287bd","system_id":"levelo_inurba_marseille","lat":43.26225,"lon":5.40448,"is_reserved":false,"is_disabled":false,"rental_uris":{"android":"levelo://app?vid=f61dba5c-8160-4a63-8f49-daffec2287bd","ios":"levelo://app?vid=f61dba5c-8160-4a63-8f49-daffec2287bd"},"vehicle_type_id":"4","last_reported":1741637472,"current_range_meters":8000,"station_id":"ce4bhmh2rcd13ifvqgmg","pricing_plan_id":"cebpf4jnsgd1na2vs0mg"},{"bike_id":"53c7553a-b0d6-4c71-8c82-01a70a72df8d","system_id":"levelo_inurba_marseille","lat":43.30348,"lon":5.38586,"is_reserved":false,"is_disabled":false,"rental_uris":{"android":"levelo://app?vid=53c7553a-b0d6-4c71-8c82-01a70a72df8d","ios":"levelo://app?vid=53c7553a-b0d6-4c71-8c82-01a70a72df8d"},"vehicle_type_id":"4","last_reported":1741637472,"current_range_meters":8000,"station_id":"","pricing_plan_id":"cebpf4jnsgd1na2vs0mg"},{"bike_id":"864ee988-28e4-45bc-8ea8-9159eb3bfbea","system_id":"levelo_inurba_marseille","lat":43.32361,"lon":5.38899,"is_reserved":false,"is_disabled":false,"rental_uris":{"android":"levelo://app?vid=864ee988-28e4-45bc-8ea8-9159eb3bfbea","ios":"levelo://app?vid=864ee988-28e4-45bc-8ea8-9159eb3bfbea"},"vehicle_type_id":"4","last_reported":1741637472,"current_range_meters":8000,"station_id":"ce4bhqp2rcd13ifvqhog","pricing_plan_id":"cebpf4jnsgd1na2vs0mg"},{"bike_id":"8ac71654-3469-4199-81d2-c601406a3a8f","system_id":"levelo_inurba_marseille","lat":43.3116,"lon":5.38726,"is_reserved":false,"is_disabled":false,"rental_uris":{"android":"levelo://app?vid=8ac71654-3469-4199-81d2-c601406a3a8f","ios":"levelo://app?vid=8ac71654-3469-4199-81d2-c601406a3a8f"},"vehicle_type_id":"4","last_reported":1741637472,"current_range_meters":8000,"station_id":"ce4bgv12rcd13ifvqcp0","pricing_plan_id":"cebpf4jnsgd1na2vs0mg"},{"bike_id":"cff4445f-6b70-4c92-a3aa-728d1723639c","system_id":"levelo_inurba_marseille","lat":43.25091,"lon":5.39537,"is_reserved":false,"is_disabled":false,"rental_uris":{"android":"levelo://app?vid=cff4445f-6b70-4c92-a3aa-728d1723639c","ios":"levelo://app?vid=cff4445f-6b70-4c92-a3aa-728d1723639c"},"vehicle_type_id":"4","last_reported":1741637472,"current_range_meters":8400,"station_id":"ce4bhm12rcd13ifvqgkg","pricing_plan_id":"cebpf4jnsgd1na2vs0mg"},{"bike_id":"4fc82004-ba25-46e8-9d12-a8bf2240aace","system_id":"levelo_inurba_marseille","lat":43.23201,"lon":5.39989,"is_reserved":false,"is_disabled":false,"rental_uris":{"android":"levelo://app?vid=4fc82004-ba25-46e8-9d12-a8bf2240aace","ios":"levelo://app?vid=4fc82004-ba25-46e8-9d12-a8bf2240aace"},"vehicle_type_id":"4","last_reported":1741637472,"current_range_meters":8400,"station_id":"ce4bhn12rcd13ifvqgqg","pricing_plan_id":"cebpf4jnsgd1na2vs0mg"},{"bike_id":"6fc45882-d39a-4a11-8d19-649988fbd318","system_id":"levelo_inurba_marseille","lat":43.32342,"lon":5.40614,"is_reserved":false,"is_disabled":false,"rental_uris":{"android":"levelo://app?vid=6fc45882-d39a-4a11-8d19-649988fbd318","ios":"levelo://app?vid=6fc45882-d39a-4a11-8d19-649988fbd318"},"vehicle_type_id":"4","last_reported":1741637472,"current_range_meters":8400,"station_id":"ce4bhq92rcd13ifvqhjg","pricing_plan_id":"cebpf4jnsgd1na2vs0mg"},{"bike_id":"169b38ad-d958-40d3-89a3-ded19f11a319","system_id":"levelo_inurba_marseille","lat":43.33752,"lon":5.39185,"is_reserved":false,"is_disabled":false,"rental_uris":{"android":"levelo://app?vid=169b38ad-d958-40d3-89a3-ded19f11a319","ios":"levelo://app?vid=169b38ad-d958-40d3-89a3-ded19f11a319"},"vehicle_type_id":"4","last_reported":1741637472,"current_range_meters":8400,"station_id":"ce4bhr92rcd13ifvqhsg","pricing_plan_id":"cebpf4jnsgd1na2vs0mg"},{"bike_id":"96933892-6a46-4281-880c-758d7231ef75","system_id":"levelo_inurba_marseille","lat":43.31058,"lon":5.38342,"is_reserved":false,"is_disabled":false,"rental_uris":{"android":"levelo://app?vid=96933892-6a46-4281-880c-758d7231ef75","ios":"levelo://app?vid=96933892-6a46-4281-880c-758d7231ef75"},"vehicle_type_id":"4","last_reported":1741637472,"current_range_meters":8400,"station_id":"ce4bgv92rcd13ifvqcr0","pricing_plan_id":"cebpf4jnsgd1na2vs0mg"},{"bike_id":"27ec60e3-b2e3-435c-ba4c-8372ab285bb1","system_id":"levelo_inurba_marseille","lat":43.281533,"lon":5.426428,"is_reserved":false,"is_disabled":false,"rental_uris":{"android":"levelo://app?vid=27ec60e3-b2e3-435c-ba4c-8372ab285bb1","ios":"levelo://app?vid=27ec60e3-b2e3-435c-ba4c-8372ab285bb1"},"vehicle_type_id":"4","last_reported":1741637472,"current_range_meters":8400,"station_id":"ce4bhnh2rcd13ifvqgug","pricing_plan_id":"cebpf4jnsgd1na2vs0mg"},{"bike_id":"565245af-1098-4207-83d1-fdf36ab786b5","system_id":"levelo_inurba_marseille","lat":43.28118,"lon":5.44231,"is_reserved":false,"is_disabled":true,"rental_uris":{"android":"levelo://app?vid=565245af-1098-4207-83d1-fdf36ab786b5","ios":"levelo://app?vid=565245af-1098-4207-83d1-fdf36ab786b5"},"vehicle_type_id":"4","last_reported":1741637472,"current_range_meters":8400,"station_id":"","pricing_plan_id":"cebpf4jnsgd1na2vs0mg"},{"bike_id":"11d1feca-2b3c-4840-8830-7eae76d9f9f3","system_id":"levelo_inurba_marseille","lat":43.24543,"lon":5.3954,"is_reserved":false,"is_disabled":false,"rental_uris":{"android":"levelo://app?vid=11d1feca-2b3c-4840-8830-7eae76d9f9f3","ios":"levelo://app?vid=11d1feca-2b3c-4840-8830-7eae76d9f9f3"},"vehicle_type_id":"4","last_reported":1741637472,"current_range_meters":8400,"station_id":"ce4bhlp2rcd13ifvqgjg","pricing_plan_id":"cebpf4jnsgd1na2vs0mg"},{"bike_id":"1f72adc6-3d1a-4fad-a905-cb9dcd596e26","system_id":"levelo_inurba_marseille","lat":43.23834,"lon":5.43563,"is_reserved":false,"is_disabled":false,"rental_uris":{"android":"levelo://app?vid=1f72adc6-3d1a-4fad-a905-cb9dcd596e26","ios":"levelo://app?vid=1f72adc6-3d1a-4fad-a905-cb9dcd596e26"},"vehicle_type_id":"4","last_reported":1741637472,"current_range_meters":8400,"station_id":"","pricing_plan_id":"cebpf4jnsgd1na2vs0mg"},{"bike_id":"199cb7b2-857a-4db4-b08b-30cc2dc0c4f3","system_id":"levelo_inurba_marseille","lat":43.31706,"lon":5.43709,"is_reserved":false,"is_disabled":false,"rental_uris":{"android":"levelo://app?vid=199cb7b2-857a-4db4-b08b-30cc2dc0c4f3","ios":"levelo://app?vid=199cb7b2-857a-4db4-b08b-30cc2dc0c4f3"},"vehicle_type_id":"4","last_reported":1741637472,"current_range_meters":8800,"station_id":"ce4bhp92rcd13ifvqhcg","pricing_plan_id":"cebpf4jnsgd1na2vs0mg"},{"bike_id":"bd363e52-f9b8-455e-b9d8-fba19acd34b4","system_id":"levelo_inurba_marseille","lat":43.29044,"lon":5.35913,"is_reserved":false,"is_disabled":false,"rental_uris":{"android":"levelo://app?vid=bd363e52-f9b8-455e-b9d8-fba19acd34b4","ios":"levelo://app?vid=bd363e52-f9b8-455e-b9d8-fba19acd34b4"},"vehicle_type_id":"4","last_reported":1741637472,"current_range_meters":8800,"station_id":"ce4bha92rcd13ifvqeg0","pricing_plan_id":"cebpf4jnsgd1na2vs0mg"},{"bike_id":"9ad3941c-a1ac-4563-9a21-7dd980942c2e","system_id":"levelo_inurba_marseille","lat":43.26026,"lon":5.37556,"is_reserved":false,"is_disabled":true,"rental_uris":{"android":"levelo://app?vid=9ad3941c-a1ac-4563-9a21-7dd980942c2e","ios":"levelo://app?vid=9ad3941c-a1ac-4563-9a21-7dd980942c2e"},"vehicle_type_id":"4","last_reported":1741637472,"current_range_meters":8800,"station_id":"ce4bhgh2rcd13ifvqfa0","pricing_plan_id":"cebpf4jnsgd1na2vs0mg"},{"bike_id":"855c9330-8b67-4292-9c70-1914a9315508","system_id":"levelo_inurba_marseille","lat":43.2795,"lon":5.41047,"is_reserved":false,"is_disabled":false,"rental_uris":{"android":"levelo://app?vid=855c9330-8b67-4292-9c70-1914a9315508","ios":"levelo://app?vid=855c9330-8b67-4292-9c70-1914a9315508"},"vehicle_type_id":"4","last_reported":1741637472,"current_range_meters":8800,"station_id":"ce4bhnp2rcd13ifvqh0g","pricing_plan_id":"cebpf4jnsgd1na2vs0mg"},{"bike_id":"a37d42aa-085d-4a56-8e08-eaf93bfe5e2b","system_id":"levelo_inurba_marseille","lat":43.31195,"lon":5.3871,"is_reserved":false,"is_disabled":true,"rental_uris":{"android":"levelo://app?vid=a37d42aa-085d-4a56-8e08-eaf93bfe5e2b","ios":"levelo://app?vid=a37d42aa-085d-4a56-8e08-eaf93bfe5e2b"},"vehicle_type_id":"4","last_reported":1741637472,"current_range_meters":8800,"station_id":"ce4bgv12rcd13ifvqcp0","pricing_plan_id":"cebpf4jnsgd1na2vs0mg"},{"bike_id":"acff2939-c952-4f56-8aac-b02f4b8fce85","system_id":"levelo_inurba_marseille","lat":43.27065,"lon":5.42276,"is_reserved":false,"is_disabled":false,"rental_uris":{"android":"levelo://app?vid=acff2939-c952-4f56-8aac-b02f4b8fce85","ios":"levelo://app?vid=acff2939-c952-4f56-8aac-b02f4b8fce85"},"vehicle_type_id":"4","last_reported":1741637472,"current_range_meters":8800,"station_id":"ce4bhk92rcd13ifvqgb0","pricing_plan_id":"cebpf4jnsgd1na2vs0mg"},{"bike_id":"a6b567da-7c19-43f7-8fd3-3aea584b1da6","system_id":"levelo_inurba_marseille","lat":43.289032,"lon":5.39229,"is_reserved":false,"is_disabled":false,"rental_uris":{"android":"levelo://app?vid=a6b567da-7c19-43f7-8fd3-3aea584b1da6","ios":"levelo://app?vid=a6b567da-7c19-43f7-8fd3-3aea584b1da6"},"vehicle_type_id":"4","last_reported":1741637472,"current_range_meters":9200,"station_id":"ce4bgjh2rcd13ifvqbf0","pricing_plan_id":"cebpf4jnsgd1na2vs0mg"},{"bike_id":"3663c048-ee8a-4934-8db1-c86efc6f6d0b","system_id":"levelo_inurba_marseille","lat":43.30097,"lon":5.39084,"is_reserved":false,"is_disabled":false,"rental_uris":{"android":"levelo://app?vid=3663c048-ee8a-4934-8db1-c86efc6f6d0b","ios":"levelo://app?vid=3663c048-ee8a-4934-8db1-c86efc6f6d0b"},"vehicle_type_id":"4","last_reported":1741637472,"current_range_meters":9200,"station_id":"ce4bh192rcd13ifvqdb0","pricing_plan_id":"cebpf4jnsgd1na2vs0mg"},{"bike_id":"f46a4b76-6f92-4dee-a263-79134af2e57b","system_id":"levelo_inurba_marseille","lat":43.29236,"lon":5.36857,"is_reserved":false,"is_disabled":false,"rental_uris":{"android":"levelo://app?vid=f46a4b76-6f92-4dee-a263-79134af2e57b","ios":"levelo://app?vid=f46a4b76-6f92-4dee-a263-79134af2e57b"},"vehicle_type_id":"4","last_reported":1741637472,"current_range_meters":9600,"station_id":"ce4bhbp2rcd13ifvqesg","pricing_plan_id":"cebpf4jnsgd1na2vs0mg"},{"bike_id":"1907067d-5e3d-40ca-8a47-ba415b8b2a28","system_id":"levelo_inurba_marseille","lat":43.33652,"lon":5.40997,"is_reserved":false,"is_disabled":true,"rental_uris":{"android":"levelo://app?vid=1907067d-5e3d-40ca-8a47-ba415b8b2a28","ios":"levelo://app?vid=1907067d-5e3d-40ca-8a47-ba415b8b2a28"},"vehicle_type_id":"4","last_reported":1741637472,"current_range_meters":9200,"station_id":"ce4bhqh2rcd13ifvqhmg","pricing_plan_id":"cebpf4jnsgd1na2vs0mg"},{"bike_id":"373a1af5-2b90-40ba-bdc3-b87140071d00","system_id":"levelo_inurba_marseille","lat":43.31188,"lon":5.40321,"is_reserved":false,"is_disabled":false,"rental_uris":{"android":"levelo://app?vid=373a1af5-2b90-40ba-bdc3-b87140071d00","ios":"levelo://app?vid=373a1af5-2b90-40ba-bdc3-b87140071d00"},"vehicle_type_id":"4","last_reported":1741637472,"current_range_meters":9200,"station_id":"","pricing_plan_id":"cebpf4jnsgd1na2vs0mg"},{"bike_id":"c8b52d5a-5afc-4156-a040-b19c89a97809","system_id":"levelo_inurba_marseille","lat":43.31047,"lon":5.38339,"is_reserved":false,"is_disabled":false,"rental_uris":{"android":"levelo://app?vid=c8b52d5a-5afc-4156-a040-b19c89a97809","ios":"levelo://app?vid=c8b52d5a-5afc-4156-a040-b19c89a97809"},"vehicle_type_id":"4","last_reported":1741637472,"current_range_meters":9200,"station_id":"ce4bgv92rcd13ifvqcr0","pricing_plan_id":"cebpf4jnsgd1na2vs0mg"},{"bike_id":"e059ef3d-eb48-427d-b0c6-bf37192fe1ba","system_id":"levelo_inurba_marseille","lat":43.27994,"lon":5.40021,"is_reserved":false,"is_disabled":false,"rental_uris":{"android":"levelo://app?vid=e059ef3d-eb48-427d-b0c6-bf37192fe1ba","ios":"levelo://app?vid=e059ef3d-eb48-427d-b0c6-bf37192fe1ba"},"vehicle_type_id":"4","last_reported":1741637472,"current_range_meters":9200,"station_id":"ce4bho92rcd13ifvqh4g","pricing_plan_id":"cebpf4jnsgd1na2vs0mg"},{"bike_id":"a2dc4d03-5373-4e24-812a-94e84b0e6bf8","system_id":"levelo_inurba_marseille","lat":43.29876,"lon":5.39737,"is_reserved":false,"is_disabled":false,"rental_uris":{"android":"levelo://app?vid=a2dc4d03-5373-4e24-812a-94e84b0e6bf8","ios":"levelo://app?vid=a2dc4d03-5373-4e24-812a-94e84b0e6bf8"},"vehicle_type_id":"4","last_reported":1741637472,"current_range_meters":9200,"station_id":"ce4bh0h2rcd13ifvqd50","pricing_plan_id":"cebpf4jnsgd1na2vs0mg"},{"bike_id":"8c547e20-bab8-4768-b819-04fdee6f5b2f","system_id":"levelo_inurba_marseille","lat":43.29534,"lon":5.38548,"is_reserved":false,"is_disabled":false,"rental_uris":{"android":"levelo://app?vid=8c547e20-bab8-4768-b819-04fdee6f5b2f","ios":"levelo://app?vid=8c547e20-bab8-4768-b819-04fdee6f5b2f"},"vehicle_type_id":"4","last_reported":1741637472,"current_range_meters":9600,"station_id":"ce4bgih2rcd13ifvqba0","pricing_plan_id":"cebpf4jnsgd1na2vs0mg"},{"bike_id":"54afd193-ee95-4f5e-975a-c9018d9dcb98","system_id":"levelo_inurba_marseille","lat":43.32361,"lon":5.36762,"is_reserved":false,"is_disabled":false,"rental_uris":{"android":"levelo://app?vid=54afd193-ee95-4f5e-975a-c9018d9dcb98","ios":"levelo://app?vid=54afd193-ee95-4f5e-975a-c9018d9dcb98"},"vehicle_type_id":"4","last_reported":1741637472,"current_range_meters":9600,"station_id":"ce4bhsh2rcd13ifvqi2g","pricing_plan_id":"cebpf4jnsgd1na2vs0mg"},{"bike_id":"4f7bbb0b-f0c2-4153-b3e6-744aa43d163b","system_id":"levelo_inurba_marseille","lat":43.26563,"lon":5.38997,"is_reserved":false,"is_disabled":false,"rental_uris":{"android":"levelo://app?vid=4f7bbb0b-f0c2-4153-b3e6-744aa43d163b","ios":"levelo://app?vid=4f7bbb0b-f0c2-4153-b3e6-744aa43d163b"},"vehicle_type_id":"4","last_reported":1741637472,"current_range_meters":9600,"station_id":"ce4bhe12rcd13ifvqf30","pricing_plan_id":"cebpf4jnsgd1na2vs0mg"},{"bike_id":"57dd884a-4a6c-4075-a2d5-bc8c0fdff142","system_id":"levelo_inurba_marseille","lat":43.28155,"lon":5.42658,"is_reserved":false,"is_disabled":false,"rental_uris":{"android":"levelo://app?vid=57dd884a-4a6c-4075-a2d5-bc8c0fdff142","ios":"levelo://app?vid=57dd884a-4a6c-4075-a2d5-bc8c0fdff142"},"vehicle_type_id":"4","last_reported":1741637472,"current_range_meters":9600,"station_id":"ce4bhnh2rcd13ifvqgug","pricing_plan_id":"cebpf4jnsgd1na2vs0mg"},{"bike_id":"94d842f6-27d1-4b82-b594-66b4682ce169","system_id":"levelo_inurba_marseille","lat":43.27989,"lon":5.4001,"is_reserved":false,"is_disabled":false,"rental_uris":{"android":"levelo://app?vid=94d842f6-27d1-4b82-b594-66b4682ce169","ios":"levelo://app?vid=94d842f6-27d1-4b82-b594-66b4682ce169"},"vehicle_type_id":"4","last_reported":1741637472,"current_range_meters":9600,"station_id":"ce4bho92rcd13ifvqh4g","pricing_plan_id":"cebpf4jnsgd1na2vs0mg"},{"bike_id":"5bf1fd3d-106c-4b23-b455-ae5552f33fa7","system_id":"levelo_inurba_marseille","lat":43.25109,"lon":5.39507,"is_reserved":false,"is_disabled":false,"rental_uris":{"android":"levelo://app?vid=5bf1fd3d-106c-4b23-b455-ae5552f33fa7","ios":"levelo://app?vid=5bf1fd3d-106c-4b23-b455-ae5552f33fa7"},"vehicle_type_id":"4","last_reported":1741637472,"current_range_meters":9600,"station_id":"ce4bhm12rcd13ifvqgkg","pricing_plan_id":"cebpf4jnsgd1na2vs0mg"},{"bike_id":"ae4913d3-c7b3-4e3b-8b0e-9eedefc8bcf1","system_id":"levelo_inurba_marseille","lat":43.31331,"lon":5.38835,"is_reserved":false,"is_disabled":false,"rental_uris":{"android":"levelo://app?vid=ae4913d3-c7b3-4e3b-8b0e-9eedefc8bcf1","ios":"levelo://app?vid=ae4913d3-c7b3-4e3b-8b0e-9eedefc8bcf1"},"vehicle_type_id":"4","last_reported":1741637472,"current_range_meters":10000,"station_id":"","pricing_plan_id":"cebpf4jnsgd1na2vs0mg"},{"bike_id":"d2ac0aa6-492c-406a-8f30-81aab53fe76b","system_id":"levelo_inurba_marseille","lat":43.24173,"lon":5.39723,"is_reserved":false,"is_disabled":false,"rental_uris":{"android":"levelo://app?vid=d2ac0aa6-492c-406a-8f30-81aab53fe76b","ios":"levelo://app?vid=d2ac0aa6-492c-406a-8f30-81aab53fe76b"},"vehicle_type_id":"4","last_reported":1741637472,"current_range_meters":10000,"station_id":"ce4bhn12rcd13ifvqgpg","pricing_plan_id":"cebpf4jnsgd1na2vs0mg"},{"bike_id":"7e384d90-9cdb-4adf-a875-0e3113bacef4","system_id":"levelo_inurba_marseille","lat":43.3115,"lon":5.37283,"is_reserved":false,"is_disabled":false,"rental_uris":{"android":"levelo://app?vid=7e384d90-9cdb-4adf-a875-0e3113bacef4","ios":"levelo://app?vid=7e384d90-9cdb-4adf-a875-0e3113bacef4"},"vehicle_type_id":"4","last_reported":1741637472,"current_range_meters":10000,"station_id":"","pricing_plan_id":"cebpf4jnsgd1na2vs0mg"},{"bike_id":"f2c5b4d9-7014-4352-9842-8b654a25747b","system_id":"levelo_inurba_marseille","lat":43.29229,"lon":5.39356,"is_reserved":false,"is_disabled":false,"rental_uris":{"android":"levelo://app?vid=f2c5b4d9-7014-4352-9842-8b654a25747b","ios":"levelo://app?vid=f2c5b4d9-7014-4352-9842-8b654a25747b"},"vehicle_type_id":"4","last_reported":1741637472,"current_range_meters":10000,"station_id":"ce4bh192rcd13ifvqdd0","pricing_plan_id":"cebpf4jnsgd1na2vs0mg"},{"bike_id":"b10f2370-2bf8-4150-9f97-aa6396744d6d","system_id":"levelo_inurba_marseille","lat":43.27051,"lon":5.40259,"is_reserved":false,"is_disabled":false,"rental_uris":{"android":"levelo://app?vid=b10f2370-2bf8-4150-9f97-aa6396744d6d","ios":"levelo://app?vid=b10f2370-2bf8-4150-9f97-aa6396744d6d"},"vehicle_type_id":"4","last_reported":1741637472,"current_range_meters":10000,"station_id":"ce4bhk92rcd13ifvqgc0","pricing_plan_id":"cebpf4jnsgd1na2vs0mg"},{"bike_id":"ad9885b8-46bd-41dc-b0e6-4f15bcb85518","system_id":"levelo_inurba_marseille","lat":43.31082,"lon":5.42419,"is_reserved":false,"is_disabled":false,"rental_uris":{"android":"levelo://app?vid=ad9885b8-46bd-41dc-b0e6-4f15bcb85518","ios":"levelo://app?vid=ad9885b8-46bd-41dc-b0e6-4f15bcb85518"},"vehicle_type_id":"4","last_reported":1741637472,"current_range_meters":10000,"station_id":"ce4bhp92rcd13ifvqhag","pricing_plan_id":"cebpf4jnsgd1na2vs0mg"},{"bike_id":"42813811-e0f7-49cd-9bc8-d7edf65602e3","system_id":"levelo_inurba_marseille","lat":43.27954,"lon":5.41036,"is_reserved":false,"is_disabled":false,"rental_uris":{"android":"levelo://app?vid=42813811-e0f7-49cd-9bc8-d7edf65602e3","ios":"levelo://app?vid=42813811-e0f7-49cd-9bc8-d7edf65602e3"},"vehicle_type_id":"4","last_reported":1741637472,"current_range_meters":10000,"station_id":"ce4bhnp2rcd13ifvqh0g","pricing_plan_id":"cebpf4jnsgd1na2vs0mg"},{"bike_id":"668d7754-9eb2-4494-a339-1b051685cccf","system_id":"levelo_inurba_marseille","lat":43.2799,"lon":5.40015,"is_reserved":false,"is_disabled":false,"rental_uris":{"android":"levelo://app?vid=668d7754-9eb2-4494-a339-1b051685cccf","ios":"levelo://app?vid=668d7754-9eb2-4494-a339-1b051685cccf"},"vehicle_type_id":"4","last_reported":1741637472,"current_range_meters":10000,"station_id":"ce4bho92rcd13ifvqh4g","pricing_plan_id":"cebpf4jnsgd1na2vs0mg"},{"bike_id":"3020f198-4f87-4624-a3e9-ab4240526020","system_id":"levelo_inurba_marseille","lat":43.27803,"lon":5.40711,"is_reserved":false,"is_disabled":false,"rental_uris":{"android":"levelo://app?vid=3020f198-4f87-4624-a3e9-ab4240526020","ios":"levelo://app?vid=3020f198-4f87-4624-a3e9-ab4240526020"},"vehicle_type_id":"4","last_reported":1741637472,"current_range_meters":10000,"station_id":"ce4bhnh2rcd13ifvqgtg","pricing_plan_id":"cebpf4jnsgd1na2vs0mg"},{"bike_id":"4491a1e2-eb06-49d1-bf0c-ffab94d6b1ae","system_id":"levelo_inurba_marseille","lat":43.24177,"lon":5.39729,"is_reserved":false,"is_disabled":true,"rental_uris":{"android":"levelo://app?vid=4491a1e2-eb06-49d1-bf0c-ffab94d6b1ae","ios":"levelo://app?vid=4491a1e2-eb06-49d1-bf0c-ffab94d6b1ae"},"vehicle_type_id":"4","last_reported":1741637472,"current_range_meters":10800,"station_id":"ce4bhn12rcd13ifvqgpg","pricing_plan_id":"cebpf4jnsgd1na2vs0mg"},{"bike_id":"9fee8c94-cefc-4851-bf08-29170b35a1d8","system_id":"levelo_inurba_marseille","lat":43.28186,"lon":5.42687,"is_reserved":false,"is_disabled":false,"rental_uris":{"android":"levelo://app?vid=9fee8c94-cefc-4851-bf08-29170b35a1d8","ios":"levelo://app?vid=9fee8c94-cefc-4851-bf08-29170b35a1d8"},"vehicle_type_id":"4","last_reported":1741637472,"current_range_meters":10800,"station_id":"ce4bhnh2rcd13ifvqgug","pricing_plan_id":"cebpf4jnsgd1na2vs0mg"},{"bike_id":"e1498ebd-a42c-474f-8279-2c2e9cca71d4","system_id":"levelo_inurba_marseille","lat":43.28838,"lon":5.38228,"is_reserved":false,"is_disabled":false,"rental_uris":{"android":"levelo://app?vid=e1498ebd-a42c-474f-8279-2c2e9cca71d4","ios":"levelo://app?vid=e1498ebd-a42c-474f-8279-2c2e9cca71d4"},"vehicle_type_id":"4","last_reported":1741637472,"current_range_meters":10800,"station_id":"","pricing_plan_id":"cebpf4jnsgd1na2vs0mg"},{"bike_id":"56b9300d-4b06-40ee-8ec2-fe315146882f","system_id":"levelo_inurba_marseille","lat":43.27061,"lon":5.40288,"is_reserved":false,"is_disabled":false,"rental_uris":{"android":"levelo://app?vid=56b9300d-4b06-40ee-8ec2-fe315146882f","ios":"levelo://app?vid=56b9300d-4b06-40ee-8ec2-fe315146882f"},"vehicle_type_id":"4","last_reported":1741637472,"current_range_meters":10800,"station_id":"ce4bhk92rcd13ifvqgc0","pricing_plan_id":"cebpf4jnsgd1na2vs0mg"},{"bike_id":"787941c7-68e4-4a9e-b1f1-d3bf469258e1","system_id":"levelo_inurba_marseille","lat":43.241732,"lon":5.397216,"is_reserved":false,"is_disabled":false,"rental_uris":{"android":"levelo://app?vid=787941c7-68e4-4a9e-b1f1-d3bf469258e1","ios":"levelo://app?vid=787941c7-68e4-4a9e-b1f1-d3bf469258e1"},"vehicle_type_id":"4","last_reported":1741637472,"current_range_meters":10800,"station_id":"ce4bhn12rcd13ifvqgpg","pricing_plan_id":"cebpf4jnsgd1na2vs0mg"},{"bike_id":"1450d856-5d0e-4c15-baa2-9f59f098d76a","system_id":"levelo_inurba_marseille","lat":43.29262,"lon":5.37636,"is_reserved":false,"is_disabled":false,"rental_uris":{"android":"levelo://app?vid=1450d856-5d0e-4c15-baa2-9f59f098d76a","ios":"levelo://app?vid=1450d856-5d0e-4c15-baa2-9f59f098d76a"},"vehicle_type_id":"4","last_reported":1741637472,"current_range_meters":10800,"station_id":"ce4bgi12rcd13ifvqb80","pricing_plan_id":"cebpf4jnsgd1na2vs0mg"},{"bike_id":"e1274dbe-32a7-46f5-abc9-f326e1213c88","system_id":"levelo_inurba_marseille","lat":43.26569,"lon":5.39018,"is_reserved":false,"is_disabled":false,"rental_uris":{"android":"levelo://app?vid=e1274dbe-32a7-46f5-abc9-f326e1213c88","ios":"levelo://app?vid=e1274dbe-32a7-46f5-abc9-f326e1213c88"},"vehicle_type_id":"4","last_reported":1741637472,"current_range_meters":10800,"station_id":"ce4bhe12rcd13ifvqf30","pricing_plan_id":"cebpf4jnsgd1na2vs0mg"},{"bike_id":"e6bfedde-b8d3-483f-9c12-e45beb87d7c9","system_id":"levelo_inurba_marseille","lat":43.23157,"lon":5.43707,"is_reserved":false,"is_disabled":false,"rental_uris":{"android":"levelo://app?vid=e6bfedde-b8d3-483f-9c12-e45beb87d7c9","ios":"levelo://app?vid=e6bfedde-b8d3-483f-9c12-e45beb87d7c9"},"vehicle_type_id":"4","last_reported":1741637472,"current_range_meters":10800,"station_id":"ce4bhmp2rcd13ifvqgog","pricing_plan_id":"cebpf4jnsgd1na2vs0mg"},{"bike_id":"b7a89916-b8a4-4686-a1b1-2bac71ecaabe","system_id":"levelo_inurba_marseille","lat":43.25867,"lon":5.39896,"is_reserved":false,"is_disabled":false,"rental_uris":{"android":"levelo://app?vid=b7a89916-b8a4-4686-a1b1-2bac71ecaabe","ios":"levelo://app?vid=b7a89916-b8a4-4686-a1b1-2bac71ecaabe"},"vehicle_type_id":"4","last_reported":1741637472,"current_range_meters":11200,"station_id":"ce4bhl92rcd13ifvqghg","pricing_plan_id":"cebpf4jnsgd1na2vs0mg"},{"bike_id":"01b99886-b817-4733-a561-5e944a32b963","system_id":"levelo_inurba_marseille","lat":43.28135,"lon":5.42623,"is_reserved":false,"is_disabled":false,"rental_uris":{"android":"levelo://app?vid=01b99886-b817-4733-a561-5e944a32b963","ios":"levelo://app?vid=01b99886-b817-4733-a561-5e944a32b963"},"vehicle_type_id":"4","last_reported":1741637472,"current_range_meters":11200,"station_id":"ce4bhnh2rcd13ifvqgug","pricing_plan_id":"cebpf4jnsgd1na2vs0mg"},{"bike_id":"5ccaa9dd-fd14-42a0-9fd5-b2cb20a90f0c","system_id":"levelo_inurba_marseille","lat":43.25865,"lon":5.399,"is_reserved":false,"is_disabled":false,"rental_uris":{"android":"levelo://app?vid=5ccaa9dd-fd14-42a0-9fd5-b2cb20a90f0c","ios":"levelo://app?vid=5ccaa9dd-fd14-42a0-9fd5-b2cb20a90f0c"},"vehicle_type_id":"4","last_reported":1741637472,"current_range_meters":11200,"station_id":"ce4bhl92rcd13ifvqghg","pricing_plan_id":"cebpf4jnsgd1na2vs0mg"},{"bike_id":"68d89c40-14e8-4102-a80e-5e09c9fad361","system_id":"levelo_inurba_marseille","lat":43.32337,"lon":5.40617,"is_reserved":false,"is_disabled":false,"rental_uris":{"android":"levelo://app?vid=68d89c40-14e8-4102-a80e-5e09c9fad361","ios":"levelo://app?vid=68d89c40-14e8-4102-a80e-5e09c9fad361"},"vehicle_type_id":"4","last_reported":1741637472,"current_range_meters":11200,"station_id":"ce4bhq92rcd13ifvqhjg","pricing_plan_id":"cebpf4jnsgd1na2vs0mg"},{"bike_id":"1920f354-c4b5-4d1a-bc6f-aba0c6cd151e","system_id":"levelo_inurba_marseille","lat":43.27822,"lon":5.40711,"is_reserved":false,"is_disabled":false,"rental_uris":{"android":"levelo://app?vid=1920f354-c4b5-4d1a-bc6f-aba0c6cd151e","ios":"levelo://app?vid=1920f354-c4b5-4d1a-bc6f-aba0c6cd151e"},"vehicle_type_id":"4","last_reported":1741637472,"current_range_meters":11200,"station_id":"ce4bhnh2rcd13ifvqgtg","pricing_plan_id":"cebpf4jnsgd1na2vs0mg"},{"bike_id":"8dc2c2dc-de0f-4fd2-b739-faf253fff5e5","system_id":"levelo_inurba_marseille","lat":43.23167,"lon":5.43733,"is_reserved":false,"is_disabled":false,"rental_uris":{"android":"levelo://app?vid=8dc2c2dc-de0f-4fd2-b739-faf253fff5e5","ios":"levelo://app?vid=8dc2c2dc-de0f-4fd2-b739-faf253fff5e5"},"vehicle_type_id":"4","last_reported":1741637472,"current_range_meters":11200,"station_id":"ce4bhmp2rcd13ifvqgog","pricing_plan_id":"cebpf4jnsgd1na2vs0mg"},{"bike_id":"93cf9ee9-18a9-434d-82f1-fcc1831c2751","system_id":"levelo_inurba_marseille","lat":43.27941,"lon":5.41041,"is_reserved":false,"is_disabled":false,"rental_uris":{"android":"levelo://app?vid=93cf9ee9-18a9-434d-82f1-fcc1831c2751","ios":"levelo://app?vid=93cf9ee9-18a9-434d-82f1-fcc1831c2751"},"vehicle_type_id":"4","last_reported":1741637472,"current_range_meters":11200,"station_id":"ce4bhnp2rcd13ifvqh0g","pricing_plan_id":"cebpf4jnsgd1na2vs0mg"},{"bike_id":"a823a252-79ed-4eab-8ed3-c099ec187b1d","system_id":"levelo_inurba_marseille","lat":43.27115,"lon":5.42316,"is_reserved":false,"is_disabled":false,"rental_uris":{"android":"levelo://app?vid=a823a252-79ed-4eab-8ed3-c099ec187b1d","ios":"levelo://app?vid=a823a252-79ed-4eab-8ed3-c099ec187b1d"},"vehicle_type_id":"4","last_reported":1741637472,"current_range_meters":11200,"station_id":"","pricing_plan_id":"cebpf4jnsgd1na2vs0mg"},{"bike_id":"c2848185-3b42-44f9-b163-5d9be4b7c26e","system_id":"levelo_inurba_marseille","lat":43.22928,"lon":5.35386,"is_reserved":false,"is_disabled":false,"rental_uris":{"android":"levelo://app?vid=c2848185-3b42-44f9-b163-5d9be4b7c26e","ios":"levelo://app?vid=c2848185-3b42-44f9-b163-5d9be4b7c26e"},"vehicle_type_id":"4","last_reported":1741637472,"current_range_meters":11200,"station_id":"cpo3532slgdg3j2ikp40","pricing_plan_id":"cebpf4jnsgd1na2vs0mg"},{"bike_id":"09bbb690-af86-458c-bbad-70d10e2033ee","system_id":"levelo_inurba_marseille","lat":43.230566,"lon":5.354922,"is_reserved":false,"is_disabled":false,"rental_uris":{"android":"levelo://app?vid=09bbb690-af86-458c-bbad-70d10e2033ee","ios":"levelo://app?vid=09bbb690-af86-458c-bbad-70d10e2033ee"},"vehicle_type_id":"4","last_reported":1741637472,"current_range_meters":11200,"station_id":"cpo3342slgdg3j2ifvpg","pricing_plan_id":"cebpf4jnsgd1na2vs0mg"},{"bike_id":"80771939-f406-42f7-81c5-33180fd8a338","system_id":"levelo_inurba_marseille","lat":43.231964,"lon":5.355554,"is_reserved":false,"is_disabled":false,"rental_uris":{"android":"levelo://app?vid=80771939-f406-42f7-81c5-33180fd8a338","ios":"levelo://app?vid=80771939-f406-42f7-81c5-33180fd8a338"},"vehicle_type_id":"4","last_reported":1741637472,"current_range_meters":11200,"station_id":"ce4bhu92rcd13ifvqi70","pricing_plan_id":"cebpf4jnsgd1na2vs0mg"},{"bike_id":"51772d6c-c0b3-48d9-81cb-ae5466e6f822","system_id":"levelo_inurba_marseille","lat":43.23148,"lon":5.4372,"is_reserved":false,"is_disabled":false,"rental_uris":{"android":"levelo://app?vid=51772d6c-c0b3-48d9-81cb-ae5466e6f822","ios":"levelo://app?vid=51772d6c-c0b3-48d9-81cb-ae5466e6f822"},"vehicle_type_id":"4","last_reported":1741637472,"current_range_meters":11200,"station_id":"ce4bhmp2rcd13ifvqgog","pricing_plan_id":"cebpf4jnsgd1na2vs0mg"},{"bike_id":"aef7e77c-e213-4368-91ff-8d1fe2823dfe","system_id":"levelo_inurba_marseille","lat":43.30896,"lon":5.39632,"is_reserved":false,"is_disabled":false,"rental_uris":{"android":"levelo://app?vid=aef7e77c-e213-4368-91ff-8d1fe2823dfe","ios":"levelo://app?vid=aef7e77c-e213-4368-91ff-8d1fe2823dfe"},"vehicle_type_id":"4","last_reported":1741637472,"current_range_meters":11600,"station_id":"ce4bh012rcd13ifvqcv0","pricing_plan_id":"cebpf4jnsgd1na2vs0mg"},{"bike_id":"acc1658b-7ea3-44a5-a65b-40f1faa0438d","system_id":"levelo_inurba_marseille","lat":43.32592,"lon":5.41531,"is_reserved":false,"is_disabled":false,"rental_uris":{"android":"levelo://app?vid=acc1658b-7ea3-44a5-a65b-40f1faa0438d","ios":"levelo://app?vid=acc1658b-7ea3-44a5-a65b-40f1faa0438d"},"vehicle_type_id":"4","last_reported":1741637472,"current_range_meters":11600,"station_id":"ce4bhq12rcd13ifvqhhg","pricing_plan_id":"cebpf4jnsgd1na2vs0mg"},{"bike_id":"48795787-68c1-4d4b-ba9c-590b06a0be21","system_id":"levelo_inurba_marseille","lat":43.27808,"lon":5.40713,"is_reserved":false,"is_disabled":false,"rental_uris":{"android":"levelo://app?vid=48795787-68c1-4d4b-ba9c-590b06a0be21","ios":"levelo://app?vid=48795787-68c1-4d4b-ba9c-590b06a0be21"},"vehicle_type_id":"4","last_reported":1741637472,"current_range_meters":11600,"station_id":"ce4bhnh2rcd13ifvqgtg","pricing_plan_id":"cebpf4jnsgd1na2vs0mg"},{"bike_id":"09a3c583-d595-43ff-a09a-a104327505f6","system_id":"levelo_inurba_marseille","lat":43.31122,"lon":5.377656,"is_reserved":false,"is_disabled":false,"rental_uris":{"android":"levelo://app?vid=09a3c583-d595-43ff-a09a-a104327505f6","ios":"levelo://app?vid=09a3c583-d595-43ff-a09a-a104327505f6"},"vehicle_type_id":"4","last_reported":1741637472,"current_range_meters":11600,"station_id":"ce4bgt92rcd13ifvqcg0","pricing_plan_id":"cebpf4jnsgd1na2vs0mg"},{"bike_id":"e747d5ae-d0eb-47f3-910f-61e3964bf85a","system_id":"levelo_inurba_marseille","lat":43.3088,"lon":5.396344,"is_reserved":false,"is_disabled":false,"rental_uris":{"android":"levelo://app?vid=e747d5ae-d0eb-47f3-910f-61e3964bf85a","ios":"levelo://app?vid=e747d5ae-d0eb-47f3-910f-61e3964bf85a"},"vehicle_type_id":"4","last_reported":1741637472,"current_range_meters":11600,"station_id":"ce4bh012rcd13ifvqcv0","pricing_plan_id":"cebpf4jnsgd1na2vs0mg"},{"bike_id":"a26045c1-1145-4eb4-a1da-7da4f3afe0e6","system_id":"levelo_inurba_marseille","lat":43.28425,"lon":5.34999,"is_reserved":false,"is_disabled":false,"rental_uris":{"android":"levelo://app?vid=a26045c1-1145-4eb4-a1da-7da4f3afe0e6","ios":"levelo://app?vid=a26045c1-1145-4eb4-a1da-7da4f3afe0e6"},"vehicle_type_id":"4","last_reported":1741637472,"current_range_meters":11600,"station_id":"ce4bhbh2rcd13ifvqepg","pricing_plan_id":"cebpf4jnsgd1na2vs0mg"},{"bike_id":"c41e3247-520d-4edc-8030-5306b79badd5","system_id":"levelo_inurba_marseille","lat":43.24648,"lon":5.38897,"is_reserved":false,"is_disabled":false,"rental_uris":{"android":"levelo://app?vid=c41e3247-520d-4edc-8030-5306b79badd5","ios":"levelo://app?vid=c41e3247-520d-4edc-8030-5306b79badd5"},"vehicle_type_id":"4","last_reported":1741637472,"current_range_meters":12000,"station_id":"ce4bhg12rcd13ifvqf60","pricing_plan_id":"cebpf4jnsgd1na2vs0mg"},{"bike_id":"29cfd7c6-f30d-433f-be23-3816488240c9","system_id":"levelo_inurba_marseille","lat":43.28467,"lon":5.35894,"is_reserved":false,"is_disabled":false,"rental_uris":{"android":"levelo://app?vid=29cfd7c6-f30d-433f-be23-3816488240c9","ios":"levelo://app?vid=29cfd7c6-f30d-433f-be23-3816488240c9"},"vehicle_type_id":"4","last_reported":1741637472,"current_range_meters":12000,"station_id":"ce4bhah2rcd13ifvqei0","pricing_plan_id":"cebpf4jnsgd1na2vs0mg"},{"bike_id":"9850477a-ea38-466c-8d00-d7638a0d9437","system_id":"levelo_inurba_marseille","lat":43.29889,"lon":5.38899,"is_reserved":false,"is_disabled":false,"rental_uris":{"android":"levelo://app?vid=9850477a-ea38-466c-8d00-d7638a0d9437","ios":"levelo://app?vid=9850477a-ea38-466c-8d00-d7638a0d9437"},"vehicle_type_id":"4","last_reported":1741637472,"current_range_meters":12000,"station_id":"ce4bh392rcd13ifvqdl0","pricing_plan_id":"cebpf4jnsgd1na2vs0mg"},{"bike_id":"27459785-4edf-4f27-b842-1984a62c6dde","system_id":"levelo_inurba_marseille","lat":43.25087,"lon":5.39512,"is_reserved":false,"is_disabled":false,"rental_uris":{"android":"levelo://app?vid=27459785-4edf-4f27-b842-1984a62c6dde","ios":"levelo://app?vid=27459785-4edf-4f27-b842-1984a62c6dde"},"vehicle_type_id":"4","last_reported":1741637472,"current_range_meters":12000,"station_id":"ce4bhm12rcd13ifvqgkg","pricing_plan_id":"cebpf4jnsgd1na2vs0mg"},{"bike_id":"e3b9964e-5c42-4877-b6ff-0d8e691e026e","system_id":"levelo_inurba_marseille","lat":43.27066,"lon":5.403,"is_reserved":false,"is_disabled":false,"rental_uris":{"android":"levelo://app?vid=e3b9964e-5c42-4877-b6ff-0d8e691e026e","ios":"levelo://app?vid=e3b9964e-5c42-4877-b6ff-0d8e691e026e"},"vehicle_type_id":"4","last_reported":1741637472,"current_range_meters":12400,"station_id":"ce4bhk92rcd13ifvqgc0","pricing_plan_id":"cebpf4jnsgd1na2vs0mg"},{"bike_id":"b0dddecf-9116-4a66-9983-62de09dcadf3","system_id":"levelo_inurba_marseille","lat":43.27799,"lon":5.42115,"is_reserved":false,"is_disabled":false,"rental_uris":{"android":"levelo://app?vid=b0dddecf-9116-4a66-9983-62de09dcadf3","ios":"levelo://app?vid=b0dddecf-9116-4a66-9983-62de09dcadf3"},"vehicle_type_id":"4","last_reported":1741637472,"current_range_meters":12400,"station_id":"","pricing_plan_id":"cebpf4jnsgd1na2vs0mg"},{"bike_id":"0f746634-9447-4077-958c-6f079b74ef8f","system_id":"levelo_inurba_marseille","lat":43.28413,"lon":5.37487,"is_reserved":false,"is_disabled":false,"rental_uris":{"android":"levelo://app?vid=0f746634-9447-4077-958c-6f079b74ef8f","ios":"levelo://app?vid=0f746634-9447-4077-958c-6f079b74ef8f"},"vehicle_type_id":"4","last_reported":1741637472,"current_range_meters":12400,"station_id":"ce4bh412rcd13ifvqds0","pricing_plan_id":"cebpf4jnsgd1na2vs0mg"},{"bike_id":"0fa8885b-a032-4875-8249-a37d20c5b6a2","system_id":"levelo_inurba_marseille","lat":43.28458,"lon":5.35897,"is_reserved":false,"is_disabled":false,"rental_uris":{"android":"levelo://app?vid=0fa8885b-a032-4875-8249-a37d20c5b6a2","ios":"levelo://app?vid=0fa8885b-a032-4875-8249-a37d20c5b6a2"},"vehicle_type_id":"4","last_reported":1741637472,"current_range_meters":12400,"station_id":"ce4bhah2rcd13ifvqei0","pricing_plan_id":"cebpf4jnsgd1na2vs0mg"},{"bike_id":"6b23263d-5b6d-4c0d-af82-e81f833640b8","system_id":"levelo_inurba_marseille","lat":43.27988,"lon":5.41667,"is_reserved":false,"is_disabled":false,"rental_uris":{"android":"levelo://app?vid=6b23263d-5b6d-4c0d-af82-e81f833640b8","ios":"levelo://app?vid=6b23263d-5b6d-4c0d-af82-e81f833640b8"},"vehicle_type_id":"4","last_reported":1741637472,"current_range_meters":12400,"station_id":"ce4bho12rcd13ifvqh1g","pricing_plan_id":"cebpf4jnsgd1na2vs0mg"},{"bike_id":"55c45b56-af23-4565-aef3-d3d54c2f743a","system_id":"levelo_inurba_marseille","lat":43.27174,"lon":5.40977,"is_reserved":false,"is_disabled":false,"rental_uris":{"android":"levelo://app?vid=55c45b56-af23-4565-aef3-d3d54c2f743a","ios":"levelo://app?vid=55c45b56-af23-4565-aef3-d3d54c2f743a"},"vehicle_type_id":"4","last_reported":1741637472,"current_range_meters":12400,"station_id":"ce4bhl12rcd13ifvqgf0","pricing_plan_id":"cebpf4jnsgd1na2vs0mg"},{"bike_id":"9ec52ed9-9c0e-4e61-a378-5327e3711632","system_id":"levelo_inurba_marseille","lat":43.24764,"lon":5.41173,"is_reserved":false,"is_disabled":false,"rental_uris":{"android":"levelo://app?vid=9ec52ed9-9c0e-4e61-a378-5327e3711632","ios":"levelo://app?vid=9ec52ed9-9c0e-4e61-a378-5327e3711632"},"vehicle_type_id":"4","last_reported":1741637472,"current_range_meters":12400,"station_id":"","pricing_plan_id":"cebpf4jnsgd1na2vs0mg"},{"bike_id":"2e66ac72-c323-46ef-a087-052cb2cea0bd","system_id":"levelo_inurba_marseille","lat":43.28354,"lon":5.38105,"is_reserved":false,"is_disabled":false,"rental_uris":{"android":"levelo://app?vid=2e66ac72-c323-46ef-a087-052cb2cea0bd","ios":"levelo://app?vid=2e66ac72-c323-46ef-a087-052cb2cea0bd"},"vehicle_type_id":"4","last_reported":1741637472,"current_range_meters":12800,"station_id":"ce4bh412rcd13ifvqdr0","pricing_plan_id":"cebpf4jnsgd1na2vs0mg"},{"bike_id":"11682539-aea1-4e9c-abe8-86102f41bf04","system_id":"levelo_inurba_marseille","lat":43.28443,"lon":5.35897,"is_reserved":false,"is_disabled":false,"rental_uris":{"android":"levelo://app?vid=11682539-aea1-4e9c-abe8-86102f41bf04","ios":"levelo://app?vid=11682539-aea1-4e9c-abe8-86102f41bf04"},"vehicle_type_id":"4","last_reported":1741637472,"current_range_meters":12800,"station_id":"ce4bhah2rcd13ifvqei0","pricing_plan_id":"cebpf4jnsgd1na2vs0mg"},{"bike_id":"1e51070d-9666-49a8-a60a-bee5ae2ac3bb","system_id":"levelo_inurba_marseille","lat":43.25721,"lon":5.41113,"is_reserved":false,"is_disabled":false,"rental_uris":{"android":"levelo://app?vid=1e51070d-9666-49a8-a60a-bee5ae2ac3bb","ios":"levelo://app?vid=1e51070d-9666-49a8-a60a-bee5ae2ac3bb"},"vehicle_type_id":"4","last_reported":1741637472,"current_range_meters":12800,"station_id":"ce4bhkp2rcd13ifvqgd0","pricing_plan_id":"cebpf4jnsgd1na2vs0mg"},{"bike_id":"f8e0aebb-9570-4e43-9f51-19f51db951a0","system_id":"levelo_inurba_marseille","lat":43.26569,"lon":5.39021,"is_reserved":false,"is_disabled":true,"rental_uris":{"android":"levelo://app?vid=f8e0aebb-9570-4e43-9f51-19f51db951a0","ios":"levelo://app?vid=f8e0aebb-9570-4e43-9f51-19f51db951a0"},"vehicle_type_id":"4","last_reported":1741637472,"current_range_meters":12800,"station_id":"ce4bhe12rcd13ifvqf30","pricing_plan_id":"cebpf4jnsgd1na2vs0mg"},{"bike_id":"98d8a154-c6b2-4d96-82cd-afc7786dc4e4","system_id":"levelo_inurba_marseille","lat":43.30806,"lon":5.43519,"is_reserved":false,"is_disabled":false,"rental_uris":{"android":"levelo://app?vid=98d8a154-c6b2-4d96-82cd-afc7786dc4e4","ios":"levelo://app?vid=98d8a154-c6b2-4d96-82cd-afc7786dc4e4"},"vehicle_type_id":"4","last_reported":1741637472,"current_range_meters":12800,"station_id":"ce4bhph2rcd13ifvqheg","pricing_plan_id":"cebpf4jnsgd1na2vs0mg"},{"bike_id":"229d6555-c1cb-4114-b0d7-18be2fc2c415","system_id":"levelo_inurba_marseille","lat":43.28038,"lon":5.36945,"is_reserved":false,"is_disabled":false,"rental_uris":{"android":"levelo://app?vid=229d6555-c1cb-4114-b0d7-18be2fc2c415","ios":"levelo://app?vid=229d6555-c1cb-4114-b0d7-18be2fc2c415"},"vehicle_type_id":"4","last_reported":1741637472,"current_range_meters":12800,"station_id":"ce4bha12rcd13ifvqef0","pricing_plan_id":"cebpf4jnsgd1na2vs0mg"},{"bike_id":"58d1b5b3-d322-4418-97d0-3066ec3d9afc","system_id":"levelo_inurba_marseille","lat":43.23203,"lon":5.35555,"is_reserved":false,"is_disabled":false,"rental_uris":{"android":"levelo://app?vid=58d1b5b3-d322-4418-97d0-3066ec3d9afc","ios":"levelo://app?vid=58d1b5b3-d322-4418-97d0-3066ec3d9afc"},"vehicle_type_id":"4","last_reported":1741637472,"current_range_meters":12800,"station_id":"ce4bhu92rcd13ifvqi70","pricing_plan_id":"cebpf4jnsgd1na2vs0mg"},{"bike_id":"f01aec37-3e08-4b5d-8fdc-cc2dc0468887","system_id":"levelo_inurba_marseille","lat":43.29422,"lon":5.38629,"is_reserved":false,"is_disabled":false,"rental_uris":{"android":"levelo://app?vid=f01aec37-3e08-4b5d-8fdc-cc2dc0468887","ios":"levelo://app?vid=f01aec37-3e08-4b5d-8fdc-cc2dc0468887"},"vehicle_type_id":"4","last_reported":1741637472,"current_range_meters":13600,"station_id":"ce4bh2h2rcd13ifvqdh0","pricing_plan_id":"cebpf4jnsgd1na2vs0mg"},{"bike_id":"213c5f16-dc58-475f-9a49-a14179230c7d","system_id":"levelo_inurba_marseille","lat":43.27996,"lon":5.40014,"is_reserved":false,"is_disabled":false,"rental_uris":{"android":"levelo://app?vid=213c5f16-dc58-475f-9a49-a14179230c7d","ios":"levelo://app?vid=213c5f16-dc58-475f-9a49-a14179230c7d"},"vehicle_type_id":"4","last_reported":1741637472,"current_range_meters":13600,"station_id":"ce4bho92rcd13ifvqh4g","pricing_plan_id":"cebpf4jnsgd1na2vs0mg"},{"bike_id":"52a75273-a367-4d82-b168-087441b9252c","system_id":"levelo_inurba_marseille","lat":43.311021,"lon":5.369631,"is_reserved":false,"is_disabled":false,"rental_uris":{"android":"levelo://app?vid=52a75273-a367-4d82-b168-087441b9252c","ios":"levelo://app?vid=52a75273-a367-4d82-b168-087441b9252c"},"vehicle_type_id":"4","last_reported":1741637472,"current_range_meters":13600,"station_id":"ce4bgr92rcd13ifvqc6g","pricing_plan_id":"cebpf4jnsgd1na2vs0mg"},{"bike_id":"9c1ca1cf-fa44-402a-80b3-aaecced96d63","system_id":"levelo_inurba_marseille","lat":43.30522,"lon":5.36699,"is_reserved":false,"is_disabled":false,"rental_uris":{"android":"levelo://app?vid=9c1ca1cf-fa44-402a-80b3-aaecced96d63","ios":"levelo://app?vid=9c1ca1cf-fa44-402a-80b3-aaecced96d63"},"vehicle_type_id":"4","last_reported":1741637472,"current_range_meters":13600,"station_id":"ce4bgrp2rcd13ifvqc9g","pricing_plan_id":"cebpf4jnsgd1na2vs0mg"},{"bike_id":"1f379cb9-613a-496e-b311-fcf8fb260467","system_id":"levelo_inurba_marseille","lat":43.28937,"lon":5.36647,"is_reserved":false,"is_disabled":false,"rental_uris":{"android":"levelo://app?vid=1f379cb9-613a-496e-b311-fcf8fb260467","ios":"levelo://app?vid=1f379cb9-613a-496e-b311-fcf8fb260467"},"vehicle_type_id":"4","last_reported":1741637472,"current_range_meters":13600,"station_id":"ce4bhap2rcd13ifvqek0","pricing_plan_id":"cebpf4jnsgd1na2vs0mg"},{"bike_id":"fdae8c57-1100-499f-a78a-815b16671136","system_id":"levelo_inurba_marseille","lat":43.24546,"lon":5.39522,"is_reserved":false,"is_disabled":false,"rental_uris":{"android":"levelo://app?vid=fdae8c57-1100-499f-a78a-815b16671136","ios":"levelo://app?vid=fdae8c57-1100-499f-a78a-815b16671136"},"vehicle_type_id":"4","last_reported":1741637472,"current_range_meters":13600,"station_id":"ce4bhlp2rcd13ifvqgjg","pricing_plan_id":"cebpf4jnsgd1na2vs0mg"},{"bike_id":"f640465e-8c9e-425a-8e36-08d8d5201bf6","system_id":"levelo_inurba_marseille","lat":43.2318,"lon":5.35553,"is_reserved":false,"is_disabled":false,"rental_uris":{"android":"levelo://app?vid=f640465e-8c9e-425a-8e36-08d8d5201bf6","ios":"levelo://app?vid=f640465e-8c9e-425a-8e36-08d8d5201bf6"},"vehicle_type_id":"4","last_reported":1741637472,"current_range_meters":13600,"station_id":"ce4bhu92rcd13ifvqi70","pricing_plan_id":"cebpf4jnsgd1na2vs0mg"},{"bike_id":"239daea1-d6b9-43b3-a1da-412c2567e506","system_id":"levelo_inurba_marseille","lat":43.30808,"lon":5.43522,"is_reserved":false,"is_disabled":false,"rental_uris":{"android":"levelo://app?vid=239daea1-d6b9-43b3-a1da-412c2567e506","ios":"levelo://app?vid=239daea1-d6b9-43b3-a1da-412c2567e506"},"vehicle_type_id":"4","last_reported":1741637472,"current_range_meters":13600,"station_id":"ce4bhph2rcd13ifvqheg","pricing_plan_id":"cebpf4jnsgd1na2vs0mg"},{"bike_id":"714996a6-64f6-41af-a68f-e639f119975d","system_id":"levelo_inurba_marseille","lat":43.25091,"lon":5.39519,"is_reserved":false,"is_disabled":true,"rental_uris":{"android":"levelo://app?vid=714996a6-64f6-41af-a68f-e639f119975d","ios":"levelo://app?vid=714996a6-64f6-41af-a68f-e639f119975d"},"vehicle_type_id":"4","last_reported":1741637472,"current_range_meters":14000,"station_id":"ce4bhm12rcd13ifvqgkg","pricing_plan_id":"cebpf4jnsgd1na2vs0mg"},{"bike_id":"6423918c-790a-4fd7-b29d-6d9df26db5f9","system_id":"levelo_inurba_marseille","lat":43.29459,"lon":5.40932,"is_reserved":false,"is_disabled":false,"rental_uris":{"android":"levelo://app?vid=6423918c-790a-4fd7-b29d-6d9df26db5f9","ios":"levelo://app?vid=6423918c-790a-4fd7-b29d-6d9df26db5f9"},"vehicle_type_id":"4","last_reported":1741637472,"current_range_meters":14000,"station_id":"","pricing_plan_id":"cebpf4jnsgd1na2vs0mg"},{"bike_id":"e3e8ee84-c9d8-4027-b7f7-e2a74d4c2adb","system_id":"levelo_inurba_marseille","lat":43.28951,"lon":5.36411,"is_reserved":false,"is_disabled":false,"rental_uris":{"android":"levelo://app?vid=e3e8ee84-c9d8-4027-b7f7-e2a74d4c2adb","ios":"levelo://app?vid=e3e8ee84-c9d8-4027-b7f7-e2a74d4c2adb"},"vehicle_type_id":"4","last_reported":1741637472,"current_range_meters":14400,"station_id":"ce4bhc92rcd13ifvqetg","pricing_plan_id":"cebpf4jnsgd1na2vs0mg"},{"bike_id":"1ee9dbf5-b0e2-4af5-8fd1-f41f66f7bf91","system_id":"levelo_inurba_marseille","lat":43.3084,"lon":5.3816,"is_reserved":false,"is_disabled":false,"rental_uris":{"android":"levelo://app?vid=1ee9dbf5-b0e2-4af5-8fd1-f41f66f7bf91","ios":"levelo://app?vid=1ee9dbf5-b0e2-4af5-8fd1-f41f66f7bf91"},"vehicle_type_id":"4","last_reported":1741637472,"current_range_meters":14400,"station_id":"ce4bgt12rcd13ifvqce0","pricing_plan_id":"cebpf4jnsgd1na2vs0mg"},{"bike_id":"3501ec91-2bc2-4a64-b6e6-4801b90431da","system_id":"levelo_inurba_marseille","lat":43.2846,"lon":5.3589,"is_reserved":false,"is_disabled":false,"rental_uris":{"android":"levelo://app?vid=3501ec91-2bc2-4a64-b6e6-4801b90431da","ios":"levelo://app?vid=3501ec91-2bc2-4a64-b6e6-4801b90431da"},"vehicle_type_id":"4","last_reported":1741637472,"current_range_meters":14400,"station_id":"ce4bhah2rcd13ifvqei0","pricing_plan_id":"cebpf4jnsgd1na2vs0mg"},{"bike_id":"9e5e5c9b-2dc0-4727-b0db-055726a9a62c","system_id":"levelo_inurba_marseille","lat":43.2841,"lon":5.37516,"is_reserved":false,"is_disabled":false,"rental_uris":{"android":"levelo://app?vid=9e5e5c9b-2dc0-4727-b0db-055726a9a62c","ios":"levelo://app?vid=9e5e5c9b-2dc0-4727-b0db-055726a9a62c"},"vehicle_type_id":"4","last_reported":1741637472,"current_range_meters":14400,"station_id":"ce4bh412rcd13ifvqds0","pricing_plan_id":"cebpf4jnsgd1na2vs0mg"},{"bike_id":"eae61ea7-d7a0-4e24-b5ac-1f5a2df4bfa7","system_id":"levelo_inurba_marseille","lat":43.27177,"lon":5.40984,"is_reserved":false,"is_disabled":false,"rental_uris":{"android":"levelo://app?vid=eae61ea7-d7a0-4e24-b5ac-1f5a2df4bfa7","ios":"levelo://app?vid=eae61ea7-d7a0-4e24-b5ac-1f5a2df4bfa7"},"vehicle_type_id":"4","last_reported":1741637472,"current_range_meters":14400,"station_id":"ce4bhl12rcd13ifvqgf0","pricing_plan_id":"cebpf4jnsgd1na2vs0mg"},{"bike_id":"7bd9e78b-c884-49a5-bbde-38a46597efa3","system_id":"levelo_inurba_marseille","lat":43.27992,"lon":5.40023,"is_reserved":false,"is_disabled":false,"rental_uris":{"android":"levelo://app?vid=7bd9e78b-c884-49a5-bbde-38a46597efa3","ios":"levelo://app?vid=7bd9e78b-c884-49a5-bbde-38a46597efa3"},"vehicle_type_id":"4","last_reported":1741637472,"current_range_meters":14400,"station_id":"ce4bho92rcd13ifvqh4g","pricing_plan_id":"cebpf4jnsgd1na2vs0mg"},{"bike_id":"8788ba1f-0302-4324-8ff2-c963e4002442","system_id":"levelo_inurba_marseille","lat":43.31054,"lon":5.38344,"is_reserved":false,"is_disabled":false,"rental_uris":{"android":"levelo://app?vid=8788ba1f-0302-4324-8ff2-c963e4002442","ios":"levelo://app?vid=8788ba1f-0302-4324-8ff2-c963e4002442"},"vehicle_type_id":"4","last_reported":1741637472,"current_range_meters":14800,"station_id":"ce4bgv92rcd13ifvqcr0","pricing_plan_id":"cebpf4jnsgd1na2vs0mg"},{"bike_id":"aaa6117f-695a-4870-93d8-ce1ed03dac44","system_id":"levelo_inurba_marseille","lat":43.30547,"lon":5.36529,"is_reserved":false,"is_disabled":true,"rental_uris":{"android":"levelo://app?vid=aaa6117f-695a-4870-93d8-ce1ed03dac44","ios":"levelo://app?vid=aaa6117f-695a-4870-93d8-ce1ed03dac44"},"vehicle_type_id":"4","last_reported":1741637472,"current_range_meters":14800,"station_id":"ce4bgs12rcd13ifvqcag","pricing_plan_id":"cebpf4jnsgd1na2vs0mg"},{"bike_id":"a25b6f61-4e98-4726-9c07-6dfbba9ed204","system_id":"levelo_inurba_marseille","lat":43.295561,"lon":5.4228,"is_reserved":false,"is_disabled":false,"rental_uris":{"android":"levelo://app?vid=a25b6f61-4e98-4726-9c07-6dfbba9ed204","ios":"levelo://app?vid=a25b6f61-4e98-4726-9c07-6dfbba9ed204"},"vehicle_type_id":"4","last_reported":1741637472,"current_range_meters":14800,"station_id":"ce4bhph2rcd13ifvqhdg","pricing_plan_id":"cebpf4jnsgd1na2vs0mg"},{"bike_id":"822dfc89-d558-439c-8ddb-a6aa5a189ca0","system_id":"levelo_inurba_marseille","lat":43.28724,"lon":5.36089,"is_reserved":false,"is_disabled":false,"rental_uris":{"android":"levelo://app?vid=822dfc89-d558-439c-8ddb-a6aa5a189ca0","ios":"levelo://app?vid=822dfc89-d558-439c-8ddb-a6aa5a189ca0"},"vehicle_type_id":"4","last_reported":1741637472,"current_range_meters":14800,"station_id":"cki0cbj6b192h4jlfktg","pricing_plan_id":"cebpf4jnsgd1na2vs0mg"},{"bike_id":"9acab34d-76c9-4fd5-bed6-0265a89df8bb","system_id":"levelo_inurba_marseille","lat":43.25728,"lon":5.41099,"is_reserved":false,"is_disabled":false,"rental_uris":{"android":"levelo://app?vid=9acab34d-76c9-4fd5-bed6-0265a89df8bb","ios":"levelo://app?vid=9acab34d-76c9-4fd5-bed6-0265a89df8bb"},"vehicle_type_id":"4","last_reported":1741637472,"current_range_meters":14800,"station_id":"ce4bhkp2rcd13ifvqgd0","pricing_plan_id":"cebpf4jnsgd1na2vs0mg"},{"bike_id":"7170985a-2d2e-4f85-93d7-2c8089780cbb","system_id":"levelo_inurba_marseille","lat":43.28161,"lon":5.42657,"is_reserved":false,"is_disabled":false,"rental_uris":{"android":"levelo://app?vid=7170985a-2d2e-4f85-93d7-2c8089780cbb","ios":"levelo://app?vid=7170985a-2d2e-4f85-93d7-2c8089780cbb"},"vehicle_type_id":"4","last_reported":1741637472,"current_range_meters":14800,"station_id":"ce4bhnh2rcd13ifvqgug","pricing_plan_id":"cebpf4jnsgd1na2vs0mg"},{"bike_id":"63efd6b9-d813-429c-b04f-99896658a589","system_id":"levelo_inurba_marseille","lat":43.27943,"lon":5.41056,"is_reserved":false,"is_disabled":false,"rental_uris":{"android":"levelo://app?vid=63efd6b9-d813-429c-b04f-99896658a589","ios":"levelo://app?vid=63efd6b9-d813-429c-b04f-99896658a589"},"vehicle_type_id":"4","last_reported":1741637472,"current_range_meters":14800,"station_id":"ce4bhnp2rcd13ifvqh0g","pricing_plan_id":"cebpf4jnsgd1na2vs0mg"},{"bike_id":"598a3e30-4d02-48c2-93b4-14b481473f5a","system_id":"levelo_inurba_marseille","lat":43.2943,"lon":5.3863,"is_reserved":false,"is_disabled":false,"rental_uris":{"android":"levelo://app?vid=598a3e30-4d02-48c2-93b4-14b481473f5a","ios":"levelo://app?vid=598a3e30-4d02-48c2-93b4-14b481473f5a"},"vehicle_type_id":"4","last_reported":1741637472,"current_range_meters":14800,"station_id":"ce4bh2h2rcd13ifvqdh0","pricing_plan_id":"cebpf4jnsgd1na2vs0mg"},{"bike_id":"6247825b-5dfd-4737-b9f9-aa7055771cb8","system_id":"levelo_inurba_marseille","lat":43.2884,"lon":5.35841,"is_reserved":false,"is_disabled":false,"rental_uris":{"android":"levelo://app?vid=6247825b-5dfd-4737-b9f9-aa7055771cb8","ios":"levelo://app?vid=6247825b-5dfd-4737-b9f9-aa7055771cb8"},"vehicle_type_id":"4","last_reported":1741637472,"current_range_meters":14800,"station_id":"ce4bhb12rcd13ifvqem0","pricing_plan_id":"cebpf4jnsgd1na2vs0mg"},{"bike_id":"415e7a31-245d-4ead-9f33-dad092a04302","system_id":"levelo_inurba_marseille","lat":43.2307,"lon":5.35485,"is_reserved":false,"is_disabled":false,"rental_uris":{"android":"levelo://app?vid=415e7a31-245d-4ead-9f33-dad092a04302","ios":"levelo://app?vid=415e7a31-245d-4ead-9f33-dad092a04302"},"vehicle_type_id":"4","last_reported":1741637472,"current_range_meters":15200,"station_id":"cpo3342slgdg3j2ifvpg","pricing_plan_id":"cebpf4jnsgd1na2vs0mg"},{"bike_id":"99662287-b8db-47fa-9c76-6a6e9c800bdf","system_id":"levelo_inurba_marseille","lat":43.30425,"lon":5.41298,"is_reserved":false,"is_disabled":false,"rental_uris":{"android":"levelo://app?vid=99662287-b8db-47fa-9c76-6a6e9c800bdf","ios":"levelo://app?vid=99662287-b8db-47fa-9c76-6a6e9c800bdf"},"vehicle_type_id":"4","last_reported":1741637472,"current_range_meters":15200,"station_id":"ce4bhop2rcd13ifvqh8g","pricing_plan_id":"cebpf4jnsgd1na2vs0mg"},{"bike_id":"11d8e867-88f8-4e72-81aa-2b0f7e036b0c","system_id":"levelo_inurba_marseille","lat":43.30595,"lon":5.37213,"is_reserved":false,"is_disabled":false,"rental_uris":{"android":"levelo://app?vid=11d8e867-88f8-4e72-81aa-2b0f7e036b0c","ios":"levelo://app?vid=11d8e867-88f8-4e72-81aa-2b0f7e036b0c"},"vehicle_type_id":"4","last_reported":1741637472,"current_range_meters":15200,"station_id":"ce4bgqh2rcd13ifvqc4g","pricing_plan_id":"cebpf4jnsgd1na2vs0mg"},{"bike_id":"02ccda15-ca98-4f66-a5ee-609c485d624e","system_id":"levelo_inurba_marseille","lat":43.23966,"lon":5.36641,"is_reserved":false,"is_disabled":false,"rental_uris":{"android":"levelo://app?vid=02ccda15-ca98-4f66-a5ee-609c485d624e","ios":"levelo://app?vid=02ccda15-ca98-4f66-a5ee-609c485d624e"},"vehicle_type_id":"4","last_reported":1741637472,"current_range_meters":15200,"station_id":"ce4bhi12rcd13ifvqfp0","pricing_plan_id":"cebpf4jnsgd1na2vs0mg"},{"bike_id":"25e3d1b9-451e-49bf-a160-305203be0a21","system_id":"levelo_inurba_marseille","lat":43.28174,"lon":5.42669,"is_reserved":false,"is_disabled":false,"rental_uris":{"android":"levelo://app?vid=25e3d1b9-451e-49bf-a160-305203be0a21","ios":"levelo://app?vid=25e3d1b9-451e-49bf-a160-305203be0a21"},"vehicle_type_id":"4","last_reported":1741637472,"current_range_meters":15200,"station_id":"ce4bhnh2rcd13ifvqgug","pricing_plan_id":"cebpf4jnsgd1na2vs0mg"},{"bike_id":"d2fb46e0-e2b4-4c51-811d-22794158f078","system_id":"levelo_inurba_marseille","lat":43.29878,"lon":5.39729,"is_reserved":false,"is_disabled":true,"rental_uris":{"android":"levelo://app?vid=d2fb46e0-e2b4-4c51-811d-22794158f078","ios":"levelo://app?vid=d2fb46e0-e2b4-4c51-811d-22794158f078"},"vehicle_type_id":"4","last_reported":1741637472,"current_range_meters":15200,"station_id":"ce4bh0h2rcd13ifvqd50","pricing_plan_id":"cebpf4jnsgd1na2vs0mg"},{"bike_id":"32ae218f-626a-4175-9dd0-f4bcf650afc3","system_id":"levelo_inurba_marseille","lat":43.28276,"lon":5.35074,"is_reserved":false,"is_disabled":false,"rental_uris":{"android":"levelo://app?vid=32ae218f-626a-4175-9dd0-f4bcf650afc3","ios":"levelo://app?vid=32ae218f-626a-4175-9dd0-f4bcf650afc3"},"vehicle_type_id":"4","last_reported":1741637472,"current_range_meters":15200,"station_id":"ce4bhbp2rcd13ifvqerg","pricing_plan_id":"cebpf4jnsgd1na2vs0mg"},{"bike_id":"565883d1-cc8a-44ba-8577-f2ece9d849c9","system_id":"levelo_inurba_marseille","lat":43.2815,"lon":5.42665,"is_reserved":false,"is_disabled":false,"rental_uris":{"android":"levelo://app?vid=565883d1-cc8a-44ba-8577-f2ece9d849c9","ios":"levelo://app?vid=565883d1-cc8a-44ba-8577-f2ece9d849c9"},"vehicle_type_id":"4","last_reported":1741637472,"current_range_meters":15200,"station_id":"ce4bhnh2rcd13ifvqgug","pricing_plan_id":"cebpf4jnsgd1na2vs0mg"},{"bike_id":"a40f6dc3-2c4f-42b6-8a57-5513831fdbe2","system_id":"levelo_inurba_marseille","lat":43.29006,"lon":5.35618,"is_reserved":false,"is_disabled":false,"rental_uris":{"android":"levelo://app?vid=a40f6dc3-2c4f-42b6-8a57-5513831fdbe2","ios":"levelo://app?vid=a40f6dc3-2c4f-42b6-8a57-5513831fdbe2"},"vehicle_type_id":"4","last_reported":1741637472,"current_range_meters":16000,"station_id":"ce4bhb92rcd13ifvqen0","pricing_plan_id":"cebpf4jnsgd1na2vs0mg"},{"bike_id":"b2698ce2-131b-4cc0-80ad-6ad1e3fb7123","system_id":"levelo_inurba_marseille","lat":43.27997,"lon":5.40033,"is_reserved":false,"is_disabled":false,"rental_uris":{"android":"levelo://app?vid=b2698ce2-131b-4cc0-80ad-6ad1e3fb7123","ios":"levelo://app?vid=b2698ce2-131b-4cc0-80ad-6ad1e3fb7123"},"vehicle_type_id":"4","last_reported":1741637472,"current_range_meters":16000,"station_id":"ce4bho92rcd13ifvqh4g","pricing_plan_id":"cebpf4jnsgd1na2vs0mg"},{"bike_id":"cdd29a02-0905-4ed7-aa8a-6508ae564de9","system_id":"levelo_inurba_marseille","lat":43.27814,"lon":5.40721,"is_reserved":false,"is_disabled":false,"rental_uris":{"android":"levelo://app?vid=cdd29a02-0905-4ed7-aa8a-6508ae564de9","ios":"levelo://app?vid=cdd29a02-0905-4ed7-aa8a-6508ae564de9"},"vehicle_type_id":"4","last_reported":1741637472,"current_range_meters":16000,"station_id":"ce4bhnh2rcd13ifvqgtg","pricing_plan_id":"cebpf4jnsgd1na2vs0mg"},{"bike_id":"5588af87-5f0b-4ed3-a65f-5f5d17e5af34","system_id":"levelo_inurba_marseille","lat":43.28419,"lon":5.34993,"is_reserved":false,"is_disabled":false,"rental_uris":{"android":"levelo://app?vid=5588af87-5f0b-4ed3-a65f-5f5d17e5af34","ios":"levelo://app?vid=5588af87-5f0b-4ed3-a65f-5f5d17e5af34"},"vehicle_type_id":"4","last_reported":1741637472,"current_range_meters":16000,"station_id":"ce4bhbh2rcd13ifvqepg","pricing_plan_id":"cebpf4jnsgd1na2vs0mg"},{"bike_id":"4164c805-68ab-4535-8969-0a4d0862e945","system_id":"levelo_inurba_marseille","lat":43.31371,"lon":5.38493,"is_reserved":false,"is_disabled":false,"rental_uris":{"android":"levelo://app?vid=4164c805-68ab-4535-8969-0a4d0862e945","ios":"levelo://app?vid=4164c805-68ab-4535-8969-0a4d0862e945"},"vehicle_type_id":"4","last_reported":1741637472,"current_range_meters":16000,"station_id":"ce4bgt92rcd13ifvqcf0","pricing_plan_id":"cebpf4jnsgd1na2vs0mg"},{"bike_id":"cf84d8bf-14f0-4faf-91c9-3f63b2d72c57","system_id":"levelo_inurba_marseille","lat":43.28002,"lon":5.41664,"is_reserved":false,"is_disabled":false,"rental_uris":{"android":"levelo://app?vid=cf84d8bf-14f0-4faf-91c9-3f63b2d72c57","ios":"levelo://app?vid=cf84d8bf-14f0-4faf-91c9-3f63b2d72c57"},"vehicle_type_id":"4","last_reported":1741637472,"current_range_meters":16000,"station_id":"ce4bho12rcd13ifvqh1g","pricing_plan_id":"cebpf4jnsgd1na2vs0mg"},{"bike_id":"1a26001d-d49a-47a3-a711-f7ff22c1c811","system_id":"levelo_inurba_marseille","lat":43.288814,"lon":5.3715,"is_reserved":false,"is_disabled":false,"rental_uris":{"android":"levelo://app?vid=1a26001d-d49a-47a3-a711-f7ff22c1c811","ios":"levelo://app?vid=1a26001d-d49a-47a3-a711-f7ff22c1c811"},"vehicle_type_id":"4","last_reported":1741637472,"current_range_meters":16000,"station_id":"","pricing_plan_id":"cebpf4jnsgd1na2vs0mg"},{"bike_id":"f3976558-232a-47ec-91c6-ef1071c74084","system_id":"levelo_inurba_marseille","lat":43.30148,"lon":5.39874,"is_reserved":false,"is_disabled":false,"rental_uris":{"android":"levelo://app?vid=f3976558-232a-47ec-91c6-ef1071c74084","ios":"levelo://app?vid=f3976558-232a-47ec-91c6-ef1071c74084"},"vehicle_type_id":"4","last_reported":1741637472,"current_range_meters":16000,"station_id":"ce4bh0h2rcd13ifvqd40","pricing_plan_id":"cebpf4jnsgd1na2vs0mg"},{"bike_id":"9ee1edb7-b9fb-4f4b-8c55-07c4d3b2fdc6","system_id":"levelo_inurba_marseille","lat":43.27915,"lon":5.39578,"is_reserved":false,"is_disabled":false,"rental_uris":{"android":"levelo://app?vid=9ee1edb7-b9fb-4f4b-8c55-07c4d3b2fdc6","ios":"levelo://app?vid=9ee1edb7-b9fb-4f4b-8c55-07c4d3b2fdc6"},"vehicle_type_id":"4","last_reported":1741637472,"current_range_meters":16000,"station_id":"ce4bhf92rcd13ifvqf40","pricing_plan_id":"cebpf4jnsgd1na2vs0mg"},{"bike_id":"7d34c987-73ce-4ca4-a4f8-fc2f3288cfda","system_id":"levelo_inurba_marseille","lat":43.24168,"lon":5.39726,"is_reserved":false,"is_disabled":false,"rental_uris":{"android":"levelo://app?vid=7d34c987-73ce-4ca4-a4f8-fc2f3288cfda","ios":"levelo://app?vid=7d34c987-73ce-4ca4-a4f8-fc2f3288cfda"},"vehicle_type_id":"4","last_reported":1741637472,"current_range_meters":16000,"station_id":"ce4bhn12rcd13ifvqgpg","pricing_plan_id":"cebpf4jnsgd1na2vs0mg"},{"bike_id":"3e37f03c-e5a4-4e97-951f-7786bb1c3928","system_id":"levelo_inurba_marseille","lat":43.23159,"lon":5.43719,"is_reserved":false,"is_disabled":false,"rental_uris":{"android":"levelo://app?vid=3e37f03c-e5a4-4e97-951f-7786bb1c3928","ios":"levelo://app?vid=3e37f03c-e5a4-4e97-951f-7786bb1c3928"},"vehicle_type_id":"4","last_reported":1741637472,"current_range_meters":16000,"station_id":"ce4bhmp2rcd13ifvqgog","pricing_plan_id":"cebpf4jnsgd1na2vs0mg"},{"bike_id":"53d1caad-7d2e-402c-88df-89cde4334633","system_id":"levelo_inurba_marseille","lat":43.29053,"lon":5.35916,"is_reserved":false,"is_disabled":false,"rental_uris":{"android":"levelo://app?vid=53d1caad-7d2e-402c-88df-89cde4334633","ios":"levelo://app?vid=53d1caad-7d2e-402c-88df-89cde4334633"},"vehicle_type_id":"4","last_reported":1741637472,"current_range_meters":16400,"station_id":"ce4bha92rcd13ifvqeg0","pricing_plan_id":"cebpf4jnsgd1na2vs0mg"},{"bike_id":"5ab483b2-9a6b-42c9-903f-a123db10a907","system_id":"levelo_inurba_marseille","lat":43.26567,"lon":5.39011,"is_reserved":false,"is_disabled":false,"rental_uris":{"android":"levelo://app?vid=5ab483b2-9a6b-42c9-903f-a123db10a907","ios":"levelo://app?vid=5ab483b2-9a6b-42c9-903f-a123db10a907"},"vehicle_type_id":"4","last_reported":1741637472,"current_range_meters":16400,"station_id":"ce4bhe12rcd13ifvqf30","pricing_plan_id":"cebpf4jnsgd1na2vs0mg"},{"bike_id":"f6dc7e9d-be33-4c3d-b28e-234510ea7980","system_id":"levelo_inurba_marseille","lat":43.29049,"lon":5.38067,"is_reserved":false,"is_disabled":false,"rental_uris":{"android":"levelo://app?vid=f6dc7e9d-be33-4c3d-b28e-234510ea7980","ios":"levelo://app?vid=f6dc7e9d-be33-4c3d-b28e-234510ea7980"},"vehicle_type_id":"4","last_reported":1741637472,"current_range_meters":16400,"station_id":"","pricing_plan_id":"cebpf4jnsgd1na2vs0mg"},{"bike_id":"c1274f75-f6de-4e64-95c5-50807824c13c","system_id":"levelo_inurba_marseille","lat":43.29782,"lon":5.39341,"is_reserved":false,"is_disabled":false,"rental_uris":{"android":"levelo://app?vid=c1274f75-f6de-4e64-95c5-50807824c13c","ios":"levelo://app?vid=c1274f75-f6de-4e64-95c5-50807824c13c"},"vehicle_type_id":"4","last_reported":1741637472,"current_range_meters":16400,"station_id":"chh1huq6cuj3fo74tm60","pricing_plan_id":"cebpf4jnsgd1na2vs0mg"},{"bike_id":"729cffa0-13e0-4fad-8aca-3e634e65e80c","system_id":"levelo_inurba_marseille","lat":43.29043,"lon":5.35923,"is_reserved":false,"is_disabled":false,"rental_uris":{"android":"levelo://app?vid=729cffa0-13e0-4fad-8aca-3e634e65e80c","ios":"levelo://app?vid=729cffa0-13e0-4fad-8aca-3e634e65e80c"},"vehicle_type_id":"4","last_reported":1741637472,"current_range_meters":16400,"station_id":"ce4bha92rcd13ifvqeg0","pricing_plan_id":"cebpf4jnsgd1na2vs0mg"},{"bike_id":"602775d1-d9d5-416b-9611-899a0e39b82c","system_id":"levelo_inurba_marseille","lat":43.29118,"lon":5.38404,"is_reserved":false,"is_disabled":false,"rental_uris":{"android":"levelo://app?vid=602775d1-d9d5-416b-9611-899a0e39b82c","ios":"levelo://app?vid=602775d1-d9d5-416b-9611-899a0e39b82c"},"vehicle_type_id":"4","last_reported":1741637472,"current_range_meters":16400,"station_id":"","pricing_plan_id":"cebpf4jnsgd1na2vs0mg"},{"bike_id":"ccdcd581-58af-40eb-ae3b-d6abb307bd5b","system_id":"levelo_inurba_marseille","lat":43.31058,"lon":5.38345,"is_reserved":false,"is_disabled":false,"rental_uris":{"android":"levelo://app?vid=ccdcd581-58af-40eb-ae3b-d6abb307bd5b","ios":"levelo://app?vid=ccdcd581-58af-40eb-ae3b-d6abb307bd5b"},"vehicle_type_id":"4","last_reported":1741637472,"current_range_meters":16800,"station_id":"ce4bgv92rcd13ifvqcr0","pricing_plan_id":"cebpf4jnsgd1na2vs0mg"},{"bike_id":"9776d519-3376-4f51-aaa3-2da63911d7cc","system_id":"levelo_inurba_marseille","lat":43.25076,"lon":5.39515,"is_reserved":false,"is_disabled":false,"rental_uris":{"android":"levelo://app?vid=9776d519-3376-4f51-aaa3-2da63911d7cc","ios":"levelo://app?vid=9776d519-3376-4f51-aaa3-2da63911d7cc"},"vehicle_type_id":"4","last_reported":1741637472,"current_range_meters":16800,"station_id":"ce4bhm12rcd13ifvqgkg","pricing_plan_id":"cebpf4jnsgd1na2vs0mg"},{"bike_id":"b3413ef8-bfc4-4b4a-803b-1df27ab02c46","system_id":"levelo_inurba_marseille","lat":43.29526,"lon":5.3856,"is_reserved":false,"is_disabled":false,"rental_uris":{"android":"levelo://app?vid=b3413ef8-bfc4-4b4a-803b-1df27ab02c46","ios":"levelo://app?vid=b3413ef8-bfc4-4b4a-803b-1df27ab02c46"},"vehicle_type_id":"4","last_reported":1741637472,"current_range_meters":17200,"station_id":"ce4bgih2rcd13ifvqba0","pricing_plan_id":"cebpf4jnsgd1na2vs0mg"},{"bike_id":"2cdec81d-2593-4153-a426-2f527f1b29e2","system_id":"levelo_inurba_marseille","lat":43.23595,"lon":5.391,"is_reserved":false,"is_disabled":false,"rental_uris":{"android":"levelo://app?vid=2cdec81d-2593-4153-a426-2f527f1b29e2","ios":"levelo://app?vid=2cdec81d-2593-4153-a426-2f527f1b29e2"},"vehicle_type_id":"4","last_reported":1741637472,"current_range_meters":17200,"station_id":"","pricing_plan_id":"cebpf4jnsgd1na2vs0mg"},{"bike_id":"e9f0ddf6-c638-4a12-8ca0-d2f9784b891b","system_id":"levelo_inurba_marseille","lat":43.27828,"lon":5.40721,"is_reserved":false,"is_disabled":false,"rental_uris":{"android":"levelo://app?vid=e9f0ddf6-c638-4a12-8ca0-d2f9784b891b","ios":"levelo://app?vid=e9f0ddf6-c638-4a12-8ca0-d2f9784b891b"},"vehicle_type_id":"4","last_reported":1741637472,"current_range_meters":17200,"station_id":"ce4bhnh2rcd13ifvqgtg","pricing_plan_id":"cebpf4jnsgd1na2vs0mg"},{"bike_id":"a480f81a-52e6-4f0d-9ea9-6f4b3c2a8f74","system_id":"levelo_inurba_marseille","lat":43.3082,"lon":5.43532,"is_reserved":false,"is_disabled":false,"rental_uris":{"android":"levelo://app?vid=a480f81a-52e6-4f0d-9ea9-6f4b3c2a8f74","ios":"levelo://app?vid=a480f81a-52e6-4f0d-9ea9-6f4b3c2a8f74"},"vehicle_type_id":"4","last_reported":1741637472,"current_range_meters":17200,"station_id":"ce4bhph2rcd13ifvqheg","pricing_plan_id":"cebpf4jnsgd1na2vs0mg"},{"bike_id":"2d93c67e-330c-4c7b-8517-c03567315b70","system_id":"levelo_inurba_marseille","lat":43.28161,"lon":5.42645,"is_reserved":false,"is_disabled":false,"rental_uris":{"android":"levelo://app?vid=2d93c67e-330c-4c7b-8517-c03567315b70","ios":"levelo://app?vid=2d93c67e-330c-4c7b-8517-c03567315b70"},"vehicle_type_id":"4","last_reported":1741637472,"current_range_meters":17200,"station_id":"ce4bhnh2rcd13ifvqgug","pricing_plan_id":"cebpf4jnsgd1na2vs0mg"},{"bike_id":"0a0724da-932a-4242-802e-d928e3eca097","system_id":"levelo_inurba_marseille","lat":43.28328,"lon":5.38085,"is_reserved":false,"is_disabled":false,"rental_uris":{"android":"levelo://app?vid=0a0724da-932a-4242-802e-d928e3eca097","ios":"levelo://app?vid=0a0724da-932a-4242-802e-d928e3eca097"},"vehicle_type_id":"4","last_reported":1741637472,"current_range_meters":17200,"station_id":"ce4bh412rcd13ifvqdr0","pricing_plan_id":"cebpf4jnsgd1na2vs0mg"},{"bike_id":"c9c6d846-a1c4-413e-8942-ac01c511efdb","system_id":"levelo_inurba_marseille","lat":43.28101,"lon":5.37853,"is_reserved":false,"is_disabled":false,"rental_uris":{"android":"levelo://app?vid=c9c6d846-a1c4-413e-8942-ac01c511efdb","ios":"levelo://app?vid=c9c6d846-a1c4-413e-8942-ac01c511efdb"},"vehicle_type_id":"4","last_reported":1741637472,"current_range_meters":17200,"station_id":"ce4bha12rcd13ifvqee0","pricing_plan_id":"cebpf4jnsgd1na2vs0mg"},{"bike_id":"29afafe6-9314-4cd8-9aea-023139050f04","system_id":"levelo_inurba_marseille","lat":43.31592,"lon":5.36867,"is_reserved":false,"is_disabled":false,"rental_uris":{"android":"levelo://app?vid=29afafe6-9314-4cd8-9aea-023139050f04","ios":"levelo://app?vid=29afafe6-9314-4cd8-9aea-023139050f04"},"vehicle_type_id":"4","last_reported":1741637472,"current_range_meters":17200,"station_id":"","pricing_plan_id":"cebpf4jnsgd1na2vs0mg"},{"bike_id":"1379d2e7-c153-4a42-87f1-8ff30298dd76","system_id":"levelo_inurba_marseille","lat":43.275635,"lon":5.38417,"is_reserved":false,"is_disabled":true,"rental_uris":{"android":"levelo://app?vid=1379d2e7-c153-4a42-87f1-8ff30298dd76","ios":"levelo://app?vid=1379d2e7-c153-4a42-87f1-8ff30298dd76"},"vehicle_type_id":"4","last_reported":1741637472,"current_range_meters":17200,"station_id":"","pricing_plan_id":"cebpf4jnsgd1na2vs0mg"},{"bike_id":"9f432809-d636-425d-9faf-1068526581e0","system_id":"levelo_inurba_marseille","lat":43.2894,"lon":5.3664,"is_reserved":false,"is_disabled":false,"rental_uris":{"android":"levelo://app?vid=9f432809-d636-425d-9faf-1068526581e0","ios":"levelo://app?vid=9f432809-d636-425d-9faf-1068526581e0"},"vehicle_type_id":"4","last_reported":1741637472,"current_range_meters":17600,"station_id":"ce4bhap2rcd13ifvqek0","pricing_plan_id":"cebpf4jnsgd1na2vs0mg"},{"bike_id":"a5c23861-a5a1-42a3-8484-33b25c02b840","system_id":"levelo_inurba_marseille","lat":43.27179,"lon":5.40986,"is_reserved":false,"is_disabled":false,"rental_uris":{"android":"levelo://app?vid=a5c23861-a5a1-42a3-8484-33b25c02b840","ios":"levelo://app?vid=a5c23861-a5a1-42a3-8484-33b25c02b840"},"vehicle_type_id":"4","last_reported":1741637472,"current_range_meters":17600,"station_id":"ce4bhl12rcd13ifvqgf0","pricing_plan_id":"cebpf4jnsgd1na2vs0mg"},{"bike_id":"349ff9f9-1017-4af8-9e62-947604edb6b7","system_id":"levelo_inurba_marseille","lat":43.27993,"lon":5.40021,"is_reserved":false,"is_disabled":false,"rental_uris":{"android":"levelo://app?vid=349ff9f9-1017-4af8-9e62-947604edb6b7","ios":"levelo://app?vid=349ff9f9-1017-4af8-9e62-947604edb6b7"},"vehicle_type_id":"4","last_reported":1741637472,"current_range_meters":17600,"station_id":"ce4bho92rcd13ifvqh4g","pricing_plan_id":"cebpf4jnsgd1na2vs0mg"},{"bike_id":"b82b5477-7e39-427d-89dc-28517f52f237","system_id":"levelo_inurba_marseille","lat":43.26801,"lon":5.41095,"is_reserved":false,"is_disabled":false,"rental_uris":{"android":"levelo://app?vid=b82b5477-7e39-427d-89dc-28517f52f237","ios":"levelo://app?vid=b82b5477-7e39-427d-89dc-28517f52f237"},"vehicle_type_id":"4","last_reported":1741637472,"current_range_meters":17600,"station_id":"","pricing_plan_id":"cebpf4jnsgd1na2vs0mg"},{"bike_id":"f0b5f6b7-161e-4c72-8f30-8d8e8d5c374f","system_id":"levelo_inurba_marseille","lat":43.24569,"lon":5.40491,"is_reserved":false,"is_disabled":false,"rental_uris":{"android":"levelo://app?vid=f0b5f6b7-161e-4c72-8f30-8d8e8d5c374f","ios":"levelo://app?vid=f0b5f6b7-161e-4c72-8f30-8d8e8d5c374f"},"vehicle_type_id":"4","last_reported":1741637472,"current_range_meters":17600,"station_id":"","pricing_plan_id":"cebpf4jnsgd1na2vs0mg"},{"bike_id":"adc75c13-38f6-4cd5-a0b9-13a8ecab8833","system_id":"levelo_inurba_marseille","lat":43.29155,"lon":5.37944,"is_reserved":false,"is_disabled":false,"rental_uris":{"android":"levelo://app?vid=adc75c13-38f6-4cd5-a0b9-13a8ecab8833","ios":"levelo://app?vid=adc75c13-38f6-4cd5-a0b9-13a8ecab8833"},"vehicle_type_id":"4","last_reported":1741637472,"current_range_meters":17600,"station_id":"ce4bhqp2rcd13ifvqhng","pricing_plan_id":"cebpf4jnsgd1na2vs0mg"},{"bike_id":"85feaa69-281c-4532-9634-3954940480cf","system_id":"levelo_inurba_marseille","lat":43.26683,"lon":5.38269,"is_reserved":false,"is_disabled":true,"rental_uris":{"android":"levelo://app?vid=85feaa69-281c-4532-9634-3954940480cf","ios":"levelo://app?vid=85feaa69-281c-4532-9634-3954940480cf"},"vehicle_type_id":"4","last_reported":1741637472,"current_range_meters":17600,"station_id":"ce4bhg92rcd13ifvqf90","pricing_plan_id":"cebpf4jnsgd1na2vs0mg"},{"bike_id":"32699f65-af3b-4e4c-849c-a0cc5c884600","system_id":"levelo_inurba_marseille","lat":43.28847,"lon":5.39325,"is_reserved":false,"is_disabled":false,"rental_uris":{"android":"levelo://app?vid=32699f65-af3b-4e4c-849c-a0cc5c884600","ios":"levelo://app?vid=32699f65-af3b-4e4c-849c-a0cc5c884600"},"vehicle_type_id":"4","last_reported":1741637472,"current_range_meters":17600,"station_id":"ce4bh2p2rcd13ifvqdi0","pricing_plan_id":"cebpf4jnsgd1na2vs0mg"},{"bike_id":"0e0b9e80-3172-459b-ab59-4016008cad5a","system_id":"levelo_inurba_marseille","lat":43.2737,"lon":5.36265,"is_reserved":false,"is_disabled":false,"rental_uris":{"android":"levelo://app?vid=0e0b9e80-3172-459b-ab59-4016008cad5a","ios":"levelo://app?vid=0e0b9e80-3172-459b-ab59-4016008cad5a"},"vehicle_type_id":"4","last_reported":1741637472,"current_range_meters":17600,"station_id":"ce4bhbh2rcd13ifvqeo0","pricing_plan_id":"cebpf4jnsgd1na2vs0mg"},{"bike_id":"54a8fe7f-8b69-49f6-9fb0-1115215d0e79","system_id":"levelo_inurba_marseille","lat":43.28862,"lon":5.35876,"is_reserved":false,"is_disabled":false,"rental_uris":{"android":"levelo://app?vid=54a8fe7f-8b69-49f6-9fb0-1115215d0e79","ios":"levelo://app?vid=54a8fe7f-8b69-49f6-9fb0-1115215d0e79"},"vehicle_type_id":"4","last_reported":1741637472,"current_range_meters":18000,"station_id":"ce4bhb12rcd13ifvqem0","pricing_plan_id":"cebpf4jnsgd1na2vs0mg"},{"bike_id":"621a3513-053c-4581-8b4f-1d615fa7cb0f","system_id":"levelo_inurba_marseille","lat":43.31322,"lon":5.38624,"is_reserved":false,"is_disabled":false,"rental_uris":{"android":"levelo://app?vid=621a3513-053c-4581-8b4f-1d615fa7cb0f","ios":"levelo://app?vid=621a3513-053c-4581-8b4f-1d615fa7cb0f"},"vehicle_type_id":"4","last_reported":1741637472,"current_range_meters":18000,"station_id":"","pricing_plan_id":"cebpf4jnsgd1na2vs0mg"},{"bike_id":"2bbfc1dc-382a-426d-814d-d24a23157160","system_id":"levelo_inurba_marseille","lat":43.28457,"lon":5.35906,"is_reserved":false,"is_disabled":false,"rental_uris":{"android":"levelo://app?vid=2bbfc1dc-382a-426d-814d-d24a23157160","ios":"levelo://app?vid=2bbfc1dc-382a-426d-814d-d24a23157160"},"vehicle_type_id":"4","last_reported":1741637472,"current_range_meters":18000,"station_id":"ce4bhah2rcd13ifvqei0","pricing_plan_id":"cebpf4jnsgd1na2vs0mg"},{"bike_id":"531d79c6-b6bf-46c3-a8be-b136f11a667f","system_id":"levelo_inurba_marseille","lat":43.28399,"lon":5.37466,"is_reserved":false,"is_disabled":false,"rental_uris":{"android":"levelo://app?vid=531d79c6-b6bf-46c3-a8be-b136f11a667f","ios":"levelo://app?vid=531d79c6-b6bf-46c3-a8be-b136f11a667f"},"vehicle_type_id":"4","last_reported":1741637472,"current_range_meters":18000,"station_id":"ce4bh412rcd13ifvqds0","pricing_plan_id":"cebpf4jnsgd1na2vs0mg"},{"bike_id":"90e4636f-5acf-4803-a3ed-f0ba6d29d559","system_id":"levelo_inurba_marseille","lat":43.30442,"lon":5.38898,"is_reserved":false,"is_disabled":true,"rental_uris":{"android":"levelo://app?vid=90e4636f-5acf-4803-a3ed-f0ba6d29d559","ios":"levelo://app?vid=90e4636f-5acf-4803-a3ed-f0ba6d29d559"},"vehicle_type_id":"4","last_reported":1741637472,"current_range_meters":18000,"station_id":"ce4bgk12rcd13ifvqbi0","pricing_plan_id":"cebpf4jnsgd1na2vs0mg"},{"bike_id":"b9fda32f-72ae-4df5-86a6-7dd6748cfac1","system_id":"levelo_inurba_marseille","lat":43.2781,"lon":5.40713,"is_reserved":false,"is_disabled":false,"rental_uris":{"android":"levelo://app?vid=b9fda32f-72ae-4df5-86a6-7dd6748cfac1","ios":"levelo://app?vid=b9fda32f-72ae-4df5-86a6-7dd6748cfac1"},"vehicle_type_id":"4","last_reported":1741637472,"current_range_meters":18000,"station_id":"ce4bhnh2rcd13ifvqgtg","pricing_plan_id":"cebpf4jnsgd1na2vs0mg"},{"bike_id":"f2236faa-8e79-4cff-b1fe-f8b20d469f13","system_id":"levelo_inurba_marseille","lat":43.29011,"lon":5.35614,"is_reserved":false,"is_disabled":false,"rental_uris":{"android":"levelo://app?vid=f2236faa-8e79-4cff-b1fe-f8b20d469f13","ios":"levelo://app?vid=f2236faa-8e79-4cff-b1fe-f8b20d469f13"},"vehicle_type_id":"4","last_reported":1741637472,"current_range_meters":18000,"station_id":"ce4bhb92rcd13ifvqen0","pricing_plan_id":"cebpf4jnsgd1na2vs0mg"},{"bike_id":"2986eb70-91a8-48d7-bf9f-67fdb369c622","system_id":"levelo_inurba_marseille","lat":43.23204,"lon":5.40001,"is_reserved":false,"is_disabled":false,"rental_uris":{"android":"levelo://app?vid=2986eb70-91a8-48d7-bf9f-67fdb369c622","ios":"levelo://app?vid=2986eb70-91a8-48d7-bf9f-67fdb369c622"},"vehicle_type_id":"4","last_reported":1741637472,"current_range_meters":18000,"station_id":"ce4bhn12rcd13ifvqgqg","pricing_plan_id":"cebpf4jnsgd1na2vs0mg"},{"bike_id":"70f66af9-0aa6-4db1-9431-c8e34190b648","system_id":"levelo_inurba_marseille","lat":43.2712,"lon":5.40312,"is_reserved":false,"is_disabled":false,"rental_uris":{"android":"levelo://app?vid=70f66af9-0aa6-4db1-9431-c8e34190b648","ios":"levelo://app?vid=70f66af9-0aa6-4db1-9431-c8e34190b648"},"vehicle_type_id":"4","last_reported":1741637472,"current_range_meters":18000,"station_id":"ce4bhk92rcd13ifvqgc0","pricing_plan_id":"cebpf4jnsgd1na2vs0mg"},{"bike_id":"676acd1e-ebbe-45ff-9a24-ff33e58569bc","system_id":"levelo_inurba_marseille","lat":43.263538,"lon":5.40455,"is_reserved":false,"is_disabled":false,"rental_uris":{"android":"levelo://app?vid=676acd1e-ebbe-45ff-9a24-ff33e58569bc","ios":"levelo://app?vid=676acd1e-ebbe-45ff-9a24-ff33e58569bc"},"vehicle_type_id":"4","last_reported":1741637472,"current_range_meters":18000,"station_id":"ce4bhmh2rcd13ifvqgmg","pricing_plan_id":"cebpf4jnsgd1na2vs0mg"},{"bike_id":"1049f159-caa2-43d4-9433-c31a7d2e9249","system_id":"levelo_inurba_marseille","lat":43.30804,"lon":5.38163,"is_reserved":false,"is_disabled":false,"rental_uris":{"android":"levelo://app?vid=1049f159-caa2-43d4-9433-c31a7d2e9249","ios":"levelo://app?vid=1049f159-caa2-43d4-9433-c31a7d2e9249"},"vehicle_type_id":"4","last_reported":1741637472,"current_range_meters":18000,"station_id":"ce4bgt12rcd13ifvqce0","pricing_plan_id":"cebpf4jnsgd1na2vs0mg"},{"bike_id":"51d0f616-3354-4255-b43f-e5ed5dcf0ff0","system_id":"levelo_inurba_marseille","lat":43.28847,"lon":5.39322,"is_reserved":false,"is_disabled":false,"rental_uris":{"android":"levelo://app?vid=51d0f616-3354-4255-b43f-e5ed5dcf0ff0","ios":"levelo://app?vid=51d0f616-3354-4255-b43f-e5ed5dcf0ff0"},"vehicle_type_id":"4","last_reported":1741637472,"current_range_meters":18800,"station_id":"ce4bh2p2rcd13ifvqdi0","pricing_plan_id":"cebpf4jnsgd1na2vs0mg"},{"bike_id":"96ba06bf-2ecc-465c-abce-b5fef04a732c","system_id":"levelo_inurba_marseille","lat":43.27997,"lon":5.40018,"is_reserved":false,"is_disabled":false,"rental_uris":{"android":"levelo://app?vid=96ba06bf-2ecc-465c-abce-b5fef04a732c","ios":"levelo://app?vid=96ba06bf-2ecc-465c-abce-b5fef04a732c"},"vehicle_type_id":"4","last_reported":1741637472,"current_range_meters":18800,"station_id":"ce4bho92rcd13ifvqh4g","pricing_plan_id":"cebpf4jnsgd1na2vs0mg"},{"bike_id":"0c65e6ca-7494-49e4-9cfc-2bac04035b1d","system_id":"levelo_inurba_marseille","lat":43.28717,"lon":5.39999,"is_reserved":false,"is_disabled":true,"rental_uris":{"android":"levelo://app?vid=0c65e6ca-7494-49e4-9cfc-2bac04035b1d","ios":"levelo://app?vid=0c65e6ca-7494-49e4-9cfc-2bac04035b1d"},"vehicle_type_id":"4","last_reported":1741637472,"current_range_meters":18800,"station_id":"ce4bho92rcd13ifvqh3g","pricing_plan_id":"cebpf4jnsgd1na2vs0mg"},{"bike_id":"17b872eb-086c-460e-bcad-782a4a781cf9","system_id":"levelo_inurba_marseille","lat":43.25167,"lon":5.42474,"is_reserved":false,"is_disabled":false,"rental_uris":{"android":"levelo://app?vid=17b872eb-086c-460e-bcad-782a4a781cf9","ios":"levelo://app?vid=17b872eb-086c-460e-bcad-782a4a781cf9"},"vehicle_type_id":"4","last_reported":1741637472,"current_range_meters":18800,"station_id":"","pricing_plan_id":"cebpf4jnsgd1na2vs0mg"},{"bike_id":"5c7ced9c-9299-4027-ad33-4aa7e274b39a","system_id":"levelo_inurba_marseille","lat":43.31059,"lon":5.40093,"is_reserved":false,"is_disabled":false,"rental_uris":{"android":"levelo://app?vid=5c7ced9c-9299-4027-ad33-4aa7e274b39a","ios":"levelo://app?vid=5c7ced9c-9299-4027-ad33-4aa7e274b39a"},"vehicle_type_id":"4","last_reported":1741637472,"current_range_meters":18800,"station_id":"","pricing_plan_id":"cebpf4jnsgd1na2vs0mg"},{"bike_id":"76db3eaa-1489-4959-8155-b02e7f8f20ed","system_id":"levelo_inurba_marseille","lat":43.28945,"lon":5.36588,"is_reserved":false,"is_disabled":false,"rental_uris":{"android":"levelo://app?vid=76db3eaa-1489-4959-8155-b02e7f8f20ed","ios":"levelo://app?vid=76db3eaa-1489-4959-8155-b02e7f8f20ed"},"vehicle_type_id":"4","last_reported":1741637472,"current_range_meters":18800,"station_id":"","pricing_plan_id":"cebpf4jnsgd1na2vs0mg"},{"bike_id":"98abb632-e704-4d76-b282-59be888ae42b","system_id":"levelo_inurba_marseille","lat":43.24186,"lon":5.39721,"is_reserved":false,"is_disabled":false,"rental_uris":{"android":"levelo://app?vid=98abb632-e704-4d76-b282-59be888ae42b","ios":"levelo://app?vid=98abb632-e704-4d76-b282-59be888ae42b"},"vehicle_type_id":"4","last_reported":1741637472,"current_range_meters":18800,"station_id":"ce4bhn12rcd13ifvqgpg","pricing_plan_id":"cebpf4jnsgd1na2vs0mg"},{"bike_id":"bd5a455a-1fba-43ce-a472-c91e073e744c","system_id":"levelo_inurba_marseille","lat":43.29424,"lon":5.38626,"is_reserved":false,"is_disabled":false,"rental_uris":{"android":"levelo://app?vid=bd5a455a-1fba-43ce-a472-c91e073e744c","ios":"levelo://app?vid=bd5a455a-1fba-43ce-a472-c91e073e744c"},"vehicle_type_id":"4","last_reported":1741637472,"current_range_meters":18800,"station_id":"ce4bh2h2rcd13ifvqdh0","pricing_plan_id":"cebpf4jnsgd1na2vs0mg"},{"bike_id":"85d0fee5-9e1e-4258-a604-1b615a22b292","system_id":"levelo_inurba_marseille","lat":43.31326,"lon":5.38617,"is_reserved":false,"is_disabled":false,"rental_uris":{"android":"levelo://app?vid=85d0fee5-9e1e-4258-a604-1b615a22b292","ios":"levelo://app?vid=85d0fee5-9e1e-4258-a604-1b615a22b292"},"vehicle_type_id":"4","last_reported":1741637472,"current_range_meters":18800,"station_id":"","pricing_plan_id":"cebpf4jnsgd1na2vs0mg"},{"bike_id":"dd67d184-631d-4d7b-bf8e-0ad7d3cb2c67","system_id":"levelo_inurba_marseille","lat":43.29502,"lon":5.39368,"is_reserved":false,"is_disabled":false,"rental_uris":{"android":"levelo://app?vid=dd67d184-631d-4d7b-bf8e-0ad7d3cb2c67","ios":"levelo://app?vid=dd67d184-631d-4d7b-bf8e-0ad7d3cb2c67"},"vehicle_type_id":"4","last_reported":1741637472,"current_range_meters":18800,"station_id":"ce4bh292rcd13ifvqdf0","pricing_plan_id":"cebpf4jnsgd1na2vs0mg"},{"bike_id":"652c282d-7522-46a8-b99a-0b970b5cdd3a","system_id":"levelo_inurba_marseille","lat":43.29558,"lon":5.39957,"is_reserved":false,"is_disabled":true,"rental_uris":{"android":"levelo://app?vid=652c282d-7522-46a8-b99a-0b970b5cdd3a","ios":"levelo://app?vid=652c282d-7522-46a8-b99a-0b970b5cdd3a"},"vehicle_type_id":"4","last_reported":1741637472,"current_range_meters":18800,"station_id":"ce4bh312rcd13ifvqdj0","pricing_plan_id":"cebpf4jnsgd1na2vs0mg"},{"bike_id":"7988d08d-6b68-4054-bbea-884a4eca00ae","system_id":"levelo_inurba_marseille","lat":43.28354,"lon":5.38114,"is_reserved":false,"is_disabled":false,"rental_uris":{"android":"levelo://app?vid=7988d08d-6b68-4054-bbea-884a4eca00ae","ios":"levelo://app?vid=7988d08d-6b68-4054-bbea-884a4eca00ae"},"vehicle_type_id":"4","last_reported":1741637472,"current_range_meters":18800,"station_id":"ce4bh412rcd13ifvqdr0","pricing_plan_id":"cebpf4jnsgd1na2vs0mg"},{"bike_id":"803ea8dd-d180-4e7f-8cac-6164ca1b88ff","system_id":"levelo_inurba_marseille","lat":43.27821,"lon":5.40689,"is_reserved":false,"is_disabled":false,"rental_uris":{"android":"levelo://app?vid=803ea8dd-d180-4e7f-8cac-6164ca1b88ff","ios":"levelo://app?vid=803ea8dd-d180-4e7f-8cac-6164ca1b88ff"},"vehicle_type_id":"4","last_reported":1741637472,"current_range_meters":18800,"station_id":"ce4bhnh2rcd13ifvqgtg","pricing_plan_id":"cebpf4jnsgd1na2vs0mg"},