{"last_updated":1732860859,"ttl":60,"version":"2.2","data":{"bikes":[{"bike_id":"32ab80bc-e625-46a0-8a89-d877000fa341","system_id":"levelo_inurba_marseille","lat":43.31329,"lon":5.39696,"is_reserved":false,"is_disabled":false,"rental_uris":{"android":"levelo://app?vid=32ab80bc-e625-46a0-8a89-d877000fa341","ios":"levelo://app?vid=32ab80bc-e625-46a0-8a89-d877000fa341"},"vehicle_type_id":"4","last_reported":1732860859,"current_range_meters":39200,"station_id":"ce4bgvp2rcd13ifvqcu0","pricing_plan_id":"cebpf4jnsgd1na2vs0mg"},{"bike_id":"c4a1fcdf-12f7-4113-888b-c49766903db9","system_id":"levelo_inurba_marseille","lat":43.2826,"lon":5.35068,"is_reserved":false,"is_disabled":false,"rental_uris":{"android":"levelo://app?vid=c4a1fcdf-12f7-4113-888b-c49766903db9","ios":"levelo://app?vid=c4a1fcdf-12f7-4113-888b-c49766903db9"},"vehicle_type_id":"4","last_reported":1732860859,"current_range_meters":38000,"station_id":"ce4bhbp2rcd13ifvqerg","pricing_plan_id":"cebpf4jnsgd1na2vs0mg"},{"bike_id":"b856c8b4-412d-4c25-bdd4-e6b29aed04cb","system_id":"levelo_inurba_marseille","lat":43.22932,"lon":5.35378,"is_reserved":false,"is_disabled":false,"rental_uris":{"android":"levelo://app?vid=b856c8b4-412d-4c25-bdd4-e6b29aed04cb","ios":"levelo://app?vid=b856c8b4-412d-4c25-bdd4-e6b29aed04cb"},"vehicle_type_id":"4","last_reported":1732860859,"current_range_meters":38800,"station_id":"cpo3532slgdg3j2ikp40","pricing_plan_id":"cebpf4jnsgd1na2vs0mg"},{"bike_id":"787ae4f5-fdfe-4df6-b036-ee75178e31fb","system_id":"levelo_inurba_marseille","lat":43.31485,"lon":5.37273,"is_reserved":false,"is_disabled":false,"rental_uris":{"android":"levelo://app?vid=787ae4f5-fdfe-4df6-b036-ee75178e31fb","ios":"levelo://app?vid=787ae4f5-fdfe-4df6-b036-ee75178e31fb"},"vehicle_type_id":"4","last_reported":1732860859,"current_range_meters":11200,"station_id":"ce4bgt12rcd13ifvqcd0","pricing_plan_id":"cebpf4jnsgd1na2vs0mg"},{"bike_id":"2454e998-2e23-4446-9ab7-ffc1ca5b1159","system_id":"levelo_inurba_marseille","lat":43.317061,"lon":5.377484,"is_reserved":false,"is_disabled":false,"rental_uris":{"android":"levelo://app?vid=2454e998-2e23-4446-9ab7-ffc1ca5b1159","ios":"levelo://app?vid=2454e998-2e23-4446-9ab7-ffc1ca5b1159"},"vehicle_type_id":"4","last_reported":1732860859,"current_range_meters":38800,"station_id":"ce4bgth2rcd13ifvqch0","pricing_plan_id":"cebpf4jnsgd1na2vs0mg"},{"bike_id":"8d406c1a-f24c-4769-a560-66f9c6249ad5","system_id":"levelo_inurba_marseille","lat":43.31706,"lon":5.43702,"is_reserved":false,"is_disabled":false,"rental_uris":{"android":"levelo://app?vid=8d406c1a-f24c-4769-a560-66f9c6249ad5","ios":"levelo://app?vid=8d406c1a-f24c-4769-a560-66f9c6249ad5"},"vehicle_type_id":"4","last_reported":1732860859,"current_range_meters":16400,"station_id":"ce4bhp92rcd13ifvqhcg","pricing_plan_id":"cebpf4jnsgd1na2vs0mg"},{"bike_id":"742641cb-ede7-44c9-9eca-ae4b65bf9ac5","system_id":"levelo_inurba_marseille","lat":43.25569,"lon":5.38244,"is_reserved":false,"is_disabled":false,"rental_uris":{"android":"levelo://app?vid=742641cb-ede7-44c9-9eca-ae4b65bf9ac5","ios":"levelo://app?vid=742641cb-ede7-44c9-9eca-ae4b65bf9ac5"},"vehicle_type_id":"4","last_reported":1732860859,"current_range_meters":21600,"station_id":"ce4bhih2rcd13ifvqfs0","pricing_plan_id":"cebpf4jnsgd1na2vs0mg"},{"bike_id":"fac63031-3de9-41dc-941a-a395646bc4e4","system_id":"levelo_inurba_marseille","lat":43.25573,"lon":5.38236,"is_reserved":false,"is_disabled":false,"rental_uris":{"android":"levelo://app?vid=fac63031-3de9-41dc-941a-a395646bc4e4","ios":"levelo://app?vid=fac63031-3de9-41dc-941a-a395646bc4e4"},"vehicle_type_id":"4","last_reported":1732860859,"current_range_meters":8000,"station_id":"ce4bhih2rcd13ifvqfs0","pricing_plan_id":"cebpf4jnsgd1na2vs0mg"},{"bike_id":"78228560-6fbf-4122-9d03-128a049c2bf9","system_id":"levelo_inurba_marseille","lat":43.23191,"lon":5.39985,"is_reserved":false,"is_disabled":false,"rental_uris":{"android":"levelo://app?vid=78228560-6fbf-4122-9d03-128a049c2bf9","ios":"levelo://app?vid=78228560-6fbf-4122-9d03-128a049c2bf9"},"vehicle_type_id":"4","last_reported":1732860859,"current_range_meters":38000,"station_id":"ce4bhn12rcd13ifvqgqg","pricing_plan_id":"cebpf4jnsgd1na2vs0mg"},{"bike_id":"331eced5-6952-41e6-b98c-088b1bd5e10f","system_id":"levelo_inurba_marseille","lat":43.30938,"lon":5.39008,"is_reserved":false,"is_disabled":false,"rental_uris":{"android":"levelo://app?vid=331eced5-6952-41e6-b98c-088b1bd5e10f","ios":"levelo://app?vid=331eced5-6952-41e6-b98c-088b1bd5e10f"},"vehicle_type_id":"4","last_reported":1732860859,"current_range_meters":28800,"station_id":"ce4bgup2rcd13ifvqco0","pricing_plan_id":"cebpf4jnsgd1na2vs0mg"},{"bike_id":"0bb615d3-a859-46b8-8041-b46f9b3edbf9","system_id":"levelo_inurba_marseille","lat":43.30444,"lon":5.37924,"is_reserved":false,"is_disabled":false,"rental_uris":{"android":"levelo://app?vid=0bb615d3-a859-46b8-8041-b46f9b3edbf9","ios":"levelo://app?vid=0bb615d3-a859-46b8-8041-b46f9b3edbf9"},"vehicle_type_id":"4","last_reported":1732860859,"current_range_meters":38800,"station_id":"ce4bgup2rcd13ifvqcn0","pricing_plan_id":"cebpf4jnsgd1na2vs0mg"},{"bike_id":"05f64833-b02b-4667-8c55-404e4c98d9dd","system_id":"levelo_inurba_marseille","lat":43.30273,"lon":5.37695,"is_reserved":false,"is_disabled":false,"rental_uris":{"android":"levelo://app?vid=05f64833-b02b-4667-8c55-404e4c98d9dd","ios":"levelo://app?vid=05f64833-b02b-4667-8c55-404e4c98d9dd"},"vehicle_type_id":"4","last_reported":1732860859,"current_range_meters":35200,"station_id":"ce4bguh2rcd13ifvqcj0","pricing_plan_id":"cebpf4jnsgd1na2vs0mg"},{"bike_id":"5251a556-2e67-4701-8a47-0d845c92da66","system_id":"levelo_inurba_marseille","lat":43.26935,"lon":5.4025,"is_reserved":false,"is_disabled":false,"rental_uris":{"android":"levelo://app?vid=5251a556-2e67-4701-8a47-0d845c92da66","ios":"levelo://app?vid=5251a556-2e67-4701-8a47-0d845c92da66"},"vehicle_type_id":"4","last_reported":1732860859,"current_range_meters":38800,"station_id":"cjm6bp8fraef2m0cb0m0","pricing_plan_id":"cebpf4jnsgd1na2vs0mg"},{"bike_id":"c9fb6819-c048-4bb7-bb71-207e20cce37a","system_id":"levelo_inurba_marseille","lat":43.31321,"lon":5.39701,"is_reserved":false,"is_disabled":false,"rental_uris":{"android":"levelo://app?vid=c9fb6819-c048-4bb7-bb71-207e20cce37a","ios":"levelo://app?vid=c9fb6819-c048-4bb7-bb71-207e20cce37a"},"vehicle_type_id":"4","last_reported":1732860859,"current_range_meters":36400,"station_id":"ce4bgvp2rcd13ifvqcu0","pricing_plan_id":"cebpf4jnsgd1na2vs0mg"},{"bike_id":"247caaec-966c-4c99-9156-317327c27d5f","system_id":"levelo_inurba_marseille","lat":43.31528,"lon":5.38033,"is_reserved":false,"is_disabled":false,"rental_uris":{"android":"levelo://app?vid=247caaec-966c-4c99-9156-317327c27d5f","ios":"levelo://app?vid=247caaec-966c-4c99-9156-317327c27d5f"},"vehicle_type_id":"4","last_reported":1732860859,"current_range_meters":38800,"station_id":"ce4bhsp2rcd13ifvqi50","pricing_plan_id":"cebpf4jnsgd1na2vs0mg"},{"bike_id":"0d8a261f-4c42-45a3-8999-33518ed9d0de","system_id":"levelo_inurba_marseille","lat":43.29047,"lon":5.35905,"is_reserved":false,"is_disabled":false,"rental_uris":{"android":"levelo://app?vid=0d8a261f-4c42-45a3-8999-33518ed9d0de","ios":"levelo://app?vid=0d8a261f-4c42-45a3-8999-33518ed9d0de"},"vehicle_type_id":"4","last_reported":1732860859,"current_range_meters":38800,"station_id":"ce4bha92rcd13ifvqeg0","pricing_plan_id":"cebpf4jnsgd1na2vs0mg"},{"bike_id":"7b5ae10d-9ccd-47c1-98be-f07866f88e17","system_id":"levelo_inurba_marseille","lat":43.30793,"lon":5.3976,"is_reserved":false,"is_disabled":false,"rental_uris":{"android":"levelo://app?vid=7b5ae10d-9ccd-47c1-98be-f07866f88e17","ios":"levelo://app?vid=7b5ae10d-9ccd-47c1-98be-f07866f88e17"},"vehicle_type_id":"4","last_reported":1732860859,"current_range_meters":38000,"station_id":"ce4bh012rcd13ifvqcv0","pricing_plan_id":"cebpf4jnsgd1na2vs0mg"},{"bike_id":"ce15a521-8a1d-47b7-92c8-091ca367d00e","system_id":"levelo_inurba_marseille","lat":43.33749,"lon":5.37439,"is_reserved":false,"is_disabled":false,"rental_uris":{"android":"levelo://app?vid=ce15a521-8a1d-47b7-92c8-091ca367d00e","ios":"levelo://app?vid=ce15a521-8a1d-47b7-92c8-091ca367d00e"},"vehicle_type_id":"4","last_reported":1732860859,"current_range_meters":34800,"station_id":"","pricing_plan_id":"cebpf4jnsgd1na2vs0mg"},{"bike_id":"9544561b-30db-493f-a289-22c1940341a9","system_id":"levelo_inurba_marseille","lat":43.29711,"lon":5.37681,"is_reserved":false,"is_disabled":false,"rental_uris":{"android":"levelo://app?vid=9544561b-30db-493f-a289-22c1940341a9","ios":"levelo://app?vid=9544561b-30db-493f-a289-22c1940341a9"},"vehicle_type_id":"4","last_reported":1732860859,"current_range_meters":4800,"station_id":"ce4bgkh2rcd13ifvqbl0","pricing_plan_id":"cebpf4jnsgd1na2vs0mg"},{"bike_id":"a8cfb7c5-59c0-4772-a793-b840317f8234","system_id":"levelo_inurba_marseille","lat":43.2925,"lon":5.40899,"is_reserved":false,"is_disabled":true,"rental_uris":{"android":"levelo://app?vid=a8cfb7c5-59c0-4772-a793-b840317f8234","ios":"levelo://app?vid=a8cfb7c5-59c0-4772-a793-b840317f8234"},"vehicle_type_id":"4","last_reported":1732860859,"current_range_meters":38800,"station_id":"ce4bh192rcd13ifvqdc0","pricing_plan_id":"cebpf4jnsgd1na2vs0mg"},{"bike_id":"ba2d1a62-e632-4169-9a28-b83f6acba689","system_id":"levelo_inurba_marseille","lat":43.26331,"lon":5.40467,"is_reserved":false,"is_disabled":true,"rental_uris":{"android":"levelo://app?vid=ba2d1a62-e632-4169-9a28-b83f6acba689","ios":"levelo://app?vid=ba2d1a62-e632-4169-9a28-b83f6acba689"},"vehicle_type_id":"4","last_reported":1732860859,"current_range_meters":0,"station_id":"","pricing_plan_id":"cebpf4jnsgd1na2vs0mg"},{"bike_id":"106e461f-3874-428c-8522-21fc2ca5b5c8","system_id":"levelo_inurba_marseille","lat":43.28033,"lon":5.36955,"is_reserved":false,"is_disabled":false,"rental_uris":{"android":"levelo://app?vid=106e461f-3874-428c-8522-21fc2ca5b5c8","ios":"levelo://app?vid=106e461f-3874-428c-8522-21fc2ca5b5c8"},"vehicle_type_id":"4","last_reported":1732860859,"current_range_meters":38400,"station_id":"ce4bha12rcd13ifvqef0","pricing_plan_id":"cebpf4jnsgd1na2vs0mg"},{"bike_id":"92958baa-3572-4747-bf10-749c50af56fd","system_id":"levelo_inurba_marseille","lat":43.28006,"lon":5.40015,"is_reserved":false,"is_disabled":false,"rental_uris":{"android":"levelo://app?vid=92958baa-3572-4747-bf10-749c50af56fd","ios":"levelo://app?vid=92958baa-3572-4747-bf10-749c50af56fd"},"vehicle_type_id":"4","last_reported":1732860859,"current_range_meters":38800,"station_id":"ce4bho92rcd13ifvqh4g","pricing_plan_id":"cebpf4jnsgd1na2vs0mg"},{"bike_id":"5bc3f434-939d-4b3b-8c02-f1997fc4c3d7","system_id":"levelo_inurba_marseille","lat":43.31358,"lon":5.38504,"is_reserved":false,"is_disabled":false,"rental_uris":{"android":"levelo://app?vid=5bc3f434-939d-4b3b-8c02-f1997fc4c3d7","ios":"levelo://app?vid=5bc3f434-939d-4b3b-8c02-f1997fc4c3d7"},"vehicle_type_id":"4","last_reported":1732860859,"current_range_meters":17200,"station_id":"ce4bgt92rcd13ifvqcf0","pricing_plan_id":"cebpf4jnsgd1na2vs0mg"},{"bike_id":"ff9a1ec5-be80-43ec-9b6e-d2bb637a4f30","system_id":"levelo_inurba_marseille","lat":43.28686,"lon":5.39944,"is_reserved":false,"is_disabled":true,"rental_uris":{"android":"levelo://app?vid=ff9a1ec5-be80-43ec-9b6e-d2bb637a4f30","ios":"levelo://app?vid=ff9a1ec5-be80-43ec-9b6e-d2bb637a4f30"},"vehicle_type_id":"4","last_reported":1732860859,"current_range_meters":1600,"station_id":"","pricing_plan_id":"cebpf4jnsgd1na2vs0mg"},{"bike_id":"1d0a8399-939d-4683-82f8-7692d9842e45","system_id":"levelo_inurba_marseille","lat":43.30769,"lon":5.37653,"is_reserved":false,"is_disabled":false,"rental_uris":{"android":"levelo://app?vid=1d0a8399-939d-4683-82f8-7692d9842e45","ios":"levelo://app?vid=1d0a8399-939d-4683-82f8-7692d9842e45"},"vehicle_type_id":"4","last_reported":1732860859,"current_range_meters":38800,"station_id":"ce4bgv92rcd13ifvqcq0","pricing_plan_id":"cebpf4jnsgd1na2vs0mg"},{"bike_id":"6f7949e1-de87-4a49-8620-fec27e04447f","system_id":"levelo_inurba_marseille","lat":43.33722,"lon":5.3919,"is_reserved":false,"is_disabled":false,"rental_uris":{"android":"levelo://app?vid=6f7949e1-de87-4a49-8620-fec27e04447f","ios":"levelo://app?vid=6f7949e1-de87-4a49-8620-fec27e04447f"},"vehicle_type_id":"4","last_reported":1732860859,"current_range_meters":32000,"station_id":"ce4bhr92rcd13ifvqhsg","pricing_plan_id":"cebpf4jnsgd1na2vs0mg"},{"bike_id":"76b67fc2-d8bd-464a-b90f-1666adef4212","system_id":"levelo_inurba_marseille","lat":43.29038,"lon":5.39953,"is_reserved":false,"is_disabled":false,"rental_uris":{"android":"levelo://app?vid=76b67fc2-d8bd-464a-b90f-1666adef4212","ios":"levelo://app?vid=76b67fc2-d8bd-464a-b90f-1666adef4212"},"vehicle_type_id":"4","last_reported":1732860859,"current_range_meters":32000,"station_id":"ce4bh392rcd13ifvqdm0","pricing_plan_id":"cebpf4jnsgd1na2vs0mg"},{"bike_id":"d6af473c-317d-44a4-ba58-092abf84584f","system_id":"levelo_inurba_marseille","lat":43.22933,"lon":5.3538,"is_reserved":false,"is_disabled":false,"rental_uris":{"android":"levelo://app?vid=d6af473c-317d-44a4-ba58-092abf84584f","ios":"levelo://app?vid=d6af473c-317d-44a4-ba58-092abf84584f"},"vehicle_type_id":"4","last_reported":1732860859,"current_range_meters":38800,"station_id":"cpo3532slgdg3j2ikp40","pricing_plan_id":"cebpf4jnsgd1na2vs0mg"},{"bike_id":"2aa3eeb0-144d-43de-91b5-edf07e9cb90a","system_id":"levelo_inurba_marseille","lat":43.28935,"lon":5.39637,"is_reserved":false,"is_disabled":true,"rental_uris":{"android":"levelo://app?vid=2aa3eeb0-144d-43de-91b5-edf07e9cb90a","ios":"levelo://app?vid=2aa3eeb0-144d-43de-91b5-edf07e9cb90a"},"vehicle_type_id":"4","last_reported":1732860859,"current_range_meters":30800,"station_id":"ce4bh3h2rcd13ifvqdn0","pricing_plan_id":"cebpf4jnsgd1na2vs0mg"},{"bike_id":"f421ed1b-900d-4dbb-b850-dc05e2e7f371","system_id":"levelo_inurba_marseille","lat":43.28449,"lon":5.35887,"is_reserved":false,"is_disabled":false,"rental_uris":{"android":"levelo://app?vid=f421ed1b-900d-4dbb-b850-dc05e2e7f371","ios":"levelo://app?vid=f421ed1b-900d-4dbb-b850-dc05e2e7f371"},"vehicle_type_id":"4","last_reported":1732860859,"current_range_meters":19200,"station_id":"ce4bhah2rcd13ifvqei0","pricing_plan_id":"cebpf4jnsgd1na2vs0mg"},{"bike_id":"d873b31d-bfeb-45ba-95cb-ddd4b051333e","system_id":"levelo_inurba_marseille","lat":43.3014,"lon":5.38114,"is_reserved":false,"is_disabled":true,"rental_uris":{"android":"levelo://app?vid=d873b31d-bfeb-45ba-95cb-ddd4b051333e","ios":"levelo://app?vid=d873b31d-bfeb-45ba-95cb-ddd4b051333e"},"vehicle_type_id":"4","last_reported":1732860859,"current_range_meters":36800,"station_id":"ce4bgjp2rcd13ifvqbh0","pricing_plan_id":"cebpf4jnsgd1na2vs0mg"},{"bike_id":"2149f122-447a-44a9-977c-3913a030e554","system_id":"levelo_inurba_marseille","lat":43.24689,"lon":5.38151,"is_reserved":false,"is_disabled":false,"rental_uris":{"android":"levelo://app?vid=2149f122-447a-44a9-977c-3913a030e554","ios":"levelo://app?vid=2149f122-447a-44a9-977c-3913a030e554"},"vehicle_type_id":"4","last_reported":1732860859,"current_range_meters":37600,"station_id":"ce4bhih2rcd13ifvqfr0","pricing_plan_id":"cebpf4jnsgd1na2vs0mg"},{"bike_id":"5649c94f-d611-4822-a905-a32b4dd1af05","system_id":"levelo_inurba_marseille","lat":43.31355,"lon":5.38502,"is_reserved":false,"is_disabled":false,"rental_uris":{"android":"levelo://app?vid=5649c94f-d611-4822-a905-a32b4dd1af05","ios":"levelo://app?vid=5649c94f-d611-4822-a905-a32b4dd1af05"},"vehicle_type_id":"4","last_reported":1732860859,"current_range_meters":38800,"station_id":"ce4bgt92rcd13ifvqcf0","pricing_plan_id":"cebpf4jnsgd1na2vs0mg"},{"bike_id":"698d8235-243a-42fe-a642-45e8bd12a3e0","system_id":"levelo_inurba_marseille","lat":43.310717,"lon":5.383476,"is_reserved":false,"is_disabled":false,"rental_uris":{"android":"levelo://app?vid=698d8235-243a-42fe-a642-45e8bd12a3e0","ios":"levelo://app?vid=698d8235-243a-42fe-a642-45e8bd12a3e0"},"vehicle_type_id":"4","last_reported":1732860859,"current_range_meters":27200,"station_id":"ce4bgv92rcd13ifvqcr0","pricing_plan_id":"cebpf4jnsgd1na2vs0mg"},{"bike_id":"95bce0c8-7aac-4804-81c7-e4d0b22cb60c","system_id":"levelo_inurba_marseille","lat":43.23954,"lon":5.36643,"is_reserved":false,"is_disabled":false,"rental_uris":{"android":"levelo://app?vid=95bce0c8-7aac-4804-81c7-e4d0b22cb60c","ios":"levelo://app?vid=95bce0c8-7aac-4804-81c7-e4d0b22cb60c"},"vehicle_type_id":"4","last_reported":1732860859,"current_range_meters":38400,"station_id":"ce4bhi12rcd13ifvqfp0","pricing_plan_id":"cebpf4jnsgd1na2vs0mg"},{"bike_id":"9244b89b-f36c-48db-97f3-7bec24ee66d4","system_id":"levelo_inurba_marseille","lat":43.31358,"lon":5.38502,"is_reserved":false,"is_disabled":true,"rental_uris":{"android":"levelo://app?vid=9244b89b-f36c-48db-97f3-7bec24ee66d4","ios":"levelo://app?vid=9244b89b-f36c-48db-97f3-7bec24ee66d4"},"vehicle_type_id":"4","last_reported":1732860859,"current_range_meters":0,"station_id":"ce4bgt92rcd13ifvqcf0","pricing_plan_id":"cebpf4jnsgd1na2vs0mg"},{"bike_id":"ed4237d4-30fc-4f62-8af6-4b4a55da31fc","system_id":"levelo_inurba_marseille","lat":43.27612,"lon":5.36114,"is_reserved":false,"is_disabled":false,"rental_uris":{"android":"levelo://app?vid=ed4237d4-30fc-4f62-8af6-4b4a55da31fc","ios":"levelo://app?vid=ed4237d4-30fc-4f62-8af6-4b4a55da31fc"},"vehicle_type_id":"4","last_reported":1732860859,"current_range_meters":36800,"station_id":"ce4bgj92rcd13ifvqbe0","pricing_plan_id":"cebpf4jnsgd1na2vs0mg"},{"bike_id":"c6b92bc4-9b0c-4205-be63-808e157ca80c","system_id":"levelo_inurba_marseille","lat":43.25723,"lon":5.41105,"is_reserved":false,"is_disabled":false,"rental_uris":{"android":"levelo://app?vid=c6b92bc4-9b0c-4205-be63-808e157ca80c","ios":"levelo://app?vid=c6b92bc4-9b0c-4205-be63-808e157ca80c"},"vehicle_type_id":"4","last_reported":1732860859,"current_range_meters":29600,"station_id":"ce4bhkp2rcd13ifvqgd0","pricing_plan_id":"cebpf4jnsgd1na2vs0mg"},{"bike_id":"26e4b19e-f41d-4cd7-8a2f-105102ed5e09","system_id":"levelo_inurba_marseille","lat":43.31486,"lon":5.37305,"is_reserved":false,"is_disabled":false,"rental_uris":{"android":"levelo://app?vid=26e4b19e-f41d-4cd7-8a2f-105102ed5e09","ios":"levelo://app?vid=26e4b19e-f41d-4cd7-8a2f-105102ed5e09"},"vehicle_type_id":"4","last_reported":1732860859,"current_range_meters":38800,"station_id":"ce4bgt12rcd13ifvqcd0","pricing_plan_id":"cebpf4jnsgd1na2vs0mg"},{"bike_id":"04aa9e5c-080b-4e26-a3cb-df232fab5d53","system_id":"levelo_inurba_marseille","lat":43.29892,"lon":5.43657,"is_reserved":false,"is_disabled":false,"rental_uris":{"android":"levelo://app?vid=04aa9e5c-080b-4e26-a3cb-df232fab5d53","ios":"levelo://app?vid=04aa9e5c-080b-4e26-a3cb-df232fab5d53"},"vehicle_type_id":"4","last_reported":1732860859,"current_range_meters":38000,"station_id":"ce4bhpp2rcd13ifvqhfg","pricing_plan_id":"cebpf4jnsgd1na2vs0mg"},{"bike_id":"4709c438-f4af-415a-a919-d27302b75dca","system_id":"levelo_inurba_marseille","lat":43.23194,"lon":5.35553,"is_reserved":false,"is_disabled":false,"rental_uris":{"android":"levelo://app?vid=4709c438-f4af-415a-a919-d27302b75dca","ios":"levelo://app?vid=4709c438-f4af-415a-a919-d27302b75dca"},"vehicle_type_id":"4","last_reported":1732860859,"current_range_meters":38800,"station_id":"ce4bhu92rcd13ifvqi70","pricing_plan_id":"cebpf4jnsgd1na2vs0mg"},{"bike_id":"24fbed4a-ccdf-495e-9862-dade3be413cd","system_id":"levelo_inurba_marseille","lat":43.29604,"lon":5.37705,"is_reserved":false,"is_disabled":true,"rental_uris":{"android":"levelo://app?vid=24fbed4a-ccdf-495e-9862-dade3be413cd","ios":"levelo://app?vid=24fbed4a-ccdf-495e-9862-dade3be413cd"},"vehicle_type_id":"4","last_reported":1732860859,"current_range_meters":38800,"station_id":"ce4bgi92rcd13ifvqb90","pricing_plan_id":"cebpf4jnsgd1na2vs0mg"},{"bike_id":"a6dc4e35-fd04-42cd-b5e5-6111ed261c10","system_id":"levelo_inurba_marseille","lat":43.27369,"lon":5.3625,"is_reserved":false,"is_disabled":false,"rental_uris":{"android":"levelo://app?vid=a6dc4e35-fd04-42cd-b5e5-6111ed261c10","ios":"levelo://app?vid=a6dc4e35-fd04-42cd-b5e5-6111ed261c10"},"vehicle_type_id":"4","last_reported":1732860859,"current_range_meters":6400,"station_id":"ce4bhbh2rcd13ifvqeo0","pricing_plan_id":"cebpf4jnsgd1na2vs0mg"},{"bike_id":"9c52d97c-8608-4fd6-9ccf-8dee20c804dc","system_id":"levelo_inurba_marseille","lat":43.28969,"lon":5.37815,"is_reserved":false,"is_disabled":false,"rental_uris":{"android":"levelo://app?vid=9c52d97c-8608-4fd6-9ccf-8dee20c804dc","ios":"levelo://app?vid=9c52d97c-8608-4fd6-9ccf-8dee20c804dc"},"vehicle_type_id":"4","last_reported":1732860859,"current_range_meters":10800,"station_id":"ce4bh9p2rcd13ifvqed0","pricing_plan_id":"cebpf4jnsgd1na2vs0mg"},{"bike_id":"a0a66722-4c02-439f-8b55-efdff31a28d3","system_id":"levelo_inurba_marseille","lat":43.29276,"lon":5.40129,"is_reserved":false,"is_disabled":false,"rental_uris":{"android":"levelo://app?vid=a0a66722-4c02-439f-8b55-efdff31a28d3","ios":"levelo://app?vid=a0a66722-4c02-439f-8b55-efdff31a28d3"},"vehicle_type_id":"4","last_reported":1732860859,"current_range_meters":16000,"station_id":"ce4bh312rcd13ifvqdk0","pricing_plan_id":"cebpf4jnsgd1na2vs0mg"},{"bike_id":"89ae7642-9710-4d62-86f7-b3f42fa57649","system_id":"levelo_inurba_marseille","lat":43.29566,"lon":5.39977,"is_reserved":false,"is_disabled":false,"rental_uris":{"android":"levelo://app?vid=89ae7642-9710-4d62-86f7-b3f42fa57649","ios":"levelo://app?vid=89ae7642-9710-4d62-86f7-b3f42fa57649"},"vehicle_type_id":"4","last_reported":1732860859,"current_range_meters":38000,"station_id":"ce4bh312rcd13ifvqdj0","pricing_plan_id":"cebpf4jnsgd1na2vs0mg"},{"bike_id":"2c2dbeed-d8b9-4443-8bc1-facb2c0b2be9","system_id":"levelo_inurba_marseille","lat":43.30459,"lon":5.36856,"is_reserved":false,"is_disabled":false,"rental_uris":{"android":"levelo://app?vid=2c2dbeed-d8b9-4443-8bc1-facb2c0b2be9","ios":"levelo://app?vid=2c2dbeed-d8b9-4443-8bc1-facb2c0b2be9"},"vehicle_type_id":"4","last_reported":1732860859,"current_range_meters":9200,"station_id":"","pricing_plan_id":"cebpf4jnsgd1na2vs0mg"},{"bike_id":"387295fb-a6ca-40c3-a179-16f226b4e1ab","system_id":"levelo_inurba_marseille","lat":43.25115,"lon":5.40319,"is_reserved":false,"is_disabled":false,"rental_uris":{"android":"levelo://app?vid=387295fb-a6ca-40c3-a179-16f226b4e1ab","ios":"levelo://app?vid=387295fb-a6ca-40c3-a179-16f226b4e1ab"},"vehicle_type_id":"4","last_reported":1732860859,"current_range_meters":33600,"station_id":"ce4bhlh2rcd13ifvqgig","pricing_plan_id":"cebpf4jnsgd1na2vs0mg"},{"bike_id":"b053b308-df93-40ed-81b7-cc6347a6608e","system_id":"levelo_inurba_marseille","lat":43.28659,"lon":5.3635,"is_reserved":false,"is_disabled":true,"rental_uris":{"android":"levelo://app?vid=b053b308-df93-40ed-81b7-cc6347a6608e","ios":"levelo://app?vid=b053b308-df93-40ed-81b7-cc6347a6608e"},"vehicle_type_id":"4","last_reported":1732860859,"current_range_meters":38800,"station_id":"ce4bhah2rcd13ifvqej0","pricing_plan_id":"cebpf4jnsgd1na2vs0mg"},{"bike_id":"cffe6257-b90b-4224-92f5-24d7cd9fbe63","system_id":"levelo_inurba_marseille","lat":43.30465,"lon":5.37921,"is_reserved":false,"is_disabled":false,"rental_uris":{"android":"levelo://app?vid=cffe6257-b90b-4224-92f5-24d7cd9fbe63","ios":"levelo://app?vid=cffe6257-b90b-4224-92f5-24d7cd9fbe63"},"vehicle_type_id":"4","last_reported":1732860859,"current_range_meters":37600,"station_id":"ce4bgup2rcd13ifvqcn0","pricing_plan_id":"cebpf4jnsgd1na2vs0mg"},{"bike_id":"d43bcf0d-16aa-4132-bee9-932c9bcef8f2","system_id":"levelo_inurba_marseille","lat":43.32366,"lon":5.38882,"is_reserved":false,"is_disabled":false,"rental_uris":{"android":"levelo://app?vid=d43bcf0d-16aa-4132-bee9-932c9bcef8f2","ios":"levelo://app?vid=d43bcf0d-16aa-4132-bee9-932c9bcef8f2"},"vehicle_type_id":"4","last_reported":1732860859,"current_range_meters":38400,"station_id":"ce4bhqp2rcd13ifvqhog","pricing_plan_id":"cebpf4jnsgd1na2vs0mg"},{"bike_id":"9cacee31-cbcb-48aa-8f8d-b32735a4491e","system_id":"levelo_inurba_marseille","lat":43.25575,"lon":5.38237,"is_reserved":false,"is_disabled":false,"rental_uris":{"android":"levelo://app?vid=9cacee31-cbcb-48aa-8f8d-b32735a4491e","ios":"levelo://app?vid=9cacee31-cbcb-48aa-8f8d-b32735a4491e"},"vehicle_type_id":"4","last_reported":1732860859,"current_range_meters":14000,"station_id":"ce4bhih2rcd13ifvqfs0","pricing_plan_id":"cebpf4jnsgd1na2vs0mg"},{"bike_id":"db40ca1f-b7d1-44e8-9b75-dd8786aa97db","system_id":"levelo_inurba_marseille","lat":43.28144,"lon":5.42655,"is_reserved":false,"is_disabled":false,"rental_uris":{"android":"levelo://app?vid=db40ca1f-b7d1-44e8-9b75-dd8786aa97db","ios":"levelo://app?vid=db40ca1f-b7d1-44e8-9b75-dd8786aa97db"},"vehicle_type_id":"4","last_reported":1732860859,"current_range_meters":27600,"station_id":"ce4bhnh2rcd13ifvqgug","pricing_plan_id":"cebpf4jnsgd1na2vs0mg"},{"bike_id":"a2f55e61-c857-45c2-b0a3-e646cd7988e4","system_id":"levelo_inurba_marseille","lat":43.30458,"lon":5.37923,"is_reserved":false,"is_disabled":false,"rental_uris":{"android":"levelo://app?vid=a2f55e61-c857-45c2-b0a3-e646cd7988e4","ios":"levelo://app?vid=a2f55e61-c857-45c2-b0a3-e646cd7988e4"},"vehicle_type_id":"4","last_reported":1732860859,"current_range_meters":36400,"station_id":"ce4bgup2rcd13ifvqcn0","pricing_plan_id":"cebpf4jnsgd1na2vs0mg"},{"bike_id":"26b5c406-3aca-4413-aab2-0a69ed2123c4","system_id":"levelo_inurba_marseille","lat":43.2996,"lon":5.41319,"is_reserved":false,"is_disabled":false,"rental_uris":{"android":"levelo://app?vid=26b5c406-3aca-4413-aab2-0a69ed2123c4","ios":"levelo://app?vid=26b5c406-3aca-4413-aab2-0a69ed2123c4"},"vehicle_type_id":"4","last_reported":1732860859,"current_range_meters":38800,"station_id":"ce4bhp12rcd13ifvqh9g","pricing_plan_id":"cebpf4jnsgd1na2vs0mg"},{"bike_id":"8e2041ad-6bf5-4186-becc-025de1939b87","system_id":"levelo_inurba_marseille","lat":43.28459,"lon":5.35893,"is_reserved":false,"is_disabled":true,"rental_uris":{"android":"levelo://app?vid=8e2041ad-6bf5-4186-becc-025de1939b87","ios":"levelo://app?vid=8e2041ad-6bf5-4186-becc-025de1939b87"},"vehicle_type_id":"4","last_reported":1732860859,"current_range_meters":10800,"station_id":"ce4bhah2rcd13ifvqei0","pricing_plan_id":"cebpf4jnsgd1na2vs0mg"},{"bike_id":"e1c76266-7d5c-49f3-b563-00be91d3a9f3","system_id":"levelo_inurba_marseille","lat":43.27808,"lon":5.4071,"is_reserved":false,"is_disabled":false,"rental_uris":{"android":"levelo://app?vid=e1c76266-7d5c-49f3-b563-00be91d3a9f3","ios":"levelo://app?vid=e1c76266-7d5c-49f3-b563-00be91d3a9f3"},"vehicle_type_id":"4","last_reported":1732860859,"current_range_meters":13600,"station_id":"ce4bhnh2rcd13ifvqgtg","pricing_plan_id":"cebpf4jnsgd1na2vs0mg"},{"bike_id":"422d452f-17cc-4565-afd8-833a3bc96a0e","system_id":"levelo_inurba_marseille","lat":43.30138,"lon":5.39875,"is_reserved":false,"is_disabled":true,"rental_uris":{"android":"levelo://app?vid=422d452f-17cc-4565-afd8-833a3bc96a0e","ios":"levelo://app?vid=422d452f-17cc-4565-afd8-833a3bc96a0e"},"vehicle_type_id":"4","last_reported":1732860859,"current_range_meters":24400,"station_id":"ce4bh0h2rcd13ifvqd40","pricing_plan_id":"cebpf4jnsgd1na2vs0mg"},{"bike_id":"dcee47ea-c950-4870-9c89-79b44232ba85","system_id":"levelo_inurba_marseille","lat":43.31713,"lon":5.42401,"is_reserved":false,"is_disabled":false,"rental_uris":{"android":"levelo://app?vid=dcee47ea-c950-4870-9c89-79b44232ba85","ios":"levelo://app?vid=dcee47ea-c950-4870-9c89-79b44232ba85"},"vehicle_type_id":"4","last_reported":1732860859,"current_range_meters":38800,"station_id":"ce4bhp92rcd13ifvqhbg","pricing_plan_id":"cebpf4jnsgd1na2vs0mg"},{"bike_id":"4d4c884f-6933-49c0-8899-f9856d90f44d","system_id":"levelo_inurba_marseille","lat":43.29748,"lon":5.37971,"is_reserved":false,"is_disabled":true,"rental_uris":{"android":"levelo://app?vid=4d4c884f-6933-49c0-8899-f9856d90f44d","ios":"levelo://app?vid=4d4c884f-6933-49c0-8899-f9856d90f44d"},"vehicle_type_id":"4","last_reported":1732860859,"current_range_meters":0,"station_id":"","pricing_plan_id":"cebpf4jnsgd1na2vs0mg"},{"bike_id":"0a6a01b8-ebc9-4549-9bc8-25449ed3a98c","system_id":"levelo_inurba_marseille","lat":43.31992,"lon":5.38143,"is_reserved":false,"is_disabled":false,"rental_uris":{"android":"levelo://app?vid=0a6a01b8-ebc9-4549-9bc8-25449ed3a98c","ios":"levelo://app?vid=0a6a01b8-ebc9-4549-9bc8-25449ed3a98c"},"vehicle_type_id":"4","last_reported":1732860859,"current_range_meters":24800,"station_id":"ce4bhr12rcd13ifvqhpg","pricing_plan_id":"cebpf4jnsgd1na2vs0mg"},{"bike_id":"b6e48330-8212-4476-b4d2-8a1e3bec5ff6","system_id":"levelo_inurba_marseille","lat":43.28654,"lon":5.36349,"is_reserved":false,"is_disabled":true,"rental_uris":{"android":"levelo://app?vid=b6e48330-8212-4476-b4d2-8a1e3bec5ff6","ios":"levelo://app?vid=b6e48330-8212-4476-b4d2-8a1e3bec5ff6"},"vehicle_type_id":"4","last_reported":1732860859,"current_range_meters":9200,"station_id":"ce4bhah2rcd13ifvqej0","pricing_plan_id":"cebpf4jnsgd1na2vs0mg"},{"bike_id":"563fb09b-a3df-4a23-a6c4-7dc183bdb452","system_id":"levelo_inurba_marseille","lat":43.27947,"lon":5.41036,"is_reserved":false,"is_disabled":false,"rental_uris":{"android":"levelo://app?vid=563fb09b-a3df-4a23-a6c4-7dc183bdb452","ios":"levelo://app?vid=563fb09b-a3df-4a23-a6c4-7dc183bdb452"},"vehicle_type_id":"4","last_reported":1732860859,"current_range_meters":29600,"station_id":"ce4bhnp2rcd13ifvqh0g","pricing_plan_id":"cebpf4jnsgd1na2vs0mg"},{"bike_id":"74e95188-1907-451d-8b54-ee413415f459","system_id":"levelo_inurba_marseille","lat":43.28859,"lon":5.35851,"is_reserved":false,"is_disabled":false,"rental_uris":{"android":"levelo://app?vid=74e95188-1907-451d-8b54-ee413415f459","ios":"levelo://app?vid=74e95188-1907-451d-8b54-ee413415f459"},"vehicle_type_id":"4","last_reported":1732860859,"current_range_meters":30400,"station_id":"ce4bhb12rcd13ifvqem0","pricing_plan_id":"cebpf4jnsgd1na2vs0mg"},{"bike_id":"9009be37-c6b1-406b-b0a8-fbab355f715e","system_id":"levelo_inurba_marseille","lat":43.33767,"lon":5.37492,"is_reserved":false,"is_disabled":false,"rental_uris":{"android":"levelo://app?vid=9009be37-c6b1-406b-b0a8-fbab355f715e","ios":"levelo://app?vid=9009be37-c6b1-406b-b0a8-fbab355f715e"},"vehicle_type_id":"4","last_reported":1732860859,"current_range_meters":38000,"station_id":"","pricing_plan_id":"cebpf4jnsgd1na2vs0mg"},{"bike_id":"41b5e72e-6b19-45dc-a9ad-51ccbc0f0a20","system_id":"levelo_inurba_marseille","lat":43.26558,"lon":5.39,"is_reserved":false,"is_disabled":false,"rental_uris":{"android":"levelo://app?vid=41b5e72e-6b19-45dc-a9ad-51ccbc0f0a20","ios":"levelo://app?vid=41b5e72e-6b19-45dc-a9ad-51ccbc0f0a20"},"vehicle_type_id":"4","last_reported":1732860859,"current_range_meters":29600,"station_id":"ce4bhe12rcd13ifvqf30","pricing_plan_id":"cebpf4jnsgd1na2vs0mg"},{"bike_id":"cfbb9735-0073-47e5-a7b0-871700092b34","system_id":"levelo_inurba_marseille","lat":43.27805,"lon":5.40704,"is_reserved":false,"is_disabled":false,"rental_uris":{"android":"levelo://app?vid=cfbb9735-0073-47e5-a7b0-871700092b34","ios":"levelo://app?vid=cfbb9735-0073-47e5-a7b0-871700092b34"},"vehicle_type_id":"4","last_reported":1732860859,"current_range_meters":29600,"station_id":"ce4bhnh2rcd13ifvqgtg","pricing_plan_id":"cebpf4jnsgd1na2vs0mg"},{"bike_id":"ad448571-bebb-4a8d-8d20-19092292da85","system_id":"levelo_inurba_marseille","lat":43.29167,"lon":5.37142,"is_reserved":false,"is_disabled":true,"rental_uris":{"android":"levelo://app?vid=ad448571-bebb-4a8d-8d20-19092292da85","ios":"levelo://app?vid=ad448571-bebb-4a8d-8d20-19092292da85"},"vehicle_type_id":"4","last_reported":1732860859,"current_range_meters":24800,"station_id":"ce4bha92rcd13ifvqeh0","pricing_plan_id":"cebpf4jnsgd1na2vs0mg"},{"bike_id":"5f433b1c-0e0f-43b4-a0b0-55b89bfd72f5","system_id":"levelo_inurba_marseille","lat":43.33601,"lon":5.41019,"is_reserved":false,"is_disabled":false,"rental_uris":{"android":"levelo://app?vid=5f433b1c-0e0f-43b4-a0b0-55b89bfd72f5","ios":"levelo://app?vid=5f433b1c-0e0f-43b4-a0b0-55b89bfd72f5"},"vehicle_type_id":"4","last_reported":1732860859,"current_range_meters":18800,"station_id":"ce4bhqh2rcd13ifvqhmg","pricing_plan_id":"cebpf4jnsgd1na2vs0mg"},{"bike_id":"149e6af2-c268-4f93-9fca-da453fb749b0","system_id":"levelo_inurba_marseille","lat":43.30307,"lon":5.36913,"is_reserved":false,"is_disabled":false,"rental_uris":{"android":"levelo://app?vid=149e6af2-c268-4f93-9fca-da453fb749b0","ios":"levelo://app?vid=149e6af2-c268-4f93-9fca-da453fb749b0"},"vehicle_type_id":"4","last_reported":1732860859,"current_range_meters":38400,"station_id":"ce4bgqh2rcd13ifvqc5g","pricing_plan_id":"cebpf4jnsgd1na2vs0mg"},{"bike_id":"9589002c-1bab-46c5-9d09-a7efb8d9d194","system_id":"levelo_inurba_marseille","lat":43.28474,"lon":5.34997,"is_reserved":false,"is_disabled":false,"rental_uris":{"android":"levelo://app?vid=9589002c-1bab-46c5-9d09-a7efb8d9d194","ios":"levelo://app?vid=9589002c-1bab-46c5-9d09-a7efb8d9d194"},"vehicle_type_id":"4","last_reported":1732860859,"current_range_meters":28000,"station_id":"","pricing_plan_id":"cebpf4jnsgd1na2vs0mg"},{"bike_id":"278b8151-5d46-4ade-9b8d-b35620e30295","system_id":"levelo_inurba_marseille","lat":43.28078,"lon":5.39666,"is_reserved":false,"is_disabled":true,"rental_uris":{"android":"levelo://app?vid=278b8151-5d46-4ade-9b8d-b35620e30295","ios":"levelo://app?vid=278b8151-5d46-4ade-9b8d-b35620e30295"},"vehicle_type_id":"4","last_reported":1732860859,"current_range_meters":400,"station_id":"ce4bho12rcd13ifvqh2g","pricing_plan_id":"cebpf4jnsgd1na2vs0mg"},{"bike_id":"5d84ab37-b887-4cbc-90d8-c3fbc6154e0e","system_id":"levelo_inurba_marseille","lat":43.31686,"lon":5.4047,"is_reserved":false,"is_disabled":false,"rental_uris":{"android":"levelo://app?vid=5d84ab37-b887-4cbc-90d8-c3fbc6154e0e","ios":"levelo://app?vid=5d84ab37-b887-4cbc-90d8-c3fbc6154e0e"},"vehicle_type_id":"4","last_reported":1732860859,"current_range_meters":38000,"station_id":"ce4bh012rcd13ifvqd00","pricing_plan_id":"cebpf4jnsgd1na2vs0mg"},{"bike_id":"840c2084-3872-4bb0-aad2-5ab80f87c1f6","system_id":"levelo_inurba_marseille","lat":43.30663,"lon":5.4007,"is_reserved":false,"is_disabled":true,"rental_uris":{"android":"levelo://app?vid=840c2084-3872-4bb0-aad2-5ab80f87c1f6","ios":"levelo://app?vid=840c2084-3872-4bb0-aad2-5ab80f87c1f6"},"vehicle_type_id":"4","last_reported":1732860859,"current_range_meters":38800,"station_id":"ce4bh112rcd13ifvqda0","pricing_plan_id":"cebpf4jnsgd1na2vs0mg"},{"bike_id":"c0e8c0c5-8cf0-4bea-b3b2-c88efdc8014a","system_id":"levelo_inurba_marseille","lat":43.32355,"lon":5.3888,"is_reserved":false,"is_disabled":false,"rental_uris":{"android":"levelo://app?vid=c0e8c0c5-8cf0-4bea-b3b2-c88efdc8014a","ios":"levelo://app?vid=c0e8c0c5-8cf0-4bea-b3b2-c88efdc8014a"},"vehicle_type_id":"4","last_reported":1732860859,"current_range_meters":25600,"station_id":"ce4bhqp2rcd13ifvqhog","pricing_plan_id":"cebpf4jnsgd1na2vs0mg"},{"bike_id":"6770707a-d638-46db-ac11-17ca394f4eb5","system_id":"levelo_inurba_marseille","lat":43.23959,"lon":5.36635,"is_reserved":false,"is_disabled":false,"rental_uris":{"android":"levelo://app?vid=6770707a-d638-46db-ac11-17ca394f4eb5","ios":"levelo://app?vid=6770707a-d638-46db-ac11-17ca394f4eb5"},"vehicle_type_id":"4","last_reported":1732860859,"current_range_meters":17200,"station_id":"ce4bhi12rcd13ifvqfp0","pricing_plan_id":"cebpf4jnsgd1na2vs0mg"},{"bike_id":"4cd79fb1-29e9-4453-8446-eea81ab019c0","system_id":"levelo_inurba_marseille","lat":43.3015,"lon":5.38073,"is_reserved":false,"is_disabled":false,"rental_uris":{"android":"levelo://app?vid=4cd79fb1-29e9-4453-8446-eea81ab019c0","ios":"levelo://app?vid=4cd79fb1-29e9-4453-8446-eea81ab019c0"},"vehicle_type_id":"4","last_reported":1732860859,"current_range_meters":26000,"station_id":"ce4bgjp2rcd13ifvqbh0","pricing_plan_id":"cebpf4jnsgd1na2vs0mg"},{"bike_id":"528c3082-6b75-410f-a51b-d7e2f524e380","system_id":"levelo_inurba_marseille","lat":43.28462,"lon":5.35883,"is_reserved":false,"is_disabled":false,"rental_uris":{"android":"levelo://app?vid=528c3082-6b75-410f-a51b-d7e2f524e380","ios":"levelo://app?vid=528c3082-6b75-410f-a51b-d7e2f524e380"},"vehicle_type_id":"4","last_reported":1732860859,"current_range_meters":28800,"station_id":"ce4bhah2rcd13ifvqei0","pricing_plan_id":"cebpf4jnsgd1na2vs0mg"},{"bike_id":"aa226446-391e-4936-ad4e-4dca6c8cbb57","system_id":"levelo_inurba_marseille","lat":43.27606,"lon":5.36118,"is_reserved":false,"is_disabled":false,"rental_uris":{"android":"levelo://app?vid=aa226446-391e-4936-ad4e-4dca6c8cbb57","ios":"levelo://app?vid=aa226446-391e-4936-ad4e-4dca6c8cbb57"},"vehicle_type_id":"4","last_reported":1732860859,"current_range_meters":32800,"station_id":"ce4bgj92rcd13ifvqbe0","pricing_plan_id":"cebpf4jnsgd1na2vs0mg"},{"bike_id":"1936c595-32cf-4097-a6cb-753cf309a951","system_id":"levelo_inurba_marseille","lat":43.31721,"lon":5.424,"is_reserved":false,"is_disabled":false,"rental_uris":{"android":"levelo://app?vid=1936c595-32cf-4097-a6cb-753cf309a951","ios":"levelo://app?vid=1936c595-32cf-4097-a6cb-753cf309a951"},"vehicle_type_id":"4","last_reported":1732860859,"current_range_meters":38800,"station_id":"ce4bhp92rcd13ifvqhbg","pricing_plan_id":"cebpf4jnsgd1na2vs0mg"},{"bike_id":"f62a5fa2-9173-4ac1-b63a-4a63811fbef9","system_id":"levelo_inurba_marseille","lat":43.2593,"lon":5.40914,"is_reserved":false,"is_disabled":false,"rental_uris":{"android":"levelo://app?vid=f62a5fa2-9173-4ac1-b63a-4a63811fbef9","ios":"levelo://app?vid=f62a5fa2-9173-4ac1-b63a-4a63811fbef9"},"vehicle_type_id":"4","last_reported":1732860859,"current_range_meters":20400,"station_id":"ce4bhm92rcd13ifvqglg","pricing_plan_id":"cebpf4jnsgd1na2vs0mg"},{"bike_id":"4ef82adb-1398-4bed-bf34-1aa2370cf21d","system_id":"levelo_inurba_marseille","lat":43.3199,"lon":5.3815,"is_reserved":false,"is_disabled":false,"rental_uris":{"android":"levelo://app?vid=4ef82adb-1398-4bed-bf34-1aa2370cf21d","ios":"levelo://app?vid=4ef82adb-1398-4bed-bf34-1aa2370cf21d"},"vehicle_type_id":"4","last_reported":1732860859,"current_range_meters":7200,"station_id":"ce4bhr12rcd13ifvqhpg","pricing_plan_id":"cebpf4jnsgd1na2vs0mg"},{"bike_id":"e8fa7be1-2407-41a7-b843-e7c70f1917ef","system_id":"levelo_inurba_marseille","lat":43.2761,"lon":5.36109,"is_reserved":false,"is_disabled":true,"rental_uris":{"android":"levelo://app?vid=e8fa7be1-2407-41a7-b843-e7c70f1917ef","ios":"levelo://app?vid=e8fa7be1-2407-41a7-b843-e7c70f1917ef"},"vehicle_type_id":"4","last_reported":1732860859,"current_range_meters":0,"station_id":"ce4bgj92rcd13ifvqbe0","pricing_plan_id":"cebpf4jnsgd1na2vs0mg"},{"bike_id":"9ecc32de-994a-4dac-bf19-477b1a5bf98c","system_id":"levelo_inurba_marseille","lat":43.28074,"lon":5.39658,"is_reserved":false,"is_disabled":false,"rental_uris":{"android":"levelo://app?vid=9ecc32de-994a-4dac-bf19-477b1a5bf98c","ios":"levelo://app?vid=9ecc32de-994a-4dac-bf19-477b1a5bf98c"},"vehicle_type_id":"4","last_reported":1732860859,"current_range_meters":6000,"station_id":"ce4bho12rcd13ifvqh2g","pricing_plan_id":"cebpf4jnsgd1na2vs0mg"},{"bike_id":"289614bb-31f0-4f7a-a4f9-71dc95ecf9e2","system_id":"levelo_inurba_marseille","lat":43.29615,"lon":5.37717,"is_reserved":false,"is_disabled":true,"rental_uris":{"android":"levelo://app?vid=289614bb-31f0-4f7a-a4f9-71dc95ecf9e2","ios":"levelo://app?vid=289614bb-31f0-4f7a-a4f9-71dc95ecf9e2"},"vehicle_type_id":"4","last_reported":1732860859,"current_range_meters":0,"station_id":"ce4bgi92rcd13ifvqb90","pricing_plan_id":"cebpf4jnsgd1na2vs0mg"},{"bike_id":"a06c1c1e-28b5-4b4b-bbd8-e996140e89eb","system_id":"levelo_inurba_marseille","lat":43.24651,"lon":5.38888,"is_reserved":false,"is_disabled":false,"rental_uris":{"android":"levelo://app?vid=a06c1c1e-28b5-4b4b-bbd8-e996140e89eb","ios":"levelo://app?vid=a06c1c1e-28b5-4b4b-bbd8-e996140e89eb"},"vehicle_type_id":"4","last_reported":1732860859,"current_range_meters":38800,"station_id":"ce4bhg12rcd13ifvqf60","pricing_plan_id":"cebpf4jnsgd1na2vs0mg"},{"bike_id":"04151390-4806-4e4e-8288-4bb06cadcb10","system_id":"levelo_inurba_marseille","lat":43.2979,"lon":5.38087,"is_reserved":false,"is_disabled":true,"rental_uris":{"android":"levelo://app?vid=04151390-4806-4e4e-8288-4bb06cadcb10","ios":"levelo://app?vid=04151390-4806-4e4e-8288-4bb06cadcb10"},"vehicle_type_id":"4","last_reported":1732860859,"current_range_meters":37600,"station_id":"ce4bgip2rcd13ifvqbb0","pricing_plan_id":"cebpf4jnsgd1na2vs0mg"},{"bike_id":"e63455c5-5f55-4960-8084-8cbaf9be1b50","system_id":"levelo_inurba_marseille","lat":43.25575,"lon":5.38242,"is_reserved":false,"is_disabled":false,"rental_uris":{"android":"levelo://app?vid=e63455c5-5f55-4960-8084-8cbaf9be1b50","ios":"levelo://app?vid=e63455c5-5f55-4960-8084-8cbaf9be1b50"},"vehicle_type_id":"4","last_reported":1732860859,"current_range_meters":34800,"station_id":"ce4bhih2rcd13ifvqfs0","pricing_plan_id":"cebpf4jnsgd1na2vs0mg"},{"bike_id":"1dee5398-ece1-4217-b5b9-984f22c2ff59","system_id":"levelo_inurba_marseille","lat":43.292558,"lon":5.384338,"is_reserved":false,"is_disabled":true,"rental_uris":{"android":"levelo://app?vid=1dee5398-ece1-4217-b5b9-984f22c2ff59","ios":"levelo://app?vid=1dee5398-ece1-4217-b5b9-984f22c2ff59"},"vehicle_type_id":"4","last_reported":1732860859,"current_range_meters":0,"station_id":"ce4bh692rcd13ifvqea0","pricing_plan_id":"cebpf4jnsgd1na2vs0mg"},{"bike_id":"35cde48b-e232-4392-95d8-1d6118a2707a","system_id":"levelo_inurba_marseille","lat":43.28266,"lon":5.35069,"is_reserved":false,"is_disabled":true,"rental_uris":{"android":"levelo://app?vid=35cde48b-e232-4392-95d8-1d6118a2707a","ios":"levelo://app?vid=35cde48b-e232-4392-95d8-1d6118a2707a"},"vehicle_type_id":"4","last_reported":1732860859,"current_range_meters":8400,"station_id":"ce4bhbp2rcd13ifvqerg","pricing_plan_id":"cebpf4jnsgd1na2vs0mg"},{"bike_id":"1a1ad613-e33a-4722-b183-07da1e0aa14f","system_id":"levelo_inurba_marseille","lat":43.32285,"lon":5.38263,"is_reserved":false,"is_disabled":false,"rental_uris":{"android":"levelo://app?vid=1a1ad613-e33a-4722-b183-07da1e0aa14f","ios":"levelo://app?vid=1a1ad613-e33a-4722-b183-07da1e0aa14f"},"vehicle_type_id":"4","last_reported":1732860859,"current_range_meters":38800,"station_id":"ce4bhr12rcd13ifvqhqg","pricing_plan_id":"cebpf4jnsgd1na2vs0mg"},{"bike_id":"00dcc2d0-a336-40fa-9329-dc1c49e567a0","system_id":"levelo_inurba_marseille","lat":43.27206,"lon":5.39183,"is_reserved":false,"is_disabled":false,"rental_uris":{"android":"levelo://app?vid=00dcc2d0-a336-40fa-9329-dc1c49e567a0","ios":"levelo://app?vid=00dcc2d0-a336-40fa-9329-dc1c49e567a0"},"vehicle_type_id":"4","last_reported":1732860859,"current_range_meters":32000,"station_id":"ce4bhhp2rcd13ifvqfm0","pricing_plan_id":"cebpf4jnsgd1na2vs0mg"},{"bike_id":"3ca8d527-6c31-4160-8bc9-0dbae13780f9","system_id":"levelo_inurba_marseille","lat":43.28456,"lon":5.3589,"is_reserved":false,"is_disabled":true,"rental_uris":{"android":"levelo://app?vid=3ca8d527-6c31-4160-8bc9-0dbae13780f9","ios":"levelo://app?vid=3ca8d527-6c31-4160-8bc9-0dbae13780f9"},"vehicle_type_id":"4","last_reported":1732860859,"current_range_meters":24400,"station_id":"ce4bhah2rcd13ifvqei0","pricing_plan_id":"cebpf4jnsgd1na2vs0mg"},{"bike_id":"36a3f96e-478e-4879-a67a-ad06aea66f6d","system_id":"levelo_inurba_marseille","lat":43.30878,"lon":5.39642,"is_reserved":false,"is_disabled":false,"rental_uris":{"android":"levelo://app?vid=36a3f96e-478e-4879-a67a-ad06aea66f6d","ios":"levelo://app?vid=36a3f96e-478e-4879-a67a-ad06aea66f6d"},"vehicle_type_id":"4","last_reported":1732860859,"current_range_meters":38800,"station_id":"ce4bh012rcd13ifvqcv0","pricing_plan_id":"cebpf4jnsgd1na2vs0mg"},{"bike_id":"ad4d8a87-5ee6-4a40-b373-1f14cad201c7","system_id":"levelo_inurba_marseille","lat":43.31272,"lon":5.40184,"is_reserved":false,"is_disabled":false,"rental_uris":{"android":"levelo://app?vid=ad4d8a87-5ee6-4a40-b373-1f14cad201c7","ios":"levelo://app?vid=ad4d8a87-5ee6-4a40-b373-1f14cad201c7"},"vehicle_type_id":"4","last_reported":1732860859,"current_range_meters":14000,"station_id":"ce4bh092rcd13ifvqd30","pricing_plan_id":"cebpf4jnsgd1na2vs0mg"},{"bike_id":"ba00654e-53a2-4532-9f95-136ca1396363","system_id":"levelo_inurba_marseille","lat":43.26197,"lon":5.3792,"is_reserved":false,"is_disabled":false,"rental_uris":{"android":"levelo://app?vid=ba00654e-53a2-4532-9f95-136ca1396363","ios":"levelo://app?vid=ba00654e-53a2-4532-9f95-136ca1396363"},"vehicle_type_id":"4","last_reported":1732860859,"current_range_meters":11200,"station_id":"ce4bhjp2rcd13ifvqg90","pricing_plan_id":"cebpf4jnsgd1na2vs0mg"},{"bike_id":"c7036a54-397c-47e5-a4a2-7e2996939a25","system_id":"levelo_inurba_marseille","lat":43.28457,"lon":5.35883,"is_reserved":false,"is_disabled":false,"rental_uris":{"android":"levelo://app?vid=c7036a54-397c-47e5-a4a2-7e2996939a25","ios":"levelo://app?vid=c7036a54-397c-47e5-a4a2-7e2996939a25"},"vehicle_type_id":"4","last_reported":1732860859,"current_range_meters":38800,"station_id":"ce4bhah2rcd13ifvqei0","pricing_plan_id":"cebpf4jnsgd1na2vs0mg"},{"bike_id":"16fb8e17-b179-4d5a-add7-fbd05efe76fb","system_id":"levelo_inurba_marseille","lat":43.25931,"lon":5.40917,"is_reserved":false,"is_disabled":true,"rental_uris":{"android":"levelo://app?vid=16fb8e17-b179-4d5a-add7-fbd05efe76fb","ios":"levelo://app?vid=16fb8e17-b179-4d5a-add7-fbd05efe76fb"},"vehicle_type_id":"4","last_reported":1732860859,"current_range_meters":24400,"station_id":"ce4bhm92rcd13ifvqglg","pricing_plan_id":"cebpf4jnsgd1na2vs0mg"},{"bike_id":"39b04c21-6a6a-40a7-a489-741c2b67c9bd","system_id":"levelo_inurba_marseille","lat":43.33725,"lon":5.39191,"is_reserved":false,"is_disabled":false,"rental_uris":{"android":"levelo://app?vid=39b04c21-6a6a-40a7-a489-741c2b67c9bd","ios":"levelo://app?vid=39b04c21-6a6a-40a7-a489-741c2b67c9bd"},"vehicle_type_id":"4","last_reported":1732860859,"current_range_meters":37600,"station_id":"ce4bhr92rcd13ifvqhsg","pricing_plan_id":"cebpf4jnsgd1na2vs0mg"},{"bike_id":"f7d32c62-c1bf-45e7-ad7d-baaa7e7b7b4f","system_id":"levelo_inurba_marseille","lat":43.28715,"lon":5.36078,"is_reserved":false,"is_disabled":false,"rental_uris":{"android":"levelo://app?vid=f7d32c62-c1bf-45e7-ad7d-baaa7e7b7b4f","ios":"levelo://app?vid=f7d32c62-c1bf-45e7-ad7d-baaa7e7b7b4f"},"vehicle_type_id":"4","last_reported":1732860859,"current_range_meters":6800,"station_id":"cki0cbj6b192h4jlfktg","pricing_plan_id":"cebpf4jnsgd1na2vs0mg"},{"bike_id":"67295fa8-fa27-48f4-b6f6-b84e14b2e05c","system_id":"levelo_inurba_marseille","lat":43.25727,"lon":5.411044,"is_reserved":false,"is_disabled":false,"rental_uris":{"android":"levelo://app?vid=67295fa8-fa27-48f4-b6f6-b84e14b2e05c","ios":"levelo://app?vid=67295fa8-fa27-48f4-b6f6-b84e14b2e05c"},"vehicle_type_id":"4","last_reported":1732860859,"current_range_meters":16400,"station_id":"ce4bhkp2rcd13ifvqgd0","pricing_plan_id":"cebpf4jnsgd1na2vs0mg"},{"bike_id":"f9f279cc-03ce-4144-bdc3-10e6ec0b5486","system_id":"levelo_inurba_marseille","lat":43.24666,"lon":5.38173,"is_reserved":false,"is_disabled":true,"rental_uris":{"android":"levelo://app?vid=f9f279cc-03ce-4144-bdc3-10e6ec0b5486","ios":"levelo://app?vid=f9f279cc-03ce-4144-bdc3-10e6ec0b5486"},"vehicle_type_id":"4","last_reported":1732860859,"current_range_meters":8800,"station_id":"ce4bhih2rcd13ifvqfr0","pricing_plan_id":"cebpf4jnsgd1na2vs0mg"},{"bike_id":"8f3f4a42-abb8-4c93-99bd-742eb22f23bc","system_id":"levelo_inurba_marseille","lat":43.27815,"lon":5.40723,"is_reserved":false,"is_disabled":false,"rental_uris":{"android":"levelo://app?vid=8f3f4a42-abb8-4c93-99bd-742eb22f23bc","ios":"levelo://app?vid=8f3f4a42-abb8-4c93-99bd-742eb22f23bc"},"vehicle_type_id":"4","last_reported":1732860859,"current_range_meters":38400,"station_id":"ce4bhnh2rcd13ifvqgtg","pricing_plan_id":"cebpf4jnsgd1na2vs0mg"},{"bike_id":"87a20c3c-65d4-407c-8eaf-fd2e0980a57a","system_id":"levelo_inurba_marseille","lat":43.3311,"lon":5.38227,"is_reserved":false,"is_disabled":false,"rental_uris":{"android":"levelo://app?vid=87a20c3c-65d4-407c-8eaf-fd2e0980a57a","ios":"levelo://app?vid=87a20c3c-65d4-407c-8eaf-fd2e0980a57a"},"vehicle_type_id":"4","last_reported":1732860859,"current_range_meters":10800,"station_id":"","pricing_plan_id":"cebpf4jnsgd1na2vs0mg"},{"bike_id":"4f416bbb-7a6b-4165-a3a6-7d70b74c4469","system_id":"levelo_inurba_marseille","lat":43.27056,"lon":5.40267,"is_reserved":false,"is_disabled":false,"rental_uris":{"android":"levelo://app?vid=4f416bbb-7a6b-4165-a3a6-7d70b74c4469","ios":"levelo://app?vid=4f416bbb-7a6b-4165-a3a6-7d70b74c4469"},"vehicle_type_id":"4","last_reported":1732860859,"current_range_meters":23200,"station_id":"ce4bhk92rcd13ifvqgc0","pricing_plan_id":"cebpf4jnsgd1na2vs0mg"},{"bike_id":"dd8abf73-0f11-4528-81c0-f7dfced5b75d","system_id":"levelo_inurba_marseille","lat":43.2803,"lon":5.36937,"is_reserved":false,"is_disabled":false,"rental_uris":{"android":"levelo://app?vid=dd8abf73-0f11-4528-81c0-f7dfced5b75d","ios":"levelo://app?vid=dd8abf73-0f11-4528-81c0-f7dfced5b75d"},"vehicle_type_id":"4","last_reported":1732860859,"current_range_meters":25200,"station_id":"ce4bha12rcd13ifvqef0","pricing_plan_id":"cebpf4jnsgd1na2vs0mg"},{"bike_id":"a4334e68-df66-47a8-81e3-023882891004","system_id":"levelo_inurba_marseille","lat":43.27803,"lon":5.40709,"is_reserved":false,"is_disabled":false,"rental_uris":{"android":"levelo://app?vid=a4334e68-df66-47a8-81e3-023882891004","ios":"levelo://app?vid=a4334e68-df66-47a8-81e3-023882891004"},"vehicle_type_id":"4","last_reported":1732860859,"current_range_meters":21600,"station_id":"ce4bhnh2rcd13ifvqgtg","pricing_plan_id":"cebpf4jnsgd1na2vs0mg"},{"bike_id":"b03386a7-851f-4d46-893d-b76a4e79cd7b","system_id":"levelo_inurba_marseille","lat":43.28663,"lon":5.36346,"is_reserved":false,"is_disabled":false,"rental_uris":{"android":"levelo://app?vid=b03386a7-851f-4d46-893d-b76a4e79cd7b","ios":"levelo://app?vid=b03386a7-851f-4d46-893d-b76a4e79cd7b"},"vehicle_type_id":"4","last_reported":1732860859,"current_range_meters":24400,"station_id":"ce4bhah2rcd13ifvqej0","pricing_plan_id":"cebpf4jnsgd1na2vs0mg"},{"bike_id":"ab9ea4d5-385f-4213-9207-9a6809ebbe18","system_id":"levelo_inurba_marseille","lat":43.31891,"lon":5.40746,"is_reserved":false,"is_disabled":false,"rental_uris":{"android":"levelo://app?vid=ab9ea4d5-385f-4213-9207-9a6809ebbe18","ios":"levelo://app?vid=ab9ea4d5-385f-4213-9207-9a6809ebbe18"},"vehicle_type_id":"4","last_reported":1732860859,"current_range_meters":23200,"station_id":"ce4bhq12rcd13ifvqhig","pricing_plan_id":"cebpf4jnsgd1na2vs0mg"},{"bike_id":"b28150e4-18cc-4d56-b749-abddac5e0ca1","system_id":"levelo_inurba_marseille","lat":43.24672,"lon":5.38155,"is_reserved":false,"is_disabled":false,"rental_uris":{"android":"levelo://app?vid=b28150e4-18cc-4d56-b749-abddac5e0ca1","ios":"levelo://app?vid=b28150e4-18cc-4d56-b749-abddac5e0ca1"},"vehicle_type_id":"4","last_reported":1732860859,"current_range_meters":38800,"station_id":"ce4bhih2rcd13ifvqfr0","pricing_plan_id":"cebpf4jnsgd1na2vs0mg"},{"bike_id":"81d9f7be-c3c6-4233-bf11-948e6f22debc","system_id":"levelo_inurba_marseille","lat":43.32359,"lon":5.38887,"is_reserved":false,"is_disabled":false,"rental_uris":{"android":"levelo://app?vid=81d9f7be-c3c6-4233-bf11-948e6f22debc","ios":"levelo://app?vid=81d9f7be-c3c6-4233-bf11-948e6f22debc"},"vehicle_type_id":"4","last_reported":1732860859,"current_range_meters":38000,"station_id":"ce4bhqp2rcd13ifvqhog","pricing_plan_id":"cebpf4jnsgd1na2vs0mg"},{"bike_id":"7fe8aae4-e2fd-45e8-ad84-418c66f3914f","system_id":"levelo_inurba_marseille","lat":43.28839,"lon":5.35838,"is_reserved":false,"is_disabled":true,"rental_uris":{"android":"levelo://app?vid=7fe8aae4-e2fd-45e8-ad84-418c66f3914f","ios":"levelo://app?vid=7fe8aae4-e2fd-45e8-ad84-418c66f3914f"},"vehicle_type_id":"4","last_reported":1732860859,"current_range_meters":8400,"station_id":"ce4bhb12rcd13ifvqem0","pricing_plan_id":"cebpf4jnsgd1na2vs0mg"},{"bike_id":"d3002ae4-e8b3-4192-8be0-24c220ff6b8e","system_id":"levelo_inurba_marseille","lat":43.28096,"lon":5.37852,"is_reserved":false,"is_disabled":false,"rental_uris":{"android":"levelo://app?vid=d3002ae4-e8b3-4192-8be0-24c220ff6b8e","ios":"levelo://app?vid=d3002ae4-e8b3-4192-8be0-24c220ff6b8e"},"vehicle_type_id":"4","last_reported":1732860859,"current_range_meters":36800,"station_id":"ce4bha12rcd13ifvqee0","pricing_plan_id":"cebpf4jnsgd1na2vs0mg"},{"bike_id":"e1350b90-17a2-4605-911f-6cc2fafa31c2","system_id":"levelo_inurba_marseille","lat":43.31717,"lon":5.42397,"is_reserved":false,"is_disabled":false,"rental_uris":{"android":"levelo://app?vid=e1350b90-17a2-4605-911f-6cc2fafa31c2","ios":"levelo://app?vid=e1350b90-17a2-4605-911f-6cc2fafa31c2"},"vehicle_type_id":"4","last_reported":1732860859,"current_range_meters":37600,"station_id":"ce4bhp92rcd13ifvqhbg","pricing_plan_id":"cebpf4jnsgd1na2vs0mg"},{"bike_id":"6e9137a2-a63e-409e-817a-eb2e2b583ef8","system_id":"levelo_inurba_marseille","lat":43.31353,"lon":5.38493,"is_reserved":false,"is_disabled":false,"rental_uris":{"android":"levelo://app?vid=6e9137a2-a63e-409e-817a-eb2e2b583ef8","ios":"levelo://app?vid=6e9137a2-a63e-409e-817a-eb2e2b583ef8"},"vehicle_type_id":"4","last_reported":1732860859,"current_range_meters":38000,"station_id":"ce4bgt92rcd13ifvqcf0","pricing_plan_id":"cebpf4jnsgd1na2vs0mg"},{"bike_id":"29a80c71-9648-4a26-b6c9-5f69092eaa01","system_id":"levelo_inurba_marseille","lat":43.280891,"lon":5.396391,"is_reserved":false,"is_disabled":true,"rental_uris":{"android":"levelo://app?vid=29a80c71-9648-4a26-b6c9-5f69092eaa01","ios":"levelo://app?vid=29a80c71-9648-4a26-b6c9-5f69092eaa01"},"vehicle_type_id":"4","last_reported":1732860859,"current_range_meters":0,"station_id":"ce4bho12rcd13ifvqh2g","pricing_plan_id":"cebpf4jnsgd1na2vs0mg"},{"bike_id":"4d089ae2-8d3d-4ba1-9519-c59633c846c6","system_id":"levelo_inurba_marseille","lat":43.28262,"lon":5.35078,"is_reserved":false,"is_disabled":false,"rental_uris":{"android":"levelo://app?vid=4d089ae2-8d3d-4ba1-9519-c59633c846c6","ios":"levelo://app?vid=4d089ae2-8d3d-4ba1-9519-c59633c846c6"},"vehicle_type_id":"4","last_reported":1732860859,"current_range_meters":38400,"station_id":"ce4bhbp2rcd13ifvqerg","pricing_plan_id":"cebpf4jnsgd1na2vs0mg"},{"bike_id":"2a60fd72-9cfa-415f-937e-d89edec4f374","system_id":"levelo_inurba_marseille","lat":43.25005,"lon":5.38914,"is_reserved":false,"is_disabled":false,"rental_uris":{"android":"levelo://app?vid=2a60fd72-9cfa-415f-937e-d89edec4f374","ios":"levelo://app?vid=2a60fd72-9cfa-415f-937e-d89edec4f374"},"vehicle_type_id":"4","last_reported":1732860859,"current_range_meters":29600,"station_id":"ce4bhgp2rcd13ifvqfd0","pricing_plan_id":"cebpf4jnsgd1na2vs0mg"},{"bike_id":"0995621e-0e5a-482e-8b5a-efe4989f97eb","system_id":"levelo_inurba_marseille","lat":43.31369,"lon":5.385,"is_reserved":false,"is_disabled":false,"rental_uris":{"android":"levelo://app?vid=0995621e-0e5a-482e-8b5a-efe4989f97eb","ios":"levelo://app?vid=0995621e-0e5a-482e-8b5a-efe4989f97eb"},"vehicle_type_id":"4","last_reported":1732860859,"current_range_meters":7200,"station_id":"ce4bgt92rcd13ifvqcf0","pricing_plan_id":"cebpf4jnsgd1na2vs0mg"},{"bike_id":"5b6140a7-7f65-4ca3-a3f2-419ab04c93da","system_id":"levelo_inurba_marseille","lat":43.22925,"lon":5.35373,"is_reserved":false,"is_disabled":true,"rental_uris":{"android":"levelo://app?vid=5b6140a7-7f65-4ca3-a3f2-419ab04c93da","ios":"levelo://app?vid=5b6140a7-7f65-4ca3-a3f2-419ab04c93da"},"vehicle_type_id":"4","last_reported":1732860859,"current_range_meters":28800,"station_id":"cpo3532slgdg3j2ikp40","pricing_plan_id":"cebpf4jnsgd1na2vs0mg"},{"bike_id":"64f1d7ec-bb5c-4a72-87fb-74dfe1b8e50c","system_id":"levelo_inurba_marseille","lat":43.30926,"lon":5.4014,"is_reserved":false,"is_disabled":false,"rental_uris":{"android":"levelo://app?vid=64f1d7ec-bb5c-4a72-87fb-74dfe1b8e50c","ios":"levelo://app?vid=64f1d7ec-bb5c-4a72-87fb-74dfe1b8e50c"},"vehicle_type_id":"4","last_reported":1732860859,"current_range_meters":38800,"station_id":"ce4bgvp2rcd13ifvqct0","pricing_plan_id":"cebpf4jnsgd1na2vs0mg"},{"bike_id":"f794b8fa-1f88-483b-a054-16f24b00c834","system_id":"levelo_inurba_marseille","lat":43.28262,"lon":5.35074,"is_reserved":false,"is_disabled":true,"rental_uris":{"android":"levelo://app?vid=f794b8fa-1f88-483b-a054-16f24b00c834","ios":"levelo://app?vid=f794b8fa-1f88-483b-a054-16f24b00c834"},"vehicle_type_id":"4","last_reported":1732860859,"current_range_meters":9200,"station_id":"ce4bhbp2rcd13ifvqerg","pricing_plan_id":"cebpf4jnsgd1na2vs0mg"},{"bike_id":"80940577-afe8-4613-b61c-57a7bd481a54","system_id":"levelo_inurba_marseille","lat":43.284606,"lon":5.358897,"is_reserved":false,"is_disabled":false,"rental_uris":{"android":"levelo://app?vid=80940577-afe8-4613-b61c-57a7bd481a54","ios":"levelo://app?vid=80940577-afe8-4613-b61c-57a7bd481a54"},"vehicle_type_id":"4","last_reported":1732860859,"current_range_meters":26800,"station_id":"ce4bhah2rcd13ifvqei0","pricing_plan_id":"cebpf4jnsgd1na2vs0mg"},{"bike_id":"3fc27dc1-e484-41b1-8595-849742206ae2","system_id":"levelo_inurba_marseille","lat":43.32337,"lon":5.40612,"is_reserved":false,"is_disabled":false,"rental_uris":{"android":"levelo://app?vid=3fc27dc1-e484-41b1-8595-849742206ae2","ios":"levelo://app?vid=3fc27dc1-e484-41b1-8595-849742206ae2"},"vehicle_type_id":"4","last_reported":1732860859,"current_range_meters":11200,"station_id":"ce4bhq92rcd13ifvqhjg","pricing_plan_id":"cebpf4jnsgd1na2vs0mg"},{"bike_id":"de3fa110-9268-48bb-8c90-0e177616d2e3","system_id":"levelo_inurba_marseille","lat":43.31273,"lon":5.4018,"is_reserved":false,"is_disabled":false,"rental_uris":{"android":"levelo://app?vid=de3fa110-9268-48bb-8c90-0e177616d2e3","ios":"levelo://app?vid=de3fa110-9268-48bb-8c90-0e177616d2e3"},"vehicle_type_id":"4","last_reported":1732860859,"current_range_meters":32800,"station_id":"ce4bh092rcd13ifvqd30","pricing_plan_id":"cebpf4jnsgd1na2vs0mg"},{"bike_id":"969f8d15-92a4-4c5c-9b7f-8e499035236c","system_id":"levelo_inurba_marseille","lat":43.313,"lon":5.4022,"is_reserved":false,"is_disabled":false,"rental_uris":{"android":"levelo://app?vid=969f8d15-92a4-4c5c-9b7f-8e499035236c","ios":"levelo://app?vid=969f8d15-92a4-4c5c-9b7f-8e499035236c"},"vehicle_type_id":"4","last_reported":1732860859,"current_range_meters":38800,"station_id":"ce4bh092rcd13ifvqd30","pricing_plan_id":"cebpf4jnsgd1na2vs0mg"},{"bike_id":"a4209cd4-70d3-458b-81a6-38d1ffca5925","system_id":"levelo_inurba_marseille","lat":43.28345,"lon":5.38107,"is_reserved":false,"is_disabled":false,"rental_uris":{"android":"levelo://app?vid=a4209cd4-70d3-458b-81a6-38d1ffca5925","ios":"levelo://app?vid=a4209cd4-70d3-458b-81a6-38d1ffca5925"},"vehicle_type_id":"4","last_reported":1732860859,"current_range_meters":38800,"station_id":"ce4bh412rcd13ifvqdr0","pricing_plan_id":"cebpf4jnsgd1na2vs0mg"},{"bike_id":"960e0ce8-4af8-4a7b-a1d9-99f150008994","system_id":"levelo_inurba_marseille","lat":43.33014,"lon":5.39049,"is_reserved":false,"is_disabled":false,"rental_uris":{"android":"levelo://app?vid=960e0ce8-4af8-4a7b-a1d9-99f150008994","ios":"levelo://app?vid=960e0ce8-4af8-4a7b-a1d9-99f150008994"},"vehicle_type_id":"4","last_reported":1732860859,"current_range_meters":38000,"station_id":"ce4bhr92rcd13ifvqhrg","pricing_plan_id":"cebpf4jnsgd1na2vs0mg"},{"bike_id":"17345abe-be21-4a32-8494-2e2d3f0a3907","system_id":"levelo_inurba_marseille","lat":43.31524,"lon":5.38045,"is_reserved":false,"is_disabled":false,"rental_uris":{"android":"levelo://app?vid=17345abe-be21-4a32-8494-2e2d3f0a3907","ios":"levelo://app?vid=17345abe-be21-4a32-8494-2e2d3f0a3907"},"vehicle_type_id":"4","last_reported":1732860859,"current_range_meters":36800,"station_id":"ce4bhsp2rcd13ifvqi50","pricing_plan_id":"cebpf4jnsgd1na2vs0mg"},{"bike_id":"7e97cfc9-56d4-42be-956e-1ff111d6f42e","system_id":"levelo_inurba_marseille","lat":43.27961,"lon":5.38719,"is_reserved":false,"is_disabled":false,"rental_uris":{"android":"levelo://app?vid=7e97cfc9-56d4-42be-956e-1ff111d6f42e","ios":"levelo://app?vid=7e97cfc9-56d4-42be-956e-1ff111d6f42e"},"vehicle_type_id":"4","last_reported":1732860859,"current_range_meters":15200,"station_id":"ce4bhg12rcd13ifvqf80","pricing_plan_id":"cebpf4jnsgd1na2vs0mg"},{"bike_id":"6aa7d263-c9db-4fc0-b9ea-e1517b0dfa32","system_id":"levelo_inurba_marseille","lat":43.28147,"lon":5.42646,"is_reserved":false,"is_disabled":false,"rental_uris":{"android":"levelo://app?vid=6aa7d263-c9db-4fc0-b9ea-e1517b0dfa32","ios":"levelo://app?vid=6aa7d263-c9db-4fc0-b9ea-e1517b0dfa32"},"vehicle_type_id":"4","last_reported":1732860859,"current_range_meters":38800,"station_id":"ce4bhnh2rcd13ifvqgug","pricing_plan_id":"cebpf4jnsgd1na2vs0mg"},{"bike_id":"edeb856b-8c18-4582-a564-a8f907c8aa40","system_id":"levelo_inurba_marseille","lat":43.30604,"lon":5.3723,"is_reserved":false,"is_disabled":false,"rental_uris":{"android":"levelo://app?vid=edeb856b-8c18-4582-a564-a8f907c8aa40","ios":"levelo://app?vid=edeb856b-8c18-4582-a564-a8f907c8aa40"},"vehicle_type_id":"4","last_reported":1732860859,"current_range_meters":39200,"station_id":"ce4bgqh2rcd13ifvqc4g","pricing_plan_id":"cebpf4jnsgd1na2vs0mg"},{"bike_id":"5688fac3-e87c-436a-b4e9-09631dd71f90","system_id":"levelo_inurba_marseille","lat":43.27901,"lon":5.38014,"is_reserved":false,"is_disabled":false,"rental_uris":{"android":"levelo://app?vid=5688fac3-e87c-436a-b4e9-09631dd71f90","ios":"levelo://app?vid=5688fac3-e87c-436a-b4e9-09631dd71f90"},"vehicle_type_id":"4","last_reported":1732860859,"current_range_meters":9200,"station_id":"ce4bhf92rcd13ifvqf50","pricing_plan_id":"cebpf4jnsgd1na2vs0mg"},{"bike_id":"12462571-ac00-4165-924f-fb9f69cddf1f","system_id":"levelo_inurba_marseille","lat":43.275692,"lon":5.384169,"is_reserved":false,"is_disabled":false,"rental_uris":{"android":"levelo://app?vid=12462571-ac00-4165-924f-fb9f69cddf1f","ios":"levelo://app?vid=12462571-ac00-4165-924f-fb9f69cddf1f"},"vehicle_type_id":"4","last_reported":1732860859,"current_range_meters":30000,"station_id":"ce4bhh92rcd13ifvqfi0","pricing_plan_id":"cebpf4jnsgd1na2vs0mg"},{"bike_id":"2e95a691-d7d8-426b-8dba-47b6b56c6a41","system_id":"levelo_inurba_marseille","lat":43.28155,"lon":5.42639,"is_reserved":false,"is_disabled":true,"rental_uris":{"android":"levelo://app?vid=2e95a691-d7d8-426b-8dba-47b6b56c6a41","ios":"levelo://app?vid=2e95a691-d7d8-426b-8dba-47b6b56c6a41"},"vehicle_type_id":"4","last_reported":1732860859,"current_range_meters":3200,"station_id":"ce4bhnh2rcd13ifvqgug","pricing_plan_id":"cebpf4jnsgd1na2vs0mg"},{"bike_id":"c2da9a32-11bc-4fe0-8a48-9b682c55e15f","system_id":"levelo_inurba_marseille","lat":43.2803,"lon":5.36958,"is_reserved":false,"is_disabled":false,"rental_uris":{"android":"levelo://app?vid=c2da9a32-11bc-4fe0-8a48-9b682c55e15f","ios":"levelo://app?vid=c2da9a32-11bc-4fe0-8a48-9b682c55e15f"},"vehicle_type_id":"4","last_reported":1732860859,"current_range_meters":38800,"station_id":"ce4bha12rcd13ifvqef0","pricing_plan_id":"cebpf4jnsgd1na2vs0mg"},{"bike_id":"9c6ac303-315b-4686-a31b-3630a8db8c41","system_id":"levelo_inurba_marseille","lat":43.29963,"lon":5.41326,"is_reserved":false,"is_disabled":false,"rental_uris":{"android":"levelo://app?vid=9c6ac303-315b-4686-a31b-3630a8db8c41","ios":"levelo://app?vid=9c6ac303-315b-4686-a31b-3630a8db8c41"},"vehicle_type_id":"4","last_reported":1732860859,"current_range_meters":37600,"station_id":"ce4bhp12rcd13ifvqh9g","pricing_plan_id":"cebpf4jnsgd1na2vs0mg"},{"bike_id":"4aa958d1-c3c5-44e5-b08d-f97580abbed0","system_id":"levelo_inurba_marseille","lat":43.2884,"lon":5.35855,"is_reserved":false,"is_disabled":false,"rental_uris":{"android":"levelo://app?vid=4aa958d1-c3c5-44e5-b08d-f97580abbed0","ios":"levelo://app?vid=4aa958d1-c3c5-44e5-b08d-f97580abbed0"},"vehicle_type_id":"4","last_reported":1732860859,"current_range_meters":38000,"station_id":"ce4bhb12rcd13ifvqem0","pricing_plan_id":"cebpf4jnsgd1na2vs0mg"},{"bike_id":"b036063e-a5f2-4d26-b4d4-1ff11e0df402","system_id":"levelo_inurba_marseille","lat":43.33605,"lon":5.41031,"is_reserved":false,"is_disabled":false,"rental_uris":{"android":"levelo://app?vid=b036063e-a5f2-4d26-b4d4-1ff11e0df402","ios":"levelo://app?vid=b036063e-a5f2-4d26-b4d4-1ff11e0df402"},"vehicle_type_id":"4","last_reported":1732860859,"current_range_meters":23200,"station_id":"ce4bhqh2rcd13ifvqhmg","pricing_plan_id":"cebpf4jnsgd1na2vs0mg"},{"bike_id":"4adfe8d8-96d7-4c88-ab44-7ef6a8f2bf9d","system_id":"levelo_inurba_marseille","lat":43.31326,"lon":5.39699,"is_reserved":false,"is_disabled":false,"rental_uris":{"android":"levelo://app?vid=4adfe8d8-96d7-4c88-ab44-7ef6a8f2bf9d","ios":"levelo://app?vid=4adfe8d8-96d7-4c88-ab44-7ef6a8f2bf9d"},"vehicle_type_id":"4","last_reported":1732860859,"current_range_meters":39200,"station_id":"ce4bgvp2rcd13ifvqcu0","pricing_plan_id":"cebpf4jnsgd1na2vs0mg"},{"bike_id":"082b7cd2-9ce0-4486-9a82-02cf1ca7a2c3","system_id":"levelo_inurba_marseille","lat":43.31158,"lon":5.38724,"is_reserved":false,"is_disabled":false,"rental_uris":{"android":"levelo://app?vid=082b7cd2-9ce0-4486-9a82-02cf1ca7a2c3","ios":"levelo://app?vid=082b7cd2-9ce0-4486-9a82-02cf1ca7a2c3"},"vehicle_type_id":"4","last_reported":1732860859,"current_range_meters":38800,"station_id":"ce4bgv12rcd13ifvqcp0","pricing_plan_id":"cebpf4jnsgd1na2vs0mg"},{"bike_id":"26b2c14d-3aff-4e9e-933d-91ae202dcf09","system_id":"levelo_inurba_marseille","lat":43.31066,"lon":5.38352,"is_reserved":false,"is_disabled":false,"rental_uris":{"android":"levelo://app?vid=26b2c14d-3aff-4e9e-933d-91ae202dcf09","ios":"levelo://app?vid=26b2c14d-3aff-4e9e-933d-91ae202dcf09"},"vehicle_type_id":"4","last_reported":1732860859,"current_range_meters":6400,"station_id":"ce4bgv92rcd13ifvqcr0","pricing_plan_id":"cebpf4jnsgd1na2vs0mg"},{"bike_id":"d31969a2-e036-460c-a7db-c18d1a5bec8f","system_id":"levelo_inurba_marseille","lat":43.27808,"lon":5.40709,"is_reserved":false,"is_disabled":false,"rental_uris":{"android":"levelo://app?vid=d31969a2-e036-460c-a7db-c18d1a5bec8f","ios":"levelo://app?vid=d31969a2-e036-460c-a7db-c18d1a5bec8f"},"vehicle_type_id":"4","last_reported":1732860859,"current_range_meters":36800,"station_id":"ce4bhnh2rcd13ifvqgtg","pricing_plan_id":"cebpf4jnsgd1na2vs0mg"},{"bike_id":"e51b2acb-d883-446b-9ce9-347608453ece","system_id":"levelo_inurba_marseille","lat":43.22924,"lon":5.35386,"is_reserved":false,"is_disabled":false,"rental_uris":{"android":"levelo://app?vid=e51b2acb-d883-446b-9ce9-347608453ece","ios":"levelo://app?vid=e51b2acb-d883-446b-9ce9-347608453ece"},"vehicle_type_id":"4","last_reported":1732860859,"current_range_meters":38800,"station_id":"cpo3532slgdg3j2ikp40","pricing_plan_id":"cebpf4jnsgd1na2vs0mg"},{"bike_id":"3086611e-2b5c-4be0-860a-c70d388b9380","system_id":"levelo_inurba_marseille","lat":43.28178,"lon":5.37909,"is_reserved":false,"is_disabled":false,"rental_uris":{"android":"levelo://app?vid=3086611e-2b5c-4be0-860a-c70d388b9380","ios":"levelo://app?vid=3086611e-2b5c-4be0-860a-c70d388b9380"},"vehicle_type_id":"4","last_reported":1732860859,"current_range_meters":32000,"station_id":"ce4bha12rcd13ifvqee0","pricing_plan_id":"cebpf4jnsgd1na2vs0mg"},{"bike_id":"7789e245-92df-43c2-8166-d6f7ccbd033b","system_id":"levelo_inurba_marseille","lat":43.29158,"lon":5.37943,"is_reserved":false,"is_disabled":false,"rental_uris":{"android":"levelo://app?vid=7789e245-92df-43c2-8166-d6f7ccbd033b","ios":"levelo://app?vid=7789e245-92df-43c2-8166-d6f7ccbd033b"},"vehicle_type_id":"4","last_reported":1732860859,"current_range_meters":7200,"station_id":"","pricing_plan_id":"cebpf4jnsgd1na2vs0mg"},{"bike_id":"93bf632f-9c2c-453f-931e-3a26e12fd5f1","system_id":"levelo_inurba_marseille","lat":43.30131,"lon":5.39875,"is_reserved":false,"is_disabled":true,"rental_uris":{"android":"levelo://app?vid=93bf632f-9c2c-453f-931e-3a26e12fd5f1","ios":"levelo://app?vid=93bf632f-9c2c-453f-931e-3a26e12fd5f1"},"vehicle_type_id":"4","last_reported":1732860859,"current_range_meters":35200,"station_id":"ce4bh0h2rcd13ifvqd40","pricing_plan_id":"cebpf4jnsgd1na2vs0mg"},{"bike_id":"5a166064-7207-4250-ac90-15bfbf46a7ef","system_id":"levelo_inurba_marseille","lat":43.28156,"lon":5.42645,"is_reserved":false,"is_disabled":false,"rental_uris":{"android":"levelo://app?vid=5a166064-7207-4250-ac90-15bfbf46a7ef","ios":"levelo://app?vid=5a166064-7207-4250-ac90-15bfbf46a7ef"},"vehicle_type_id":"4","last_reported":1732860859,"current_range_meters":27600,"station_id":"ce4bhnh2rcd13ifvqgug","pricing_plan_id":"cebpf4jnsgd1na2vs0mg"},{"bike_id":"fe1c6c60-0f4f-4b5c-a7ea-9f2ff8347245","system_id":"levelo_inurba_marseille","lat":43.27612,"lon":5.36106,"is_reserved":false,"is_disabled":true,"rental_uris":{"android":"levelo://app?vid=fe1c6c60-0f4f-4b5c-a7ea-9f2ff8347245","ios":"levelo://app?vid=fe1c6c60-0f4f-4b5c-a7ea-9f2ff8347245"},"vehicle_type_id":"4","last_reported":1732860859,"current_range_meters":0,"station_id":"ce4bgj92rcd13ifvqbe0","pricing_plan_id":"cebpf4jnsgd1na2vs0mg"},{"bike_id":"371abac0-5dd0-42bb-a641-ca0cac7a118a","system_id":"levelo_inurba_marseille","lat":43.27662,"lon":5.38901,"is_reserved":false,"is_disabled":true,"rental_uris":{"android":"levelo://app?vid=371abac0-5dd0-42bb-a641-ca0cac7a118a","ios":"levelo://app?vid=371abac0-5dd0-42bb-a641-ca0cac7a118a"},"vehicle_type_id":"4","last_reported":1732860859,"current_range_meters":0,"station_id":"ce4bhi12rcd13ifvqfo0","pricing_plan_id":"cebpf4jnsgd1na2vs0mg"},{"bike_id":"36b8e559-af12-4230-9101-223ec590d7f3","system_id":"levelo_inurba_marseille","lat":43.32534,"lon":5.41446,"is_reserved":false,"is_disabled":false,"rental_uris":{"android":"levelo://app?vid=36b8e559-af12-4230-9101-223ec590d7f3","ios":"levelo://app?vid=36b8e559-af12-4230-9101-223ec590d7f3"},"vehicle_type_id":"4","last_reported":1732860859,"current_range_meters":37600,"station_id":"ce4bhq12rcd13ifvqhhg","pricing_plan_id":"cebpf4jnsgd1na2vs0mg"},{"bike_id":"44692518-f307-4d34-bde3-20456f8e1767","system_id":"levelo_inurba_marseille","lat":43.27423,"lon":5.39017,"is_reserved":false,"is_disabled":false,"rental_uris":{"android":"levelo://app?vid=44692518-f307-4d34-bde3-20456f8e1767","ios":"levelo://app?vid=44692518-f307-4d34-bde3-20456f8e1767"},"vehicle_type_id":"4","last_reported":1732860859,"current_range_meters":25600,"station_id":"","pricing_plan_id":"cebpf4jnsgd1na2vs0mg"},{"bike_id":"b97167aa-a565-44c5-bef6-fd9a2e9accad","system_id":"levelo_inurba_marseille","lat":43.30461,"lon":5.37904,"is_reserved":false,"is_disabled":false,"rental_uris":{"android":"levelo://app?vid=b97167aa-a565-44c5-bef6-fd9a2e9accad","ios":"levelo://app?vid=b97167aa-a565-44c5-bef6-fd9a2e9accad"},"vehicle_type_id":"4","last_reported":1732860859,"current_range_meters":36000,"station_id":"ce4bgup2rcd13ifvqcn0","pricing_plan_id":"cebpf4jnsgd1na2vs0mg"},{"bike_id":"91e5d756-3e01-477b-9095-b1cf5444260a","system_id":"levelo_inurba_marseille","lat":43.24665,"lon":5.38158,"is_reserved":false,"is_disabled":false,"rental_uris":{"android":"levelo://app?vid=91e5d756-3e01-477b-9095-b1cf5444260a","ios":"levelo://app?vid=91e5d756-3e01-477b-9095-b1cf5444260a"},"vehicle_type_id":"4","last_reported":1732860859,"current_range_meters":9200,"station_id":"ce4bhih2rcd13ifvqfr0","pricing_plan_id":"cebpf4jnsgd1na2vs0mg"},{"bike_id":"ac95584f-9567-4c03-97d0-87c52871b9b7","system_id":"levelo_inurba_marseille","lat":43.24167,"lon":5.364,"is_reserved":false,"is_disabled":false,"rental_uris":{"android":"levelo://app?vid=ac95584f-9567-4c03-97d0-87c52871b9b7","ios":"levelo://app?vid=ac95584f-9567-4c03-97d0-87c52871b9b7"},"vehicle_type_id":"4","last_reported":1732860859,"current_range_meters":38800,"station_id":"cpo36qri1sfpv3e86is0","pricing_plan_id":"cebpf4jnsgd1na2vs0mg"},{"bike_id":"30627650-36e4-4a89-a049-1122076f3843","system_id":"levelo_inurba_marseille","lat":43.29037,"lon":5.39992,"is_reserved":false,"is_disabled":false,"rental_uris":{"android":"levelo://app?vid=30627650-36e4-4a89-a049-1122076f3843","ios":"levelo://app?vid=30627650-36e4-4a89-a049-1122076f3843"},"vehicle_type_id":"4","last_reported":1732860859,"current_range_meters":29600,"station_id":"ce4bh392rcd13ifvqdm0","pricing_plan_id":"cebpf4jnsgd1na2vs0mg"},{"bike_id":"e42c3730-6b48-4ecf-b483-e2c2e24c4f25","system_id":"levelo_inurba_marseille","lat":43.27811,"lon":5.40723,"is_reserved":false,"is_disabled":false,"rental_uris":{"android":"levelo://app?vid=e42c3730-6b48-4ecf-b483-e2c2e24c4f25","ios":"levelo://app?vid=e42c3730-6b48-4ecf-b483-e2c2e24c4f25"},"vehicle_type_id":"4","last_reported":1732860859,"current_range_meters":37600,"station_id":"ce4bhnh2rcd13ifvqgtg","pricing_plan_id":"cebpf4jnsgd1na2vs0mg"},{"bike_id":"3f6f4a2b-d15e-4ac3-9081-84f79781513d","system_id":"levelo_inurba_marseille","lat":43.28716,"lon":5.36085,"is_reserved":false,"is_disabled":false,"rental_uris":{"android":"levelo://app?vid=3f6f4a2b-d15e-4ac3-9081-84f79781513d","ios":"levelo://app?vid=3f6f4a2b-d15e-4ac3-9081-84f79781513d"},"vehicle_type_id":"4","last_reported":1732860859,"current_range_meters":12800,"station_id":"cki0cbj6b192h4jlfktg","pricing_plan_id":"cebpf4jnsgd1na2vs0mg"},{"bike_id":"f21afc80-3ec1-4dbd-ba0c-da243dc5e81e","system_id":"levelo_inurba_marseille","lat":43.31702,"lon":5.37752,"is_reserved":false,"is_disabled":false,"rental_uris":{"android":"levelo://app?vid=f21afc80-3ec1-4dbd-ba0c-da243dc5e81e","ios":"levelo://app?vid=f21afc80-3ec1-4dbd-ba0c-da243dc5e81e"},"vehicle_type_id":"4","last_reported":1732860859,"current_range_meters":38800,"station_id":"ce4bgth2rcd13ifvqch0","pricing_plan_id":"cebpf4jnsgd1na2vs0mg"},{"bike_id":"a11c87cd-c5ed-4a29-ba8a-78abe7a5d984","system_id":"levelo_inurba_marseille","lat":43.278279,"lon":5.391986,"is_reserved":false,"is_disabled":true,"rental_uris":{"android":"levelo://app?vid=a11c87cd-c5ed-4a29-ba8a-78abe7a5d984","ios":"levelo://app?vid=a11c87cd-c5ed-4a29-ba8a-78abe7a5d984"},"vehicle_type_id":"4","last_reported":1732860859,"current_range_meters":28400,"station_id":"ce4bhjp2rcd13ifvqga0","pricing_plan_id":"cebpf4jnsgd1na2vs0mg"},{"bike_id":"3e5a2e41-79f4-4430-a7cc-8ebc5970d02f","system_id":"levelo_inurba_marseille","lat":43.29019,"lon":5.38142,"is_reserved":false,"is_disabled":true,"rental_uris":{"android":"levelo://app?vid=3e5a2e41-79f4-4430-a7cc-8ebc5970d02f","ios":"levelo://app?vid=3e5a2e41-79f4-4430-a7cc-8ebc5970d02f"},"vehicle_type_id":"4","last_reported":1732860859,"current_range_meters":11600,"station_id":"ce4bh4p2rcd13ifvqe1g","pricing_plan_id":"cebpf4jnsgd1na2vs0mg"},{"bike_id":"9d95c138-91c4-40e0-a45c-c4e828158f44","system_id":"levelo_inurba_marseille","lat":43.3107,"lon":5.38365,"is_reserved":false,"is_disabled":false,"rental_uris":{"android":"levelo://app?vid=9d95c138-91c4-40e0-a45c-c4e828158f44","ios":"levelo://app?vid=9d95c138-91c4-40e0-a45c-c4e828158f44"},"vehicle_type_id":"4","last_reported":1732860859,"current_range_meters":27600,"station_id":"ce4bgv92rcd13ifvqcr0","pricing_plan_id":"cebpf4jnsgd1na2vs0mg"},{"bike_id":"75486131-8e85-4448-87a1-67a7e3096de4","system_id":"levelo_inurba_marseille","lat":43.30929,"lon":5.37902,"is_reserved":false,"is_disabled":true,"rental_uris":{"android":"levelo://app?vid=75486131-8e85-4448-87a1-67a7e3096de4","ios":"levelo://app?vid=75486131-8e85-4448-87a1-67a7e3096de4"},"vehicle_type_id":"4","last_reported":1732860859,"current_range_meters":0,"station_id":"","pricing_plan_id":"cebpf4jnsgd1na2vs0mg"},{"bike_id":"a5909545-3e09-4859-9fda-9ffe4e6e4883","system_id":"levelo_inurba_marseille","lat":43.23066,"lon":5.35491,"is_reserved":false,"is_disabled":false,"rental_uris":{"android":"levelo://app?vid=a5909545-3e09-4859-9fda-9ffe4e6e4883","ios":"levelo://app?vid=a5909545-3e09-4859-9fda-9ffe4e6e4883"},"vehicle_type_id":"4","last_reported":1732860859,"current_range_meters":18800,"station_id":"cpo3342slgdg3j2ifvpg","pricing_plan_id":"cebpf4jnsgd1na2vs0mg"},{"bike_id":"784030d3-5f25-464c-adae-5cf44ab50f7e","system_id":"levelo_inurba_marseille","lat":43.27942,"lon":5.41037,"is_reserved":false,"is_disabled":false,"rental_uris":{"android":"levelo://app?vid=784030d3-5f25-464c-adae-5cf44ab50f7e","ios":"levelo://app?vid=784030d3-5f25-464c-adae-5cf44ab50f7e"},"vehicle_type_id":"4","last_reported":1732860859,"current_range_meters":28800,"station_id":"ce4bhnp2rcd13ifvqh0g","pricing_plan_id":"cebpf4jnsgd1na2vs0mg"},{"bike_id":"05412edd-4f98-4b7b-8f3b-a793b3add8af","system_id":"levelo_inurba_marseille","lat":43.30464,"lon":5.3792,"is_reserved":false,"is_disabled":false,"rental_uris":{"android":"levelo://app?vid=05412edd-4f98-4b7b-8f3b-a793b3add8af","ios":"levelo://app?vid=05412edd-4f98-4b7b-8f3b-a793b3add8af"},"vehicle_type_id":"4","last_reported":1732860859,"current_range_meters":24400,"station_id":"ce4bgup2rcd13ifvqcn0","pricing_plan_id":"cebpf4jnsgd1na2vs0mg"},{"bike_id":"b6b1f691-f5d4-4437-a273-f7c9759cc4c1","system_id":"levelo_inurba_marseille","lat":43.291908,"lon":5.39311,"is_reserved":false,"is_disabled":true,"rental_uris":{"android":"levelo://app?vid=b6b1f691-f5d4-4437-a273-f7c9759cc4c1","ios":"levelo://app?vid=b6b1f691-f5d4-4437-a273-f7c9759cc4c1"},"vehicle_type_id":"4","last_reported":1732860859,"current_range_meters":38000,"station_id":"ce4bh192rcd13ifvqdd0","pricing_plan_id":"cebpf4jnsgd1na2vs0mg"},{"bike_id":"1f3be82a-39fb-49be-9f70-2df7092d6f3c","system_id":"levelo_inurba_marseille","lat":43.32477,"lon":5.36567,"is_reserved":false,"is_disabled":false,"rental_uris":{"android":"levelo://app?vid=1f3be82a-39fb-49be-9f70-2df7092d6f3c","ios":"levelo://app?vid=1f3be82a-39fb-49be-9f70-2df7092d6f3c"},"vehicle_type_id":"4","last_reported":1732860859,"current_range_meters":14000,"station_id":"ce4bhs12rcd13ifvqhvg","pricing_plan_id":"cebpf4jnsgd1na2vs0mg"},{"bike_id":"5329edfd-3f80-481f-b22a-9053213b3f4f","system_id":"levelo_inurba_marseille","lat":43.336043,"lon":5.410243,"is_reserved":false,"is_disabled":false,"rental_uris":{"android":"levelo://app?vid=5329edfd-3f80-481f-b22a-9053213b3f4f","ios":"levelo://app?vid=5329edfd-3f80-481f-b22a-9053213b3f4f"},"vehicle_type_id":"4","last_reported":1732860859,"current_range_meters":24800,"station_id":"ce4bhqh2rcd13ifvqhmg","pricing_plan_id":"cebpf4jnsgd1na2vs0mg"},{"bike_id":"9030a65e-92b5-4035-a6e3-149d39d0b304","system_id":"levelo_inurba_marseille","lat":43.32104,"lon":5.36771,"is_reserved":false,"is_disabled":false,"rental_uris":{"android":"levelo://app?vid=9030a65e-92b5-4035-a6e3-149d39d0b304","ios":"levelo://app?vid=9030a65e-92b5-4035-a6e3-149d39d0b304"},"vehicle_type_id":"4","last_reported":1732860859,"current_range_meters":25200,"station_id":"ce4bhrh2rcd13ifvqhug","pricing_plan_id":"cebpf4jnsgd1na2vs0mg"},{"bike_id":"3386ced5-0306-44cd-8554-861a220df651","system_id":"levelo_inurba_marseille","lat":43.270663,"lon":5.42274,"is_reserved":false,"is_disabled":false,"rental_uris":{"android":"levelo://app?vid=3386ced5-0306-44cd-8554-861a220df651","ios":"levelo://app?vid=3386ced5-0306-44cd-8554-861a220df651"},"vehicle_type_id":"4","last_reported":1732860859,"current_range_meters":38800,"station_id":"ce4bhk92rcd13ifvqgb0","pricing_plan_id":"cebpf4jnsgd1na2vs0mg"},{"bike_id":"e5951ee3-4a5a-4ebb-b469-096c5188dfa3","system_id":"levelo_inurba_marseille","lat":43.23179,"lon":5.35573,"is_reserved":false,"is_disabled":false,"rental_uris":{"android":"levelo://app?vid=e5951ee3-4a5a-4ebb-b469-096c5188dfa3","ios":"levelo://app?vid=e5951ee3-4a5a-4ebb-b469-096c5188dfa3"},"vehicle_type_id":"4","last_reported":1732860859,"current_range_meters":24800,"station_id":"ce4bhu92rcd13ifvqi70","pricing_plan_id":"cebpf4jnsgd1na2vs0mg"},{"bike_id":"f9a63393-5401-4f98-ae5a-dfbb8291ab6d","system_id":"levelo_inurba_marseille","lat":43.30038,"lon":5.3755,"is_reserved":false,"is_disabled":true,"rental_uris":{"android":"levelo://app?vid=f9a63393-5401-4f98-ae5a-dfbb8291ab6d","ios":"levelo://app?vid=f9a63393-5401-4f98-ae5a-dfbb8291ab6d"},"vehicle_type_id":"4","last_reported":1732860859,"current_range_meters":1200,"station_id":"","pricing_plan_id":"cebpf4jnsgd1na2vs0mg"},{"bike_id":"7bf815b1-fd34-4573-adeb-91151a02d10a","system_id":"levelo_inurba_marseille","lat":43.27174,"lon":5.40995,"is_reserved":false,"is_disabled":false,"rental_uris":{"android":"levelo://app?vid=7bf815b1-fd34-4573-adeb-91151a02d10a","ios":"levelo://app?vid=7bf815b1-fd34-4573-adeb-91151a02d10a"},"vehicle_type_id":"4","last_reported":1732860859,"current_range_meters":38000,"station_id":"ce4bhl12rcd13ifvqgf0","pricing_plan_id":"cebpf4jnsgd1na2vs0mg"},{"bike_id":"e162dab6-2896-4f47-af89-0694fd91933d","system_id":"levelo_inurba_marseille","lat":43.312704,"lon":5.401692,"is_reserved":false,"is_disabled":false,"rental_uris":{"android":"levelo://app?vid=e162dab6-2896-4f47-af89-0694fd91933d","ios":"levelo://app?vid=e162dab6-2896-4f47-af89-0694fd91933d"},"vehicle_type_id":"4","last_reported":1732860859,"current_range_meters":30400,"station_id":"ce4bh092rcd13ifvqd30","pricing_plan_id":"cebpf4jnsgd1na2vs0mg"},{"bike_id":"beecf29b-0bf3-4cee-a03e-0dd6251d4d12","system_id":"levelo_inurba_marseille","lat":43.31699,"lon":5.37736,"is_reserved":false,"is_disabled":false,"rental_uris":{"android":"levelo://app?vid=beecf29b-0bf3-4cee-a03e-0dd6251d4d12","ios":"levelo://app?vid=beecf29b-0bf3-4cee-a03e-0dd6251d4d12"},"vehicle_type_id":"4","last_reported":1732860859,"current_range_meters":38800,"station_id":"ce4bgth2rcd13ifvqch0","pricing_plan_id":"cebpf4jnsgd1na2vs0mg"},{"bike_id":"6af8456e-bf83-48d8-8c46-e2069ed79b1b","system_id":"levelo_inurba_marseille","lat":43.27182,"lon":5.40991,"is_reserved":false,"is_disabled":false,"rental_uris":{"android":"levelo://app?vid=6af8456e-bf83-48d8-8c46-e2069ed79b1b","ios":"levelo://app?vid=6af8456e-bf83-48d8-8c46-e2069ed79b1b"},"vehicle_type_id":"4","last_reported":1732860859,"current_range_meters":35600,"station_id":"ce4bhl12rcd13ifvqgf0","pricing_plan_id":"cebpf4jnsgd1na2vs0mg"},{"bike_id":"deeb86e6-447f-42ec-9c09-1f848d62ca5e","system_id":"levelo_inurba_marseille","lat":43.28694,"lon":5.40003,"is_reserved":false,"is_disabled":false,"rental_uris":{"android":"levelo://app?vid=deeb86e6-447f-42ec-9c09-1f848d62ca5e","ios":"levelo://app?vid=deeb86e6-447f-42ec-9c09-1f848d62ca5e"},"vehicle_type_id":"4","last_reported":1732860859,"current_range_meters":38800,"station_id":"ce4bho92rcd13ifvqh3g","pricing_plan_id":"cebpf4jnsgd1na2vs0mg"},{"bike_id":"586aa320-3bee-42a1-a315-d741e37ab370","system_id":"levelo_inurba_marseille","lat":43.27808,"lon":5.40713,"is_reserved":false,"is_disabled":false,"rental_uris":{"android":"levelo://app?vid=586aa320-3bee-42a1-a315-d741e37ab370","ios":"levelo://app?vid=586aa320-3bee-42a1-a315-d741e37ab370"},"vehicle_type_id":"4","last_reported":1732860859,"current_range_meters":30000,"station_id":"ce4bhnh2rcd13ifvqgtg","pricing_plan_id":"cebpf4jnsgd1na2vs0mg"},{"bike_id":"2a75dead-01eb-416b-bf7a-87fb5392efa0","system_id":"levelo_inurba_marseille","lat":43.24651,"lon":5.38901,"is_reserved":false,"is_disabled":false,"rental_uris":{"android":"levelo://app?vid=2a75dead-01eb-416b-bf7a-87fb5392efa0","ios":"levelo://app?vid=2a75dead-01eb-416b-bf7a-87fb5392efa0"},"vehicle_type_id":"4","last_reported":1732860859,"current_range_meters":37600,"station_id":"ce4bhg12rcd13ifvqf60","pricing_plan_id":"cebpf4jnsgd1na2vs0mg"},{"bike_id":"f07be376-12c0-44a4-8084-05a29a74bdae","system_id":"levelo_inurba_marseille","lat":43.30414,"lon":5.41285,"is_reserved":false,"is_disabled":true,"rental_uris":{"android":"levelo://app?vid=f07be376-12c0-44a4-8084-05a29a74bdae","ios":"levelo://app?vid=f07be376-12c0-44a4-8084-05a29a74bdae"},"vehicle_type_id":"4","last_reported":1732860859,"current_range_meters":0,"station_id":"ce4bhop2rcd13ifvqh8g","pricing_plan_id":"cebpf4jnsgd1na2vs0mg"},{"bike_id":"de8dedfd-c65e-4ce5-b8ec-b5ab34a22a6e","system_id":"levelo_inurba_marseille","lat":43.27068,"lon":5.42275,"is_reserved":false,"is_disabled":true,"rental_uris":{"android":"levelo://app?vid=de8dedfd-c65e-4ce5-b8ec-b5ab34a22a6e","ios":"levelo://app?vid=de8dedfd-c65e-4ce5-b8ec-b5ab34a22a6e"},"vehicle_type_id":"4","last_reported":1732860859,"current_range_meters":38800,"station_id":"ce4bhk92rcd13ifvqgb0","pricing_plan_id":"cebpf4jnsgd1na2vs0mg"},{"bike_id":"88017654-35c5-46a0-bf88-dad2fc7092a1","system_id":"levelo_inurba_marseille","lat":43.31532,"lon":5.38043,"is_reserved":false,"is_disabled":false,"rental_uris":{"android":"levelo://app?vid=88017654-35c5-46a0-bf88-dad2fc7092a1","ios":"levelo://app?vid=88017654-35c5-46a0-bf88-dad2fc7092a1"},"vehicle_type_id":"4","last_reported":1732860859,"current_range_meters":38800,"station_id":"ce4bhsp2rcd13ifvqi50","pricing_plan_id":"cebpf4jnsgd1na2vs0mg"},{"bike_id":"edd0c985-8684-4759-8848-5b0ccc1b8086","system_id":"levelo_inurba_marseille","lat":43.313595,"lon":5.384975,"is_reserved":false,"is_disabled":false,"rental_uris":{"android":"levelo://app?vid=edd0c985-8684-4759-8848-5b0ccc1b8086","ios":"levelo://app?vid=edd0c985-8684-4759-8848-5b0ccc1b8086"},"vehicle_type_id":"4","last_reported":1732860859,"current_range_meters":16400,"station_id":"ce4bgt92rcd13ifvqcf0","pricing_plan_id":"cebpf4jnsgd1na2vs0mg"},{"bike_id":"c733ce80-0fd2-48d1-9712-c23685965fbb","system_id":"levelo_inurba_marseille","lat":43.29525,"lon":5.39403,"is_reserved":false,"is_disabled":false,"rental_uris":{"android":"levelo://app?vid=c733ce80-0fd2-48d1-9712-c23685965fbb","ios":"levelo://app?vid=c733ce80-0fd2-48d1-9712-c23685965fbb"},"vehicle_type_id":"4","last_reported":1732860859,"current_range_meters":4000,"station_id":"ce4bh292rcd13ifvqdf0","pricing_plan_id":"cebpf4jnsgd1na2vs0mg"},{"bike_id":"6fc223c7-5ccb-4bbf-b122-e543dd0cde6c","system_id":"levelo_inurba_marseille","lat":43.312682,"lon":5.401695,"is_reserved":false,"is_disabled":false,"rental_uris":{"android":"levelo://app?vid=6fc223c7-5ccb-4bbf-b122-e543dd0cde6c","ios":"levelo://app?vid=6fc223c7-5ccb-4bbf-b122-e543dd0cde6c"},"vehicle_type_id":"4","last_reported":1732860859,"current_range_meters":38800,"station_id":"ce4bh092rcd13ifvqd30","pricing_plan_id":"cebpf4jnsgd1na2vs0mg"},{"bike_id":"f576f1ac-9441-4aaf-9239-99d550cb7b55","system_id":"levelo_inurba_marseille","lat":43.31707,"lon":5.37751,"is_reserved":false,"is_disabled":false,"rental_uris":{"android":"levelo://app?vid=f576f1ac-9441-4aaf-9239-99d550cb7b55","ios":"levelo://app?vid=f576f1ac-9441-4aaf-9239-99d550cb7b55"},"vehicle_type_id":"4","last_reported":1732860859,"current_range_meters":28800,"station_id":"ce4bgth2rcd13ifvqch0","pricing_plan_id":"cebpf4jnsgd1na2vs0mg"},{"bike_id":"04140521-b99c-426b-829c-a7832eed2d5f","system_id":"levelo_inurba_marseille","lat":43.28032,"lon":5.3694,"is_reserved":false,"is_disabled":false,"rental_uris":{"android":"levelo://app?vid=04140521-b99c-426b-829c-a7832eed2d5f","ios":"levelo://app?vid=04140521-b99c-426b-829c-a7832eed2d5f"},"vehicle_type_id":"4","last_reported":1732860859,"current_range_meters":30000,"station_id":"ce4bha12rcd13ifvqef0","pricing_plan_id":"cebpf4jnsgd1na2vs0mg"},{"bike_id":"a2bfa675-9b93-4fe4-b8f0-81485a308a3f","system_id":"levelo_inurba_marseille","lat":43.30469,"lon":5.37911,"is_reserved":false,"is_disabled":false,"rental_uris":{"android":"levelo://app?vid=a2bfa675-9b93-4fe4-b8f0-81485a308a3f","ios":"levelo://app?vid=a2bfa675-9b93-4fe4-b8f0-81485a308a3f"},"vehicle_type_id":"4","last_reported":1732860859,"current_range_meters":16800,"station_id":"ce4bgup2rcd13ifvqcn0","pricing_plan_id":"cebpf4jnsgd1na2vs0mg"},{"bike_id":"3a3b1b2b-9521-4bba-ba92-f3603821bdb4","system_id":"levelo_inurba_marseille","lat":43.255799,"lon":5.382349,"is_reserved":false,"is_disabled":false,"rental_uris":{"android":"levelo://app?vid=3a3b1b2b-9521-4bba-ba92-f3603821bdb4","ios":"levelo://app?vid=3a3b1b2b-9521-4bba-ba92-f3603821bdb4"},"vehicle_type_id":"4","last_reported":1732860859,"current_range_meters":25600,"station_id":"ce4bhih2rcd13ifvqfs0","pricing_plan_id":"cebpf4jnsgd1na2vs0mg"},{"bike_id":"6cdca301-a6f9-46d8-b774-ea570d50511a","system_id":"levelo_inurba_marseille","lat":43.2508,"lon":5.39515,"is_reserved":false,"is_disabled":false,"rental_uris":{"android":"levelo://app?vid=6cdca301-a6f9-46d8-b774-ea570d50511a","ios":"levelo://app?vid=6cdca301-a6f9-46d8-b774-ea570d50511a"},"vehicle_type_id":"4","last_reported":1732860859,"current_range_meters":37600,"station_id":"ce4bhm12rcd13ifvqgkg","pricing_plan_id":"cebpf4jnsgd1na2vs0mg"},{"bike_id":"63c3b7c5-a0a5-4303-943a-5512cff1f3b4","system_id":"levelo_inurba_marseille","lat":43.32365,"lon":5.38876,"is_reserved":false,"is_disabled":false,"rental_uris":{"android":"levelo://app?vid=63c3b7c5-a0a5-4303-943a-5512cff1f3b4","ios":"levelo://app?vid=63c3b7c5-a0a5-4303-943a-5512cff1f3b4"},"vehicle_type_id":"4","last_reported":1732860859,"current_range_meters":24400,"station_id":"ce4bhqp2rcd13ifvqhog","pricing_plan_id":"cebpf4jnsgd1na2vs0mg"},{"bike_id":"e666f953-78ae-4769-9367-523118478078","system_id":"levelo_inurba_marseille","lat":43.28096,"lon":5.37844,"is_reserved":false,"is_disabled":false,"rental_uris":{"android":"levelo://app?vid=e666f953-78ae-4769-9367-523118478078","ios":"levelo://app?vid=e666f953-78ae-4769-9367-523118478078"},"vehicle_type_id":"4","last_reported":1732860859,"current_range_meters":37600,"station_id":"ce4bha12rcd13ifvqee0","pricing_plan_id":"cebpf4jnsgd1na2vs0mg"},{"bike_id":"6108fa7b-e921-434d-b33c-8c98fca98dfc","system_id":"levelo_inurba_marseille","lat":43.28095,"lon":5.37844,"is_reserved":false,"is_disabled":false,"rental_uris":{"android":"levelo://app?vid=6108fa7b-e921-434d-b33c-8c98fca98dfc","ios":"levelo://app?vid=6108fa7b-e921-434d-b33c-8c98fca98dfc"},"vehicle_type_id":"4","last_reported":1732860859,"current_range_meters":30000,"station_id":"ce4bha12rcd13ifvqee0","pricing_plan_id":"cebpf4jnsgd1na2vs0mg"},{"bike_id":"ca4a768e-fab2-408f-a50b-d2b2ab395850","system_id":"levelo_inurba_marseille","lat":43.29014,"lon":5.38123,"is_reserved":false,"is_disabled":false,"rental_uris":{"android":"levelo://app?vid=ca4a768e-fab2-408f-a50b-d2b2ab395850","ios":"levelo://app?vid=ca4a768e-fab2-408f-a50b-d2b2ab395850"},"vehicle_type_id":"4","last_reported":1732860859,"current_range_meters":36400,"station_id":"ce4bh4p2rcd13ifvqe1g","pricing_plan_id":"cebpf4jnsgd1na2vs0mg"},{"bike_id":"7ac8541e-0478-4b4b-8c77-7f232f1a9ae5","system_id":"levelo_inurba_marseille","lat":43.29039,"lon":5.3994,"is_reserved":false,"is_disabled":false,"rental_uris":{"android":"levelo://app?vid=7ac8541e-0478-4b4b-8c77-7f232f1a9ae5","ios":"levelo://app?vid=7ac8541e-0478-4b4b-8c77-7f232f1a9ae5"},"vehicle_type_id":"4","last_reported":1732860859,"current_range_meters":38800,"station_id":"ce4bh392rcd13ifvqdm0","pricing_plan_id":"cebpf4jnsgd1na2vs0mg"},{"bike_id":"43746d86-8a13-4845-9faf-ae69b548d714","system_id":"levelo_inurba_marseille","lat":43.29459,"lon":5.37917,"is_reserved":false,"is_disabled":true,"rental_uris":{"android":"levelo://app?vid=43746d86-8a13-4845-9faf-ae69b548d714","ios":"levelo://app?vid=43746d86-8a13-4845-9faf-ae69b548d714"},"vehicle_type_id":"4","last_reported":1732860859,"current_range_meters":0,"station_id":"","pricing_plan_id":"cebpf4jnsgd1na2vs0mg"},{"bike_id":"275580cb-c826-4ddc-bea0-bdea9342896d","system_id":"levelo_inurba_marseille","lat":43.31539,"lon":5.38036,"is_reserved":false,"is_disabled":false,"rental_uris":{"android":"levelo://app?vid=275580cb-c826-4ddc-bea0-bdea9342896d","ios":"levelo://app?vid=275580cb-c826-4ddc-bea0-bdea9342896d"},"vehicle_type_id":"4","last_reported":1732860859,"current_range_meters":32400,"station_id":"ce4bhsp2rcd13ifvqi50","pricing_plan_id":"cebpf4jnsgd1na2vs0mg"},{"bike_id":"36603975-a82a-4e80-bfd2-6b7269bf6b54","system_id":"levelo_inurba_marseille","lat":43.32654,"lon":5.40989,"is_reserved":false,"is_disabled":false,"rental_uris":{"android":"levelo://app?vid=36603975-a82a-4e80-bfd2-6b7269bf6b54","ios":"levelo://app?vid=36603975-a82a-4e80-bfd2-6b7269bf6b54"},"vehicle_type_id":"4","last_reported":1732860859,"current_range_meters":38800,"station_id":"ce4bhpp2rcd13ifvqhgg","pricing_plan_id":"cebpf4jnsgd1na2vs0mg"},{"bike_id":"867f2eee-3850-4e4a-9654-c8d051c37d1c","system_id":"levelo_inurba_marseille","lat":43.30882,"lon":5.39643,"is_reserved":false,"is_disabled":false,"rental_uris":{"android":"levelo://app?vid=867f2eee-3850-4e4a-9654-c8d051c37d1c","ios":"levelo://app?vid=867f2eee-3850-4e4a-9654-c8d051c37d1c"},"vehicle_type_id":"4","last_reported":1732860859,"current_range_meters":38400,"station_id":"ce4bh012rcd13ifvqcv0","pricing_plan_id":"cebpf4jnsgd1na2vs0mg"},{"bike_id":"24475bbe-d591-422d-886b-4e03bfa37464","system_id":"levelo_inurba_marseille","lat":43.23184,"lon":5.39985,"is_reserved":false,"is_disabled":false,"rental_uris":{"android":"levelo://app?vid=24475bbe-d591-422d-886b-4e03bfa37464","ios":"levelo://app?vid=24475bbe-d591-422d-886b-4e03bfa37464"},"vehicle_type_id":"4","last_reported":1732860859,"current_range_meters":38400,"station_id":"ce4bhn12rcd13ifvqgqg","pricing_plan_id":"cebpf4jnsgd1na2vs0mg"},{"bike_id":"f21851d2-4b6a-4ef0-a92f-0a09916706ce","system_id":"levelo_inurba_marseille","lat":43.2714,"lon":5.41,"is_reserved":false,"is_disabled":false,"rental_uris":{"android":"levelo://app?vid=f21851d2-4b6a-4ef0-a92f-0a09916706ce","ios":"levelo://app?vid=f21851d2-4b6a-4ef0-a92f-0a09916706ce"},"vehicle_type_id":"4","last_reported":1732860859,"current_range_meters":38800,"station_id":"ce4bhl12rcd13ifvqgf0","pricing_plan_id":"cebpf4jnsgd1na2vs0mg"},{"bike_id":"48b5ff29-f272-4faf-a81d-daa5ce069c5c","system_id":"levelo_inurba_marseille","lat":43.31277,"lon":5.38866,"is_reserved":false,"is_disabled":false,"rental_uris":{"android":"levelo://app?vid=48b5ff29-f272-4faf-a81d-daa5ce069c5c","ios":"levelo://app?vid=48b5ff29-f272-4faf-a81d-daa5ce069c5c"},"vehicle_type_id":"4","last_reported":1732860859,"current_range_meters":8800,"station_id":"","pricing_plan_id":"cebpf4jnsgd1na2vs0mg"},{"bike_id":"38f07019-7b2d-4ea4-8138-ab655e972192","system_id":"levelo_inurba_marseille","lat":43.28573,"lon":5.39503,"is_reserved":false,"is_disabled":false,"rental_uris":{"android":"levelo://app?vid=38f07019-7b2d-4ea4-8138-ab655e972192","ios":"levelo://app?vid=38f07019-7b2d-4ea4-8138-ab655e972192"},"vehicle_type_id":"4","last_reported":1732860859,"current_range_meters":37600,"station_id":"ce4bh292rcd13ifvqdg0","pricing_plan_id":"cebpf4jnsgd1na2vs0mg"},{"bike_id":"bb2d75fd-eb1e-47e2-8da6-ca4e05134df5","system_id":"levelo_inurba_marseille","lat":43.246687,"lon":5.381575,"is_reserved":false,"is_disabled":false,"rental_uris":{"android":"levelo://app?vid=bb2d75fd-eb1e-47e2-8da6-ca4e05134df5","ios":"levelo://app?vid=bb2d75fd-eb1e-47e2-8da6-ca4e05134df5"},"vehicle_type_id":"4","last_reported":1732860859,"current_range_meters":38800,"station_id":"ce4bhih2rcd13ifvqfr0","pricing_plan_id":"cebpf4jnsgd1na2vs0mg"},{"bike_id":"207ee563-28e6-4f18-b3f1-22fe6f5fb58f","system_id":"levelo_inurba_marseille","lat":43.31757,"lon":5.39018,"is_reserved":false,"is_disabled":false,"rental_uris":{"android":"levelo://app?vid=207ee563-28e6-4f18-b3f1-22fe6f5fb58f","ios":"levelo://app?vid=207ee563-28e6-4f18-b3f1-22fe6f5fb58f"},"vehicle_type_id":"4","last_reported":1732860859,"current_range_meters":28400,"station_id":"ce4bhqp2rcd13ifvqhng","pricing_plan_id":"cebpf4jnsgd1na2vs0mg"},{"bike_id":"f56fb7e3-c722-421f-956f-65aa7ba72e68","system_id":"levelo_inurba_marseille","lat":43.31501,"lon":5.37298,"is_reserved":false,"is_disabled":false,"rental_uris":{"android":"levelo://app?vid=f56fb7e3-c722-421f-956f-65aa7ba72e68","ios":"levelo://app?vid=f56fb7e3-c722-421f-956f-65aa7ba72e68"},"vehicle_type_id":"4","last_reported":1732860859,"current_range_meters":27200,"station_id":"ce4bgt12rcd13ifvqcd0","pricing_plan_id":"cebpf4jnsgd1na2vs0mg"},{"bike_id":"fc624297-e35e-4dbb-b061-c0bce6fc8715","system_id":"levelo_inurba_marseille","lat":43.28456,"lon":5.35881,"is_reserved":false,"is_disabled":false,"rental_uris":{"android":"levelo://app?vid=fc624297-e35e-4dbb-b061-c0bce6fc8715","ios":"levelo://app?vid=fc624297-e35e-4dbb-b061-c0bce6fc8715"},"vehicle_type_id":"4","last_reported":1732860859,"current_range_meters":27600,"station_id":"ce4bhah2rcd13ifvqei0","pricing_plan_id":"cebpf4jnsgd1na2vs0mg"},{"bike_id":"3b197e5a-c568-4760-aa41-5161a5428fdb","system_id":"levelo_inurba_marseille","lat":43.27998,"lon":5.40013,"is_reserved":false,"is_disabled":false,"rental_uris":{"android":"levelo://app?vid=3b197e5a-c568-4760-aa41-5161a5428fdb","ios":"levelo://app?vid=3b197e5a-c568-4760-aa41-5161a5428fdb"},"vehicle_type_id":"4","last_reported":1732860859,"current_range_meters":32400,"station_id":"ce4bho92rcd13ifvqh4g","pricing_plan_id":"cebpf4jnsgd1na2vs0mg"},{"bike_id":"9783b55c-a85e-4c32-9342-ae4463038363","system_id":"levelo_inurba_marseille","lat":43.27063,"lon":5.42276,"is_reserved":false,"is_disabled":false,"rental_uris":{"android":"levelo://app?vid=9783b55c-a85e-4c32-9342-ae4463038363","ios":"levelo://app?vid=9783b55c-a85e-4c32-9342-ae4463038363"},"vehicle_type_id":"4","last_reported":1732860859,"current_range_meters":38800,"station_id":"ce4bhk92rcd13ifvqgb0","pricing_plan_id":"cebpf4jnsgd1na2vs0mg"},{"bike_id":"73237246-d3c1-43bc-bad7-8e44028b6f2d","system_id":"levelo_inurba_marseille","lat":43.23184,"lon":5.39977,"is_reserved":false,"is_disabled":false,"rental_uris":{"android":"levelo://app?vid=73237246-d3c1-43bc-bad7-8e44028b6f2d","ios":"levelo://app?vid=73237246-d3c1-43bc-bad7-8e44028b6f2d"},"vehicle_type_id":"4","last_reported":1732860859,"current_range_meters":28000,"station_id":"ce4bhn12rcd13ifvqgqg","pricing_plan_id":"cebpf4jnsgd1na2vs0mg"},{"bike_id":"b61d80d7-b353-4771-8382-6558a9c16f91","system_id":"levelo_inurba_marseille","lat":43.31758,"lon":5.39015,"is_reserved":false,"is_disabled":false,"rental_uris":{"android":"levelo://app?vid=b61d80d7-b353-4771-8382-6558a9c16f91","ios":"levelo://app?vid=b61d80d7-b353-4771-8382-6558a9c16f91"},"vehicle_type_id":"4","last_reported":1732860859,"current_range_meters":16800,"station_id":"ce4bhqp2rcd13ifvqhng","pricing_plan_id":"cebpf4jnsgd1na2vs0mg"},{"bike_id":"fc4d15f5-6256-45a3-90d6-77bb4c676955","system_id":"levelo_inurba_marseille","lat":43.296284,"lon":5.377877,"is_reserved":false,"is_disabled":true,"rental_uris":{"android":"levelo://app?vid=fc4d15f5-6256-45a3-90d6-77bb4c676955","ios":"levelo://app?vid=fc4d15f5-6256-45a3-90d6-77bb4c676955"},"vehicle_type_id":"4","last_reported":1732860859,"current_range_meters":30400,"station_id":"","pricing_plan_id":"cebpf4jnsgd1na2vs0mg"},{"bike_id":"c88f8730-1176-4717-97e2-17c27b15274f","system_id":"levelo_inurba_marseille","lat":43.2319,"lon":5.35542,"is_reserved":false,"is_disabled":false,"rental_uris":{"android":"levelo://app?vid=c88f8730-1176-4717-97e2-17c27b15274f","ios":"levelo://app?vid=c88f8730-1176-4717-97e2-17c27b15274f"},"vehicle_type_id":"4","last_reported":1732860859,"current_range_meters":38800,"station_id":"ce4bhu92rcd13ifvqi70","pricing_plan_id":"cebpf4jnsgd1na2vs0mg"},{"bike_id":"a9e111f5-2597-4318-b5a6-43bcb08f5159","system_id":"levelo_inurba_marseille","lat":43.25727,"lon":5.41109,"is_reserved":false,"is_disabled":false,"rental_uris":{"android":"levelo://app?vid=a9e111f5-2597-4318-b5a6-43bcb08f5159","ios":"levelo://app?vid=a9e111f5-2597-4318-b5a6-43bcb08f5159"},"vehicle_type_id":"4","last_reported":1732860859,"current_range_meters":38000,"station_id":"ce4bhkp2rcd13ifvqgd0","pricing_plan_id":"cebpf4jnsgd1na2vs0mg"},{"bike_id":"0005096f-b9d0-468f-8180-62c8f4b0142b","system_id":"levelo_inurba_marseille","lat":43.28712,"lon":5.39989,"is_reserved":false,"is_disabled":false,"rental_uris":{"android":"levelo://app?vid=0005096f-b9d0-468f-8180-62c8f4b0142b","ios":"levelo://app?vid=0005096f-b9d0-468f-8180-62c8f4b0142b"},"vehicle_type_id":"4","last_reported":1732860859,"current_range_meters":30000,"station_id":"ce4bho92rcd13ifvqh3g","pricing_plan_id":"cebpf4jnsgd1na2vs0mg"},{"bike_id":"16512b8d-4fb1-4cf8-891e-b29461d255e2","system_id":"levelo_inurba_marseille","lat":43.29782,"lon":5.38113,"is_reserved":false,"is_disabled":true,"rental_uris":{"android":"levelo://app?vid=16512b8d-4fb1-4cf8-891e-b29461d255e2","ios":"levelo://app?vid=16512b8d-4fb1-4cf8-891e-b29461d255e2"},"vehicle_type_id":"4","last_reported":1732860859,"current_range_meters":35600,"station_id":"ce4bgip2rcd13ifvqbb0","pricing_plan_id":"cebpf4jnsgd1na2vs0mg"},{"bike_id":"c20afd6c-d414-44df-9450-cc27e4ad9839","system_id":"levelo_inurba_marseille","lat":43.32146,"lon":5.38468,"is_reserved":false,"is_disabled":true,"rental_uris":{"android":"levelo://app?vid=c20afd6c-d414-44df-9450-cc27e4ad9839","ios":"levelo://app?vid=c20afd6c-d414-44df-9450-cc27e4ad9839"},"vehicle_type_id":"4","last_reported":1732860859,"current_range_meters":0,"station_id":"","pricing_plan_id":"cebpf4jnsgd1na2vs0mg"},{"bike_id":"b6ed1910-de57-401d-8b1d-af35755f9004","system_id":"levelo_inurba_marseille","lat":43.27952,"lon":5.41045,"is_reserved":false,"is_disabled":true,"rental_uris":{"android":"levelo://app?vid=b6ed1910-de57-401d-8b1d-af35755f9004","ios":"levelo://app?vid=b6ed1910-de57-401d-8b1d-af35755f9004"},