{"last_updated":1686920979,"ttl":30,"version":"2.2","data":{"bikes":[{"bike_id":"6e23f689-ae1f-42a6-89cd-72a48943868a","system_id":"levelo_inurba_marseille","lat":43.313391,"lon":5.36706,"is_reserved":false,"is_disabled":false,"rental_uris":{"android":"levelo://app?vid=6e23f689-ae1f-42a6-89cd-72a48943868a","ios":"levelo://app?vid=6e23f689-ae1f-42a6-89cd-72a48943868a"},"vehicle_type_id":"4","last_reported":1686920980,"current_range_meters":26800,"station_id":"ce4bgr92rcd13ifvqc6g","pricing_plan_id":"free"},{"bike_id":"23cd70a6-719f-415c-96cb-39c6d0d19f85","system_id":"levelo_inurba_marseille","lat":43.313391,"lon":5.36706,"is_reserved":false,"is_disabled":false,"rental_uris":{"android":"levelo://app?vid=23cd70a6-719f-415c-96cb-39c6d0d19f85","ios":"levelo://app?vid=23cd70a6-719f-415c-96cb-39c6d0d19f85"},"vehicle_type_id":"4","last_reported":1686920980,"current_range_meters":17600,"station_id":"ce4bgr92rcd13ifvqc6g","pricing_plan_id":"free"},{"bike_id":"83d1524a-d1b7-463e-9000-1b60a9499af0","system_id":"levelo_inurba_marseille","lat":43.31341,"lon":5.367098,"is_reserved":false,"is_disabled":false,"rental_uris":{"android":"levelo://app?vid=83d1524a-d1b7-463e-9000-1b60a9499af0","ios":"levelo://app?vid=83d1524a-d1b7-463e-9000-1b60a9499af0"},"vehicle_type_id":"4","last_reported":1686920980,"current_range_meters":31600,"station_id":"ce4bgr92rcd13ifvqc6g","pricing_plan_id":"free"},{"bike_id":"4985f093-c9b5-48d9-a55e-75f3930273ec","system_id":"levelo_inurba_marseille","lat":43.313391,"lon":5.36706,"is_reserved":false,"is_disabled":false,"rental_uris":{"android":"levelo://app?vid=4985f093-c9b5-48d9-a55e-75f3930273ec","ios":"levelo://app?vid=4985f093-c9b5-48d9-a55e-75f3930273ec"},"vehicle_type_id":"4","last_reported":1686920980,"current_range_meters":30000,"station_id":"ce4bgr92rcd13ifvqc6g","pricing_plan_id":"free"},{"bike_id":"13b89c25-a512-4907-9411-dbea2fd1751f","system_id":"levelo_inurba_marseille","lat":43.31341,"lon":5.367098,"is_reserved":false,"is_disabled":false,"rental_uris":{"android":"levelo://app?vid=13b89c25-a512-4907-9411-dbea2fd1751f","ios":"levelo://app?vid=13b89c25-a512-4907-9411-dbea2fd1751f"},"vehicle_type_id":"4","last_reported":1686920980,"current_range_meters":29200,"station_id":"ce4bgr92rcd13ifvqc6g","pricing_plan_id":"free"},{"bike_id":"ede1a28c-0525-4210-8fe3-64ad08f97061","system_id":"levelo_inurba_marseille","lat":43.31341,"lon":5.367098,"is_reserved":false,"is_disabled":false,"rental_uris":{"android":"levelo://app?vid=ede1a28c-0525-4210-8fe3-64ad08f97061","ios":"levelo://app?vid=ede1a28c-0525-4210-8fe3-64ad08f97061"},"vehicle_type_id":"4","last_reported":1686920980,"current_range_meters":29200,"station_id":"ce4bgr92rcd13ifvqc6g","pricing_plan_id":"free"},{"bike_id":"bc6fb803-50c3-4071-8823-5d053432b327","system_id":"levelo_inurba_marseille","lat":43.312239,"lon":5.368562,"is_reserved":false,"is_disabled":false,"rental_uris":{"android":"levelo://app?vid=bc6fb803-50c3-4071-8823-5d053432b327","ios":"levelo://app?vid=bc6fb803-50c3-4071-8823-5d053432b327"},"vehicle_type_id":"4","last_reported":1686920980,"current_range_meters":25600,"station_id":"ce4bgl92rcd13ifvqbq0","pricing_plan_id":"free"},{"bike_id":"b045594c-0410-477b-85a0-68bc611827eb","system_id":"levelo_inurba_marseille","lat":43.309076,"lon":5.368465,"is_reserved":false,"is_disabled":false,"rental_uris":{"android":"levelo://app?vid=b045594c-0410-477b-85a0-68bc611827eb","ios":"levelo://app?vid=b045594c-0410-477b-85a0-68bc611827eb"},"vehicle_type_id":"4","last_reported":1686920980,"current_range_meters":29600,"station_id":"ce4bgn92rcd13ifvqbvg","pricing_plan_id":"free"},{"bike_id":"f6ed5f6b-a81c-4284-aae3-52377d741057","system_id":"levelo_inurba_marseille","lat":43.309076,"lon":5.368465,"is_reserved":false,"is_disabled":false,"rental_uris":{"android":"levelo://app?vid=f6ed5f6b-a81c-4284-aae3-52377d741057","ios":"levelo://app?vid=f6ed5f6b-a81c-4284-aae3-52377d741057"},"vehicle_type_id":"4","last_reported":1686920980,"current_range_meters":26000,"station_id":"ce4bgn92rcd13ifvqbvg","pricing_plan_id":"free"},{"bike_id":"22907caa-bcc5-458f-8678-611b0bf654c4","system_id":"levelo_inurba_marseille","lat":43.30907,"lon":5.36851,"is_reserved":false,"is_disabled":false,"rental_uris":{"android":"levelo://app?vid=22907caa-bcc5-458f-8678-611b0bf654c4","ios":"levelo://app?vid=22907caa-bcc5-458f-8678-611b0bf654c4"},"vehicle_type_id":"4","last_reported":1686920980,"current_range_meters":13200,"station_id":"ce4bgn92rcd13ifvqbvg","pricing_plan_id":"free"},{"bike_id":"b6d7ef67-8fa1-45b9-854c-640a6c441d0b","system_id":"levelo_inurba_marseille","lat":43.309076,"lon":5.368465,"is_reserved":false,"is_disabled":false,"rental_uris":{"android":"levelo://app?vid=b6d7ef67-8fa1-45b9-854c-640a6c441d0b","ios":"levelo://app?vid=b6d7ef67-8fa1-45b9-854c-640a6c441d0b"},"vehicle_type_id":"4","last_reported":1686920980,"current_range_meters":24400,"station_id":"ce4bgn92rcd13ifvqbvg","pricing_plan_id":"free"},{"bike_id":"09805be9-451c-4ca3-b6fe-e1cb40843697","system_id":"levelo_inurba_marseille","lat":43.314811,"lon":5.373103,"is_reserved":false,"is_disabled":false,"rental_uris":{"android":"levelo://app?vid=09805be9-451c-4ca3-b6fe-e1cb40843697","ios":"levelo://app?vid=09805be9-451c-4ca3-b6fe-e1cb40843697"},"vehicle_type_id":"4","last_reported":1686920980,"current_range_meters":22000,"station_id":"ce4bgt12rcd13ifvqcd0","pricing_plan_id":"free"},{"bike_id":"0ba60b67-d258-4f45-9742-b16050644904","system_id":"levelo_inurba_marseille","lat":43.314811,"lon":5.373103,"is_reserved":false,"is_disabled":false,"rental_uris":{"android":"levelo://app?vid=0ba60b67-d258-4f45-9742-b16050644904","ios":"levelo://app?vid=0ba60b67-d258-4f45-9742-b16050644904"},"vehicle_type_id":"4","last_reported":1686920980,"current_range_meters":2400,"station_id":"ce4bgt12rcd13ifvqcd0","pricing_plan_id":"free"},{"bike_id":"a0ba409c-994b-4250-b810-492cc57f9398","system_id":"levelo_inurba_marseille","lat":43.314811,"lon":5.373103,"is_reserved":false,"is_disabled":false,"rental_uris":{"android":"levelo://app?vid=a0ba409c-994b-4250-b810-492cc57f9398","ios":"levelo://app?vid=a0ba409c-994b-4250-b810-492cc57f9398"},"vehicle_type_id":"4","last_reported":1686920980,"current_range_meters":21600,"station_id":"ce4bgt12rcd13ifvqcd0","pricing_plan_id":"free"},{"bike_id":"74fb9ec0-0136-4b15-9ac4-e10c2895ba3b","system_id":"levelo_inurba_marseille","lat":43.314811,"lon":5.373104,"is_reserved":false,"is_disabled":false,"rental_uris":{"android":"levelo://app?vid=74fb9ec0-0136-4b15-9ac4-e10c2895ba3b","ios":"levelo://app?vid=74fb9ec0-0136-4b15-9ac4-e10c2895ba3b"},"vehicle_type_id":"4","last_reported":1686920980,"current_range_meters":9200,"station_id":"ce4bgt12rcd13ifvqcd0","pricing_plan_id":"free"},{"bike_id":"62cc9aa2-4504-4f7f-adac-ff1c20468d8c","system_id":"levelo_inurba_marseille","lat":43.305368,"lon":5.367343,"is_reserved":false,"is_disabled":false,"rental_uris":{"android":"levelo://app?vid=62cc9aa2-4504-4f7f-adac-ff1c20468d8c","ios":"levelo://app?vid=62cc9aa2-4504-4f7f-adac-ff1c20468d8c"},"vehicle_type_id":"4","last_reported":1686920980,"current_range_meters":19200,"station_id":"ce4bgrp2rcd13ifvqc9g","pricing_plan_id":"free"},{"bike_id":"c5bbe088-bbe7-4e04-992d-09ea7bb82f79","system_id":"levelo_inurba_marseille","lat":43.305368,"lon":5.367343,"is_reserved":false,"is_disabled":false,"rental_uris":{"android":"levelo://app?vid=c5bbe088-bbe7-4e04-992d-09ea7bb82f79","ios":"levelo://app?vid=c5bbe088-bbe7-4e04-992d-09ea7bb82f79"},"vehicle_type_id":"4","last_reported":1686920980,"current_range_meters":10400,"station_id":"ce4bgrp2rcd13ifvqc9g","pricing_plan_id":"free"},{"bike_id":"b9d1bdc5-cee7-4682-8fe6-1c48e55ed33c","system_id":"levelo_inurba_marseille","lat":43.305368,"lon":5.367343,"is_reserved":false,"is_disabled":false,"rental_uris":{"android":"levelo://app?vid=b9d1bdc5-cee7-4682-8fe6-1c48e55ed33c","ios":"levelo://app?vid=b9d1bdc5-cee7-4682-8fe6-1c48e55ed33c"},"vehicle_type_id":"4","last_reported":1686920980,"current_range_meters":25200,"station_id":"ce4bgrp2rcd13ifvqc9g","pricing_plan_id":"free"},{"bike_id":"e868eb50-a2b9-46a1-bc7b-6bd8f84caddd","system_id":"levelo_inurba_marseille","lat":43.305714,"lon":5.365633,"is_reserved":false,"is_disabled":false,"rental_uris":{"android":"levelo://app?vid=e868eb50-a2b9-46a1-bc7b-6bd8f84caddd","ios":"levelo://app?vid=e868eb50-a2b9-46a1-bc7b-6bd8f84caddd"},"vehicle_type_id":"4","last_reported":1686920980,"current_range_meters":4400,"station_id":"ce4bgs12rcd13ifvqcag","pricing_plan_id":"free"},{"bike_id":"7385c7d2-9969-438d-bdbd-206a7d4aecfe","system_id":"levelo_inurba_marseille","lat":43.305706,"lon":5.365654,"is_reserved":false,"is_disabled":false,"rental_uris":{"android":"levelo://app?vid=7385c7d2-9969-438d-bdbd-206a7d4aecfe","ios":"levelo://app?vid=7385c7d2-9969-438d-bdbd-206a7d4aecfe"},"vehicle_type_id":"4","last_reported":1686920980,"current_range_meters":4000,"station_id":"ce4bgs12rcd13ifvqcag","pricing_plan_id":"free"},{"bike_id":"776d90ed-547b-47bd-af60-9075a48a961c","system_id":"levelo_inurba_marseille","lat":43.305714,"lon":5.365633,"is_reserved":false,"is_disabled":false,"rental_uris":{"android":"levelo://app?vid=776d90ed-547b-47bd-af60-9075a48a961c","ios":"levelo://app?vid=776d90ed-547b-47bd-af60-9075a48a961c"},"vehicle_type_id":"4","last_reported":1686920980,"current_range_meters":18000,"station_id":"ce4bgs12rcd13ifvqcag","pricing_plan_id":"free"},{"bike_id":"f294fc77-5291-4d0e-9211-e32713733e58","system_id":"levelo_inurba_marseille","lat":43.311125,"lon":5.377624,"is_reserved":false,"is_disabled":false,"rental_uris":{"android":"levelo://app?vid=f294fc77-5291-4d0e-9211-e32713733e58","ios":"levelo://app?vid=f294fc77-5291-4d0e-9211-e32713733e58"},"vehicle_type_id":"4","last_reported":1686920980,"current_range_meters":18400,"station_id":"ce4bgt92rcd13ifvqcg0","pricing_plan_id":"free"},{"bike_id":"d20340aa-d817-4420-b906-9f37dd68ed26","system_id":"levelo_inurba_marseille","lat":43.317075,"lon":5.377367,"is_reserved":false,"is_disabled":false,"rental_uris":{"android":"levelo://app?vid=d20340aa-d817-4420-b906-9f37dd68ed26","ios":"levelo://app?vid=d20340aa-d817-4420-b906-9f37dd68ed26"},"vehicle_type_id":"4","last_reported":1686920980,"current_range_meters":12000,"station_id":"ce4bgth2rcd13ifvqch0","pricing_plan_id":"free"},{"bike_id":"bf5e29c2-0ca3-4bf7-a44f-9f518b68c89f","system_id":"levelo_inurba_marseille","lat":43.317075,"lon":5.377367,"is_reserved":false,"is_disabled":false,"rental_uris":{"android":"levelo://app?vid=bf5e29c2-0ca3-4bf7-a44f-9f518b68c89f","ios":"levelo://app?vid=bf5e29c2-0ca3-4bf7-a44f-9f518b68c89f"},"vehicle_type_id":"4","last_reported":1686920980,"current_range_meters":29600,"station_id":"ce4bgth2rcd13ifvqch0","pricing_plan_id":"free"},{"bike_id":"868b78c6-1736-48f0-9451-5afefb5010f9","system_id":"levelo_inurba_marseille","lat":43.317075,"lon":5.377367,"is_reserved":false,"is_disabled":false,"rental_uris":{"android":"levelo://app?vid=868b78c6-1736-48f0-9451-5afefb5010f9","ios":"levelo://app?vid=868b78c6-1736-48f0-9451-5afefb5010f9"},"vehicle_type_id":"4","last_reported":1686920980,"current_range_meters":19600,"station_id":"ce4bgth2rcd13ifvqch0","pricing_plan_id":"free"},{"bike_id":"3d5f511e-1fc9-4b72-ae77-6251a9edff4e","system_id":"levelo_inurba_marseille","lat":43.317075,"lon":5.377367,"is_reserved":false,"is_disabled":false,"rental_uris":{"android":"levelo://app?vid=3d5f511e-1fc9-4b72-ae77-6251a9edff4e","ios":"levelo://app?vid=3d5f511e-1fc9-4b72-ae77-6251a9edff4e"},"vehicle_type_id":"4","last_reported":1686920980,"current_range_meters":31600,"station_id":"ce4bgth2rcd13ifvqch0","pricing_plan_id":"free"},{"bike_id":"2424216c-0462-4ad0-b127-d0366c91b61c","system_id":"levelo_inurba_marseille","lat":43.31713,"lon":5.37757,"is_reserved":false,"is_disabled":false,"rental_uris":{"android":"levelo://app?vid=2424216c-0462-4ad0-b127-d0366c91b61c","ios":"levelo://app?vid=2424216c-0462-4ad0-b127-d0366c91b61c"},"vehicle_type_id":"4","last_reported":1686920980,"current_range_meters":30400,"station_id":"ce4bgth2rcd13ifvqch0","pricing_plan_id":"free"},{"bike_id":"310a4f63-a43b-4ed7-911b-de221e467365","system_id":"levelo_inurba_marseille","lat":43.303046,"lon":5.368981,"is_reserved":false,"is_disabled":false,"rental_uris":{"android":"levelo://app?vid=310a4f63-a43b-4ed7-911b-de221e467365","ios":"levelo://app?vid=310a4f63-a43b-4ed7-911b-de221e467365"},"vehicle_type_id":"4","last_reported":1686920980,"current_range_meters":11600,"station_id":"ce4bgqh2rcd13ifvqc5g","pricing_plan_id":"free"},{"bike_id":"f6957ff9-a965-422a-8bc4-2ee641cbca80","system_id":"levelo_inurba_marseille","lat":43.315293,"lon":5.380349,"is_reserved":false,"is_disabled":false,"rental_uris":{"android":"levelo://app?vid=f6957ff9-a965-422a-8bc4-2ee641cbca80","ios":"levelo://app?vid=f6957ff9-a965-422a-8bc4-2ee641cbca80"},"vehicle_type_id":"4","last_reported":1686920980,"current_range_meters":16400,"station_id":"ce4bhsp2rcd13ifvqi50","pricing_plan_id":"free"},{"bike_id":"d8a5e6fb-1abf-4c84-b6ec-18516ca62dfa","system_id":"levelo_inurba_marseille","lat":43.31528,"lon":5.38038,"is_reserved":false,"is_disabled":false,"rental_uris":{"android":"levelo://app?vid=d8a5e6fb-1abf-4c84-b6ec-18516ca62dfa","ios":"levelo://app?vid=d8a5e6fb-1abf-4c84-b6ec-18516ca62dfa"},"vehicle_type_id":"4","last_reported":1686920980,"current_range_meters":26000,"station_id":"ce4bhsp2rcd13ifvqi50","pricing_plan_id":"free"},{"bike_id":"6c23dc49-fc5d-45da-a4ee-c87d4cce2e68","system_id":"levelo_inurba_marseille","lat":43.315293,"lon":5.380349,"is_reserved":false,"is_disabled":false,"rental_uris":{"android":"levelo://app?vid=6c23dc49-fc5d-45da-a4ee-c87d4cce2e68","ios":"levelo://app?vid=6c23dc49-fc5d-45da-a4ee-c87d4cce2e68"},"vehicle_type_id":"4","last_reported":1686920980,"current_range_meters":19200,"station_id":"ce4bhsp2rcd13ifvqi50","pricing_plan_id":"free"},{"bike_id":"70510f9a-6b3f-4f9d-8f8f-9a47675ccaaf","system_id":"levelo_inurba_marseille","lat":43.30196,"lon":5.36628,"is_reserved":false,"is_disabled":false,"rental_uris":{"android":"levelo://app?vid=70510f9a-6b3f-4f9d-8f8f-9a47675ccaaf","ios":"levelo://app?vid=70510f9a-6b3f-4f9d-8f8f-9a47675ccaaf"},"vehicle_type_id":"4","last_reported":1686920980,"current_range_meters":3600,"station_id":"ce4bgrh2rcd13ifvqc8g","pricing_plan_id":"free"},{"bike_id":"f05d9e5e-aaff-4701-b52a-2360492f3eb5","system_id":"levelo_inurba_marseille","lat":43.30188,"lon":5.36621,"is_reserved":false,"is_disabled":false,"rental_uris":{"android":"levelo://app?vid=f05d9e5e-aaff-4701-b52a-2360492f3eb5","ios":"levelo://app?vid=f05d9e5e-aaff-4701-b52a-2360492f3eb5"},"vehicle_type_id":"4","last_reported":1686920980,"current_range_meters":17200,"station_id":"ce4bgrh2rcd13ifvqc8g","pricing_plan_id":"free"},{"bike_id":"0d872b1d-7c7f-4b04-9da5-e02ca600d42e","system_id":"levelo_inurba_marseille","lat":43.30187,"lon":5.3663,"is_reserved":false,"is_disabled":false,"rental_uris":{"android":"levelo://app?vid=0d872b1d-7c7f-4b04-9da5-e02ca600d42e","ios":"levelo://app?vid=0d872b1d-7c7f-4b04-9da5-e02ca600d42e"},"vehicle_type_id":"4","last_reported":1686920980,"current_range_meters":25600,"station_id":"ce4bgrh2rcd13ifvqc8g","pricing_plan_id":"free"},{"bike_id":"e96add6d-1222-4e75-bd90-186363511397","system_id":"levelo_inurba_marseille","lat":43.301939,"lon":5.366286,"is_reserved":false,"is_disabled":false,"rental_uris":{"android":"levelo://app?vid=e96add6d-1222-4e75-bd90-186363511397","ios":"levelo://app?vid=e96add6d-1222-4e75-bd90-186363511397"},"vehicle_type_id":"4","last_reported":1686920980,"current_range_meters":22400,"station_id":"ce4bgrh2rcd13ifvqc8g","pricing_plan_id":"free"},{"bike_id":"ae33307b-fcd5-479b-9ae1-9002ed226c6e","system_id":"levelo_inurba_marseille","lat":43.308012,"lon":5.381511,"is_reserved":false,"is_disabled":false,"rental_uris":{"android":"levelo://app?vid=ae33307b-fcd5-479b-9ae1-9002ed226c6e","ios":"levelo://app?vid=ae33307b-fcd5-479b-9ae1-9002ed226c6e"},"vehicle_type_id":"4","last_reported":1686920980,"current_range_meters":15200,"station_id":"ce4bgt12rcd13ifvqce0","pricing_plan_id":"free"},{"bike_id":"df7fdcfb-a7f5-4ed6-9c1f-90ee2a24dfe3","system_id":"levelo_inurba_marseille","lat":43.304606,"lon":5.379026,"is_reserved":false,"is_disabled":false,"rental_uris":{"android":"levelo://app?vid=df7fdcfb-a7f5-4ed6-9c1f-90ee2a24dfe3","ios":"levelo://app?vid=df7fdcfb-a7f5-4ed6-9c1f-90ee2a24dfe3"},"vehicle_type_id":"4","last_reported":1686920980,"current_range_meters":6800,"station_id":"ce4bgup2rcd13ifvqcn0","pricing_plan_id":"free"},{"bike_id":"32827146-2d6b-4fb1-b00e-6b2f535ca544","system_id":"levelo_inurba_marseille","lat":43.30493,"lon":5.37942,"is_reserved":false,"is_disabled":false,"rental_uris":{"android":"levelo://app?vid=32827146-2d6b-4fb1-b00e-6b2f535ca544","ios":"levelo://app?vid=32827146-2d6b-4fb1-b00e-6b2f535ca544"},"vehicle_type_id":"4","last_reported":1686920980,"current_range_meters":31200,"station_id":"","pricing_plan_id":"free"},{"bike_id":"fc4a69da-5dee-4c68-8631-20ee11bc487b","system_id":"levelo_inurba_marseille","lat":43.30448,"lon":5.37896,"is_reserved":false,"is_disabled":false,"rental_uris":{"android":"levelo://app?vid=fc4a69da-5dee-4c68-8631-20ee11bc487b","ios":"levelo://app?vid=fc4a69da-5dee-4c68-8631-20ee11bc487b"},"vehicle_type_id":"4","last_reported":1686920980,"current_range_meters":28400,"station_id":"ce4bgup2rcd13ifvqcn0","pricing_plan_id":"free"},{"bike_id":"a382a8ca-de3f-4c00-8997-337456fd2821","system_id":"levelo_inurba_marseille","lat":43.302784,"lon":5.377158,"is_reserved":false,"is_disabled":false,"rental_uris":{"android":"levelo://app?vid=a382a8ca-de3f-4c00-8997-337456fd2821","ios":"levelo://app?vid=a382a8ca-de3f-4c00-8997-337456fd2821"},"vehicle_type_id":"4","last_reported":1686920980,"current_range_meters":25600,"station_id":"ce4bguh2rcd13ifvqcj0","pricing_plan_id":"free"},{"bike_id":"03ba7ea3-f2f7-4d04-be0a-3e79635d877d","system_id":"levelo_inurba_marseille","lat":43.30146,"lon":5.37419,"is_reserved":false,"is_disabled":false,"rental_uris":{"android":"levelo://app?vid=03ba7ea3-f2f7-4d04-be0a-3e79635d877d","ios":"levelo://app?vid=03ba7ea3-f2f7-4d04-be0a-3e79635d877d"},"vehicle_type_id":"4","last_reported":1686920980,"current_range_meters":23200,"station_id":"ce4bgs92rcd13ifvqcc0","pricing_plan_id":"free"},{"bike_id":"08cb79d7-ce64-4643-93dd-db50c6405beb","system_id":"levelo_inurba_marseille","lat":43.3014,"lon":5.37421,"is_reserved":false,"is_disabled":false,"rental_uris":{"android":"levelo://app?vid=08cb79d7-ce64-4643-93dd-db50c6405beb","ios":"levelo://app?vid=08cb79d7-ce64-4643-93dd-db50c6405beb"},"vehicle_type_id":"4","last_reported":1686920980,"current_range_meters":15600,"station_id":"ce4bgs92rcd13ifvqcc0","pricing_plan_id":"free"},{"bike_id":"23a36f57-736e-464b-b62c-4c6dcfa99acb","system_id":"levelo_inurba_marseille","lat":43.31994,"lon":5.38152,"is_reserved":false,"is_disabled":false,"rental_uris":{"android":"levelo://app?vid=23a36f57-736e-464b-b62c-4c6dcfa99acb","ios":"levelo://app?vid=23a36f57-736e-464b-b62c-4c6dcfa99acb"},"vehicle_type_id":"4","last_reported":1686920980,"current_range_meters":4000,"station_id":"ce4bhr12rcd13ifvqhpg","pricing_plan_id":"free"},{"bike_id":"80b8aadd-cfc3-477d-b092-db9e7f864b00","system_id":"levelo_inurba_marseille","lat":43.31996,"lon":5.38159,"is_reserved":false,"is_disabled":false,"rental_uris":{"android":"levelo://app?vid=80b8aadd-cfc3-477d-b092-db9e7f864b00","ios":"levelo://app?vid=80b8aadd-cfc3-477d-b092-db9e7f864b00"},"vehicle_type_id":"4","last_reported":1686920980,"current_range_meters":16800,"station_id":"ce4bhr12rcd13ifvqhpg","pricing_plan_id":"free"},{"bike_id":"06b2edd8-5274-4ee0-847a-6d8a239c9927","system_id":"levelo_inurba_marseille","lat":43.319935,"lon":5.381699,"is_reserved":false,"is_disabled":false,"rental_uris":{"android":"levelo://app?vid=06b2edd8-5274-4ee0-847a-6d8a239c9927","ios":"levelo://app?vid=06b2edd8-5274-4ee0-847a-6d8a239c9927"},"vehicle_type_id":"4","last_reported":1686920980,"current_range_meters":28400,"station_id":"ce4bhr12rcd13ifvqhpg","pricing_plan_id":"free"},{"bike_id":"938c2523-e163-430c-9aa5-25a14ff7427d","system_id":"levelo_inurba_marseille","lat":43.29979,"lon":5.36775,"is_reserved":false,"is_disabled":false,"rental_uris":{"android":"levelo://app?vid=938c2523-e163-430c-9aa5-25a14ff7427d","ios":"levelo://app?vid=938c2523-e163-430c-9aa5-25a14ff7427d"},"vehicle_type_id":"4","last_reported":1686920980,"current_range_meters":18000,"station_id":"","pricing_plan_id":"free"},{"bike_id":"330412da-b9eb-49fa-9ba0-9288ee9ddd31","system_id":"levelo_inurba_marseille","lat":43.30002,"lon":5.37088,"is_reserved":false,"is_disabled":false,"rental_uris":{"android":"levelo://app?vid=330412da-b9eb-49fa-9ba0-9288ee9ddd31","ios":"levelo://app?vid=330412da-b9eb-49fa-9ba0-9288ee9ddd31"},"vehicle_type_id":"4","last_reported":1686920980,"current_range_meters":23600,"station_id":"","pricing_plan_id":"free"},{"bike_id":"56606d34-50a5-464f-a8e5-e50267034007","system_id":"levelo_inurba_marseille","lat":43.29946,"lon":5.3654,"is_reserved":false,"is_disabled":false,"rental_uris":{"android":"levelo://app?vid=56606d34-50a5-464f-a8e5-e50267034007","ios":"levelo://app?vid=56606d34-50a5-464f-a8e5-e50267034007"},"vehicle_type_id":"4","last_reported":1686920980,"current_range_meters":8400,"station_id":"","pricing_plan_id":"free"},{"bike_id":"7945d8a1-54dc-4a30-910d-9390ec00622e","system_id":"levelo_inurba_marseille","lat":43.299222,"lon":5.365554,"is_reserved":false,"is_disabled":false,"rental_uris":{"android":"levelo://app?vid=7945d8a1-54dc-4a30-910d-9390ec00622e","ios":"levelo://app?vid=7945d8a1-54dc-4a30-910d-9390ec00622e"},"vehicle_type_id":"4","last_reported":1686920980,"current_range_meters":28400,"station_id":"ce4bgm92rcd13ifvqbr0","pricing_plan_id":"free"},{"bike_id":"b90e6cfa-0575-4334-8558-cff7c77b9956","system_id":"levelo_inurba_marseille","lat":43.299222,"lon":5.365554,"is_reserved":false,"is_disabled":false,"rental_uris":{"android":"levelo://app?vid=b90e6cfa-0575-4334-8558-cff7c77b9956","ios":"levelo://app?vid=b90e6cfa-0575-4334-8558-cff7c77b9956"},"vehicle_type_id":"4","last_reported":1686920980,"current_range_meters":11600,"station_id":"ce4bgm92rcd13ifvqbr0","pricing_plan_id":"free"},{"bike_id":"1a59793c-04d9-4428-9dd9-2c79a26b97e1","system_id":"levelo_inurba_marseille","lat":43.299222,"lon":5.365554,"is_reserved":false,"is_disabled":false,"rental_uris":{"android":"levelo://app?vid=1a59793c-04d9-4428-9dd9-2c79a26b97e1","ios":"levelo://app?vid=1a59793c-04d9-4428-9dd9-2c79a26b97e1"},"vehicle_type_id":"4","last_reported":1686920980,"current_range_meters":14400,"station_id":"ce4bgm92rcd13ifvqbr0","pricing_plan_id":"free"},{"bike_id":"d1d4686a-a601-454e-bec9-0840d2f12843","system_id":"levelo_inurba_marseille","lat":43.299222,"lon":5.365554,"is_reserved":false,"is_disabled":false,"rental_uris":{"android":"levelo://app?vid=d1d4686a-a601-454e-bec9-0840d2f12843","ios":"levelo://app?vid=d1d4686a-a601-454e-bec9-0840d2f12843"},"vehicle_type_id":"4","last_reported":1686920980,"current_range_meters":21200,"station_id":"ce4bgm92rcd13ifvqbr0","pricing_plan_id":"free"},{"bike_id":"6897234c-a5a9-4cc7-b7c3-ee6b0e82e574","system_id":"levelo_inurba_marseille","lat":43.29855,"lon":5.36284,"is_reserved":false,"is_disabled":false,"rental_uris":{"android":"levelo://app?vid=6897234c-a5a9-4cc7-b7c3-ee6b0e82e574","ios":"levelo://app?vid=6897234c-a5a9-4cc7-b7c3-ee6b0e82e574"},"vehicle_type_id":"4","last_reported":1686920980,"current_range_meters":20000,"station_id":"ce4bgpp2rcd13ifvqc3g","pricing_plan_id":"free"},{"bike_id":"407d3c40-1004-4f24-87d1-1582126a7891","system_id":"levelo_inurba_marseille","lat":43.298433,"lon":5.362774,"is_reserved":false,"is_disabled":false,"rental_uris":{"android":"levelo://app?vid=407d3c40-1004-4f24-87d1-1582126a7891","ios":"levelo://app?vid=407d3c40-1004-4f24-87d1-1582126a7891"},"vehicle_type_id":"4","last_reported":1686920980,"current_range_meters":31600,"station_id":"ce4bgpp2rcd13ifvqc3g","pricing_plan_id":"free"},{"bike_id":"46c86b71-3ed5-4b01-a764-aba9ea59368c","system_id":"levelo_inurba_marseille","lat":43.29849,"lon":5.36282,"is_reserved":false,"is_disabled":false,"rental_uris":{"android":"levelo://app?vid=46c86b71-3ed5-4b01-a764-aba9ea59368c","ios":"levelo://app?vid=46c86b71-3ed5-4b01-a764-aba9ea59368c"},"vehicle_type_id":"4","last_reported":1686920980,"current_range_meters":29600,"station_id":"ce4bgpp2rcd13ifvqc3g","pricing_plan_id":"free"},{"bike_id":"18db56ba-c467-41af-b430-4bf1152550ac","system_id":"levelo_inurba_marseille","lat":43.29848,"lon":5.36287,"is_reserved":false,"is_disabled":false,"rental_uris":{"android":"levelo://app?vid=18db56ba-c467-41af-b430-4bf1152550ac","ios":"levelo://app?vid=18db56ba-c467-41af-b430-4bf1152550ac"},"vehicle_type_id":"4","last_reported":1686920980,"current_range_meters":25600,"station_id":"ce4bgpp2rcd13ifvqc3g","pricing_plan_id":"free"},{"bike_id":"e3f10ae3-a4de-49b2-ad11-36803c791557","system_id":"levelo_inurba_marseille","lat":43.29849,"lon":5.3628,"is_reserved":false,"is_disabled":false,"rental_uris":{"android":"levelo://app?vid=e3f10ae3-a4de-49b2-ad11-36803c791557","ios":"levelo://app?vid=e3f10ae3-a4de-49b2-ad11-36803c791557"},"vehicle_type_id":"4","last_reported":1686920980,"current_range_meters":20400,"station_id":"ce4bgpp2rcd13ifvqc3g","pricing_plan_id":"free"},{"bike_id":"76e6fb7a-5d91-4a1b-81d4-16a75983c290","system_id":"levelo_inurba_marseille","lat":43.29848,"lon":5.36283,"is_reserved":false,"is_disabled":false,"rental_uris":{"android":"levelo://app?vid=76e6fb7a-5d91-4a1b-81d4-16a75983c290","ios":"levelo://app?vid=76e6fb7a-5d91-4a1b-81d4-16a75983c290"},"vehicle_type_id":"4","last_reported":1686920980,"current_range_meters":24000,"station_id":"ce4bgpp2rcd13ifvqc3g","pricing_plan_id":"free"},{"bike_id":"c3b8ce03-c733-4ceb-bd1f-743e6ce6d59a","system_id":"levelo_inurba_marseille","lat":43.298433,"lon":5.362774,"is_reserved":false,"is_disabled":false,"rental_uris":{"android":"levelo://app?vid=c3b8ce03-c733-4ceb-bd1f-743e6ce6d59a","ios":"levelo://app?vid=c3b8ce03-c733-4ceb-bd1f-743e6ce6d59a"},"vehicle_type_id":"4","last_reported":1686920980,"current_range_meters":27600,"station_id":"ce4bgpp2rcd13ifvqc3g","pricing_plan_id":"free"},{"bike_id":"6b73607f-f102-4702-a6fe-9ef4fe608e33","system_id":"levelo_inurba_marseille","lat":43.29848,"lon":5.36279,"is_reserved":false,"is_disabled":false,"rental_uris":{"android":"levelo://app?vid=6b73607f-f102-4702-a6fe-9ef4fe608e33","ios":"levelo://app?vid=6b73607f-f102-4702-a6fe-9ef4fe608e33"},"vehicle_type_id":"4","last_reported":1686920980,"current_range_meters":28800,"station_id":"ce4bgpp2rcd13ifvqc3g","pricing_plan_id":"free"},{"bike_id":"475358c3-8ebd-4dbf-a448-a96c2b08f378","system_id":"levelo_inurba_marseille","lat":43.29842,"lon":5.36283,"is_reserved":false,"is_disabled":false,"rental_uris":{"android":"levelo://app?vid=475358c3-8ebd-4dbf-a448-a96c2b08f378","ios":"levelo://app?vid=475358c3-8ebd-4dbf-a448-a96c2b08f378"},"vehicle_type_id":"4","last_reported":1686920980,"current_range_meters":20000,"station_id":"ce4bgpp2rcd13ifvqc3g","pricing_plan_id":"free"},{"bike_id":"a61355d7-3594-458d-8250-9283c321ed01","system_id":"levelo_inurba_marseille","lat":43.298433,"lon":5.362774,"is_reserved":false,"is_disabled":false,"rental_uris":{"android":"levelo://app?vid=a61355d7-3594-458d-8250-9283c321ed01","ios":"levelo://app?vid=a61355d7-3594-458d-8250-9283c321ed01"},"vehicle_type_id":"4","last_reported":1686920980,"current_range_meters":30800,"station_id":"ce4bgpp2rcd13ifvqc3g","pricing_plan_id":"free"},{"bike_id":"99c8dfe4-171c-40a3-bcbd-6b7b774e31a3","system_id":"levelo_inurba_marseille","lat":43.298433,"lon":5.362774,"is_reserved":false,"is_disabled":false,"rental_uris":{"android":"levelo://app?vid=99c8dfe4-171c-40a3-bcbd-6b7b774e31a3","ios":"levelo://app?vid=99c8dfe4-171c-40a3-bcbd-6b7b774e31a3"},"vehicle_type_id":"4","last_reported":1686920980,"current_range_meters":23200,"station_id":"ce4bgpp2rcd13ifvqc3g","pricing_plan_id":"free"},{"bike_id":"16ed251c-1f6d-4087-b71b-8d13acf34fbc","system_id":"levelo_inurba_marseille","lat":43.31168,"lon":5.38708,"is_reserved":false,"is_disabled":false,"rental_uris":{"android":"levelo://app?vid=16ed251c-1f6d-4087-b71b-8d13acf34fbc","ios":"levelo://app?vid=16ed251c-1f6d-4087-b71b-8d13acf34fbc"},"vehicle_type_id":"4","last_reported":1686920980,"current_range_meters":10400,"station_id":"ce4bgv12rcd13ifvqcp0","pricing_plan_id":"free"},{"bike_id":"d7334887-ee35-4e9e-aee3-4d2d8e0b7f32","system_id":"levelo_inurba_marseille","lat":43.298433,"lon":5.362774,"is_reserved":false,"is_disabled":false,"rental_uris":{"android":"levelo://app?vid=d7334887-ee35-4e9e-aee3-4d2d8e0b7f32","ios":"levelo://app?vid=d7334887-ee35-4e9e-aee3-4d2d8e0b7f32"},"vehicle_type_id":"4","last_reported":1686920980,"current_range_meters":31600,"station_id":"ce4bgpp2rcd13ifvqc3g","pricing_plan_id":"free"},{"bike_id":"b4319196-1a7b-4b61-89e4-4aa01abde76c","system_id":"levelo_inurba_marseille","lat":43.273613,"lon":5.362705,"is_reserved":false,"is_disabled":false,"rental_uris":{"android":"levelo://app?vid=b4319196-1a7b-4b61-89e4-4aa01abde76c","ios":"levelo://app?vid=b4319196-1a7b-4b61-89e4-4aa01abde76c"},"vehicle_type_id":"4","last_reported":1686920980,"current_range_meters":26000,"station_id":"ce4bhbh2rcd13ifvqeo0","pricing_plan_id":"free"},{"bike_id":"5a590b84-3f76-44ae-9463-e9fbfff6fef0","system_id":"levelo_inurba_marseille","lat":43.328371,"lon":5.366909,"is_reserved":false,"is_disabled":false,"rental_uris":{"android":"levelo://app?vid=5a590b84-3f76-44ae-9463-e9fbfff6fef0","ios":"levelo://app?vid=5a590b84-3f76-44ae-9463-e9fbfff6fef0"},"vehicle_type_id":"4","last_reported":1686920980,"current_range_meters":9200,"station_id":"ce4bhs92rcd13ifvqi0g","pricing_plan_id":"free"},{"bike_id":"099d5bc2-fb7d-4f93-b471-20300fd63a04","system_id":"levelo_inurba_marseille","lat":43.328371,"lon":5.366909,"is_reserved":false,"is_disabled":false,"rental_uris":{"android":"levelo://app?vid=099d5bc2-fb7d-4f93-b471-20300fd63a04","ios":"levelo://app?vid=099d5bc2-fb7d-4f93-b471-20300fd63a04"},"vehicle_type_id":"4","last_reported":1686920980,"current_range_meters":20000,"station_id":"ce4bhs92rcd13ifvqi0g","pricing_plan_id":"free"},{"bike_id":"f3e97ff2-d312-40a6-b781-e19f347f1ff4","system_id":"levelo_inurba_marseille","lat":43.328371,"lon":5.366909,"is_reserved":false,"is_disabled":false,"rental_uris":{"android":"levelo://app?vid=f3e97ff2-d312-40a6-b781-e19f347f1ff4","ios":"levelo://app?vid=f3e97ff2-d312-40a6-b781-e19f347f1ff4"},"vehicle_type_id":"4","last_reported":1686920980,"current_range_meters":24000,"station_id":"ce4bhs92rcd13ifvqi0g","pricing_plan_id":"free"},{"bike_id":"b03d88f8-bf3f-46ac-9bbf-b15e89df07c3","system_id":"levelo_inurba_marseille","lat":43.328371,"lon":5.366909,"is_reserved":false,"is_disabled":false,"rental_uris":{"android":"levelo://app?vid=b03d88f8-bf3f-46ac-9bbf-b15e89df07c3","ios":"levelo://app?vid=b03d88f8-bf3f-46ac-9bbf-b15e89df07c3"},"vehicle_type_id":"4","last_reported":1686920980,"current_range_meters":10000,"station_id":"ce4bhs92rcd13ifvqi0g","pricing_plan_id":"free"},{"bike_id":"d8ab7120-5db4-4f8a-92b5-f55006e30150","system_id":"levelo_inurba_marseille","lat":43.328371,"lon":5.366909,"is_reserved":false,"is_disabled":false,"rental_uris":{"android":"levelo://app?vid=d8ab7120-5db4-4f8a-92b5-f55006e30150","ios":"levelo://app?vid=d8ab7120-5db4-4f8a-92b5-f55006e30150"},"vehicle_type_id":"4","last_reported":1686920980,"current_range_meters":10400,"station_id":"ce4bhs92rcd13ifvqi0g","pricing_plan_id":"free"},{"bike_id":"d5904ea4-b5cd-4515-b6c3-61ba5c57dec9","system_id":"levelo_inurba_marseille","lat":43.32827,"lon":5.36687,"is_reserved":false,"is_disabled":false,"rental_uris":{"android":"levelo://app?vid=d5904ea4-b5cd-4515-b6c3-61ba5c57dec9","ios":"levelo://app?vid=d5904ea4-b5cd-4515-b6c3-61ba5c57dec9"},"vehicle_type_id":"4","last_reported":1686920980,"current_range_meters":6800,"station_id":"ce4bhs92rcd13ifvqi0g","pricing_plan_id":"free"},{"bike_id":"5aea4ff9-b794-49fa-b864-ba4cf0a9088f","system_id":"levelo_inurba_marseille","lat":43.328371,"lon":5.366912,"is_reserved":false,"is_disabled":false,"rental_uris":{"android":"levelo://app?vid=5aea4ff9-b794-49fa-b864-ba4cf0a9088f","ios":"levelo://app?vid=5aea4ff9-b794-49fa-b864-ba4cf0a9088f"},"vehicle_type_id":"4","last_reported":1686920980,"current_range_meters":3600,"station_id":"ce4bhs92rcd13ifvqi0g","pricing_plan_id":"free"},{"bike_id":"c6a275dd-23ca-4fc8-b334-b9ed20ef6ddc","system_id":"levelo_inurba_marseille","lat":43.29703,"lon":5.36614,"is_reserved":false,"is_disabled":false,"rental_uris":{"android":"levelo://app?vid=c6a275dd-23ca-4fc8-b334-b9ed20ef6ddc","ios":"levelo://app?vid=c6a275dd-23ca-4fc8-b334-b9ed20ef6ddc"},"vehicle_type_id":"4","last_reported":1686920980,"current_range_meters":6800,"station_id":"ce4bgn12rcd13ifvqbt0","pricing_plan_id":"free"},{"bike_id":"2f7edc5d-64ad-494f-b964-2d58d1b66c08","system_id":"levelo_inurba_marseille","lat":43.297163,"lon":5.365866,"is_reserved":false,"is_disabled":false,"rental_uris":{"android":"levelo://app?vid=2f7edc5d-64ad-494f-b964-2d58d1b66c08","ios":"levelo://app?vid=2f7edc5d-64ad-494f-b964-2d58d1b66c08"},"vehicle_type_id":"4","last_reported":1686920980,"current_range_meters":14800,"station_id":"ce4bgn12rcd13ifvqbt0","pricing_plan_id":"free"},{"bike_id":"1c5e92ee-c7f6-44fc-a763-adb390bddde1","system_id":"levelo_inurba_marseille","lat":43.297163,"lon":5.365866,"is_reserved":false,"is_disabled":false,"rental_uris":{"android":"levelo://app?vid=1c5e92ee-c7f6-44fc-a763-adb390bddde1","ios":"levelo://app?vid=1c5e92ee-c7f6-44fc-a763-adb390bddde1"},"vehicle_type_id":"4","last_reported":1686920980,"current_range_meters":29200,"station_id":"ce4bgn12rcd13ifvqbt0","pricing_plan_id":"free"},{"bike_id":"51121d58-1d44-48db-a97a-278b98c02e82","system_id":"levelo_inurba_marseille","lat":43.297163,"lon":5.365866,"is_reserved":false,"is_disabled":false,"rental_uris":{"android":"levelo://app?vid=51121d58-1d44-48db-a97a-278b98c02e82","ios":"levelo://app?vid=51121d58-1d44-48db-a97a-278b98c02e82"},"vehicle_type_id":"4","last_reported":1686920980,"current_range_meters":25600,"station_id":"ce4bgn12rcd13ifvqbt0","pricing_plan_id":"free"},{"bike_id":"9c364e07-1b5c-467b-bded-543b0ccb55ab","system_id":"levelo_inurba_marseille","lat":43.297163,"lon":5.365866,"is_reserved":false,"is_disabled":false,"rental_uris":{"android":"levelo://app?vid=9c364e07-1b5c-467b-bded-543b0ccb55ab","ios":"levelo://app?vid=9c364e07-1b5c-467b-bded-543b0ccb55ab"},"vehicle_type_id":"4","last_reported":1686920980,"current_range_meters":3600,"station_id":"ce4bgn12rcd13ifvqbt0","pricing_plan_id":"free"},{"bike_id":"bddad328-e642-4eef-a561-ac7ff80ad8f1","system_id":"levelo_inurba_marseille","lat":43.29685,"lon":5.37292,"is_reserved":false,"is_disabled":false,"rental_uris":{"android":"levelo://app?vid=bddad328-e642-4eef-a561-ac7ff80ad8f1","ios":"levelo://app?vid=bddad328-e642-4eef-a561-ac7ff80ad8f1"},"vehicle_type_id":"4","last_reported":1686920980,"current_range_meters":20400,"station_id":"ce4bgk12rcd13ifvqbj0","pricing_plan_id":"free"},{"bike_id":"88d0330c-5bb0-4a19-9b65-d4683b42e015","system_id":"levelo_inurba_marseille","lat":43.29683,"lon":5.36046,"is_reserved":false,"is_disabled":false,"rental_uris":{"android":"levelo://app?vid=88d0330c-5bb0-4a19-9b65-d4683b42e015","ios":"levelo://app?vid=88d0330c-5bb0-4a19-9b65-d4683b42e015"},"vehicle_type_id":"4","last_reported":1686920980,"current_range_meters":10400,"station_id":"ce4bgpp2rcd13ifvqc3g","pricing_plan_id":"free"},{"bike_id":"a8b104a4-e3f4-4ab3-a8b1-902d84e74fd2","system_id":"levelo_inurba_marseille","lat":43.29577,"lon":5.36742,"is_reserved":false,"is_disabled":false,"rental_uris":{"android":"levelo://app?vid=a8b104a4-e3f4-4ab3-a8b1-902d84e74fd2","ios":"levelo://app?vid=a8b104a4-e3f4-4ab3-a8b1-902d84e74fd2"},"vehicle_type_id":"4","last_reported":1686920980,"current_range_meters":17600,"station_id":"ce4bgph2rcd13ifvqc2g","pricing_plan_id":"free"},{"bike_id":"43ac98f2-c54d-4b68-be13-e177e42e9238","system_id":"levelo_inurba_marseille","lat":43.299028,"lon":5.381509,"is_reserved":false,"is_disabled":false,"rental_uris":{"android":"levelo://app?vid=43ac98f2-c54d-4b68-be13-e177e42e9238","ios":"levelo://app?vid=43ac98f2-c54d-4b68-be13-e177e42e9238"},"vehicle_type_id":"4","last_reported":1686920980,"current_range_meters":18800,"station_id":"ce4bgj12rcd13ifvqbc0","pricing_plan_id":"free"},{"bike_id":"2262f3f3-10b4-42bc-8ee3-52d8d8fdfd35","system_id":"levelo_inurba_marseille","lat":43.29719,"lon":5.37687,"is_reserved":false,"is_disabled":false,"rental_uris":{"android":"levelo://app?vid=2262f3f3-10b4-42bc-8ee3-52d8d8fdfd35","ios":"levelo://app?vid=2262f3f3-10b4-42bc-8ee3-52d8d8fdfd35"},"vehicle_type_id":"4","last_reported":1686920980,"current_range_meters":15600,"station_id":"ce4bgkh2rcd13ifvqbl0","pricing_plan_id":"free"},{"bike_id":"6c294dc2-6852-4079-b0be-4afdd4311a44","system_id":"levelo_inurba_marseille","lat":43.296921,"lon":5.376579,"is_reserved":false,"is_disabled":false,"rental_uris":{"android":"levelo://app?vid=6c294dc2-6852-4079-b0be-4afdd4311a44","ios":"levelo://app?vid=6c294dc2-6852-4079-b0be-4afdd4311a44"},"vehicle_type_id":"4","last_reported":1686920980,"current_range_meters":4000,"station_id":"ce4bgkh2rcd13ifvqbl0","pricing_plan_id":"free"},{"bike_id":"17e193f8-d5fa-4cb7-8e20-6f6dcec5c8b7","system_id":"levelo_inurba_marseille","lat":43.296935,"lon":5.376544,"is_reserved":false,"is_disabled":false,"rental_uris":{"android":"levelo://app?vid=17e193f8-d5fa-4cb7-8e20-6f6dcec5c8b7","ios":"levelo://app?vid=17e193f8-d5fa-4cb7-8e20-6f6dcec5c8b7"},"vehicle_type_id":"4","last_reported":1686920980,"current_range_meters":0,"station_id":"ce4bgkh2rcd13ifvqbl0","pricing_plan_id":"free"},{"bike_id":"5194d3e7-04a0-46b9-9a3f-8d0e1b13fae5","system_id":"levelo_inurba_marseille","lat":43.309589,"lon":5.390258,"is_reserved":false,"is_disabled":false,"rental_uris":{"android":"levelo://app?vid=5194d3e7-04a0-46b9-9a3f-8d0e1b13fae5","ios":"levelo://app?vid=5194d3e7-04a0-46b9-9a3f-8d0e1b13fae5"},"vehicle_type_id":"4","last_reported":1686920980,"current_range_meters":22800,"station_id":"ce4bgup2rcd13ifvqco0","pricing_plan_id":"free"},{"bike_id":"f6d8d04c-c80e-4114-a31c-1b267add2c03","system_id":"levelo_inurba_marseille","lat":43.296921,"lon":5.376579,"is_reserved":false,"is_disabled":false,"rental_uris":{"android":"levelo://app?vid=f6d8d04c-c80e-4114-a31c-1b267add2c03","ios":"levelo://app?vid=f6d8d04c-c80e-4114-a31c-1b267add2c03"},"vehicle_type_id":"4","last_reported":1686920980,"current_range_meters":17600,"station_id":"ce4bgkh2rcd13ifvqbl0","pricing_plan_id":"free"},{"bike_id":"42cc9a14-1345-495d-9040-b943f10638d0","system_id":"levelo_inurba_marseille","lat":43.299045,"lon":5.381522,"is_reserved":false,"is_disabled":false,"rental_uris":{"android":"levelo://app?vid=42cc9a14-1345-495d-9040-b943f10638d0","ios":"levelo://app?vid=42cc9a14-1345-495d-9040-b943f10638d0"},"vehicle_type_id":"4","last_reported":1686920980,"current_range_meters":29200,"station_id":"ce4bgj12rcd13ifvqbc0","pricing_plan_id":"free"},{"bike_id":"4646b6c3-baab-44ee-b82f-2f8d1ea058a4","system_id":"levelo_inurba_marseille","lat":43.317557,"lon":5.390173,"is_reserved":false,"is_disabled":false,"rental_uris":{"android":"levelo://app?vid=4646b6c3-baab-44ee-b82f-2f8d1ea058a4","ios":"levelo://app?vid=4646b6c3-baab-44ee-b82f-2f8d1ea058a4"},"vehicle_type_id":"4","last_reported":1686920980,"current_range_meters":4800,"station_id":"ce4bhqp2rcd13ifvqhng","pricing_plan_id":"free"},{"bike_id":"84711202-47c1-499a-9a42-0e251b23e169","system_id":"levelo_inurba_marseille","lat":43.317557,"lon":5.390173,"is_reserved":false,"is_disabled":false,"rental_uris":{"android":"levelo://app?vid=84711202-47c1-499a-9a42-0e251b23e169","ios":"levelo://app?vid=84711202-47c1-499a-9a42-0e251b23e169"},"vehicle_type_id":"4","last_reported":1686920980,"current_range_meters":21600,"station_id":"ce4bhqp2rcd13ifvqhng","pricing_plan_id":"free"},{"bike_id":"250c8a96-8498-4211-b8f3-1b00a8d1fbaf","system_id":"levelo_inurba_marseille","lat":43.296477,"lon":5.37768,"is_reserved":false,"is_disabled":false,"rental_uris":{"android":"levelo://app?vid=250c8a96-8498-4211-b8f3-1b00a8d1fbaf","ios":"levelo://app?vid=250c8a96-8498-4211-b8f3-1b00a8d1fbaf"},"vehicle_type_id":"4","last_reported":1686920980,"current_range_meters":20400,"station_id":"","pricing_plan_id":"free"},{"bike_id":"910fbffc-9b82-4ce6-80a3-fa7042cb35f1","system_id":"levelo_inurba_marseille","lat":43.296277,"lon":5.377108,"is_reserved":false,"is_disabled":false,"rental_uris":{"android":"levelo://app?vid=910fbffc-9b82-4ce6-80a3-fa7042cb35f1","ios":"levelo://app?vid=910fbffc-9b82-4ce6-80a3-fa7042cb35f1"},"vehicle_type_id":"4","last_reported":1686920980,"current_range_meters":11600,"station_id":"ce4bgi92rcd13ifvqb90","pricing_plan_id":"free"},{"bike_id":"367de725-053d-4906-b482-5a0c3e031059","system_id":"levelo_inurba_marseille","lat":43.296263,"lon":5.377094,"is_reserved":false,"is_disabled":false,"rental_uris":{"android":"levelo://app?vid=367de725-053d-4906-b482-5a0c3e031059","ios":"levelo://app?vid=367de725-053d-4906-b482-5a0c3e031059"},"vehicle_type_id":"4","last_reported":1686920980,"current_range_meters":1200,"station_id":"ce4bgi92rcd13ifvqb90","pricing_plan_id":"free"},{"bike_id":"deb012da-ef44-4d1e-a5cf-aa7c5f47ec60","system_id":"levelo_inurba_marseille","lat":43.3037,"lon":5.38897,"is_reserved":false,"is_disabled":false,"rental_uris":{"android":"levelo://app?vid=deb012da-ef44-4d1e-a5cf-aa7c5f47ec60","ios":"levelo://app?vid=deb012da-ef44-4d1e-a5cf-aa7c5f47ec60"},"vehicle_type_id":"4","last_reported":1686920980,"current_range_meters":3600,"station_id":"","pricing_plan_id":"free"},{"bike_id":"2c49d0c1-3a19-4af4-b093-9311c546db34","system_id":"levelo_inurba_marseille","lat":43.295279,"lon":5.375048,"is_reserved":false,"is_disabled":false,"rental_uris":{"android":"levelo://app?vid=2c49d0c1-3a19-4af4-b093-9311c546db34","ios":"levelo://app?vid=2c49d0c1-3a19-4af4-b093-9311c546db34"},"vehicle_type_id":"4","last_reported":1686920980,"current_range_meters":30000,"station_id":"ce4bgkp2rcd13ifvqbmg","pricing_plan_id":"free"},{"bike_id":"8ff43016-effc-4157-b871-584c11706f73","system_id":"levelo_inurba_marseille","lat":43.3236,"lon":5.38871,"is_reserved":false,"is_disabled":false,"rental_uris":{"android":"levelo://app?vid=8ff43016-effc-4157-b871-584c11706f73","ios":"levelo://app?vid=8ff43016-effc-4157-b871-584c11706f73"},"vehicle_type_id":"4","last_reported":1686920980,"current_range_meters":28000,"station_id":"ce4bhqp2rcd13ifvqhog","pricing_plan_id":"free"},{"bike_id":"2c9ad911-25e0-4222-8751-d809dfadd582","system_id":"levelo_inurba_marseille","lat":43.32365,"lon":5.38869,"is_reserved":false,"is_disabled":false,"rental_uris":{"android":"levelo://app?vid=2c9ad911-25e0-4222-8751-d809dfadd582","ios":"levelo://app?vid=2c9ad911-25e0-4222-8751-d809dfadd582"},"vehicle_type_id":"4","last_reported":1686920980,"current_range_meters":6000,"station_id":"ce4bhqp2rcd13ifvqhog","pricing_plan_id":"free"},{"bike_id":"242f12a2-fa6d-4b5f-9c1c-53e395dd5e66","system_id":"levelo_inurba_marseille","lat":43.32364,"lon":5.38874,"is_reserved":false,"is_disabled":false,"rental_uris":{"android":"levelo://app?vid=242f12a2-fa6d-4b5f-9c1c-53e395dd5e66","ios":"levelo://app?vid=242f12a2-fa6d-4b5f-9c1c-53e395dd5e66"},"vehicle_type_id":"4","last_reported":1686920980,"current_range_meters":19600,"station_id":"ce4bhqp2rcd13ifvqhog","pricing_plan_id":"free"},{"bike_id":"78215555-c896-40a2-aa66-c1d318a07622","system_id":"levelo_inurba_marseille","lat":43.32366,"lon":5.38874,"is_reserved":false,"is_disabled":false,"rental_uris":{"android":"levelo://app?vid=78215555-c896-40a2-aa66-c1d318a07622","ios":"levelo://app?vid=78215555-c896-40a2-aa66-c1d318a07622"},"vehicle_type_id":"4","last_reported":1686920980,"current_range_meters":10800,"station_id":"ce4bhqp2rcd13ifvqhog","pricing_plan_id":"free"},{"bike_id":"11f9ee07-7ce1-4e8e-9c06-00e5e07ef9fb","system_id":"levelo_inurba_marseille","lat":43.3236,"lon":5.38881,"is_reserved":false,"is_disabled":false,"rental_uris":{"android":"levelo://app?vid=11f9ee07-7ce1-4e8e-9c06-00e5e07ef9fb","ios":"levelo://app?vid=11f9ee07-7ce1-4e8e-9c06-00e5e07ef9fb"},"vehicle_type_id":"4","last_reported":1686920980,"current_range_meters":12400,"station_id":"ce4bhqp2rcd13ifvqhog","pricing_plan_id":"free"},{"bike_id":"71deb49d-5864-4461-882a-e14e759319e0","system_id":"levelo_inurba_marseille","lat":43.32365,"lon":5.38883,"is_reserved":false,"is_disabled":false,"rental_uris":{"android":"levelo://app?vid=71deb49d-5864-4461-882a-e14e759319e0","ios":"levelo://app?vid=71deb49d-5864-4461-882a-e14e759319e0"},"vehicle_type_id":"4","last_reported":1686920980,"current_range_meters":6800,"station_id":"ce4bhqp2rcd13ifvqhog","pricing_plan_id":"free"},{"bike_id":"20a5b24d-b520-42df-8ac4-5a606a1b7de6","system_id":"levelo_inurba_marseille","lat":43.32366,"lon":5.38887,"is_reserved":false,"is_disabled":false,"rental_uris":{"android":"levelo://app?vid=20a5b24d-b520-42df-8ac4-5a606a1b7de6","ios":"levelo://app?vid=20a5b24d-b520-42df-8ac4-5a606a1b7de6"},"vehicle_type_id":"4","last_reported":1686920980,"current_range_meters":31200,"station_id":"ce4bhqp2rcd13ifvqhog","pricing_plan_id":"free"},{"bike_id":"2ae4ff3c-4e57-4441-babd-9fa6f01eee2a","system_id":"levelo_inurba_marseille","lat":43.32367,"lon":5.388836,"is_reserved":false,"is_disabled":false,"rental_uris":{"android":"levelo://app?vid=2ae4ff3c-4e57-4441-babd-9fa6f01eee2a","ios":"levelo://app?vid=2ae4ff3c-4e57-4441-babd-9fa6f01eee2a"},"vehicle_type_id":"4","last_reported":1686920980,"current_range_meters":15200,"station_id":"ce4bhqp2rcd13ifvqhog","pricing_plan_id":"free"},{"bike_id":"3d632aa1-0624-4d30-990a-fb680260cfc0","system_id":"levelo_inurba_marseille","lat":43.29601,"lon":5.381084,"is_reserved":false,"is_disabled":false,"rental_uris":{"android":"levelo://app?vid=3d632aa1-0624-4d30-990a-fb680260cfc0","ios":"levelo://app?vid=3d632aa1-0624-4d30-990a-fb680260cfc0"},"vehicle_type_id":"4","last_reported":1686920980,"current_range_meters":4800,"station_id":"ce4bgl12rcd13ifvqbo0","pricing_plan_id":"free"},{"bike_id":"594eac2f-1806-4de2-bbd3-5bc42ad9a581","system_id":"levelo_inurba_marseille","lat":43.293009,"lon":5.374584,"is_reserved":false,"is_disabled":false,"rental_uris":{"android":"levelo://app?vid=594eac2f-1806-4de2-bbd3-5bc42ad9a581","ios":"levelo://app?vid=594eac2f-1806-4de2-bbd3-5bc42ad9a581"},"vehicle_type_id":"4","last_reported":1686920980,"current_range_meters":7600,"station_id":"ce4bgi12rcd13ifvqb70","pricing_plan_id":"free"},{"bike_id":"337c3bd9-1b39-4869-aba6-e5253d893fc6","system_id":"levelo_inurba_marseille","lat":43.293009,"lon":5.374584,"is_reserved":false,"is_disabled":false,"rental_uris":{"android":"levelo://app?vid=337c3bd9-1b39-4869-aba6-e5253d893fc6","ios":"levelo://app?vid=337c3bd9-1b39-4869-aba6-e5253d893fc6"},"vehicle_type_id":"4","last_reported":1686920980,"current_range_meters":21600,"station_id":"ce4bgi12rcd13ifvqb70","pricing_plan_id":"free"},{"bike_id":"8b008e9c-20e6-4e43-bfbb-aa5c0f7bfc4b","system_id":"levelo_inurba_marseille","lat":43.29272,"lon":5.35988,"is_reserved":false,"is_disabled":false,"rental_uris":{"android":"levelo://app?vid=8b008e9c-20e6-4e43-bfbb-aa5c0f7bfc4b","ios":"levelo://app?vid=8b008e9c-20e6-4e43-bfbb-aa5c0f7bfc4b"},"vehicle_type_id":"4","last_reported":1686920980,"current_range_meters":14000,"station_id":"","pricing_plan_id":"free"},{"bike_id":"91e4acbe-b470-4ceb-9b9f-af323e1a653f","system_id":"levelo_inurba_marseille","lat":43.2936,"lon":5.37835,"is_reserved":false,"is_disabled":false,"rental_uris":{"android":"levelo://app?vid=91e4acbe-b470-4ceb-9b9f-af323e1a653f","ios":"levelo://app?vid=91e4acbe-b470-4ceb-9b9f-af323e1a653f"},"vehicle_type_id":"4","last_reported":1686920980,"current_range_meters":800,"station_id":"ce4bgjh2rcd13ifvqbf0","pricing_plan_id":"free"},{"bike_id":"9cf99160-f394-4b31-b726-c6e676c591e5","system_id":"levelo_inurba_marseille","lat":43.290104,"lon":5.356111,"is_reserved":false,"is_disabled":false,"rental_uris":{"android":"levelo://app?vid=9cf99160-f394-4b31-b726-c6e676c591e5","ios":"levelo://app?vid=9cf99160-f394-4b31-b726-c6e676c591e5"},"vehicle_type_id":"4","last_reported":1686920980,"current_range_meters":12000,"station_id":"ce4bhb92rcd13ifvqen0","pricing_plan_id":"free"},{"bike_id":"c7e0a65f-2a9e-44ac-a348-8f068f090aca","system_id":"levelo_inurba_marseille","lat":43.273613,"lon":5.362705,"is_reserved":false,"is_disabled":false,"rental_uris":{"android":"levelo://app?vid=c7e0a65f-2a9e-44ac-a348-8f068f090aca","ios":"levelo://app?vid=c7e0a65f-2a9e-44ac-a348-8f068f090aca"},"vehicle_type_id":"4","last_reported":1686920980,"current_range_meters":4400,"station_id":"ce4bhbh2rcd13ifvqeo0","pricing_plan_id":"free"},{"bike_id":"fa3b25c3-515a-4fcc-b175-7313cb1c01db","system_id":"levelo_inurba_marseille","lat":43.291994,"lon":5.357886,"is_reserved":false,"is_disabled":false,"rental_uris":{"android":"levelo://app?vid=fa3b25c3-515a-4fcc-b175-7313cb1c01db","ios":"levelo://app?vid=fa3b25c3-515a-4fcc-b175-7313cb1c01db"},"vehicle_type_id":"4","last_reported":1686920980,"current_range_meters":16800,"station_id":"ce4bhb12rcd13ifvqel0","pricing_plan_id":"free"},{"bike_id":"07b7cff5-8172-4863-a504-679956698d0b","system_id":"levelo_inurba_marseille","lat":43.291994,"lon":5.357886,"is_reserved":false,"is_disabled":false,"rental_uris":{"android":"levelo://app?vid=07b7cff5-8172-4863-a504-679956698d0b","ios":"levelo://app?vid=07b7cff5-8172-4863-a504-679956698d0b"},"vehicle_type_id":"4","last_reported":1686920980,"current_range_meters":24400,"station_id":"ce4bhb12rcd13ifvqel0","pricing_plan_id":"free"},{"bike_id":"f88725d7-7e03-4a64-992a-7b0ea684060e","system_id":"levelo_inurba_marseille","lat":43.295267,"lon":5.385374,"is_reserved":false,"is_disabled":false,"rental_uris":{"android":"levelo://app?vid=f88725d7-7e03-4a64-992a-7b0ea684060e","ios":"levelo://app?vid=f88725d7-7e03-4a64-992a-7b0ea684060e"},"vehicle_type_id":"4","last_reported":1686920980,"current_range_meters":0,"station_id":"ce4bgih2rcd13ifvqba0","pricing_plan_id":"free"},{"bike_id":"c06dee76-2c76-418d-ae90-5d60d1ce98c3","system_id":"levelo_inurba_marseille","lat":43.302008,"lon":5.394694,"is_reserved":false,"is_disabled":false,"rental_uris":{"android":"levelo://app?vid=c06dee76-2c76-418d-ae90-5d60d1ce98c3","ios":"levelo://app?vid=c06dee76-2c76-418d-ae90-5d60d1ce98c3"},"vehicle_type_id":"4","last_reported":1686920980,"current_range_meters":16000,"station_id":"ce4bh0p2rcd13ifvqd70","pricing_plan_id":"free"},{"bike_id":"6dd898f5-91c0-48fb-a470-54db94fd0155","system_id":"levelo_inurba_marseille","lat":43.290624,"lon":5.359245,"is_reserved":false,"is_disabled":false,"rental_uris":{"android":"levelo://app?vid=6dd898f5-91c0-48fb-a470-54db94fd0155","ios":"levelo://app?vid=6dd898f5-91c0-48fb-a470-54db94fd0155"},"vehicle_type_id":"4","last_reported":1686920980,"current_range_meters":12800,"station_id":"ce4bha92rcd13ifvqeg0","pricing_plan_id":"free"},{"bike_id":"e30df1e9-eb2a-4325-857c-7238587b5b07","system_id":"levelo_inurba_marseille","lat":43.290624,"lon":5.359245,"is_reserved":false,"is_disabled":false,"rental_uris":{"android":"levelo://app?vid=e30df1e9-eb2a-4325-857c-7238587b5b07","ios":"levelo://app?vid=e30df1e9-eb2a-4325-857c-7238587b5b07"},"vehicle_type_id":"4","last_reported":1686920980,"current_range_meters":18000,"station_id":"ce4bha92rcd13ifvqeg0","pricing_plan_id":"free"},{"bike_id":"38eb09af-7166-42b9-865e-84246929498f","system_id":"levelo_inurba_marseille","lat":43.294153,"lon":5.386305,"is_reserved":false,"is_disabled":false,"rental_uris":{"android":"levelo://app?vid=38eb09af-7166-42b9-865e-84246929498f","ios":"levelo://app?vid=38eb09af-7166-42b9-865e-84246929498f"},"vehicle_type_id":"4","last_reported":1686920980,"current_range_meters":31200,"station_id":"ce4bh2h2rcd13ifvqdh0","pricing_plan_id":"free"},{"bike_id":"83d7008a-2430-4db2-bab7-449e70183b1c","system_id":"levelo_inurba_marseille","lat":43.304296,"lon":5.397513,"is_reserved":false,"is_disabled":false,"rental_uris":{"android":"levelo://app?vid=83d7008a-2430-4db2-bab7-449e70183b1c","ios":"levelo://app?vid=83d7008a-2430-4db2-bab7-449e70183b1c"},"vehicle_type_id":"4","last_reported":1686920980,"current_range_meters":4800,"station_id":"ce4bh092rcd13ifvqd20","pricing_plan_id":"free"},{"bike_id":"3511ff49-fe34-4bd5-ba38-27f1dd7ca595","system_id":"levelo_inurba_marseille","lat":43.301117,"lon":5.398795,"is_reserved":false,"is_disabled":false,"rental_uris":{"android":"levelo://app?vid=3511ff49-fe34-4bd5-ba38-27f1dd7ca595","ios":"levelo://app?vid=3511ff49-fe34-4bd5-ba38-27f1dd7ca595"},"vehicle_type_id":"4","last_reported":1686920980,"current_range_meters":9600,"station_id":"ce4bh0h2rcd13ifvqd40","pricing_plan_id":"free"},{"bike_id":"85d5d023-d051-425f-8c39-d0b8c64f8fbd","system_id":"levelo_inurba_marseille","lat":43.3304,"lon":5.38914,"is_reserved":false,"is_disabled":false,"rental_uris":{"android":"levelo://app?vid=85d5d023-d051-425f-8c39-d0b8c64f8fbd","ios":"levelo://app?vid=85d5d023-d051-425f-8c39-d0b8c64f8fbd"},"vehicle_type_id":"4","last_reported":1686920980,"current_range_meters":29600,"station_id":"ce4bhr92rcd13ifvqhrg","pricing_plan_id":"free"},{"bike_id":"a4d2814a-ff66-466e-b091-93a97eadc809","system_id":"levelo_inurba_marseille","lat":43.33042,"lon":5.38918,"is_reserved":false,"is_disabled":false,"rental_uris":{"android":"levelo://app?vid=a4d2814a-ff66-466e-b091-93a97eadc809","ios":"levelo://app?vid=a4d2814a-ff66-466e-b091-93a97eadc809"},"vehicle_type_id":"4","last_reported":1686920980,"current_range_meters":28800,"station_id":"ce4bhr92rcd13ifvqhrg","pricing_plan_id":"free"},{"bike_id":"0366db49-0c9c-470e-8482-6613bdd4576d","system_id":"levelo_inurba_marseille","lat":43.330442,"lon":5.389148,"is_reserved":false,"is_disabled":false,"rental_uris":{"android":"levelo://app?vid=0366db49-0c9c-470e-8482-6613bdd4576d","ios":"levelo://app?vid=0366db49-0c9c-470e-8482-6613bdd4576d"},"vehicle_type_id":"4","last_reported":1686920980,"current_range_meters":8800,"station_id":"ce4bhr92rcd13ifvqhrg","pricing_plan_id":"free"},{"bike_id":"a8856bc1-1760-4883-84fd-c3ad3962ebf7","system_id":"levelo_inurba_marseille","lat":43.290104,"lon":5.356111,"is_reserved":false,"is_disabled":false,"rental_uris":{"android":"levelo://app?vid=a8856bc1-1760-4883-84fd-c3ad3962ebf7","ios":"levelo://app?vid=a8856bc1-1760-4883-84fd-c3ad3962ebf7"},"vehicle_type_id":"4","last_reported":1686920980,"current_range_meters":10400,"station_id":"ce4bhb92rcd13ifvqen0","pricing_plan_id":"free"},{"bike_id":"509966c3-7f2e-46f5-b740-622e9ecc7dd5","system_id":"levelo_inurba_marseille","lat":43.29007,"lon":5.35609,"is_reserved":false,"is_disabled":false,"rental_uris":{"android":"levelo://app?vid=509966c3-7f2e-46f5-b740-622e9ecc7dd5","ios":"levelo://app?vid=509966c3-7f2e-46f5-b740-622e9ecc7dd5"},"vehicle_type_id":"4","last_reported":1686920980,"current_range_meters":13200,"station_id":"","pricing_plan_id":"free"},{"bike_id":"0ef4bab2-f660-4358-800c-ce22149d8390","system_id":"levelo_inurba_marseille","lat":43.290104,"lon":5.356111,"is_reserved":false,"is_disabled":false,"rental_uris":{"android":"levelo://app?vid=0ef4bab2-f660-4358-800c-ce22149d8390","ios":"levelo://app?vid=0ef4bab2-f660-4358-800c-ce22149d8390"},"vehicle_type_id":"4","last_reported":1686920980,"current_range_meters":6800,"station_id":"ce4bhb92rcd13ifvqen0","pricing_plan_id":"free"},{"bike_id":"76c120a3-1ba8-443b-9fd1-eaf6dc659b0b","system_id":"levelo_inurba_marseille","lat":43.290104,"lon":5.356111,"is_reserved":false,"is_disabled":false,"rental_uris":{"android":"levelo://app?vid=76c120a3-1ba8-443b-9fd1-eaf6dc659b0b","ios":"levelo://app?vid=76c120a3-1ba8-443b-9fd1-eaf6dc659b0b"},"vehicle_type_id":"4","last_reported":1686920980,"current_range_meters":28400,"station_id":"ce4bhb92rcd13ifvqen0","pricing_plan_id":"free"},{"bike_id":"c0fb8083-e02d-4dec-b1b9-fa095e6c5b75","system_id":"levelo_inurba_marseille","lat":43.337396,"lon":5.374526,"is_reserved":false,"is_disabled":false,"rental_uris":{"android":"levelo://app?vid=c0fb8083-e02d-4dec-b1b9-fa095e6c5b75","ios":"levelo://app?vid=c0fb8083-e02d-4dec-b1b9-fa095e6c5b75"},"vehicle_type_id":"4","last_reported":1686920980,"current_range_meters":1200,"station_id":"ce4bhp92rcd13ifvqhag","pricing_plan_id":"free"},{"bike_id":"c5f027c7-8cb7-4525-93bc-b8fe989a811d","system_id":"levelo_inurba_marseille","lat":43.33768,"lon":5.37433,"is_reserved":false,"is_disabled":false,"rental_uris":{"android":"levelo://app?vid=c5f027c7-8cb7-4525-93bc-b8fe989a811d","ios":"levelo://app?vid=c5f027c7-8cb7-4525-93bc-b8fe989a811d"},"vehicle_type_id":"4","last_reported":1686920980,"current_range_meters":31200,"station_id":"","pricing_plan_id":"free"},{"bike_id":"beec18ee-3691-499a-be10-265b32b80e0d","system_id":"levelo_inurba_marseille","lat":43.286591,"lon":5.363346,"is_reserved":false,"is_disabled":false,"rental_uris":{"android":"levelo://app?vid=beec18ee-3691-499a-be10-265b32b80e0d","ios":"levelo://app?vid=beec18ee-3691-499a-be10-265b32b80e0d"},"vehicle_type_id":"4","last_reported":1686920980,"current_range_meters":22800,"station_id":"ce4bhah2rcd13ifvqej0","pricing_plan_id":"free"},{"bike_id":"5206566d-6373-465d-8ad0-7c97f096c37d","system_id":"levelo_inurba_marseille","lat":43.286593,"lon":5.363346,"is_reserved":false,"is_disabled":false,"rental_uris":{"android":"levelo://app?vid=5206566d-6373-465d-8ad0-7c97f096c37d","ios":"levelo://app?vid=5206566d-6373-465d-8ad0-7c97f096c37d"},"vehicle_type_id":"4","last_reported":1686920980,"current_range_meters":17600,"station_id":"ce4bhah2rcd13ifvqej0","pricing_plan_id":"free"},{"bike_id":"742933d1-35b0-416d-8d8e-fbaa8c963074","system_id":"levelo_inurba_marseille","lat":43.298681,"lon":5.397225,"is_reserved":false,"is_disabled":false,"rental_uris":{"android":"levelo://app?vid=742933d1-35b0-416d-8d8e-fbaa8c963074","ios":"levelo://app?vid=742933d1-35b0-416d-8d8e-fbaa8c963074"},"vehicle_type_id":"4","last_reported":1686920980,"current_range_meters":6400,"station_id":"ce4bh0h2rcd13ifvqd50","pricing_plan_id":"free"},{"bike_id":"5abbc38a-4aba-4a6e-b8c0-f75e13c10895","system_id":"levelo_inurba_marseille","lat":43.295194,"lon":5.39397,"is_reserved":false,"is_disabled":false,"rental_uris":{"android":"levelo://app?vid=5abbc38a-4aba-4a6e-b8c0-f75e13c10895","ios":"levelo://app?vid=5abbc38a-4aba-4a6e-b8c0-f75e13c10895"},"vehicle_type_id":"4","last_reported":1686920980,"current_range_meters":21600,"station_id":"ce4bh292rcd13ifvqdf0","pricing_plan_id":"free"},{"bike_id":"8ba66736-5d96-4129-b803-04a0951f3027","system_id":"levelo_inurba_marseille","lat":43.295196,"lon":5.39397,"is_reserved":false,"is_disabled":false,"rental_uris":{"android":"levelo://app?vid=8ba66736-5d96-4129-b803-04a0951f3027","ios":"levelo://app?vid=8ba66736-5d96-4129-b803-04a0951f3027"},"vehicle_type_id":"4","last_reported":1686920980,"current_range_meters":11200,"station_id":"ce4bh292rcd13ifvqdf0","pricing_plan_id":"free"},{"bike_id":"69d087bc-354e-46f4-9d00-5c052c0de858","system_id":"levelo_inurba_marseille","lat":43.302759,"lon":5.400793,"is_reserved":false,"is_disabled":false,"rental_uris":{"android":"levelo://app?vid=69d087bc-354e-46f4-9d00-5c052c0de858","ios":"levelo://app?vid=69d087bc-354e-46f4-9d00-5c052c0de858"},"vehicle_type_id":"4","last_reported":1686920980,"current_range_meters":12000,"station_id":"ce4bgvh2rcd13ifvqcs0","pricing_plan_id":"free"},{"bike_id":"dfcc9ea5-8b1b-4447-a2e3-5870d1ae47e7","system_id":"levelo_inurba_marseille","lat":43.28613,"lon":5.37059,"is_reserved":false,"is_disabled":false,"rental_uris":{"android":"levelo://app?vid=dfcc9ea5-8b1b-4447-a2e3-5870d1ae47e7","ios":"levelo://app?vid=dfcc9ea5-8b1b-4447-a2e3-5870d1ae47e7"},"vehicle_type_id":"4","last_reported":1686920980,"current_range_meters":17600,"station_id":"ce4bht12rcd13ifvqi60","pricing_plan_id":"free"},{"bike_id":"72781a94-7ae6-4b03-950f-85b23b500eb4","system_id":"levelo_inurba_marseille","lat":43.28611,"lon":5.37063,"is_reserved":false,"is_disabled":false,"rental_uris":{"android":"levelo://app?vid=72781a94-7ae6-4b03-950f-85b23b500eb4","ios":"levelo://app?vid=72781a94-7ae6-4b03-950f-85b23b500eb4"},"vehicle_type_id":"4","last_reported":1686920980,"current_range_meters":5200,"station_id":"ce4bht12rcd13ifvqi60","pricing_plan_id":"free"},{"bike_id":"9a4a62da-c1fa-4a82-bad5-2eb03c8855af","system_id":"levelo_inurba_marseille","lat":43.316517,"lon":5.404375,"is_reserved":false,"is_disabled":false,"rental_uris":{"android":"levelo://app?vid=9a4a62da-c1fa-4a82-bad5-2eb03c8855af","ios":"levelo://app?vid=9a4a62da-c1fa-4a82-bad5-2eb03c8855af"},"vehicle_type_id":"4","last_reported":1686920980,"current_range_meters":400,"station_id":"ce4bh012rcd13ifvqd00","pricing_plan_id":"free"},{"bike_id":"aaa69ff7-a339-4483-99ca-c8fa04d8d16b","system_id":"levelo_inurba_marseille","lat":43.316517,"lon":5.404375,"is_reserved":false,"is_disabled":false,"rental_uris":{"android":"levelo://app?vid=aaa69ff7-a339-4483-99ca-c8fa04d8d16b","ios":"levelo://app?vid=aaa69ff7-a339-4483-99ca-c8fa04d8d16b"},"vehicle_type_id":"4","last_reported":1686920980,"current_range_meters":26000,"station_id":"ce4bh012rcd13ifvqd00","pricing_plan_id":"free"},{"bike_id":"bdb94eef-b4db-437d-a48c-72058d81deef","system_id":"levelo_inurba_marseille","lat":43.316517,"lon":5.404375,"is_reserved":false,"is_disabled":false,"rental_uris":{"android":"levelo://app?vid=bdb94eef-b4db-437d-a48c-72058d81deef","ios":"levelo://app?vid=bdb94eef-b4db-437d-a48c-72058d81deef"},"vehicle_type_id":"4","last_reported":1686920980,"current_range_meters":12800,"station_id":"ce4bh012rcd13ifvqd00","pricing_plan_id":"free"},{"bike_id":"728f349d-fece-4c60-ab6c-a0f5afa71f16","system_id":"levelo_inurba_marseille","lat":43.316517,"lon":5.404375,"is_reserved":false,"is_disabled":false,"rental_uris":{"android":"levelo://app?vid=728f349d-fece-4c60-ab6c-a0f5afa71f16","ios":"levelo://app?vid=728f349d-fece-4c60-ab6c-a0f5afa71f16"},"vehicle_type_id":"4","last_reported":1686920980,"current_range_meters":17600,"station_id":"ce4bh012rcd13ifvqd00","pricing_plan_id":"free"},{"bike_id":"878c5047-7736-4af1-8c97-2b22026728ee","system_id":"levelo_inurba_marseille","lat":43.316517,"lon":5.404375,"is_reserved":false,"is_disabled":false,"rental_uris":{"android":"levelo://app?vid=878c5047-7736-4af1-8c97-2b22026728ee","ios":"levelo://app?vid=878c5047-7736-4af1-8c97-2b22026728ee"},"vehicle_type_id":"4","last_reported":1686920980,"current_range_meters":14400,"station_id":"ce4bh012rcd13ifvqd00","pricing_plan_id":"free"},{"bike_id":"25c148d3-8df7-4fbf-9d59-cd4181f57804","system_id":"levelo_inurba_marseille","lat":43.316517,"lon":5.404375,"is_reserved":false,"is_disabled":false,"rental_uris":{"android":"levelo://app?vid=25c148d3-8df7-4fbf-9d59-cd4181f57804","ios":"levelo://app?vid=25c148d3-8df7-4fbf-9d59-cd4181f57804"},"vehicle_type_id":"4","last_reported":1686920980,"current_range_meters":15600,"station_id":"ce4bh012rcd13ifvqd00","pricing_plan_id":"free"},{"bike_id":"2ff73f4c-e7a4-4495-a756-832a25fae537","system_id":"levelo_inurba_marseille","lat":43.284534,"lon":5.358662,"is_reserved":false,"is_disabled":false,"rental_uris":{"android":"levelo://app?vid=2ff73f4c-e7a4-4495-a756-832a25fae537","ios":"levelo://app?vid=2ff73f4c-e7a4-4495-a756-832a25fae537"},"vehicle_type_id":"4","last_reported":1686920980,"current_range_meters":24000,"station_id":"ce4bhah2rcd13ifvqei0","pricing_plan_id":"free"},{"bike_id":"3b0f8552-6b51-4710-a76c-c592a2f439f0","system_id":"levelo_inurba_marseille","lat":43.284534,"lon":5.358662,"is_reserved":false,"is_disabled":false,"rental_uris":{"android":"levelo://app?vid=3b0f8552-6b51-4710-a76c-c592a2f439f0","ios":"levelo://app?vid=3b0f8552-6b51-4710-a76c-c592a2f439f0"},"vehicle_type_id":"4","last_reported":1686920980,"current_range_meters":8000,"station_id":"ce4bhah2rcd13ifvqei0","pricing_plan_id":"free"},{"bike_id":"cd1c6317-5a76-4187-aa55-5dc041e60ca7","system_id":"levelo_inurba_marseille","lat":43.28622,"lon":5.35105,"is_reserved":false,"is_disabled":false,"rental_uris":{"android":"levelo://app?vid=cd1c6317-5a76-4187-aa55-5dc041e60ca7","ios":"levelo://app?vid=cd1c6317-5a76-4187-aa55-5dc041e60ca7"},"vehicle_type_id":"4","last_reported":1686920980,"current_range_meters":10000,"station_id":"ce4bhch2rcd13ifvqeug","pricing_plan_id":"free"},{"bike_id":"f0e8d149-0c53-4a45-bc6b-91645e5b6793","system_id":"levelo_inurba_marseille","lat":43.28621,"lon":5.35102,"is_reserved":false,"is_disabled":false,"rental_uris":{"android":"levelo://app?vid=f0e8d149-0c53-4a45-bc6b-91645e5b6793","ios":"levelo://app?vid=f0e8d149-0c53-4a45-bc6b-91645e5b6793"},"vehicle_type_id":"4","last_reported":1686920980,"current_range_meters":31200,"station_id":"ce4bhch2rcd13ifvqeug","pricing_plan_id":"free"},{"bike_id":"5b42077e-c2e5-46d7-8c35-bda3b27698e4","system_id":"levelo_inurba_marseille","lat":43.2862,"lon":5.35104,"is_reserved":false,"is_disabled":false,"rental_uris":{"android":"levelo://app?vid=5b42077e-c2e5-46d7-8c35-bda3b27698e4","ios":"levelo://app?vid=5b42077e-c2e5-46d7-8c35-bda3b27698e4"},"vehicle_type_id":"4","last_reported":1686920980,"current_range_meters":16800,"station_id":"ce4bhch2rcd13ifvqeug","pricing_plan_id":"free"},{"bike_id":"25dfc367-fe3f-4832-ae10-74c2ca0610af","system_id":"levelo_inurba_marseille","lat":43.28618,"lon":5.35109,"is_reserved":false,"is_disabled":false,"rental_uris":{"android":"levelo://app?vid=25dfc367-fe3f-4832-ae10-74c2ca0610af","ios":"levelo://app?vid=25dfc367-fe3f-4832-ae10-74c2ca0610af"},"vehicle_type_id":"4","last_reported":1686920980,"current_range_meters":20400,"station_id":"ce4bhch2rcd13ifvqeug","pricing_plan_id":"free"},{"bike_id":"0f7dca0b-d014-4ed4-9ab8-c45cc8204e76","system_id":"levelo_inurba_marseille","lat":43.285856,"lon":5.350771,"is_reserved":false,"is_disabled":false,"rental_uris":{"android":"levelo://app?vid=0f7dca0b-d014-4ed4-9ab8-c45cc8204e76","ios":"levelo://app?vid=0f7dca0b-d014-4ed4-9ab8-c45cc8204e76"},"vehicle_type_id":"4","last_reported":1686920980,"current_range_meters":8400,"station_id":"ce4bhch2rcd13ifvqeug","pricing_plan_id":"free"},{"bike_id":"e5ebd25f-fc70-4e0b-9dfb-6049325e83b1","system_id":"levelo_inurba_marseille","lat":43.285856,"lon":5.350771,"is_reserved":false,"is_disabled":false,"rental_uris":{"android":"levelo://app?vid=e5ebd25f-fc70-4e0b-9dfb-6049325e83b1","ios":"levelo://app?vid=e5ebd25f-fc70-4e0b-9dfb-6049325e83b1"},"vehicle_type_id":"4","last_reported":1686920980,"current_range_meters":5600,"station_id":"ce4bhch2rcd13ifvqeug","pricing_plan_id":"free"},{"bike_id":"7fd4d875-9769-4ba4-936b-93672830abf7","system_id":"levelo_inurba_marseille","lat":43.28613,"lon":5.35106,"is_reserved":false,"is_disabled":false,"rental_uris":{"android":"levelo://app?vid=7fd4d875-9769-4ba4-936b-93672830abf7","ios":"levelo://app?vid=7fd4d875-9769-4ba4-936b-93672830abf7"},"vehicle_type_id":"4","last_reported":1686920980,"current_range_meters":31200,"station_id":"ce4bhch2rcd13ifvqeug","pricing_plan_id":"free"},{"bike_id":"7987188b-07aa-44f4-9a0f-bfa5304fc1ed","system_id":"levelo_inurba_marseille","lat":43.285856,"lon":5.350771,"is_reserved":false,"is_disabled":false,"rental_uris":{"android":"levelo://app?vid=7987188b-07aa-44f4-9a0f-bfa5304fc1ed","ios":"levelo://app?vid=7987188b-07aa-44f4-9a0f-bfa5304fc1ed"},"vehicle_type_id":"4","last_reported":1686920980,"current_range_meters":19600,"station_id":"ce4bhch2rcd13ifvqeug","pricing_plan_id":"free"},{"bike_id":"7777ede2-3338-47f2-a5b0-a4fd83c46e1e","system_id":"levelo_inurba_marseille","lat":43.286076,"lon":5.351108,"is_reserved":false,"is_disabled":false,"rental_uris":{"android":"levelo://app?vid=7777ede2-3338-47f2-a5b0-a4fd83c46e1e","ios":"levelo://app?vid=7777ede2-3338-47f2-a5b0-a4fd83c46e1e"},"vehicle_type_id":"4","last_reported":1686920980,"current_range_meters":31200,"station_id":"ce4bhch2rcd13ifvqeug","pricing_plan_id":"free"},{"bike_id":"1e9e4e3e-6cd2-43bc-a7f7-cac0e0c8e4f6","system_id":"levelo_inurba_marseille","lat":43.286595,"lon":5.386795,"is_reserved":false,"is_disabled":false,"rental_uris":{"android":"levelo://app?vid=1e9e4e3e-6cd2-43bc-a7f7-cac0e0c8e4f6","ios":"levelo://app?vid=1e9e4e3e-6cd2-43bc-a7f7-cac0e0c8e4f6"},"vehicle_type_id":"4","last_reported":1686920980,"current_range_meters":0,"station_id":"ce4bh492rcd13ifvqdug","pricing_plan_id":"free"},{"bike_id":"27f110bf-60e1-4124-8cea-1b24243dcc05","system_id":"levelo_inurba_marseille","lat":43.286595,"lon":5.386795,"is_reserved":false,"is_disabled":false,"rental_uris":{"android":"levelo://app?vid=27f110bf-60e1-4124-8cea-1b24243dcc05","ios":"levelo://app?vid=27f110bf-60e1-4124-8cea-1b24243dcc05"},"vehicle_type_id":"4","last_reported":1686920980,"current_range_meters":0,"station_id":"ce4bh492rcd13ifvqdug","pricing_plan_id":"free"},{"bike_id":"16e5fedd-6e86-436a-a0a2-72c7cd60a6ea","system_id":"levelo_inurba_marseille","lat":43.32334,"lon":5.4062,"is_reserved":false,"is_disabled":false,"rental_uris":{"android":"levelo://app?vid=16e5fedd-6e86-436a-a0a2-72c7cd60a6ea","ios":"levelo://app?vid=16e5fedd-6e86-436a-a0a2-72c7cd60a6ea"},"vehicle_type_id":"4","last_reported":1686920980,"current_range_meters":31200,"station_id":"ce4bhq92rcd13ifvqhjg","pricing_plan_id":"free"},{"bike_id":"0d9b1aa8-f840-4c9c-a108-c55351b3e46e","system_id":"levelo_inurba_marseille","lat":43.32337,"lon":5.4062,"is_reserved":false,"is_disabled":false,"rental_uris":{"android":"levelo://app?vid=0d9b1aa8-f840-4c9c-a108-c55351b3e46e","ios":"levelo://app?vid=0d9b1aa8-f840-4c9c-a108-c55351b3e46e"},"vehicle_type_id":"4","last_reported":1686920980,"current_range_meters":30000,"station_id":"ce4bhq92rcd13ifvqhjg","pricing_plan_id":"free"},{"bike_id":"56d43936-8fb2-4918-9ddc-41b09b46585a","system_id":"levelo_inurba_marseille","lat":43.32338,"lon":5.40623,"is_reserved":false,"is_disabled":false,"rental_uris":{"android":"levelo://app?vid=56d43936-8fb2-4918-9ddc-41b09b46585a","ios":"levelo://app?vid=56d43936-8fb2-4918-9ddc-41b09b46585a"},"vehicle_type_id":"4","last_reported":1686920980,"current_range_meters":24000,"station_id":"ce4bhq92rcd13ifvqhjg","pricing_plan_id":"free"},{"bike_id":"70a5411f-5615-4957-82b4-6068291672d1","system_id":"levelo_inurba_marseille","lat":43.288583,"lon":5.393262,"is_reserved":false,"is_disabled":false,"rental_uris":{"android":"levelo://app?vid=70a5411f-5615-4957-82b4-6068291672d1","ios":"levelo://app?vid=70a5411f-5615-4957-82b4-6068291672d1"},"vehicle_type_id":"4","last_reported":1686920980,"current_range_meters":31200,"station_id":"ce4bh2p2rcd13ifvqdi0","pricing_plan_id":"free"},{"bike_id":"00b4d942-d645-4a17-a320-9c02b5ecca68","system_id":"levelo_inurba_marseille","lat":43.288497,"lon":5.393089,"is_reserved":false,"is_disabled":false,"rental_uris":{"android":"levelo://app?vid=00b4d942-d645-4a17-a320-9c02b5ecca68","ios":"levelo://app?vid=00b4d942-d645-4a17-a320-9c02b5ecca68"},"vehicle_type_id":"4","last_reported":1686920980,"current_range_meters":29600,"station_id":"ce4bh2p2rcd13ifvqdi0","pricing_plan_id":"free"},{"bike_id":"b2f793be-53b6-4e9d-8cbe-2ccfd6c30d8f","system_id":"levelo_inurba_marseille","lat":43.283498,"lon":5.380948,"is_reserved":false,"is_disabled":false,"rental_uris":{"android":"levelo://app?vid=b2f793be-53b6-4e9d-8cbe-2ccfd6c30d8f","ios":"levelo://app?vid=b2f793be-53b6-4e9d-8cbe-2ccfd6c30d8f"},"vehicle_type_id":"4","last_reported":1686920980,"current_range_meters":8400,"station_id":"ce4bh412rcd13ifvqdr0","pricing_plan_id":"free"},{"bike_id":"9bb06837-9f4f-45a8-bbd5-0676b51d7054","system_id":"levelo_inurba_marseille","lat":43.283498,"lon":5.380948,"is_reserved":false,"is_disabled":false,"rental_uris":{"android":"levelo://app?vid=9bb06837-9f4f-45a8-bbd5-0676b51d7054","ios":"levelo://app?vid=9bb06837-9f4f-45a8-bbd5-0676b51d7054"},"vehicle_type_id":"4","last_reported":1686920980,"current_range_meters":21200,"station_id":"ce4bh412rcd13ifvqdr0","pricing_plan_id":"free"},{"bike_id":"5093d537-e080-4624-a3ff-7bb35f59447c","system_id":"levelo_inurba_marseille","lat":43.284219,"lon":5.3497,"is_reserved":false,"is_disabled":false,"rental_uris":{"android":"levelo://app?vid=5093d537-e080-4624-a3ff-7bb35f59447c","ios":"levelo://app?vid=5093d537-e080-4624-a3ff-7bb35f59447c"},"vehicle_type_id":"4","last_reported":1686920980,"current_range_meters":31600,"station_id":"ce4bhbh2rcd13ifvqepg","pricing_plan_id":"free"},{"bike_id":"16ef217b-4380-4b55-a65b-d380b6a359bc","system_id":"levelo_inurba_marseille","lat":43.283498,"lon":5.380948,"is_reserved":false,"is_disabled":false,"rental_uris":{"android":"levelo://app?vid=16ef217b-4380-4b55-a65b-d380b6a359bc","ios":"levelo://app?vid=16ef217b-4380-4b55-a65b-d380b6a359bc"},"vehicle_type_id":"4","last_reported":1686920980,"current_range_meters":21200,"station_id":"ce4bh412rcd13ifvqdr0","pricing_plan_id":"free"},{"bike_id":"519cb9cd-ea6a-4f0b-a1a9-16d98aa9f147","system_id":"levelo_inurba_marseille","lat":43.284219,"lon":5.3497,"is_reserved":false,"is_disabled":false,"rental_uris":{"android":"levelo://app?vid=519cb9cd-ea6a-4f0b-a1a9-16d98aa9f147","ios":"levelo://app?vid=519cb9cd-ea6a-4f0b-a1a9-16d98aa9f147"},"vehicle_type_id":"4","last_reported":1686920980,"current_range_meters":23600,"station_id":"ce4bhbh2rcd13ifvqepg","pricing_plan_id":"free"},{"bike_id":"84009cd9-d118-4860-bf41-7c4d0e0e6199","system_id":"levelo_inurba_marseille","lat":43.284219,"lon":5.3497,"is_reserved":false,"is_disabled":false,"rental_uris":{"android":"levelo://app?vid=84009cd9-d118-4860-bf41-7c4d0e0e6199","ios":"levelo://app?vid=84009cd9-d118-4860-bf41-7c4d0e0e6199"},"vehicle_type_id":"4","last_reported":1686920980,"current_range_meters":22000,"station_id":"ce4bhbh2rcd13ifvqepg","pricing_plan_id":"free"},{"bike_id":"25c5385c-b865-47df-b209-13eb543b1903","system_id":"levelo_inurba_marseille","lat":43.284219,"lon":5.3497,"is_reserved":false,"is_disabled":false,"rental_uris":{"android":"levelo://app?vid=25c5385c-b865-47df-b209-13eb543b1903","ios":"levelo://app?vid=25c5385c-b865-47df-b209-13eb543b1903"},"vehicle_type_id":"4","last_reported":1686920980,"current_range_meters":12800,"station_id":"ce4bhbh2rcd13ifvqepg","pricing_plan_id":"free"},{"bike_id":"a6790631-ef52-41c6-be7b-f2681abbe85a","system_id":"levelo_inurba_marseille","lat":43.28422,"lon":5.34991,"is_reserved":false,"is_disabled":false,"rental_uris":{"android":"levelo://app?vid=a6790631-ef52-41c6-be7b-f2681abbe85a","ios":"levelo://app?vid=a6790631-ef52-41c6-be7b-f2681abbe85a"},"vehicle_type_id":"4","last_reported":1686920980,"current_range_meters":14800,"station_id":"ce4bhbh2rcd13ifvqepg","pricing_plan_id":"free"},{"bike_id":"5fee6b19-1a91-42d7-a4bd-78f4e838ba50","system_id":"levelo_inurba_marseille","lat":43.28422,"lon":5.3499,"is_reserved":false,"is_disabled":false,"rental_uris":{"android":"levelo://app?vid=5fee6b19-1a91-42d7-a4bd-78f4e838ba50","ios":"levelo://app?vid=5fee6b19-1a91-42d7-a4bd-78f4e838ba50"},"vehicle_type_id":"4","last_reported":1686920980,"current_range_meters":14800,"station_id":"ce4bhbh2rcd13ifvqepg","pricing_plan_id":"free"},{"bike_id":"0b5fd547-be12-4c95-a7e0-df5a1035e14e","system_id":"levelo_inurba_marseille","lat":43.28419,"lon":5.34997,"is_reserved":false,"is_disabled":false,"rental_uris":{"android":"levelo://app?vid=0b5fd547-be12-4c95-a7e0-df5a1035e14e","ios":"levelo://app?vid=0b5fd547-be12-4c95-a7e0-df5a1035e14e"},"vehicle_type_id":"4","last_reported":1686920980,"current_range_meters":14000,"station_id":"ce4bhbh2rcd13ifvqepg","pricing_plan_id":"free"},{"bike_id":"ed4a17a6-753e-469e-b2e9-e1f377a6a479","system_id":"levelo_inurba_marseille","lat":43.28421,"lon":5.34987,"is_reserved":false,"is_disabled":false,"rental_uris":{"android":"levelo://app?vid=ed4a17a6-753e-469e-b2e9-e1f377a6a479","ios":"levelo://app?vid=ed4a17a6-753e-469e-b2e9-e1f377a6a479"},"vehicle_type_id":"4","last_reported":1686920980,"current_range_meters":22000,"station_id":"ce4bhbh2rcd13ifvqepg","pricing_plan_id":"free"},{"bike_id":"e15ecb13-fe2a-4641-a708-ceaadc0870ab","system_id":"levelo_inurba_marseille","lat":43.28424,"lon":5.34975,"is_reserved":false,"is_disabled":false,"rental_uris":{"android":"levelo://app?vid=e15ecb13-fe2a-4641-a708-ceaadc0870ab","ios":"levelo://app?vid=e15ecb13-fe2a-4641-a708-ceaadc0870ab"},"vehicle_type_id":"4","last_reported":1686920980,"current_range_meters":18000,"station_id":"ce4bhbh2rcd13ifvqepg","pricing_plan_id":"free"},{"bike_id":"9f915451-07c1-4cef-9243-ac50e6b26cd0","system_id":"levelo_inurba_marseille","lat":43.28422,"lon":5.34981,"is_reserved":false,"is_disabled":false,"rental_uris":{"android":"levelo://app?vid=9f915451-07c1-4cef-9243-ac50e6b26cd0","ios":"levelo://app?vid=9f915451-07c1-4cef-9243-ac50e6b26cd0"},"vehicle_type_id":"4","last_reported":1686920980,"current_range_meters":2800,"station_id":"ce4bhbh2rcd13ifvqepg","pricing_plan_id":"free"},{"bike_id":"a86be2f6-7f45-4656-a047-2864772738b8","system_id":"levelo_inurba_marseille","lat":43.2842,"lon":5.34987,"is_reserved":false,"is_disabled":false,"rental_uris":{"android":"levelo://app?vid=a86be2f6-7f45-4656-a047-2864772738b8","ios":"levelo://app?vid=a86be2f6-7f45-4656-a047-2864772738b8"},"vehicle_type_id":"4","last_reported":1686920980,"current_range_meters":22000,"station_id":"ce4bhbh2rcd13ifvqepg","pricing_plan_id":"free"},{"bike_id":"36ca348c-5b9e-4dad-be0c-72c80ab3500a","system_id":"levelo_inurba_marseille","lat":43.284219,"lon":5.3497,"is_reserved":false,"is_disabled":false,"rental_uris":{"android":"levelo://app?vid=36ca348c-5b9e-4dad-be0c-72c80ab3500a","ios":"levelo://app?vid=36ca348c-5b9e-4dad-be0c-72c80ab3500a"},"vehicle_type_id":"4","last_reported":1686920980,"current_range_meters":26800,"station_id":"ce4bhbh2rcd13ifvqepg","pricing_plan_id":"free"},{"bike_id":"5d2a7738-d621-45ad-a9f6-5f6d4791b51a","system_id":"levelo_inurba_marseille","lat":43.28418,"lon":5.3499,"is_reserved":false,"is_disabled":false,"rental_uris":{"android":"levelo://app?vid=5d2a7738-d621-45ad-a9f6-5f6d4791b51a","ios":"levelo://app?vid=5d2a7738-d621-45ad-a9f6-5f6d4791b51a"},"vehicle_type_id":"4","last_reported":1686920980,"current_range_meters":31200,"station_id":"ce4bhbh2rcd13ifvqepg","pricing_plan_id":"free"},{"bike_id":"1ce6b854-a76d-442b-9409-df923048799b","system_id":"levelo_inurba_marseille","lat":43.28417,"lon":5.34989,"is_reserved":false,"is_disabled":false,"rental_uris":{"android":"levelo://app?vid=1ce6b854-a76d-442b-9409-df923048799b","ios":"levelo://app?vid=1ce6b854-a76d-442b-9409-df923048799b"},"vehicle_type_id":"4","last_reported":1686920980,"current_range_meters":25200,"station_id":"ce4bhbh2rcd13ifvqepg","pricing_plan_id":"free"},{"bike_id":"99f8ffaf-8285-4d0e-b7c8-16721896cccd","system_id":"levelo_inurba_marseille","lat":43.28422,"lon":5.34973,"is_reserved":false,"is_disabled":false,"rental_uris":{"android":"levelo://app?vid=99f8ffaf-8285-4d0e-b7c8-16721896cccd","ios":"levelo://app?vid=99f8ffaf-8285-4d0e-b7c8-16721896cccd"},"vehicle_type_id":"4","last_reported":1686920980,"current_range_meters":20000,"station_id":"ce4bhbh2rcd13ifvqepg","pricing_plan_id":"free"},{"bike_id":"5389fee3-6913-4c90-99b7-469f70f31baa","system_id":"levelo_inurba_marseille","lat":43.28417,"lon":5.34985,"is_reserved":false,"is_disabled":false,"rental_uris":{"android":"levelo://app?vid=5389fee3-6913-4c90-99b7-469f70f31baa","ios":"levelo://app?vid=5389fee3-6913-4c90-99b7-469f70f31baa"},"vehicle_type_id":"4","last_reported":1686920980,"current_range_meters":25600,"station_id":"ce4bhbh2rcd13ifvqepg","pricing_plan_id":"free"},{"bike_id":"76da73a8-32fe-452a-895d-e1e60d3641ca","system_id":"levelo_inurba_marseille","lat":43.28414,"lon":5.34988,"is_reserved":false,"is_disabled":false,"rental_uris":{"android":"levelo://app?vid=76da73a8-32fe-452a-895d-e1e60d3641ca","ios":"levelo://app?vid=76da73a8-32fe-452a-895d-e1e60d3641ca"},"vehicle_type_id":"4","last_reported":1686920980,"current_range_meters":26000,"station_id":"ce4bhbh2rcd13ifvqepg","pricing_plan_id":"free"},{"bike_id":"bb328afe-cac9-4582-b069-b8e42bffeb83","system_id":"levelo_inurba_marseille","lat":43.28418,"lon":5.34975,"is_reserved":false,"is_disabled":false,"rental_uris":{"android":"levelo://app?vid=bb328afe-cac9-4582-b069-b8e42bffeb83","ios":"levelo://app?vid=bb328afe-cac9-4582-b069-b8e42bffeb83"},"vehicle_type_id":"4","last_reported":1686920980,"current_range_meters":21200,"station_id":"ce4bhbh2rcd13ifvqepg","pricing_plan_id":"free"},{"bike_id":"68118813-07df-4fcc-9829-6f75835cc24c","system_id":"levelo_inurba_marseille","lat":43.28413,"lon":5.3499,"is_reserved":false,"is_disabled":false,"rental_uris":{"android":"levelo://app?vid=68118813-07df-4fcc-9829-6f75835cc24c","ios":"levelo://app?vid=68118813-07df-4fcc-9829-6f75835cc24c"},"vehicle_type_id":"4","last_reported":1686920980,"current_range_meters":27200,"station_id":"ce4bhbh2rcd13ifvqepg","pricing_plan_id":"free"},{"bike_id":"2398ef03-c55d-4181-98be-9dcd75817660","system_id":"levelo_inurba_marseille","lat":43.28417,"lon":5.34976,"is_reserved":false,"is_disabled":false,"rental_uris":{"android":"levelo://app?vid=2398ef03-c55d-4181-98be-9dcd75817660","ios":"levelo://app?vid=2398ef03-c55d-4181-98be-9dcd75817660"},"vehicle_type_id":"4","last_reported":1686920980,"current_range_meters":4000,"station_id":"ce4bhbh2rcd13ifvqepg","pricing_plan_id":"free"},{"bike_id":"dbbb0509-cb67-45ce-8c65-280104d476f7","system_id":"levelo_inurba_marseille","lat":43.28414,"lon":5.34982,"is_reserved":false,"is_disabled":false,"rental_uris":{"android":"levelo://app?vid=dbbb0509-cb67-45ce-8c65-280104d476f7","ios":"levelo://app?vid=dbbb0509-cb67-45ce-8c65-280104d476f7"},"vehicle_type_id":"4","last_reported":1686920980,"current_range_meters":23600,"station_id":"ce4bhbh2rcd13ifvqepg","pricing_plan_id":"free"},{"bike_id":"5adb9dbc-459b-41d6-bb3f-e02e5315f497","system_id":"levelo_inurba_marseille","lat":43.28413,"lon":5.34985,"is_reserved":false,"is_disabled":false,"rental_uris":{"android":"levelo://app?vid=5adb9dbc-459b-41d6-bb3f-e02e5315f497","ios":"levelo://app?vid=5adb9dbc-459b-41d6-bb3f-e02e5315f497"},"vehicle_type_id":"4","last_reported":1686920980,"current_range_meters":31200,"station_id":"ce4bhbh2rcd13ifvqepg","pricing_plan_id":"free"},{"bike_id":"5cc36db6-5c6a-435d-ad07-32011c7ca493","system_id":"levelo_inurba_marseille","lat":43.28416,"lon":5.34974,"is_reserved":false,"is_disabled":false,"rental_uris":{"android":"levelo://app?vid=5cc36db6-5c6a-435d-ad07-32011c7ca493","ios":"levelo://app?vid=5cc36db6-5c6a-435d-ad07-32011c7ca493"},"vehicle_type_id":"4","last_reported":1686920980,"current_range_meters":14800,"station_id":"ce4bhbh2rcd13ifvqepg","pricing_plan_id":"free"},{"bike_id":"1faede54-0d1f-401b-8a33-05a9077fd9f5","system_id":"levelo_inurba_marseille","lat":43.28413,"lon":5.34983,"is_reserved":false,"is_disabled":false,"rental_uris":{"android":"levelo://app?vid=1faede54-0d1f-401b-8a33-05a9077fd9f5","ios":"levelo://app?vid=1faede54-0d1f-401b-8a33-05a9077fd9f5"},"vehicle_type_id":"4","last_reported":1686920980,"current_range_meters":31200,"station_id":"ce4bhbh2rcd13ifvqepg","pricing_plan_id":"free"},{"bike_id":"2ad24568-4c23-422d-a0ef-ba98dcdab08b","system_id":"levelo_inurba_marseille","lat":43.28275,"lon":5.37875,"is_reserved":false,"is_disabled":false,"rental_uris":{"android":"levelo://app?vid=2ad24568-4c23-422d-a0ef-ba98dcdab08b","ios":"levelo://app?vid=2ad24568-4c23-422d-a0ef-ba98dcdab08b"},"vehicle_type_id":"4","last_reported":1686920980,"current_range_meters":9200,"station_id":"","pricing_plan_id":"free"},{"bike_id":"6204bc23-850b-4032-b566-6379d7c45ea5","system_id":"levelo_inurba_marseille","lat":43.28413,"lon":5.34977,"is_reserved":false,"is_disabled":false,"rental_uris":{"android":"levelo://app?vid=6204bc23-850b-4032-b566-6379d7c45ea5","ios":"levelo://app?vid=6204bc23-850b-4032-b566-6379d7c45ea5"},"vehicle_type_id":"4","last_reported":1686920980,"current_range_meters":8000,"station_id":"ce4bhbh2rcd13ifvqepg","pricing_plan_id":"free"},{"bike_id":"fdbfb2de-fdfd-4a76-b999-80dc50f2c78b","system_id":"levelo_inurba_marseille","lat":43.2841,"lon":5.34984,"is_reserved":false,"is_disabled":false,"rental_uris":{"android":"levelo://app?vid=fdbfb2de-fdfd-4a76-b999-80dc50f2c78b","ios":"levelo://app?vid=fdbfb2de-fdfd-4a76-b999-80dc50f2c78b"},"vehicle_type_id":"4","last_reported":1686920980,"current_range_meters":12400,"station_id":"ce4bhbh2rcd13ifvqepg","pricing_plan_id":"free"},{"bike_id":"3006ab00-a131-4e3c-8d33-68f4cf343e9f","system_id":"levelo_inurba_marseille","lat":43.28409,"lon":5.34979,"is_reserved":false,"is_disabled":false,"rental_uris":{"android":"levelo://app?vid=3006ab00-a131-4e3c-8d33-68f4cf343e9f","ios":"levelo://app?vid=3006ab00-a131-4e3c-8d33-68f4cf343e9f"},"vehicle_type_id":"4","last_reported":1686920980,"current_range_meters":2400,"station_id":"ce4bhbh2rcd13ifvqepg","pricing_plan_id":"free"},{"bike_id":"e2584ec1-ef78-4553-825a-82c716cad8dc","system_id":"levelo_inurba_marseille","lat":43.292724,"lon":5.401131,"is_reserved":false,"is_disabled":false,"rental_uris":{"android":"levelo://app?vid=e2584ec1-ef78-4553-825a-82c716cad8dc","ios":"levelo://app?vid=e2584ec1-ef78-4553-825a-82c716cad8dc"},"vehicle_type_id":"4","last_reported":1686920980,"current_range_meters":2400,"station_id":"ce4bh312rcd13ifvqdk0","pricing_plan_id":"free"},{"bike_id":"0dd2dafe-edf5-43c9-a9a6-d6738c733ae0","system_id":"levelo_inurba_marseille","lat":43.28283,"lon":5.35061,"is_reserved":false,"is_disabled":false,"rental_uris":{"android":"levelo://app?vid=0dd2dafe-edf5-43c9-a9a6-d6738c733ae0","ios":"levelo://app?vid=0dd2dafe-edf5-43c9-a9a6-d6738c733ae0"},"vehicle_type_id":"4","last_reported":1686920980,"current_range_meters":19600,"station_id":"ce4bhbp2rcd13ifvqerg","pricing_plan_id":"free"},{"bike_id":"2c935e45-fc97-4368-9ba6-437e854706d5","system_id":"levelo_inurba_marseille","lat":43.28274,"lon":5.35078,"is_reserved":false,"is_disabled":false,"rental_uris":{"android":"levelo://app?vid=2c935e45-fc97-4368-9ba6-437e854706d5","ios":"levelo://app?vid=2c935e45-fc97-4368-9ba6-437e854706d5"},"vehicle_type_id":"4","last_reported":1686920980,"current_range_meters":22800,"station_id":"ce4bhbp2rcd13ifvqerg","pricing_plan_id":"free"},{"bike_id":"e2c3a0aa-7f22-492a-a04d-15e355466059","system_id":"levelo_inurba_marseille","lat":43.32879,"lon":5.40534,"is_reserved":false,"is_disabled":false,"rental_uris":{"android":"levelo://app?vid=e2c3a0aa-7f22-492a-a04d-15e355466059","ios":"levelo://app?vid=e2c3a0aa-7f22-492a-a04d-15e355466059"},"vehicle_type_id":"4","last_reported":1686920980,"current_range_meters":13200,"station_id":"","pricing_plan_id":"free"},{"bike_id":"69453445-2e0a-425c-ae6b-99771d55d2f6","system_id":"levelo_inurba_marseille","lat":43.28276,"lon":5.35063,"is_reserved":false,"is_disabled":false,"rental_uris":{"android":"levelo://app?vid=69453445-2e0a-425c-ae6b-99771d55d2f6","ios":"levelo://app?vid=69453445-2e0a-425c-ae6b-99771d55d2f6"},"vehicle_type_id":"4","last_reported":1686920980,"current_range_meters":28400,"station_id":"ce4bhbp2rcd13ifvqerg","pricing_plan_id":"free"},{"bike_id":"9281a634-8183-4dd6-823a-1c70612f9442","system_id":"levelo_inurba_marseille","lat":43.28273,"lon":5.35071,"is_reserved":false,"is_disabled":false,"rental_uris":{"android":"levelo://app?vid=9281a634-8183-4dd6-823a-1c70612f9442","ios":"levelo://app?vid=9281a634-8183-4dd6-823a-1c70612f9442"},"vehicle_type_id":"4","last_reported":1686920980,"current_range_meters":10400,"station_id":"ce4bhbp2rcd13ifvqerg","pricing_plan_id":"free"},{"bike_id":"f5f5f467-5281-4422-a6dc-09424a54fa47","system_id":"levelo_inurba_marseille","lat":43.28271,"lon":5.3507,"is_reserved":false,"is_disabled":false,"rental_uris":{"android":"levelo://app?vid=f5f5f467-5281-4422-a6dc-09424a54fa47","ios":"levelo://app?vid=f5f5f467-5281-4422-a6dc-09424a54fa47"},"vehicle_type_id":"4","last_reported":1686920980,"current_range_meters":16000,"station_id":"ce4bhbp2rcd13ifvqerg","pricing_plan_id":"free"},{"bike_id":"737d2827-f3de-41ef-afa4-df9077791435","system_id":"levelo_inurba_marseille","lat":43.2827,"lon":5.35073,"is_reserved":false,"is_disabled":false,"rental_uris":{"android":"levelo://app?vid=737d2827-f3de-41ef-afa4-df9077791435","ios":"levelo://app?vid=737d2827-f3de-41ef-afa4-df9077791435"},"vehicle_type_id":"4","last_reported":1686920980,"current_range_meters":24800,"station_id":"ce4bhbp2rcd13ifvqerg","pricing_plan_id":"free"},{"bike_id":"9107940b-d9a2-4639-9861-99e6b4ad2533","system_id":"levelo_inurba_marseille","lat":43.28271,"lon":5.35068,"is_reserved":false,"is_disabled":false,"rental_uris":{"android":"levelo://app?vid=9107940b-d9a2-4639-9861-99e6b4ad2533","ios":"levelo://app?vid=9107940b-d9a2-4639-9861-99e6b4ad2533"},"vehicle_type_id":"4","last_reported":1686920980,"current_range_meters":22400,"station_id":"ce4bhbp2rcd13ifvqerg","pricing_plan_id":"free"},{"bike_id":"d922c2dc-80b2-4a80-9556-00bc108f5a3b","system_id":"levelo_inurba_marseille","lat":43.282744,"lon":5.350533,"is_reserved":false,"is_disabled":false,"rental_uris":{"android":"levelo://app?vid=d922c2dc-80b2-4a80-9556-00bc108f5a3b","ios":"levelo://app?vid=d922c2dc-80b2-4a80-9556-00bc108f5a3b"},"vehicle_type_id":"4","last_reported":1686920980,"current_range_meters":6800,"station_id":"ce4bhbp2rcd13ifvqerg","pricing_plan_id":"free"},{"bike_id":"ac996a3b-3f61-4baa-b933-20ea9a43b5ba","system_id":"levelo_inurba_marseille","lat":43.28269,"lon":5.35072,"is_reserved":false,"is_disabled":false,"rental_uris":{"android":"levelo://app?vid=ac996a3b-3f61-4baa-b933-20ea9a43b5ba","ios":"levelo://app?vid=ac996a3b-3f61-4baa-b933-20ea9a43b5ba"},"vehicle_type_id":"4","last_reported":1686920980,"current_range_meters":12800,"station_id":"ce4bhbp2rcd13ifvqerg","pricing_plan_id":"free"},{"bike_id":"a680e235-ed3e-4fc0-99fb-6dcb06cf836b","system_id":"levelo_inurba_marseille","lat":43.28271,"lon":5.35065,"is_reserved":false,"is_disabled":false,"rental_uris":{"android":"levelo://app?vid=a680e235-ed3e-4fc0-99fb-6dcb06cf836b","ios":"levelo://app?vid=a680e235-ed3e-4fc0-99fb-6dcb06cf836b"},"vehicle_type_id":"4","last_reported":1686920980,"current_range_meters":0,"station_id":"ce4bhbp2rcd13ifvqerg","pricing_plan_id":"free"},{"bike_id":"b5063cba-238b-4e34-8f13-acea8f4abd38","system_id":"levelo_inurba_marseille","lat":43.28269,"lon":5.3507,"is_reserved":false,"is_disabled":false,"rental_uris":{"android":"levelo://app?vid=b5063cba-238b-4e34-8f13-acea8f4abd38","ios":"levelo://app?vid=b5063cba-238b-4e34-8f13-acea8f4abd38"},"vehicle_type_id":"4","last_reported":1686920980,"current_range_meters":18000,"station_id":"ce4bhbp2rcd13ifvqerg","pricing_plan_id":"free"},{"bike_id":"9275b4dc-8844-4c92-bcee-06651abe4246","system_id":"levelo_inurba_marseille","lat":43.28267,"lon":5.35077,"is_reserved":false,"is_disabled":false,"rental_uris":{"android":"levelo://app?vid=9275b4dc-8844-4c92-bcee-06651abe4246","ios":"levelo://app?vid=9275b4dc-8844-4c92-bcee-06651abe4246"},"vehicle_type_id":"4","last_reported":1686920980,"current_range_meters":4000,"station_id":"ce4bhbp2rcd13ifvqerg","pricing_plan_id":"free"},{"bike_id":"5034beab-6e23-4494-9fa0-e11fc4b2ab79","system_id":"levelo_inurba_marseille","lat":43.28272,"lon":5.35058,"is_reserved":false,"is_disabled":false,"rental_uris":{"android":"levelo://app?vid=5034beab-6e23-4494-9fa0-e11fc4b2ab79","ios":"levelo://app?vid=5034beab-6e23-4494-9fa0-e11fc4b2ab79"},"vehicle_type_id":"4","last_reported":1686920980,"current_range_meters":27600,"station_id":"ce4bhbp2rcd13ifvqerg","pricing_plan_id":"free"},{"bike_id":"92db2657-e06e-4703-be21-6d001b96d621","system_id":"levelo_inurba_marseille","lat":43.28268,"lon":5.35068,"is_reserved":false,"is_disabled":false,"rental_uris":{"android":"levelo://app?vid=92db2657-e06e-4703-be21-6d001b96d621","ios":"levelo://app?vid=92db2657-e06e-4703-be21-6d001b96d621"},"vehicle_type_id":"4","last_reported":1686920980,"current_range_meters":18400,"station_id":"ce4bhbp2rcd13ifvqerg","pricing_plan_id":"free"},{"bike_id":"48bafaa6-f0ab-4689-acca-3c390e0e180f","system_id":"levelo_inurba_marseille","lat":43.282754,"lon":5.350519,"is_reserved":false,"is_disabled":false,"rental_uris":{"android":"levelo://app?vid=48bafaa6-f0ab-4689-acca-3c390e0e180f","ios":"levelo://app?vid=48bafaa6-f0ab-4689-acca-3c390e0e180f"},"vehicle_type_id":"4","last_reported":1686920980,"current_range_meters":25600,"station_id":"ce4bhbp2rcd13ifvqerg","pricing_plan_id":"free"},{"bike_id":"afc36fd8-5a1f-472c-aed7-01c18c167026","system_id":"levelo_inurba_marseille","lat":43.282754,"lon":5.350519,"is_reserved":false,"is_disabled":false,"rental_uris":{"android":"levelo://app?vid=afc36fd8-5a1f-472c-aed7-01c18c167026","ios":"levelo://app?vid=afc36fd8-5a1f-472c-aed7-01c18c167026"},"vehicle_type_id":"4","last_reported":1686920980,"current_range_meters":5200,"station_id":"ce4bhbp2rcd13ifvqerg","pricing_plan_id":"free"},{"bike_id":"2caf645f-7341-409d-81ca-ccdb8a5aedb2","system_id":"levelo_inurba_marseille","lat":43.282669,"lon":5.350651,"is_reserved":false,"is_disabled":false,"rental_uris":{"android":"levelo://app?vid=2caf645f-7341-409d-81ca-ccdb8a5aedb2","ios":"levelo://app?vid=2caf645f-7341-409d-81ca-ccdb8a5aedb2"},"vehicle_type_id":"4","last_reported":1686920980,"current_range_meters":16800,"station_id":"ce4bhbp2rcd13ifvqerg","pricing_plan_id":"free"},{"bike_id":"daef2e3a-31f9-4465-865a-47d0fc930606","system_id":"levelo_inurba_marseille","lat":43.28269,"lon":5.35057,"is_reserved":false,"is_disabled":false,"rental_uris":{"android":"levelo://app?vid=daef2e3a-31f9-4465-865a-47d0fc930606","ios":"levelo://app?vid=daef2e3a-31f9-4465-865a-47d0fc930606"},"vehicle_type_id":"4","last_reported":1686920980,"current_range_meters":6400,"station_id":"ce4bhbp2rcd13ifvqerg","pricing_plan_id":"free"},{"bike_id":"94f78d63-a8d0-4fab-8c6f-f1b8e3cc27a4","system_id":"levelo_inurba_marseille","lat":43.28264,"lon":5.35074,"is_reserved":false,"is_disabled":false,"rental_uris":{"android":"levelo://app?vid=94f78d63-a8d0-4fab-8c6f-f1b8e3cc27a4","ios":"levelo://app?vid=94f78d63-a8d0-4fab-8c6f-f1b8e3cc27a4"},"vehicle_type_id":"4","last_reported":1686920980,"current_range_meters":27200,"station_id":"ce4bhbp2rcd13ifvqerg","pricing_plan_id":"free"},{"bike_id":"b4378d99-3156-4e54-aee2-57045855b8f8","system_id":"levelo_inurba_marseille","lat":43.282744,"lon":5.350533,"is_reserved":false,"is_disabled":false,"rental_uris":{"android":"levelo://app?vid=b4378d99-3156-4e54-aee2-57045855b8f8","ios":"levelo://app?vid=b4378d99-3156-4e54-aee2-57045855b8f8"},"vehicle_type_id":"4","last_reported":1686920980,"current_range_meters":22000,"station_id":"ce4bhbp2rcd13ifvqerg","pricing_plan_id":"free"},{"bike_id":"1b9f7789-7699-4ae1-86aa-442e8e91ea9c","system_id":"levelo_inurba_marseille","lat":43.28263,"lon":5.35075,"is_reserved":false,"is_disabled":false,"rental_uris":{"android":"levelo://app?vid=1b9f7789-7699-4ae1-86aa-442e8e91ea9c","ios":"levelo://app?vid=1b9f7789-7699-4ae1-86aa-442e8e91ea9c"},"vehicle_type_id":"4","last_reported":1686920980,"current_range_meters":16400,"station_id":"ce4bhbp2rcd13ifvqerg","pricing_plan_id":"free"},{"bike_id":"52f2a41e-de49-4949-95f8-0f6367ad8729","system_id":"levelo_inurba_marseille","lat":43.28266,"lon":5.35061,"is_reserved":false,"is_disabled":false,"rental_uris":{"android":"levelo://app?vid=52f2a41e-de49-4949-95f8-0f6367ad8729","ios":"levelo://app?vid=52f2a41e-de49-4949-95f8-0f6367ad8729"},"vehicle_type_id":"4","last_reported":1686920980,"current_range_meters":21600,"station_id":"ce4bhbp2rcd13ifvqerg","pricing_plan_id":"free"},{"bike_id":"d8d7eb9e-5a09-494f-8597-fac57cf64d69","system_id":"levelo_inurba_marseille","lat":43.28263,"lon":5.35069,"is_reserved":false,"is_disabled":false,"rental_uris":{"android":"levelo://app?vid=d8d7eb9e-5a09-494f-8597-fac57cf64d69","ios":"levelo://app?vid=d8d7eb9e-5a09-494f-8597-fac57cf64d69"},"vehicle_type_id":"4","last_reported":1686920980,"current_range_meters":2000,"station_id":"ce4bhbp2rcd13ifvqerg","pricing_plan_id":"free"},{"bike_id":"615038be-74dd-40b4-b20b-1239a82cd5fd","system_id":"levelo_inurba_marseille","lat":43.282754,"lon":5.350519,"is_reserved":false,"is_disabled":false,"rental_uris":{"android":"levelo://app?vid=615038be-74dd-40b4-b20b-1239a82cd5fd","ios":"levelo://app?vid=615038be-74dd-40b4-b20b-1239a82cd5fd"},"vehicle_type_id":"4","last_reported":1686920980,"current_range_meters":31600,"station_id":"ce4bhbp2rcd13ifvqerg","pricing_plan_id":"free"},{"bike_id":"cc70cd77-a392-4c83-a459-cd6444847367","system_id":"levelo_inurba_marseille","lat":43.282744,"lon":5.350533,"is_reserved":false,"is_disabled":false,"rental_uris":{"android":"levelo://app?vid=cc70cd77-a392-4c83-a459-cd6444847367","ios":"levelo://app?vid=cc70cd77-a392-4c83-a459-cd6444847367"},"vehicle_type_id":"4","last_reported":1686920980,"current_range_meters":13600,"station_id":"ce4bhbp2rcd13ifvqerg","pricing_plan_id":"free"},{"bike_id":"60327404-7d1e-4283-8eb3-97a1c4c5c099","system_id":"levelo_inurba_marseille","lat":43.28264,"lon":5.35061,"is_reserved":false,"is_disabled":false,"rental_uris":{"android":"levelo://app?vid=60327404-7d1e-4283-8eb3-97a1c4c5c099","ios":"levelo://app?vid=60327404-7d1e-4283-8eb3-97a1c4c5c099"},"vehicle_type_id":"4","last_reported":1686920980,"current_range_meters":0,"station_id":"ce4bhbp2rcd13ifvqerg","pricing_plan_id":"free"},{"bike_id":"10085643-820f-4e66-982c-35a1275ed20a","system_id":"levelo_inurba_marseille","lat":43.28265,"lon":5.35057,"is_reserved":false,"is_disabled":false,"rental_uris":{"android":"levelo://app?vid=10085643-820f-4e66-982c-35a1275ed20a","ios":"levelo://app?vid=10085643-820f-4e66-982c-35a1275ed20a"},"vehicle_type_id":"4","last_reported":1686920980,"current_range_meters":13600,"station_id":"ce4bhbp2rcd13ifvqerg","pricing_plan_id":"free"},{"bike_id":"dbe61e26-272e-4069-94ec-e773e5a7cc01","system_id":"levelo_inurba_marseille","lat":43.28264,"lon":5.35058,"is_reserved":false,"is_disabled":false,"rental_uris":{"android":"levelo://app?vid=dbe61e26-272e-4069-94ec-e773e5a7cc01","ios":"levelo://app?vid=dbe61e26-272e-4069-94ec-e773e5a7cc01"},"vehicle_type_id":"4","last_reported":1686920980,"current_range_meters":10800,"station_id":"ce4bhbp2rcd13ifvqerg","pricing_plan_id":"free"},{"bike_id":"ad25fedf-badc-4aa9-8e08-266da66d727c","system_id":"levelo_inurba_marseille","lat":43.282744,"lon":5.350533,"is_reserved":false,"is_disabled":false,"rental_uris":{"android":"levelo://app?vid=ad25fedf-badc-4aa9-8e08-266da66d727c","ios":"levelo://app?vid=ad25fedf-badc-4aa9-8e08-266da66d727c"},"vehicle_type_id":"4","last_reported":1686920980,"current_range_meters":0,"station_id":"ce4bhbp2rcd13ifvqerg","pricing_plan_id":"free"},{"bike_id":"1336932f-e996-4017-acdf-f1bba96e6d8a","system_id":"levelo_inurba_marseille","lat":43.282744,"lon":5.350533,"is_reserved":false,"is_disabled":false,"rental_uris":{"android":"levelo://app?vid=1336932f-e996-4017-acdf-f1bba96e6d8a","ios":"levelo://app?vid=1336932f-e996-4017-acdf-f1bba96e6d8a"},"vehicle_type_id":"4","last_reported":1686920980,"current_range_meters":22000,"station_id":"ce4bhbp2rcd13ifvqerg","pricing_plan_id":"free"},{"bike_id":"0b9d0efe-a3b0-4452-b6a7-2c3cb920908c","system_id":"levelo_inurba_marseille","lat":43.282744,"lon":5.350533,"is_reserved":false,"is_disabled":false,"rental_uris":{"android":"levelo://app?vid=0b9d0efe-a3b0-4452-b6a7-2c3cb920908c","ios":"levelo://app?vid=0b9d0efe-a3b0-4452-b6a7-2c3cb920908c"},"vehicle_type_id":"4","last_reported":1686920980,"current_range_meters":0,"station_id":"ce4bhbp2rcd13ifvqerg","pricing_plan_id":"free"},{"bike_id":"bb21344b-60f7-4604-854a-27a0024d9c7f","system_id":"levelo_inurba_marseille","lat":43.282744,"lon":5.350533,"is_reserved":false,"is_disabled":false,"rental_uris":{"android":"levelo://app?vid=bb21344b-60f7-4604-854a-27a0024d9c7f","ios":"levelo://app?vid=bb21344b-60f7-4604-854a-27a0024d9c7f"},"vehicle_type_id":"4","last_reported":1686920980,"current_range_meters":29600,"station_id":"ce4bhbp2rcd13ifvqerg","pricing_plan_id":"free"},{"bike_id":"03c01365-7376-43be-8846-53536134319c","system_id":"levelo_inurba_marseille","lat":43.282744,"lon":5.350533,"is_reserved":false,"is_disabled":false,"rental_uris":{"android":"levelo://app?vid=03c01365-7376-43be-8846-53536134319c","ios":"levelo://app?vid=03c01365-7376-43be-8846-53536134319c"},"vehicle_type_id":"4","last_reported":1686920980,"current_range_meters":27200,"station_id":"ce4bhbp2rcd13ifvqerg","pricing_plan_id":"free"},{"bike_id":"117efb08-9322-455f-be4b-c0ceaf99e165","system_id":"levelo_inurba_marseille","lat":43.282744,"lon":5.350533,"is_reserved":false,"is_disabled":false,"rental_uris":{"android":"levelo://app?vid=117efb08-9322-455f-be4b-c0ceaf99e165","ios":"levelo://app?vid=117efb08-9322-455f-be4b-c0ceaf99e165"},