{"last_updated":1701198348,"ttl":30,"version":"2.2","data":{"bikes":[{"bike_id":"ec77e116-58ad-435b-8566-d2ceffd5073b","system_id":"levelo_inurba_marseille","lat":43.312239,"lon":5.368562,"is_reserved":false,"is_disabled":false,"rental_uris":{"android":"levelo://app?vid=ec77e116-58ad-435b-8566-d2ceffd5073b","ios":"levelo://app?vid=ec77e116-58ad-435b-8566-d2ceffd5073b"},"vehicle_type_id":"4","last_reported":1701198348,"current_range_meters":10800,"station_id":"ce4bgl92rcd13ifvqbq0","pricing_plan_id":"free"},{"bike_id":"cadc233d-855e-4680-8370-7cff30f5d1ec","system_id":"levelo_inurba_marseille","lat":43.309039,"lon":5.371797,"is_reserved":false,"is_disabled":false,"rental_uris":{"android":"levelo://app?vid=cadc233d-855e-4680-8370-7cff30f5d1ec","ios":"levelo://app?vid=cadc233d-855e-4680-8370-7cff30f5d1ec"},"vehicle_type_id":"4","last_reported":1701198348,"current_range_meters":24400,"station_id":"ce4bguh2rcd13ifvqckg","pricing_plan_id":"free"},{"bike_id":"e5930290-4de9-4592-b0ff-1380d2b4e48e","system_id":"levelo_inurba_marseille","lat":43.31349,"lon":5.37637,"is_reserved":false,"is_disabled":false,"rental_uris":{"android":"levelo://app?vid=e5930290-4de9-4592-b0ff-1380d2b4e48e","ios":"levelo://app?vid=e5930290-4de9-4592-b0ff-1380d2b4e48e"},"vehicle_type_id":"4","last_reported":1701198348,"current_range_meters":26400,"station_id":"","pricing_plan_id":"free"},{"bike_id":"8b76b16b-7029-4252-a31d-5a73c82e5df2","system_id":"levelo_inurba_marseille","lat":43.305989,"lon":5.37225,"is_reserved":false,"is_disabled":false,"rental_uris":{"android":"levelo://app?vid=8b76b16b-7029-4252-a31d-5a73c82e5df2","ios":"levelo://app?vid=8b76b16b-7029-4252-a31d-5a73c82e5df2"},"vehicle_type_id":"4","last_reported":1701198348,"current_range_meters":8800,"station_id":"ce4bgqh2rcd13ifvqc4g","pricing_plan_id":"free"},{"bike_id":"41b86c11-fe40-4d29-8597-38dea917e377","system_id":"levelo_inurba_marseille","lat":43.30596,"lon":5.37227,"is_reserved":false,"is_disabled":false,"rental_uris":{"android":"levelo://app?vid=41b86c11-fe40-4d29-8597-38dea917e377","ios":"levelo://app?vid=41b86c11-fe40-4d29-8597-38dea917e377"},"vehicle_type_id":"4","last_reported":1701198348,"current_range_meters":30400,"station_id":"","pricing_plan_id":"free"},{"bike_id":"45b3ff23-a937-45d9-9f96-088c308c0189","system_id":"levelo_inurba_marseille","lat":43.308199,"lon":5.376565,"is_reserved":false,"is_disabled":false,"rental_uris":{"android":"levelo://app?vid=45b3ff23-a937-45d9-9f96-088c308c0189","ios":"levelo://app?vid=45b3ff23-a937-45d9-9f96-088c308c0189"},"vehicle_type_id":"4","last_reported":1701198348,"current_range_meters":13200,"station_id":"ce4bgv92rcd13ifvqcq0","pricing_plan_id":"free"},{"bike_id":"f427a2c3-6e4a-446b-ae2f-9be8aa7f4122","system_id":"levelo_inurba_marseille","lat":43.31719,"lon":5.376813,"is_reserved":false,"is_disabled":false,"rental_uris":{"android":"levelo://app?vid=f427a2c3-6e4a-446b-ae2f-9be8aa7f4122","ios":"levelo://app?vid=f427a2c3-6e4a-446b-ae2f-9be8aa7f4122"},"vehicle_type_id":"4","last_reported":1701198348,"current_range_meters":12400,"station_id":"ce4bgth2rcd13ifvqch0","pricing_plan_id":"free"},{"bike_id":"e913f328-1e31-4c22-bd87-f809ea246de4","system_id":"levelo_inurba_marseille","lat":43.317168,"lon":5.376883,"is_reserved":false,"is_disabled":false,"rental_uris":{"android":"levelo://app?vid=e913f328-1e31-4c22-bd87-f809ea246de4","ios":"levelo://app?vid=e913f328-1e31-4c22-bd87-f809ea246de4"},"vehicle_type_id":"4","last_reported":1701198348,"current_range_meters":14800,"station_id":"ce4bgth2rcd13ifvqch0","pricing_plan_id":"free"},{"bike_id":"ed69cef3-45a4-4ef0-8519-b3f86735f761","system_id":"levelo_inurba_marseille","lat":43.317187,"lon":5.376867,"is_reserved":false,"is_disabled":false,"rental_uris":{"android":"levelo://app?vid=ed69cef3-45a4-4ef0-8519-b3f86735f761","ios":"levelo://app?vid=ed69cef3-45a4-4ef0-8519-b3f86735f761"},"vehicle_type_id":"4","last_reported":1701198348,"current_range_meters":23600,"station_id":"ce4bgth2rcd13ifvqch0","pricing_plan_id":"free"},{"bike_id":"a6c13b9a-9b46-4115-80a4-3c50be7b1754","system_id":"levelo_inurba_marseille","lat":43.317075,"lon":5.377367,"is_reserved":false,"is_disabled":false,"rental_uris":{"android":"levelo://app?vid=a6c13b9a-9b46-4115-80a4-3c50be7b1754","ios":"levelo://app?vid=a6c13b9a-9b46-4115-80a4-3c50be7b1754"},"vehicle_type_id":"4","last_reported":1701198348,"current_range_meters":28800,"station_id":"ce4bgth2rcd13ifvqch0","pricing_plan_id":"free"},{"bike_id":"3a1e9cb1-dfa6-409f-a6ca-b0252754cb07","system_id":"levelo_inurba_marseille","lat":43.30466,"lon":5.37336,"is_reserved":false,"is_disabled":false,"rental_uris":{"android":"levelo://app?vid=3a1e9cb1-dfa6-409f-a6ca-b0252754cb07","ios":"levelo://app?vid=3a1e9cb1-dfa6-409f-a6ca-b0252754cb07"},"vehicle_type_id":"4","last_reported":1701198348,"current_range_meters":3600,"station_id":"","pricing_plan_id":"free"},{"bike_id":"cb0ccd5f-236b-48a0-8191-ca9d064f1197","system_id":"levelo_inurba_marseille","lat":43.303046,"lon":5.368981,"is_reserved":false,"is_disabled":false,"rental_uris":{"android":"levelo://app?vid=cb0ccd5f-236b-48a0-8191-ca9d064f1197","ios":"levelo://app?vid=cb0ccd5f-236b-48a0-8191-ca9d064f1197"},"vehicle_type_id":"4","last_reported":1701198348,"current_range_meters":17200,"station_id":"ce4bgqh2rcd13ifvqc5g","pricing_plan_id":"free"},{"bike_id":"8e0e6d01-3fd3-4b1a-9bc5-25be03c1469a","system_id":"levelo_inurba_marseille","lat":43.301939,"lon":5.366286,"is_reserved":false,"is_disabled":false,"rental_uris":{"android":"levelo://app?vid=8e0e6d01-3fd3-4b1a-9bc5-25be03c1469a","ios":"levelo://app?vid=8e0e6d01-3fd3-4b1a-9bc5-25be03c1469a"},"vehicle_type_id":"4","last_reported":1701198348,"current_range_meters":23200,"station_id":"ce4bgrh2rcd13ifvqc8g","pricing_plan_id":"free"},{"bike_id":"74b8b795-e0af-4cbe-b494-f742a3583ff8","system_id":"levelo_inurba_marseille","lat":43.308012,"lon":5.381511,"is_reserved":false,"is_disabled":false,"rental_uris":{"android":"levelo://app?vid=74b8b795-e0af-4cbe-b494-f742a3583ff8","ios":"levelo://app?vid=74b8b795-e0af-4cbe-b494-f742a3583ff8"},"vehicle_type_id":"4","last_reported":1701198348,"current_range_meters":17200,"station_id":"ce4bgt12rcd13ifvqce0","pricing_plan_id":"free"},{"bike_id":"73b0112f-32e3-42be-93b7-76fca729201b","system_id":"levelo_inurba_marseille","lat":43.304606,"lon":5.379026,"is_reserved":false,"is_disabled":false,"rental_uris":{"android":"levelo://app?vid=73b0112f-32e3-42be-93b7-76fca729201b","ios":"levelo://app?vid=73b0112f-32e3-42be-93b7-76fca729201b"},"vehicle_type_id":"4","last_reported":1701198348,"current_range_meters":19600,"station_id":"ce4bgup2rcd13ifvqcn0","pricing_plan_id":"free"},{"bike_id":"d68ff592-86e3-4859-947a-8e3e5c81913c","system_id":"levelo_inurba_marseille","lat":43.32001,"lon":5.38153,"is_reserved":false,"is_disabled":false,"rental_uris":{"android":"levelo://app?vid=d68ff592-86e3-4859-947a-8e3e5c81913c","ios":"levelo://app?vid=d68ff592-86e3-4859-947a-8e3e5c81913c"},"vehicle_type_id":"4","last_reported":1701198348,"current_range_meters":28400,"station_id":"ce4bhr12rcd13ifvqhpg","pricing_plan_id":"free"},{"bike_id":"0dd34697-d90d-4f2e-8f29-c22364617043","system_id":"levelo_inurba_marseille","lat":43.313571,"lon":5.384829,"is_reserved":false,"is_disabled":false,"rental_uris":{"android":"levelo://app?vid=0dd34697-d90d-4f2e-8f29-c22364617043","ios":"levelo://app?vid=0dd34697-d90d-4f2e-8f29-c22364617043"},"vehicle_type_id":"4","last_reported":1701198348,"current_range_meters":9600,"station_id":"ce4bgt92rcd13ifvqcf0","pricing_plan_id":"free"},{"bike_id":"08e55b95-6b94-4755-b24d-c5592d16d852","system_id":"levelo_inurba_marseille","lat":43.313571,"lon":5.384829,"is_reserved":false,"is_disabled":false,"rental_uris":{"android":"levelo://app?vid=08e55b95-6b94-4755-b24d-c5592d16d852","ios":"levelo://app?vid=08e55b95-6b94-4755-b24d-c5592d16d852"},"vehicle_type_id":"4","last_reported":1701198348,"current_range_meters":6400,"station_id":"ce4bgt92rcd13ifvqcf0","pricing_plan_id":"free"},{"bike_id":"a6a7ea49-0c7f-41ba-8ccf-1bad6c517bf9","system_id":"levelo_inurba_marseille","lat":43.299724,"lon":5.371829,"is_reserved":false,"is_disabled":false,"rental_uris":{"android":"levelo://app?vid=a6a7ea49-0c7f-41ba-8ccf-1bad6c517bf9","ios":"levelo://app?vid=a6a7ea49-0c7f-41ba-8ccf-1bad6c517bf9"},"vehicle_type_id":"4","last_reported":1701198348,"current_range_meters":27200,"station_id":"ce4bgr92rcd13ifvqc7g","pricing_plan_id":"free"},{"bike_id":"68c5792c-3743-46b0-ba80-ead5661e1a6c","system_id":"levelo_inurba_marseille","lat":43.311722,"lon":5.387247,"is_reserved":false,"is_disabled":false,"rental_uris":{"android":"levelo://app?vid=68c5792c-3743-46b0-ba80-ead5661e1a6c","ios":"levelo://app?vid=68c5792c-3743-46b0-ba80-ead5661e1a6c"},"vehicle_type_id":"4","last_reported":1701198348,"current_range_meters":10400,"station_id":"ce4bgv12rcd13ifvqcp0","pricing_plan_id":"free"},{"bike_id":"76cf45e9-3f19-4c8e-99da-8e38b662ef7d","system_id":"levelo_inurba_marseille","lat":43.311722,"lon":5.387247,"is_reserved":false,"is_disabled":false,"rental_uris":{"android":"levelo://app?vid=76cf45e9-3f19-4c8e-99da-8e38b662ef7d","ios":"levelo://app?vid=76cf45e9-3f19-4c8e-99da-8e38b662ef7d"},"vehicle_type_id":"4","last_reported":1701198348,"current_range_meters":30000,"station_id":"ce4bgv12rcd13ifvqcp0","pricing_plan_id":"free"},{"bike_id":"8081422b-eb2a-4176-bcd7-b5a29f16164d","system_id":"levelo_inurba_marseille","lat":43.322872,"lon":5.382756,"is_reserved":false,"is_disabled":false,"rental_uris":{"android":"levelo://app?vid=8081422b-eb2a-4176-bcd7-b5a29f16164d","ios":"levelo://app?vid=8081422b-eb2a-4176-bcd7-b5a29f16164d"},"vehicle_type_id":"4","last_reported":1701198348,"current_range_meters":4000,"station_id":"ce4bhr12rcd13ifvqhqg","pricing_plan_id":"free"},{"bike_id":"5676556d-60ca-44de-be13-9b40b562fc07","system_id":"levelo_inurba_marseille","lat":43.273613,"lon":5.362705,"is_reserved":false,"is_disabled":false,"rental_uris":{"android":"levelo://app?vid=5676556d-60ca-44de-be13-9b40b562fc07","ios":"levelo://app?vid=5676556d-60ca-44de-be13-9b40b562fc07"},"vehicle_type_id":"4","last_reported":1701198348,"current_range_meters":22000,"station_id":"ce4bhbh2rcd13ifvqeo0","pricing_plan_id":"free"},{"bike_id":"9f0f067c-4570-4779-9fe7-642e24984182","system_id":"levelo_inurba_marseille","lat":43.29612,"lon":5.36553,"is_reserved":false,"is_disabled":false,"rental_uris":{"android":"levelo://app?vid=9f0f067c-4570-4779-9fe7-642e24984182","ios":"levelo://app?vid=9f0f067c-4570-4779-9fe7-642e24984182"},"vehicle_type_id":"4","last_reported":1701198348,"current_range_meters":18800,"station_id":"","pricing_plan_id":"free"},{"bike_id":"825a0577-f9e0-474f-95c7-64aa811f1ff5","system_id":"levelo_inurba_marseille","lat":43.309589,"lon":5.390258,"is_reserved":false,"is_disabled":false,"rental_uris":{"android":"levelo://app?vid=825a0577-f9e0-474f-95c7-64aa811f1ff5","ios":"levelo://app?vid=825a0577-f9e0-474f-95c7-64aa811f1ff5"},"vehicle_type_id":"4","last_reported":1701198348,"current_range_meters":0,"station_id":"ce4bgup2rcd13ifvqco0","pricing_plan_id":"free"},{"bike_id":"cf0c0f7d-2113-46ed-85a8-113d8181a3bd","system_id":"levelo_inurba_marseille","lat":43.29708,"lon":5.37693,"is_reserved":false,"is_disabled":false,"rental_uris":{"android":"levelo://app?vid=cf0c0f7d-2113-46ed-85a8-113d8181a3bd","ios":"levelo://app?vid=cf0c0f7d-2113-46ed-85a8-113d8181a3bd"},"vehicle_type_id":"4","last_reported":1701198348,"current_range_meters":0,"station_id":"ce4bgkh2rcd13ifvqbl0","pricing_plan_id":"free"},{"bike_id":"0c659a25-7844-46ff-b0aa-51bfc05543b8","system_id":"levelo_inurba_marseille","lat":43.317557,"lon":5.390173,"is_reserved":false,"is_disabled":false,"rental_uris":{"android":"levelo://app?vid=0c659a25-7844-46ff-b0aa-51bfc05543b8","ios":"levelo://app?vid=0c659a25-7844-46ff-b0aa-51bfc05543b8"},"vehicle_type_id":"4","last_reported":1701198348,"current_range_meters":27200,"station_id":"ce4bhqp2rcd13ifvqhng","pricing_plan_id":"free"},{"bike_id":"18a367b2-1894-43fd-9ce5-36601090b07b","system_id":"levelo_inurba_marseille","lat":43.304278,"lon":5.388868,"is_reserved":false,"is_disabled":false,"rental_uris":{"android":"levelo://app?vid=18a367b2-1894-43fd-9ce5-36601090b07b","ios":"levelo://app?vid=18a367b2-1894-43fd-9ce5-36601090b07b"},"vehicle_type_id":"4","last_reported":1701198348,"current_range_meters":11600,"station_id":"ce4bgk12rcd13ifvqbi0","pricing_plan_id":"free"},{"bike_id":"8c815222-769e-4dc5-93c0-5e87a9b99aa3","system_id":"levelo_inurba_marseille","lat":43.304274,"lon":5.388873,"is_reserved":false,"is_disabled":false,"rental_uris":{"android":"levelo://app?vid=8c815222-769e-4dc5-93c0-5e87a9b99aa3","ios":"levelo://app?vid=8c815222-769e-4dc5-93c0-5e87a9b99aa3"},"vehicle_type_id":"4","last_reported":1701198348,"current_range_meters":4800,"station_id":"ce4bgk12rcd13ifvqbi0","pricing_plan_id":"free"},{"bike_id":"deed4d43-28f2-4d1d-8bf8-dda5b349a92c","system_id":"levelo_inurba_marseille","lat":43.29539,"lon":5.37447,"is_reserved":false,"is_disabled":false,"rental_uris":{"android":"levelo://app?vid=deed4d43-28f2-4d1d-8bf8-dda5b349a92c","ios":"levelo://app?vid=deed4d43-28f2-4d1d-8bf8-dda5b349a92c"},"vehicle_type_id":"4","last_reported":1701198348,"current_range_meters":17600,"station_id":"ce4bgkp2rcd13ifvqbmg","pricing_plan_id":"free"},{"bike_id":"7feeb950-cfcf-43c1-9080-bf98a8bd9980","system_id":"levelo_inurba_marseille","lat":43.29977,"lon":5.38485,"is_reserved":false,"is_disabled":false,"rental_uris":{"android":"levelo://app?vid=7feeb950-cfcf-43c1-9080-bf98a8bd9980","ios":"levelo://app?vid=7feeb950-cfcf-43c1-9080-bf98a8bd9980"},"vehicle_type_id":"4","last_reported":1701198348,"current_range_meters":31200,"station_id":"ce4bgj92rcd13ifvqbd0","pricing_plan_id":"free"},{"bike_id":"ff9a9502-e547-4a3e-ab24-2a51c4389f83","system_id":"levelo_inurba_marseille","lat":43.299724,"lon":5.384848,"is_reserved":false,"is_disabled":false,"rental_uris":{"android":"levelo://app?vid=ff9a9502-e547-4a3e-ab24-2a51c4389f83","ios":"levelo://app?vid=ff9a9502-e547-4a3e-ab24-2a51c4389f83"},"vehicle_type_id":"4","last_reported":1701198348,"current_range_meters":8800,"station_id":"ce4bgj92rcd13ifvqbd0","pricing_plan_id":"free"},{"bike_id":"a1dfe32a-a7de-43d8-8d28-6c2e1d7ab658","system_id":"levelo_inurba_marseille","lat":43.304274,"lon":5.388873,"is_reserved":false,"is_disabled":false,"rental_uris":{"android":"levelo://app?vid=a1dfe32a-a7de-43d8-8d28-6c2e1d7ab658","ios":"levelo://app?vid=a1dfe32a-a7de-43d8-8d28-6c2e1d7ab658"},"vehicle_type_id":"4","last_reported":1701198348,"current_range_meters":30000,"station_id":"ce4bgk12rcd13ifvqbi0","pricing_plan_id":"free"},{"bike_id":"cd18b42b-f54a-4609-824d-da5cf14c9113","system_id":"levelo_inurba_marseille","lat":43.32367,"lon":5.388836,"is_reserved":false,"is_disabled":false,"rental_uris":{"android":"levelo://app?vid=cd18b42b-f54a-4609-824d-da5cf14c9113","ios":"levelo://app?vid=cd18b42b-f54a-4609-824d-da5cf14c9113"},"vehicle_type_id":"4","last_reported":1701198348,"current_range_meters":7600,"station_id":"ce4bhqp2rcd13ifvqhog","pricing_plan_id":"free"},{"bike_id":"936c3231-12cc-461f-b105-ca0c31e59285","system_id":"levelo_inurba_marseille","lat":43.29602,"lon":5.381084,"is_reserved":false,"is_disabled":false,"rental_uris":{"android":"levelo://app?vid=936c3231-12cc-461f-b105-ca0c31e59285","ios":"levelo://app?vid=936c3231-12cc-461f-b105-ca0c31e59285"},"vehicle_type_id":"4","last_reported":1701198348,"current_range_meters":9200,"station_id":"ce4bgl12rcd13ifvqbo0","pricing_plan_id":"free"},{"bike_id":"cc7761dc-b0f3-45f1-811d-46e0f43dfd77","system_id":"levelo_inurba_marseille","lat":43.293259,"lon":5.371586,"is_reserved":false,"is_disabled":false,"rental_uris":{"android":"levelo://app?vid=cc7761dc-b0f3-45f1-811d-46e0f43dfd77","ios":"levelo://app?vid=cc7761dc-b0f3-45f1-811d-46e0f43dfd77"},"vehicle_type_id":"4","last_reported":1701198348,"current_range_meters":6800,"station_id":"ce4bgh92rcd13ifvqb40","pricing_plan_id":"free"},{"bike_id":"81f9f7a6-dfd0-44c1-be5a-f735a7bd3810","system_id":"levelo_inurba_marseille","lat":43.29272,"lon":5.36836,"is_reserved":false,"is_disabled":false,"rental_uris":{"android":"levelo://app?vid=81f9f7a6-dfd0-44c1-be5a-f735a7bd3810","ios":"levelo://app?vid=81f9f7a6-dfd0-44c1-be5a-f735a7bd3810"},"vehicle_type_id":"4","last_reported":1701198348,"current_range_meters":31200,"station_id":"ce4bhbp2rcd13ifvqesg","pricing_plan_id":"free"},{"bike_id":"4200d7b1-09f0-4f2b-afa4-8aa832c5e1fc","system_id":"levelo_inurba_marseille","lat":43.29271,"lon":5.36842,"is_reserved":false,"is_disabled":false,"rental_uris":{"android":"levelo://app?vid=4200d7b1-09f0-4f2b-afa4-8aa832c5e1fc","ios":"levelo://app?vid=4200d7b1-09f0-4f2b-afa4-8aa832c5e1fc"},"vehicle_type_id":"4","last_reported":1701198348,"current_range_meters":22400,"station_id":"ce4bhbp2rcd13ifvqesg","pricing_plan_id":"free"},{"bike_id":"c441246a-030a-4375-a577-83da5d5685cf","system_id":"levelo_inurba_marseille","lat":43.30591,"lon":5.39354,"is_reserved":false,"is_disabled":false,"rental_uris":{"android":"levelo://app?vid=c441246a-030a-4375-a577-83da5d5685cf","ios":"levelo://app?vid=c441246a-030a-4375-a577-83da5d5685cf"},"vehicle_type_id":"4","last_reported":1701198348,"current_range_meters":0,"station_id":"ce4bh0p2rcd13ifvqd80","pricing_plan_id":"free"},{"bike_id":"98b2e749-2eb0-4798-b7bd-3b54caf9dfe4","system_id":"levelo_inurba_marseille","lat":43.2936,"lon":5.37835,"is_reserved":false,"is_disabled":false,"rental_uris":{"android":"levelo://app?vid=98b2e749-2eb0-4798-b7bd-3b54caf9dfe4","ios":"levelo://app?vid=98b2e749-2eb0-4798-b7bd-3b54caf9dfe4"},"vehicle_type_id":"4","last_reported":1701198348,"current_range_meters":26000,"station_id":"ce4bgjh2rcd13ifvqbf0","pricing_plan_id":"free"},{"bike_id":"c7db28e7-fb7c-4756-8ce0-9e632e44133d","system_id":"levelo_inurba_marseille","lat":43.300852,"lon":5.390859,"is_reserved":false,"is_disabled":false,"rental_uris":{"android":"levelo://app?vid=c7db28e7-fb7c-4756-8ce0-9e632e44133d","ios":"levelo://app?vid=c7db28e7-fb7c-4756-8ce0-9e632e44133d"},"vehicle_type_id":"4","last_reported":1701198348,"current_range_meters":11200,"station_id":"ce4bh192rcd13ifvqdb0","pricing_plan_id":"free"},{"bike_id":"05287b47-0dec-4240-a66b-14a5b7012bb3","system_id":"levelo_inurba_marseille","lat":43.29619,"lon":5.38469,"is_reserved":false,"is_disabled":false,"rental_uris":{"android":"levelo://app?vid=05287b47-0dec-4240-a66b-14a5b7012bb3","ios":"levelo://app?vid=05287b47-0dec-4240-a66b-14a5b7012bb3"},"vehicle_type_id":"4","last_reported":1701198348,"current_range_meters":1200,"station_id":"ce4bh692rcd13ifvqea0","pricing_plan_id":"free"},{"bike_id":"316edfd4-0e42-44c5-b482-2bb80b85280a","system_id":"levelo_inurba_marseille","lat":43.292663,"lon":5.376394,"is_reserved":false,"is_disabled":false,"rental_uris":{"android":"levelo://app?vid=316edfd4-0e42-44c5-b482-2bb80b85280a","ios":"levelo://app?vid=316edfd4-0e42-44c5-b482-2bb80b85280a"},"vehicle_type_id":"4","last_reported":1701198348,"current_range_meters":17200,"station_id":"ce4bgi12rcd13ifvqb80","pricing_plan_id":"free"},{"bike_id":"a4d41501-8a7b-4bd1-af82-cfffb3c9a296","system_id":"levelo_inurba_marseille","lat":43.298764,"lon":5.388973,"is_reserved":false,"is_disabled":false,"rental_uris":{"android":"levelo://app?vid=a4d41501-8a7b-4bd1-af82-cfffb3c9a296","ios":"levelo://app?vid=a4d41501-8a7b-4bd1-af82-cfffb3c9a296"},"vehicle_type_id":"4","last_reported":1701198348,"current_range_meters":16400,"station_id":"ce4bh392rcd13ifvqdl0","pricing_plan_id":"free"},{"bike_id":"4f4fc785-af91-4be1-90a0-aba8a44bb969","system_id":"levelo_inurba_marseille","lat":43.298764,"lon":5.388973,"is_reserved":false,"is_disabled":false,"rental_uris":{"android":"levelo://app?vid=4f4fc785-af91-4be1-90a0-aba8a44bb969","ios":"levelo://app?vid=4f4fc785-af91-4be1-90a0-aba8a44bb969"},"vehicle_type_id":"4","last_reported":1701198348,"current_range_meters":0,"station_id":"ce4bh392rcd13ifvqdl0","pricing_plan_id":"free"},{"bike_id":"9ccbe679-5489-4a12-8575-469752b4dbd4","system_id":"levelo_inurba_marseille","lat":43.291978,"lon":5.357955,"is_reserved":false,"is_disabled":false,"rental_uris":{"android":"levelo://app?vid=9ccbe679-5489-4a12-8575-469752b4dbd4","ios":"levelo://app?vid=9ccbe679-5489-4a12-8575-469752b4dbd4"},"vehicle_type_id":"4","last_reported":1701198348,"current_range_meters":18000,"station_id":"ce4bhb12rcd13ifvqel0","pricing_plan_id":"free"},{"bike_id":"f44aac3d-c57b-4aa5-b8e1-495822828b73","system_id":"levelo_inurba_marseille","lat":43.29195,"lon":5.35804,"is_reserved":false,"is_disabled":false,"rental_uris":{"android":"levelo://app?vid=f44aac3d-c57b-4aa5-b8e1-495822828b73","ios":"levelo://app?vid=f44aac3d-c57b-4aa5-b8e1-495822828b73"},"vehicle_type_id":"4","last_reported":1701198348,"current_range_meters":28400,"station_id":"ce4bhb12rcd13ifvqel0","pricing_plan_id":"free"},{"bike_id":"11eb1ba3-9034-4c77-8837-4653144d6053","system_id":"levelo_inurba_marseille","lat":43.313291,"lon":5.396838,"is_reserved":false,"is_disabled":false,"rental_uris":{"android":"levelo://app?vid=11eb1ba3-9034-4c77-8837-4653144d6053","ios":"levelo://app?vid=11eb1ba3-9034-4c77-8837-4653144d6053"},"vehicle_type_id":"4","last_reported":1701198348,"current_range_meters":4000,"station_id":"ce4bgvp2rcd13ifvqcu0","pricing_plan_id":"free"},{"bike_id":"74f08015-b7bb-42c0-9fa0-bdd6309cf311","system_id":"levelo_inurba_marseille","lat":43.309047,"lon":5.396551,"is_reserved":false,"is_disabled":false,"rental_uris":{"android":"levelo://app?vid=74f08015-b7bb-42c0-9fa0-bdd6309cf311","ios":"levelo://app?vid=74f08015-b7bb-42c0-9fa0-bdd6309cf311"},"vehicle_type_id":"4","last_reported":1701198348,"current_range_meters":22400,"station_id":"ce4bh012rcd13ifvqcv0","pricing_plan_id":"free"},{"bike_id":"e9305fe5-70e7-41f7-9c5f-60b3b1782c29","system_id":"levelo_inurba_marseille","lat":43.309038,"lon":5.396546,"is_reserved":false,"is_disabled":false,"rental_uris":{"android":"levelo://app?vid=e9305fe5-70e7-41f7-9c5f-60b3b1782c29","ios":"levelo://app?vid=e9305fe5-70e7-41f7-9c5f-60b3b1782c29"},"vehicle_type_id":"4","last_reported":1701198348,"current_range_meters":0,"station_id":"ce4bh012rcd13ifvqcv0","pricing_plan_id":"free"},{"bike_id":"6d682541-e303-48f1-a51f-1a3e63d669b4","system_id":"levelo_inurba_marseille","lat":43.32927,"lon":5.38819,"is_reserved":false,"is_disabled":false,"rental_uris":{"android":"levelo://app?vid=6d682541-e303-48f1-a51f-1a3e63d669b4","ios":"levelo://app?vid=6d682541-e303-48f1-a51f-1a3e63d669b4"},"vehicle_type_id":"4","last_reported":1701198348,"current_range_meters":26800,"station_id":"","pricing_plan_id":"free"},{"bike_id":"4295ef4f-d617-462f-b6ff-02941a29b2c6","system_id":"levelo_inurba_marseille","lat":43.290631,"lon":5.359244,"is_reserved":false,"is_disabled":false,"rental_uris":{"android":"levelo://app?vid=4295ef4f-d617-462f-b6ff-02941a29b2c6","ios":"levelo://app?vid=4295ef4f-d617-462f-b6ff-02941a29b2c6"},"vehicle_type_id":"4","last_reported":1701198348,"current_range_meters":26400,"station_id":"ce4bha92rcd13ifvqeg0","pricing_plan_id":"free"},{"bike_id":"5fd91584-1060-4ab4-8842-8e1f4296091c","system_id":"levelo_inurba_marseille","lat":43.294162,"lon":5.386292,"is_reserved":false,"is_disabled":false,"rental_uris":{"android":"levelo://app?vid=5fd91584-1060-4ab4-8842-8e1f4296091c","ios":"levelo://app?vid=5fd91584-1060-4ab4-8842-8e1f4296091c"},"vehicle_type_id":"4","last_reported":1701198348,"current_range_meters":15600,"station_id":"ce4bh2h2rcd13ifvqdh0","pricing_plan_id":"free"},{"bike_id":"f2ce54f6-1951-42b5-8782-0a78d2350c04","system_id":"levelo_inurba_marseille","lat":43.289184,"lon":5.366408,"is_reserved":false,"is_disabled":false,"rental_uris":{"android":"levelo://app?vid=f2ce54f6-1951-42b5-8782-0a78d2350c04","ios":"levelo://app?vid=f2ce54f6-1951-42b5-8782-0a78d2350c04"},"vehicle_type_id":"4","last_reported":1701198348,"current_range_meters":27200,"station_id":"ce4bhap2rcd13ifvqek0","pricing_plan_id":"free"},{"bike_id":"965bf54f-e5ac-4636-b361-dd350336cb51","system_id":"levelo_inurba_marseille","lat":43.292642,"lon":5.384254,"is_reserved":false,"is_disabled":false,"rental_uris":{"android":"levelo://app?vid=965bf54f-e5ac-4636-b361-dd350336cb51","ios":"levelo://app?vid=965bf54f-e5ac-4636-b361-dd350336cb51"},"vehicle_type_id":"4","last_reported":1701198348,"current_range_meters":4000,"station_id":"ce4bh692rcd13ifvqea0","pricing_plan_id":"free"},{"bike_id":"1b2fdadf-d11b-4d23-82c2-7120ec90281b","system_id":"levelo_inurba_marseille","lat":43.292644,"lon":5.384257,"is_reserved":false,"is_disabled":false,"rental_uris":{"android":"levelo://app?vid=1b2fdadf-d11b-4d23-82c2-7120ec90281b","ios":"levelo://app?vid=1b2fdadf-d11b-4d23-82c2-7120ec90281b"},"vehicle_type_id":"4","last_reported":1701198348,"current_range_meters":30800,"station_id":"ce4bh692rcd13ifvqea0","pricing_plan_id":"free"},{"bike_id":"52ab910d-2dfa-4dff-ae34-b5e1269358ff","system_id":"levelo_inurba_marseille","lat":43.292644,"lon":5.384257,"is_reserved":false,"is_disabled":false,"rental_uris":{"android":"levelo://app?vid=52ab910d-2dfa-4dff-ae34-b5e1269358ff","ios":"levelo://app?vid=52ab910d-2dfa-4dff-ae34-b5e1269358ff"},"vehicle_type_id":"4","last_reported":1701198348,"current_range_meters":11600,"station_id":"ce4bh692rcd13ifvqea0","pricing_plan_id":"free"},{"bike_id":"9330490c-8e29-46c2-aa2d-ac26073b0340","system_id":"levelo_inurba_marseille","lat":43.304296,"lon":5.397513,"is_reserved":false,"is_disabled":false,"rental_uris":{"android":"levelo://app?vid=9330490c-8e29-46c2-aa2d-ac26073b0340","ios":"levelo://app?vid=9330490c-8e29-46c2-aa2d-ac26073b0340"},"vehicle_type_id":"4","last_reported":1701198348,"current_range_meters":4000,"station_id":"ce4bh092rcd13ifvqd20","pricing_plan_id":"free"},{"bike_id":"e553c33d-6e42-4458-bb16-16509fbfe21e","system_id":"levelo_inurba_marseille","lat":43.330442,"lon":5.389148,"is_reserved":false,"is_disabled":false,"rental_uris":{"android":"levelo://app?vid=e553c33d-6e42-4458-bb16-16509fbfe21e","ios":"levelo://app?vid=e553c33d-6e42-4458-bb16-16509fbfe21e"},"vehicle_type_id":"4","last_reported":1701198348,"current_range_meters":4800,"station_id":"ce4bhr92rcd13ifvqhrg","pricing_plan_id":"free"},{"bike_id":"d2624390-2535-48fa-a1b2-a273234dace3","system_id":"levelo_inurba_marseille","lat":43.330442,"lon":5.389148,"is_reserved":false,"is_disabled":false,"rental_uris":{"android":"levelo://app?vid=d2624390-2535-48fa-a1b2-a273234dace3","ios":"levelo://app?vid=d2624390-2535-48fa-a1b2-a273234dace3"},"vehicle_type_id":"4","last_reported":1701198348,"current_range_meters":8800,"station_id":"ce4bhr92rcd13ifvqhrg","pricing_plan_id":"free"},{"bike_id":"c8e78174-fe8b-4fb9-9120-260998ebd3f0","system_id":"levelo_inurba_marseille","lat":43.290104,"lon":5.356111,"is_reserved":false,"is_disabled":false,"rental_uris":{"android":"levelo://app?vid=c8e78174-fe8b-4fb9-9120-260998ebd3f0","ios":"levelo://app?vid=c8e78174-fe8b-4fb9-9120-260998ebd3f0"},"vehicle_type_id":"4","last_reported":1701198348,"current_range_meters":11600,"station_id":"ce4bhb92rcd13ifvqen0","pricing_plan_id":"free"},{"bike_id":"67810528-fb28-41e8-a8bc-9f1e263f753e","system_id":"levelo_inurba_marseille","lat":43.290104,"lon":5.356111,"is_reserved":false,"is_disabled":false,"rental_uris":{"android":"levelo://app?vid=67810528-fb28-41e8-a8bc-9f1e263f753e","ios":"levelo://app?vid=67810528-fb28-41e8-a8bc-9f1e263f753e"},"vehicle_type_id":"4","last_reported":1701198348,"current_range_meters":3200,"station_id":"ce4bhb92rcd13ifvqen0","pricing_plan_id":"free"},{"bike_id":"0850c617-2e37-4f39-ba12-c9d18ba5dcd1","system_id":"levelo_inurba_marseille","lat":43.295169,"lon":5.390426,"is_reserved":false,"is_disabled":false,"rental_uris":{"android":"levelo://app?vid=0850c617-2e37-4f39-ba12-c9d18ba5dcd1","ios":"levelo://app?vid=0850c617-2e37-4f39-ba12-c9d18ba5dcd1"},"vehicle_type_id":"4","last_reported":1701198348,"current_range_meters":25600,"station_id":"ce4bh3p2rcd13ifvqdp0","pricing_plan_id":"free"},{"bike_id":"7862495b-935d-4ff6-842e-a0db35ec4765","system_id":"levelo_inurba_marseille","lat":43.295169,"lon":5.390426,"is_reserved":false,"is_disabled":false,"rental_uris":{"android":"levelo://app?vid=7862495b-935d-4ff6-842e-a0db35ec4765","ios":"levelo://app?vid=7862495b-935d-4ff6-842e-a0db35ec4765"},"vehicle_type_id":"4","last_reported":1701198348,"current_range_meters":15600,"station_id":"ce4bh3p2rcd13ifvqdp0","pricing_plan_id":"free"},{"bike_id":"0ed24841-fa38-45cc-9295-57c2f2691dc6","system_id":"levelo_inurba_marseille","lat":43.295169,"lon":5.390426,"is_reserved":false,"is_disabled":false,"rental_uris":{"android":"levelo://app?vid=0ed24841-fa38-45cc-9295-57c2f2691dc6","ios":"levelo://app?vid=0ed24841-fa38-45cc-9295-57c2f2691dc6"},"vehicle_type_id":"4","last_reported":1701198348,"current_range_meters":1200,"station_id":"ce4bh3p2rcd13ifvqdp0","pricing_plan_id":"free"},{"bike_id":"a6f2f75b-60e1-41cb-81f7-f861df117553","system_id":"levelo_inurba_marseille","lat":43.33703,"lon":5.3741,"is_reserved":false,"is_disabled":false,"rental_uris":{"android":"levelo://app?vid=a6f2f75b-60e1-41cb-81f7-f861df117553","ios":"levelo://app?vid=a6f2f75b-60e1-41cb-81f7-f861df117553"},"vehicle_type_id":"4","last_reported":1701198348,"current_range_meters":27600,"station_id":"","pricing_plan_id":"free"},{"bike_id":"ddf26704-29af-4137-b10b-b42944575399","system_id":"levelo_inurba_marseille","lat":43.28856,"lon":5.358371,"is_reserved":false,"is_disabled":false,"rental_uris":{"android":"levelo://app?vid=ddf26704-29af-4137-b10b-b42944575399","ios":"levelo://app?vid=ddf26704-29af-4137-b10b-b42944575399"},"vehicle_type_id":"4","last_reported":1701198348,"current_range_meters":16000,"station_id":"ce4bhb12rcd13ifvqem0","pricing_plan_id":"free"},{"bike_id":"6a25fa7b-b2e3-4b64-ba2e-9aa5b06c315e","system_id":"levelo_inurba_marseille","lat":43.28856,"lon":5.358371,"is_reserved":false,"is_disabled":false,"rental_uris":{"android":"levelo://app?vid=6a25fa7b-b2e3-4b64-ba2e-9aa5b06c315e","ios":"levelo://app?vid=6a25fa7b-b2e3-4b64-ba2e-9aa5b06c315e"},"vehicle_type_id":"4","last_reported":1701198348,"current_range_meters":1200,"station_id":"ce4bhb12rcd13ifvqem0","pricing_plan_id":"free"},{"bike_id":"2700f83f-b7a8-4822-b79e-752ad9527214","system_id":"levelo_inurba_marseille","lat":43.28856,"lon":5.358371,"is_reserved":false,"is_disabled":false,"rental_uris":{"android":"levelo://app?vid=2700f83f-b7a8-4822-b79e-752ad9527214","ios":"levelo://app?vid=2700f83f-b7a8-4822-b79e-752ad9527214"},"vehicle_type_id":"4","last_reported":1701198348,"current_range_meters":8800,"station_id":"ce4bhb12rcd13ifvqem0","pricing_plan_id":"free"},{"bike_id":"e1ea4410-abaf-48c3-bfac-109caf57fcc9","system_id":"levelo_inurba_marseille","lat":43.28856,"lon":5.358371,"is_reserved":false,"is_disabled":false,"rental_uris":{"android":"levelo://app?vid=e1ea4410-abaf-48c3-bfac-109caf57fcc9","ios":"levelo://app?vid=e1ea4410-abaf-48c3-bfac-109caf57fcc9"},"vehicle_type_id":"4","last_reported":1701198348,"current_range_meters":800,"station_id":"ce4bhb12rcd13ifvqem0","pricing_plan_id":"free"},{"bike_id":"77b088cb-35f9-460a-9f79-0c93b2db5ec1","system_id":"levelo_inurba_marseille","lat":43.28856,"lon":5.358371,"is_reserved":false,"is_disabled":false,"rental_uris":{"android":"levelo://app?vid=77b088cb-35f9-460a-9f79-0c93b2db5ec1","ios":"levelo://app?vid=77b088cb-35f9-460a-9f79-0c93b2db5ec1"},"vehicle_type_id":"4","last_reported":1701198348,"current_range_meters":5600,"station_id":"ce4bhb12rcd13ifvqem0","pricing_plan_id":"free"},{"bike_id":"5b37b173-fa67-4cad-bc1f-8ea0c5e96ebd","system_id":"levelo_inurba_marseille","lat":43.33735,"lon":5.37406,"is_reserved":false,"is_disabled":false,"rental_uris":{"android":"levelo://app?vid=5b37b173-fa67-4cad-bc1f-8ea0c5e96ebd","ios":"levelo://app?vid=5b37b173-fa67-4cad-bc1f-8ea0c5e96ebd"},"vehicle_type_id":"4","last_reported":1701198348,"current_range_meters":8800,"station_id":"","pricing_plan_id":"free"},{"bike_id":"cf3b50ef-ba5a-4e3c-a461-c3bea54b351f","system_id":"levelo_inurba_marseille","lat":43.309371,"lon":5.401449,"is_reserved":false,"is_disabled":false,"rental_uris":{"android":"levelo://app?vid=cf3b50ef-ba5a-4e3c-a461-c3bea54b351f","ios":"levelo://app?vid=cf3b50ef-ba5a-4e3c-a461-c3bea54b351f"},"vehicle_type_id":"4","last_reported":1701198348,"current_range_meters":22000,"station_id":"ce4bgvp2rcd13ifvqct0","pricing_plan_id":"free"},{"bike_id":"1c5cc5d7-140c-4712-84c3-eab4b233cdd7","system_id":"levelo_inurba_marseille","lat":43.312609,"lon":5.401662,"is_reserved":false,"is_disabled":false,"rental_uris":{"android":"levelo://app?vid=1c5cc5d7-140c-4712-84c3-eab4b233cdd7","ios":"levelo://app?vid=1c5cc5d7-140c-4712-84c3-eab4b233cdd7"},"vehicle_type_id":"4","last_reported":1701198348,"current_range_meters":12800,"station_id":"ce4bh092rcd13ifvqd30","pricing_plan_id":"free"},{"bike_id":"34186400-9dc4-4a46-848e-b87bf3d1aa5d","system_id":"levelo_inurba_marseille","lat":43.312658,"lon":5.4018,"is_reserved":false,"is_disabled":false,"rental_uris":{"android":"levelo://app?vid=34186400-9dc4-4a46-848e-b87bf3d1aa5d","ios":"levelo://app?vid=34186400-9dc4-4a46-848e-b87bf3d1aa5d"},"vehicle_type_id":"4","last_reported":1701198348,"current_range_meters":16400,"station_id":"ce4bh092rcd13ifvqd30","pricing_plan_id":"free"},{"bike_id":"05fb1921-7921-465c-9046-132299ee5b35","system_id":"levelo_inurba_marseille","lat":43.337637,"lon":5.37455,"is_reserved":false,"is_disabled":false,"rental_uris":{"android":"levelo://app?vid=05fb1921-7921-465c-9046-132299ee5b35","ios":"levelo://app?vid=05fb1921-7921-465c-9046-132299ee5b35"},"vehicle_type_id":"4","last_reported":1701198348,"current_range_meters":24800,"station_id":"","pricing_plan_id":"free"},{"bike_id":"b8629559-32a8-42c1-a37d-36c3c0889589","system_id":"levelo_inurba_marseille","lat":43.30642,"lon":5.401031,"is_reserved":false,"is_disabled":false,"rental_uris":{"android":"levelo://app?vid=b8629559-32a8-42c1-a37d-36c3c0889589","ios":"levelo://app?vid=b8629559-32a8-42c1-a37d-36c3c0889589"},"vehicle_type_id":"4","last_reported":1701198348,"current_range_meters":23200,"station_id":"ce4bh112rcd13ifvqda0","pricing_plan_id":"free"},{"bike_id":"cc20ea20-f4c7-4e35-8c7f-0cadd54b7968","system_id":"levelo_inurba_marseille","lat":43.286593,"lon":5.363346,"is_reserved":false,"is_disabled":false,"rental_uris":{"android":"levelo://app?vid=cc20ea20-f4c7-4e35-8c7f-0cadd54b7968","ios":"levelo://app?vid=cc20ea20-f4c7-4e35-8c7f-0cadd54b7968"},"vehicle_type_id":"4","last_reported":1701198348,"current_range_meters":16000,"station_id":"ce4bhah2rcd13ifvqej0","pricing_plan_id":"free"},{"bike_id":"e53ef190-f3dc-4997-bdc4-2d5fe846cb1c","system_id":"levelo_inurba_marseille","lat":43.286593,"lon":5.363346,"is_reserved":false,"is_disabled":false,"rental_uris":{"android":"levelo://app?vid=e53ef190-f3dc-4997-bdc4-2d5fe846cb1c","ios":"levelo://app?vid=e53ef190-f3dc-4997-bdc4-2d5fe846cb1c"},"vehicle_type_id":"4","last_reported":1701198348,"current_range_meters":18000,"station_id":"ce4bhah2rcd13ifvqej0","pricing_plan_id":"free"},{"bike_id":"0835f735-fbc4-40ca-b02a-112ff61ff6d1","system_id":"levelo_inurba_marseille","lat":43.286591,"lon":5.363346,"is_reserved":false,"is_disabled":false,"rental_uris":{"android":"levelo://app?vid=0835f735-fbc4-40ca-b02a-112ff61ff6d1","ios":"levelo://app?vid=0835f735-fbc4-40ca-b02a-112ff61ff6d1"},"vehicle_type_id":"4","last_reported":1701198348,"current_range_meters":5200,"station_id":"ce4bhah2rcd13ifvqej0","pricing_plan_id":"free"},{"bike_id":"c07f0312-a415-4cc2-81a0-38436b7503c9","system_id":"levelo_inurba_marseille","lat":43.286593,"lon":5.363346,"is_reserved":false,"is_disabled":false,"rental_uris":{"android":"levelo://app?vid=c07f0312-a415-4cc2-81a0-38436b7503c9","ios":"levelo://app?vid=c07f0312-a415-4cc2-81a0-38436b7503c9"},"vehicle_type_id":"4","last_reported":1701198348,"current_range_meters":30800,"station_id":"ce4bhah2rcd13ifvqej0","pricing_plan_id":"free"},{"bike_id":"bd6a1dca-c68b-488a-a263-56645d27a7e4","system_id":"levelo_inurba_marseille","lat":43.298681,"lon":5.397225,"is_reserved":false,"is_disabled":false,"rental_uris":{"android":"levelo://app?vid=bd6a1dca-c68b-488a-a263-56645d27a7e4","ios":"levelo://app?vid=bd6a1dca-c68b-488a-a263-56645d27a7e4"},"vehicle_type_id":"4","last_reported":1701198348,"current_range_meters":1600,"station_id":"ce4bh0h2rcd13ifvqd50","pricing_plan_id":"free"},{"bike_id":"e5723a22-18b0-4bba-944e-f4d0788972cf","system_id":"levelo_inurba_marseille","lat":43.286591,"lon":5.363346,"is_reserved":false,"is_disabled":false,"rental_uris":{"android":"levelo://app?vid=e5723a22-18b0-4bba-944e-f4d0788972cf","ios":"levelo://app?vid=e5723a22-18b0-4bba-944e-f4d0788972cf"},"vehicle_type_id":"4","last_reported":1701198348,"current_range_meters":22000,"station_id":"ce4bhah2rcd13ifvqej0","pricing_plan_id":"free"},{"bike_id":"d04cb926-d379-4d54-889e-011c33213e8f","system_id":"levelo_inurba_marseille","lat":43.295196,"lon":5.39397,"is_reserved":false,"is_disabled":false,"rental_uris":{"android":"levelo://app?vid=d04cb926-d379-4d54-889e-011c33213e8f","ios":"levelo://app?vid=d04cb926-d379-4d54-889e-011c33213e8f"},"vehicle_type_id":"4","last_reported":1701198348,"current_range_meters":26800,"station_id":"ce4bh292rcd13ifvqdf0","pricing_plan_id":"free"},{"bike_id":"642856a1-9ab2-476a-940d-fee066c2d6d2","system_id":"levelo_inurba_marseille","lat":43.29877,"lon":5.39745,"is_reserved":false,"is_disabled":false,"rental_uris":{"android":"levelo://app?vid=642856a1-9ab2-476a-940d-fee066c2d6d2","ios":"levelo://app?vid=642856a1-9ab2-476a-940d-fee066c2d6d2"},"vehicle_type_id":"4","last_reported":1701198348,"current_range_meters":0,"station_id":"ce4bh0h2rcd13ifvqd50","pricing_plan_id":"free"},{"bike_id":"b9b949df-bc1b-4bb7-ae6f-7f7973f03542","system_id":"levelo_inurba_marseille","lat":43.295196,"lon":5.39397,"is_reserved":false,"is_disabled":false,"rental_uris":{"android":"levelo://app?vid=b9b949df-bc1b-4bb7-ae6f-7f7973f03542","ios":"levelo://app?vid=b9b949df-bc1b-4bb7-ae6f-7f7973f03542"},"vehicle_type_id":"4","last_reported":1701198348,"current_range_meters":21200,"station_id":"ce4bh292rcd13ifvqdf0","pricing_plan_id":"free"},{"bike_id":"b7b8a2f8-50d8-4c5f-9473-bb6619ea444f","system_id":"levelo_inurba_marseille","lat":43.29036,"lon":5.38624,"is_reserved":false,"is_disabled":false,"rental_uris":{"android":"levelo://app?vid=b7b8a2f8-50d8-4c5f-9473-bb6619ea444f","ios":"levelo://app?vid=b7b8a2f8-50d8-4c5f-9473-bb6619ea444f"},"vehicle_type_id":"4","last_reported":1701198348,"current_range_meters":0,"station_id":"","pricing_plan_id":"free"},{"bike_id":"5d436abf-15a8-45fe-a836-6b2feef2bf11","system_id":"levelo_inurba_marseille","lat":43.302759,"lon":5.400793,"is_reserved":false,"is_disabled":false,"rental_uris":{"android":"levelo://app?vid=5d436abf-15a8-45fe-a836-6b2feef2bf11","ios":"levelo://app?vid=5d436abf-15a8-45fe-a836-6b2feef2bf11"},"vehicle_type_id":"4","last_reported":1701198348,"current_range_meters":26000,"station_id":"ce4bgvh2rcd13ifvqcs0","pricing_plan_id":"free"},{"bike_id":"99bc40da-d976-4ea8-96cc-a962a86df958","system_id":"levelo_inurba_marseille","lat":43.29035,"lon":5.386413,"is_reserved":false,"is_disabled":false,"rental_uris":{"android":"levelo://app?vid=99bc40da-d976-4ea8-96cc-a962a86df958","ios":"levelo://app?vid=99bc40da-d976-4ea8-96cc-a962a86df958"},"vehicle_type_id":"4","last_reported":1701198348,"current_range_meters":14800,"station_id":"","pricing_plan_id":"free"},{"bike_id":"8d1eaa4f-40ed-41dc-a8f1-06871985194d","system_id":"levelo_inurba_marseille","lat":43.302759,"lon":5.400793,"is_reserved":false,"is_disabled":false,"rental_uris":{"android":"levelo://app?vid=8d1eaa4f-40ed-41dc-a8f1-06871985194d","ios":"levelo://app?vid=8d1eaa4f-40ed-41dc-a8f1-06871985194d"},"vehicle_type_id":"4","last_reported":1701198348,"current_range_meters":22400,"station_id":"ce4bgvh2rcd13ifvqcs0","pricing_plan_id":"free"},{"bike_id":"9c170648-b835-4ed8-b22f-974e731efb3e","system_id":"levelo_inurba_marseille","lat":43.286039,"lon":5.370681,"is_reserved":false,"is_disabled":false,"rental_uris":{"android":"levelo://app?vid=9c170648-b835-4ed8-b22f-974e731efb3e","ios":"levelo://app?vid=9c170648-b835-4ed8-b22f-974e731efb3e"},"vehicle_type_id":"4","last_reported":1701198348,"current_range_meters":6000,"station_id":"ce4bht12rcd13ifvqi60","pricing_plan_id":"free"},{"bike_id":"1653c888-0006-4c94-8078-fc5ad34b6550","system_id":"levelo_inurba_marseille","lat":43.316517,"lon":5.404375,"is_reserved":false,"is_disabled":false,"rental_uris":{"android":"levelo://app?vid=1653c888-0006-4c94-8078-fc5ad34b6550","ios":"levelo://app?vid=1653c888-0006-4c94-8078-fc5ad34b6550"},"vehicle_type_id":"4","last_reported":1701198348,"current_range_meters":30000,"station_id":"ce4bh012rcd13ifvqd00","pricing_plan_id":"free"},{"bike_id":"625f7362-4aef-41bf-9975-56a440d1b477","system_id":"levelo_inurba_marseille","lat":43.316523,"lon":5.404367,"is_reserved":false,"is_disabled":false,"rental_uris":{"android":"levelo://app?vid=625f7362-4aef-41bf-9975-56a440d1b477","ios":"levelo://app?vid=625f7362-4aef-41bf-9975-56a440d1b477"},"vehicle_type_id":"4","last_reported":1701198348,"current_range_meters":30800,"station_id":"ce4bh012rcd13ifvqd00","pricing_plan_id":"free"},{"bike_id":"cc8f81d7-030d-4bc6-bcba-0f5509f170e2","system_id":"levelo_inurba_marseille","lat":43.291994,"lon":5.392907,"is_reserved":false,"is_disabled":false,"rental_uris":{"android":"levelo://app?vid=cc8f81d7-030d-4bc6-bcba-0f5509f170e2","ios":"levelo://app?vid=cc8f81d7-030d-4bc6-bcba-0f5509f170e2"},"vehicle_type_id":"4","last_reported":1701198348,"current_range_meters":31200,"station_id":"ce4bh192rcd13ifvqdd0","pricing_plan_id":"free"},{"bike_id":"736457ac-9954-4414-85f7-0ffdab74d67f","system_id":"levelo_inurba_marseille","lat":43.28471,"lon":5.35879,"is_reserved":false,"is_disabled":false,"rental_uris":{"android":"levelo://app?vid=736457ac-9954-4414-85f7-0ffdab74d67f","ios":"levelo://app?vid=736457ac-9954-4414-85f7-0ffdab74d67f"},"vehicle_type_id":"4","last_reported":1701198348,"current_range_meters":3200,"station_id":"ce4bhah2rcd13ifvqei0","pricing_plan_id":"free"},{"bike_id":"7cd86c59-4cf7-460f-8dbb-5b85e0b6ff44","system_id":"levelo_inurba_marseille","lat":43.284538,"lon":5.358657,"is_reserved":false,"is_disabled":false,"rental_uris":{"android":"levelo://app?vid=7cd86c59-4cf7-460f-8dbb-5b85e0b6ff44","ios":"levelo://app?vid=7cd86c59-4cf7-460f-8dbb-5b85e0b6ff44"},"vehicle_type_id":"4","last_reported":1701198348,"current_range_meters":400,"station_id":"ce4bhah2rcd13ifvqei0","pricing_plan_id":"free"},{"bike_id":"5e43b6eb-37fc-481f-83f6-a4b4faa34f4f","system_id":"levelo_inurba_marseille","lat":43.284538,"lon":5.358657,"is_reserved":false,"is_disabled":false,"rental_uris":{"android":"levelo://app?vid=5e43b6eb-37fc-481f-83f6-a4b4faa34f4f","ios":"levelo://app?vid=5e43b6eb-37fc-481f-83f6-a4b4faa34f4f"},"vehicle_type_id":"4","last_reported":1701198348,"current_range_meters":20400,"station_id":"ce4bhah2rcd13ifvqei0","pricing_plan_id":"free"},{"bike_id":"be863781-d1a5-4037-b452-89ec03a9a1ab","system_id":"levelo_inurba_marseille","lat":43.284538,"lon":5.358657,"is_reserved":false,"is_disabled":false,"rental_uris":{"android":"levelo://app?vid=be863781-d1a5-4037-b452-89ec03a9a1ab","ios":"levelo://app?vid=be863781-d1a5-4037-b452-89ec03a9a1ab"},"vehicle_type_id":"4","last_reported":1701198348,"current_range_meters":30400,"station_id":"ce4bhah2rcd13ifvqei0","pricing_plan_id":"free"},{"bike_id":"38e20aee-0f2e-4b14-beaf-ebce34830f09","system_id":"levelo_inurba_marseille","lat":43.284538,"lon":5.358657,"is_reserved":false,"is_disabled":false,"rental_uris":{"android":"levelo://app?vid=38e20aee-0f2e-4b14-beaf-ebce34830f09","ios":"levelo://app?vid=38e20aee-0f2e-4b14-beaf-ebce34830f09"},"vehicle_type_id":"4","last_reported":1701198348,"current_range_meters":31200,"station_id":"ce4bhah2rcd13ifvqei0","pricing_plan_id":"free"},{"bike_id":"25c2ec6d-e178-4d2f-88d3-840244cb8ec0","system_id":"levelo_inurba_marseille","lat":43.284534,"lon":5.358662,"is_reserved":false,"is_disabled":false,"rental_uris":{"android":"levelo://app?vid=25c2ec6d-e178-4d2f-88d3-840244cb8ec0","ios":"levelo://app?vid=25c2ec6d-e178-4d2f-88d3-840244cb8ec0"},"vehicle_type_id":"4","last_reported":1701198348,"current_range_meters":31200,"station_id":"ce4bhah2rcd13ifvqei0","pricing_plan_id":"free"},{"bike_id":"f9d317a2-ff24-41e6-9549-7f0d05f9ec1e","system_id":"levelo_inurba_marseille","lat":43.284534,"lon":5.358662,"is_reserved":false,"is_disabled":false,"rental_uris":{"android":"levelo://app?vid=f9d317a2-ff24-41e6-9549-7f0d05f9ec1e","ios":"levelo://app?vid=f9d317a2-ff24-41e6-9549-7f0d05f9ec1e"},"vehicle_type_id":"4","last_reported":1701198348,"current_range_meters":24800,"station_id":"ce4bhah2rcd13ifvqei0","pricing_plan_id":"free"},{"bike_id":"3a411332-de50-401f-b4fa-5b272c8b4bbf","system_id":"levelo_inurba_marseille","lat":43.285856,"lon":5.350771,"is_reserved":false,"is_disabled":false,"rental_uris":{"android":"levelo://app?vid=3a411332-de50-401f-b4fa-5b272c8b4bbf","ios":"levelo://app?vid=3a411332-de50-401f-b4fa-5b272c8b4bbf"},"vehicle_type_id":"4","last_reported":1701198348,"current_range_meters":8400,"station_id":"ce4bhch2rcd13ifvqeug","pricing_plan_id":"free"},{"bike_id":"7c6f6130-0650-48a8-bfd8-e068140806bc","system_id":"levelo_inurba_marseille","lat":43.28615,"lon":5.35104,"is_reserved":false,"is_disabled":false,"rental_uris":{"android":"levelo://app?vid=7c6f6130-0650-48a8-bfd8-e068140806bc","ios":"levelo://app?vid=7c6f6130-0650-48a8-bfd8-e068140806bc"},"vehicle_type_id":"4","last_reported":1701198348,"current_range_meters":24000,"station_id":"ce4bhch2rcd13ifvqeug","pricing_plan_id":"free"},{"bike_id":"9c2b0bf1-41c8-4f85-aea0-5272aa18387b","system_id":"levelo_inurba_marseille","lat":43.297946,"lon":5.404063,"is_reserved":false,"is_disabled":false,"rental_uris":{"android":"levelo://app?vid=9c2b0bf1-41c8-4f85-aea0-5272aa18387b","ios":"levelo://app?vid=9c2b0bf1-41c8-4f85-aea0-5272aa18387b"},"vehicle_type_id":"4","last_reported":1701198348,"current_range_meters":12400,"station_id":"ce4bh112rcd13ifvqd90","pricing_plan_id":"free"},{"bike_id":"88d1fd42-a4b5-4b54-b3e2-c499ee4c1a9b","system_id":"levelo_inurba_marseille","lat":43.288501,"lon":5.393087,"is_reserved":false,"is_disabled":false,"rental_uris":{"android":"levelo://app?vid=88d1fd42-a4b5-4b54-b3e2-c499ee4c1a9b","ios":"levelo://app?vid=88d1fd42-a4b5-4b54-b3e2-c499ee4c1a9b"},"vehicle_type_id":"4","last_reported":1701198348,"current_range_meters":7600,"station_id":"ce4bh2p2rcd13ifvqdi0","pricing_plan_id":"free"},{"bike_id":"f7d2c7c7-4930-4ddb-b0dc-2c1e0ac5fe73","system_id":"levelo_inurba_marseille","lat":43.288501,"lon":5.393087,"is_reserved":false,"is_disabled":false,"rental_uris":{"android":"levelo://app?vid=f7d2c7c7-4930-4ddb-b0dc-2c1e0ac5fe73","ios":"levelo://app?vid=f7d2c7c7-4930-4ddb-b0dc-2c1e0ac5fe73"},"vehicle_type_id":"4","last_reported":1701198348,"current_range_meters":20800,"station_id":"ce4bh2p2rcd13ifvqdi0","pricing_plan_id":"free"},{"bike_id":"4fbd73b5-3750-4a68-86e2-263c0b9b1dbc","system_id":"levelo_inurba_marseille","lat":43.282754,"lon":5.350519,"is_reserved":false,"is_disabled":false,"rental_uris":{"android":"levelo://app?vid=4fbd73b5-3750-4a68-86e2-263c0b9b1dbc","ios":"levelo://app?vid=4fbd73b5-3750-4a68-86e2-263c0b9b1dbc"},"vehicle_type_id":"4","last_reported":1701198348,"current_range_meters":7200,"station_id":"ce4bhbp2rcd13ifvqerg","pricing_plan_id":"free"},{"bike_id":"1d6172a7-1636-4546-8355-96457235720f","system_id":"levelo_inurba_marseille","lat":43.283502,"lon":5.386471,"is_reserved":false,"is_disabled":false,"rental_uris":{"android":"levelo://app?vid=1d6172a7-1636-4546-8355-96457235720f","ios":"levelo://app?vid=1d6172a7-1636-4546-8355-96457235720f"},"vehicle_type_id":"4","last_reported":1701198348,"current_range_meters":2400,"station_id":"ce4bh492rcd13ifvqdvg","pricing_plan_id":"free"},{"bike_id":"e4aeb4f8-feae-40be-9dd8-4f8912d79314","system_id":"levelo_inurba_marseille","lat":43.282744,"lon":5.350533,"is_reserved":false,"is_disabled":false,"rental_uris":{"android":"levelo://app?vid=e4aeb4f8-feae-40be-9dd8-4f8912d79314","ios":"levelo://app?vid=e4aeb4f8-feae-40be-9dd8-4f8912d79314"},"vehicle_type_id":"4","last_reported":1701198348,"current_range_meters":24000,"station_id":"ce4bhbp2rcd13ifvqerg","pricing_plan_id":"free"},{"bike_id":"4b5b5b9a-04c9-4c9b-9f27-7f62860aeb4d","system_id":"levelo_inurba_marseille","lat":43.28049,"lon":5.3695,"is_reserved":false,"is_disabled":false,"rental_uris":{"android":"levelo://app?vid=4b5b5b9a-04c9-4c9b-9f27-7f62860aeb4d","ios":"levelo://app?vid=4b5b5b9a-04c9-4c9b-9f27-7f62860aeb4d"},"vehicle_type_id":"4","last_reported":1701198348,"current_range_meters":26000,"station_id":"ce4bha12rcd13ifvqef0","pricing_plan_id":"free"},{"bike_id":"cb07a6c2-ef3f-479f-841f-5f71396c8488","system_id":"levelo_inurba_marseille","lat":43.280404,"lon":5.369376,"is_reserved":false,"is_disabled":false,"rental_uris":{"android":"levelo://app?vid=cb07a6c2-ef3f-479f-841f-5f71396c8488","ios":"levelo://app?vid=cb07a6c2-ef3f-479f-841f-5f71396c8488"},"vehicle_type_id":"4","last_reported":1701198348,"current_range_meters":4000,"station_id":"","pricing_plan_id":"free"},{"bike_id":"90bb93de-60c6-45f1-8989-bac32159e22e","system_id":"levelo_inurba_marseille","lat":43.280383,"lon":5.369452,"is_reserved":false,"is_disabled":false,"rental_uris":{"android":"levelo://app?vid=90bb93de-60c6-45f1-8989-bac32159e22e","ios":"levelo://app?vid=90bb93de-60c6-45f1-8989-bac32159e22e"},"vehicle_type_id":"4","last_reported":1701198348,"current_range_meters":0,"station_id":"ce4bha12rcd13ifvqef0","pricing_plan_id":"free"},{"bike_id":"f8e93a5f-b85d-4c01-8630-1453bb55b231","system_id":"levelo_inurba_marseille","lat":43.282744,"lon":5.350533,"is_reserved":false,"is_disabled":false,"rental_uris":{"android":"levelo://app?vid=f8e93a5f-b85d-4c01-8630-1453bb55b231","ios":"levelo://app?vid=f8e93a5f-b85d-4c01-8630-1453bb55b231"},"vehicle_type_id":"4","last_reported":1701198348,"current_range_meters":14800,"station_id":"ce4bhbp2rcd13ifvqerg","pricing_plan_id":"free"},{"bike_id":"7b5ac9a1-ada9-4fd5-9cbb-fe4f7f319c60","system_id":"levelo_inurba_marseille","lat":43.290412,"lon":5.399633,"is_reserved":false,"is_disabled":false,"rental_uris":{"android":"levelo://app?vid=7b5ac9a1-ada9-4fd5-9cbb-fe4f7f319c60","ios":"levelo://app?vid=7b5ac9a1-ada9-4fd5-9cbb-fe4f7f319c60"},"vehicle_type_id":"4","last_reported":1701198348,"current_range_meters":0,"station_id":"ce4bh392rcd13ifvqdm0","pricing_plan_id":"free"},{"bike_id":"e59e456b-08bb-4e0f-b88f-d063a3242c94","system_id":"levelo_inurba_marseille","lat":43.281044,"lon":5.378308,"is_reserved":false,"is_disabled":false,"rental_uris":{"android":"levelo://app?vid=e59e456b-08bb-4e0f-b88f-d063a3242c94","ios":"levelo://app?vid=e59e456b-08bb-4e0f-b88f-d063a3242c94"},"vehicle_type_id":"4","last_reported":1701198348,"current_range_meters":6800,"station_id":"ce4bha12rcd13ifvqee0","pricing_plan_id":"free"},{"bike_id":"7ac741a1-22fe-45d7-be42-3360560d78fe","system_id":"levelo_inurba_marseille","lat":43.281044,"lon":5.378308,"is_reserved":false,"is_disabled":false,"rental_uris":{"android":"levelo://app?vid=7ac741a1-22fe-45d7-be42-3360560d78fe","ios":"levelo://app?vid=7ac741a1-22fe-45d7-be42-3360560d78fe"},"vehicle_type_id":"4","last_reported":1701198348,"current_range_meters":6000,"station_id":"ce4bha12rcd13ifvqee0","pricing_plan_id":"free"},{"bike_id":"c3d040bf-f09b-4296-b06e-358ed99b5f65","system_id":"levelo_inurba_marseille","lat":43.281044,"lon":5.378308,"is_reserved":false,"is_disabled":false,"rental_uris":{"android":"levelo://app?vid=c3d040bf-f09b-4296-b06e-358ed99b5f65","ios":"levelo://app?vid=c3d040bf-f09b-4296-b06e-358ed99b5f65"},"vehicle_type_id":"4","last_reported":1701198348,"current_range_meters":27200,"station_id":"ce4bha12rcd13ifvqee0","pricing_plan_id":"free"},{"bike_id":"40a7a335-9476-405a-8828-01de63ee21fb","system_id":"levelo_inurba_marseille","lat":43.2846,"lon":5.39193,"is_reserved":false,"is_disabled":false,"rental_uris":{"android":"levelo://app?vid=40a7a335-9476-405a-8828-01de63ee21fb","ios":"levelo://app?vid=40a7a335-9476-405a-8828-01de63ee21fb"},"vehicle_type_id":"4","last_reported":1701198348,"current_range_meters":6000,"station_id":"ce4bhoh2rcd13ifvqh5g","pricing_plan_id":"free"},{"bike_id":"92a449e2-34b5-494a-bb38-79fefbc2a034","system_id":"levelo_inurba_marseille","lat":43.284462,"lon":5.392121,"is_reserved":false,"is_disabled":false,"rental_uris":{"android":"levelo://app?vid=92a449e2-34b5-494a-bb38-79fefbc2a034","ios":"levelo://app?vid=92a449e2-34b5-494a-bb38-79fefbc2a034"},"vehicle_type_id":"4","last_reported":1701198348,"current_range_meters":10400,"station_id":"ce4bhoh2rcd13ifvqh5g","pricing_plan_id":"free"},{"bike_id":"9baeb7cd-a12e-484f-80e8-a2fa1799c6e1","system_id":"levelo_inurba_marseille","lat":43.285742,"lon":5.395004,"is_reserved":false,"is_disabled":false,"rental_uris":{"android":"levelo://app?vid=9baeb7cd-a12e-484f-80e8-a2fa1799c6e1","ios":"levelo://app?vid=9baeb7cd-a12e-484f-80e8-a2fa1799c6e1"},"vehicle_type_id":"4","last_reported":1701198348,"current_range_meters":7200,"station_id":"ce4bh292rcd13ifvqdg0","pricing_plan_id":"free"},{"bike_id":"83386e6a-5c24-44bc-bc4f-23a58973e99c","system_id":"levelo_inurba_marseille","lat":43.280266,"lon":5.382397,"is_reserved":false,"is_disabled":false,"rental_uris":{"android":"levelo://app?vid=83386e6a-5c24-44bc-bc4f-23a58973e99c","ios":"levelo://app?vid=83386e6a-5c24-44bc-bc4f-23a58973e99c"},"vehicle_type_id":"4","last_reported":1701198348,"current_range_meters":0,"station_id":"","pricing_plan_id":"free"},{"bike_id":"50289298-ce8a-4ddf-bd57-79e118aafb72","system_id":"levelo_inurba_marseille","lat":43.27972,"lon":5.38726,"is_reserved":false,"is_disabled":false,"rental_uris":{"android":"levelo://app?vid=50289298-ce8a-4ddf-bd57-79e118aafb72","ios":"levelo://app?vid=50289298-ce8a-4ddf-bd57-79e118aafb72"},"vehicle_type_id":"4","last_reported":1701198348,"current_range_meters":0,"station_id":"ce4bhg12rcd13ifvqf80","pricing_plan_id":"free"},{"bike_id":"9b72e72b-e223-4169-adad-d2de6ae16797","system_id":"levelo_inurba_marseille","lat":43.292571,"lon":5.409107,"is_reserved":false,"is_disabled":false,"rental_uris":{"android":"levelo://app?vid=9b72e72b-e223-4169-adad-d2de6ae16797","ios":"levelo://app?vid=9b72e72b-e223-4169-adad-d2de6ae16797"},"vehicle_type_id":"4","last_reported":1701198348,"current_range_meters":1600,"station_id":"ce4bh192rcd13ifvqdc0","pricing_plan_id":"free"},{"bike_id":"862ad49b-6a4f-4f57-a0ee-7762bd2f6e02","system_id":"levelo_inurba_marseille","lat":43.325243,"lon":5.414326,"is_reserved":false,"is_disabled":false,"rental_uris":{"android":"levelo://app?vid=862ad49b-6a4f-4f57-a0ee-7762bd2f6e02","ios":"levelo://app?vid=862ad49b-6a4f-4f57-a0ee-7762bd2f6e02"},"vehicle_type_id":"4","last_reported":1701198348,"current_range_meters":10800,"station_id":"ce4bhq12rcd13ifvqhhg","pricing_plan_id":"free"},{"bike_id":"0d410972-8ed3-4feb-8b85-4fc4b172d7fc","system_id":"levelo_inurba_marseille","lat":43.27618,"lon":5.361009,"is_reserved":false,"is_disabled":false,"rental_uris":{"android":"levelo://app?vid=0d410972-8ed3-4feb-8b85-4fc4b172d7fc","ios":"levelo://app?vid=0d410972-8ed3-4feb-8b85-4fc4b172d7fc"},"vehicle_type_id":"4","last_reported":1701198348,"current_range_meters":18800,"station_id":"ce4bgj92rcd13ifvqbe0","pricing_plan_id":"free"},{"bike_id":"6ae6cffd-f3fa-4656-ae34-9b09325ffa6a","system_id":"levelo_inurba_marseille","lat":43.303837,"lon":5.418724,"is_reserved":false,"is_disabled":false,"rental_uris":{"android":"levelo://app?vid=6ae6cffd-f3fa-4656-ae34-9b09325ffa6a","ios":"levelo://app?vid=6ae6cffd-f3fa-4656-ae34-9b09325ffa6a"},"vehicle_type_id":"4","last_reported":1701198348,"current_range_meters":26000,"station_id":"ce4bhop2rcd13ifvqh7g","pricing_plan_id":"free"},{"bike_id":"52567a34-5cdd-4312-beb1-87fad7177318","system_id":"levelo_inurba_marseille","lat":43.33612,"lon":5.410321,"is_reserved":false,"is_disabled":false,"rental_uris":{"android":"levelo://app?vid=52567a34-5cdd-4312-beb1-87fad7177318","ios":"levelo://app?vid=52567a34-5cdd-4312-beb1-87fad7177318"},"vehicle_type_id":"4","last_reported":1701198348,"current_range_meters":18000,"station_id":"ce4bhqh2rcd13ifvqhmg","pricing_plan_id":"free"},{"bike_id":"6942aa1c-3be5-435e-a563-b0146f1083b4","system_id":"levelo_inurba_marseille","lat":43.279952,"lon":5.400085,"is_reserved":false,"is_disabled":false,"rental_uris":{"android":"levelo://app?vid=6942aa1c-3be5-435e-a563-b0146f1083b4","ios":"levelo://app?vid=6942aa1c-3be5-435e-a563-b0146f1083b4"},"vehicle_type_id":"4","last_reported":1701198348,"current_range_meters":13200,"station_id":"ce4bho92rcd13ifvqh4g","pricing_plan_id":"free"},{"bike_id":"856f0679-fc9f-4639-b2ab-d2a04c4063b2","system_id":"levelo_inurba_marseille","lat":43.279952,"lon":5.400085,"is_reserved":false,"is_disabled":false,"rental_uris":{"android":"levelo://app?vid=856f0679-fc9f-4639-b2ab-d2a04c4063b2","ios":"levelo://app?vid=856f0679-fc9f-4639-b2ab-d2a04c4063b2"},"vehicle_type_id":"4","last_reported":1701198348,"current_range_meters":4400,"station_id":"ce4bho92rcd13ifvqh4g","pricing_plan_id":"free"},{"bike_id":"0d83b665-92a3-4e19-9e9e-5fdcef8f3331","system_id":"levelo_inurba_marseille","lat":43.317121,"lon":5.423936,"is_reserved":false,"is_disabled":false,"rental_uris":{"android":"levelo://app?vid=0d83b665-92a3-4e19-9e9e-5fdcef8f3331","ios":"levelo://app?vid=0d83b665-92a3-4e19-9e9e-5fdcef8f3331"},"vehicle_type_id":"4","last_reported":1701198348,"current_range_meters":6000,"station_id":"ce4bhp92rcd13ifvqhbg","pricing_plan_id":"free"},{"bike_id":"e9c8ea64-74b1-4b58-b699-24b0e3cdcaca","system_id":"levelo_inurba_marseille","lat":43.310785,"lon":5.424305,"is_reserved":false,"is_disabled":false,"rental_uris":{"android":"levelo://app?vid=e9c8ea64-74b1-4b58-b699-24b0e3cdcaca","ios":"levelo://app?vid=e9c8ea64-74b1-4b58-b699-24b0e3cdcaca"},"vehicle_type_id":"4","last_reported":1701198348,"current_range_meters":7600,"station_id":"ce4bhp92rcd13ifvqhag","pricing_plan_id":"free"},{"bike_id":"0d2f8383-0939-4bbd-987a-b05def9a4f03","system_id":"levelo_inurba_marseille","lat":43.310785,"lon":5.424305,"is_reserved":false,"is_disabled":false,"rental_uris":{"android":"levelo://app?vid=0d2f8383-0939-4bbd-987a-b05def9a4f03","ios":"levelo://app?vid=0d2f8383-0939-4bbd-987a-b05def9a4f03"},"vehicle_type_id":"4","last_reported":1701198348,"current_range_meters":13200,"station_id":"ce4bhp92rcd13ifvqhag","pricing_plan_id":"free"},{"bike_id":"19dd1cee-8873-4a30-9f6c-f5206a9328e0","system_id":"levelo_inurba_marseille","lat":43.295511,"lon":5.422926,"is_reserved":false,"is_disabled":false,"rental_uris":{"android":"levelo://app?vid=19dd1cee-8873-4a30-9f6c-f5206a9328e0","ios":"levelo://app?vid=19dd1cee-8873-4a30-9f6c-f5206a9328e0"},"vehicle_type_id":"4","last_reported":1701198348,"current_range_meters":30400,"station_id":"ce4bhph2rcd13ifvqhdg","pricing_plan_id":"free"},{"bike_id":"62cfa572-51d4-4a04-9e45-ea785883caeb","system_id":"levelo_inurba_marseille","lat":43.27215,"lon":5.39262,"is_reserved":false,"is_disabled":false,"rental_uris":{"android":"levelo://app?vid=62cfa572-51d4-4a04-9e45-ea785883caeb","ios":"levelo://app?vid=62cfa572-51d4-4a04-9e45-ea785883caeb"},"vehicle_type_id":"4","last_reported":1701198348,"current_range_meters":14400,"station_id":"","pricing_plan_id":"free"},{"bike_id":"fd59b74c-4579-4e0a-8bec-4ec64823f61a","system_id":"levelo_inurba_marseille","lat":43.278128,"lon":5.407195,"is_reserved":false,"is_disabled":false,"rental_uris":{"android":"levelo://app?vid=fd59b74c-4579-4e0a-8bec-4ec64823f61a","ios":"levelo://app?vid=fd59b74c-4579-4e0a-8bec-4ec64823f61a"},"vehicle_type_id":"4","last_reported":1701198348,"current_range_meters":15600,"station_id":"ce4bhnh2rcd13ifvqgtg","pricing_plan_id":"free"},{"bike_id":"9c09eb91-1097-47a8-9dc8-35b06c30a904","system_id":"levelo_inurba_marseille","lat":43.278128,"lon":5.407195,"is_reserved":false,"is_disabled":false,"rental_uris":{"android":"levelo://app?vid=9c09eb91-1097-47a8-9dc8-35b06c30a904","ios":"levelo://app?vid=9c09eb91-1097-47a8-9dc8-35b06c30a904"},"vehicle_type_id":"4","last_reported":1701198348,"current_range_meters":20400,"station_id":"ce4bhnh2rcd13ifvqgtg","pricing_plan_id":"free"},{"bike_id":"861ce127-c633-47c4-a541-50848c0dc844","system_id":"levelo_inurba_marseille","lat":43.278128,"lon":5.407195,"is_reserved":false,"is_disabled":false,"rental_uris":{"android":"levelo://app?vid=861ce127-c633-47c4-a541-50848c0dc844","ios":"levelo://app?vid=861ce127-c633-47c4-a541-50848c0dc844"},"vehicle_type_id":"4","last_reported":1701198348,"current_range_meters":20800,"station_id":"ce4bhnh2rcd13ifvqgtg","pricing_plan_id":"free"},{"bike_id":"ce052a0f-cd71-41a3-a930-be1df6a86a1f","system_id":"levelo_inurba_marseille","lat":43.278128,"lon":5.407195,"is_reserved":false,"is_disabled":false,"rental_uris":{"android":"levelo://app?vid=ce052a0f-cd71-41a3-a930-be1df6a86a1f","ios":"levelo://app?vid=ce052a0f-cd71-41a3-a930-be1df6a86a1f"},"vehicle_type_id":"4","last_reported":1701198348,"current_range_meters":24400,"station_id":"ce4bhnh2rcd13ifvqgtg","pricing_plan_id":"free"},{"bike_id":"7a38ff42-0671-415a-a005-002bd44fe7a3","system_id":"levelo_inurba_marseille","lat":43.278128,"lon":5.407195,"is_reserved":false,"is_disabled":false,"rental_uris":{"android":"levelo://app?vid=7a38ff42-0671-415a-a005-002bd44fe7a3","ios":"levelo://app?vid=7a38ff42-0671-415a-a005-002bd44fe7a3"},"vehicle_type_id":"4","last_reported":1701198348,"current_range_meters":22000,"station_id":"ce4bhnh2rcd13ifvqgtg","pricing_plan_id":"free"},{"bike_id":"c8f06c6b-e98f-4268-8742-64627a93f9e3","system_id":"levelo_inurba_marseille","lat":43.278128,"lon":5.407195,"is_reserved":false,"is_disabled":false,"rental_uris":{"android":"levelo://app?vid=c8f06c6b-e98f-4268-8742-64627a93f9e3","ios":"levelo://app?vid=c8f06c6b-e98f-4268-8742-64627a93f9e3"},"vehicle_type_id":"4","last_reported":1701198348,"current_range_meters":31600,"station_id":"ce4bhnh2rcd13ifvqgtg","pricing_plan_id":"free"},{"bike_id":"9748b525-197c-44bd-9564-f9928be11a8d","system_id":"levelo_inurba_marseille","lat":43.279465,"lon":5.410561,"is_reserved":false,"is_disabled":false,"rental_uris":{"android":"levelo://app?vid=9748b525-197c-44bd-9564-f9928be11a8d","ios":"levelo://app?vid=9748b525-197c-44bd-9564-f9928be11a8d"},"vehicle_type_id":"4","last_reported":1701198348,"current_range_meters":2400,"station_id":"ce4bhnp2rcd13ifvqh0g","pricing_plan_id":"free"},{"bike_id":"46971e5b-c260-47d1-96af-81b60a8a502c","system_id":"levelo_inurba_marseille","lat":43.279465,"lon":5.410561,"is_reserved":false,"is_disabled":false,"rental_uris":{"android":"levelo://app?vid=46971e5b-c260-47d1-96af-81b60a8a502c","ios":"levelo://app?vid=46971e5b-c260-47d1-96af-81b60a8a502c"},"vehicle_type_id":"4","last_reported":1701198348,"current_range_meters":27200,"station_id":"ce4bhnp2rcd13ifvqh0g","pricing_plan_id":"free"},{"bike_id":"fd6076a2-900b-45c7-a82d-f0f0875b7fad","system_id":"levelo_inurba_marseille","lat":43.279465,"lon":5.410561,"is_reserved":false,"is_disabled":false,"rental_uris":{"android":"levelo://app?vid=fd6076a2-900b-45c7-a82d-f0f0875b7fad","ios":"levelo://app?vid=fd6076a2-900b-45c7-a82d-f0f0875b7fad"},"vehicle_type_id":"4","last_reported":1701198348,"current_range_meters":24000,"station_id":"ce4bhnp2rcd13ifvqh0g","pricing_plan_id":"free"},{"bike_id":"2fefffe6-ff77-4c85-84a5-3e2ae6ffbabd","system_id":"levelo_inurba_marseille","lat":43.269319,"lon":5.389397,"is_reserved":false,"is_disabled":false,"rental_uris":{"android":"levelo://app?vid=2fefffe6-ff77-4c85-84a5-3e2ae6ffbabd","ios":"levelo://app?vid=2fefffe6-ff77-4c85-84a5-3e2ae6ffbabd"},"vehicle_type_id":"4","last_reported":1701198348,"current_range_meters":10400,"station_id":"ce4bhhh2rcd13ifvqfl0","pricing_plan_id":"free"},{"bike_id":"d81ca78c-d883-4a20-b557-ea5b3737bb02","system_id":"levelo_inurba_marseille","lat":43.26563,"lon":5.37283,"is_reserved":false,"is_disabled":false,"rental_uris":{"android":"levelo://app?vid=d81ca78c-d883-4a20-b557-ea5b3737bb02","ios":"levelo://app?vid=d81ca78c-d883-4a20-b557-ea5b3737bb02"},"vehicle_type_id":"4","last_reported":1701198348,"current_range_meters":15600,"station_id":"ce4bhg12rcd13ifvqf70","pricing_plan_id":"free"},{"bike_id":"998756c4-33d5-43ee-8d59-0d18ec85cc5c","system_id":"levelo_inurba_marseille","lat":43.26551,"lon":5.37288,"is_reserved":false,"is_disabled":false,"rental_uris":{"android":"levelo://app?vid=998756c4-33d5-43ee-8d59-0d18ec85cc5c","ios":"levelo://app?vid=998756c4-33d5-43ee-8d59-0d18ec85cc5c"},"vehicle_type_id":"4","last_reported":1701198348,"current_range_meters":24800,"station_id":"ce4bhg12rcd13ifvqf70","pricing_plan_id":"free"},{"bike_id":"7769d8a6-ace2-4600-bc82-4d6d23aeed77","system_id":"levelo_inurba_marseille","lat":43.28472,"lon":5.422,"is_reserved":false,"is_disabled":false,"rental_uris":{"android":"levelo://app?vid=7769d8a6-ace2-4600-bc82-4d6d23aeed77","ios":"levelo://app?vid=7769d8a6-ace2-4600-bc82-4d6d23aeed77"},"vehicle_type_id":"4","last_reported":1701198348,"current_range_meters":0,"station_id":"","pricing_plan_id":"free"},{"bike_id":"e02045aa-3800-43e1-b580-fb75c4eb32be","system_id":"levelo_inurba_marseille","lat":43.26947,"lon":5.39979,"is_reserved":false,"is_disabled":false,"rental_uris":{"android":"levelo://app?vid=e02045aa-3800-43e1-b580-fb75c4eb32be","ios":"levelo://app?vid=e02045aa-3800-43e1-b580-fb75c4eb32be"},"vehicle_type_id":"4","last_reported":1701198348,"current_range_meters":3600,"station_id":"","pricing_plan_id":"free"},{"bike_id":"969abf9b-1e33-4088-ada9-2e2e034c00da","system_id":"levelo_inurba_marseille","lat":43.243884,"lon":5.370736,"is_reserved":false,"is_disabled":false,"rental_uris":{"android":"levelo://app?vid=969abf9b-1e33-4088-ada9-2e2e034c00da","ios":"levelo://app?vid=969abf9b-1e33-4088-ada9-2e2e034c00da"},"vehicle_type_id":"4","last_reported":1701198348,"current_range_meters":2000,"station_id":"ce4bhhh2rcd13ifvqfk0","pricing_plan_id":"free"},{"bike_id":"ff698a18-ef7b-446e-afa9-2092b5981c14","system_id":"levelo_inurba_marseille","lat":43.265571,"lon":5.390032,"is_reserved":false,"is_disabled":false,"rental_uris":{"android":"levelo://app?vid=ff698a18-ef7b-446e-afa9-2092b5981c14","ios":"levelo://app?vid=ff698a18-ef7b-446e-afa9-2092b5981c14"},"vehicle_type_id":"4","last_reported":1701198348,"current_range_meters":20400,"station_id":"ce4bhe12rcd13ifvqf30","pricing_plan_id":"free"},{"bike_id":"7535fedc-74ac-474b-8a2d-12a425012ada","system_id":"levelo_inurba_marseille","lat":43.308051,"lon":5.43527,"is_reserved":false,"is_disabled":false,"rental_uris":{"android":"levelo://app?vid=7535fedc-74ac-474b-8a2d-12a425012ada","ios":"levelo://app?vid=7535fedc-74ac-474b-8a2d-12a425012ada"},"vehicle_type_id":"4","last_reported":1701198348,"current_range_meters":30800,"station_id":"ce4bhph2rcd13ifvqheg","pricing_plan_id":"free"},{"bike_id":"e1e88d5c-27d5-49a9-b126-f457d727bc05","system_id":"levelo_inurba_marseille","lat":43.265571,"lon":5.390032,"is_reserved":false,"is_disabled":false,"rental_uris":{"android":"levelo://app?vid=e1e88d5c-27d5-49a9-b126-f457d727bc05","ios":"levelo://app?vid=e1e88d5c-27d5-49a9-b126-f457d727bc05"},"vehicle_type_id":"4","last_reported":1701198348,"current_range_meters":0,"station_id":"ce4bhe12rcd13ifvqf30","pricing_plan_id":"free"},{"bike_id":"23989d20-8a3e-42ec-be34-7eae04d446c8","system_id":"levelo_inurba_marseille","lat":43.308051,"lon":5.43527,"is_reserved":false,"is_disabled":false,"rental_uris":{"android":"levelo://app?vid=23989d20-8a3e-42ec-be34-7eae04d446c8","ios":"levelo://app?vid=23989d20-8a3e-42ec-be34-7eae04d446c8"},"vehicle_type_id":"4","last_reported":1701198348,"current_range_meters":19200,"station_id":"ce4bhph2rcd13ifvqheg","pricing_plan_id":"free"},{"bike_id":"84ba261d-df8f-43cc-a404-4354d4157f5e","system_id":"levelo_inurba_marseille","lat":43.265569,"lon":5.390047,"is_reserved":false,"is_disabled":false,"rental_uris":{"android":"levelo://app?vid=84ba261d-df8f-43cc-a404-4354d4157f5e","ios":"levelo://app?vid=84ba261d-df8f-43cc-a404-4354d4157f5e"},"vehicle_type_id":"4","last_reported":1701198348,"current_range_meters":24400,"station_id":"ce4bhe12rcd13ifvqf30","pricing_plan_id":"free"},{"bike_id":"d56e4de4-4e2e-46bd-aa4c-5788181ca910","system_id":"levelo_inurba_marseille","lat":43.26566,"lon":5.39008,"is_reserved":false,"is_disabled":false,"rental_uris":{"android":"levelo://app?vid=d56e4de4-4e2e-46bd-aa4c-5788181ca910","ios":"levelo://app?vid=d56e4de4-4e2e-46bd-aa4c-5788181ca910"},"vehicle_type_id":"4","last_reported":1701198348,"current_range_meters":10000,"station_id":"ce4bhe12rcd13ifvqf30","pricing_plan_id":"free"},{"bike_id":"be8ab481-9ee8-4337-863a-b39a3ad7e0d8","system_id":"levelo_inurba_marseille","lat":43.261782,"lon":5.374515,"is_reserved":false,"is_disabled":false,"rental_uris":{"android":"levelo://app?vid=be8ab481-9ee8-4337-863a-b39a3ad7e0d8","ios":"levelo://app?vid=be8ab481-9ee8-4337-863a-b39a3ad7e0d8"},"vehicle_type_id":"4","last_reported":1701198348,"current_range_meters":4800,"station_id":"ce4bhgp2rcd13ifvqfc0","pricing_plan_id":"free"},{"bike_id":"2cfd894b-595c-4bac-a01a-4d2673d809b1","system_id":"levelo_inurba_marseille","lat":43.261782,"lon":5.374515,"is_reserved":false,"is_disabled":false,"rental_uris":{"android":"levelo://app?vid=2cfd894b-595c-4bac-a01a-4d2673d809b1","ios":"levelo://app?vid=2cfd894b-595c-4bac-a01a-4d2673d809b1"},"vehicle_type_id":"4","last_reported":1701198348,"current_range_meters":28000,"station_id":"ce4bhgp2rcd13ifvqfc0","pricing_plan_id":"free"},{"bike_id":"3ee6d42b-be43-4558-85e1-d7d39f345c6b","system_id":"levelo_inurba_marseille","lat":43.317104,"lon":5.436818,"is_reserved":false,"is_disabled":false,"rental_uris":{"android":"levelo://app?vid=3ee6d42b-be43-4558-85e1-d7d39f345c6b","ios":"levelo://app?vid=3ee6d42b-be43-4558-85e1-d7d39f345c6b"},"vehicle_type_id":"4","last_reported":1701198348,"current_range_meters":30000,"station_id":"ce4bhp92rcd13ifvqhcg","pricing_plan_id":"free"},{"bike_id":"0a411095-3a8a-4221-843c-f3d98b94b3cb","system_id":"levelo_inurba_marseille","lat":43.271388,"lon":5.409269,"is_reserved":false,"is_disabled":false,"rental_uris":{"android":"levelo://app?vid=0a411095-3a8a-4221-843c-f3d98b94b3cb","ios":"levelo://app?vid=0a411095-3a8a-4221-843c-f3d98b94b3cb"},"vehicle_type_id":"4","last_reported":1701198348,"current_range_meters":29200,"station_id":"ce4bhl12rcd13ifvqgf0","pricing_plan_id":"free"},{"bike_id":"db2e35b6-91ba-4b8a-b10b-c020bac1b56a","system_id":"levelo_inurba_marseille","lat":43.262012,"lon":5.379307,"is_reserved":false,"is_disabled":false,"rental_uris":{"android":"levelo://app?vid=db2e35b6-91ba-4b8a-b10b-c020bac1b56a","ios":"levelo://app?vid=db2e35b6-91ba-4b8a-b10b-c020bac1b56a"},"vehicle_type_id":"4","last_reported":1701198348,"current_range_meters":28000,"station_id":"ce4bhjp2rcd13ifvqg90","pricing_plan_id":"free"},{"bike_id":"5edf4ffd-945c-46ca-853f-f4dc48bf88b7","system_id":"levelo_inurba_marseille","lat":43.26202,"lon":5.379299,"is_reserved":false,"is_disabled":false,"rental_uris":{"android":"levelo://app?vid=5edf4ffd-945c-46ca-853f-f4dc48bf88b7","ios":"levelo://app?vid=5edf4ffd-945c-46ca-853f-f4dc48bf88b7"},"vehicle_type_id":"4","last_reported":1701198348,"current_range_meters":31600,"station_id":"ce4bhjp2rcd13ifvqg90","pricing_plan_id":"free"},{"bike_id":"1b6e1605-822a-4d11-8a82-d6df3a659dce","system_id":"levelo_inurba_marseille","lat":43.271368,"lon":5.40928,"is_reserved":false,"is_disabled":false,"rental_uris":{"android":"levelo://app?vid=1b6e1605-822a-4d11-8a82-d6df3a659dce","ios":"levelo://app?vid=1b6e1605-822a-4d11-8a82-d6df3a659dce"},"vehicle_type_id":"4","last_reported":1701198348,"current_range_meters":4400,"station_id":"ce4bhl12rcd13ifvqgf0","pricing_plan_id":"free"},{"bike_id":"fa7abb30-4346-431c-b1fa-aef86f064968","system_id":"levelo_inurba_marseille","lat":43.26202,"lon":5.379299,"is_reserved":false,"is_disabled":false,"rental_uris":{"android":"levelo://app?vid=fa7abb30-4346-431c-b1fa-aef86f064968","ios":"levelo://app?vid=fa7abb30-4346-431c-b1fa-aef86f064968"},"vehicle_type_id":"4","last_reported":1701198348,"current_range_meters":12000,"station_id":"ce4bhjp2rcd13ifvqg90","pricing_plan_id":"free"},{"bike_id":"446cd8c0-e899-491b-a3a1-821d86a5b153","system_id":"levelo_inurba_marseille","lat":43.26202,"lon":5.379299,"is_reserved":false,"is_disabled":false,"rental_uris":{"android":"levelo://app?vid=446cd8c0-e899-491b-a3a1-821d86a5b153","ios":"levelo://app?vid=446cd8c0-e899-491b-a3a1-821d86a5b153"},"vehicle_type_id":"4","last_reported":1701198348,"current_range_meters":16400,"station_id":"ce4bhjp2rcd13ifvqg90","pricing_plan_id":"free"},{"bike_id":"9d2d7e59-8bbc-4ed8-8840-d27f38a78f26","system_id":"levelo_inurba_marseille","lat":43.271388,"lon":5.409269,"is_reserved":false,"is_disabled":false,"rental_uris":{"android":"levelo://app?vid=9d2d7e59-8bbc-4ed8-8840-d27f38a78f26","ios":"levelo://app?vid=9d2d7e59-8bbc-4ed8-8840-d27f38a78f26"},"vehicle_type_id":"4","last_reported":1701198348,"current_range_meters":7600,"station_id":"ce4bhl12rcd13ifvqgf0","pricing_plan_id":"free"},{"bike_id":"d6d07dce-d749-4365-bcdc-ec1e59dae6cd","system_id":"levelo_inurba_marseille","lat":43.298768,"lon":5.43643,"is_reserved":false,"is_disabled":false,"rental_uris":{"android":"levelo://app?vid=d6d07dce-d749-4365-bcdc-ec1e59dae6cd","ios":"levelo://app?vid=d6d07dce-d749-4365-bcdc-ec1e59dae6cd"},"vehicle_type_id":"4","last_reported":1701198348,"current_range_meters":16400,"station_id":"ce4bhpp2rcd13ifvqhfg","pricing_plan_id":"free"},{"bike_id":"baa110bc-e6be-491b-9db8-5e934046b735","system_id":"levelo_inurba_marseille","lat":43.260204,"lon":5.375566,"is_reserved":false,"is_disabled":false,"rental_uris":{"android":"levelo://app?vid=baa110bc-e6be-491b-9db8-5e934046b735","ios":"levelo://app?vid=baa110bc-e6be-491b-9db8-5e934046b735"},"vehicle_type_id":"4","last_reported":1701198348,"current_range_meters":16000,"station_id":"ce4bhgh2rcd13ifvqfa0","pricing_plan_id":"free"},{"bike_id":"61405fe3-3b73-4634-b13e-87eff05ade8a","system_id":"levelo_inurba_marseille","lat":43.281548,"lon":5.42643,"is_reserved":false,"is_disabled":false,"rental_uris":{"android":"levelo://app?vid=61405fe3-3b73-4634-b13e-87eff05ade8a","ios":"levelo://app?vid=61405fe3-3b73-4634-b13e-87eff05ade8a"},"vehicle_type_id":"4","last_reported":1701198348,"current_range_meters":27200,"station_id":"ce4bhnh2rcd13ifvqgug","pricing_plan_id":"free"},{"bike_id":"b547af33-c597-43ed-96bb-463e99b0e25d","system_id":"levelo_inurba_marseille","lat":43.281548,"lon":5.42643,"is_reserved":false,"is_disabled":false,"rental_uris":{"android":"levelo://app?vid=b547af33-c597-43ed-96bb-463e99b0e25d","ios":"levelo://app?vid=b547af33-c597-43ed-96bb-463e99b0e25d"},"vehicle_type_id":"4","last_reported":1701198348,"current_range_meters":28800,"station_id":"ce4bhnh2rcd13ifvqgug","pricing_plan_id":"free"},{"bike_id":"3e09080e-9db5-4c48-951f-c5f672a60264","system_id":"levelo_inurba_marseille","lat":43.28644,"lon":5.43081,"is_reserved":false,"is_disabled":false,"rental_uris":{"android":"levelo://app?vid=3e09080e-9db5-4c48-951f-c5f672a60264","ios":"levelo://app?vid=3e09080e-9db5-4c48-951f-c5f672a60264"},"vehicle_type_id":"4","last_reported":1701198348,"current_range_meters":14000,"station_id":"","pricing_plan_id":"free"},{"bike_id":"20c9ac85-5ad0-4d63-a968-38f0a1c34853","system_id":"levelo_inurba_marseille","lat":43.275028,"lon":5.424534,"is_reserved":false,"is_disabled":false,"rental_uris":{"android":"levelo://app?vid=20c9ac85-5ad0-4d63-a968-38f0a1c34853","ios":"levelo://app?vid=20c9ac85-5ad0-4d63-a968-38f0a1c34853"},"vehicle_type_id":"4","last_reported":1701198348,"current_range_meters":8800,"station_id":"ce4bhn92rcd13ifvqgrg","pricing_plan_id":"free"},{"bike_id":"28fa65af-94bc-46bf-afd7-eff4cf5577da","system_id":"levelo_inurba_marseille","lat":43.255839,"lon":5.382249,"is_reserved":false,"is_disabled":false,"rental_uris":{"android":"levelo://app?vid=28fa65af-94bc-46bf-afd7-eff4cf5577da","ios":"levelo://app?vid=28fa65af-94bc-46bf-afd7-eff4cf5577da"},"vehicle_type_id":"4","last_reported":1701198348,"current_range_meters":31200,"station_id":"ce4bhih2rcd13ifvqfs0","pricing_plan_id":"free"},{"bike_id":"b09cf6fe-9609-4834-a4fb-3cf72efe3863","system_id":"levelo_inurba_marseille","lat":43.25586,"lon":5.38243,"is_reserved":false,"is_disabled":false,"rental_uris":{"android":"levelo://app?vid=b09cf6fe-9609-4834-a4fb-3cf72efe3863","ios":"levelo://app?vid=b09cf6fe-9609-4834-a4fb-3cf72efe3863"},"vehicle_type_id":"4","last_reported":1701198348,"current_range_meters":19600,"station_id":"ce4bhih2rcd13ifvqfs0","pricing_plan_id":"free"},{"bike_id":"2a359975-e46f-4b44-a624-025c90902ae7","system_id":"levelo_inurba_marseille","lat":43.25582,"lon":5.38241,"is_reserved":false,"is_disabled":false,"rental_uris":{"android":"levelo://app?vid=2a359975-e46f-4b44-a624-025c90902ae7","ios":"levelo://app?vid=2a359975-e46f-4b44-a624-025c90902ae7"},"vehicle_type_id":"4","last_reported":1701198348,"current_range_meters":14000,"station_id":"ce4bhih2rcd13ifvqfs0","pricing_plan_id":"free"},{"bike_id":"57938117-2341-478e-b38d-5404e82d41c3","system_id":"levelo_inurba_marseille","lat":43.25577,"lon":5.38228,"is_reserved":false,"is_disabled":false,"rental_uris":{"android":"levelo://app?vid=57938117-2341-478e-b38d-5404e82d41c3","ios":"levelo://app?vid=57938117-2341-478e-b38d-5404e82d41c3"},"vehicle_type_id":"4","last_reported":1701198348,"current_range_meters":29600,"station_id":"ce4bhih2rcd13ifvqfs0","pricing_plan_id":"free"},{"bike_id":"30f219e9-cf16-46c1-835b-b063ccd32fdb","system_id":"levelo_inurba_marseille","lat":43.25578,"lon":5.38242,"is_reserved":false,"is_disabled":false,"rental_uris":{"android":"levelo://app?vid=30f219e9-cf16-46c1-835b-b063ccd32fdb","ios":"levelo://app?vid=30f219e9-cf16-46c1-835b-b063ccd32fdb"},"vehicle_type_id":"4","last_reported":1701198348,"current_range_meters":30800,"station_id":"ce4bhih2rcd13ifvqfs0","pricing_plan_id":"free"},{"bike_id":"eaf7bc7b-b85d-4931-80f9-739f7ec6af97","system_id":"levelo_inurba_marseille","lat":43.255726,"lon":5.382441,"is_reserved":false,"is_disabled":false,"rental_uris":{"android":"levelo://app?vid=eaf7bc7b-b85d-4931-80f9-739f7ec6af97","ios":"levelo://app?vid=eaf7bc7b-b85d-4931-80f9-739f7ec6af97"},"vehicle_type_id":"4","last_reported":1701198348,"current_range_meters":30800,"station_id":"ce4bhih2rcd13ifvqfs0","pricing_plan_id":"free"},{"bike_id":"8f8e687b-ecec-4a8c-90f9-76d03c7de73a","system_id":"levelo_inurba_marseille","lat":43.258658,"lon":5.398935,"is_reserved":false,"is_disabled":false,"rental_uris":{"android":"levelo://app?vid=8f8e687b-ecec-4a8c-90f9-76d03c7de73a","ios":"levelo://app?vid=8f8e687b-ecec-4a8c-90f9-76d03c7de73a"},"vehicle_type_id":"4","last_reported":1701198348,"current_range_meters":5600,"station_id":"ce4bhl92rcd13ifvqghg","pricing_plan_id":"free"},{"bike_id":"f94ed5e3-f68f-4baf-b47d-135c509cb1ee","system_id":"levelo_inurba_marseille","lat":43.25394,"lon":5.38208,"is_reserved":false,"is_disabled":false,"rental_uris":{"android":"levelo://app?vid=f94ed5e3-f68f-4baf-b47d-135c509cb1ee","ios":"levelo://app?vid=f94ed5e3-f68f-4baf-b47d-135c509cb1ee"},"vehicle_type_id":"4","last_reported":1701198348,"current_range_meters":2400,"station_id":"","pricing_plan_id":"free"},{"bike_id":"7fffe5d9-d711-4f9e-b9e1-4f93667956b7","system_id":"levelo_inurba_marseille","lat":43.259333,"lon":5.40852,"is_reserved":false,"is_disabled":false,"rental_uris":{"android":"levelo://app?vid=7fffe5d9-d711-4f9e-b9e1-4f93667956b7","ios":"levelo://app?vid=7fffe5d9-d711-4f9e-b9e1-4f93667956b7"},"vehicle_type_id":"4","last_reported":1701198348,"current_range_meters":9600,"station_id":"","pricing_plan_id":"free"},{"bike_id":"8524257f-cd38-4c35-918b-3e3a930688e7","system_id":"levelo_inurba_marseille","lat":43.257079,"lon":5.411051,"is_reserved":false,"is_disabled":false,"rental_uris":{"android":"levelo://app?vid=8524257f-cd38-4c35-918b-3e3a930688e7","ios":"levelo://app?vid=8524257f-cd38-4c35-918b-3e3a930688e7"},"vehicle_type_id":"4","last_reported":1701198348,"current_range_meters":12800,"station_id":"ce4bhkp2rcd13ifvqgd0","pricing_plan_id":"free"},{"bike_id":"33314109-3fd4-43f9-9bff-d2b1fc67e013","system_id":"levelo_inurba_marseille","lat":43.257079,"lon":5.411051,"is_reserved":false,"is_disabled":false,"rental_uris":{"android":"levelo://app?vid=33314109-3fd4-43f9-9bff-d2b1fc67e013","ios":"levelo://app?vid=33314109-3fd4-43f9-9bff-d2b1fc67e013"},"vehicle_type_id":"4","last_reported":1701198348,"current_range_meters":15600,"station_id":"ce4bhkp2rcd13ifvqgd0","pricing_plan_id":"free"},{"bike_id":"eb8cd0fe-287a-4a44-873f-6dd66f273541","system_id":"levelo_inurba_marseille","lat":43.250009,"lon":5.389195,"is_reserved":false,"is_disabled":false,"rental_uris":{"android":"levelo://app?vid=eb8cd0fe-287a-4a44-873f-6dd66f273541","ios":"levelo://app?vid=eb8cd0fe-287a-4a44-873f-6dd66f273541"},"vehicle_type_id":"4","last_reported":1701198348,"current_range_meters":5600,"station_id":"ce4bhgp2rcd13ifvqfd0","pricing_plan_id":"free"},{"bike_id":"c9850064-9b9b-4d58-b028-cecf78bc864f","system_id":"levelo_inurba_marseille","lat":43.250009,"lon":5.389195,"is_reserved":false,"is_disabled":false,"rental_uris":{"android":"levelo://app?vid=c9850064-9b9b-4d58-b028-cecf78bc864f","ios":"levelo://app?vid=c9850064-9b9b-4d58-b028-cecf78bc864f"},"vehicle_type_id":"4","last_reported":1701198348,"current_range_meters":18400,"station_id":"ce4bhgp2rcd13ifvqfd0","pricing_plan_id":"free"},{"bike_id":"4c0c3118-7eaa-4ebd-8d87-d449bea3e021","system_id":"levelo_inurba_marseille","lat":43.250897,"lon":5.395161,"is_reserved":false,"is_disabled":false,"rental_uris":{"android":"levelo://app?vid=4c0c3118-7eaa-4ebd-8d87-d449bea3e021","ios":"levelo://app?vid=4c0c3118-7eaa-4ebd-8d87-d449bea3e021"},"vehicle_type_id":"4","last_reported":1701198348,"current_range_meters":15600,"station_id":"ce4bhm12rcd13ifvqgkg","pricing_plan_id":"free"},{"bike_id":"b869908f-3400-4662-a0fe-d47662830b03","system_id":"levelo_inurba_marseille","lat":43.25086,"lon":5.39522,"is_reserved":false,"is_disabled":false,"rental_uris":{"android":"levelo://app?vid=b869908f-3400-4662-a0fe-d47662830b03","ios":"levelo://app?vid=b869908f-3400-4662-a0fe-d47662830b03"},"vehicle_type_id":"4","last_reported":1701198348,"current_range_meters":22400,"station_id":"ce4bhm12rcd13ifvqgkg","pricing_plan_id":"free"},{"bike_id":"1d75bf00-9b2e-47d6-a7ca-1a053e6df0d0","system_id":"levelo_inurba_marseille","lat":43.24693,"lon":5.382096,"is_reserved":false,"is_disabled":false,"rental_uris":{"android":"levelo://app?vid=1d75bf00-9b2e-47d6-a7ca-1a053e6df0d0","ios":"levelo://app?vid=1d75bf00-9b2e-47d6-a7ca-1a053e6df0d0"},"vehicle_type_id":"4","last_reported":1701198348,"current_range_meters":26400,"station_id":"ce4bhih2rcd13ifvqfr0","pricing_plan_id":"free"},{"bike_id":"e9d9aa15-9b8f-4741-88c1-90b4b2b01fdc","system_id":"levelo_inurba_marseille","lat":43.25113,"lon":5.40324,"is_reserved":false,"is_disabled":false,"rental_uris":{"android":"levelo://app?vid=e9d9aa15-9b8f-4741-88c1-90b4b2b01fdc","ios":"levelo://app?vid=e9d9aa15-9b8f-4741-88c1-90b4b2b01fdc"},"vehicle_type_id":"4","last_reported":1701198348,"current_range_meters":0,"station_id":"ce4bhlh2rcd13ifvqgig","pricing_plan_id":"free"},{"bike_id":"ff268154-f02c-4a83-8095-8ed2b98cb1a2","system_id":"levelo_inurba_marseille","lat":43.25107,"lon":5.40325,"is_reserved":false,"is_disabled":false,"rental_uris":{"android":"levelo://app?vid=ff268154-f02c-4a83-8095-8ed2b98cb1a2","ios":"levelo://app?vid=ff268154-f02c-4a83-8095-8ed2b98cb1a2"},"vehicle_type_id":"4","last_reported":1701198348,"current_range_meters":0,"station_id":"ce4bhlh2rcd13ifvqgig","pricing_plan_id":"free"},{"bike_id":"f1388486-ef3c-45a1-bd38-657b364d74cc","system_id":"levelo_inurba_marseille","lat":43.246461,"lon":5.389014,"is_reserved":false,"is_disabled":false,"rental_uris":{"android":"levelo://app?vid=f1388486-ef3c-45a1-bd38-657b364d74cc","ios":"levelo://app?vid=f1388486-ef3c-45a1-bd38-657b364d74cc"},"vehicle_type_id":"4","last_reported":1701198348,"current_range_meters":30000,"station_id":"ce4bhg12rcd13ifvqf60","pricing_plan_id":"free"},{"bike_id":"28d3e037-6348-4021-a673-f1af8b06b9f2","system_id":"levelo_inurba_marseille","lat":43.246461,"lon":5.389014,"is_reserved":false,"is_disabled":false,"rental_uris":{"android":"levelo://app?vid=28d3e037-6348-4021-a673-f1af8b06b9f2","ios":"levelo://app?vid=28d3e037-6348-4021-a673-f1af8b06b9f2"},"vehicle_type_id":"4","last_reported":1701198348,"current_range_meters":7600,"station_id":"ce4bhg12rcd13ifvqf60","pricing_plan_id":"free"},{"bike_id":"c7c68d46-748e-4a2d-9c2b-4c4a9d275026","system_id":"levelo_inurba_marseille","lat":43.246467,"lon":5.388984,"is_reserved":false,"is_disabled":false,"rental_uris":{"android":"levelo://app?vid=c7c68d46-748e-4a2d-9c2b-4c4a9d275026","ios":"levelo://app?vid=c7c68d46-748e-4a2d-9c2b-4c4a9d275026"},"vehicle_type_id":"4","last_reported":1701198348,"current_range_meters":6400,"station_id":"ce4bhg12rcd13ifvqf60","pricing_plan_id":"free"},{"bike_id":"762dbb25-3bfb-498b-ae0f-cd5e2427a1c8","system_id":"levelo_inurba_marseille","lat":43.246467,"lon":5.388984,"is_reserved":false,"is_disabled":false,"rental_uris":{"android":"levelo://app?vid=762dbb25-3bfb-498b-ae0f-cd5e2427a1c8","ios":"levelo://app?vid=762dbb25-3bfb-498b-ae0f-cd5e2427a1c8"},"vehicle_type_id":"4","last_reported":1701198348,"current_range_meters":9200,"station_id":"ce4bhg12rcd13ifvqf60","pricing_plan_id":"free"},{"bike_id":"1a5bfc79-72e5-4236-bf5b-c21eb878e136","system_id":"levelo_inurba_marseille","lat":43.246467,"lon":5.388984,"is_reserved":false,"is_disabled":false,"rental_uris":{"android":"levelo://app?vid=1a5bfc79-72e5-4236-bf5b-c21eb878e136","ios":"levelo://app?vid=1a5bfc79-72e5-4236-bf5b-c21eb878e136"},"vehicle_type_id":"4","last_reported":1701198348,"current_range_meters":22400,"station_id":"ce4bhg12rcd13ifvqf60","pricing_plan_id":"free"},{"bike_id":"dfc345c3-1a3e-42a7-899a-5e83709d97fa","system_id":"levelo_inurba_marseille","lat":43.243884,"lon":5.370737,"is_reserved":false,"is_disabled":false,"rental_uris":{"android":"levelo://app?vid=dfc345c3-1a3e-42a7-899a-5e83709d97fa","ios":"levelo://app?vid=dfc345c3-1a3e-42a7-899a-5e83709d97fa"},"vehicle_type_id":"4","last_reported":1701198348,"current_range_meters":7200,"station_id":"ce4bhhh2rcd13ifvqfk0","pricing_plan_id":"free"},{"bike_id":"56fa133a-d164-4258-b3d1-5edbf7825eed","system_id":"levelo_inurba_marseille","lat":43.243884,"lon":5.370737,"is_reserved":false,"is_disabled":false,"rental_uris":{"android":"levelo://app?vid=56fa133a-d164-4258-b3d1-5edbf7825eed","ios":"levelo://app?vid=56fa133a-d164-4258-b3d1-5edbf7825eed"},"vehicle_type_id":"4","last_reported":1701198348,"current_range_meters":23200,"station_id":"ce4bhhh2rcd13ifvqfk0","pricing_plan_id":"free"},{"bike_id":"600b145d-cb1e-4656-b36c-871acee446e1","system_id":"levelo_inurba_marseille","lat":43.245581,"lon":5.395069,"is_reserved":false,"is_disabled":false,"rental_uris":{"android":"levelo://app?vid=600b145d-cb1e-4656-b36c-871acee446e1","ios":"levelo://app?vid=600b145d-cb1e-4656-b36c-871acee446e1"},"vehicle_type_id":"4","last_reported":1701198348,"current_range_meters":13200,"station_id":"ce4bhlp2rcd13ifvqgjg","pricing_plan_id":"free"},{"bike_id":"f6e00a33-6630-4a73-b9de-4c571e688fb4","system_id":"levelo_inurba_marseille","lat":43.24075,"lon":5.37763,"is_reserved":false,"is_disabled":false,"rental_uris":{"android":"levelo://app?vid=f6e00a33-6630-4a73-b9de-4c571e688fb4","ios":"levelo://app?vid=f6e00a33-6630-4a73-b9de-4c571e688fb4"},"vehicle_type_id":"4","last_reported":1701198348,"current_range_meters":5600,"station_id":"ce4bhnp2rcd13ifvqgvg","pricing_plan_id":"free"},{"bike_id":"699a5dd4-6285-46d5-8763-569f1be43344","system_id":"levelo_inurba_marseille","lat":43.240623,"lon":5.377642,"is_reserved":false,"is_disabled":false,"rental_uris":{"android":"levelo://app?vid=699a5dd4-6285-46d5-8763-569f1be43344","ios":"levelo://app?vid=699a5dd4-6285-46d5-8763-569f1be43344"},"vehicle_type_id":"4","last_reported":1701198348,"current_range_meters":12800,"station_id":"ce4bhnp2rcd13ifvqgvg","pricing_plan_id":"free"},{"bike_id":"cc95caf3-5a17-44b1-8509-402b32a2fee9","system_id":"levelo_inurba_marseille","lat":43.239588,"lon":5.366238,"is_reserved":false,"is_disabled":false,"rental_uris":{"android":"levelo://app?vid=cc95caf3-5a17-44b1-8509-402b32a2fee9","ios":"levelo://app?vid=cc95caf3-5a17-44b1-8509-402b32a2fee9"},"vehicle_type_id":"4","last_reported":1701198348,"current_range_meters":30000,"station_id":"ce4bhi12rcd13ifvqfp0","pricing_plan_id":"free"},{"bike_id":"f49e990d-6ef6-47f3-81ff-a580a8e67ac7","system_id":"levelo_inurba_marseille","lat":43.239588,"lon":5.366238,"is_reserved":false,"is_disabled":false,"rental_uris":{"android":"levelo://app?vid=f49e990d-6ef6-47f3-81ff-a580a8e67ac7","ios":"levelo://app?vid=f49e990d-6ef6-47f3-81ff-a580a8e67ac7"},"vehicle_type_id":"4","last_reported":1701198348,"current_range_meters":22000,"station_id":"ce4bhi12rcd13ifvqfp0","pricing_plan_id":"free"},{"bike_id":"fe2e14a2-dd05-44a1-9c66-2bf540c8859a","system_id":"levelo_inurba_marseille","lat":43.239588,"lon":5.366238,"is_reserved":false,"is_disabled":false,"rental_uris":{"android":"levelo://app?vid=fe2e14a2-dd05-44a1-9c66-2bf540c8859a","ios":"levelo://app?vid=fe2e14a2-dd05-44a1-9c66-2bf540c8859a"},"vehicle_type_id":"4","last_reported":1701198348,"current_range_meters":30400,"station_id":"ce4bhi12rcd13ifvqfp0","pricing_plan_id":"free"},{"bike_id":"42a6da49-ed08-46fe-8bd2-bb30d4c869d4","system_id":"levelo_inurba_marseille","lat":43.239588,"lon":5.366238,"is_reserved":false,"is_disabled":false,"rental_uris":{"android":"levelo://app?vid=42a6da49-ed08-46fe-8bd2-bb30d4c869d4","ios":"levelo://app?vid=42a6da49-ed08-46fe-8bd2-bb30d4c869d4"},"vehicle_type_id":"4","last_reported":1701198348,"current_range_meters":6000,"station_id":"ce4bhi12rcd13ifvqfp0","pricing_plan_id":"free"},{"bike_id":"4940b067-f333-4f00-82ab-870f55a6e8ad","system_id":"levelo_inurba_marseille","lat":43.239645,"lon":5.366235,"is_reserved":false,"is_disabled":false,"rental_uris":{"android":"levelo://app?vid=4940b067-f333-4f00-82ab-870f55a6e8ad","ios":"levelo://app?vid=4940b067-f333-4f00-82ab-870f55a6e8ad"},"vehicle_type_id":"4","last_reported":1701198348,"current_range_meters":1200,"station_id":"ce4bhi12rcd13ifvqfp0","pricing_plan_id":"free"},{"bike_id":"f0bcb6fb-fca6-4960-bedf-e9143f575053","system_id":"levelo_inurba_marseille","lat":43.239588,"lon":5.366238,"is_reserved":false,"is_disabled":false,"rental_uris":{"android":"levelo://app?vid=f0bcb6fb-fca6-4960-bedf-e9143f575053","ios":"levelo://app?vid=f0bcb6fb-fca6-4960-bedf-e9143f575053"},"vehicle_type_id":"4","last_reported":1701198348,"current_range_meters":16000,"station_id":"ce4bhi12rcd13ifvqfp0","pricing_plan_id":"free"},{"bike_id":"c298c075-4289-4e2a-8cbe-5956a8fee31d","system_id":"levelo_inurba_marseille","lat":43.231919,"lon":5.355532,"is_reserved":false,"is_disabled":false,"rental_uris":{"android":"levelo://app?vid=c298c075-4289-4e2a-8cbe-5956a8fee31d","ios":"levelo://app?vid=c298c075-4289-4e2a-8cbe-5956a8fee31d"},"vehicle_type_id":"4","last_reported":1701198348,"current_range_meters":30000,"station_id":"ce4bhu92rcd13ifvqi70","pricing_plan_id":"free"},{"bike_id":"caf24fd1-c713-46bf-a390-7a475374afbf","system_id":"levelo_inurba_marseille","lat":43.231923,"lon":5.355545,"is_reserved":false,"is_disabled":false,"rental_uris":{"android":"levelo://app?vid=caf24fd1-c713-46bf-a390-7a475374afbf","ios":"levelo://app?vid=caf24fd1-c713-46bf-a390-7a475374afbf"},"vehicle_type_id":"4","last_reported":1701198348,"current_range_meters":12400,"station_id":"ce4bhu92rcd13ifvqi70","pricing_plan_id":"free"},{"bike_id":"d1703505-b125-4a98-a807-11024241bc04","system_id":"levelo_inurba_marseille","lat":43.231923,"lon":5.355545,"is_reserved":false,"is_disabled":false,"rental_uris":{"android":"levelo://app?vid=d1703505-b125-4a98-a807-11024241bc04","ios":"levelo://app?vid=d1703505-b125-4a98-a807-11024241bc04"},"vehicle_type_id":"4","last_reported":1701198348,"current_range_meters":30400,"station_id":"ce4bhu92rcd13ifvqi70","pricing_plan_id":"free"},{"bike_id":"cb1ad581-4198-43f1-868c-486f2828ac05","system_id":"levelo_inurba_marseille","lat":43.231919,"lon":5.355532,"is_reserved":false,"is_disabled":false,"rental_uris":{"android":"levelo://app?vid=cb1ad581-4198-43f1-868c-486f2828ac05","ios":"levelo://app?vid=cb1ad581-4198-43f1-868c-486f2828ac05"},"vehicle_type_id":"4","last_reported":1701198348,"current_range_meters":22400,"station_id":"ce4bhu92rcd13ifvqi70","pricing_plan_id":"free"},{"bike_id":"b37cf8bc-ef87-4960-b38c-3279b894369f","system_id":"levelo_inurba_marseille","lat":43.231923,"lon":5.355545,"is_reserved":false,"is_disabled":false,"rental_uris":{"android":"levelo://app?vid=b37cf8bc-ef87-4960-b38c-3279b894369f","ios":"levelo://app?vid=b37cf8bc-ef87-4960-b38c-3279b894369f"},"vehicle_type_id":"4","last_reported":1701198348,"current_range_meters":31600,"station_id":"ce4bhu92rcd13ifvqi70","pricing_plan_id":"free"},{"bike_id":"d8c47b6d-f8d1-43bc-94b5-3b14f4a621dc","system_id":"levelo_inurba_marseille","lat":43.231919,"lon":5.355532,"is_reserved":false,"is_disabled":false,"rental_uris":{"android":"levelo://app?vid=d8c47b6d-f8d1-43bc-94b5-3b14f4a621dc","ios":"levelo://app?vid=d8c47b6d-f8d1-43bc-94b5-3b14f4a621dc"},"vehicle_type_id":"4","last_reported":1701198348,"current_range_meters":16000,"station_id":"ce4bhu92rcd13ifvqi70","pricing_plan_id":"free"},{"bike_id":"d7b03b38-f119-4134-94e1-e00f1f58ff44","system_id":"levelo_inurba_marseille","lat":43.231927,"lon":5.399856,"is_reserved":false,"is_disabled":false,"rental_uris":{"android":"levelo://app?vid=d7b03b38-f119-4134-94e1-e00f1f58ff44","ios":"levelo://app?vid=d7b03b38-f119-4134-94e1-e00f1f58ff44"},"vehicle_type_id":"4","last_reported":1701198348,"current_range_meters":31200,"station_id":"ce4bhn12rcd13ifvqgqg","pricing_plan_id":"free"},{"bike_id":"999bae91-5c10-4761-9e1a-454f2eb24f30","system_id":"levelo_inurba_marseille","lat":43.231793,"lon":5.400044,"is_reserved":false,"is_disabled":false,"rental_uris":{"android":"levelo://app?vid=999bae91-5c10-4761-9e1a-454f2eb24f30","ios":"levelo://app?vid=999bae91-5c10-4761-9e1a-454f2eb24f30"},"vehicle_type_id":"4","last_reported":1701198348,"current_range_meters":14400,"station_id":"ce4bhn12rcd13ifvqgqg","pricing_plan_id":"free"},{"bike_id":"a6b66b16-94c8-443a-b6dc-efcfd4b21fef","system_id":"levelo_inurba_marseille","lat":43.231794,"lon":5.400052,"is_reserved":false,"is_disabled":false,"rental_uris":{"android":"levelo://app?vid=a6b66b16-94c8-443a-b6dc-efcfd4b21fef","ios":"levelo://app?vid=a6b66b16-94c8-443a-b6dc-efcfd4b21fef"},"vehicle_type_id":"4","last_reported":1701198348,"current_range_meters":14800,"station_id":"ce4bhn12rcd13ifvqgqg","pricing_plan_id":"free"},{"bike_id":"addb5449-a430-4f38-91b1-be79a795825d","system_id":"levelo_inurba_marseille","lat":43.231793,"lon":5.400044,"is_reserved":false,"is_disabled":false,"rental_uris":{"android":"levelo://app?vid=addb5449-a430-4f38-91b1-be79a795825d","ios":"levelo://app?vid=addb5449-a430-4f38-91b1-be79a795825d"},"vehicle_type_id":"4","last_reported":1701198348,"current_range_meters":31200,"station_id":"ce4bhn12rcd13ifvqgqg","pricing_plan_id":"free"},{"bike_id":"8b731d20-f7b1-4787-82e3-b63cbfe0f0d8","system_id":"levelo_inurba_marseille","lat":43.231793,"lon":5.400044,"is_reserved":false,"is_disabled":false,"rental_uris":{"android":"levelo://app?vid=8b731d20-f7b1-4787-82e3-b63cbfe0f0d8","ios":"levelo://app?vid=8b731d20-f7b1-4787-82e3-b63cbfe0f0d8"},"vehicle_type_id":"4","last_reported":1701198348,"current_range_meters":12000,"station_id":"ce4bhn12rcd13ifvqgqg","pricing_plan_id":"free"},{"bike_id":"9a7ef747-2d6e-4971-8c61-7fee9382ac76","system_id":"levelo_inurba_marseille","lat":43.231794,"lon":5.400052,"is_reserved":false,"is_disabled":false,"rental_uris":{"android":"levelo://app?vid=9a7ef747-2d6e-4971-8c61-7fee9382ac76","ios":"levelo://app?vid=9a7ef747-2d6e-4971-8c61-7fee9382ac76"},"vehicle_type_id":"4","last_reported":1701198348,"current_range_meters":29200,"station_id":"ce4bhn12rcd13ifvqgqg","pricing_plan_id":"free"},{"bike_id":"e1d86ea6-4683-4b9e-8f27-180e0a317995","system_id":"levelo_inurba_marseille","lat":43.231794,"lon":5.400052,"is_reserved":false,"is_disabled":false,"rental_uris":{"android":"levelo://app?vid=e1d86ea6-4683-4b9e-8f27-180e0a317995","ios":"levelo://app?vid=e1d86ea6-4683-4b9e-8f27-180e0a317995"},"vehicle_type_id":"4","last_reported":1701198348,"current_range_meters":26400,"station_id":"ce4bhn12rcd13ifvqgqg","pricing_plan_id":"free"},{"bike_id":"70f8d6b1-3beb-4459-a185-9caece882463","system_id":"levelo_inurba_marseille","lat":43.231794,"lon":5.400052,"is_reserved":false,"is_disabled":false,"rental_uris":{"android":"levelo://app?vid=70f8d6b1-3beb-4459-a185-9caece882463","ios":"levelo://app?vid=70f8d6b1-3beb-4459-a185-9caece882463"},"vehicle_type_id":"4","last_reported":1701198348,"current_range_meters":31600,"station_id":"ce4bhn12rcd13ifvqgqg","pricing_plan_id":"free"},{"bike_id":"dd88d683-56c0-4341-b075-039ff47203ea","system_id":"levelo_inurba_marseille","lat":43.231794,"lon":5.400052,"is_reserved":false,"is_disabled":false,"rental_uris":{"android":"levelo://app?vid=dd88d683-56c0-4341-b075-039ff47203ea","ios":"levelo://app?vid=dd88d683-56c0-4341-b075-039ff47203ea"},"vehicle_type_id":"4","last_reported":1701198348,"current_range_meters":17600,"station_id":"ce4bhn12rcd13ifvqgqg","pricing_plan_id":"free"},{"bike_id":"9cda8cdf-9120-4a6e-bac3-fb3433683fe9","system_id":"levelo_inurba_marseille","lat":43.231793,"lon":5.400044,"is_reserved":false,"is_disabled":false,"rental_uris":{"android":"levelo://app?vid=9cda8cdf-9120-4a6e-bac3-fb3433683fe9","ios":"levelo://app?vid=9cda8cdf-9120-4a6e-bac3-fb3433683fe9"},"vehicle_type_id":"4","last_reported":1701198348,"current_range_meters":14000,"station_id":"ce4bhn12rcd13ifvqgqg","pricing_plan_id":"free"}]}}