{"last_updated":1756332538,"ttl":60,"version":"2.2","data":{"bikes":[{"bike_id":"4f47d838-a314-4654-a680-bd7440377f7f","system_id":"levelo_inurba_marseille","lat":43.30881,"lon":5.39627,"is_reserved":false,"is_disabled":false,"rental_uris":{"android":"levelo://app?vid=4f47d838-a314-4654-a680-bd7440377f7f","ios":"levelo://app?vid=4f47d838-a314-4654-a680-bd7440377f7f"},"vehicle_type_id":"4","last_reported":1756332538,"current_range_meters":2800,"station_id":"ce4bh012rcd13ifvqcv0","pricing_plan_id":"cebpf4jnsgd1na2vs0mg"},{"bike_id":"eaeb0eea-a819-4280-86a6-0b0cb2e7701a","system_id":"levelo_inurba_marseille","lat":43.22916,"lon":5.35391,"is_reserved":false,"is_disabled":false,"rental_uris":{"android":"levelo://app?vid=eaeb0eea-a819-4280-86a6-0b0cb2e7701a","ios":"levelo://app?vid=eaeb0eea-a819-4280-86a6-0b0cb2e7701a"},"vehicle_type_id":"4","last_reported":1756332538,"current_range_meters":2800,"station_id":"cpo3532slgdg3j2ikp40","pricing_plan_id":"cebpf4jnsgd1na2vs0mg"},{"bike_id":"4141a3c2-4a06-4aa0-a529-2f52de870e56","system_id":"levelo_inurba_marseille","lat":43.3008,"lon":5.39087,"is_reserved":false,"is_disabled":false,"rental_uris":{"android":"levelo://app?vid=4141a3c2-4a06-4aa0-a529-2f52de870e56","ios":"levelo://app?vid=4141a3c2-4a06-4aa0-a529-2f52de870e56"},"vehicle_type_id":"4","last_reported":1756332538,"current_range_meters":2800,"station_id":"ce4bh192rcd13ifvqdb0","pricing_plan_id":"cebpf4jnsgd1na2vs0mg"},{"bike_id":"5fbb3f49-514f-42fe-be52-cda6ca480fd9","system_id":"levelo_inurba_marseille","lat":43.30928,"lon":5.40147,"is_reserved":false,"is_disabled":false,"rental_uris":{"android":"levelo://app?vid=5fbb3f49-514f-42fe-be52-cda6ca480fd9","ios":"levelo://app?vid=5fbb3f49-514f-42fe-be52-cda6ca480fd9"},"vehicle_type_id":"4","last_reported":1756332538,"current_range_meters":2800,"station_id":"ce4bgvp2rcd13ifvqct0","pricing_plan_id":"cebpf4jnsgd1na2vs0mg"},{"bike_id":"c8c64e70-fd24-47a9-a5f3-9c4412b6e49e","system_id":"levelo_inurba_marseille","lat":43.29059,"lon":5.37159,"is_reserved":false,"is_disabled":false,"rental_uris":{"android":"levelo://app?vid=c8c64e70-fd24-47a9-a5f3-9c4412b6e49e","ios":"levelo://app?vid=c8c64e70-fd24-47a9-a5f3-9c4412b6e49e"},"vehicle_type_id":"4","last_reported":1756332538,"current_range_meters":3200,"station_id":"ce4bh5p2rcd13ifvqe4g","pricing_plan_id":"cebpf4jnsgd1na2vs0mg"},{"bike_id":"90a12519-bc60-4863-8f57-c07bfb1441b4","system_id":"levelo_inurba_marseille","lat":43.31067,"lon":5.38351,"is_reserved":false,"is_disabled":false,"rental_uris":{"android":"levelo://app?vid=90a12519-bc60-4863-8f57-c07bfb1441b4","ios":"levelo://app?vid=90a12519-bc60-4863-8f57-c07bfb1441b4"},"vehicle_type_id":"4","last_reported":1756332538,"current_range_meters":3200,"station_id":"ce4bgv92rcd13ifvqcr0","pricing_plan_id":"cebpf4jnsgd1na2vs0mg"},{"bike_id":"96186cc8-0561-4ae2-81ab-d0abdc6ef2d0","system_id":"levelo_inurba_marseille","lat":43.27039,"lon":5.37929,"is_reserved":false,"is_disabled":false,"rental_uris":{"android":"levelo://app?vid=96186cc8-0561-4ae2-81ab-d0abdc6ef2d0","ios":"levelo://app?vid=96186cc8-0561-4ae2-81ab-d0abdc6ef2d0"},"vehicle_type_id":"4","last_reported":1756332538,"current_range_meters":3600,"station_id":"","pricing_plan_id":"cebpf4jnsgd1na2vs0mg"},{"bike_id":"7c494aa6-5cbe-490f-b90f-6193ab62c745","system_id":"levelo_inurba_marseille","lat":43.21186,"lon":5.350745,"is_reserved":false,"is_disabled":false,"rental_uris":{"android":"levelo://app?vid=7c494aa6-5cbe-490f-b90f-6193ab62c745","ios":"levelo://app?vid=7c494aa6-5cbe-490f-b90f-6193ab62c745"},"vehicle_type_id":"4","last_reported":1756332538,"current_range_meters":3600,"station_id":"st_cvj6sg6p6f1abm77japg","pricing_plan_id":"cebpf4jnsgd1na2vs0mg"},{"bike_id":"919403d1-9d41-4322-8f42-253c1dba9d3b","system_id":"levelo_inurba_marseille","lat":43.2175,"lon":5.34612,"is_reserved":false,"is_disabled":false,"rental_uris":{"android":"levelo://app?vid=919403d1-9d41-4322-8f42-253c1dba9d3b","ios":"levelo://app?vid=919403d1-9d41-4322-8f42-253c1dba9d3b"},"vehicle_type_id":"4","last_reported":1756332538,"current_range_meters":4000,"station_id":"st_cvj6r9ubvosntc0bgbag","pricing_plan_id":"cebpf4jnsgd1na2vs0mg"},{"bike_id":"61763f51-f512-41b1-8db7-446feaf5ba57","system_id":"levelo_inurba_marseille","lat":43.301268,"lon":5.398741,"is_reserved":false,"is_disabled":false,"rental_uris":{"android":"levelo://app?vid=61763f51-f512-41b1-8db7-446feaf5ba57","ios":"levelo://app?vid=61763f51-f512-41b1-8db7-446feaf5ba57"},"vehicle_type_id":"4","last_reported":1756332538,"current_range_meters":4000,"station_id":"ce4bh0h2rcd13ifvqd40","pricing_plan_id":"cebpf4jnsgd1na2vs0mg"},{"bike_id":"dfa3a434-9b68-4ab6-adc3-06a3d4c3c512","system_id":"levelo_inurba_marseille","lat":43.26552,"lon":5.37316,"is_reserved":false,"is_disabled":false,"rental_uris":{"android":"levelo://app?vid=dfa3a434-9b68-4ab6-adc3-06a3d4c3c512","ios":"levelo://app?vid=dfa3a434-9b68-4ab6-adc3-06a3d4c3c512"},"vehicle_type_id":"4","last_reported":1756332538,"current_range_meters":4000,"station_id":"ce4bhg12rcd13ifvqf70","pricing_plan_id":"cebpf4jnsgd1na2vs0mg"},{"bike_id":"ff123329-22e6-4123-aca3-1a1b86bddd61","system_id":"levelo_inurba_marseille","lat":43.28485,"lon":5.38433,"is_reserved":false,"is_disabled":false,"rental_uris":{"android":"levelo://app?vid=ff123329-22e6-4123-aca3-1a1b86bddd61","ios":"levelo://app?vid=ff123329-22e6-4123-aca3-1a1b86bddd61"},"vehicle_type_id":"4","last_reported":1756332538,"current_range_meters":4000,"station_id":"ce4bh512rcd13ifvqe3g","pricing_plan_id":"cebpf4jnsgd1na2vs0mg"},{"bike_id":"93f69ca9-7229-4ded-bf8d-c42b539be5d9","system_id":"levelo_inurba_marseille","lat":43.3116,"lon":5.38723,"is_reserved":false,"is_disabled":false,"rental_uris":{"android":"levelo://app?vid=93f69ca9-7229-4ded-bf8d-c42b539be5d9","ios":"levelo://app?vid=93f69ca9-7229-4ded-bf8d-c42b539be5d9"},"vehicle_type_id":"4","last_reported":1756332538,"current_range_meters":4400,"station_id":"ce4bgv12rcd13ifvqcp0","pricing_plan_id":"cebpf4jnsgd1na2vs0mg"},{"bike_id":"90a5b318-96d7-4050-a86a-74d1edb8c2ad","system_id":"levelo_inurba_marseille","lat":43.3199,"lon":5.38141,"is_reserved":false,"is_disabled":false,"rental_uris":{"android":"levelo://app?vid=90a5b318-96d7-4050-a86a-74d1edb8c2ad","ios":"levelo://app?vid=90a5b318-96d7-4050-a86a-74d1edb8c2ad"},"vehicle_type_id":"4","last_reported":1756332538,"current_range_meters":4800,"station_id":"ce4bhr12rcd13ifvqhpg","pricing_plan_id":"cebpf4jnsgd1na2vs0mg"},{"bike_id":"70698924-f07a-4421-af4c-f1094e75e7d4","system_id":"levelo_inurba_marseille","lat":43.2118,"lon":5.35084,"is_reserved":false,"is_disabled":false,"rental_uris":{"android":"levelo://app?vid=70698924-f07a-4421-af4c-f1094e75e7d4","ios":"levelo://app?vid=70698924-f07a-4421-af4c-f1094e75e7d4"},"vehicle_type_id":"4","last_reported":1756332538,"current_range_meters":4800,"station_id":"st_cvj6sg6p6f1abm77japg","pricing_plan_id":"cebpf4jnsgd1na2vs0mg"},{"bike_id":"63cd8259-b2d4-4641-a5d9-10b177c39281","system_id":"levelo_inurba_marseille","lat":43.23137,"lon":5.43704,"is_reserved":false,"is_disabled":false,"rental_uris":{"android":"levelo://app?vid=63cd8259-b2d4-4641-a5d9-10b177c39281","ios":"levelo://app?vid=63cd8259-b2d4-4641-a5d9-10b177c39281"},"vehicle_type_id":"4","last_reported":1756332538,"current_range_meters":5600,"station_id":"ce4bhmp2rcd13ifvqgog","pricing_plan_id":"cebpf4jnsgd1na2vs0mg"},{"bike_id":"07a20f3a-56e5-4ad8-9408-6e989d6fc4b4","system_id":"levelo_inurba_marseille","lat":43.28442,"lon":5.39203,"is_reserved":false,"is_disabled":false,"rental_uris":{"android":"levelo://app?vid=07a20f3a-56e5-4ad8-9408-6e989d6fc4b4","ios":"levelo://app?vid=07a20f3a-56e5-4ad8-9408-6e989d6fc4b4"},"vehicle_type_id":"4","last_reported":1756332538,"current_range_meters":5600,"station_id":"ce4bhoh2rcd13ifvqh5g","pricing_plan_id":"cebpf4jnsgd1na2vs0mg"},{"bike_id":"b4355a8b-6620-41c5-aaa4-2b969fb59e8f","system_id":"levelo_inurba_marseille","lat":43.267,"lon":5.38256,"is_reserved":false,"is_disabled":true,"rental_uris":{"android":"levelo://app?vid=b4355a8b-6620-41c5-aaa4-2b969fb59e8f","ios":"levelo://app?vid=b4355a8b-6620-41c5-aaa4-2b969fb59e8f"},"vehicle_type_id":"4","last_reported":1756332538,"current_range_meters":5600,"station_id":"ce4bhg92rcd13ifvqf90","pricing_plan_id":"cebpf4jnsgd1na2vs0mg"},{"bike_id":"52c4db1a-6368-4740-8176-ceabee38e5f4","system_id":"levelo_inurba_marseille","lat":43.27496,"lon":5.42472,"is_reserved":false,"is_disabled":false,"rental_uris":{"android":"levelo://app?vid=52c4db1a-6368-4740-8176-ceabee38e5f4","ios":"levelo://app?vid=52c4db1a-6368-4740-8176-ceabee38e5f4"},"vehicle_type_id":"4","last_reported":1756332538,"current_range_meters":5600,"station_id":"ce4bhn92rcd13ifvqgrg","pricing_plan_id":"cebpf4jnsgd1na2vs0mg"},{"bike_id":"19c77996-aa2c-4de1-9594-61ca7c265d23","system_id":"levelo_inurba_marseille","lat":43.24661,"lon":5.38163,"is_reserved":false,"is_disabled":false,"rental_uris":{"android":"levelo://app?vid=19c77996-aa2c-4de1-9594-61ca7c265d23","ios":"levelo://app?vid=19c77996-aa2c-4de1-9594-61ca7c265d23"},"vehicle_type_id":"4","last_reported":1756332538,"current_range_meters":5600,"station_id":"ce4bhih2rcd13ifvqfr0","pricing_plan_id":"cebpf4jnsgd1na2vs0mg"},{"bike_id":"a84545c3-a9fa-45e3-947e-58c0d48af323","system_id":"levelo_inurba_marseille","lat":43.29526,"lon":5.38549,"is_reserved":false,"is_disabled":false,"rental_uris":{"android":"levelo://app?vid=a84545c3-a9fa-45e3-947e-58c0d48af323","ios":"levelo://app?vid=a84545c3-a9fa-45e3-947e-58c0d48af323"},"vehicle_type_id":"4","last_reported":1756332538,"current_range_meters":5600,"station_id":"ce4bgih2rcd13ifvqba0","pricing_plan_id":"cebpf4jnsgd1na2vs0mg"},{"bike_id":"8e24ebe6-2c97-4691-b6fd-34ce77ea55c9","system_id":"levelo_inurba_marseille","lat":43.2964,"lon":5.4059,"is_reserved":false,"is_disabled":false,"rental_uris":{"android":"levelo://app?vid=8e24ebe6-2c97-4691-b6fd-34ce77ea55c9","ios":"levelo://app?vid=8e24ebe6-2c97-4691-b6fd-34ce77ea55c9"},"vehicle_type_id":"4","last_reported":1756332538,"current_range_meters":6400,"station_id":"ce4bh0h2rcd13ifvqd60","pricing_plan_id":"cebpf4jnsgd1na2vs0mg"},{"bike_id":"03c727d0-56bf-4309-a435-63f7e75639c2","system_id":"levelo_inurba_marseille","lat":43.24074,"lon":5.37761,"is_reserved":false,"is_disabled":false,"rental_uris":{"android":"levelo://app?vid=03c727d0-56bf-4309-a435-63f7e75639c2","ios":"levelo://app?vid=03c727d0-56bf-4309-a435-63f7e75639c2"},"vehicle_type_id":"4","last_reported":1756332538,"current_range_meters":6000,"station_id":"ce4bhnp2rcd13ifvqgvg","pricing_plan_id":"cebpf4jnsgd1na2vs0mg"},{"bike_id":"eeb42e78-373a-42a8-ad92-d1dc5831d4c3","system_id":"levelo_inurba_marseille","lat":43.24806,"lon":5.37448,"is_reserved":false,"is_disabled":true,"rental_uris":{"android":"levelo://app?vid=eeb42e78-373a-42a8-ad92-d1dc5831d4c3","ios":"levelo://app?vid=eeb42e78-373a-42a8-ad92-d1dc5831d4c3"},"vehicle_type_id":"4","last_reported":1756332538,"current_range_meters":6000,"station_id":"ce4bhgh2rcd13ifvqfb0","pricing_plan_id":"cebpf4jnsgd1na2vs0mg"},{"bike_id":"f7a5f266-397e-41ed-87ec-1ab14ee126f3","system_id":"levelo_inurba_marseille","lat":43.23151,"lon":5.43708,"is_reserved":false,"is_disabled":false,"rental_uris":{"android":"levelo://app?vid=f7a5f266-397e-41ed-87ec-1ab14ee126f3","ios":"levelo://app?vid=f7a5f266-397e-41ed-87ec-1ab14ee126f3"},"vehicle_type_id":"4","last_reported":1756332538,"current_range_meters":6000,"station_id":"ce4bhmp2rcd13ifvqgog","pricing_plan_id":"cebpf4jnsgd1na2vs0mg"},{"bike_id":"3a8b134a-3743-4c3a-a67a-59bcb3f19a1e","system_id":"levelo_inurba_marseille","lat":43.28439,"lon":5.39208,"is_reserved":false,"is_disabled":false,"rental_uris":{"android":"levelo://app?vid=3a8b134a-3743-4c3a-a67a-59bcb3f19a1e","ios":"levelo://app?vid=3a8b134a-3743-4c3a-a67a-59bcb3f19a1e"},"vehicle_type_id":"4","last_reported":1756332538,"current_range_meters":6000,"station_id":"ce4bhoh2rcd13ifvqh5g","pricing_plan_id":"cebpf4jnsgd1na2vs0mg"},{"bike_id":"2732b203-8d34-41ae-80bd-b4f151d77aad","system_id":"levelo_inurba_marseille","lat":43.30244,"lon":5.40533,"is_reserved":false,"is_disabled":false,"rental_uris":{"android":"levelo://app?vid=2732b203-8d34-41ae-80bd-b4f151d77aad","ios":"levelo://app?vid=2732b203-8d34-41ae-80bd-b4f151d77aad"},"vehicle_type_id":"4","last_reported":1756332538,"current_range_meters":6000,"station_id":"","pricing_plan_id":"cebpf4jnsgd1na2vs0mg"},{"bike_id":"e5b2dac1-acfa-43b3-b039-fd69e91380de","system_id":"levelo_inurba_marseille","lat":43.32355,"lon":5.36753,"is_reserved":false,"is_disabled":false,"rental_uris":{"android":"levelo://app?vid=e5b2dac1-acfa-43b3-b039-fd69e91380de","ios":"levelo://app?vid=e5b2dac1-acfa-43b3-b039-fd69e91380de"},"vehicle_type_id":"4","last_reported":1756332538,"current_range_meters":6400,"station_id":"ce4bhsh2rcd13ifvqi2g","pricing_plan_id":"cebpf4jnsgd1na2vs0mg"},{"bike_id":"0d502687-08ef-4491-8893-8a03d8688be8","system_id":"levelo_inurba_marseille","lat":43.29631,"lon":5.36134,"is_reserved":false,"is_disabled":false,"rental_uris":{"android":"levelo://app?vid=0d502687-08ef-4491-8893-8a03d8688be8","ios":"levelo://app?vid=0d502687-08ef-4491-8893-8a03d8688be8"},"vehicle_type_id":"4","last_reported":1756332538,"current_range_meters":6400,"station_id":"","pricing_plan_id":"cebpf4jnsgd1na2vs0mg"},{"bike_id":"d0929797-eccc-45d1-a5f1-aea03c095a59","system_id":"levelo_inurba_marseille","lat":43.27968,"lon":5.41672,"is_reserved":false,"is_disabled":true,"rental_uris":{"android":"levelo://app?vid=d0929797-eccc-45d1-a5f1-aea03c095a59","ios":"levelo://app?vid=d0929797-eccc-45d1-a5f1-aea03c095a59"},"vehicle_type_id":"4","last_reported":1756332538,"current_range_meters":7200,"station_id":"ce4bho12rcd13ifvqh1g","pricing_plan_id":"cebpf4jnsgd1na2vs0mg"},{"bike_id":"19453317-7841-4e65-89da-f7108166fcfe","system_id":"levelo_inurba_marseille","lat":43.29279,"lon":5.40119,"is_reserved":false,"is_disabled":false,"rental_uris":{"android":"levelo://app?vid=19453317-7841-4e65-89da-f7108166fcfe","ios":"levelo://app?vid=19453317-7841-4e65-89da-f7108166fcfe"},"vehicle_type_id":"4","last_reported":1756332538,"current_range_meters":7200,"station_id":"ce4bh312rcd13ifvqdk0","pricing_plan_id":"cebpf4jnsgd1na2vs0mg"},{"bike_id":"e86cbda1-d43c-4ce6-ab6f-023110cadedb","system_id":"levelo_inurba_marseille","lat":43.30302,"lon":5.36897,"is_reserved":false,"is_disabled":false,"rental_uris":{"android":"levelo://app?vid=e86cbda1-d43c-4ce6-ab6f-023110cadedb","ios":"levelo://app?vid=e86cbda1-d43c-4ce6-ab6f-023110cadedb"},"vehicle_type_id":"4","last_reported":1756332538,"current_range_meters":7200,"station_id":"ce4bgqh2rcd13ifvqc5g","pricing_plan_id":"cebpf4jnsgd1na2vs0mg"},{"bike_id":"e1cc485f-c6f0-41fe-b8d8-b5e94a231de5","system_id":"levelo_inurba_marseille","lat":43.30776,"lon":5.37718,"is_reserved":false,"is_disabled":false,"rental_uris":{"android":"levelo://app?vid=e1cc485f-c6f0-41fe-b8d8-b5e94a231de5","ios":"levelo://app?vid=e1cc485f-c6f0-41fe-b8d8-b5e94a231de5"},"vehicle_type_id":"4","last_reported":1756332538,"current_range_meters":7200,"station_id":"","pricing_plan_id":"cebpf4jnsgd1na2vs0mg"},{"bike_id":"51842e17-ef10-4624-a23e-c8a182427991","system_id":"levelo_inurba_marseille","lat":43.31628,"lon":5.38198,"is_reserved":false,"is_disabled":false,"rental_uris":{"android":"levelo://app?vid=51842e17-ef10-4624-a23e-c8a182427991","ios":"levelo://app?vid=51842e17-ef10-4624-a23e-c8a182427991"},"vehicle_type_id":"4","last_reported":1756332538,"current_range_meters":7200,"station_id":"","pricing_plan_id":"cebpf4jnsgd1na2vs0mg"},{"bike_id":"69a01144-4cb0-4f43-b8a7-d8bba1210d75","system_id":"levelo_inurba_marseille","lat":43.31584,"lon":5.3746,"is_reserved":false,"is_disabled":false,"rental_uris":{"android":"levelo://app?vid=69a01144-4cb0-4f43-b8a7-d8bba1210d75","ios":"levelo://app?vid=69a01144-4cb0-4f43-b8a7-d8bba1210d75"},"vehicle_type_id":"4","last_reported":1756332538,"current_range_meters":7200,"station_id":"","pricing_plan_id":"cebpf4jnsgd1na2vs0mg"},{"bike_id":"c675da05-c495-4913-bc62-fdb1f5f596d1","system_id":"levelo_inurba_marseille","lat":43.31276,"lon":5.4017,"is_reserved":false,"is_disabled":false,"rental_uris":{"android":"levelo://app?vid=c675da05-c495-4913-bc62-fdb1f5f596d1","ios":"levelo://app?vid=c675da05-c495-4913-bc62-fdb1f5f596d1"},"vehicle_type_id":"4","last_reported":1756332538,"current_range_meters":7200,"station_id":"ce4bh092rcd13ifvqd30","pricing_plan_id":"cebpf4jnsgd1na2vs0mg"},{"bike_id":"49f60e81-aa7a-4e46-bbc1-fc06ed848e16","system_id":"levelo_inurba_marseille","lat":43.30591,"lon":5.39358,"is_reserved":false,"is_disabled":false,"rental_uris":{"android":"levelo://app?vid=49f60e81-aa7a-4e46-bbc1-fc06ed848e16","ios":"levelo://app?vid=49f60e81-aa7a-4e46-bbc1-fc06ed848e16"},"vehicle_type_id":"4","last_reported":1756332538,"current_range_meters":7200,"station_id":"ce4bh0p2rcd13ifvqd80","pricing_plan_id":"cebpf4jnsgd1na2vs0mg"},{"bike_id":"589b7a63-a09f-415b-9532-fbb4b9a9872f","system_id":"levelo_inurba_marseille","lat":43.28277,"lon":5.35061,"is_reserved":false,"is_disabled":false,"rental_uris":{"android":"levelo://app?vid=589b7a63-a09f-415b-9532-fbb4b9a9872f","ios":"levelo://app?vid=589b7a63-a09f-415b-9532-fbb4b9a9872f"},"vehicle_type_id":"4","last_reported":1756332538,"current_range_meters":7200,"station_id":"ce4bhbp2rcd13ifvqerg","pricing_plan_id":"cebpf4jnsgd1na2vs0mg"},{"bike_id":"239c3a58-272b-4f2f-886f-e847e601674d","system_id":"levelo_inurba_marseille","lat":43.30429,"lon":5.3975,"is_reserved":false,"is_disabled":false,"rental_uris":{"android":"levelo://app?vid=239c3a58-272b-4f2f-886f-e847e601674d","ios":"levelo://app?vid=239c3a58-272b-4f2f-886f-e847e601674d"},"vehicle_type_id":"4","last_reported":1756332538,"current_range_meters":8000,"station_id":"ce4bh092rcd13ifvqd20","pricing_plan_id":"cebpf4jnsgd1na2vs0mg"},{"bike_id":"1503ae73-ca23-45ec-8a68-02e967b0ead8","system_id":"levelo_inurba_marseille","lat":43.23212,"lon":5.35555,"is_reserved":false,"is_disabled":false,"rental_uris":{"android":"levelo://app?vid=1503ae73-ca23-45ec-8a68-02e967b0ead8","ios":"levelo://app?vid=1503ae73-ca23-45ec-8a68-02e967b0ead8"},"vehicle_type_id":"4","last_reported":1756332538,"current_range_meters":8000,"station_id":"ce4bhu92rcd13ifvqi70","pricing_plan_id":"cebpf4jnsgd1na2vs0mg"},{"bike_id":"5847f84e-9830-4035-8d7d-f25d8cd77c82","system_id":"levelo_inurba_marseille","lat":43.28708,"lon":5.39985,"is_reserved":false,"is_disabled":false,"rental_uris":{"android":"levelo://app?vid=5847f84e-9830-4035-8d7d-f25d8cd77c82","ios":"levelo://app?vid=5847f84e-9830-4035-8d7d-f25d8cd77c82"},"vehicle_type_id":"4","last_reported":1756332538,"current_range_meters":8000,"station_id":"ce4bho92rcd13ifvqh3g","pricing_plan_id":"cebpf4jnsgd1na2vs0mg"},{"bike_id":"24df2c59-c2ae-4cf6-8d73-b821e9ca9612","system_id":"levelo_inurba_marseille","lat":43.27994,"lon":5.3998,"is_reserved":false,"is_disabled":true,"rental_uris":{"android":"levelo://app?vid=24df2c59-c2ae-4cf6-8d73-b821e9ca9612","ios":"levelo://app?vid=24df2c59-c2ae-4cf6-8d73-b821e9ca9612"},"vehicle_type_id":"4","last_reported":1756332538,"current_range_meters":8000,"station_id":"ce4bho92rcd13ifvqh4g","pricing_plan_id":"cebpf4jnsgd1na2vs0mg"},{"bike_id":"899ef22f-86b1-41e7-8c70-f9240174a6d4","system_id":"levelo_inurba_marseille","lat":43.2868,"lon":5.38658,"is_reserved":false,"is_disabled":false,"rental_uris":{"android":"levelo://app?vid=899ef22f-86b1-41e7-8c70-f9240174a6d4","ios":"levelo://app?vid=899ef22f-86b1-41e7-8c70-f9240174a6d4"},"vehicle_type_id":"4","last_reported":1756332538,"current_range_meters":8000,"station_id":"ce4bh492rcd13ifvqdug","pricing_plan_id":"cebpf4jnsgd1na2vs0mg"},{"bike_id":"d6f6730b-8ea9-42a3-a1eb-3405a2d763f0","system_id":"levelo_inurba_marseille","lat":43.31473,"lon":5.37315,"is_reserved":false,"is_disabled":false,"rental_uris":{"android":"levelo://app?vid=d6f6730b-8ea9-42a3-a1eb-3405a2d763f0","ios":"levelo://app?vid=d6f6730b-8ea9-42a3-a1eb-3405a2d763f0"},"vehicle_type_id":"4","last_reported":1756332538,"current_range_meters":8000,"station_id":"ce4bgt12rcd13ifvqcd0","pricing_plan_id":"cebpf4jnsgd1na2vs0mg"},{"bike_id":"70bc0557-fd9c-41a8-91e4-86034aeb9bc7","system_id":"levelo_inurba_marseille","lat":43.32113,"lon":5.36773,"is_reserved":false,"is_disabled":false,"rental_uris":{"android":"levelo://app?vid=70bc0557-fd9c-41a8-91e4-86034aeb9bc7","ios":"levelo://app?vid=70bc0557-fd9c-41a8-91e4-86034aeb9bc7"},"vehicle_type_id":"4","last_reported":1756332538,"current_range_meters":8400,"station_id":"ce4bhrh2rcd13ifvqhug","pricing_plan_id":"cebpf4jnsgd1na2vs0mg"},{"bike_id":"8ff3ebc3-b8cc-483f-9232-7e0c6220b0be","system_id":"levelo_inurba_marseille","lat":43.29959,"lon":5.41323,"is_reserved":false,"is_disabled":true,"rental_uris":{"android":"levelo://app?vid=8ff3ebc3-b8cc-483f-9232-7e0c6220b0be","ios":"levelo://app?vid=8ff3ebc3-b8cc-483f-9232-7e0c6220b0be"},"vehicle_type_id":"4","last_reported":1756332538,"current_range_meters":8400,"station_id":"ce4bhp12rcd13ifvqh9g","pricing_plan_id":"cebpf4jnsgd1na2vs0mg"},{"bike_id":"a79b6166-93d1-40ff-986d-a995e819e2c5","system_id":"levelo_inurba_marseille","lat":43.32361,"lon":5.38879,"is_reserved":false,"is_disabled":false,"rental_uris":{"android":"levelo://app?vid=a79b6166-93d1-40ff-986d-a995e819e2c5","ios":"levelo://app?vid=a79b6166-93d1-40ff-986d-a995e819e2c5"},"vehicle_type_id":"4","last_reported":1756332538,"current_range_meters":8400,"station_id":"ce4bhqp2rcd13ifvqhog","pricing_plan_id":"cebpf4jnsgd1na2vs0mg"},{"bike_id":"e2301651-255d-4245-aed6-849adf68f82c","system_id":"levelo_inurba_marseille","lat":43.24548,"lon":5.39525,"is_reserved":false,"is_disabled":false,"rental_uris":{"android":"levelo://app?vid=e2301651-255d-4245-aed6-849adf68f82c","ios":"levelo://app?vid=e2301651-255d-4245-aed6-849adf68f82c"},"vehicle_type_id":"4","last_reported":1756332538,"current_range_meters":8400,"station_id":"ce4bhlp2rcd13ifvqgjg","pricing_plan_id":"cebpf4jnsgd1na2vs0mg"},{"bike_id":"0f2017f4-e5c1-46a2-a7d8-e957ce265a72","system_id":"levelo_inurba_marseille","lat":43.33775,"lon":5.37466,"is_reserved":false,"is_disabled":false,"rental_uris":{"android":"levelo://app?vid=0f2017f4-e5c1-46a2-a7d8-e957ce265a72","ios":"levelo://app?vid=0f2017f4-e5c1-46a2-a7d8-e957ce265a72"},"vehicle_type_id":"4","last_reported":1756332538,"current_range_meters":8400,"station_id":"","pricing_plan_id":"cebpf4jnsgd1na2vs0mg"},{"bike_id":"a6ef8657-5b8a-423b-993f-c3df43dec0a0","system_id":"levelo_inurba_marseille","lat":43.326998,"lon":5.392208,"is_reserved":false,"is_disabled":false,"rental_uris":{"android":"levelo://app?vid=a6ef8657-5b8a-423b-993f-c3df43dec0a0","ios":"levelo://app?vid=a6ef8657-5b8a-423b-993f-c3df43dec0a0"},"vehicle_type_id":"4","last_reported":1756332538,"current_range_meters":8400,"station_id":"","pricing_plan_id":"cebpf4jnsgd1na2vs0mg"},{"bike_id":"1f08a4dd-6681-494e-9d7a-28b2e1f45f0c","system_id":"levelo_inurba_marseille","lat":43.31757,"lon":5.39019,"is_reserved":false,"is_disabled":false,"rental_uris":{"android":"levelo://app?vid=1f08a4dd-6681-494e-9d7a-28b2e1f45f0c","ios":"levelo://app?vid=1f08a4dd-6681-494e-9d7a-28b2e1f45f0c"},"vehicle_type_id":"4","last_reported":1756332538,"current_range_meters":8400,"station_id":"ce4bhqp2rcd13ifvqhng","pricing_plan_id":"cebpf4jnsgd1na2vs0mg"},{"bike_id":"68da05a4-74e7-42fd-8eac-936662a3a6c1","system_id":"levelo_inurba_marseille","lat":43.33606,"lon":5.41033,"is_reserved":false,"is_disabled":false,"rental_uris":{"android":"levelo://app?vid=68da05a4-74e7-42fd-8eac-936662a3a6c1","ios":"levelo://app?vid=68da05a4-74e7-42fd-8eac-936662a3a6c1"},"vehicle_type_id":"4","last_reported":1756332538,"current_range_meters":8400,"station_id":"ce4bhqh2rcd13ifvqhmg","pricing_plan_id":"cebpf4jnsgd1na2vs0mg"},{"bike_id":"dd5385d3-3d81-4719-85c4-61663d2f0c49","system_id":"levelo_inurba_marseille","lat":43.30196,"lon":5.36654,"is_reserved":false,"is_disabled":false,"rental_uris":{"android":"levelo://app?vid=dd5385d3-3d81-4719-85c4-61663d2f0c49","ios":"levelo://app?vid=dd5385d3-3d81-4719-85c4-61663d2f0c49"},"vehicle_type_id":"4","last_reported":1756332538,"current_range_meters":8800,"station_id":"ce4bgrh2rcd13ifvqc8g","pricing_plan_id":"cebpf4jnsgd1na2vs0mg"},{"bike_id":"1d7023ef-959e-48df-b075-0a4bd90cc9ae","system_id":"levelo_inurba_marseille","lat":43.27365,"lon":5.36253,"is_reserved":false,"is_disabled":true,"rental_uris":{"android":"levelo://app?vid=1d7023ef-959e-48df-b075-0a4bd90cc9ae","ios":"levelo://app?vid=1d7023ef-959e-48df-b075-0a4bd90cc9ae"},"vehicle_type_id":"4","last_reported":1756332538,"current_range_meters":8800,"station_id":"ce4bhbh2rcd13ifvqeo0","pricing_plan_id":"cebpf4jnsgd1na2vs0mg"},{"bike_id":"e9099ed8-f39c-4735-a545-38ff6ccc85d8","system_id":"levelo_inurba_marseille","lat":43.32236,"lon":5.38549,"is_reserved":false,"is_disabled":false,"rental_uris":{"android":"levelo://app?vid=e9099ed8-f39c-4735-a545-38ff6ccc85d8","ios":"levelo://app?vid=e9099ed8-f39c-4735-a545-38ff6ccc85d8"},"vehicle_type_id":"4","last_reported":1756332538,"current_range_meters":8800,"station_id":"","pricing_plan_id":"cebpf4jnsgd1na2vs0mg"},{"bike_id":"39d2dd10-b493-4827-a7f8-588f8933df2f","system_id":"levelo_inurba_marseille","lat":43.295764,"lon":5.399833,"is_reserved":false,"is_disabled":false,"rental_uris":{"android":"levelo://app?vid=39d2dd10-b493-4827-a7f8-588f8933df2f","ios":"levelo://app?vid=39d2dd10-b493-4827-a7f8-588f8933df2f"},"vehicle_type_id":"4","last_reported":1756332538,"current_range_meters":8400,"station_id":"ce4bh312rcd13ifvqdj0","pricing_plan_id":"cebpf4jnsgd1na2vs0mg"},{"bike_id":"6aa81426-c4f2-4b54-8a4a-dc1be6b07a9b","system_id":"levelo_inurba_marseille","lat":43.31689,"lon":5.40479,"is_reserved":false,"is_disabled":false,"rental_uris":{"android":"levelo://app?vid=6aa81426-c4f2-4b54-8a4a-dc1be6b07a9b","ios":"levelo://app?vid=6aa81426-c4f2-4b54-8a4a-dc1be6b07a9b"},"vehicle_type_id":"4","last_reported":1756332538,"current_range_meters":8800,"station_id":"ce4bh012rcd13ifvqd00","pricing_plan_id":"cebpf4jnsgd1na2vs0mg"},{"bike_id":"4ba95d44-f07d-4b58-81bb-14b80a9e996e","system_id":"levelo_inurba_marseille","lat":43.30144,"lon":5.37428,"is_reserved":false,"is_disabled":false,"rental_uris":{"android":"levelo://app?vid=4ba95d44-f07d-4b58-81bb-14b80a9e996e","ios":"levelo://app?vid=4ba95d44-f07d-4b58-81bb-14b80a9e996e"},"vehicle_type_id":"4","last_reported":1756332538,"current_range_meters":9200,"station_id":"ce4bgs92rcd13ifvqcc0","pricing_plan_id":"cebpf4jnsgd1na2vs0mg"},{"bike_id":"2d0e77b8-c9d8-4e57-b6d3-0a222f73256a","system_id":"levelo_inurba_marseille","lat":43.26178,"lon":5.37449,"is_reserved":false,"is_disabled":true,"rental_uris":{"android":"levelo://app?vid=2d0e77b8-c9d8-4e57-b6d3-0a222f73256a","ios":"levelo://app?vid=2d0e77b8-c9d8-4e57-b6d3-0a222f73256a"},"vehicle_type_id":"4","last_reported":1756332538,"current_range_meters":9200,"station_id":"ce4bhgp2rcd13ifvqfc0","pricing_plan_id":"cebpf4jnsgd1na2vs0mg"},{"bike_id":"23038a23-8213-4d5b-a784-616373105311","system_id":"levelo_inurba_marseille","lat":43.2988,"lon":5.43668,"is_reserved":false,"is_disabled":false,"rental_uris":{"android":"levelo://app?vid=23038a23-8213-4d5b-a784-616373105311","ios":"levelo://app?vid=23038a23-8213-4d5b-a784-616373105311"},"vehicle_type_id":"4","last_reported":1756332538,"current_range_meters":9200,"station_id":"ce4bhpp2rcd13ifvqhfg","pricing_plan_id":"cebpf4jnsgd1na2vs0mg"},{"bike_id":"1c492bfa-292c-4943-bcbd-81f1631d88de","system_id":"levelo_inurba_marseille","lat":43.31207,"lon":5.3684,"is_reserved":false,"is_disabled":false,"rental_uris":{"android":"levelo://app?vid=1c492bfa-292c-4943-bcbd-81f1631d88de","ios":"levelo://app?vid=1c492bfa-292c-4943-bcbd-81f1631d88de"},"vehicle_type_id":"4","last_reported":1756332538,"current_range_meters":9200,"station_id":"ce4bgl92rcd13ifvqbq0","pricing_plan_id":"cebpf4jnsgd1na2vs0mg"},{"bike_id":"1546df9e-d1cb-482b-8d1f-d121540fd829","system_id":"levelo_inurba_marseille","lat":43.21203,"lon":5.35081,"is_reserved":false,"is_disabled":false,"rental_uris":{"android":"levelo://app?vid=1546df9e-d1cb-482b-8d1f-d121540fd829","ios":"levelo://app?vid=1546df9e-d1cb-482b-8d1f-d121540fd829"},"vehicle_type_id":"4","last_reported":1756332538,"current_range_meters":9200,"station_id":"st_cvj6sg6p6f1abm77japg","pricing_plan_id":"cebpf4jnsgd1na2vs0mg"},{"bike_id":"38d8ef3e-e8d7-4990-bcc0-c58cc350dc96","system_id":"levelo_inurba_marseille","lat":43.26043,"lon":5.37564,"is_reserved":false,"is_disabled":true,"rental_uris":{"android":"levelo://app?vid=38d8ef3e-e8d7-4990-bcc0-c58cc350dc96","ios":"levelo://app?vid=38d8ef3e-e8d7-4990-bcc0-c58cc350dc96"},"vehicle_type_id":"4","last_reported":1756332538,"current_range_meters":9200,"station_id":"ce4bhgh2rcd13ifvqfa0","pricing_plan_id":"cebpf4jnsgd1na2vs0mg"},{"bike_id":"cceb5e99-5104-49c8-8506-8e6a58d67871","system_id":"levelo_inurba_marseille","lat":43.24187,"lon":5.39717,"is_reserved":false,"is_disabled":true,"rental_uris":{"android":"levelo://app?vid=cceb5e99-5104-49c8-8506-8e6a58d67871","ios":"levelo://app?vid=cceb5e99-5104-49c8-8506-8e6a58d67871"},"vehicle_type_id":"4","last_reported":1756332538,"current_range_meters":9200,"station_id":"ce4bhn12rcd13ifvqgpg","pricing_plan_id":"cebpf4jnsgd1na2vs0mg"},{"bike_id":"e156dac0-2ce7-49fd-8840-1e3df2d87f9b","system_id":"levelo_inurba_marseille","lat":43.28567,"lon":5.39502,"is_reserved":false,"is_disabled":false,"rental_uris":{"android":"levelo://app?vid=e156dac0-2ce7-49fd-8840-1e3df2d87f9b","ios":"levelo://app?vid=e156dac0-2ce7-49fd-8840-1e3df2d87f9b"},"vehicle_type_id":"4","last_reported":1756332538,"current_range_meters":9600,"station_id":"ce4bh292rcd13ifvqdg0","pricing_plan_id":"cebpf4jnsgd1na2vs0mg"},{"bike_id":"e337d582-364a-4312-af91-67d0c81052aa","system_id":"levelo_inurba_marseille","lat":43.3255,"lon":5.36446,"is_reserved":false,"is_disabled":false,"rental_uris":{"android":"levelo://app?vid=e337d582-364a-4312-af91-67d0c81052aa","ios":"levelo://app?vid=e337d582-364a-4312-af91-67d0c81052aa"},"vehicle_type_id":"4","last_reported":1756332538,"current_range_meters":9600,"station_id":"","pricing_plan_id":"cebpf4jnsgd1na2vs0mg"},{"bike_id":"d079813e-45f5-4da5-8ab5-d6827a2fe890","system_id":"levelo_inurba_marseille","lat":43.30936,"lon":5.40158,"is_reserved":false,"is_disabled":false,"rental_uris":{"android":"levelo://app?vid=d079813e-45f5-4da5-8ab5-d6827a2fe890","ios":"levelo://app?vid=d079813e-45f5-4da5-8ab5-d6827a2fe890"},"vehicle_type_id":"4","last_reported":1756332538,"current_range_meters":9600,"station_id":"ce4bgvp2rcd13ifvqct0","pricing_plan_id":"cebpf4jnsgd1na2vs0mg"},{"bike_id":"996955b4-96d3-4239-ac3d-b65655960acf","system_id":"levelo_inurba_marseille","lat":43.2857,"lon":5.39498,"is_reserved":false,"is_disabled":false,"rental_uris":{"android":"levelo://app?vid=996955b4-96d3-4239-ac3d-b65655960acf","ios":"levelo://app?vid=996955b4-96d3-4239-ac3d-b65655960acf"},"vehicle_type_id":"4","last_reported":1756332538,"current_range_meters":10000,"station_id":"ce4bh292rcd13ifvqdg0","pricing_plan_id":"cebpf4jnsgd1na2vs0mg"},{"bike_id":"30c70dcd-7df1-4ccc-8605-2571fe8e85b6","system_id":"levelo_inurba_marseille","lat":43.31763,"lon":5.39016,"is_reserved":false,"is_disabled":false,"rental_uris":{"android":"levelo://app?vid=30c70dcd-7df1-4ccc-8605-2571fe8e85b6","ios":"levelo://app?vid=30c70dcd-7df1-4ccc-8605-2571fe8e85b6"},"vehicle_type_id":"4","last_reported":1756332538,"current_range_meters":10000,"station_id":"ce4bhqp2rcd13ifvqhng","pricing_plan_id":"cebpf4jnsgd1na2vs0mg"},{"bike_id":"a7c879e6-fbdc-41cc-b936-a235aa17adb5","system_id":"levelo_inurba_marseille","lat":43.33133,"lon":5.38172,"is_reserved":false,"is_disabled":false,"rental_uris":{"android":"levelo://app?vid=a7c879e6-fbdc-41cc-b936-a235aa17adb5","ios":"levelo://app?vid=a7c879e6-fbdc-41cc-b936-a235aa17adb5"},"vehicle_type_id":"4","last_reported":1756332538,"current_range_meters":10000,"station_id":"","pricing_plan_id":"cebpf4jnsgd1na2vs0mg"},{"bike_id":"356f04bc-d2ef-412f-a3a0-9f61abac7047","system_id":"levelo_inurba_marseille","lat":43.30133,"lon":5.39858,"is_reserved":false,"is_disabled":false,"rental_uris":{"android":"levelo://app?vid=356f04bc-d2ef-412f-a3a0-9f61abac7047","ios":"levelo://app?vid=356f04bc-d2ef-412f-a3a0-9f61abac7047"},"vehicle_type_id":"4","last_reported":1756332538,"current_range_meters":9600,"station_id":"ce4bh0h2rcd13ifvqd40","pricing_plan_id":"cebpf4jnsgd1na2vs0mg"},{"bike_id":"5bce688b-fc81-4596-8277-b66f54be87c1","system_id":"levelo_inurba_marseille","lat":43.33768,"lon":5.37438,"is_reserved":false,"is_disabled":false,"rental_uris":{"android":"levelo://app?vid=5bce688b-fc81-4596-8277-b66f54be87c1","ios":"levelo://app?vid=5bce688b-fc81-4596-8277-b66f54be87c1"},"vehicle_type_id":"4","last_reported":1756332538,"current_range_meters":10000,"station_id":"","pricing_plan_id":"cebpf4jnsgd1na2vs0mg"},{"bike_id":"c361e3e0-44af-4eaf-aa8a-86e2cae37080","system_id":"levelo_inurba_marseille","lat":43.31358,"lon":5.38509,"is_reserved":false,"is_disabled":false,"rental_uris":{"android":"levelo://app?vid=c361e3e0-44af-4eaf-aa8a-86e2cae37080","ios":"levelo://app?vid=c361e3e0-44af-4eaf-aa8a-86e2cae37080"},"vehicle_type_id":"4","last_reported":1756332538,"current_range_meters":10000,"station_id":"ce4bgt92rcd13ifvqcf0","pricing_plan_id":"cebpf4jnsgd1na2vs0mg"},{"bike_id":"b04f3934-c3ac-453d-bd76-79a8003278b0","system_id":"levelo_inurba_marseille","lat":43.30075,"lon":5.39085,"is_reserved":false,"is_disabled":false,"rental_uris":{"android":"levelo://app?vid=b04f3934-c3ac-453d-bd76-79a8003278b0","ios":"levelo://app?vid=b04f3934-c3ac-453d-bd76-79a8003278b0"},"vehicle_type_id":"4","last_reported":1756332538,"current_range_meters":9600,"station_id":"ce4bh192rcd13ifvqdb0","pricing_plan_id":"cebpf4jnsgd1na2vs0mg"},{"bike_id":"98b5d953-937e-48a2-a5e5-1c6a780d56ce","system_id":"levelo_inurba_marseille","lat":43.28101,"lon":5.37849,"is_reserved":false,"is_disabled":false,"rental_uris":{"android":"levelo://app?vid=98b5d953-937e-48a2-a5e5-1c6a780d56ce","ios":"levelo://app?vid=98b5d953-937e-48a2-a5e5-1c6a780d56ce"},"vehicle_type_id":"4","last_reported":1756332538,"current_range_meters":10800,"station_id":"ce4bha12rcd13ifvqee0","pricing_plan_id":"cebpf4jnsgd1na2vs0mg"},{"bike_id":"e4c5cebf-4480-44ae-962b-6a024b9fe92e","system_id":"levelo_inurba_marseille","lat":43.29258,"lon":5.38439,"is_reserved":false,"is_disabled":false,"rental_uris":{"android":"levelo://app?vid=e4c5cebf-4480-44ae-962b-6a024b9fe92e","ios":"levelo://app?vid=e4c5cebf-4480-44ae-962b-6a024b9fe92e"},"vehicle_type_id":"4","last_reported":1756332538,"current_range_meters":10000,"station_id":"ce4bh692rcd13ifvqea0","pricing_plan_id":"cebpf4jnsgd1na2vs0mg"},{"bike_id":"e2dfb3ca-cf5a-4c2c-b6e5-79fc89d1abb0","system_id":"levelo_inurba_marseille","lat":43.31994,"lon":5.38165,"is_reserved":false,"is_disabled":false,"rental_uris":{"android":"levelo://app?vid=e2dfb3ca-cf5a-4c2c-b6e5-79fc89d1abb0","ios":"levelo://app?vid=e2dfb3ca-cf5a-4c2c-b6e5-79fc89d1abb0"},"vehicle_type_id":"4","last_reported":1756332538,"current_range_meters":10000,"station_id":"ce4bhr12rcd13ifvqhpg","pricing_plan_id":"cebpf4jnsgd1na2vs0mg"},{"bike_id":"4ecd415b-a9da-4bbe-a69e-f6401b37a3d4","system_id":"levelo_inurba_marseille","lat":43.30153,"lon":5.39882,"is_reserved":false,"is_disabled":false,"rental_uris":{"android":"levelo://app?vid=4ecd415b-a9da-4bbe-a69e-f6401b37a3d4","ios":"levelo://app?vid=4ecd415b-a9da-4bbe-a69e-f6401b37a3d4"},"vehicle_type_id":"4","last_reported":1756332538,"current_range_meters":10800,"station_id":"ce4bh0h2rcd13ifvqd40","pricing_plan_id":"cebpf4jnsgd1na2vs0mg"},{"bike_id":"b43d7a83-48eb-4bc3-814f-5aeaa6724e9a","system_id":"levelo_inurba_marseille","lat":43.30539,"lon":5.37306,"is_reserved":false,"is_disabled":false,"rental_uris":{"android":"levelo://app?vid=b43d7a83-48eb-4bc3-814f-5aeaa6724e9a","ios":"levelo://app?vid=b43d7a83-48eb-4bc3-814f-5aeaa6724e9a"},"vehicle_type_id":"4","last_reported":1756332538,"current_range_meters":10800,"station_id":"","pricing_plan_id":"cebpf4jnsgd1na2vs0mg"},{"bike_id":"2b2ebf1d-a923-4959-8b1a-e5f303b7fe84","system_id":"levelo_inurba_marseille","lat":43.29263,"lon":5.40124,"is_reserved":false,"is_disabled":false,"rental_uris":{"android":"levelo://app?vid=2b2ebf1d-a923-4959-8b1a-e5f303b7fe84","ios":"levelo://app?vid=2b2ebf1d-a923-4959-8b1a-e5f303b7fe84"},"vehicle_type_id":"4","last_reported":1756332538,"current_range_meters":10800,"station_id":"ce4bh312rcd13ifvqdk0","pricing_plan_id":"cebpf4jnsgd1na2vs0mg"},{"bike_id":"452c64c1-c18e-429f-ac02-5f3cc7af3941","system_id":"levelo_inurba_marseille","lat":43.21747,"lon":5.34599,"is_reserved":false,"is_disabled":false,"rental_uris":{"android":"levelo://app?vid=452c64c1-c18e-429f-ac02-5f3cc7af3941","ios":"levelo://app?vid=452c64c1-c18e-429f-ac02-5f3cc7af3941"},"vehicle_type_id":"4","last_reported":1756332538,"current_range_meters":10800,"station_id":"st_cvj6r9ubvosntc0bgbag","pricing_plan_id":"cebpf4jnsgd1na2vs0mg"},{"bike_id":"448379b2-76be-4b13-abe2-1c1e77a9bc2e","system_id":"levelo_inurba_marseille","lat":43.29786,"lon":5.37094,"is_reserved":false,"is_disabled":false,"rental_uris":{"android":"levelo://app?vid=448379b2-76be-4b13-abe2-1c1e77a9bc2e","ios":"levelo://app?vid=448379b2-76be-4b13-abe2-1c1e77a9bc2e"},"vehicle_type_id":"4","last_reported":1756332538,"current_range_meters":10800,"station_id":"ce4bgop2rcd13ifvqc1g","pricing_plan_id":"cebpf4jnsgd1na2vs0mg"},{"bike_id":"e5eabf25-4e1c-476e-b130-9f83cdcfc80c","system_id":"levelo_inurba_marseille","lat":43.29811,"lon":5.41715,"is_reserved":false,"is_disabled":false,"rental_uris":{"android":"levelo://app?vid=e5eabf25-4e1c-476e-b130-9f83cdcfc80c","ios":"levelo://app?vid=e5eabf25-4e1c-476e-b130-9f83cdcfc80c"},"vehicle_type_id":"4","last_reported":1756332538,"current_range_meters":11200,"station_id":"","pricing_plan_id":"cebpf4jnsgd1na2vs0mg"},{"bike_id":"a5bf7d36-219d-4ca8-a553-3f0169bf9876","system_id":"levelo_inurba_marseille","lat":43.30782,"lon":5.37647,"is_reserved":false,"is_disabled":false,"rental_uris":{"android":"levelo://app?vid=a5bf7d36-219d-4ca8-a553-3f0169bf9876","ios":"levelo://app?vid=a5bf7d36-219d-4ca8-a553-3f0169bf9876"},"vehicle_type_id":"4","last_reported":1756332538,"current_range_meters":10800,"station_id":"ce4bgv92rcd13ifvqcq0","pricing_plan_id":"cebpf4jnsgd1na2vs0mg"},{"bike_id":"40359052-9f3d-44f8-a43b-f486217c4075","system_id":"levelo_inurba_marseille","lat":43.28103,"lon":5.37849,"is_reserved":false,"is_disabled":false,"rental_uris":{"android":"levelo://app?vid=40359052-9f3d-44f8-a43b-f486217c4075","ios":"levelo://app?vid=40359052-9f3d-44f8-a43b-f486217c4075"},"vehicle_type_id":"4","last_reported":1756332538,"current_range_meters":11200,"station_id":"ce4bha12rcd13ifvqee0","pricing_plan_id":"cebpf4jnsgd1na2vs0mg"},{"bike_id":"aa375831-c987-4042-97d7-4bc96d6caa6a","system_id":"levelo_inurba_marseille","lat":43.26304,"lon":5.37401,"is_reserved":false,"is_disabled":true,"rental_uris":{"android":"levelo://app?vid=aa375831-c987-4042-97d7-4bc96d6caa6a","ios":"levelo://app?vid=aa375831-c987-4042-97d7-4bc96d6caa6a"},"vehicle_type_id":"4","last_reported":1756332538,"current_range_meters":11200,"station_id":"","pricing_plan_id":"cebpf4jnsgd1na2vs0mg"},{"bike_id":"e7053849-28ce-4c1e-8361-f2a391a8ba85","system_id":"levelo_inurba_marseille","lat":43.27973,"lon":5.38741,"is_reserved":false,"is_disabled":false,"rental_uris":{"android":"levelo://app?vid=e7053849-28ce-4c1e-8361-f2a391a8ba85","ios":"levelo://app?vid=e7053849-28ce-4c1e-8361-f2a391a8ba85"},"vehicle_type_id":"4","last_reported":1756332538,"current_range_meters":11200,"station_id":"ce4bhg12rcd13ifvqf80","pricing_plan_id":"cebpf4jnsgd1na2vs0mg"},{"bike_id":"615536c0-7490-4a03-8c16-de2f1db26853","system_id":"levelo_inurba_marseille","lat":43.24174,"lon":5.39727,"is_reserved":false,"is_disabled":false,"rental_uris":{"android":"levelo://app?vid=615536c0-7490-4a03-8c16-de2f1db26853","ios":"levelo://app?vid=615536c0-7490-4a03-8c16-de2f1db26853"},"vehicle_type_id":"4","last_reported":1756332538,"current_range_meters":11600,"station_id":"ce4bhn12rcd13ifvqgpg","pricing_plan_id":"cebpf4jnsgd1na2vs0mg"},{"bike_id":"f9bee4e7-3272-4bb4-b05c-cd5fb342938a","system_id":"levelo_inurba_marseille","lat":43.32105,"lon":5.36776,"is_reserved":false,"is_disabled":false,"rental_uris":{"android":"levelo://app?vid=f9bee4e7-3272-4bb4-b05c-cd5fb342938a","ios":"levelo://app?vid=f9bee4e7-3272-4bb4-b05c-cd5fb342938a"},"vehicle_type_id":"4","last_reported":1756332538,"current_range_meters":11600,"station_id":"ce4bhrh2rcd13ifvqhug","pricing_plan_id":"cebpf4jnsgd1na2vs0mg"},{"bike_id":"39267272-9896-4196-92c8-37bb51168310","system_id":"levelo_inurba_marseille","lat":43.25333,"lon":5.42171,"is_reserved":false,"is_disabled":false,"rental_uris":{"android":"levelo://app?vid=39267272-9896-4196-92c8-37bb51168310","ios":"levelo://app?vid=39267272-9896-4196-92c8-37bb51168310"},"vehicle_type_id":"4","last_reported":1756332538,"current_range_meters":11600,"station_id":"st_d2m65c5bi1j21697t3ng","pricing_plan_id":"cebpf4jnsgd1na2vs0mg"},{"bike_id":"4e14b512-96f3-461e-a9eb-f626a4679301","system_id":"levelo_inurba_marseille","lat":43.26199,"lon":5.37925,"is_reserved":false,"is_disabled":false,"rental_uris":{"android":"levelo://app?vid=4e14b512-96f3-461e-a9eb-f626a4679301","ios":"levelo://app?vid=4e14b512-96f3-461e-a9eb-f626a4679301"},"vehicle_type_id":"4","last_reported":1756332538,"current_range_meters":11600,"station_id":"ce4bhjp2rcd13ifvqg90","pricing_plan_id":"cebpf4jnsgd1na2vs0mg"},{"bike_id":"9308f021-ec84-4fe8-8c25-145b6405b7e0","system_id":"levelo_inurba_marseille","lat":43.30542,"lon":5.36706,"is_reserved":false,"is_disabled":true,"rental_uris":{"android":"levelo://app?vid=9308f021-ec84-4fe8-8c25-145b6405b7e0","ios":"levelo://app?vid=9308f021-ec84-4fe8-8c25-145b6405b7e0"},"vehicle_type_id":"4","last_reported":1756332538,"current_range_meters":11600,"station_id":"ce4bgrp2rcd13ifvqc9g","pricing_plan_id":"cebpf4jnsgd1na2vs0mg"},{"bike_id":"c585dd86-e6af-4090-bba4-a9ee7f425450","system_id":"levelo_inurba_marseille","lat":43.28388,"lon":5.3863,"is_reserved":false,"is_disabled":false,"rental_uris":{"android":"levelo://app?vid=c585dd86-e6af-4090-bba4-a9ee7f425450","ios":"levelo://app?vid=c585dd86-e6af-4090-bba4-a9ee7f425450"},"vehicle_type_id":"4","last_reported":1756332538,"current_range_meters":12000,"station_id":"ce4bh492rcd13ifvqdvg","pricing_plan_id":"cebpf4jnsgd1na2vs0mg"},{"bike_id":"6bfbf7b1-a4a1-4287-abfb-a1fa867bee3a","system_id":"levelo_inurba_marseille","lat":43.2306,"lon":5.355,"is_reserved":false,"is_disabled":false,"rental_uris":{"android":"levelo://app?vid=6bfbf7b1-a4a1-4287-abfb-a1fa867bee3a","ios":"levelo://app?vid=6bfbf7b1-a4a1-4287-abfb-a1fa867bee3a"},"vehicle_type_id":"4","last_reported":1756332538,"current_range_meters":12000,"station_id":"cpo3342slgdg3j2ifvpg","pricing_plan_id":"cebpf4jnsgd1na2vs0mg"},{"bike_id":"3ce18fbc-ec38-4f9e-9dd9-9a3dee5c503d","system_id":"levelo_inurba_marseille","lat":43.26038,"lon":5.37557,"is_reserved":false,"is_disabled":true,"rental_uris":{"android":"levelo://app?vid=3ce18fbc-ec38-4f9e-9dd9-9a3dee5c503d","ios":"levelo://app?vid=3ce18fbc-ec38-4f9e-9dd9-9a3dee5c503d"},"vehicle_type_id":"4","last_reported":1756332538,"current_range_meters":12000,"station_id":"ce4bhgh2rcd13ifvqfa0","pricing_plan_id":"cebpf4jnsgd1na2vs0mg"},{"bike_id":"364c3da8-4071-4ab5-a449-30d92e231dc6","system_id":"levelo_inurba_marseille","lat":43.31069,"lon":5.38352,"is_reserved":false,"is_disabled":false,"rental_uris":{"android":"levelo://app?vid=364c3da8-4071-4ab5-a449-30d92e231dc6","ios":"levelo://app?vid=364c3da8-4071-4ab5-a449-30d92e231dc6"},"vehicle_type_id":"4","last_reported":1756332538,"current_range_meters":12000,"station_id":"ce4bgv92rcd13ifvqcr0","pricing_plan_id":"cebpf4jnsgd1na2vs0mg"},{"bike_id":"04b7a9f3-b443-44fd-b605-c1e0083e2b14","system_id":"levelo_inurba_marseille","lat":43.28077,"lon":5.39647,"is_reserved":false,"is_disabled":false,"rental_uris":{"android":"levelo://app?vid=04b7a9f3-b443-44fd-b605-c1e0083e2b14","ios":"levelo://app?vid=04b7a9f3-b443-44fd-b605-c1e0083e2b14"},"vehicle_type_id":"4","last_reported":1756332538,"current_range_meters":12400,"station_id":"ce4bho12rcd13ifvqh2g","pricing_plan_id":"cebpf4jnsgd1na2vs0mg"},{"bike_id":"a724a750-6b00-4e38-8f62-227fba59d2f4","system_id":"levelo_inurba_marseille","lat":43.255823,"lon":5.382175,"is_reserved":false,"is_disabled":false,"rental_uris":{"android":"levelo://app?vid=a724a750-6b00-4e38-8f62-227fba59d2f4","ios":"levelo://app?vid=a724a750-6b00-4e38-8f62-227fba59d2f4"},"vehicle_type_id":"4","last_reported":1756332538,"current_range_meters":12400,"station_id":"ce4bhih2rcd13ifvqfs0","pricing_plan_id":"cebpf4jnsgd1na2vs0mg"},{"bike_id":"07f3c348-251f-475b-bdcc-b91dd94163be","system_id":"levelo_inurba_marseille","lat":43.21747,"lon":5.34609,"is_reserved":false,"is_disabled":true,"rental_uris":{"android":"levelo://app?vid=07f3c348-251f-475b-bdcc-b91dd94163be","ios":"levelo://app?vid=07f3c348-251f-475b-bdcc-b91dd94163be"},"vehicle_type_id":"4","last_reported":1756332538,"current_range_meters":12400,"station_id":"st_cvj6r9ubvosntc0bgbag","pricing_plan_id":"cebpf4jnsgd1na2vs0mg"},{"bike_id":"25de00eb-0735-499a-be50-84086b7d08d4","system_id":"levelo_inurba_marseille","lat":43.30933,"lon":5.40145,"is_reserved":false,"is_disabled":false,"rental_uris":{"android":"levelo://app?vid=25de00eb-0735-499a-be50-84086b7d08d4","ios":"levelo://app?vid=25de00eb-0735-499a-be50-84086b7d08d4"},"vehicle_type_id":"4","last_reported":1756332538,"current_range_meters":12400,"station_id":"ce4bgvp2rcd13ifvqct0","pricing_plan_id":"cebpf4jnsgd1na2vs0mg"},{"bike_id":"685105d1-bcda-4899-9d64-d94adf158a64","system_id":"levelo_inurba_marseille","lat":43.314676,"lon":5.373608,"is_reserved":false,"is_disabled":true,"rental_uris":{"android":"levelo://app?vid=685105d1-bcda-4899-9d64-d94adf158a64","ios":"levelo://app?vid=685105d1-bcda-4899-9d64-d94adf158a64"},"vehicle_type_id":"4","last_reported":1756332538,"current_range_meters":12800,"station_id":"","pricing_plan_id":"cebpf4jnsgd1na2vs0mg"},{"bike_id":"50ffaa2c-7bf6-45b3-8b8e-135dbae3a90b","system_id":"levelo_inurba_marseille","lat":43.279737,"lon":5.387441,"is_reserved":false,"is_disabled":false,"rental_uris":{"android":"levelo://app?vid=50ffaa2c-7bf6-45b3-8b8e-135dbae3a90b","ios":"levelo://app?vid=50ffaa2c-7bf6-45b3-8b8e-135dbae3a90b"},"vehicle_type_id":"4","last_reported":1756332538,"current_range_meters":12800,"station_id":"ce4bhi12rcd13ifvqfq0","pricing_plan_id":"cebpf4jnsgd1na2vs0mg"},{"bike_id":"0446d1e4-001d-46a9-98de-ba633f0173c2","system_id":"levelo_inurba_marseille","lat":43.30781,"lon":5.3764,"is_reserved":false,"is_disabled":false,"rental_uris":{"android":"levelo://app?vid=0446d1e4-001d-46a9-98de-ba633f0173c2","ios":"levelo://app?vid=0446d1e4-001d-46a9-98de-ba633f0173c2"},"vehicle_type_id":"4","last_reported":1756332538,"current_range_meters":12800,"station_id":"ce4bgv92rcd13ifvqcq0","pricing_plan_id":"cebpf4jnsgd1na2vs0mg"},{"bike_id":"3dff11d5-3872-4ffe-8cce-b5631d6c6058","system_id":"levelo_inurba_marseille","lat":43.32042,"lon":5.38582,"is_reserved":false,"is_disabled":false,"rental_uris":{"android":"levelo://app?vid=3dff11d5-3872-4ffe-8cce-b5631d6c6058","ios":"levelo://app?vid=3dff11d5-3872-4ffe-8cce-b5631d6c6058"},"vehicle_type_id":"4","last_reported":1756332538,"current_range_meters":12800,"station_id":"","pricing_plan_id":"cebpf4jnsgd1na2vs0mg"},{"bike_id":"eed637f6-743d-42ba-963b-caf40f21d80d","system_id":"levelo_inurba_marseille","lat":43.308258,"lon":5.369766,"is_reserved":false,"is_disabled":false,"rental_uris":{"android":"levelo://app?vid=eed637f6-743d-42ba-963b-caf40f21d80d","ios":"levelo://app?vid=eed637f6-743d-42ba-963b-caf40f21d80d"},"vehicle_type_id":"4","last_reported":1756332538,"current_range_meters":12400,"station_id":"ce4bguh2rcd13ifvqckg","pricing_plan_id":"cebpf4jnsgd1na2vs0mg"},{"bike_id":"25177b01-1fdb-4237-b942-d53df5812adf","system_id":"levelo_inurba_marseille","lat":43.28002,"lon":5.40016,"is_reserved":false,"is_disabled":false,"rental_uris":{"android":"levelo://app?vid=25177b01-1fdb-4237-b942-d53df5812adf","ios":"levelo://app?vid=25177b01-1fdb-4237-b942-d53df5812adf"},"vehicle_type_id":"4","last_reported":1756332538,"current_range_meters":13600,"station_id":"ce4bho92rcd13ifvqh4g","pricing_plan_id":"cebpf4jnsgd1na2vs0mg"},{"bike_id":"d86023ad-d6c7-49fc-b376-cfc31b8d0e00","system_id":"levelo_inurba_marseille","lat":43.29265,"lon":5.38443,"is_reserved":false,"is_disabled":false,"rental_uris":{"android":"levelo://app?vid=d86023ad-d6c7-49fc-b376-cfc31b8d0e00","ios":"levelo://app?vid=d86023ad-d6c7-49fc-b376-cfc31b8d0e00"},"vehicle_type_id":"4","last_reported":1756332538,"current_range_meters":13600,"station_id":"ce4bh692rcd13ifvqea0","pricing_plan_id":"cebpf4jnsgd1na2vs0mg"},{"bike_id":"db526668-1205-422f-99f2-dc09210cda94","system_id":"levelo_inurba_marseille","lat":43.29262,"lon":5.36854,"is_reserved":false,"is_disabled":false,"rental_uris":{"android":"levelo://app?vid=db526668-1205-422f-99f2-dc09210cda94","ios":"levelo://app?vid=db526668-1205-422f-99f2-dc09210cda94"},"vehicle_type_id":"4","last_reported":1756332538,"current_range_meters":13600,"station_id":"ce4bhbp2rcd13ifvqesg","pricing_plan_id":"cebpf4jnsgd1na2vs0mg"},{"bike_id":"5b350df1-a898-40df-8ef7-4f7e8b087fb0","system_id":"levelo_inurba_marseille","lat":43.30447,"lon":5.37926,"is_reserved":false,"is_disabled":false,"rental_uris":{"android":"levelo://app?vid=5b350df1-a898-40df-8ef7-4f7e8b087fb0","ios":"levelo://app?vid=5b350df1-a898-40df-8ef7-4f7e8b087fb0"},"vehicle_type_id":"4","last_reported":1756332538,"current_range_meters":12800,"station_id":"ce4bgup2rcd13ifvqcn0","pricing_plan_id":"cebpf4jnsgd1na2vs0mg"},{"bike_id":"98c96329-3edb-4eec-a3f6-606d0522135f","system_id":"levelo_inurba_marseille","lat":43.21219,"lon":5.35054,"is_reserved":false,"is_disabled":false,"rental_uris":{"android":"levelo://app?vid=98c96329-3edb-4eec-a3f6-606d0522135f","ios":"levelo://app?vid=98c96329-3edb-4eec-a3f6-606d0522135f"},"vehicle_type_id":"4","last_reported":1756332538,"current_range_meters":13600,"station_id":"","pricing_plan_id":"cebpf4jnsgd1na2vs0mg"},{"bike_id":"d1e0c5c0-2021-47c7-80fe-e78f82330db3","system_id":"levelo_inurba_marseille","lat":43.2119,"lon":5.35075,"is_reserved":false,"is_disabled":false,"rental_uris":{"android":"levelo://app?vid=d1e0c5c0-2021-47c7-80fe-e78f82330db3","ios":"levelo://app?vid=d1e0c5c0-2021-47c7-80fe-e78f82330db3"},"vehicle_type_id":"4","last_reported":1756332538,"current_range_meters":13600,"station_id":"st_cvj6sg6p6f1abm77japg","pricing_plan_id":"cebpf4jnsgd1na2vs0mg"},{"bike_id":"8179721e-b9a4-401e-a8af-cbcc4bd1bdb5","system_id":"levelo_inurba_marseille","lat":43.2791,"lon":5.39583,"is_reserved":false,"is_disabled":false,"rental_uris":{"android":"levelo://app?vid=8179721e-b9a4-401e-a8af-cbcc4bd1bdb5","ios":"levelo://app?vid=8179721e-b9a4-401e-a8af-cbcc4bd1bdb5"},"vehicle_type_id":"4","last_reported":1756332538,"current_range_meters":13600,"station_id":"ce4bhf92rcd13ifvqf40","pricing_plan_id":"cebpf4jnsgd1na2vs0mg"},{"bike_id":"c58c221b-a6ac-40bc-a169-25cdd37b3652","system_id":"levelo_inurba_marseille","lat":43.27957,"lon":5.38708,"is_reserved":false,"is_disabled":false,"rental_uris":{"android":"levelo://app?vid=c58c221b-a6ac-40bc-a169-25cdd37b3652","ios":"levelo://app?vid=c58c221b-a6ac-40bc-a169-25cdd37b3652"},"vehicle_type_id":"4","last_reported":1756332538,"current_range_meters":13600,"station_id":"ce4bhg12rcd13ifvqf80","pricing_plan_id":"cebpf4jnsgd1na2vs0mg"},{"bike_id":"901693be-e0fd-48c6-abfc-fe8f5561b51a","system_id":"levelo_inurba_marseille","lat":43.25987,"lon":5.37573,"is_reserved":false,"is_disabled":false,"rental_uris":{"android":"levelo://app?vid=901693be-e0fd-48c6-abfc-fe8f5561b51a","ios":"levelo://app?vid=901693be-e0fd-48c6-abfc-fe8f5561b51a"},"vehicle_type_id":"4","last_reported":1756332538,"current_range_meters":13600,"station_id":"ce4bhgh2rcd13ifvqfa0","pricing_plan_id":"cebpf4jnsgd1na2vs0mg"},{"bike_id":"729739b4-f167-4b2d-a0cd-f111e90e83bc","system_id":"levelo_inurba_marseille","lat":43.27295,"lon":5.36287,"is_reserved":false,"is_disabled":false,"rental_uris":{"android":"levelo://app?vid=729739b4-f167-4b2d-a0cd-f111e90e83bc","ios":"levelo://app?vid=729739b4-f167-4b2d-a0cd-f111e90e83bc"},"vehicle_type_id":"4","last_reported":1756332538,"current_range_meters":13600,"station_id":"","pricing_plan_id":"cebpf4jnsgd1na2vs0mg"},{"bike_id":"f7e07c08-1777-40c8-9ba2-19d2422a4b4b","system_id":"levelo_inurba_marseille","lat":43.31172,"lon":5.38721,"is_reserved":false,"is_disabled":false,"rental_uris":{"android":"levelo://app?vid=f7e07c08-1777-40c8-9ba2-19d2422a4b4b","ios":"levelo://app?vid=f7e07c08-1777-40c8-9ba2-19d2422a4b4b"},"vehicle_type_id":"4","last_reported":1756332538,"current_range_meters":13600,"station_id":"ce4bgv12rcd13ifvqcp0","pricing_plan_id":"cebpf4jnsgd1na2vs0mg"},{"bike_id":"11a38367-deb6-4141-b3c1-0cba6ea43c8d","system_id":"levelo_inurba_marseille","lat":43.29006,"lon":5.35627,"is_reserved":false,"is_disabled":true,"rental_uris":{"android":"levelo://app?vid=11a38367-deb6-4141-b3c1-0cba6ea43c8d","ios":"levelo://app?vid=11a38367-deb6-4141-b3c1-0cba6ea43c8d"},"vehicle_type_id":"4","last_reported":1756332538,"current_range_meters":14000,"station_id":"ce4bhb92rcd13ifvqen0","pricing_plan_id":"cebpf4jnsgd1na2vs0mg"},{"bike_id":"5c26a54e-1e97-4ad3-a16d-614ad930b130","system_id":"levelo_inurba_marseille","lat":43.321011,"lon":5.367769,"is_reserved":false,"is_disabled":false,"rental_uris":{"android":"levelo://app?vid=5c26a54e-1e97-4ad3-a16d-614ad930b130","ios":"levelo://app?vid=5c26a54e-1e97-4ad3-a16d-614ad930b130"},"vehicle_type_id":"4","last_reported":1756332538,"current_range_meters":14000,"station_id":"ce4bhrh2rcd13ifvqhug","pricing_plan_id":"cebpf4jnsgd1na2vs0mg"},{"bike_id":"f67c8e5e-7af8-4847-a4ce-1e12088b4291","system_id":"levelo_inurba_marseille","lat":43.33026,"lon":5.39247,"is_reserved":false,"is_disabled":false,"rental_uris":{"android":"levelo://app?vid=f67c8e5e-7af8-4847-a4ce-1e12088b4291","ios":"levelo://app?vid=f67c8e5e-7af8-4847-a4ce-1e12088b4291"},"vehicle_type_id":"4","last_reported":1756332538,"current_range_meters":14000,"station_id":"","pricing_plan_id":"cebpf4jnsgd1na2vs0mg"},{"bike_id":"06d7a368-7156-454c-a01c-b0a0ebbf9e53","system_id":"levelo_inurba_marseille","lat":43.27959,"lon":5.38713,"is_reserved":false,"is_disabled":false,"rental_uris":{"android":"levelo://app?vid=06d7a368-7156-454c-a01c-b0a0ebbf9e53","ios":"levelo://app?vid=06d7a368-7156-454c-a01c-b0a0ebbf9e53"},"vehicle_type_id":"4","last_reported":1756332538,"current_range_meters":14000,"station_id":"ce4bhg12rcd13ifvqf80","pricing_plan_id":"cebpf4jnsgd1na2vs0mg"},{"bike_id":"f5ee2120-b8b8-472b-9bcc-efc824cd719b","system_id":"levelo_inurba_marseille","lat":43.29546,"lon":5.42276,"is_reserved":false,"is_disabled":false,"rental_uris":{"android":"levelo://app?vid=f5ee2120-b8b8-472b-9bcc-efc824cd719b","ios":"levelo://app?vid=f5ee2120-b8b8-472b-9bcc-efc824cd719b"},"vehicle_type_id":"4","last_reported":1756332538,"current_range_meters":14000,"station_id":"ce4bhph2rcd13ifvqhdg","pricing_plan_id":"cebpf4jnsgd1na2vs0mg"},{"bike_id":"3d399bfe-7fbc-42b7-a070-a73b13325d3f","system_id":"levelo_inurba_marseille","lat":43.23097,"lon":5.35491,"is_reserved":false,"is_disabled":false,"rental_uris":{"android":"levelo://app?vid=3d399bfe-7fbc-42b7-a070-a73b13325d3f","ios":"levelo://app?vid=3d399bfe-7fbc-42b7-a070-a73b13325d3f"},"vehicle_type_id":"4","last_reported":1756332538,"current_range_meters":14000,"station_id":"","pricing_plan_id":"cebpf4jnsgd1na2vs0mg"},{"bike_id":"780b5477-ed16-4c5f-bf7a-93c5728ecc9b","system_id":"levelo_inurba_marseille","lat":43.240692,"lon":5.377641,"is_reserved":false,"is_disabled":false,"rental_uris":{"android":"levelo://app?vid=780b5477-ed16-4c5f-bf7a-93c5728ecc9b","ios":"levelo://app?vid=780b5477-ed16-4c5f-bf7a-93c5728ecc9b"},"vehicle_type_id":"4","last_reported":1756332538,"current_range_meters":14400,"station_id":"ce4bhnp2rcd13ifvqgvg","pricing_plan_id":"cebpf4jnsgd1na2vs0mg"},{"bike_id":"19eabc24-80d3-4327-b947-9ec7f85cd494","system_id":"levelo_inurba_marseille","lat":43.27324,"lon":5.39101,"is_reserved":false,"is_disabled":true,"rental_uris":{"android":"levelo://app?vid=19eabc24-80d3-4327-b947-9ec7f85cd494","ios":"levelo://app?vid=19eabc24-80d3-4327-b947-9ec7f85cd494"},"vehicle_type_id":"4","last_reported":1756332538,"current_range_meters":14400,"station_id":"ce4bhgp2rcd13ifvqfe0","pricing_plan_id":"cebpf4jnsgd1na2vs0mg"},{"bike_id":"61e0aeb8-5699-47ea-a3ed-bf5e89f7b855","system_id":"levelo_inurba_marseille","lat":43.28096,"lon":5.37845,"is_reserved":false,"is_disabled":false,"rental_uris":{"android":"levelo://app?vid=61e0aeb8-5699-47ea-a3ed-bf5e89f7b855","ios":"levelo://app?vid=61e0aeb8-5699-47ea-a3ed-bf5e89f7b855"},"vehicle_type_id":"4","last_reported":1756332538,"current_range_meters":14400,"station_id":"ce4bha12rcd13ifvqee0","pricing_plan_id":"cebpf4jnsgd1na2vs0mg"},{"bike_id":"7237fe4e-ffd5-4df0-8000-3e42be288929","system_id":"levelo_inurba_marseille","lat":43.25495,"lon":5.37645,"is_reserved":false,"is_disabled":false,"rental_uris":{"android":"levelo://app?vid=7237fe4e-ffd5-4df0-8000-3e42be288929","ios":"levelo://app?vid=7237fe4e-ffd5-4df0-8000-3e42be288929"},"vehicle_type_id":"4","last_reported":1756332538,"current_range_meters":14800,"station_id":"ce4bhh12rcd13ifvqff0","pricing_plan_id":"cebpf4jnsgd1na2vs0mg"},{"bike_id":"44d9d2d8-1bb9-431f-bdd1-622d8e0ea90c","system_id":"levelo_inurba_marseille","lat":43.26251,"lon":5.3968,"is_reserved":false,"is_disabled":false,"rental_uris":{"android":"levelo://app?vid=44d9d2d8-1bb9-431f-bdd1-622d8e0ea90c","ios":"levelo://app?vid=44d9d2d8-1bb9-431f-bdd1-622d8e0ea90c"},"vehicle_type_id":"4","last_reported":1756332538,"current_range_meters":14800,"station_id":"","pricing_plan_id":"cebpf4jnsgd1na2vs0mg"},{"bike_id":"6ef7f77c-b1be-4222-b251-a3867f79a1a0","system_id":"levelo_inurba_marseille","lat":43.29959,"lon":5.3849,"is_reserved":false,"is_disabled":false,"rental_uris":{"android":"levelo://app?vid=6ef7f77c-b1be-4222-b251-a3867f79a1a0","ios":"levelo://app?vid=6ef7f77c-b1be-4222-b251-a3867f79a1a0"},"vehicle_type_id":"4","last_reported":1756332538,"current_range_meters":14800,"station_id":"ce4bgj92rcd13ifvqbd0","pricing_plan_id":"cebpf4jnsgd1na2vs0mg"},{"bike_id":"d810acf0-5bd2-4bf1-848d-31cd30d105e6","system_id":"levelo_inurba_marseille","lat":43.269831,"lon":5.392782,"is_reserved":false,"is_disabled":false,"rental_uris":{"android":"levelo://app?vid=d810acf0-5bd2-4bf1-848d-31cd30d105e6","ios":"levelo://app?vid=d810acf0-5bd2-4bf1-848d-31cd30d105e6"},"vehicle_type_id":"4","last_reported":1756332538,"current_range_meters":14800,"station_id":"","pricing_plan_id":"cebpf4jnsgd1na2vs0mg"},{"bike_id":"28e3df3b-0b74-467f-b59e-c792d51bd2ea","system_id":"levelo_inurba_marseille","lat":43.26566,"lon":5.39028,"is_reserved":false,"is_disabled":false,"rental_uris":{"android":"levelo://app?vid=28e3df3b-0b74-467f-b59e-c792d51bd2ea","ios":"levelo://app?vid=28e3df3b-0b74-467f-b59e-c792d51bd2ea"},"vehicle_type_id":"4","last_reported":1756332538,"current_range_meters":14800,"station_id":"ce4bhe12rcd13ifvqf30","pricing_plan_id":"cebpf4jnsgd1na2vs0mg"},{"bike_id":"ffd21136-ae47-45ee-8fc5-e7f85ea84802","system_id":"levelo_inurba_marseille","lat":43.29766,"lon":5.38305,"is_reserved":false,"is_disabled":false,"rental_uris":{"android":"levelo://app?vid=ffd21136-ae47-45ee-8fc5-e7f85ea84802","ios":"levelo://app?vid=ffd21136-ae47-45ee-8fc5-e7f85ea84802"},"vehicle_type_id":"4","last_reported":1756332538,"current_range_meters":14800,"station_id":"","pricing_plan_id":"cebpf4jnsgd1na2vs0mg"},{"bike_id":"94c44f36-d45b-48d8-9eb0-02cde482dcfd","system_id":"levelo_inurba_marseille","lat":43.26025,"lon":5.37543,"is_reserved":false,"is_disabled":false,"rental_uris":{"android":"levelo://app?vid=94c44f36-d45b-48d8-9eb0-02cde482dcfd","ios":"levelo://app?vid=94c44f36-d45b-48d8-9eb0-02cde482dcfd"},"vehicle_type_id":"4","last_reported":1756332538,"current_range_meters":14800,"station_id":"ce4bhgh2rcd13ifvqfa0","pricing_plan_id":"cebpf4jnsgd1na2vs0mg"},{"bike_id":"215554c6-deff-4322-87c6-01efdd2e95b3","system_id":"levelo_inurba_marseille","lat":43.30534,"lon":5.36553,"is_reserved":false,"is_disabled":false,"rental_uris":{"android":"levelo://app?vid=215554c6-deff-4322-87c6-01efdd2e95b3","ios":"levelo://app?vid=215554c6-deff-4322-87c6-01efdd2e95b3"},"vehicle_type_id":"4","last_reported":1756332538,"current_range_meters":14800,"station_id":"ce4bgs12rcd13ifvqcag","pricing_plan_id":"cebpf4jnsgd1na2vs0mg"},{"bike_id":"ddb358c1-62d4-45c6-afcf-b1c4ff0c210b","system_id":"levelo_inurba_marseille","lat":43.2869,"lon":5.39977,"is_reserved":false,"is_disabled":false,"rental_uris":{"android":"levelo://app?vid=ddb358c1-62d4-45c6-afcf-b1c4ff0c210b","ios":"levelo://app?vid=ddb358c1-62d4-45c6-afcf-b1c4ff0c210b"},"vehicle_type_id":"4","last_reported":1756332538,"current_range_meters":15200,"station_id":"ce4bho92rcd13ifvqh3g","pricing_plan_id":"cebpf4jnsgd1na2vs0mg"},{"bike_id":"80a1b9c0-3c81-4afb-9b6e-98e75f27b215","system_id":"levelo_inurba_marseille","lat":43.26224,"lon":5.4045,"is_reserved":false,"is_disabled":false,"rental_uris":{"android":"levelo://app?vid=80a1b9c0-3c81-4afb-9b6e-98e75f27b215","ios":"levelo://app?vid=80a1b9c0-3c81-4afb-9b6e-98e75f27b215"},"vehicle_type_id":"4","last_reported":1756332538,"current_range_meters":15200,"station_id":"ce4bhmh2rcd13ifvqgmg","pricing_plan_id":"cebpf4jnsgd1na2vs0mg"},{"bike_id":"cefdc3dc-57fd-4ef3-82de-126f897351ed","system_id":"levelo_inurba_marseille","lat":43.307945,"lon":5.4353,"is_reserved":false,"is_disabled":false,"rental_uris":{"android":"levelo://app?vid=cefdc3dc-57fd-4ef3-82de-126f897351ed","ios":"levelo://app?vid=cefdc3dc-57fd-4ef3-82de-126f897351ed"},"vehicle_type_id":"4","last_reported":1756332538,"current_range_meters":16000,"station_id":"ce4bhph2rcd13ifvqheg","pricing_plan_id":"cebpf4jnsgd1na2vs0mg"},{"bike_id":"c67682e4-ad86-4b65-b4ef-e774963b7e60","system_id":"levelo_inurba_marseille","lat":43.2318,"lon":5.35565,"is_reserved":false,"is_disabled":false,"rental_uris":{"android":"levelo://app?vid=c67682e4-ad86-4b65-b4ef-e774963b7e60","ios":"levelo://app?vid=c67682e4-ad86-4b65-b4ef-e774963b7e60"},"vehicle_type_id":"4","last_reported":1756332538,"current_range_meters":16000,"station_id":"ce4bhu92rcd13ifvqi70","pricing_plan_id":"cebpf4jnsgd1na2vs0mg"},{"bike_id":"140fbd12-3c5b-40b3-bace-5e3780ce1a44","system_id":"levelo_inurba_marseille","lat":43.28336,"lon":5.38099,"is_reserved":false,"is_disabled":false,"rental_uris":{"android":"levelo://app?vid=140fbd12-3c5b-40b3-bace-5e3780ce1a44","ios":"levelo://app?vid=140fbd12-3c5b-40b3-bace-5e3780ce1a44"},"vehicle_type_id":"4","last_reported":1756332538,"current_range_meters":16000,"station_id":"ce4bh412rcd13ifvqdr0","pricing_plan_id":"cebpf4jnsgd1na2vs0mg"},{"bike_id":"351aec0c-3572-4492-9e48-bfe84e769aec","system_id":"levelo_inurba_marseille","lat":43.29528,"lon":5.38549,"is_reserved":false,"is_disabled":false,"rental_uris":{"android":"levelo://app?vid=351aec0c-3572-4492-9e48-bfe84e769aec","ios":"levelo://app?vid=351aec0c-3572-4492-9e48-bfe84e769aec"},"vehicle_type_id":"4","last_reported":1756332538,"current_range_meters":16000,"station_id":"ce4bgih2rcd13ifvqba0","pricing_plan_id":"cebpf4jnsgd1na2vs0mg"},{"bike_id":"77e96fd5-8857-43d1-b79e-f050f29ec889","system_id":"levelo_inurba_marseille","lat":43.30441,"lon":5.38895,"is_reserved":false,"is_disabled":false,"rental_uris":{"android":"levelo://app?vid=77e96fd5-8857-43d1-b79e-f050f29ec889","ios":"levelo://app?vid=77e96fd5-8857-43d1-b79e-f050f29ec889"},"vehicle_type_id":"4","last_reported":1756332538,"current_range_meters":16000,"station_id":"ce4bgk12rcd13ifvqbi0","pricing_plan_id":"cebpf4jnsgd1na2vs0mg"},{"bike_id":"3cb1136c-a9d5-487f-9a54-2cd07783e631","system_id":"levelo_inurba_marseille","lat":43.25501,"lon":5.37656,"is_reserved":false,"is_disabled":false,"rental_uris":{"android":"levelo://app?vid=3cb1136c-a9d5-487f-9a54-2cd07783e631","ios":"levelo://app?vid=3cb1136c-a9d5-487f-9a54-2cd07783e631"},"vehicle_type_id":"4","last_reported":1756332538,"current_range_meters":16000,"station_id":"ce4bhh12rcd13ifvqff0","pricing_plan_id":"cebpf4jnsgd1na2vs0mg"},{"bike_id":"28a73514-d315-41f8-9652-15180009566f","system_id":"levelo_inurba_marseille","lat":43.30276,"lon":5.37711,"is_reserved":false,"is_disabled":false,"rental_uris":{"android":"levelo://app?vid=28a73514-d315-41f8-9652-15180009566f","ios":"levelo://app?vid=28a73514-d315-41f8-9652-15180009566f"},"vehicle_type_id":"4","last_reported":1756332538,"current_range_meters":16000,"station_id":"ce4bguh2rcd13ifvqcj0","pricing_plan_id":"cebpf4jnsgd1na2vs0mg"},{"bike_id":"db20966c-8a25-4401-9ed6-151a0b72497c","system_id":"levelo_inurba_marseille","lat":43.3012,"lon":5.38779,"is_reserved":false,"is_disabled":false,"rental_uris":{"android":"levelo://app?vid=db20966c-8a25-4401-9ed6-151a0b72497c","ios":"levelo://app?vid=db20966c-8a25-4401-9ed6-151a0b72497c"},"vehicle_type_id":"4","last_reported":1756332538,"current_range_meters":16400,"station_id":"","pricing_plan_id":"cebpf4jnsgd1na2vs0mg"},{"bike_id":"1d68eabd-6f99-4ed9-a0fb-dac800d52a6c","system_id":"levelo_inurba_marseille","lat":43.307715,"lon":5.376493,"is_reserved":false,"is_disabled":false,"rental_uris":{"android":"levelo://app?vid=1d68eabd-6f99-4ed9-a0fb-dac800d52a6c","ios":"levelo://app?vid=1d68eabd-6f99-4ed9-a0fb-dac800d52a6c"},"vehicle_type_id":"4","last_reported":1756332538,"current_range_meters":16400,"station_id":"ce4bgv92rcd13ifvqcq0","pricing_plan_id":"cebpf4jnsgd1na2vs0mg"},{"bike_id":"ffe6df59-3fc1-4d81-9326-f6f6418e7718","system_id":"levelo_inurba_marseille","lat":43.29744,"lon":5.37361,"is_reserved":false,"is_disabled":false,"rental_uris":{"android":"levelo://app?vid=ffe6df59-3fc1-4d81-9326-f6f6418e7718","ios":"levelo://app?vid=ffe6df59-3fc1-4d81-9326-f6f6418e7718"},"vehicle_type_id":"4","last_reported":1756332538,"current_range_meters":16400,"station_id":"","pricing_plan_id":"cebpf4jnsgd1na2vs0mg"},{"bike_id":"9fe0c008-4c21-480c-82eb-ccabb02ab573","system_id":"levelo_inurba_marseille","lat":43.2655,"lon":5.39057,"is_reserved":false,"is_disabled":false,"rental_uris":{"android":"levelo://app?vid=9fe0c008-4c21-480c-82eb-ccabb02ab573","ios":"levelo://app?vid=9fe0c008-4c21-480c-82eb-ccabb02ab573"},"vehicle_type_id":"4","last_reported":1756332538,"current_range_meters":16400,"station_id":"ce4bhe12rcd13ifvqf30","pricing_plan_id":"cebpf4jnsgd1na2vs0mg"},{"bike_id":"54922333-2822-4dd5-848b-dceb6d3b8ed9","system_id":"levelo_inurba_marseille","lat":43.27411,"lon":5.39417,"is_reserved":false,"is_disabled":false,"rental_uris":{"android":"levelo://app?vid=54922333-2822-4dd5-848b-dceb6d3b8ed9","ios":"levelo://app?vid=54922333-2822-4dd5-848b-dceb6d3b8ed9"},"vehicle_type_id":"4","last_reported":1756332538,"current_range_meters":16400,"station_id":"ce4bhdp2rcd13ifvqf20","pricing_plan_id":"cebpf4jnsgd1na2vs0mg"},{"bike_id":"23ae6fed-deff-411b-8b6e-f95e32ccd4d0","system_id":"levelo_inurba_marseille","lat":43.32135,"lon":5.36772,"is_reserved":false,"is_disabled":false,"rental_uris":{"android":"levelo://app?vid=23ae6fed-deff-411b-8b6e-f95e32ccd4d0","ios":"levelo://app?vid=23ae6fed-deff-411b-8b6e-f95e32ccd4d0"},"vehicle_type_id":"4","last_reported":1756332538,"current_range_meters":16400,"station_id":"","pricing_plan_id":"cebpf4jnsgd1na2vs0mg"},{"bike_id":"ee773dce-93b3-42f9-836d-d22ec6ec62ab","system_id":"levelo_inurba_marseille","lat":43.24546,"lon":5.39522,"is_reserved":false,"is_disabled":false,"rental_uris":{"android":"levelo://app?vid=ee773dce-93b3-42f9-836d-d22ec6ec62ab","ios":"levelo://app?vid=ee773dce-93b3-42f9-836d-d22ec6ec62ab"},"vehicle_type_id":"4","last_reported":1756332538,"current_range_meters":16000,"station_id":"ce4bhlp2rcd13ifvqgjg","pricing_plan_id":"cebpf4jnsgd1na2vs0mg"},{"bike_id":"b2075646-562b-4ba7-9287-fec0621267fc","system_id":"levelo_inurba_marseille","lat":43.29849,"lon":5.3628,"is_reserved":false,"is_disabled":false,"rental_uris":{"android":"levelo://app?vid=b2075646-562b-4ba7-9287-fec0621267fc","ios":"levelo://app?vid=b2075646-562b-4ba7-9287-fec0621267fc"},"vehicle_type_id":"4","last_reported":1756332538,"current_range_meters":16400,"station_id":"ce4bgpp2rcd13ifvqc3g","pricing_plan_id":"cebpf4jnsgd1na2vs0mg"},{"bike_id":"5d572912-f124-4c0c-8714-282331f8c6f2","system_id":"levelo_inurba_marseille","lat":43.30925,"lon":5.40145,"is_reserved":false,"is_disabled":false,"rental_uris":{"android":"levelo://app?vid=5d572912-f124-4c0c-8714-282331f8c6f2","ios":"levelo://app?vid=5d572912-f124-4c0c-8714-282331f8c6f2"},"vehicle_type_id":"4","last_reported":1756332538,"current_range_meters":16400,"station_id":"ce4bgvp2rcd13ifvqct0","pricing_plan_id":"cebpf4jnsgd1na2vs0mg"},{"bike_id":"43485147-2ceb-4191-89c1-80fb0a5527a5","system_id":"levelo_inurba_marseille","lat":43.292763,"lon":5.368495,"is_reserved":false,"is_disabled":false,"rental_uris":{"android":"levelo://app?vid=43485147-2ceb-4191-89c1-80fb0a5527a5","ios":"levelo://app?vid=43485147-2ceb-4191-89c1-80fb0a5527a5"},"vehicle_type_id":"4","last_reported":1756332538,"current_range_meters":16400,"station_id":"ce4bhbp2rcd13ifvqesg","pricing_plan_id":"cebpf4jnsgd1na2vs0mg"},{"bike_id":"18765f5d-37f1-47cd-972e-50b3005a4849","system_id":"levelo_inurba_marseille","lat":43.287,"lon":5.39983,"is_reserved":false,"is_disabled":false,"rental_uris":{"android":"levelo://app?vid=18765f5d-37f1-47cd-972e-50b3005a4849","ios":"levelo://app?vid=18765f5d-37f1-47cd-972e-50b3005a4849"},"vehicle_type_id":"4","last_reported":1756332538,"current_range_meters":16400,"station_id":"ce4bho92rcd13ifvqh3g","pricing_plan_id":"cebpf4jnsgd1na2vs0mg"},{"bike_id":"09ece060-4b0e-44a5-99c5-2c39293cfa24","system_id":"levelo_inurba_marseille","lat":43.30132,"lon":5.38807,"is_reserved":false,"is_disabled":false,"rental_uris":{"android":"levelo://app?vid=09ece060-4b0e-44a5-99c5-2c39293cfa24","ios":"levelo://app?vid=09ece060-4b0e-44a5-99c5-2c39293cfa24"},"vehicle_type_id":"4","last_reported":1756332538,"current_range_meters":16400,"station_id":"ce4bghh2rcd13ifvqb60","pricing_plan_id":"cebpf4jnsgd1na2vs0mg"},{"bike_id":"0793473c-7c91-4d1f-8ffb-c00486129b1d","system_id":"levelo_inurba_marseille","lat":43.30068,"lon":5.39102,"is_reserved":false,"is_disabled":true,"rental_uris":{"android":"levelo://app?vid=0793473c-7c91-4d1f-8ffb-c00486129b1d","ios":"levelo://app?vid=0793473c-7c91-4d1f-8ffb-c00486129b1d"},"vehicle_type_id":"4","last_reported":1756332538,"current_range_meters":16400,"station_id":"ce4bh192rcd13ifvqdb0","pricing_plan_id":"cebpf4jnsgd1na2vs0mg"},{"bike_id":"8df4d72a-2534-4225-b0d0-5b48bd4c7385","system_id":"levelo_inurba_marseille","lat":43.294396,"lon":5.397607,"is_reserved":false,"is_disabled":false,"rental_uris":{"android":"levelo://app?vid=8df4d72a-2534-4225-b0d0-5b48bd4c7385","ios":"levelo://app?vid=8df4d72a-2534-4225-b0d0-5b48bd4c7385"},"vehicle_type_id":"4","last_reported":1756332538,"current_range_meters":16800,"station_id":"ce4bh3h2rcd13ifvqdo0","pricing_plan_id":"cebpf4jnsgd1na2vs0mg"},{"bike_id":"fdb06e00-8503-442b-bf1a-c46ff4a0f107","system_id":"levelo_inurba_marseille","lat":43.24809,"lon":5.37456,"is_reserved":false,"is_disabled":false,"rental_uris":{"android":"levelo://app?vid=fdb06e00-8503-442b-bf1a-c46ff4a0f107","ios":"levelo://app?vid=fdb06e00-8503-442b-bf1a-c46ff4a0f107"},"vehicle_type_id":"4","last_reported":1756332538,"current_range_meters":16400,"station_id":"ce4bhgh2rcd13ifvqfb0","pricing_plan_id":"cebpf4jnsgd1na2vs0mg"},{"bike_id":"cc2255f1-28dc-422f-91a4-6cdaf5c9e2d5","system_id":"levelo_inurba_marseille","lat":43.27809,"lon":5.39227,"is_reserved":false,"is_disabled":false,"rental_uris":{"android":"levelo://app?vid=cc2255f1-28dc-422f-91a4-6cdaf5c9e2d5","ios":"levelo://app?vid=cc2255f1-28dc-422f-91a4-6cdaf5c9e2d5"},"vehicle_type_id":"4","last_reported":1756332538,"current_range_meters":16800,"station_id":"ce4bhjp2rcd13ifvqga0","pricing_plan_id":"cebpf4jnsgd1na2vs0mg"},{"bike_id":"1091f287-02ee-4a66-888b-59c35fd65791","system_id":"levelo_inurba_marseille","lat":43.2319,"lon":5.3556,"is_reserved":false,"is_disabled":false,"rental_uris":{"android":"levelo://app?vid=1091f287-02ee-4a66-888b-59c35fd65791","ios":"levelo://app?vid=1091f287-02ee-4a66-888b-59c35fd65791"},"vehicle_type_id":"4","last_reported":1756332538,"current_range_meters":16800,"station_id":"ce4bhu92rcd13ifvqi70","pricing_plan_id":"cebpf4jnsgd1na2vs0mg"},{"bike_id":"01acadab-cadc-479f-8160-13b317197971","system_id":"levelo_inurba_marseille","lat":43.28113,"lon":5.37858,"is_reserved":false,"is_disabled":false,"rental_uris":{"android":"levelo://app?vid=01acadab-cadc-479f-8160-13b317197971","ios":"levelo://app?vid=01acadab-cadc-479f-8160-13b317197971"},"vehicle_type_id":"4","last_reported":1756332538,"current_range_meters":16800,"station_id":"ce4bha12rcd13ifvqee0","pricing_plan_id":"cebpf4jnsgd1na2vs0mg"},{"bike_id":"d4655d18-be4d-4075-ab67-a39315ad55de","system_id":"levelo_inurba_marseille","lat":43.30171,"lon":5.36624,"is_reserved":false,"is_disabled":false,"rental_uris":{"android":"levelo://app?vid=d4655d18-be4d-4075-ab67-a39315ad55de","ios":"levelo://app?vid=d4655d18-be4d-4075-ab67-a39315ad55de"},"vehicle_type_id":"4","last_reported":1756332538,"current_range_meters":16800,"station_id":"ce4bgrh2rcd13ifvqc8g","pricing_plan_id":"cebpf4jnsgd1na2vs0mg"},{"bike_id":"e17f0500-c3eb-4424-a318-aee2078c7f9e","system_id":"levelo_inurba_marseille","lat":43.25504,"lon":5.37653,"is_reserved":false,"is_disabled":false,"rental_uris":{"android":"levelo://app?vid=e17f0500-c3eb-4424-a318-aee2078c7f9e","ios":"levelo://app?vid=e17f0500-c3eb-4424-a318-aee2078c7f9e"},"vehicle_type_id":"4","last_reported":1756332538,"current_range_meters":16800,"station_id":"ce4bhh12rcd13ifvqff0","pricing_plan_id":"cebpf4jnsgd1na2vs0mg"},{"bike_id":"ced3f615-eedf-48e0-9fe0-00500980c335","system_id":"levelo_inurba_marseille","lat":43.25498,"lon":5.3765,"is_reserved":false,"is_disabled":false,"rental_uris":{"android":"levelo://app?vid=ced3f615-eedf-48e0-9fe0-00500980c335","ios":"levelo://app?vid=ced3f615-eedf-48e0-9fe0-00500980c335"},"vehicle_type_id":"4","last_reported":1756332538,"current_range_meters":16800,"station_id":"ce4bhh12rcd13ifvqff0","pricing_plan_id":"cebpf4jnsgd1na2vs0mg"},{"bike_id":"0758c3bd-dff8-4f81-815f-065ac2e80fcf","system_id":"levelo_inurba_marseille","lat":43.2669,"lon":5.38264,"is_reserved":false,"is_disabled":false,"rental_uris":{"android":"levelo://app?vid=0758c3bd-dff8-4f81-815f-065ac2e80fcf","ios":"levelo://app?vid=0758c3bd-dff8-4f81-815f-065ac2e80fcf"},"vehicle_type_id":"4","last_reported":1756332538,"current_range_meters":17200,"station_id":"ce4bhg92rcd13ifvqf90","pricing_plan_id":"cebpf4jnsgd1na2vs0mg"},{"bike_id":"ec0f9f0d-0796-42ac-9cf5-bb8596cdf342","system_id":"levelo_inurba_marseille","lat":43.21191,"lon":5.35077,"is_reserved":false,"is_disabled":false,"rental_uris":{"android":"levelo://app?vid=ec0f9f0d-0796-42ac-9cf5-bb8596cdf342","ios":"levelo://app?vid=ec0f9f0d-0796-42ac-9cf5-bb8596cdf342"},"vehicle_type_id":"4","last_reported":1756332538,"current_range_meters":17200,"station_id":"","pricing_plan_id":"cebpf4jnsgd1na2vs0mg"},{"bike_id":"17e913a4-9bad-45a2-a833-803e708ff009","system_id":"levelo_inurba_marseille","lat":43.27963,"lon":5.38687,"is_reserved":false,"is_disabled":false,"rental_uris":{"android":"levelo://app?vid=17e913a4-9bad-45a2-a833-803e708ff009","ios":"levelo://app?vid=17e913a4-9bad-45a2-a833-803e708ff009"},"vehicle_type_id":"4","last_reported":1756332538,"current_range_meters":17200,"station_id":"ce4bhg12rcd13ifvqf80","pricing_plan_id":"cebpf4jnsgd1na2vs0mg"},{"bike_id":"ac6aaa20-6e63-469c-b48c-e5965ee2a708","system_id":"levelo_inurba_marseille","lat":43.26679,"lon":5.38265,"is_reserved":false,"is_disabled":false,"rental_uris":{"android":"levelo://app?vid=ac6aaa20-6e63-469c-b48c-e5965ee2a708","ios":"levelo://app?vid=ac6aaa20-6e63-469c-b48c-e5965ee2a708"},"vehicle_type_id":"4","last_reported":1756332538,"current_range_meters":17200,"station_id":"ce4bhg92rcd13ifvqf90","pricing_plan_id":"cebpf4jnsgd1na2vs0mg"},{"bike_id":"089f1f22-e66e-4e56-a7f9-98927b576a15","system_id":"levelo_inurba_marseille","lat":43.29528,"lon":5.38551,"is_reserved":false,"is_disabled":false,"rental_uris":{"android":"levelo://app?vid=089f1f22-e66e-4e56-a7f9-98927b576a15","ios":"levelo://app?vid=089f1f22-e66e-4e56-a7f9-98927b576a15"},"vehicle_type_id":"4","last_reported":1756332538,"current_range_meters":16800,"station_id":"ce4bgih2rcd13ifvqba0","pricing_plan_id":"cebpf4jnsgd1na2vs0mg"},{"bike_id":"831a2354-0919-4530-8e5a-84c32dcc2c03","system_id":"levelo_inurba_marseille","lat":43.272052,"lon":5.391826,"is_reserved":false,"is_disabled":false,"rental_uris":{"android":"levelo://app?vid=831a2354-0919-4530-8e5a-84c32dcc2c03","ios":"levelo://app?vid=831a2354-0919-4530-8e5a-84c32dcc2c03"},"vehicle_type_id":"4","last_reported":1756332538,"current_range_meters":17200,"station_id":"","pricing_plan_id":"cebpf4jnsgd1na2vs0mg"},{"bike_id":"8a72b4e3-dba1-4109-8dd9-232fe8116587","system_id":"levelo_inurba_marseille","lat":43.24677,"lon":5.38162,"is_reserved":false,"is_disabled":false,"rental_uris":{"android":"levelo://app?vid=8a72b4e3-dba1-4109-8dd9-232fe8116587","ios":"levelo://app?vid=8a72b4e3-dba1-4109-8dd9-232fe8116587"},"vehicle_type_id":"4","last_reported":1756332538,"current_range_meters":17200,"station_id":"ce4bhih2rcd13ifvqfr0","pricing_plan_id":"cebpf4jnsgd1na2vs0mg"},{"bike_id":"2c246624-962d-4f72-8341-3c6523db29ef","system_id":"levelo_inurba_marseille","lat":43.26579,"lon":5.37286,"is_reserved":false,"is_disabled":true,"rental_uris":{"android":"levelo://app?vid=2c246624-962d-4f72-8341-3c6523db29ef","ios":"levelo://app?vid=2c246624-962d-4f72-8341-3c6523db29ef"},"vehicle_type_id":"4","last_reported":1756332538,"current_range_meters":17200,"station_id":"ce4bhg12rcd13ifvqf70","pricing_plan_id":"cebpf4jnsgd1na2vs0mg"},{"bike_id":"fbb5d7f3-0097-42a0-82ca-69a876285168","system_id":"levelo_inurba_marseille","lat":43.29964,"lon":5.38499,"is_reserved":false,"is_disabled":false,"rental_uris":{"android":"levelo://app?vid=fbb5d7f3-0097-42a0-82ca-69a876285168","ios":"levelo://app?vid=fbb5d7f3-0097-42a0-82ca-69a876285168"},"vehicle_type_id":"4","last_reported":1756332538,"current_range_meters":17200,"station_id":"ce4bgj92rcd13ifvqbd0","pricing_plan_id":"cebpf4jnsgd1na2vs0mg"},{"bike_id":"7f96cfc7-6b62-4cd3-a164-5a1ee471a17d","system_id":"levelo_inurba_marseille","lat":43.30547,"lon":5.36515,"is_reserved":false,"is_disabled":false,"rental_uris":{"android":"levelo://app?vid=7f96cfc7-6b62-4cd3-a164-5a1ee471a17d","ios":"levelo://app?vid=7f96cfc7-6b62-4cd3-a164-5a1ee471a17d"},"vehicle_type_id":"4","last_reported":1756332538,"current_range_meters":17200,"station_id":"ce4bgs12rcd13ifvqcag","pricing_plan_id":"cebpf4jnsgd1na2vs0mg"},{"bike_id":"2a0cca17-daec-4154-bec0-3a469a086930","system_id":"levelo_inurba_marseille","lat":43.30423,"lon":5.39758,"is_reserved":false,"is_disabled":false,"rental_uris":{"android":"levelo://app?vid=2a0cca17-daec-4154-bec0-3a469a086930","ios":"levelo://app?vid=2a0cca17-daec-4154-bec0-3a469a086930"},"vehicle_type_id":"4","last_reported":1756332538,"current_range_meters":16800,"station_id":"ce4bh092rcd13ifvqd20","pricing_plan_id":"cebpf4jnsgd1na2vs0mg"},{"bike_id":"8ee7b6b9-a950-440c-b4c9-fb0ea9087b86","system_id":"levelo_inurba_marseille","lat":43.29586,"lon":5.375227,"is_reserved":false,"is_disabled":false,"rental_uris":{"android":"levelo://app?vid=8ee7b6b9-a950-440c-b4c9-fb0ea9087b86","ios":"levelo://app?vid=8ee7b6b9-a950-440c-b4c9-fb0ea9087b86"},"vehicle_type_id":"4","last_reported":1756332538,"current_range_meters":17600,"station_id":"","pricing_plan_id":"cebpf4jnsgd1na2vs0mg"},{"bike_id":"615f9cb4-bc08-43f1-87ef-884359fe2e39","system_id":"levelo_inurba_marseille","lat":43.3236,"lon":5.36759,"is_reserved":false,"is_disabled":false,"rental_uris":{"android":"levelo://app?vid=615f9cb4-bc08-43f1-87ef-884359fe2e39","ios":"levelo://app?vid=615f9cb4-bc08-43f1-87ef-884359fe2e39"},"vehicle_type_id":"4","last_reported":1756332538,"current_range_meters":17600,"station_id":"ce4bhsh2rcd13ifvqi2g","pricing_plan_id":"cebpf4jnsgd1na2vs0mg"},{"bike_id":"17b27f12-09ef-4fd2-8663-7f6c875f4ba0","system_id":"levelo_inurba_marseille","lat":43.31181,"lon":5.36837,"is_reserved":false,"is_disabled":false,"rental_uris":{"android":"levelo://app?vid=17b27f12-09ef-4fd2-8663-7f6c875f4ba0","ios":"levelo://app?vid=17b27f12-09ef-4fd2-8663-7f6c875f4ba0"},"vehicle_type_id":"4","last_reported":1756332538,"current_range_meters":17600,"station_id":"ce4bgl92rcd13ifvqbq0","pricing_plan_id":"cebpf4jnsgd1na2vs0mg"},{"bike_id":"f35d1293-640e-4558-bdb3-8305227be489","system_id":"levelo_inurba_marseille","lat":43.28723,"lon":5.3609,"is_reserved":false,"is_disabled":false,"rental_uris":{"android":"levelo://app?vid=f35d1293-640e-4558-bdb3-8305227be489","ios":"levelo://app?vid=f35d1293-640e-4558-bdb3-8305227be489"},"vehicle_type_id":"4","last_reported":1756332538,"current_range_meters":17200,"station_id":"cki0cbj6b192h4jlfktg","pricing_plan_id":"cebpf4jnsgd1na2vs0mg"},{"bike_id":"07296681-3400-48d5-88e2-c863a00e5bf3","system_id":"levelo_inurba_marseille","lat":43.2293,"lon":5.35378,"is_reserved":false,"is_disabled":false,"rental_uris":{"android":"levelo://app?vid=07296681-3400-48d5-88e2-c863a00e5bf3","ios":"levelo://app?vid=07296681-3400-48d5-88e2-c863a00e5bf3"},"vehicle_type_id":"4","last_reported":1756332538,"current_range_meters":17600,"station_id":"cpo3532slgdg3j2ikp40","pricing_plan_id":"cebpf4jnsgd1na2vs0mg"},{"bike_id":"f55a62f7-f729-45c2-9280-874b1c1e2b25","system_id":"levelo_inurba_marseille","lat":43.31218,"lon":5.36862,"is_reserved":false,"is_disabled":false,"rental_uris":{"android":"levelo://app?vid=f55a62f7-f729-45c2-9280-874b1c1e2b25","ios":"levelo://app?vid=f55a62f7-f729-45c2-9280-874b1c1e2b25"},"vehicle_type_id":"4","last_reported":1756332538,"current_range_meters":17600,"station_id":"ce4bgl92rcd13ifvqbq0","pricing_plan_id":"cebpf4jnsgd1na2vs0mg"},{"bike_id":"cddd7129-2972-4408-becb-877207b06e82","system_id":"levelo_inurba_marseille","lat":43.28451,"lon":5.35882,"is_reserved":false,"is_disabled":false,"rental_uris":{"android":"levelo://app?vid=cddd7129-2972-4408-becb-877207b06e82","ios":"levelo://app?vid=cddd7129-2972-4408-becb-877207b06e82"},"vehicle_type_id":"4","last_reported":1756332538,"current_range_meters":17600,"station_id":"ce4bhah2rcd13ifvqei0","pricing_plan_id":"cebpf4jnsgd1na2vs0mg"},{"bike_id":"8548ce9e-2be1-49fe-80fc-9355f418c5b9","system_id":"levelo_inurba_marseille","lat":43.30213,"lon":5.39472,"is_reserved":false,"is_disabled":false,"rental_uris":{"android":"levelo://app?vid=8548ce9e-2be1-49fe-80fc-9355f418c5b9","ios":"levelo://app?vid=8548ce9e-2be1-49fe-80fc-9355f418c5b9"},"vehicle_type_id":"4","last_reported":1756332538,"current_range_meters":16800,"station_id":"ce4bh0p2rcd13ifvqd70","pricing_plan_id":"cebpf4jnsgd1na2vs0mg"},{"bike_id":"2aa4d095-ddd4-488f-92c0-7fe1df0cd4a0","system_id":"levelo_inurba_marseille","lat":43.28361,"lon":5.38101,"is_reserved":false,"is_disabled":false,"rental_uris":{"android":"levelo://app?vid=2aa4d095-ddd4-488f-92c0-7fe1df0cd4a0","ios":"levelo://app?vid=2aa4d095-ddd4-488f-92c0-7fe1df0cd4a0"},"vehicle_type_id":"4","last_reported":1756332538,"current_range_meters":17600,"station_id":"ce4bh412rcd13ifvqdr0","pricing_plan_id":"cebpf4jnsgd1na2vs0mg"},{"bike_id":"87a609e1-d59c-4124-be64-0e6ad13873d2","system_id":"levelo_inurba_marseille","lat":43.28831,"lon":5.39359,"is_reserved":false,"is_disabled":false,"rental_uris":{"android":"levelo://app?vid=87a609e1-d59c-4124-be64-0e6ad13873d2","ios":"levelo://app?vid=87a609e1-d59c-4124-be64-0e6ad13873d2"},"vehicle_type_id":"4","last_reported":1756332538,"current_range_meters":18000,"station_id":"ce4bh2p2rcd13ifvqdi0","pricing_plan_id":"cebpf4jnsgd1na2vs0mg"},{"bike_id":"e6caca03-e4c1-40ce-9f4e-cc5046f7af92","system_id":"levelo_inurba_marseille","lat":43.3198,"lon":5.38127,"is_reserved":false,"is_disabled":false,"rental_uris":{"android":"levelo://app?vid=e6caca03-e4c1-40ce-9f4e-cc5046f7af92","ios":"levelo://app?vid=e6caca03-e4c1-40ce-9f4e-cc5046f7af92"},"vehicle_type_id":"4","last_reported":1756332538,"current_range_meters":18000,"station_id":"ce4bhr12rcd13ifvqhpg","pricing_plan_id":"cebpf4jnsgd1na2vs0mg"},{"bike_id":"731ff345-1377-45e9-acf9-0825f15b172a","system_id":"levelo_inurba_marseille","lat":43.22897,"lon":5.35405,"is_reserved":false,"is_disabled":false,"rental_uris":{"android":"levelo://app?vid=731ff345-1377-45e9-acf9-0825f15b172a","ios":"levelo://app?vid=731ff345-1377-45e9-acf9-0825f15b172a"},"vehicle_type_id":"4","last_reported":1756332538,"current_range_meters":18000,"station_id":"cpo3532slgdg3j2ikp40","pricing_plan_id":"cebpf4jnsgd1na2vs0mg"},{"bike_id":"9a7edf6e-5f68-421e-a102-2ef5b337d341","system_id":"levelo_inurba_marseille","lat":43.27942,"lon":5.4106,"is_reserved":false,"is_disabled":true,"rental_uris":{"android":"levelo://app?vid=9a7edf6e-5f68-421e-a102-2ef5b337d341","ios":"levelo://app?vid=9a7edf6e-5f68-421e-a102-2ef5b337d341"},"vehicle_type_id":"4","last_reported":1756332538,"current_range_meters":18000,"station_id":"ce4bhnp2rcd13ifvqh0g","pricing_plan_id":"cebpf4jnsgd1na2vs0mg"},{"bike_id":"11b81bb7-3ebf-4471-8c38-c504e89bdb31","system_id":"levelo_inurba_marseille","lat":43.29037,"lon":5.39975,"is_reserved":false,"is_disabled":false,"rental_uris":{"android":"levelo://app?vid=11b81bb7-3ebf-4471-8c38-c504e89bdb31","ios":"levelo://app?vid=11b81bb7-3ebf-4471-8c38-c504e89bdb31"},"vehicle_type_id":"4","last_reported":1756332538,"current_range_meters":18000,"station_id":"ce4bh392rcd13ifvqdm0","pricing_plan_id":"cebpf4jnsgd1na2vs0mg"},{"bike_id":"00865bff-72de-47be-acda-9cf6ec16a836","system_id":"levelo_inurba_marseille","lat":43.32107,"lon":5.36775,"is_reserved":false,"is_disabled":false,"rental_uris":{"android":"levelo://app?vid=00865bff-72de-47be-acda-9cf6ec16a836","ios":"levelo://app?vid=00865bff-72de-47be-acda-9cf6ec16a836"},"vehicle_type_id":"4","last_reported":1756332538,"current_range_meters":18000,"station_id":"ce4bhrh2rcd13ifvqhug","pricing_plan_id":"cebpf4jnsgd1na2vs0mg"},{"bike_id":"fb6a8521-484d-4352-b1eb-1592447f7f98","system_id":"levelo_inurba_marseille","lat":43.28458,"lon":5.35894,"is_reserved":false,"is_disabled":false,"rental_uris":{"android":"levelo://app?vid=fb6a8521-484d-4352-b1eb-1592447f7f98","ios":"levelo://app?vid=fb6a8521-484d-4352-b1eb-1592447f7f98"},"vehicle_type_id":"4","last_reported":1756332538,"current_range_meters":18000,"station_id":"ce4bhah2rcd13ifvqei0","pricing_plan_id":"cebpf4jnsgd1na2vs0mg"},{"bike_id":"cfe53b48-36fb-4d9d-8d47-0e19f434fbb4","system_id":"levelo_inurba_marseille","lat":43.24807,"lon":5.37456,"is_reserved":false,"is_disabled":false,"rental_uris":{"android":"levelo://app?vid=cfe53b48-36fb-4d9d-8d47-0e19f434fbb4","ios":"levelo://app?vid=cfe53b48-36fb-4d9d-8d47-0e19f434fbb4"},"vehicle_type_id":"4","last_reported":1756332538,"current_range_meters":18000,"station_id":"ce4bhgh2rcd13ifvqfb0","pricing_plan_id":"cebpf4jnsgd1na2vs0mg"},{"bike_id":"29c55d68-58c5-4ef2-b442-72bb9c55ddb0","system_id":"levelo_inurba_marseille","lat":43.323595,"lon":5.3674,"is_reserved":false,"is_disabled":false,"rental_uris":{"android":"levelo://app?vid=29c55d68-58c5-4ef2-b442-72bb9c55ddb0","ios":"levelo://app?vid=29c55d68-58c5-4ef2-b442-72bb9c55ddb0"},"vehicle_type_id":"4","last_reported":1756332538,"current_range_meters":18000,"station_id":"ce4bhsh2rcd13ifvqi2g","pricing_plan_id":"cebpf4jnsgd1na2vs0mg"},{"bike_id":"8cd383a6-fbd9-4809-9873-430c643e5314","system_id":"levelo_inurba_marseille","lat":43.24391,"lon":5.37061,"is_reserved":false,"is_disabled":false,"rental_uris":{"android":"levelo://app?vid=8cd383a6-fbd9-4809-9873-430c643e5314","ios":"levelo://app?vid=8cd383a6-fbd9-4809-9873-430c643e5314"},"vehicle_type_id":"4","last_reported":1756332538,"current_range_meters":18000,"station_id":"ce4bhhh2rcd13ifvqfk0","pricing_plan_id":"cebpf4jnsgd1na2vs0mg"},{"bike_id":"d4411ce1-1269-4134-adda-1eb61c16980f","system_id":"levelo_inurba_marseille","lat":43.281026,"lon":5.378508,"is_reserved":false,"is_disabled":true,"rental_uris":{"android":"levelo://app?vid=d4411ce1-1269-4134-adda-1eb61c16980f","ios":"levelo://app?vid=d4411ce1-1269-4134-adda-1eb61c16980f"},"vehicle_type_id":"4","last_reported":1756332538,"current_range_meters":18800,"station_id":"ce4bha12rcd13ifvqee0","pricing_plan_id":"cebpf4jnsgd1na2vs0mg"},{"bike_id":"37e41611-908c-4fc6-b906-9b74ce3b4724","system_id":"levelo_inurba_marseille","lat":43.29788,"lon":5.39351,"is_reserved":false,"is_disabled":false,"rental_uris":{"android":"levelo://app?vid=37e41611-908c-4fc6-b906-9b74ce3b4724","ios":"levelo://app?vid=37e41611-908c-4fc6-b906-9b74ce3b4724"},"vehicle_type_id":"4","last_reported":1756332538,"current_range_meters":18800,"station_id":"chh1huq6cuj3fo74tm60","pricing_plan_id":"cebpf4jnsgd1na2vs0mg"},{"bike_id":"bc3a6b72-cd9a-49dd-bdb1-a99a8ecc8734","system_id":"levelo_inurba_marseille","lat":43.2509,"lon":5.39526,"is_reserved":false,"is_disabled":false,"rental_uris":{"android":"levelo://app?vid=bc3a6b72-cd9a-49dd-bdb1-a99a8ecc8734","ios":"levelo://app?vid=bc3a6b72-cd9a-49dd-bdb1-a99a8ecc8734"},"vehicle_type_id":"4","last_reported":1756332538,"current_range_meters":18000,"station_id":"ce4bhm12rcd13ifvqgkg","pricing_plan_id":"cebpf4jnsgd1na2vs0mg"},{"bike_id":"44c3e0a1-f0f1-44e3-8ad0-3a65a48f5329","system_id":"levelo_inurba_marseille","lat":43.28563,"lon":5.39496,"is_reserved":false,"is_disabled":false,"rental_uris":{"android":"levelo://app?vid=44c3e0a1-f0f1-44e3-8ad0-3a65a48f5329","ios":"levelo://app?vid=44c3e0a1-f0f1-44e3-8ad0-3a65a48f5329"},"vehicle_type_id":"4","last_reported":1756332538,"current_range_meters":18800,"station_id":"ce4bh292rcd13ifvqdg0","pricing_plan_id":"cebpf4jnsgd1na2vs0mg"},{"bike_id":"086fb8bd-6d0b-46ba-bd91-901ac277021b","system_id":"levelo_inurba_marseille","lat":43.269705,"lon":5.390362,"is_reserved":false,"is_disabled":false,"rental_uris":{"android":"levelo://app?vid=086fb8bd-6d0b-46ba-bd91-901ac277021b","ios":"levelo://app?vid=086fb8bd-6d0b-46ba-bd91-901ac277021b"},"vehicle_type_id":"4","last_reported":1756332538,"current_range_meters":18800,"station_id":"","pricing_plan_id":"cebpf4jnsgd1na2vs0mg"},{"bike_id":"fad509bb-f53b-44b6-a94f-044ddb828f7d","system_id":"levelo_inurba_marseille","lat":43.27064,"lon":5.40258,"is_reserved":false,"is_disabled":true,"rental_uris":{"android":"levelo://app?vid=fad509bb-f53b-44b6-a94f-044ddb828f7d","ios":"levelo://app?vid=fad509bb-f53b-44b6-a94f-044ddb828f7d"},"vehicle_type_id":"4","last_reported":1756332538,"current_range_meters":18800,"station_id":"cjm6bp8fraef2m0cb0m0","pricing_plan_id":"cebpf4jnsgd1na2vs0mg"},{"bike_id":"d5b5907d-1d02-4eef-aa20-0746cf4d0eac","system_id":"levelo_inurba_marseille","lat":43.28941,"lon":5.36397,"is_reserved":false,"is_disabled":false,"rental_uris":{"android":"levelo://app?vid=d5b5907d-1d02-4eef-aa20-0746cf4d0eac","ios":"levelo://app?vid=d5b5907d-1d02-4eef-aa20-0746cf4d0eac"},"vehicle_type_id":"4","last_reported":1756332538,"current_range_meters":18800,"station_id":"ce4bhc92rcd13ifvqetg","pricing_plan_id":"cebpf4jnsgd1na2vs0mg"},{"bike_id":"f35ed741-a8be-420a-8cb9-080e02eb898a","system_id":"levelo_inurba_marseille","lat":43.31168,"lon":5.38726,"is_reserved":false,"is_disabled":false,"rental_uris":{"android":"levelo://app?vid=f35ed741-a8be-420a-8cb9-080e02eb898a","ios":"levelo://app?vid=f35ed741-a8be-420a-8cb9-080e02eb898a"},"vehicle_type_id":"4","last_reported":1756332538,"current_range_meters":18800,"station_id":"ce4bgv12rcd13ifvqcp0","pricing_plan_id":"cebpf4jnsgd1na2vs0mg"},{"bike_id":"6f0a6341-f71e-4ced-adb3-c22af6ef6818","system_id":"levelo_inurba_marseille","lat":43.30295,"lon":5.39206,"is_reserved":false,"is_disabled":false,"rental_uris":{"android":"levelo://app?vid=6f0a6341-f71e-4ced-adb3-c22af6ef6818","ios":"levelo://app?vid=6f0a6341-f71e-4ced-adb3-c22af6ef6818"},"vehicle_type_id":"4","last_reported":1756332538,"current_range_meters":18000,"station_id":"ce4bgkh2rcd13ifvqbk0","pricing_plan_id":"cebpf4jnsgd1na2vs0mg"},{"bike_id":"a527882f-db95-41c9-89e9-d8afd6dd2cd8","system_id":"levelo_inurba_marseille","lat":43.29605,"lon":5.38097,"is_reserved":false,"is_disabled":false,"rental_uris":{"android":"levelo://app?vid=a527882f-db95-41c9-89e9-d8afd6dd2cd8","ios":"levelo://app?vid=a527882f-db95-41c9-89e9-d8afd6dd2cd8"},"vehicle_type_id":"4","last_reported":1756332538,"current_range_meters":18000,"station_id":"ce4bgl12rcd13ifvqbo0","pricing_plan_id":"cebpf4jnsgd1na2vs0mg"},{"bike_id":"69b4ff08-bcc7-439d-919d-ecacd6d9051a","system_id":"levelo_inurba_marseille","lat":43.281635,"lon":5.426406,"is_reserved":false,"is_disabled":false,"rental_uris":{"android":"levelo://app?vid=69b4ff08-bcc7-439d-919d-ecacd6d9051a","ios":"levelo://app?vid=69b4ff08-bcc7-439d-919d-ecacd6d9051a"},"vehicle_type_id":"4","last_reported":1756332538,"current_range_meters":18800,"station_id":"","pricing_plan_id":"cebpf4jnsgd1na2vs0mg"},{"bike_id":"e971db97-de16-49f2-87a8-ae40953b2f6e","system_id":"levelo_inurba_marseille","lat":43.30303,"lon":5.39215,"is_reserved":false,"is_disabled":false,"rental_uris":{"android":"levelo://app?vid=e971db97-de16-49f2-87a8-ae40953b2f6e","ios":"levelo://app?vid=e971db97-de16-49f2-87a8-ae40953b2f6e"},"vehicle_type_id":"4","last_reported":1756332538,"current_range_meters":19200,"station_id":"ce4bgkh2rcd13ifvqbk0","pricing_plan_id":"cebpf4jnsgd1na2vs0mg"},{"bike_id":"491a51e4-1469-463f-b9cc-ff15d2c85312","system_id":"levelo_inurba_marseille","lat":43.29501,"lon":5.38561,"is_reserved":false,"is_disabled":true,"rental_uris":{"android":"levelo://app?vid=491a51e4-1469-463f-b9cc-ff15d2c85312","ios":"levelo://app?vid=491a51e4-1469-463f-b9cc-ff15d2c85312"},"vehicle_type_id":"4","last_reported":1756332538,"current_range_meters":19200,"station_id":"ce4bgih2rcd13ifvqba0","pricing_plan_id":"cebpf4jnsgd1na2vs0mg"},{"bike_id":"db886a6e-1dd7-4ad6-80af-762275a5c8b0","system_id":"levelo_inurba_marseille","lat":43.27932,"lon":5.41041,"is_reserved":false,"is_disabled":false,"rental_uris":{"android":"levelo://app?vid=db886a6e-1dd7-4ad6-80af-762275a5c8b0","ios":"levelo://app?vid=db886a6e-1dd7-4ad6-80af-762275a5c8b0"},"vehicle_type_id":"4","last_reported":1756332538,"current_range_meters":19200,"station_id":"ce4bhnp2rcd13ifvqh0g","pricing_plan_id":"cebpf4jnsgd1na2vs0mg"},{"bike_id":"62a8c0bf-06af-44b2-acbd-3e96055782c5","system_id":"levelo_inurba_marseille","lat":43.23067,"lon":5.35505,"is_reserved":false,"is_disabled":false,"rental_uris":{"android":"levelo://app?vid=62a8c0bf-06af-44b2-acbd-3e96055782c5","ios":"levelo://app?vid=62a8c0bf-06af-44b2-acbd-3e96055782c5"},"vehicle_type_id":"4","last_reported":1756332538,"current_range_meters":19200,"station_id":"cpo3342slgdg3j2ifvpg","pricing_plan_id":"cebpf4jnsgd1na2vs0mg"},{"bike_id":"b16ad52c-f13c-4cbb-b55b-6d98d6ea16a7","system_id":"levelo_inurba_marseille","lat":43.29559,"lon":5.39974,"is_reserved":false,"is_disabled":false,"rental_uris":{"android":"levelo://app?vid=b16ad52c-f13c-4cbb-b55b-6d98d6ea16a7","ios":"levelo://app?vid=b16ad52c-f13c-4cbb-b55b-6d98d6ea16a7"},"vehicle_type_id":"4","last_reported":1756332538,"current_range_meters":19200,"station_id":"ce4bh312rcd13ifvqdj0","pricing_plan_id":"cebpf4jnsgd1na2vs0mg"},{"bike_id":"4db00c46-fd2c-4f92-af00-732ea18acab4","system_id":"levelo_inurba_marseille","lat":43.28104,"lon":5.378399,"is_reserved":false,"is_disabled":false,"rental_uris":{"android":"levelo://app?vid=4db00c46-fd2c-4f92-af00-732ea18acab4","ios":"levelo://app?vid=4db00c46-fd2c-4f92-af00-732ea18acab4"},"vehicle_type_id":"4","last_reported":1756332538,"current_range_meters":19200,"station_id":"ce4bha12rcd13ifvqee0","pricing_plan_id":"cebpf4jnsgd1na2vs0mg"},{"bike_id":"f1b15d75-65b4-45b8-9885-6a2cb81836e9","system_id":"levelo_inurba_marseille","lat":43.29252,"lon":5.40917,"is_reserved":false,"is_disabled":false,"rental_uris":{"android":"levelo://app?vid=f1b15d75-65b4-45b8-9885-6a2cb81836e9","ios":"levelo://app?vid=f1b15d75-65b4-45b8-9885-6a2cb81836e9"},"vehicle_type_id":"4","last_reported":1756332538,"current_range_meters":19200,"station_id":"ce4bh192rcd13ifvqdc0","pricing_plan_id":"cebpf4jnsgd1na2vs0mg"},{"bike_id":"8b29b749-bc81-4c76-9fbe-41a119eee602","system_id":"levelo_inurba_marseille","lat":43.29042,"lon":5.40043,"is_reserved":false,"is_disabled":true,"rental_uris":{"android":"levelo://app?vid=8b29b749-bc81-4c76-9fbe-41a119eee602","ios":"levelo://app?vid=8b29b749-bc81-4c76-9fbe-41a119eee602"},"vehicle_type_id":"4","last_reported":1756332538,"current_range_meters":19200,"station_id":"","pricing_plan_id":"cebpf4jnsgd1na2vs0mg"},{"bike_id":"295b5131-2ce7-4504-997b-819bd8cd05de","system_id":"levelo_inurba_marseille","lat":43.24074,"lon":5.37763,"is_reserved":false,"is_disabled":false,"rental_uris":{"android":"levelo://app?vid=295b5131-2ce7-4504-997b-819bd8cd05de","ios":"levelo://app?vid=295b5131-2ce7-4504-997b-819bd8cd05de"},"vehicle_type_id":"4","last_reported":1756332538,"current_range_meters":19200,"station_id":"ce4bhnp2rcd13ifvqgvg","pricing_plan_id":"cebpf4jnsgd1na2vs0mg"},{"bike_id":"822b56cc-ff88-43cc-aca0-11e993bd09e3","system_id":"levelo_inurba_marseille","lat":43.30643,"lon":5.40067,"is_reserved":false,"is_disabled":false,"rental_uris":{"android":"levelo://app?vid=822b56cc-ff88-43cc-aca0-11e993bd09e3","ios":"levelo://app?vid=822b56cc-ff88-43cc-aca0-11e993bd09e3"},"vehicle_type_id":"4","last_reported":1756332538,"current_range_meters":19600,"station_id":"ce4bh112rcd13ifvqda0","pricing_plan_id":"cebpf4jnsgd1na2vs0mg"},{"bike_id":"4fbce97f-acb9-4c6a-8eb5-11735db2ebfe","system_id":"levelo_inurba_marseille","lat":43.28199,"lon":5.3906,"is_reserved":false,"is_disabled":false,"rental_uris":{"android":"levelo://app?vid=4fbce97f-acb9-4c6a-8eb5-11735db2ebfe","ios":"levelo://app?vid=4fbce97f-acb9-4c6a-8eb5-11735db2ebfe"},"vehicle_type_id":"4","last_reported":1756332538,"current_range_meters":19600,"station_id":"ce4bhn92rcd13ifvqgsg","pricing_plan_id":"cebpf4jnsgd1na2vs0mg"},{"bike_id":"01e0144f-d91d-4733-a878-5b6dbd99102f","system_id":"levelo_inurba_marseille","lat":43.28666,"lon":5.39997,"is_reserved":false,"is_disabled":false,"rental_uris":{"android":"levelo://app?vid=01e0144f-d91d-4733-a878-5b6dbd99102f","ios":"levelo://app?vid=01e0144f-d91d-4733-a878-5b6dbd99102f"},"vehicle_type_id":"4","last_reported":1756332538,"current_range_meters":19600,"station_id":"","pricing_plan_id":"cebpf4jnsgd1na2vs0mg"},{"bike_id":"89f42997-cba2-42ca-8470-bfb8f54fa2a2","system_id":"levelo_inurba_marseille","lat":43.29916,"lon":5.38527,"is_reserved":false,"is_disabled":false,"rental_uris":{"android":"levelo://app?vid=89f42997-cba2-42ca-8470-bfb8f54fa2a2","ios":"levelo://app?vid=89f42997-cba2-42ca-8470-bfb8f54fa2a2"},"vehicle_type_id":"4","last_reported":1756332538,"current_range_meters":19600,"station_id":"","pricing_plan_id":"cebpf4jnsgd1na2vs0mg"},{"bike_id":"3d14d85f-1bc8-43df-8ea9-56d585eef156","system_id":"levelo_inurba_marseille","lat":43.23968,"lon":5.36633,"is_reserved":false,"is_disabled":false,"rental_uris":{"android":"levelo://app?vid=3d14d85f-1bc8-43df-8ea9-56d585eef156","ios":"levelo://app?vid=3d14d85f-1bc8-43df-8ea9-56d585eef156"},"vehicle_type_id":"4","last_reported":1756332538,"current_range_meters":19600,"station_id":"ce4bhi12rcd13ifvqfp0","pricing_plan_id":"cebpf4jnsgd1na2vs0mg"},{"bike_id":"dcc73557-37c8-4558-a819-890049fca50b","system_id":"levelo_inurba_marseille","lat":43.23179,"lon":5.39991,"is_reserved":false,"is_disabled":false,"rental_uris":{"android":"levelo://app?vid=dcc73557-37c8-4558-a819-890049fca50b","ios":"levelo://app?vid=dcc73557-37c8-4558-a819-890049fca50b"},"vehicle_type_id":"4","last_reported":1756332538,"current_range_meters":19200,"station_id":"ce4bhn12rcd13ifvqgqg","pricing_plan_id":"cebpf4jnsgd1na2vs0mg"},{"bike_id":"f0384fbb-6485-4c18-9cc5-2fe16aa6e603","system_id":"levelo_inurba_marseille","lat":43.2417,"lon":5.36395,"is_reserved":false,"is_disabled":false,"rental_uris":{"android":"levelo://app?vid=f0384fbb-6485-4c18-9cc5-2fe16aa6e603","ios":"levelo://app?vid=f0384fbb-6485-4c18-9cc5-2fe16aa6e603"},"vehicle_type_id":"4","last_reported":1756332538,"current_range_meters":19600,"station_id":"cpo36qri1sfpv3e86is0","pricing_plan_id":"cebpf4jnsgd1na2vs0mg"},