{"last_updated":1687378013,"ttl":30,"version":"2.2","data":{"bikes":[{"bike_id":"a427c24d-38c8-4655-99f3-9b4ebff8dcfd","system_id":"levelo_inurba_marseille","lat":43.31228,"lon":5.36877,"is_reserved":false,"is_disabled":false,"rental_uris":{"android":"levelo://app?vid=a427c24d-38c8-4655-99f3-9b4ebff8dcfd","ios":"levelo://app?vid=a427c24d-38c8-4655-99f3-9b4ebff8dcfd"},"vehicle_type_id":"4","last_reported":1687378014,"current_range_meters":6400,"station_id":"ce4bgl92rcd13ifvqbq0","pricing_plan_id":"free"},{"bike_id":"6e4fd040-1866-4783-872c-dd21a7ae18af","system_id":"levelo_inurba_marseille","lat":43.31361,"lon":5.37074,"is_reserved":false,"is_disabled":false,"rental_uris":{"android":"levelo://app?vid=6e4fd040-1866-4783-872c-dd21a7ae18af","ios":"levelo://app?vid=6e4fd040-1866-4783-872c-dd21a7ae18af"},"vehicle_type_id":"4","last_reported":1687378014,"current_range_meters":8000,"station_id":"","pricing_plan_id":"free"},{"bike_id":"4bca2d4e-6de8-409c-b0c2-03b389ca2731","system_id":"levelo_inurba_marseille","lat":43.305714,"lon":5.365633,"is_reserved":false,"is_disabled":false,"rental_uris":{"android":"levelo://app?vid=4bca2d4e-6de8-409c-b0c2-03b389ca2731","ios":"levelo://app?vid=4bca2d4e-6de8-409c-b0c2-03b389ca2731"},"vehicle_type_id":"4","last_reported":1687378014,"current_range_meters":3200,"station_id":"ce4bgs12rcd13ifvqcag","pricing_plan_id":"free"},{"bike_id":"0e15f61d-f515-46fb-aa7a-9a1b4f60e493","system_id":"levelo_inurba_marseille","lat":43.30547,"lon":5.36537,"is_reserved":false,"is_disabled":false,"rental_uris":{"android":"levelo://app?vid=0e15f61d-f515-46fb-aa7a-9a1b4f60e493","ios":"levelo://app?vid=0e15f61d-f515-46fb-aa7a-9a1b4f60e493"},"vehicle_type_id":"4","last_reported":1687378014,"current_range_meters":0,"station_id":"ce4bgs12rcd13ifvqcag","pricing_plan_id":"free"},{"bike_id":"b4dafe3e-975a-4450-9b98-1ffc5fcb078c","system_id":"levelo_inurba_marseille","lat":43.305706,"lon":5.365654,"is_reserved":false,"is_disabled":false,"rental_uris":{"android":"levelo://app?vid=b4dafe3e-975a-4450-9b98-1ffc5fcb078c","ios":"levelo://app?vid=b4dafe3e-975a-4450-9b98-1ffc5fcb078c"},"vehicle_type_id":"4","last_reported":1687378014,"current_range_meters":26000,"station_id":"ce4bgs12rcd13ifvqcag","pricing_plan_id":"free"},{"bike_id":"26e9f0e6-86e0-41f6-bed4-f41bd0fd8cc9","system_id":"levelo_inurba_marseille","lat":43.311131,"lon":5.377651,"is_reserved":false,"is_disabled":false,"rental_uris":{"android":"levelo://app?vid=26e9f0e6-86e0-41f6-bed4-f41bd0fd8cc9","ios":"levelo://app?vid=26e9f0e6-86e0-41f6-bed4-f41bd0fd8cc9"},"vehicle_type_id":"4","last_reported":1687378014,"current_range_meters":0,"station_id":"ce4bgt92rcd13ifvqcg0","pricing_plan_id":"free"},{"bike_id":"4ab064d6-2b9c-44d3-a5b0-938639d0bc81","system_id":"levelo_inurba_marseille","lat":43.311131,"lon":5.377651,"is_reserved":false,"is_disabled":false,"rental_uris":{"android":"levelo://app?vid=4ab064d6-2b9c-44d3-a5b0-938639d0bc81","ios":"levelo://app?vid=4ab064d6-2b9c-44d3-a5b0-938639d0bc81"},"vehicle_type_id":"4","last_reported":1687378014,"current_range_meters":3600,"station_id":"ce4bgt92rcd13ifvqcg0","pricing_plan_id":"free"},{"bike_id":"5488b7ba-0d07-407c-856b-5dfdfe5dd78d","system_id":"levelo_inurba_marseille","lat":43.311131,"lon":5.377651,"is_reserved":false,"is_disabled":false,"rental_uris":{"android":"levelo://app?vid=5488b7ba-0d07-407c-856b-5dfdfe5dd78d","ios":"levelo://app?vid=5488b7ba-0d07-407c-856b-5dfdfe5dd78d"},"vehicle_type_id":"4","last_reported":1687378014,"current_range_meters":18800,"station_id":"ce4bgt92rcd13ifvqcg0","pricing_plan_id":"free"},{"bike_id":"4bbb212b-577f-4546-a392-4751db47eba9","system_id":"levelo_inurba_marseille","lat":43.311131,"lon":5.377651,"is_reserved":false,"is_disabled":false,"rental_uris":{"android":"levelo://app?vid=4bbb212b-577f-4546-a392-4751db47eba9","ios":"levelo://app?vid=4bbb212b-577f-4546-a392-4751db47eba9"},"vehicle_type_id":"4","last_reported":1687378014,"current_range_meters":6400,"station_id":"ce4bgt92rcd13ifvqcg0","pricing_plan_id":"free"},{"bike_id":"9401679d-9d64-4719-bf3c-b3071e6afbfe","system_id":"levelo_inurba_marseille","lat":43.315289,"lon":5.380349,"is_reserved":false,"is_disabled":false,"rental_uris":{"android":"levelo://app?vid=9401679d-9d64-4719-bf3c-b3071e6afbfe","ios":"levelo://app?vid=9401679d-9d64-4719-bf3c-b3071e6afbfe"},"vehicle_type_id":"4","last_reported":1687378014,"current_range_meters":0,"station_id":"ce4bhsp2rcd13ifvqi50","pricing_plan_id":"free"},{"bike_id":"ae33307b-fcd5-479b-9ae1-9002ed226c6e","system_id":"levelo_inurba_marseille","lat":43.308012,"lon":5.381511,"is_reserved":false,"is_disabled":false,"rental_uris":{"android":"levelo://app?vid=ae33307b-fcd5-479b-9ae1-9002ed226c6e","ios":"levelo://app?vid=ae33307b-fcd5-479b-9ae1-9002ed226c6e"},"vehicle_type_id":"4","last_reported":1687378014,"current_range_meters":14400,"station_id":"ce4bgt12rcd13ifvqce0","pricing_plan_id":"free"},{"bike_id":"43fc693e-f2a9-4aec-8fd9-d094bb02cb70","system_id":"levelo_inurba_marseille","lat":43.304606,"lon":5.379026,"is_reserved":false,"is_disabled":false,"rental_uris":{"android":"levelo://app?vid=43fc693e-f2a9-4aec-8fd9-d094bb02cb70","ios":"levelo://app?vid=43fc693e-f2a9-4aec-8fd9-d094bb02cb70"},"vehicle_type_id":"4","last_reported":1687378014,"current_range_meters":4800,"station_id":"ce4bgup2rcd13ifvqcn0","pricing_plan_id":"free"},{"bike_id":"3d2fb23b-d7c7-4912-a567-9c086f8e21e8","system_id":"levelo_inurba_marseille","lat":43.319935,"lon":5.381699,"is_reserved":false,"is_disabled":false,"rental_uris":{"android":"levelo://app?vid=3d2fb23b-d7c7-4912-a567-9c086f8e21e8","ios":"levelo://app?vid=3d2fb23b-d7c7-4912-a567-9c086f8e21e8"},"vehicle_type_id":"4","last_reported":1687378014,"current_range_meters":0,"station_id":"ce4bhr12rcd13ifvqhpg","pricing_plan_id":"free"},{"bike_id":"bccf5dc1-52be-4b5e-bdfb-736a67109e5f","system_id":"levelo_inurba_marseille","lat":43.298433,"lon":5.362774,"is_reserved":false,"is_disabled":false,"rental_uris":{"android":"levelo://app?vid=bccf5dc1-52be-4b5e-bdfb-736a67109e5f","ios":"levelo://app?vid=bccf5dc1-52be-4b5e-bdfb-736a67109e5f"},"vehicle_type_id":"4","last_reported":1687378014,"current_range_meters":4000,"station_id":"ce4bgpp2rcd13ifvqc3g","pricing_plan_id":"free"},{"bike_id":"408cdbd3-920b-45b4-ab4e-0217d7cee4ab","system_id":"levelo_inurba_marseille","lat":43.32753,"lon":5.367,"is_reserved":false,"is_disabled":false,"rental_uris":{"android":"levelo://app?vid=408cdbd3-920b-45b4-ab4e-0217d7cee4ab","ios":"levelo://app?vid=408cdbd3-920b-45b4-ab4e-0217d7cee4ab"},"vehicle_type_id":"4","last_reported":1687378014,"current_range_meters":4400,"station_id":"","pricing_plan_id":"free"},{"bike_id":"e6ea61d5-da20-4ad2-b344-94c2975133fa","system_id":"levelo_inurba_marseille","lat":43.32269,"lon":5.38202,"is_reserved":false,"is_disabled":false,"rental_uris":{"android":"levelo://app?vid=e6ea61d5-da20-4ad2-b344-94c2975133fa","ios":"levelo://app?vid=e6ea61d5-da20-4ad2-b344-94c2975133fa"},"vehicle_type_id":"4","last_reported":1687378014,"current_range_meters":5200,"station_id":"","pricing_plan_id":"free"},{"bike_id":"7d1bb786-d3ee-47be-a415-8035896f9346","system_id":"levelo_inurba_marseille","lat":43.311722,"lon":5.387247,"is_reserved":false,"is_disabled":false,"rental_uris":{"android":"levelo://app?vid=7d1bb786-d3ee-47be-a415-8035896f9346","ios":"levelo://app?vid=7d1bb786-d3ee-47be-a415-8035896f9346"},"vehicle_type_id":"4","last_reported":1687378014,"current_range_meters":14000,"station_id":"ce4bgv12rcd13ifvqcp0","pricing_plan_id":"free"},{"bike_id":"c3339efb-c603-45cb-8da9-01d5c529aca8","system_id":"levelo_inurba_marseille","lat":43.32357,"lon":5.38194,"is_reserved":false,"is_disabled":false,"rental_uris":{"android":"levelo://app?vid=c3339efb-c603-45cb-8da9-01d5c529aca8","ios":"levelo://app?vid=c3339efb-c603-45cb-8da9-01d5c529aca8"},"vehicle_type_id":"4","last_reported":1687378014,"current_range_meters":18800,"station_id":"","pricing_plan_id":"free"},{"bike_id":"83c69af1-0d5e-4560-ace0-538d107a2e5f","system_id":"levelo_inurba_marseille","lat":43.328371,"lon":5.366909,"is_reserved":false,"is_disabled":false,"rental_uris":{"android":"levelo://app?vid=83c69af1-0d5e-4560-ace0-538d107a2e5f","ios":"levelo://app?vid=83c69af1-0d5e-4560-ace0-538d107a2e5f"},"vehicle_type_id":"4","last_reported":1687378014,"current_range_meters":20000,"station_id":"ce4bhs92rcd13ifvqi0g","pricing_plan_id":"free"},{"bike_id":"176f4894-d7fc-460e-aa5d-7c8c1e206dc3","system_id":"levelo_inurba_marseille","lat":43.29715,"lon":5.36621,"is_reserved":false,"is_disabled":false,"rental_uris":{"android":"levelo://app?vid=176f4894-d7fc-460e-aa5d-7c8c1e206dc3","ios":"levelo://app?vid=176f4894-d7fc-460e-aa5d-7c8c1e206dc3"},"vehicle_type_id":"4","last_reported":1687378014,"current_range_meters":18000,"station_id":"","pricing_plan_id":"free"},{"bike_id":"4c7e5c93-2a48-4a72-a6cf-97c503c7a2fa","system_id":"levelo_inurba_marseille","lat":43.328371,"lon":5.366909,"is_reserved":false,"is_disabled":false,"rental_uris":{"android":"levelo://app?vid=4c7e5c93-2a48-4a72-a6cf-97c503c7a2fa","ios":"levelo://app?vid=4c7e5c93-2a48-4a72-a6cf-97c503c7a2fa"},"vehicle_type_id":"4","last_reported":1687378014,"current_range_meters":16000,"station_id":"ce4bhs92rcd13ifvqi0g","pricing_plan_id":"free"},{"bike_id":"fd53ee84-24b3-4ec6-b22a-b4cac25a1233","system_id":"levelo_inurba_marseille","lat":43.328371,"lon":5.366909,"is_reserved":false,"is_disabled":false,"rental_uris":{"android":"levelo://app?vid=fd53ee84-24b3-4ec6-b22a-b4cac25a1233","ios":"levelo://app?vid=fd53ee84-24b3-4ec6-b22a-b4cac25a1233"},"vehicle_type_id":"4","last_reported":1687378014,"current_range_meters":400,"station_id":"ce4bhs92rcd13ifvqi0g","pricing_plan_id":"free"},{"bike_id":"f1c19d6a-495c-4fca-b301-f13194cb6463","system_id":"levelo_inurba_marseille","lat":43.29573,"lon":5.367355,"is_reserved":false,"is_disabled":false,"rental_uris":{"android":"levelo://app?vid=f1c19d6a-495c-4fca-b301-f13194cb6463","ios":"levelo://app?vid=f1c19d6a-495c-4fca-b301-f13194cb6463"},"vehicle_type_id":"4","last_reported":1687378014,"current_range_meters":4800,"station_id":"ce4bgph2rcd13ifvqc2g","pricing_plan_id":"free"},{"bike_id":"24f41ca5-b432-4feb-a0c8-a15026b97306","system_id":"levelo_inurba_marseille","lat":43.296131,"lon":5.370773,"is_reserved":false,"is_disabled":false,"rental_uris":{"android":"levelo://app?vid=24f41ca5-b432-4feb-a0c8-a15026b97306","ios":"levelo://app?vid=24f41ca5-b432-4feb-a0c8-a15026b97306"},"vehicle_type_id":"4","last_reported":1687378014,"current_range_meters":0,"station_id":"ce4bgnh2rcd13ifvqc0g","pricing_plan_id":"free"},{"bike_id":"09959ce1-487d-48af-82f8-0843dcb3fd9e","system_id":"levelo_inurba_marseille","lat":43.299028,"lon":5.381509,"is_reserved":false,"is_disabled":false,"rental_uris":{"android":"levelo://app?vid=09959ce1-487d-48af-82f8-0843dcb3fd9e","ios":"levelo://app?vid=09959ce1-487d-48af-82f8-0843dcb3fd9e"},"vehicle_type_id":"4","last_reported":1687378014,"current_range_meters":5200,"station_id":"ce4bgj12rcd13ifvqbc0","pricing_plan_id":"free"},{"bike_id":"2f99039f-26f1-4b46-9f8f-9bfe37ec043b","system_id":"levelo_inurba_marseille","lat":43.299028,"lon":5.381509,"is_reserved":false,"is_disabled":false,"rental_uris":{"android":"levelo://app?vid=2f99039f-26f1-4b46-9f8f-9bfe37ec043b","ios":"levelo://app?vid=2f99039f-26f1-4b46-9f8f-9bfe37ec043b"},"vehicle_type_id":"4","last_reported":1687378014,"current_range_meters":0,"station_id":"ce4bgj12rcd13ifvqbc0","pricing_plan_id":"free"},{"bike_id":"041bc147-ef2f-419b-bb81-deca3bdf89e2","system_id":"levelo_inurba_marseille","lat":43.29611,"lon":5.36046,"is_reserved":false,"is_disabled":false,"rental_uris":{"android":"levelo://app?vid=041bc147-ef2f-419b-bb81-deca3bdf89e2","ios":"levelo://app?vid=041bc147-ef2f-419b-bb81-deca3bdf89e2"},"vehicle_type_id":"4","last_reported":1687378014,"current_range_meters":17200,"station_id":"","pricing_plan_id":"free"},{"bike_id":"c4cf66c9-4e5b-484d-87a5-32db25fbb7aa","system_id":"levelo_inurba_marseille","lat":43.309589,"lon":5.390258,"is_reserved":false,"is_disabled":false,"rental_uris":{"android":"levelo://app?vid=c4cf66c9-4e5b-484d-87a5-32db25fbb7aa","ios":"levelo://app?vid=c4cf66c9-4e5b-484d-87a5-32db25fbb7aa"},"vehicle_type_id":"4","last_reported":1687378014,"current_range_meters":6000,"station_id":"ce4bgup2rcd13ifvqco0","pricing_plan_id":"free"},{"bike_id":"0ed8ecec-046c-4730-a463-bda301f800c6","system_id":"levelo_inurba_marseille","lat":43.31755,"lon":5.39019,"is_reserved":false,"is_disabled":false,"rental_uris":{"android":"levelo://app?vid=0ed8ecec-046c-4730-a463-bda301f800c6","ios":"levelo://app?vid=0ed8ecec-046c-4730-a463-bda301f800c6"},"vehicle_type_id":"4","last_reported":1687378014,"current_range_meters":16000,"station_id":"ce4bhqp2rcd13ifvqhng","pricing_plan_id":"free"},{"bike_id":"16e5fedd-6e86-436a-a0a2-72c7cd60a6ea","system_id":"levelo_inurba_marseille","lat":43.317557,"lon":5.390173,"is_reserved":false,"is_disabled":false,"rental_uris":{"android":"levelo://app?vid=16e5fedd-6e86-436a-a0a2-72c7cd60a6ea","ios":"levelo://app?vid=16e5fedd-6e86-436a-a0a2-72c7cd60a6ea"},"vehicle_type_id":"4","last_reported":1687378014,"current_range_meters":29200,"station_id":"ce4bhqp2rcd13ifvqhng","pricing_plan_id":"free"},{"bike_id":"649e680e-6821-4d1f-9d81-7005fd94a102","system_id":"levelo_inurba_marseille","lat":43.31755,"lon":5.39024,"is_reserved":false,"is_disabled":false,"rental_uris":{"android":"levelo://app?vid=649e680e-6821-4d1f-9d81-7005fd94a102","ios":"levelo://app?vid=649e680e-6821-4d1f-9d81-7005fd94a102"},"vehicle_type_id":"4","last_reported":1687378014,"current_range_meters":27600,"station_id":"ce4bhqp2rcd13ifvqhng","pricing_plan_id":"free"},{"bike_id":"11bfd3fe-e149-45d7-8fab-b36fe62e4e06","system_id":"levelo_inurba_marseille","lat":43.2967,"lon":5.377,"is_reserved":false,"is_disabled":false,"rental_uris":{"android":"levelo://app?vid=11bfd3fe-e149-45d7-8fab-b36fe62e4e06","ios":"levelo://app?vid=11bfd3fe-e149-45d7-8fab-b36fe62e4e06"},"vehicle_type_id":"4","last_reported":1687378014,"current_range_meters":25600,"station_id":"","pricing_plan_id":"free"},{"bike_id":"d38c5de4-1b75-44fb-88b5-eb30bcdcd7d0","system_id":"levelo_inurba_marseille","lat":43.302008,"lon":5.394694,"is_reserved":false,"is_disabled":false,"rental_uris":{"android":"levelo://app?vid=d38c5de4-1b75-44fb-88b5-eb30bcdcd7d0","ios":"levelo://app?vid=d38c5de4-1b75-44fb-88b5-eb30bcdcd7d0"},"vehicle_type_id":"4","last_reported":1687378014,"current_range_meters":17200,"station_id":"ce4bh0p2rcd13ifvqd70","pricing_plan_id":"free"},{"bike_id":"250c8a96-8498-4211-b8f3-1b00a8d1fbaf","system_id":"levelo_inurba_marseille","lat":43.296477,"lon":5.37768,"is_reserved":false,"is_disabled":false,"rental_uris":{"android":"levelo://app?vid=250c8a96-8498-4211-b8f3-1b00a8d1fbaf","ios":"levelo://app?vid=250c8a96-8498-4211-b8f3-1b00a8d1fbaf"},"vehicle_type_id":"4","last_reported":1687378014,"current_range_meters":0,"station_id":"","pricing_plan_id":"free"},{"bike_id":"91da4c00-4408-45a7-8129-7073a3493782","system_id":"levelo_inurba_marseille","lat":43.29571,"lon":5.37527,"is_reserved":false,"is_disabled":false,"rental_uris":{"android":"levelo://app?vid=91da4c00-4408-45a7-8129-7073a3493782","ios":"levelo://app?vid=91da4c00-4408-45a7-8129-7073a3493782"},"vehicle_type_id":"4","last_reported":1687378014,"current_range_meters":0,"station_id":"ce4bgh92rcd13ifvqb50","pricing_plan_id":"free"},{"bike_id":"10651d0d-38f3-470f-ac99-19f4c975ce6e","system_id":"levelo_inurba_marseille","lat":43.313291,"lon":5.396838,"is_reserved":false,"is_disabled":false,"rental_uris":{"android":"levelo://app?vid=10651d0d-38f3-470f-ac99-19f4c975ce6e","ios":"levelo://app?vid=10651d0d-38f3-470f-ac99-19f4c975ce6e"},"vehicle_type_id":"4","last_reported":1687378014,"current_range_meters":4000,"station_id":"ce4bgvp2rcd13ifvqcu0","pricing_plan_id":"free"},{"bike_id":"585b97b6-82cb-4aa4-bb25-f85e3dc463f5","system_id":"levelo_inurba_marseille","lat":43.295279,"lon":5.375048,"is_reserved":false,"is_disabled":false,"rental_uris":{"android":"levelo://app?vid=585b97b6-82cb-4aa4-bb25-f85e3dc463f5","ios":"levelo://app?vid=585b97b6-82cb-4aa4-bb25-f85e3dc463f5"},"vehicle_type_id":"4","last_reported":1687378014,"current_range_meters":400,"station_id":"ce4bgkp2rcd13ifvqbmg","pricing_plan_id":"free"},{"bike_id":"58eb65af-6f68-4577-b59a-e2a557a3c728","system_id":"levelo_inurba_marseille","lat":43.32367,"lon":5.38867,"is_reserved":false,"is_disabled":false,"rental_uris":{"android":"levelo://app?vid=58eb65af-6f68-4577-b59a-e2a557a3c728","ios":"levelo://app?vid=58eb65af-6f68-4577-b59a-e2a557a3c728"},"vehicle_type_id":"4","last_reported":1687378014,"current_range_meters":4000,"station_id":"ce4bhqp2rcd13ifvqhog","pricing_plan_id":"free"},{"bike_id":"7ae0a70b-b34b-4619-b999-d91fc3badad9","system_id":"levelo_inurba_marseille","lat":43.32367,"lon":5.388836,"is_reserved":false,"is_disabled":false,"rental_uris":{"android":"levelo://app?vid=7ae0a70b-b34b-4619-b999-d91fc3badad9","ios":"levelo://app?vid=7ae0a70b-b34b-4619-b999-d91fc3badad9"},"vehicle_type_id":"4","last_reported":1687378014,"current_range_meters":22800,"station_id":"ce4bhqp2rcd13ifvqhog","pricing_plan_id":"free"},{"bike_id":"07e16fb3-d2a9-448f-a2bf-2b98a5617d56","system_id":"levelo_inurba_marseille","lat":43.32367,"lon":5.388836,"is_reserved":false,"is_disabled":false,"rental_uris":{"android":"levelo://app?vid=07e16fb3-d2a9-448f-a2bf-2b98a5617d56","ios":"levelo://app?vid=07e16fb3-d2a9-448f-a2bf-2b98a5617d56"},"vehicle_type_id":"4","last_reported":1687378014,"current_range_meters":20000,"station_id":"ce4bhqp2rcd13ifvqhog","pricing_plan_id":"free"},{"bike_id":"e041460a-54ae-4871-ad9f-b6135e0ef88f","system_id":"levelo_inurba_marseille","lat":43.32367,"lon":5.388836,"is_reserved":false,"is_disabled":false,"rental_uris":{"android":"levelo://app?vid=e041460a-54ae-4871-ad9f-b6135e0ef88f","ios":"levelo://app?vid=e041460a-54ae-4871-ad9f-b6135e0ef88f"},"vehicle_type_id":"4","last_reported":1687378014,"current_range_meters":0,"station_id":"ce4bhqp2rcd13ifvqhog","pricing_plan_id":"free"},{"bike_id":"e9a5f79a-69b5-4c7c-81b9-81e43f3bff7b","system_id":"levelo_inurba_marseille","lat":43.32367,"lon":5.388836,"is_reserved":false,"is_disabled":false,"rental_uris":{"android":"levelo://app?vid=e9a5f79a-69b5-4c7c-81b9-81e43f3bff7b","ios":"levelo://app?vid=e9a5f79a-69b5-4c7c-81b9-81e43f3bff7b"},"vehicle_type_id":"4","last_reported":1687378014,"current_range_meters":24400,"station_id":"ce4bhqp2rcd13ifvqhog","pricing_plan_id":"free"},{"bike_id":"2416699f-f4ca-4fd7-861f-2eb65620cbe4","system_id":"levelo_inurba_marseille","lat":43.32367,"lon":5.388836,"is_reserved":false,"is_disabled":false,"rental_uris":{"android":"levelo://app?vid=2416699f-f4ca-4fd7-861f-2eb65620cbe4","ios":"levelo://app?vid=2416699f-f4ca-4fd7-861f-2eb65620cbe4"},"vehicle_type_id":"4","last_reported":1687378014,"current_range_meters":22400,"station_id":"ce4bhqp2rcd13ifvqhog","pricing_plan_id":"free"},{"bike_id":"9da04b77-8cbd-4ced-9933-390cc6bb4911","system_id":"levelo_inurba_marseille","lat":43.32367,"lon":5.388836,"is_reserved":false,"is_disabled":false,"rental_uris":{"android":"levelo://app?vid=9da04b77-8cbd-4ced-9933-390cc6bb4911","ios":"levelo://app?vid=9da04b77-8cbd-4ced-9933-390cc6bb4911"},"vehicle_type_id":"4","last_reported":1687378014,"current_range_meters":4800,"station_id":"ce4bhqp2rcd13ifvqhog","pricing_plan_id":"free"},{"bike_id":"62e1e21f-3f88-43a4-83a5-bbb9f2a86bae","system_id":"levelo_inurba_marseille","lat":43.32367,"lon":5.388836,"is_reserved":false,"is_disabled":false,"rental_uris":{"android":"levelo://app?vid=62e1e21f-3f88-43a4-83a5-bbb9f2a86bae","ios":"levelo://app?vid=62e1e21f-3f88-43a4-83a5-bbb9f2a86bae"},"vehicle_type_id":"4","last_reported":1687378014,"current_range_meters":19200,"station_id":"ce4bhqp2rcd13ifvqhog","pricing_plan_id":"free"},{"bike_id":"f61ec0db-716d-4a23-9975-6a1fe1a19fb3","system_id":"levelo_inurba_marseille","lat":43.29602,"lon":5.381084,"is_reserved":false,"is_disabled":false,"rental_uris":{"android":"levelo://app?vid=f61ec0db-716d-4a23-9975-6a1fe1a19fb3","ios":"levelo://app?vid=f61ec0db-716d-4a23-9975-6a1fe1a19fb3"},"vehicle_type_id":"4","last_reported":1687378014,"current_range_meters":12000,"station_id":"ce4bgl12rcd13ifvqbo0","pricing_plan_id":"free"},{"bike_id":"e74a8cfc-933a-4eeb-8d16-1aa9d4c1ceaf","system_id":"levelo_inurba_marseille","lat":43.29602,"lon":5.381084,"is_reserved":false,"is_disabled":false,"rental_uris":{"android":"levelo://app?vid=e74a8cfc-933a-4eeb-8d16-1aa9d4c1ceaf","ios":"levelo://app?vid=e74a8cfc-933a-4eeb-8d16-1aa9d4c1ceaf"},"vehicle_type_id":"4","last_reported":1687378014,"current_range_meters":4000,"station_id":"ce4bgl12rcd13ifvqbo0","pricing_plan_id":"free"},{"bike_id":"780a2fef-3d2a-4873-a638-9f797d1cc666","system_id":"levelo_inurba_marseille","lat":43.29557,"lon":5.3807,"is_reserved":false,"is_disabled":false,"rental_uris":{"android":"levelo://app?vid=780a2fef-3d2a-4873-a638-9f797d1cc666","ios":"levelo://app?vid=780a2fef-3d2a-4873-a638-9f797d1cc666"},"vehicle_type_id":"4","last_reported":1687378014,"current_range_meters":20400,"station_id":"ce4bgl12rcd13ifvqbo0","pricing_plan_id":"free"},{"bike_id":"66b480a6-9947-4496-98e2-93e61a3244b4","system_id":"levelo_inurba_marseille","lat":43.30401,"lon":5.39322,"is_reserved":false,"is_disabled":false,"rental_uris":{"android":"levelo://app?vid=66b480a6-9947-4496-98e2-93e61a3244b4","ios":"levelo://app?vid=66b480a6-9947-4496-98e2-93e61a3244b4"},"vehicle_type_id":"4","last_reported":1687378014,"current_range_meters":30000,"station_id":"","pricing_plan_id":"free"},{"bike_id":"38377d01-35d1-465a-a31a-d898c82c0e01","system_id":"levelo_inurba_marseille","lat":43.292663,"lon":5.376394,"is_reserved":false,"is_disabled":false,"rental_uris":{"android":"levelo://app?vid=38377d01-35d1-465a-a31a-d898c82c0e01","ios":"levelo://app?vid=38377d01-35d1-465a-a31a-d898c82c0e01"},"vehicle_type_id":"4","last_reported":1687378014,"current_range_meters":0,"station_id":"ce4bgi12rcd13ifvqb80","pricing_plan_id":"free"},{"bike_id":"73cd8870-d51e-4b96-a684-2aa62063eb61","system_id":"levelo_inurba_marseille","lat":43.291994,"lon":5.357886,"is_reserved":false,"is_disabled":false,"rental_uris":{"android":"levelo://app?vid=73cd8870-d51e-4b96-a684-2aa62063eb61","ios":"levelo://app?vid=73cd8870-d51e-4b96-a684-2aa62063eb61"},"vehicle_type_id":"4","last_reported":1687378014,"current_range_meters":4000,"station_id":"ce4bhb12rcd13ifvqel0","pricing_plan_id":"free"},{"bike_id":"830c6072-edbe-4f57-b186-7db2ab8619e4","system_id":"levelo_inurba_marseille","lat":43.30885,"lon":5.39636,"is_reserved":false,"is_disabled":false,"rental_uris":{"android":"levelo://app?vid=830c6072-edbe-4f57-b186-7db2ab8619e4","ios":"levelo://app?vid=830c6072-edbe-4f57-b186-7db2ab8619e4"},"vehicle_type_id":"4","last_reported":1687378014,"current_range_meters":2400,"station_id":"ce4bh012rcd13ifvqcv0","pricing_plan_id":"free"},{"bike_id":"068fc60f-4716-4cd0-afc2-556cc1723478","system_id":"levelo_inurba_marseille","lat":43.309038,"lon":5.396546,"is_reserved":false,"is_disabled":false,"rental_uris":{"android":"levelo://app?vid=068fc60f-4716-4cd0-afc2-556cc1723478","ios":"levelo://app?vid=068fc60f-4716-4cd0-afc2-556cc1723478"},"vehicle_type_id":"4","last_reported":1687378014,"current_range_meters":0,"station_id":"ce4bh012rcd13ifvqcv0","pricing_plan_id":"free"},{"bike_id":"299aeb3c-85a1-41b9-8ebc-cf5b68a33824","system_id":"levelo_inurba_marseille","lat":43.309038,"lon":5.396546,"is_reserved":false,"is_disabled":false,"rental_uris":{"android":"levelo://app?vid=299aeb3c-85a1-41b9-8ebc-cf5b68a33824","ios":"levelo://app?vid=299aeb3c-85a1-41b9-8ebc-cf5b68a33824"},"vehicle_type_id":"4","last_reported":1687378014,"current_range_meters":0,"station_id":"ce4bh012rcd13ifvqcv0","pricing_plan_id":"free"},{"bike_id":"319e7585-d7f2-4068-bc08-1126e7bfa104","system_id":"levelo_inurba_marseille","lat":43.30897,"lon":5.39649,"is_reserved":false,"is_disabled":false,"rental_uris":{"android":"levelo://app?vid=319e7585-d7f2-4068-bc08-1126e7bfa104","ios":"levelo://app?vid=319e7585-d7f2-4068-bc08-1126e7bfa104"},"vehicle_type_id":"4","last_reported":1687378014,"current_range_meters":16800,"station_id":"ce4bh012rcd13ifvqcv0","pricing_plan_id":"free"},{"bike_id":"d7b894a1-bd71-4002-aa50-0025237c8a6f","system_id":"levelo_inurba_marseille","lat":43.309038,"lon":5.396546,"is_reserved":false,"is_disabled":false,"rental_uris":{"android":"levelo://app?vid=d7b894a1-bd71-4002-aa50-0025237c8a6f","ios":"levelo://app?vid=d7b894a1-bd71-4002-aa50-0025237c8a6f"},"vehicle_type_id":"4","last_reported":1687378014,"current_range_meters":0,"station_id":"ce4bh012rcd13ifvqcv0","pricing_plan_id":"free"},{"bike_id":"39caba74-4fb1-413c-baf8-b9baf1d46b2c","system_id":"levelo_inurba_marseille","lat":43.29533,"lon":5.38528,"is_reserved":false,"is_disabled":false,"rental_uris":{"android":"levelo://app?vid=39caba74-4fb1-413c-baf8-b9baf1d46b2c","ios":"levelo://app?vid=39caba74-4fb1-413c-baf8-b9baf1d46b2c"},"vehicle_type_id":"4","last_reported":1687378014,"current_range_meters":0,"station_id":"ce4bgih2rcd13ifvqba0","pricing_plan_id":"free"},{"bike_id":"4bd965a1-6689-4782-a943-ad4bffde7a00","system_id":"levelo_inurba_marseille","lat":43.29537,"lon":5.38539,"is_reserved":false,"is_disabled":false,"rental_uris":{"android":"levelo://app?vid=4bd965a1-6689-4782-a943-ad4bffde7a00","ios":"levelo://app?vid=4bd965a1-6689-4782-a943-ad4bffde7a00"},"vehicle_type_id":"4","last_reported":1687378014,"current_range_meters":14800,"station_id":"ce4bgih2rcd13ifvqba0","pricing_plan_id":"free"},{"bike_id":"386dc7de-0136-4f12-8214-defa5e01b847","system_id":"levelo_inurba_marseille","lat":43.29529,"lon":5.385581,"is_reserved":false,"is_disabled":false,"rental_uris":{"android":"levelo://app?vid=386dc7de-0136-4f12-8214-defa5e01b847","ios":"levelo://app?vid=386dc7de-0136-4f12-8214-defa5e01b847"},"vehicle_type_id":"4","last_reported":1687378014,"current_range_meters":16400,"station_id":"ce4bgih2rcd13ifvqba0","pricing_plan_id":"free"},{"bike_id":"df982768-6547-4dd3-9724-d9a4f2ca5140","system_id":"levelo_inurba_marseille","lat":43.29529,"lon":5.3853,"is_reserved":false,"is_disabled":false,"rental_uris":{"android":"levelo://app?vid=df982768-6547-4dd3-9724-d9a4f2ca5140","ios":"levelo://app?vid=df982768-6547-4dd3-9724-d9a4f2ca5140"},"vehicle_type_id":"4","last_reported":1687378014,"current_range_meters":21200,"station_id":"ce4bgih2rcd13ifvqba0","pricing_plan_id":"free"},{"bike_id":"f7311c7a-998c-494c-bcb6-e1d160d75c44","system_id":"levelo_inurba_marseille","lat":43.29529,"lon":5.385581,"is_reserved":false,"is_disabled":false,"rental_uris":{"android":"levelo://app?vid=f7311c7a-998c-494c-bcb6-e1d160d75c44","ios":"levelo://app?vid=f7311c7a-998c-494c-bcb6-e1d160d75c44"},"vehicle_type_id":"4","last_reported":1687378014,"current_range_meters":24400,"station_id":"ce4bgih2rcd13ifvqba0","pricing_plan_id":"free"},{"bike_id":"24908e6c-a436-480a-90f5-5afe41c6d05c","system_id":"levelo_inurba_marseille","lat":43.29529,"lon":5.385581,"is_reserved":false,"is_disabled":false,"rental_uris":{"android":"levelo://app?vid=24908e6c-a436-480a-90f5-5afe41c6d05c","ios":"levelo://app?vid=24908e6c-a436-480a-90f5-5afe41c6d05c"},"vehicle_type_id":"4","last_reported":1687378014,"current_range_meters":16800,"station_id":"ce4bgih2rcd13ifvqba0","pricing_plan_id":"free"},{"bike_id":"a4a64297-15c2-4b5f-85a7-d9988eca1bc3","system_id":"levelo_inurba_marseille","lat":43.29529,"lon":5.385581,"is_reserved":false,"is_disabled":false,"rental_uris":{"android":"levelo://app?vid=a4a64297-15c2-4b5f-85a7-d9988eca1bc3","ios":"levelo://app?vid=a4a64297-15c2-4b5f-85a7-d9988eca1bc3"},"vehicle_type_id":"4","last_reported":1687378014,"current_range_meters":1600,"station_id":"ce4bgih2rcd13ifvqba0","pricing_plan_id":"free"},{"bike_id":"16cf5d69-585d-4b8e-9692-d1e087f428e8","system_id":"levelo_inurba_marseille","lat":43.29538,"lon":5.3855,"is_reserved":false,"is_disabled":false,"rental_uris":{"android":"levelo://app?vid=16cf5d69-585d-4b8e-9692-d1e087f428e8","ios":"levelo://app?vid=16cf5d69-585d-4b8e-9692-d1e087f428e8"},"vehicle_type_id":"4","last_reported":1687378014,"current_range_meters":20000,"station_id":"ce4bgih2rcd13ifvqba0","pricing_plan_id":"free"},{"bike_id":"f007e17c-2761-4232-a630-34ced7aacdd0","system_id":"levelo_inurba_marseille","lat":43.29535,"lon":5.38546,"is_reserved":false,"is_disabled":false,"rental_uris":{"android":"levelo://app?vid=f007e17c-2761-4232-a630-34ced7aacdd0","ios":"levelo://app?vid=f007e17c-2761-4232-a630-34ced7aacdd0"},"vehicle_type_id":"4","last_reported":1687378014,"current_range_meters":16800,"station_id":"ce4bgih2rcd13ifvqba0","pricing_plan_id":"free"},{"bike_id":"d74300cf-e29d-4c5e-a599-a571fdbbf339","system_id":"levelo_inurba_marseille","lat":43.29529,"lon":5.385581,"is_reserved":false,"is_disabled":false,"rental_uris":{"android":"levelo://app?vid=d74300cf-e29d-4c5e-a599-a571fdbbf339","ios":"levelo://app?vid=d74300cf-e29d-4c5e-a599-a571fdbbf339"},"vehicle_type_id":"4","last_reported":1687378014,"current_range_meters":13200,"station_id":"ce4bgih2rcd13ifvqba0","pricing_plan_id":"free"},{"bike_id":"fda62ecf-7784-4317-82cf-16daef732900","system_id":"levelo_inurba_marseille","lat":43.29529,"lon":5.3854,"is_reserved":false,"is_disabled":false,"rental_uris":{"android":"levelo://app?vid=fda62ecf-7784-4317-82cf-16daef732900","ios":"levelo://app?vid=fda62ecf-7784-4317-82cf-16daef732900"},"vehicle_type_id":"4","last_reported":1687378014,"current_range_meters":7600,"station_id":"ce4bgih2rcd13ifvqba0","pricing_plan_id":"free"},{"bike_id":"831c1214-4afa-4dbc-8870-68499b6d1722","system_id":"levelo_inurba_marseille","lat":43.29531,"lon":5.38544,"is_reserved":false,"is_disabled":false,"rental_uris":{"android":"levelo://app?vid=831c1214-4afa-4dbc-8870-68499b6d1722","ios":"levelo://app?vid=831c1214-4afa-4dbc-8870-68499b6d1722"},"vehicle_type_id":"4","last_reported":1687378014,"current_range_meters":16800,"station_id":"ce4bgih2rcd13ifvqba0","pricing_plan_id":"free"},{"bike_id":"86355c2d-a966-43fb-8814-8eaf8c01224c","system_id":"levelo_inurba_marseille","lat":43.29531,"lon":5.38544,"is_reserved":false,"is_disabled":false,"rental_uris":{"android":"levelo://app?vid=86355c2d-a966-43fb-8814-8eaf8c01224c","ios":"levelo://app?vid=86355c2d-a966-43fb-8814-8eaf8c01224c"},"vehicle_type_id":"4","last_reported":1687378014,"current_range_meters":17600,"station_id":"ce4bgih2rcd13ifvqba0","pricing_plan_id":"free"},{"bike_id":"628aead5-45ce-4ca8-9363-50564d065719","system_id":"levelo_inurba_marseille","lat":43.29529,"lon":5.385581,"is_reserved":false,"is_disabled":false,"rental_uris":{"android":"levelo://app?vid=628aead5-45ce-4ca8-9363-50564d065719","ios":"levelo://app?vid=628aead5-45ce-4ca8-9363-50564d065719"},"vehicle_type_id":"4","last_reported":1687378014,"current_range_meters":8000,"station_id":"ce4bgih2rcd13ifvqba0","pricing_plan_id":"free"},{"bike_id":"39df84fd-910f-44b2-ad06-d34e1cda26fe","system_id":"levelo_inurba_marseille","lat":43.29529,"lon":5.385581,"is_reserved":false,"is_disabled":false,"rental_uris":{"android":"levelo://app?vid=39df84fd-910f-44b2-ad06-d34e1cda26fe","ios":"levelo://app?vid=39df84fd-910f-44b2-ad06-d34e1cda26fe"},"vehicle_type_id":"4","last_reported":1687378014,"current_range_meters":26000,"station_id":"ce4bgih2rcd13ifvqba0","pricing_plan_id":"free"},{"bike_id":"14165d80-fd6b-48c9-85b6-ce7c9196ee50","system_id":"levelo_inurba_marseille","lat":43.29531,"lon":5.38545,"is_reserved":false,"is_disabled":false,"rental_uris":{"android":"levelo://app?vid=14165d80-fd6b-48c9-85b6-ce7c9196ee50","ios":"levelo://app?vid=14165d80-fd6b-48c9-85b6-ce7c9196ee50"},"vehicle_type_id":"4","last_reported":1687378014,"current_range_meters":4800,"station_id":"ce4bgih2rcd13ifvqba0","pricing_plan_id":"free"},{"bike_id":"a9f02279-5607-478d-83d4-dcb2f1a0374f","system_id":"levelo_inurba_marseille","lat":43.29529,"lon":5.385581,"is_reserved":false,"is_disabled":false,"rental_uris":{"android":"levelo://app?vid=a9f02279-5607-478d-83d4-dcb2f1a0374f","ios":"levelo://app?vid=a9f02279-5607-478d-83d4-dcb2f1a0374f"},"vehicle_type_id":"4","last_reported":1687378014,"current_range_meters":4800,"station_id":"ce4bgih2rcd13ifvqba0","pricing_plan_id":"free"},{"bike_id":"f0813ac6-20fc-44e7-8b93-141ec7d50818","system_id":"levelo_inurba_marseille","lat":43.29529,"lon":5.385581,"is_reserved":false,"is_disabled":false,"rental_uris":{"android":"levelo://app?vid=f0813ac6-20fc-44e7-8b93-141ec7d50818","ios":"levelo://app?vid=f0813ac6-20fc-44e7-8b93-141ec7d50818"},"vehicle_type_id":"4","last_reported":1687378014,"current_range_meters":30000,"station_id":"ce4bgih2rcd13ifvqba0","pricing_plan_id":"free"},{"bike_id":"e6ef0036-327e-4948-8bce-9abce557d900","system_id":"levelo_inurba_marseille","lat":43.29531,"lon":5.38547,"is_reserved":false,"is_disabled":false,"rental_uris":{"android":"levelo://app?vid=e6ef0036-327e-4948-8bce-9abce557d900","ios":"levelo://app?vid=e6ef0036-327e-4948-8bce-9abce557d900"},"vehicle_type_id":"4","last_reported":1687378014,"current_range_meters":14800,"station_id":"ce4bgih2rcd13ifvqba0","pricing_plan_id":"free"},{"bike_id":"3e4268bf-1cb2-4b54-b131-abba59b719e2","system_id":"levelo_inurba_marseille","lat":43.29533,"lon":5.38552,"is_reserved":false,"is_disabled":false,"rental_uris":{"android":"levelo://app?vid=3e4268bf-1cb2-4b54-b131-abba59b719e2","ios":"levelo://app?vid=3e4268bf-1cb2-4b54-b131-abba59b719e2"},"vehicle_type_id":"4","last_reported":1687378014,"current_range_meters":24800,"station_id":"ce4bgih2rcd13ifvqba0","pricing_plan_id":"free"},{"bike_id":"4a2352ef-f928-42fc-bf59-09e090cf43d0","system_id":"levelo_inurba_marseille","lat":43.29529,"lon":5.38546,"is_reserved":false,"is_disabled":false,"rental_uris":{"android":"levelo://app?vid=4a2352ef-f928-42fc-bf59-09e090cf43d0","ios":"levelo://app?vid=4a2352ef-f928-42fc-bf59-09e090cf43d0"},"vehicle_type_id":"4","last_reported":1687378014,"current_range_meters":8400,"station_id":"ce4bgih2rcd13ifvqba0","pricing_plan_id":"free"},{"bike_id":"fb2d4148-bb76-4f73-8845-22b2ac2ea15d","system_id":"levelo_inurba_marseille","lat":43.29529,"lon":5.385581,"is_reserved":false,"is_disabled":false,"rental_uris":{"android":"levelo://app?vid=fb2d4148-bb76-4f73-8845-22b2ac2ea15d","ios":"levelo://app?vid=fb2d4148-bb76-4f73-8845-22b2ac2ea15d"},"vehicle_type_id":"4","last_reported":1687378014,"current_range_meters":28400,"station_id":"ce4bgih2rcd13ifvqba0","pricing_plan_id":"free"},{"bike_id":"4e51c541-4f16-49ff-b70d-b7e667f15735","system_id":"levelo_inurba_marseille","lat":43.29529,"lon":5.385581,"is_reserved":false,"is_disabled":false,"rental_uris":{"android":"levelo://app?vid=4e51c541-4f16-49ff-b70d-b7e667f15735","ios":"levelo://app?vid=4e51c541-4f16-49ff-b70d-b7e667f15735"},"vehicle_type_id":"4","last_reported":1687378014,"current_range_meters":31600,"station_id":"ce4bgih2rcd13ifvqba0","pricing_plan_id":"free"},{"bike_id":"0bf297fa-43ef-4c77-b339-fe61a0540d9a","system_id":"levelo_inurba_marseille","lat":43.29529,"lon":5.385581,"is_reserved":false,"is_disabled":false,"rental_uris":{"android":"levelo://app?vid=0bf297fa-43ef-4c77-b339-fe61a0540d9a","ios":"levelo://app?vid=0bf297fa-43ef-4c77-b339-fe61a0540d9a"},"vehicle_type_id":"4","last_reported":1687378014,"current_range_meters":21200,"station_id":"ce4bgih2rcd13ifvqba0","pricing_plan_id":"free"},{"bike_id":"d43583b5-22a3-4d1b-b57c-4441737af27f","system_id":"levelo_inurba_marseille","lat":43.29527,"lon":5.38555,"is_reserved":false,"is_disabled":false,"rental_uris":{"android":"levelo://app?vid=d43583b5-22a3-4d1b-b57c-4441737af27f","ios":"levelo://app?vid=d43583b5-22a3-4d1b-b57c-4441737af27f"},"vehicle_type_id":"4","last_reported":1687378014,"current_range_meters":8000,"station_id":"ce4bgih2rcd13ifvqba0","pricing_plan_id":"free"},{"bike_id":"fc4cfa6f-5378-4838-88e8-e2849b31931c","system_id":"levelo_inurba_marseille","lat":43.295169,"lon":5.390426,"is_reserved":false,"is_disabled":false,"rental_uris":{"android":"levelo://app?vid=fc4cfa6f-5378-4838-88e8-e2849b31931c","ios":"levelo://app?vid=fc4cfa6f-5378-4838-88e8-e2849b31931c"},"vehicle_type_id":"4","last_reported":1687378014,"current_range_meters":2000,"station_id":"ce4bh3p2rcd13ifvqdp0","pricing_plan_id":"free"},{"bike_id":"913efca0-4cea-45c0-9128-ba0ec07f94b2","system_id":"levelo_inurba_marseille","lat":43.290104,"lon":5.356111,"is_reserved":false,"is_disabled":false,"rental_uris":{"android":"levelo://app?vid=913efca0-4cea-45c0-9128-ba0ec07f94b2","ios":"levelo://app?vid=913efca0-4cea-45c0-9128-ba0ec07f94b2"},"vehicle_type_id":"4","last_reported":1687378014,"current_range_meters":6400,"station_id":"ce4bhb92rcd13ifvqen0","pricing_plan_id":"free"},{"bike_id":"0095433d-d062-4e1b-a76b-fb334aeb81ca","system_id":"levelo_inurba_marseille","lat":43.29421,"lon":5.38614,"is_reserved":false,"is_disabled":false,"rental_uris":{"android":"levelo://app?vid=0095433d-d062-4e1b-a76b-fb334aeb81ca","ios":"levelo://app?vid=0095433d-d062-4e1b-a76b-fb334aeb81ca"},"vehicle_type_id":"4","last_reported":1687378014,"current_range_meters":24000,"station_id":"ce4bh2h2rcd13ifvqdh0","pricing_plan_id":"free"},{"bike_id":"4d6706b1-9d02-4ca4-8788-f980b715cfeb","system_id":"levelo_inurba_marseille","lat":43.29426,"lon":5.38626,"is_reserved":false,"is_disabled":false,"rental_uris":{"android":"levelo://app?vid=4d6706b1-9d02-4ca4-8788-f980b715cfeb","ios":"levelo://app?vid=4d6706b1-9d02-4ca4-8788-f980b715cfeb"},"vehicle_type_id":"4","last_reported":1687378014,"current_range_meters":16800,"station_id":"ce4bh2h2rcd13ifvqdh0","pricing_plan_id":"free"},{"bike_id":"5e991787-5a24-4f7a-a834-4dfc56f55145","system_id":"levelo_inurba_marseille","lat":43.29422,"lon":5.38622,"is_reserved":false,"is_disabled":false,"rental_uris":{"android":"levelo://app?vid=5e991787-5a24-4f7a-a834-4dfc56f55145","ios":"levelo://app?vid=5e991787-5a24-4f7a-a834-4dfc56f55145"},"vehicle_type_id":"4","last_reported":1687378014,"current_range_meters":11200,"station_id":"ce4bh2h2rcd13ifvqdh0","pricing_plan_id":"free"},{"bike_id":"a66c9b66-f101-44c9-99e6-aad9aa69bc36","system_id":"levelo_inurba_marseille","lat":43.29423,"lon":5.38624,"is_reserved":false,"is_disabled":false,"rental_uris":{"android":"levelo://app?vid=a66c9b66-f101-44c9-99e6-aad9aa69bc36","ios":"levelo://app?vid=a66c9b66-f101-44c9-99e6-aad9aa69bc36"},"vehicle_type_id":"4","last_reported":1687378014,"current_range_meters":22400,"station_id":"ce4bh2h2rcd13ifvqdh0","pricing_plan_id":"free"},{"bike_id":"b1c64199-04ca-4a70-9de0-03cdd3939a6d","system_id":"levelo_inurba_marseille","lat":43.29423,"lon":5.38625,"is_reserved":false,"is_disabled":false,"rental_uris":{"android":"levelo://app?vid=b1c64199-04ca-4a70-9de0-03cdd3939a6d","ios":"levelo://app?vid=b1c64199-04ca-4a70-9de0-03cdd3939a6d"},"vehicle_type_id":"4","last_reported":1687378014,"current_range_meters":14400,"station_id":"ce4bh2h2rcd13ifvqdh0","pricing_plan_id":"free"},{"bike_id":"f459f43d-1ca2-4ffb-a899-eced0352f326","system_id":"levelo_inurba_marseille","lat":43.294162,"lon":5.386292,"is_reserved":false,"is_disabled":false,"rental_uris":{"android":"levelo://app?vid=f459f43d-1ca2-4ffb-a899-eced0352f326","ios":"levelo://app?vid=f459f43d-1ca2-4ffb-a899-eced0352f326"},"vehicle_type_id":"4","last_reported":1687378014,"current_range_meters":0,"station_id":"ce4bh2h2rcd13ifvqdh0","pricing_plan_id":"free"},{"bike_id":"c0cb8f0e-9e76-4df0-9336-f4d5ebc1e527","system_id":"levelo_inurba_marseille","lat":43.29423,"lon":5.38626,"is_reserved":false,"is_disabled":false,"rental_uris":{"android":"levelo://app?vid=c0cb8f0e-9e76-4df0-9336-f4d5ebc1e527","ios":"levelo://app?vid=c0cb8f0e-9e76-4df0-9336-f4d5ebc1e527"},"vehicle_type_id":"4","last_reported":1687378014,"current_range_meters":6800,"station_id":"ce4bh2h2rcd13ifvqdh0","pricing_plan_id":"free"},{"bike_id":"6e91b9a9-0d12-42d8-88a2-a36791541a8f","system_id":"levelo_inurba_marseille","lat":43.29422,"lon":5.38627,"is_reserved":false,"is_disabled":false,"rental_uris":{"android":"levelo://app?vid=6e91b9a9-0d12-42d8-88a2-a36791541a8f","ios":"levelo://app?vid=6e91b9a9-0d12-42d8-88a2-a36791541a8f"},"vehicle_type_id":"4","last_reported":1687378014,"current_range_meters":12800,"station_id":"ce4bh2h2rcd13ifvqdh0","pricing_plan_id":"free"},{"bike_id":"edebcf39-e8b1-4e13-a803-29bcbf03ec01","system_id":"levelo_inurba_marseille","lat":43.29419,"lon":5.38622,"is_reserved":false,"is_disabled":false,"rental_uris":{"android":"levelo://app?vid=edebcf39-e8b1-4e13-a803-29bcbf03ec01","ios":"levelo://app?vid=edebcf39-e8b1-4e13-a803-29bcbf03ec01"},"vehicle_type_id":"4","last_reported":1687378014,"current_range_meters":12400,"station_id":"ce4bh2h2rcd13ifvqdh0","pricing_plan_id":"free"},{"bike_id":"42e050f0-4374-4c5b-bd00-311b1c76cc9a","system_id":"levelo_inurba_marseille","lat":43.29417,"lon":5.38621,"is_reserved":false,"is_disabled":false,"rental_uris":{"android":"levelo://app?vid=42e050f0-4374-4c5b-bd00-311b1c76cc9a","ios":"levelo://app?vid=42e050f0-4374-4c5b-bd00-311b1c76cc9a"},"vehicle_type_id":"4","last_reported":1687378014,"current_range_meters":24000,"station_id":"ce4bh2h2rcd13ifvqdh0","pricing_plan_id":"free"},{"bike_id":"f667310b-6501-4e7d-b2d6-bbe451adc31e","system_id":"levelo_inurba_marseille","lat":43.2942,"lon":5.38628,"is_reserved":false,"is_disabled":false,"rental_uris":{"android":"levelo://app?vid=f667310b-6501-4e7d-b2d6-bbe451adc31e","ios":"levelo://app?vid=f667310b-6501-4e7d-b2d6-bbe451adc31e"},"vehicle_type_id":"4","last_reported":1687378014,"current_range_meters":1200,"station_id":"ce4bh2h2rcd13ifvqdh0","pricing_plan_id":"free"},{"bike_id":"6aa16cc1-12e8-4dab-805f-fc79b301ab8c","system_id":"levelo_inurba_marseille","lat":43.2942,"lon":5.38628,"is_reserved":false,"is_disabled":false,"rental_uris":{"android":"levelo://app?vid=6aa16cc1-12e8-4dab-805f-fc79b301ab8c","ios":"levelo://app?vid=6aa16cc1-12e8-4dab-805f-fc79b301ab8c"},"vehicle_type_id":"4","last_reported":1687378014,"current_range_meters":4400,"station_id":"ce4bh2h2rcd13ifvqdh0","pricing_plan_id":"free"},{"bike_id":"b878888f-1d5b-41aa-adb9-84081edce53c","system_id":"levelo_inurba_marseille","lat":43.29417,"lon":5.38623,"is_reserved":false,"is_disabled":false,"rental_uris":{"android":"levelo://app?vid=b878888f-1d5b-41aa-adb9-84081edce53c","ios":"levelo://app?vid=b878888f-1d5b-41aa-adb9-84081edce53c"},"vehicle_type_id":"4","last_reported":1687378014,"current_range_meters":9600,"station_id":"ce4bh2h2rcd13ifvqdh0","pricing_plan_id":"free"},{"bike_id":"5f57e0d0-098a-49d9-b2a2-dfb2df87c72c","system_id":"levelo_inurba_marseille","lat":43.29424,"lon":5.38636,"is_reserved":false,"is_disabled":false,"rental_uris":{"android":"levelo://app?vid=5f57e0d0-098a-49d9-b2a2-dfb2df87c72c","ios":"levelo://app?vid=5f57e0d0-098a-49d9-b2a2-dfb2df87c72c"},"vehicle_type_id":"4","last_reported":1687378014,"current_range_meters":24000,"station_id":"ce4bh2h2rcd13ifvqdh0","pricing_plan_id":"free"},{"bike_id":"0609f09b-61e5-40d1-a057-3a5b9409ddd1","system_id":"levelo_inurba_marseille","lat":43.294162,"lon":5.386292,"is_reserved":false,"is_disabled":false,"rental_uris":{"android":"levelo://app?vid=0609f09b-61e5-40d1-a057-3a5b9409ddd1","ios":"levelo://app?vid=0609f09b-61e5-40d1-a057-3a5b9409ddd1"},"vehicle_type_id":"4","last_reported":1687378014,"current_range_meters":30000,"station_id":"ce4bh2h2rcd13ifvqdh0","pricing_plan_id":"free"},{"bike_id":"5062e34e-114b-4cc1-a529-13c661e4d38e","system_id":"levelo_inurba_marseille","lat":43.2942,"lon":5.38629,"is_reserved":false,"is_disabled":false,"rental_uris":{"android":"levelo://app?vid=5062e34e-114b-4cc1-a529-13c661e4d38e","ios":"levelo://app?vid=5062e34e-114b-4cc1-a529-13c661e4d38e"},"vehicle_type_id":"4","last_reported":1687378014,"current_range_meters":10800,"station_id":"ce4bh2h2rcd13ifvqdh0","pricing_plan_id":"free"},{"bike_id":"64cc9ff4-f388-4c76-94dd-9b1f30158f5d","system_id":"levelo_inurba_marseille","lat":43.294162,"lon":5.386292,"is_reserved":false,"is_disabled":false,"rental_uris":{"android":"levelo://app?vid=64cc9ff4-f388-4c76-94dd-9b1f30158f5d","ios":"levelo://app?vid=64cc9ff4-f388-4c76-94dd-9b1f30158f5d"},"vehicle_type_id":"4","last_reported":1687378014,"current_range_meters":28000,"station_id":"ce4bh2h2rcd13ifvqdh0","pricing_plan_id":"free"},{"bike_id":"57bcee52-df44-4da3-9ba0-07c1827de776","system_id":"levelo_inurba_marseille","lat":43.29421,"lon":5.38632,"is_reserved":false,"is_disabled":false,"rental_uris":{"android":"levelo://app?vid=57bcee52-df44-4da3-9ba0-07c1827de776","ios":"levelo://app?vid=57bcee52-df44-4da3-9ba0-07c1827de776"},"vehicle_type_id":"4","last_reported":1687378014,"current_range_meters":13200,"station_id":"ce4bh2h2rcd13ifvqdh0","pricing_plan_id":"free"},{"bike_id":"1fedf06c-b213-4b79-a0d8-fd2d5324150e","system_id":"levelo_inurba_marseille","lat":43.29416,"lon":5.38623,"is_reserved":false,"is_disabled":false,"rental_uris":{"android":"levelo://app?vid=1fedf06c-b213-4b79-a0d8-fd2d5324150e","ios":"levelo://app?vid=1fedf06c-b213-4b79-a0d8-fd2d5324150e"},"vehicle_type_id":"4","last_reported":1687378014,"current_range_meters":16400,"station_id":"ce4bh2h2rcd13ifvqdh0","pricing_plan_id":"free"},{"bike_id":"c4b32fec-5f20-43ac-bd5b-5a6abe744602","system_id":"levelo_inurba_marseille","lat":43.29416,"lon":5.38624,"is_reserved":false,"is_disabled":false,"rental_uris":{"android":"levelo://app?vid=c4b32fec-5f20-43ac-bd5b-5a6abe744602","ios":"levelo://app?vid=c4b32fec-5f20-43ac-bd5b-5a6abe744602"},"vehicle_type_id":"4","last_reported":1687378014,"current_range_meters":800,"station_id":"ce4bh2h2rcd13ifvqdh0","pricing_plan_id":"free"},{"bike_id":"57862e7a-00d5-45c2-83c4-6aef1b9ef88e","system_id":"levelo_inurba_marseille","lat":43.29416,"lon":5.38624,"is_reserved":false,"is_disabled":false,"rental_uris":{"android":"levelo://app?vid=57862e7a-00d5-45c2-83c4-6aef1b9ef88e","ios":"levelo://app?vid=57862e7a-00d5-45c2-83c4-6aef1b9ef88e"},"vehicle_type_id":"4","last_reported":1687378014,"current_range_meters":26000,"station_id":"ce4bh2h2rcd13ifvqdh0","pricing_plan_id":"free"},{"bike_id":"e424b1b1-a4ea-42b4-bf96-2333b919d643","system_id":"levelo_inurba_marseille","lat":43.29417,"lon":5.38626,"is_reserved":false,"is_disabled":false,"rental_uris":{"android":"levelo://app?vid=e424b1b1-a4ea-42b4-bf96-2333b919d643","ios":"levelo://app?vid=e424b1b1-a4ea-42b4-bf96-2333b919d643"},"vehicle_type_id":"4","last_reported":1687378014,"current_range_meters":6000,"station_id":"ce4bh2h2rcd13ifvqdh0","pricing_plan_id":"free"},{"bike_id":"d1c2442e-c65b-429b-b59e-0d2522483ada","system_id":"levelo_inurba_marseille","lat":43.29418,"lon":5.38628,"is_reserved":false,"is_disabled":false,"rental_uris":{"android":"levelo://app?vid=d1c2442e-c65b-429b-b59e-0d2522483ada","ios":"levelo://app?vid=d1c2442e-c65b-429b-b59e-0d2522483ada"},"vehicle_type_id":"4","last_reported":1687378014,"current_range_meters":22400,"station_id":"ce4bh2h2rcd13ifvqdh0","pricing_plan_id":"free"},{"bike_id":"2a5a52b7-74a6-4be3-b55c-5a74621fb274","system_id":"levelo_inurba_marseille","lat":43.29416,"lon":5.38625,"is_reserved":false,"is_disabled":false,"rental_uris":{"android":"levelo://app?vid=2a5a52b7-74a6-4be3-b55c-5a74621fb274","ios":"levelo://app?vid=2a5a52b7-74a6-4be3-b55c-5a74621fb274"},"vehicle_type_id":"4","last_reported":1687378014,"current_range_meters":11600,"station_id":"ce4bh2h2rcd13ifvqdh0","pricing_plan_id":"free"},{"bike_id":"14b8e67a-e07f-486b-9939-48ae979f6bd3","system_id":"levelo_inurba_marseille","lat":43.29417,"lon":5.38627,"is_reserved":false,"is_disabled":false,"rental_uris":{"android":"levelo://app?vid=14b8e67a-e07f-486b-9939-48ae979f6bd3","ios":"levelo://app?vid=14b8e67a-e07f-486b-9939-48ae979f6bd3"},"vehicle_type_id":"4","last_reported":1687378014,"current_range_meters":3600,"station_id":"ce4bh2h2rcd13ifvqdh0","pricing_plan_id":"free"},{"bike_id":"b3f95771-49e1-4cd6-be92-7d54963182fe","system_id":"levelo_inurba_marseille","lat":43.294162,"lon":5.386292,"is_reserved":false,"is_disabled":false,"rental_uris":{"android":"levelo://app?vid=b3f95771-49e1-4cd6-be92-7d54963182fe","ios":"levelo://app?vid=b3f95771-49e1-4cd6-be92-7d54963182fe"},"vehicle_type_id":"4","last_reported":1687378014,"current_range_meters":30400,"station_id":"ce4bh2h2rcd13ifvqdh0","pricing_plan_id":"free"},{"bike_id":"3f8a925a-6a54-4259-a38f-9cf091aab246","system_id":"levelo_inurba_marseille","lat":43.294162,"lon":5.386292,"is_reserved":false,"is_disabled":false,"rental_uris":{"android":"levelo://app?vid=3f8a925a-6a54-4259-a38f-9cf091aab246","ios":"levelo://app?vid=3f8a925a-6a54-4259-a38f-9cf091aab246"},"vehicle_type_id":"4","last_reported":1687378014,"current_range_meters":31200,"station_id":"ce4bh2h2rcd13ifvqdh0","pricing_plan_id":"free"},{"bike_id":"23d93928-84bd-4706-a11b-2eca2dcb0356","system_id":"levelo_inurba_marseille","lat":43.29416,"lon":5.38626,"is_reserved":false,"is_disabled":false,"rental_uris":{"android":"levelo://app?vid=23d93928-84bd-4706-a11b-2eca2dcb0356","ios":"levelo://app?vid=23d93928-84bd-4706-a11b-2eca2dcb0356"},"vehicle_type_id":"4","last_reported":1687378014,"current_range_meters":28000,"station_id":"ce4bh2h2rcd13ifvqdh0","pricing_plan_id":"free"},{"bike_id":"64706ea7-01b4-4c91-89f6-02b74387ac1c","system_id":"levelo_inurba_marseille","lat":43.29418,"lon":5.38631,"is_reserved":false,"is_disabled":false,"rental_uris":{"android":"levelo://app?vid=64706ea7-01b4-4c91-89f6-02b74387ac1c","ios":"levelo://app?vid=64706ea7-01b4-4c91-89f6-02b74387ac1c"},"vehicle_type_id":"4","last_reported":1687378014,"current_range_meters":29200,"station_id":"ce4bh2h2rcd13ifvqdh0","pricing_plan_id":"free"},{"bike_id":"c5148dbc-28dc-440b-a0db-92eb373ff886","system_id":"levelo_inurba_marseille","lat":43.29415,"lon":5.38627,"is_reserved":false,"is_disabled":false,"rental_uris":{"android":"levelo://app?vid=c5148dbc-28dc-440b-a0db-92eb373ff886","ios":"levelo://app?vid=c5148dbc-28dc-440b-a0db-92eb373ff886"},"vehicle_type_id":"4","last_reported":1687378014,"current_range_meters":10000,"station_id":"ce4bh2h2rcd13ifvqdh0","pricing_plan_id":"free"},{"bike_id":"b55d046b-5f0d-4e9c-8522-7de85d7a1c61","system_id":"levelo_inurba_marseille","lat":43.29416,"lon":5.38629,"is_reserved":false,"is_disabled":false,"rental_uris":{"android":"levelo://app?vid=b55d046b-5f0d-4e9c-8522-7de85d7a1c61","ios":"levelo://app?vid=b55d046b-5f0d-4e9c-8522-7de85d7a1c61"},"vehicle_type_id":"4","last_reported":1687378014,"current_range_meters":23200,"station_id":"ce4bh2h2rcd13ifvqdh0","pricing_plan_id":"free"},{"bike_id":"e1e56768-024a-48ae-93bf-9566ae315340","system_id":"levelo_inurba_marseille","lat":43.29412,"lon":5.38622,"is_reserved":false,"is_disabled":false,"rental_uris":{"android":"levelo://app?vid=e1e56768-024a-48ae-93bf-9566ae315340","ios":"levelo://app?vid=e1e56768-024a-48ae-93bf-9566ae315340"},"vehicle_type_id":"4","last_reported":1687378014,"current_range_meters":0,"station_id":"ce4bh2h2rcd13ifvqdh0","pricing_plan_id":"free"},{"bike_id":"73d5f09f-8360-44a1-bccb-3200d57284f1","system_id":"levelo_inurba_marseille","lat":43.294152,"lon":5.386281,"is_reserved":false,"is_disabled":false,"rental_uris":{"android":"levelo://app?vid=73d5f09f-8360-44a1-bccb-3200d57284f1","ios":"levelo://app?vid=73d5f09f-8360-44a1-bccb-3200d57284f1"},"vehicle_type_id":"4","last_reported":1687378014,"current_range_meters":26000,"station_id":"ce4bh2h2rcd13ifvqdh0","pricing_plan_id":"free"},{"bike_id":"4b017146-7c4c-4f06-9fab-b938fea8baa4","system_id":"levelo_inurba_marseille","lat":43.29415,"lon":5.38628,"is_reserved":false,"is_disabled":false,"rental_uris":{"android":"levelo://app?vid=4b017146-7c4c-4f06-9fab-b938fea8baa4","ios":"levelo://app?vid=4b017146-7c4c-4f06-9fab-b938fea8baa4"},"vehicle_type_id":"4","last_reported":1687378014,"current_range_meters":24800,"station_id":"ce4bh2h2rcd13ifvqdh0","pricing_plan_id":"free"},{"bike_id":"7c0fea41-4020-4a7d-9fe2-25924d1f1196","system_id":"levelo_inurba_marseille","lat":43.29417,"lon":5.38632,"is_reserved":false,"is_disabled":false,"rental_uris":{"android":"levelo://app?vid=7c0fea41-4020-4a7d-9fe2-25924d1f1196","ios":"levelo://app?vid=7c0fea41-4020-4a7d-9fe2-25924d1f1196"},"vehicle_type_id":"4","last_reported":1687378014,"current_range_meters":6800,"station_id":"ce4bh2h2rcd13ifvqdh0","pricing_plan_id":"free"},{"bike_id":"e78f9340-6315-4e03-82d2-f65f33ea460a","system_id":"levelo_inurba_marseille","lat":43.29415,"lon":5.38629,"is_reserved":false,"is_disabled":false,"rental_uris":{"android":"levelo://app?vid=e78f9340-6315-4e03-82d2-f65f33ea460a","ios":"levelo://app?vid=e78f9340-6315-4e03-82d2-f65f33ea460a"},"vehicle_type_id":"4","last_reported":1687378014,"current_range_meters":10800,"station_id":"ce4bh2h2rcd13ifvqdh0","pricing_plan_id":"free"},{"bike_id":"57d0fe63-e93a-46ac-b11f-97260719e183","system_id":"levelo_inurba_marseille","lat":43.29414,"lon":5.38629,"is_reserved":false,"is_disabled":false,"rental_uris":{"android":"levelo://app?vid=57d0fe63-e93a-46ac-b11f-97260719e183","ios":"levelo://app?vid=57d0fe63-e93a-46ac-b11f-97260719e183"},"vehicle_type_id":"4","last_reported":1687378014,"current_range_meters":12000,"station_id":"ce4bh2h2rcd13ifvqdh0","pricing_plan_id":"free"},{"bike_id":"ce5f7254-e18e-4b1c-8361-f8d07cc3082c","system_id":"levelo_inurba_marseille","lat":43.29417,"lon":5.38635,"is_reserved":false,"is_disabled":false,"rental_uris":{"android":"levelo://app?vid=ce5f7254-e18e-4b1c-8361-f8d07cc3082c","ios":"levelo://app?vid=ce5f7254-e18e-4b1c-8361-f8d07cc3082c"},"vehicle_type_id":"4","last_reported":1687378014,"current_range_meters":0,"station_id":"ce4bh2h2rcd13ifvqdh0","pricing_plan_id":"free"},{"bike_id":"b143243a-a885-42f6-8e50-f24606ee1f79","system_id":"levelo_inurba_marseille","lat":43.29414,"lon":5.3863,"is_reserved":false,"is_disabled":false,"rental_uris":{"android":"levelo://app?vid=b143243a-a885-42f6-8e50-f24606ee1f79","ios":"levelo://app?vid=b143243a-a885-42f6-8e50-f24606ee1f79"},"vehicle_type_id":"4","last_reported":1687378014,"current_range_meters":7600,"station_id":"ce4bh2h2rcd13ifvqdh0","pricing_plan_id":"free"},{"bike_id":"dcce7b26-512a-433d-bb47-2ef834fc3b6e","system_id":"levelo_inurba_marseille","lat":43.29412,"lon":5.3863,"is_reserved":false,"is_disabled":false,"rental_uris":{"android":"levelo://app?vid=dcce7b26-512a-433d-bb47-2ef834fc3b6e","ios":"levelo://app?vid=dcce7b26-512a-433d-bb47-2ef834fc3b6e"},"vehicle_type_id":"4","last_reported":1687378014,"current_range_meters":800,"station_id":"ce4bh2h2rcd13ifvqdh0","pricing_plan_id":"free"},{"bike_id":"01a1fe22-66a7-4ebf-8fd6-848f1ba2bc05","system_id":"levelo_inurba_marseille","lat":43.2941,"lon":5.38627,"is_reserved":false,"is_disabled":false,"rental_uris":{"android":"levelo://app?vid=01a1fe22-66a7-4ebf-8fd6-848f1ba2bc05","ios":"levelo://app?vid=01a1fe22-66a7-4ebf-8fd6-848f1ba2bc05"},"vehicle_type_id":"4","last_reported":1687378014,"current_range_meters":28400,"station_id":"ce4bh2h2rcd13ifvqdh0","pricing_plan_id":"free"},{"bike_id":"d219d81f-dfee-44da-b923-bb5f0511daa3","system_id":"levelo_inurba_marseille","lat":43.2941,"lon":5.38628,"is_reserved":false,"is_disabled":false,"rental_uris":{"android":"levelo://app?vid=d219d81f-dfee-44da-b923-bb5f0511daa3","ios":"levelo://app?vid=d219d81f-dfee-44da-b923-bb5f0511daa3"},"vehicle_type_id":"4","last_reported":1687378014,"current_range_meters":4400,"station_id":"ce4bh2h2rcd13ifvqdh0","pricing_plan_id":"free"},{"bike_id":"42b283d1-6fd3-493d-9d97-db8f16521b4d","system_id":"levelo_inurba_marseille","lat":43.29411,"lon":5.38637,"is_reserved":false,"is_disabled":false,"rental_uris":{"android":"levelo://app?vid=42b283d1-6fd3-493d-9d97-db8f16521b4d","ios":"levelo://app?vid=42b283d1-6fd3-493d-9d97-db8f16521b4d"},"vehicle_type_id":"4","last_reported":1687378014,"current_range_meters":13200,"station_id":"ce4bh2h2rcd13ifvqdh0","pricing_plan_id":"free"},{"bike_id":"e053e4ef-c64c-49f1-833b-986400307407","system_id":"levelo_inurba_marseille","lat":43.29419,"lon":5.38673,"is_reserved":false,"is_disabled":false,"rental_uris":{"android":"levelo://app?vid=e053e4ef-c64c-49f1-833b-986400307407","ios":"levelo://app?vid=e053e4ef-c64c-49f1-833b-986400307407"},"vehicle_type_id":"4","last_reported":1687378014,"current_range_meters":11200,"station_id":"","pricing_plan_id":"free"},{"bike_id":"4ba4d03f-4bc1-4295-aacb-6342b9361f40","system_id":"levelo_inurba_marseille","lat":43.29279,"lon":5.38432,"is_reserved":false,"is_disabled":false,"rental_uris":{"android":"levelo://app?vid=4ba4d03f-4bc1-4295-aacb-6342b9361f40","ios":"levelo://app?vid=4ba4d03f-4bc1-4295-aacb-6342b9361f40"},"vehicle_type_id":"4","last_reported":1687378014,"current_range_meters":8400,"station_id":"ce4bh3h2rcd13ifvqdo0","pricing_plan_id":"free"},{"bike_id":"c4a01258-d28c-4ec8-a5c0-5185a9110f39","system_id":"levelo_inurba_marseille","lat":43.29271,"lon":5.38436,"is_reserved":false,"is_disabled":false,"rental_uris":{"android":"levelo://app?vid=c4a01258-d28c-4ec8-a5c0-5185a9110f39","ios":"levelo://app?vid=c4a01258-d28c-4ec8-a5c0-5185a9110f39"},"vehicle_type_id":"4","last_reported":1687378014,"current_range_meters":11200,"station_id":"ce4bh692rcd13ifvqea0","pricing_plan_id":"free"},{"bike_id":"e9063e8a-14a8-4cf2-bb3e-d9207b06cbbd","system_id":"levelo_inurba_marseille","lat":43.29262,"lon":5.38426,"is_reserved":false,"is_disabled":false,"rental_uris":{"android":"levelo://app?vid=e9063e8a-14a8-4cf2-bb3e-d9207b06cbbd","ios":"levelo://app?vid=e9063e8a-14a8-4cf2-bb3e-d9207b06cbbd"},"vehicle_type_id":"4","last_reported":1687378014,"current_range_meters":23200,"station_id":"ce4bh692rcd13ifvqea0","pricing_plan_id":"free"},{"bike_id":"9fb4aa87-a12a-4757-bbf8-2596f546a0af","system_id":"levelo_inurba_marseille","lat":43.29267,"lon":5.38438,"is_reserved":false,"is_disabled":false,"rental_uris":{"android":"levelo://app?vid=9fb4aa87-a12a-4757-bbf8-2596f546a0af","ios":"levelo://app?vid=9fb4aa87-a12a-4757-bbf8-2596f546a0af"},"vehicle_type_id":"4","last_reported":1687378014,"current_range_meters":25600,"station_id":"ce4bh692rcd13ifvqea0","pricing_plan_id":"free"},{"bike_id":"fc488e7e-6f76-4707-bf83-66c59215fd0f","system_id":"levelo_inurba_marseille","lat":43.29268,"lon":5.38443,"is_reserved":false,"is_disabled":false,"rental_uris":{"android":"levelo://app?vid=fc488e7e-6f76-4707-bf83-66c59215fd0f","ios":"levelo://app?vid=fc488e7e-6f76-4707-bf83-66c59215fd0f"},"vehicle_type_id":"4","last_reported":1687378014,"current_range_meters":26400,"station_id":"ce4bh692rcd13ifvqea0","pricing_plan_id":"free"},{"bike_id":"b4c0edef-1ef8-4796-8942-022582cba013","system_id":"levelo_inurba_marseille","lat":43.29266,"lon":5.38439,"is_reserved":false,"is_disabled":false,"rental_uris":{"android":"levelo://app?vid=b4c0edef-1ef8-4796-8942-022582cba013","ios":"levelo://app?vid=b4c0edef-1ef8-4796-8942-022582cba013"},"vehicle_type_id":"4","last_reported":1687378014,"current_range_meters":12400,"station_id":"ce4bh692rcd13ifvqea0","pricing_plan_id":"free"},{"bike_id":"23ca2283-490e-4b71-9104-a6093133f6ee","system_id":"levelo_inurba_marseille","lat":43.29267,"lon":5.38444,"is_reserved":false,"is_disabled":false,"rental_uris":{"android":"levelo://app?vid=23ca2283-490e-4b71-9104-a6093133f6ee","ios":"levelo://app?vid=23ca2283-490e-4b71-9104-a6093133f6ee"},"vehicle_type_id":"4","last_reported":1687378014,"current_range_meters":6000,"station_id":"ce4bh692rcd13ifvqea0","pricing_plan_id":"free"},{"bike_id":"e1c6a2fa-0aae-4c58-ab67-13fb47a37c85","system_id":"levelo_inurba_marseille","lat":43.29263,"lon":5.38437,"is_reserved":false,"is_disabled":false,"rental_uris":{"android":"levelo://app?vid=e1c6a2fa-0aae-4c58-ab67-13fb47a37c85","ios":"levelo://app?vid=e1c6a2fa-0aae-4c58-ab67-13fb47a37c85"},"vehicle_type_id":"4","last_reported":1687378014,"current_range_meters":28000,"station_id":"ce4bh692rcd13ifvqea0","pricing_plan_id":"free"},{"bike_id":"32555bbe-e1fa-4bd9-a608-adbb3bb42f62","system_id":"levelo_inurba_marseille","lat":43.29262,"lon":5.38435,"is_reserved":false,"is_disabled":false,"rental_uris":{"android":"levelo://app?vid=32555bbe-e1fa-4bd9-a608-adbb3bb42f62","ios":"levelo://app?vid=32555bbe-e1fa-4bd9-a608-adbb3bb42f62"},"vehicle_type_id":"4","last_reported":1687378014,"current_range_meters":10400,"station_id":"ce4bh692rcd13ifvqea0","pricing_plan_id":"free"},{"bike_id":"ac22395e-5e2c-451e-963f-06c89528b5fc","system_id":"levelo_inurba_marseille","lat":43.29262,"lon":5.38435,"is_reserved":false,"is_disabled":false,"rental_uris":{"android":"levelo://app?vid=ac22395e-5e2c-451e-963f-06c89528b5fc","ios":"levelo://app?vid=ac22395e-5e2c-451e-963f-06c89528b5fc"},"vehicle_type_id":"4","last_reported":1687378014,"current_range_meters":0,"station_id":"ce4bh692rcd13ifvqea0","pricing_plan_id":"free"},{"bike_id":"35f9666b-5857-43d6-9d89-9c14463df7dc","system_id":"levelo_inurba_marseille","lat":43.29259,"lon":5.3843,"is_reserved":false,"is_disabled":false,"rental_uris":{"android":"levelo://app?vid=35f9666b-5857-43d6-9d89-9c14463df7dc","ios":"levelo://app?vid=35f9666b-5857-43d6-9d89-9c14463df7dc"},"vehicle_type_id":"4","last_reported":1687378014,"current_range_meters":10000,"station_id":"ce4bh692rcd13ifvqea0","pricing_plan_id":"free"},{"bike_id":"02e3b4ec-35f2-40da-83ab-70afa297fcff","system_id":"levelo_inurba_marseille","lat":43.29258,"lon":5.38428,"is_reserved":false,"is_disabled":false,"rental_uris":{"android":"levelo://app?vid=02e3b4ec-35f2-40da-83ab-70afa297fcff","ios":"levelo://app?vid=02e3b4ec-35f2-40da-83ab-70afa297fcff"},"vehicle_type_id":"4","last_reported":1687378014,"current_range_meters":6400,"station_id":"ce4bh692rcd13ifvqea0","pricing_plan_id":"free"},{"bike_id":"cf6e217a-318a-4656-bed9-192447dbf053","system_id":"levelo_inurba_marseille","lat":43.29262,"lon":5.38437,"is_reserved":false,"is_disabled":false,"rental_uris":{"android":"levelo://app?vid=cf6e217a-318a-4656-bed9-192447dbf053","ios":"levelo://app?vid=cf6e217a-318a-4656-bed9-192447dbf053"},"vehicle_type_id":"4","last_reported":1687378014,"current_range_meters":1600,"station_id":"ce4bh692rcd13ifvqea0","pricing_plan_id":"free"},{"bike_id":"51c94ac5-ad35-4d1f-a04a-86afb72fa89e","system_id":"levelo_inurba_marseille","lat":43.29265,"lon":5.38444,"is_reserved":false,"is_disabled":false,"rental_uris":{"android":"levelo://app?vid=51c94ac5-ad35-4d1f-a04a-86afb72fa89e","ios":"levelo://app?vid=51c94ac5-ad35-4d1f-a04a-86afb72fa89e"},"vehicle_type_id":"4","last_reported":1687378014,"current_range_meters":23600,"station_id":"ce4bh692rcd13ifvqea0","pricing_plan_id":"free"},{"bike_id":"14532a89-8064-4eb5-ba54-bf8ebaef3f4d","system_id":"levelo_inurba_marseille","lat":43.29266,"lon":5.38447,"is_reserved":false,"is_disabled":false,"rental_uris":{"android":"levelo://app?vid=14532a89-8064-4eb5-ba54-bf8ebaef3f4d","ios":"levelo://app?vid=14532a89-8064-4eb5-ba54-bf8ebaef3f4d"},"vehicle_type_id":"4","last_reported":1687378014,"current_range_meters":12400,"station_id":"ce4bh692rcd13ifvqea0","pricing_plan_id":"free"},{"bike_id":"8c9bc9c1-6de4-44ba-9306-6fcecdbb6ea7","system_id":"levelo_inurba_marseille","lat":43.292644,"lon":5.384257,"is_reserved":false,"is_disabled":false,"rental_uris":{"android":"levelo://app?vid=8c9bc9c1-6de4-44ba-9306-6fcecdbb6ea7","ios":"levelo://app?vid=8c9bc9c1-6de4-44ba-9306-6fcecdbb6ea7"},"vehicle_type_id":"4","last_reported":1687378014,"current_range_meters":24400,"station_id":"ce4bh692rcd13ifvqea0","pricing_plan_id":"free"},{"bike_id":"1ee039c9-6f9e-4b72-b23e-31b9d22e4229","system_id":"levelo_inurba_marseille","lat":43.292644,"lon":5.384257,"is_reserved":false,"is_disabled":false,"rental_uris":{"android":"levelo://app?vid=1ee039c9-6f9e-4b72-b23e-31b9d22e4229","ios":"levelo://app?vid=1ee039c9-6f9e-4b72-b23e-31b9d22e4229"},"vehicle_type_id":"4","last_reported":1687378014,"current_range_meters":13600,"station_id":"ce4bh692rcd13ifvqea0","pricing_plan_id":"free"},{"bike_id":"b369a2b4-c8f6-4cee-b117-b7fd1b804f87","system_id":"levelo_inurba_marseille","lat":43.292644,"lon":5.384257,"is_reserved":false,"is_disabled":false,"rental_uris":{"android":"levelo://app?vid=b369a2b4-c8f6-4cee-b117-b7fd1b804f87","ios":"levelo://app?vid=b369a2b4-c8f6-4cee-b117-b7fd1b804f87"},"vehicle_type_id":"4","last_reported":1687378014,"current_range_meters":3600,"station_id":"ce4bh692rcd13ifvqea0","pricing_plan_id":"free"},{"bike_id":"38eb09af-7166-42b9-865e-84246929498f","system_id":"levelo_inurba_marseille","lat":43.292644,"lon":5.384257,"is_reserved":false,"is_disabled":false,"rental_uris":{"android":"levelo://app?vid=38eb09af-7166-42b9-865e-84246929498f","ios":"levelo://app?vid=38eb09af-7166-42b9-865e-84246929498f"},"vehicle_type_id":"4","last_reported":1687378014,"current_range_meters":31600,"station_id":"ce4bh692rcd13ifvqea0","pricing_plan_id":"free"},{"bike_id":"90f3de37-aa8b-4550-b80d-2014e28238f4","system_id":"levelo_inurba_marseille","lat":43.29263,"lon":5.38444,"is_reserved":false,"is_disabled":false,"rental_uris":{"android":"levelo://app?vid=90f3de37-aa8b-4550-b80d-2014e28238f4","ios":"levelo://app?vid=90f3de37-aa8b-4550-b80d-2014e28238f4"},"vehicle_type_id":"4","last_reported":1687378014,"current_range_meters":4400,"station_id":"ce4bh692rcd13ifvqea0","pricing_plan_id":"free"},{"bike_id":"df3dbf6a-2673-4249-aaa6-3bd15b936154","system_id":"levelo_inurba_marseille","lat":43.29262,"lon":5.38442,"is_reserved":false,"is_disabled":false,"rental_uris":{"android":"levelo://app?vid=df3dbf6a-2673-4249-aaa6-3bd15b936154","ios":"levelo://app?vid=df3dbf6a-2673-4249-aaa6-3bd15b936154"},"vehicle_type_id":"4","last_reported":1687378014,"current_range_meters":2800,"station_id":"ce4bh692rcd13ifvqea0","pricing_plan_id":"free"},{"bike_id":"14b18178-757e-4043-82d0-ea896bbc9fdd","system_id":"levelo_inurba_marseille","lat":43.29259,"lon":5.38436,"is_reserved":false,"is_disabled":false,"rental_uris":{"android":"levelo://app?vid=14b18178-757e-4043-82d0-ea896bbc9fdd","ios":"levelo://app?vid=14b18178-757e-4043-82d0-ea896bbc9fdd"},"vehicle_type_id":"4","last_reported":1687378014,"current_range_meters":2400,"station_id":"ce4bh692rcd13ifvqea0","pricing_plan_id":"free"},{"bike_id":"109df3f3-164e-4fc7-8886-65748a5bf27e","system_id":"levelo_inurba_marseille","lat":43.292644,"lon":5.384257,"is_reserved":false,"is_disabled":false,"rental_uris":{"android":"levelo://app?vid=109df3f3-164e-4fc7-8886-65748a5bf27e","ios":"levelo://app?vid=109df3f3-164e-4fc7-8886-65748a5bf27e"},"vehicle_type_id":"4","last_reported":1687378014,"current_range_meters":31200,"station_id":"ce4bh692rcd13ifvqea0","pricing_plan_id":"free"},{"bike_id":"4c1f562c-1e6e-452d-861d-bef18a603830","system_id":"levelo_inurba_marseille","lat":43.29264,"lon":5.38447,"is_reserved":false,"is_disabled":false,"rental_uris":{"android":"levelo://app?vid=4c1f562c-1e6e-452d-861d-bef18a603830","ios":"levelo://app?vid=4c1f562c-1e6e-452d-861d-bef18a603830"},"vehicle_type_id":"4","last_reported":1687378014,"current_range_meters":21600,"station_id":"ce4bh692rcd13ifvqea0","pricing_plan_id":"free"},{"bike_id":"b29f1c01-3d72-404c-9db8-3f4df4809dd2","system_id":"levelo_inurba_marseille","lat":43.29258,"lon":5.38435,"is_reserved":false,"is_disabled":false,"rental_uris":{"android":"levelo://app?vid=b29f1c01-3d72-404c-9db8-3f4df4809dd2","ios":"levelo://app?vid=b29f1c01-3d72-404c-9db8-3f4df4809dd2"},"vehicle_type_id":"4","last_reported":1687378014,"current_range_meters":6800,"station_id":"ce4bh692rcd13ifvqea0","pricing_plan_id":"free"},{"bike_id":"0d99b6ac-c0de-4800-8708-aefea650cd3e","system_id":"levelo_inurba_marseille","lat":43.29256,"lon":5.38431,"is_reserved":false,"is_disabled":false,"rental_uris":{"android":"levelo://app?vid=0d99b6ac-c0de-4800-8708-aefea650cd3e","ios":"levelo://app?vid=0d99b6ac-c0de-4800-8708-aefea650cd3e"},"vehicle_type_id":"4","last_reported":1687378014,"current_range_meters":11600,"station_id":"ce4bh692rcd13ifvqea0","pricing_plan_id":"free"},{"bike_id":"c9698bab-c312-4c03-a230-4429b6a655f2","system_id":"levelo_inurba_marseille","lat":43.292644,"lon":5.384257,"is_reserved":false,"is_disabled":false,"rental_uris":{"android":"levelo://app?vid=c9698bab-c312-4c03-a230-4429b6a655f2","ios":"levelo://app?vid=c9698bab-c312-4c03-a230-4429b6a655f2"},"vehicle_type_id":"4","last_reported":1687378014,"current_range_meters":17200,"station_id":"ce4bh692rcd13ifvqea0","pricing_plan_id":"free"},{"bike_id":"0978ea99-9dbd-4d3b-8e4b-741b353efd2f","system_id":"levelo_inurba_marseille","lat":43.292644,"lon":5.384257,"is_reserved":false,"is_disabled":false,"rental_uris":{"android":"levelo://app?vid=0978ea99-9dbd-4d3b-8e4b-741b353efd2f","ios":"levelo://app?vid=0978ea99-9dbd-4d3b-8e4b-741b353efd2f"},"vehicle_type_id":"4","last_reported":1687378014,"current_range_meters":31200,"station_id":"ce4bh692rcd13ifvqea0","pricing_plan_id":"free"},{"bike_id":"a6c5255c-0785-4fc8-9c59-8aa23a423d09","system_id":"levelo_inurba_marseille","lat":43.29259,"lon":5.38441,"is_reserved":false,"is_disabled":false,"rental_uris":{"android":"levelo://app?vid=a6c5255c-0785-4fc8-9c59-8aa23a423d09","ios":"levelo://app?vid=a6c5255c-0785-4fc8-9c59-8aa23a423d09"},"vehicle_type_id":"4","last_reported":1687378014,"current_range_meters":0,"station_id":"ce4bh692rcd13ifvqea0","pricing_plan_id":"free"},{"bike_id":"d13e0a07-bfa1-44e1-838e-78d2e9ce12e1","system_id":"levelo_inurba_marseille","lat":43.29259,"lon":5.38441,"is_reserved":false,"is_disabled":false,"rental_uris":{"android":"levelo://app?vid=d13e0a07-bfa1-44e1-838e-78d2e9ce12e1","ios":"levelo://app?vid=d13e0a07-bfa1-44e1-838e-78d2e9ce12e1"},"vehicle_type_id":"4","last_reported":1687378014,"current_range_meters":15200,"station_id":"ce4bh692rcd13ifvqea0","pricing_plan_id":"free"},{"bike_id":"a2aa81d1-096b-46e1-98d5-ab737d552664","system_id":"levelo_inurba_marseille","lat":43.29257,"lon":5.38437,"is_reserved":false,"is_disabled":false,"rental_uris":{"android":"levelo://app?vid=a2aa81d1-096b-46e1-98d5-ab737d552664","ios":"levelo://app?vid=a2aa81d1-096b-46e1-98d5-ab737d552664"},"vehicle_type_id":"4","last_reported":1687378014,"current_range_meters":0,"station_id":"ce4bh692rcd13ifvqea0","pricing_plan_id":"free"},{"bike_id":"4251fb05-98df-4c61-8945-a5dc7fa0e10b","system_id":"levelo_inurba_marseille","lat":43.29259,"lon":5.38442,"is_reserved":false,"is_disabled":false,"rental_uris":{"android":"levelo://app?vid=4251fb05-98df-4c61-8945-a5dc7fa0e10b","ios":"levelo://app?vid=4251fb05-98df-4c61-8945-a5dc7fa0e10b"},"vehicle_type_id":"4","last_reported":1687378014,"current_range_meters":22400,"station_id":"ce4bh692rcd13ifvqea0","pricing_plan_id":"free"},{"bike_id":"0bd2a4f2-7800-4877-bb9c-27a6f6711edb","system_id":"levelo_inurba_marseille","lat":43.292644,"lon":5.384257,"is_reserved":false,"is_disabled":false,"rental_uris":{"android":"levelo://app?vid=0bd2a4f2-7800-4877-bb9c-27a6f6711edb","ios":"levelo://app?vid=0bd2a4f2-7800-4877-bb9c-27a6f6711edb"},"vehicle_type_id":"4","last_reported":1687378014,"current_range_meters":24400,"station_id":"ce4bh692rcd13ifvqea0","pricing_plan_id":"free"},{"bike_id":"cb380ef2-11e7-48f7-b652-7c36d461954a","system_id":"levelo_inurba_marseille","lat":43.29259,"lon":5.38444,"is_reserved":false,"is_disabled":false,"rental_uris":{"android":"levelo://app?vid=cb380ef2-11e7-48f7-b652-7c36d461954a","ios":"levelo://app?vid=cb380ef2-11e7-48f7-b652-7c36d461954a"},"vehicle_type_id":"4","last_reported":1687378014,"current_range_meters":10800,"station_id":"ce4bh692rcd13ifvqea0","pricing_plan_id":"free"},{"bike_id":"c0ca2879-9e77-4315-b57e-b7057524210d","system_id":"levelo_inurba_marseille","lat":43.292644,"lon":5.384257,"is_reserved":false,"is_disabled":false,"rental_uris":{"android":"levelo://app?vid=c0ca2879-9e77-4315-b57e-b7057524210d","ios":"levelo://app?vid=c0ca2879-9e77-4315-b57e-b7057524210d"},"vehicle_type_id":"4","last_reported":1687378014,"current_range_meters":16800,"station_id":"ce4bh692rcd13ifvqea0","pricing_plan_id":"free"},{"bike_id":"d9c36832-856e-4a3e-9028-426dee8d3fa3","system_id":"levelo_inurba_marseille","lat":43.292644,"lon":5.384257,"is_reserved":false,"is_disabled":false,"rental_uris":{"android":"levelo://app?vid=d9c36832-856e-4a3e-9028-426dee8d3fa3","ios":"levelo://app?vid=d9c36832-856e-4a3e-9028-426dee8d3fa3"},"vehicle_type_id":"4","last_reported":1687378014,"current_range_meters":27600,"station_id":"ce4bh692rcd13ifvqea0","pricing_plan_id":"free"},{"bike_id":"832cc51b-04ef-45c8-97af-9fce4f12f8c4","system_id":"levelo_inurba_marseille","lat":43.29254,"lon":5.38438,"is_reserved":false,"is_disabled":false,"rental_uris":{"android":"levelo://app?vid=832cc51b-04ef-45c8-97af-9fce4f12f8c4","ios":"levelo://app?vid=832cc51b-04ef-45c8-97af-9fce4f12f8c4"},"vehicle_type_id":"4","last_reported":1687378014,"current_range_meters":25200,"station_id":"ce4bh692rcd13ifvqea0","pricing_plan_id":"free"},{"bike_id":"810ccb79-f33e-49c8-859b-4346b58b24e8","system_id":"levelo_inurba_marseille","lat":43.29256,"lon":5.38443,"is_reserved":false,"is_disabled":false,"rental_uris":{"android":"levelo://app?vid=810ccb79-f33e-49c8-859b-4346b58b24e8","ios":"levelo://app?vid=810ccb79-f33e-49c8-859b-4346b58b24e8"},"vehicle_type_id":"4","last_reported":1687378014,"current_range_meters":21600,"station_id":"ce4bh692rcd13ifvqea0","pricing_plan_id":"free"},{"bike_id":"a0c0fda6-17ac-4142-8682-e7bf68e5abe5","system_id":"levelo_inurba_marseille","lat":43.29262,"lon":5.38456,"is_reserved":false,"is_disabled":false,"rental_uris":{"android":"levelo://app?vid=a0c0fda6-17ac-4142-8682-e7bf68e5abe5","ios":"levelo://app?vid=a0c0fda6-17ac-4142-8682-e7bf68e5abe5"},"vehicle_type_id":"4","last_reported":1687378014,"current_range_meters":2800,"station_id":"ce4bh692rcd13ifvqea0","pricing_plan_id":"free"},{"bike_id":"7dbaf29e-79cd-4fe5-8c11-f79d0a255981","system_id":"levelo_inurba_marseille","lat":43.2926,"lon":5.38452,"is_reserved":false,"is_disabled":false,"rental_uris":{"android":"levelo://app?vid=7dbaf29e-79cd-4fe5-8c11-f79d0a255981","ios":"levelo://app?vid=7dbaf29e-79cd-4fe5-8c11-f79d0a255981"},"vehicle_type_id":"4","last_reported":1687378014,"current_range_meters":5200,"station_id":"ce4bh692rcd13ifvqea0","pricing_plan_id":"free"},{"bike_id":"326e9666-bb00-48af-bec6-6abb393147f9","system_id":"levelo_inurba_marseille","lat":43.29255,"lon":5.38442,"is_reserved":false,"is_disabled":false,"rental_uris":{"android":"levelo://app?vid=326e9666-bb00-48af-bec6-6abb393147f9","ios":"levelo://app?vid=326e9666-bb00-48af-bec6-6abb393147f9"},"vehicle_type_id":"4","last_reported":1687378014,"current_range_meters":11600,"station_id":"ce4bh692rcd13ifvqea0","pricing_plan_id":"free"},{"bike_id":"901b023e-9aff-49e7-8cd5-710887367712","system_id":"levelo_inurba_marseille","lat":43.292644,"lon":5.384257,"is_reserved":false,"is_disabled":false,"rental_uris":{"android":"levelo://app?vid=901b023e-9aff-49e7-8cd5-710887367712","ios":"levelo://app?vid=901b023e-9aff-49e7-8cd5-710887367712"},"vehicle_type_id":"4","last_reported":1687378014,"current_range_meters":24800,"station_id":"ce4bh692rcd13ifvqea0","pricing_plan_id":"free"},{"bike_id":"bf99b357-1923-4700-b7f6-4cadffdcae65","system_id":"levelo_inurba_marseille","lat":43.29248,"lon":5.38446,"is_reserved":false,"is_disabled":false,"rental_uris":{"android":"levelo://app?vid=bf99b357-1923-4700-b7f6-4cadffdcae65","ios":"levelo://app?vid=bf99b357-1923-4700-b7f6-4cadffdcae65"},"vehicle_type_id":"4","last_reported":1687378014,"current_range_meters":400,"station_id":"ce4bh692rcd13ifvqea0","pricing_plan_id":"free"},{"bike_id":"59d125af-16ef-419c-b0b1-36a03e1202e7","system_id":"levelo_inurba_marseille","lat":43.3304,"lon":5.38918,"is_reserved":false,"is_disabled":false,"rental_uris":{"android":"levelo://app?vid=59d125af-16ef-419c-b0b1-36a03e1202e7","ios":"levelo://app?vid=59d125af-16ef-419c-b0b1-36a03e1202e7"},"vehicle_type_id":"4","last_reported":1687378014,"current_range_meters":4800,"station_id":"ce4bhr92rcd13ifvqhrg","pricing_plan_id":"free"},{"bike_id":"6e9ab64a-21ff-424e-9abf-af75b7275370","system_id":"levelo_inurba_marseille","lat":43.290104,"lon":5.356111,"is_reserved":false,"is_disabled":false,"rental_uris":{"android":"levelo://app?vid=6e9ab64a-21ff-424e-9abf-af75b7275370","ios":"levelo://app?vid=6e9ab64a-21ff-424e-9abf-af75b7275370"},"vehicle_type_id":"4","last_reported":1687378014,"current_range_meters":16400,"station_id":"ce4bhb92rcd13ifvqen0","pricing_plan_id":"free"},{"bike_id":"64d533f9-d91b-46e3-b745-e7bd18ed4968","system_id":"levelo_inurba_marseille","lat":43.33043,"lon":5.3892,"is_reserved":false,"is_disabled":false,"rental_uris":{"android":"levelo://app?vid=64d533f9-d91b-46e3-b745-e7bd18ed4968","ios":"levelo://app?vid=64d533f9-d91b-46e3-b745-e7bd18ed4968"},"vehicle_type_id":"4","last_reported":1687378014,"current_range_meters":26400,"station_id":"ce4bhr92rcd13ifvqhrg","pricing_plan_id":"free"},{"bike_id":"e1a45b0a-bebd-4c51-9017-f46b52c8e6b7","system_id":"levelo_inurba_marseille","lat":43.33043,"lon":5.38922,"is_reserved":false,"is_disabled":false,"rental_uris":{"android":"levelo://app?vid=e1a45b0a-bebd-4c51-9017-f46b52c8e6b7","ios":"levelo://app?vid=e1a45b0a-bebd-4c51-9017-f46b52c8e6b7"},"vehicle_type_id":"4","last_reported":1687378014,"current_range_meters":0,"station_id":"ce4bhr92rcd13ifvqhrg","pricing_plan_id":"free"},{"bike_id":"b801b045-a8d8-4e30-9ba9-7971220e1917","system_id":"levelo_inurba_marseille","lat":43.33045,"lon":5.38919,"is_reserved":false,"is_disabled":false,"rental_uris":{"android":"levelo://app?vid=b801b045-a8d8-4e30-9ba9-7971220e1917","ios":"levelo://app?vid=b801b045-a8d8-4e30-9ba9-7971220e1917"},"vehicle_type_id":"4","last_reported":1687378014,"current_range_meters":11600,"station_id":"ce4bhr92rcd13ifvqhrg","pricing_plan_id":"free"},{"bike_id":"82d6893e-eccb-4c72-a658-fa65b60e4f4a","system_id":"levelo_inurba_marseille","lat":43.33044,"lon":5.38921,"is_reserved":false,"is_disabled":false,"rental_uris":{"android":"levelo://app?vid=82d6893e-eccb-4c72-a658-fa65b60e4f4a","ios":"levelo://app?vid=82d6893e-eccb-4c72-a658-fa65b60e4f4a"},"vehicle_type_id":"4","last_reported":1687378014,"current_range_meters":0,"station_id":"ce4bhr92rcd13ifvqhrg","pricing_plan_id":"free"},{"bike_id":"b15e4720-064f-4348-a4b0-3ecc37aac63a","system_id":"levelo_inurba_marseille","lat":43.2898,"lon":5.37841,"is_reserved":false,"is_disabled":false,"rental_uris":{"android":"levelo://app?vid=b15e4720-064f-4348-a4b0-3ecc37aac63a","ios":"levelo://app?vid=b15e4720-064f-4348-a4b0-3ecc37aac63a"},"vehicle_type_id":"4","last_reported":1687378014,"current_range_meters":19600,"station_id":"ce4bh9p2rcd13ifvqed0","pricing_plan_id":"free"},{"bike_id":"5863179b-f4ba-4b0f-825a-f866a169f286","system_id":"levelo_inurba_marseille","lat":43.295169,"lon":5.390426,"is_reserved":false,"is_disabled":false,"rental_uris":{"android":"levelo://app?vid=5863179b-f4ba-4b0f-825a-f866a169f286","ios":"levelo://app?vid=5863179b-f4ba-4b0f-825a-f866a169f286"},"vehicle_type_id":"4","last_reported":1687378014,"current_range_meters":20400,"station_id":"ce4bh3p2rcd13ifvqdp0","pricing_plan_id":"free"},{"bike_id":"279d13a1-556e-4d90-a040-29b8c97c3e30","system_id":"levelo_inurba_marseille","lat":43.297815,"lon":5.393548,"is_reserved":false,"is_disabled":false,"rental_uris":{"android":"levelo://app?vid=279d13a1-556e-4d90-a040-29b8c97c3e30","ios":"levelo://app?vid=279d13a1-556e-4d90-a040-29b8c97c3e30"},"vehicle_type_id":"4","last_reported":1687378014,"current_range_meters":2800,"station_id":"chh1huq6cuj3fo74tm60","pricing_plan_id":"free"},{"bike_id":"91e48ac0-582c-43ad-86a1-c147fe8d1c1c","system_id":"levelo_inurba_marseille","lat":43.29523,"lon":5.39037,"is_reserved":false,"is_disabled":false,"rental_uris":{"android":"levelo://app?vid=91e48ac0-582c-43ad-86a1-c147fe8d1c1c","ios":"levelo://app?vid=91e48ac0-582c-43ad-86a1-c147fe8d1c1c"},"vehicle_type_id":"4","last_reported":1687378014,"current_range_meters":4800,"station_id":"ce4bh3p2rcd13ifvqdp0","pricing_plan_id":"free"},{"bike_id":"66599bda-a09c-4a7e-8548-b70df6f13e1d","system_id":"levelo_inurba_marseille","lat":43.29522,"lon":5.39036,"is_reserved":false,"is_disabled":false,"rental_uris":{"android":"levelo://app?vid=66599bda-a09c-4a7e-8548-b70df6f13e1d","ios":"levelo://app?vid=66599bda-a09c-4a7e-8548-b70df6f13e1d"},"vehicle_type_id":"4","last_reported":1687378014,"current_range_meters":24400,"station_id":"ce4bh3p2rcd13ifvqdp0","pricing_plan_id":"free"},{"bike_id":"4325dade-c450-4452-851f-7375b724f6c1","system_id":"levelo_inurba_marseille","lat":43.295169,"lon":5.390426,"is_reserved":false,"is_disabled":false,"rental_uris":{"android":"levelo://app?vid=4325dade-c450-4452-851f-7375b724f6c1","ios":"levelo://app?vid=4325dade-c450-4452-851f-7375b724f6c1"},"vehicle_type_id":"4","last_reported":1687378014,"current_range_meters":10800,"station_id":"ce4bh3p2rcd13ifvqdp0","pricing_plan_id":"free"},{"bike_id":"14cf9a3d-ae7e-420d-bc4a-1d3d444c2deb","system_id":"levelo_inurba_marseille","lat":43.2952,"lon":5.39034,"is_reserved":false,"is_disabled":false,"rental_uris":{"android":"levelo://app?vid=14cf9a3d-ae7e-420d-bc4a-1d3d444c2deb","ios":"levelo://app?vid=14cf9a3d-ae7e-420d-bc4a-1d3d444c2deb"},"vehicle_type_id":"4","last_reported":1687378014,"current_range_meters":16800,"station_id":"ce4bh3p2rcd13ifvqdp0","pricing_plan_id":"free"},{"bike_id":"2bae6adf-ba5a-49d2-9a4e-f594fc6656bc","system_id":"levelo_inurba_marseille","lat":43.295169,"lon":5.390426,"is_reserved":false,"is_disabled":false,"rental_uris":{"android":"levelo://app?vid=2bae6adf-ba5a-49d2-9a4e-f594fc6656bc","ios":"levelo://app?vid=2bae6adf-ba5a-49d2-9a4e-f594fc6656bc"},"vehicle_type_id":"4","last_reported":1687378014,"current_range_meters":10800,"station_id":"ce4bh3p2rcd13ifvqdp0","pricing_plan_id":"free"},{"bike_id":"33939a8c-7a4e-4acc-ad6e-6a2062a6416d","system_id":"levelo_inurba_marseille","lat":43.289741,"lon":5.378306,"is_reserved":false,"is_disabled":false,"rental_uris":{"android":"levelo://app?vid=33939a8c-7a4e-4acc-ad6e-6a2062a6416d","ios":"levelo://app?vid=33939a8c-7a4e-4acc-ad6e-6a2062a6416d"},"vehicle_type_id":"4","last_reported":1687378014,"current_range_meters":7200,"station_id":"ce4bh9p2rcd13ifvqed0","pricing_plan_id":"free"},{"bike_id":"54d1de27-0ed9-43da-8fd1-13cf999cfd37","system_id":"levelo_inurba_marseille","lat":43.29527,"lon":5.39055,"is_reserved":false,"is_disabled":false,"rental_uris":{"android":"levelo://app?vid=54d1de27-0ed9-43da-8fd1-13cf999cfd37","ios":"levelo://app?vid=54d1de27-0ed9-43da-8fd1-13cf999cfd37"},"vehicle_type_id":"4","last_reported":1687378014,"current_range_meters":21600,"station_id":"ce4bh3p2rcd13ifvqdp0","pricing_plan_id":"free"},{"bike_id":"3e6804ae-e1b1-4f85-8dd1-78d10b74b49a","system_id":"levelo_inurba_marseille","lat":43.295169,"lon":5.390426,"is_reserved":false,"is_disabled":false,"rental_uris":{"android":"levelo://app?vid=3e6804ae-e1b1-4f85-8dd1-78d10b74b49a","ios":"levelo://app?vid=3e6804ae-e1b1-4f85-8dd1-78d10b74b49a"},"vehicle_type_id":"4","last_reported":1687378014,"current_range_meters":12400,"station_id":"ce4bh3p2rcd13ifvqdp0","pricing_plan_id":"free"},{"bike_id":"48be1337-18bb-4f5b-9f4a-f348ffa82576","system_id":"levelo_inurba_marseille","lat":43.295169,"lon":5.390426,"is_reserved":false,"is_disabled":false,"rental_uris":{"android":"levelo://app?vid=48be1337-18bb-4f5b-9f4a-f348ffa82576","ios":"levelo://app?vid=48be1337-18bb-4f5b-9f4a-f348ffa82576"},"vehicle_type_id":"4","last_reported":1687378014,"current_range_meters":30800,"station_id":"ce4bh3p2rcd13ifvqdp0","pricing_plan_id":"free"},{"bike_id":"f1de422c-b195-4920-8931-6151620bc1cc","system_id":"levelo_inurba_marseille","lat":43.295169,"lon":5.390426,"is_reserved":false,"is_disabled":false,"rental_uris":{"android":"levelo://app?vid=f1de422c-b195-4920-8931-6151620bc1cc","ios":"levelo://app?vid=f1de422c-b195-4920-8931-6151620bc1cc"},"vehicle_type_id":"4","last_reported":1687378014,"current_range_meters":28800,"station_id":"ce4bh3p2rcd13ifvqdp0","pricing_plan_id":"free"},{"bike_id":"5b9d18e3-c70f-48a1-ac62-fdc91cd6eace","system_id":"levelo_inurba_marseille","lat":43.295169,"lon":5.390426,"is_reserved":false,"is_disabled":false,"rental_uris":{"android":"levelo://app?vid=5b9d18e3-c70f-48a1-ac62-fdc91cd6eace","ios":"levelo://app?vid=5b9d18e3-c70f-48a1-ac62-fdc91cd6eace"},"vehicle_type_id":"4","last_reported":1687378014,"current_range_meters":28400,"station_id":"ce4bh3p2rcd13ifvqdp0","pricing_plan_id":"free"},{"bike_id":"f6f93c8e-5d30-4551-8853-89439f72f64b","system_id":"levelo_inurba_marseille","lat":43.29023,"lon":5.38133,"is_reserved":false,"is_disabled":false,"rental_uris":{"android":"levelo://app?vid=f6f93c8e-5d30-4551-8853-89439f72f64b","ios":"levelo://app?vid=f6f93c8e-5d30-4551-8853-89439f72f64b"},"vehicle_type_id":"4","last_reported":1687378014,"current_range_meters":17600,"station_id":"ce4bh4p2rcd13ifvqe1g","pricing_plan_id":"free"},{"bike_id":"449ef148-30cd-442e-a082-b1e22e7b3327","system_id":"levelo_inurba_marseille","lat":43.29158,"lon":5.38497,"is_reserved":false,"is_disabled":false,"rental_uris":{"android":"levelo://app?vid=449ef148-30cd-442e-a082-b1e22e7b3327","ios":"levelo://app?vid=449ef148-30cd-442e-a082-b1e22e7b3327"},"vehicle_type_id":"4","last_reported":1687378014,"current_range_meters":13200,"station_id":"","pricing_plan_id":"free"},{"bike_id":"85121ec8-4bc0-4c47-9d57-79b23d6d4696","system_id":"levelo_inurba_marseille","lat":43.28853,"lon":5.35862,"is_reserved":false,"is_disabled":false,"rental_uris":{"android":"levelo://app?vid=85121ec8-4bc0-4c47-9d57-79b23d6d4696","ios":"levelo://app?vid=85121ec8-4bc0-4c47-9d57-79b23d6d4696"},"vehicle_type_id":"4","last_reported":1687378014,"current_range_meters":20400,"station_id":"ce4bhb12rcd13ifvqem0","pricing_plan_id":"free"},{"bike_id":"b0bd3bcb-bd35-4f75-8285-8f528f09b8d5","system_id":"levelo_inurba_marseille","lat":43.337575,"lon":5.374489,"is_reserved":false,"is_disabled":false,"rental_uris":{"android":"levelo://app?vid=b0bd3bcb-bd35-4f75-8285-8f528f09b8d5","ios":"levelo://app?vid=b0bd3bcb-bd35-4f75-8285-8f528f09b8d5"},"vehicle_type_id":"4","last_reported":1687378014,"current_range_meters":18800,"station_id":"","pricing_plan_id":"free"},{"bike_id":"e98fd470-ba5c-4335-83c7-0d48f777407a","system_id":"levelo_inurba_marseille","lat":43.33764,"lon":5.37454,"is_reserved":false,"is_disabled":false,"rental_uris":{"android":"levelo://app?vid=e98fd470-ba5c-4335-83c7-0d48f777407a","ios":"levelo://app?vid=e98fd470-ba5c-4335-83c7-0d48f777407a"},"vehicle_type_id":"4","last_reported":1687378014,"current_range_meters":30000,"station_id":"","pricing_plan_id":"free"},{"bike_id":"a9c13637-b1f4-4eac-9e81-a75c5d8b43ac","system_id":"levelo_inurba_marseille","lat":43.30642,"lon":5.401031,"is_reserved":false,"is_disabled":false,"rental_uris":{"android":"levelo://app?vid=a9c13637-b1f4-4eac-9e81-a75c5d8b43ac","ios":"levelo://app?vid=a9c13637-b1f4-4eac-9e81-a75c5d8b43ac"},"vehicle_type_id":"4","last_reported":1687378014,"current_range_meters":19600,"station_id":"ce4bh112rcd13ifvqda0","pricing_plan_id":"free"},{"bike_id":"960bc347-24ea-490f-93d4-ea52089baa22","system_id":"levelo_inurba_marseille","lat":43.337758,"lon":5.374363,"is_reserved":false,"is_disabled":false,"rental_uris":{"android":"levelo://app?vid=960bc347-24ea-490f-93d4-ea52089baa22","ios":"levelo://app?vid=960bc347-24ea-490f-93d4-ea52089baa22"},"vehicle_type_id":"4","last_reported":1687378014,"current_range_meters":31200,"station_id":"","pricing_plan_id":"free"},{"bike_id":"6f2661c0-34e5-41bc-91ad-acfcbcec2865","system_id":"levelo_inurba_marseille","lat":43.301117,"lon":5.398795,"is_reserved":false,"is_disabled":false,"rental_uris":{"android":"levelo://app?vid=6f2661c0-34e5-41bc-91ad-acfcbcec2865","ios":"levelo://app?vid=6f2661c0-34e5-41bc-91ad-acfcbcec2865"},"vehicle_type_id":"4","last_reported":1687378014,"current_range_meters":30000,"station_id":"ce4bh0h2rcd13ifvqd40","pricing_plan_id":"free"},{"bike_id":"f376cb8f-18b1-4bb8-a1f7-079661962035","system_id":"levelo_inurba_marseille","lat":43.301117,"lon":5.398795,"is_reserved":false,"is_disabled":false,"rental_uris":{"android":"levelo://app?vid=f376cb8f-18b1-4bb8-a1f7-079661962035","ios":"levelo://app?vid=f376cb8f-18b1-4bb8-a1f7-079661962035"},"vehicle_type_id":"4","last_reported":1687378014,"current_range_meters":16000,"station_id":"ce4bh0h2rcd13ifvqd40","pricing_plan_id":"free"},{"bike_id":"40f18ab3-de4f-4fe7-8e6b-a1785a6f3ad8","system_id":"levelo_inurba_marseille","lat":43.2871,"lon":5.37381,"is_reserved":false,"is_disabled":false,"rental_uris":{"android":"levelo://app?vid=40f18ab3-de4f-4fe7-8e6b-a1785a6f3ad8","ios":"levelo://app?vid=40f18ab3-de4f-4fe7-8e6b-a1785a6f3ad8"},"vehicle_type_id":"4","last_reported":1687378014,"current_range_meters":21600,"station_id":"ce4bh3p2rcd13ifvqdq0","pricing_plan_id":"free"},{"bike_id":"7583b83a-fd6f-49bc-9afa-75c5f81f258e","system_id":"levelo_inurba_marseille","lat":43.286961,"lon":5.373785,"is_reserved":false,"is_disabled":false,"rental_uris":{"android":"levelo://app?vid=7583b83a-fd6f-49bc-9afa-75c5f81f258e","ios":"levelo://app?vid=7583b83a-fd6f-49bc-9afa-75c5f81f258e"},"vehicle_type_id":"4","last_reported":1687378014,"current_range_meters":4000,"station_id":"ce4bh3p2rcd13ifvqdq0","pricing_plan_id":"free"},{"bike_id":"7844a038-706d-4b5f-b0ca-2825d7523972","system_id":"levelo_inurba_marseille","lat":43.295196,"lon":5.39397,"is_reserved":false,"is_disabled":false,"rental_uris":{"android":"levelo://app?vid=7844a038-706d-4b5f-b0ca-2825d7523972","ios":"levelo://app?vid=7844a038-706d-4b5f-b0ca-2825d7523972"},"vehicle_type_id":"4","last_reported":1687378014,"current_range_meters":10000,"station_id":"ce4bh292rcd13ifvqdf0","pricing_plan_id":"free"},{"bike_id":"2d919bf0-fa41-49fb-b9a7-877f46ab52b8","system_id":"levelo_inurba_marseille","lat":43.295268,"lon":5.394028,"is_reserved":false,"is_disabled":false,"rental_uris":{"android":"levelo://app?vid=2d919bf0-fa41-49fb-b9a7-877f46ab52b8","ios":"levelo://app?vid=2d919bf0-fa41-49fb-b9a7-877f46ab52b8"},"vehicle_type_id":"4","last_reported":1687378014,"current_range_meters":22400,"station_id":"ce4bh292rcd13ifvqdf0","pricing_plan_id":"free"},{"bike_id":"39b74f1d-3e57-4a6c-a5fc-2bb99116064c","system_id":"levelo_inurba_marseille","lat":43.29515,"lon":5.3941,"is_reserved":false,"is_disabled":false,"rental_uris":{"android":"levelo://app?vid=39b74f1d-3e57-4a6c-a5fc-2bb99116064c","ios":"levelo://app?vid=39b74f1d-3e57-4a6c-a5fc-2bb99116064c"},"vehicle_type_id":"4","last_reported":1687378014,"current_range_meters":2800,"station_id":"ce4bh292rcd13ifvqdf0","pricing_plan_id":"free"},{"bike_id":"3b3b6fc4-04f6-4fb3-9323-5165f7ebbb1d","system_id":"levelo_inurba_marseille","lat":43.29029,"lon":5.38628,"is_reserved":false,"is_disabled":false,"rental_uris":{"android":"levelo://app?vid=3b3b6fc4-04f6-4fb3-9323-5165f7ebbb1d","ios":"levelo://app?vid=3b3b6fc4-04f6-4fb3-9323-5165f7ebbb1d"},"vehicle_type_id":"4","last_reported":1687378014,"current_range_meters":14000,"station_id":"ce4bh4p2rcd13ifvqe0g","pricing_plan_id":"free"},{"bike_id":"92a65dbb-3082-407d-9c06-c1dabc9a6c7a","system_id":"levelo_inurba_marseille","lat":43.29032,"lon":5.38638,"is_reserved":false,"is_disabled":false,"rental_uris":{"android":"levelo://app?vid=92a65dbb-3082-407d-9c06-c1dabc9a6c7a","ios":"levelo://app?vid=92a65dbb-3082-407d-9c06-c1dabc9a6c7a"},"vehicle_type_id":"4","last_reported":1687378014,"current_range_meters":14000,"station_id":"ce4bh4p2rcd13ifvqe0g","pricing_plan_id":"free"},{"bike_id":"9ec0e20b-768a-4e30-ab18-c61eadb004ea","system_id":"levelo_inurba_marseille","lat":43.2903,"lon":5.38639,"is_reserved":false,"is_disabled":false,"rental_uris":{"android":"levelo://app?vid=9ec0e20b-768a-4e30-ab18-c61eadb004ea","ios":"levelo://app?vid=9ec0e20b-768a-4e30-ab18-c61eadb004ea"},"vehicle_type_id":"4","last_reported":1687378014,"current_range_meters":18400,"station_id":"ce4bh4p2rcd13ifvqe0g","pricing_plan_id":"free"},{"bike_id":"025e28d1-5b17-4f2d-961b-0c8792677464","system_id":"levelo_inurba_marseille","lat":43.290345,"lon":5.38646,"is_reserved":false,"is_disabled":false,"rental_uris":{"android":"levelo://app?vid=025e28d1-5b17-4f2d-961b-0c8792677464","ios":"levelo://app?vid=025e28d1-5b17-4f2d-961b-0c8792677464"},"vehicle_type_id":"4","last_reported":1687378014,"current_range_meters":19600,"station_id":"ce4bh4p2rcd13ifvqe0g","pricing_plan_id":"free"},{"bike_id":"b5da54ab-99ee-4890-894d-3d7e59d1b1df","system_id":"levelo_inurba_marseille","lat":43.290336,"lon":5.386425,"is_reserved":false,"is_disabled":false,"rental_uris":{"android":"levelo://app?vid=b5da54ab-99ee-4890-894d-3d7e59d1b1df","ios":"levelo://app?vid=b5da54ab-99ee-4890-894d-3d7e59d1b1df"},"vehicle_type_id":"4","last_reported":1687378014,"current_range_meters":17200,"station_id":"ce4bh4p2rcd13ifvqe0g","pricing_plan_id":"free"},{"bike_id":"a69611a4-4427-48f1-8cf5-68e91a38613f","system_id":"levelo_inurba_marseille","lat":43.286132,"lon":5.370631,"is_reserved":false,"is_disabled":false,"rental_uris":{"android":"levelo://app?vid=a69611a4-4427-48f1-8cf5-68e91a38613f","ios":"levelo://app?vid=a69611a4-4427-48f1-8cf5-68e91a38613f"},"vehicle_type_id":"4","last_reported":1687378014,"current_range_meters":0,"station_id":"ce4bht12rcd13ifvqi60","pricing_plan_id":"free"},{"bike_id":"5942720f-225c-431f-9a4e-4e2cc97bb64d","system_id":"levelo_inurba_marseille","lat":43.286039,"lon":5.370679,"is_reserved":false,"is_disabled":false,"rental_uris":{"android":"levelo://app?vid=5942720f-225c-431f-9a4e-4e2cc97bb64d","ios":"levelo://app?vid=5942720f-225c-431f-9a4e-4e2cc97bb64d"},"vehicle_type_id":"4","last_reported":1687378014,"current_range_meters":28400,"station_id":"ce4bht12rcd13ifvqi60","pricing_plan_id":"free"},{"bike_id":"2f435e18-b20f-4ced-a99d-40006f709dcc","system_id":"levelo_inurba_marseille","lat":43.28611,"lon":5.37072,"is_reserved":false,"is_disabled":false,"rental_uris":{"android":"levelo://app?vid=2f435e18-b20f-4ced-a99d-40006f709dcc","ios":"levelo://app?vid=2f435e18-b20f-4ced-a99d-40006f709dcc"},"vehicle_type_id":"4","last_reported":1687378014,"current_range_meters":31200,"station_id":"ce4bht12rcd13ifvqi60","pricing_plan_id":"free"},{"bike_id":"db7159bf-f7ad-485c-8b7b-396f2c0df963","system_id":"levelo_inurba_marseille","lat":43.287184,"lon":5.37937,"is_reserved":false,"is_disabled":false,"rental_uris":{"android":"levelo://app?vid=db7159bf-f7ad-485c-8b7b-396f2c0df963","ios":"levelo://app?vid=db7159bf-f7ad-485c-8b7b-396f2c0df963"},"vehicle_type_id":"4","last_reported":1687378014,"current_range_meters":5200,"station_id":"ce4bh9p2rcd13ifvqec0","pricing_plan_id":"free"},{"bike_id":"484fbe31-dcab-4f0e-9db1-a79872c37c60","system_id":"levelo_inurba_marseille","lat":43.29646,"lon":5.39803,"is_reserved":false,"is_disabled":false,"rental_uris":{"android":"levelo://app?vid=484fbe31-dcab-4f0e-9db1-a79872c37c60","ios":"levelo://app?vid=484fbe31-dcab-4f0e-9db1-a79872c37c60"},"vehicle_type_id":"4","last_reported":1687378014,"current_range_meters":14000,"station_id":"","pricing_plan_id":"free"},{"bike_id":"5641e78e-1035-489a-827e-04854ace3276","system_id":"levelo_inurba_marseille","lat":43.291994,"lon":5.392907,"is_reserved":false,"is_disabled":false,"rental_uris":{"android":"levelo://app?vid=5641e78e-1035-489a-827e-04854ace3276","ios":"levelo://app?vid=5641e78e-1035-489a-827e-04854ace3276"},"vehicle_type_id":"4","last_reported":1687378014,"current_range_meters":4800,"station_id":"ce4bh192rcd13ifvqdd0","pricing_plan_id":"free"},{"bike_id":"e78f91b5-40a7-46a5-9a21-db6545bc1749","system_id":"levelo_inurba_marseille","lat":43.291994,"lon":5.392907,"is_reserved":false,"is_disabled":false,"rental_uris":{"android":"levelo://app?vid=e78f91b5-40a7-46a5-9a21-db6545bc1749","ios":"levelo://app?vid=e78f91b5-40a7-46a5-9a21-db6545bc1749"},"vehicle_type_id":"4","last_reported":1687378014,"current_range_meters":3600,"station_id":"ce4bh192rcd13ifvqdd0","pricing_plan_id":"free"},{"bike_id":"0c38bb22-c052-41ed-ae98-70421fc64543","system_id":"levelo_inurba_marseille","lat":43.291994,"lon":5.392907,"is_reserved":false,"is_disabled":false,"rental_uris":{"android":"levelo://app?vid=0c38bb22-c052-41ed-ae98-70421fc64543","ios":"levelo://app?vid=0c38bb22-c052-41ed-ae98-70421fc64543"},"vehicle_type_id":"4","last_reported":1687378014,"current_range_meters":14800,"station_id":"ce4bh192rcd13ifvqdd0","pricing_plan_id":"free"},{"bike_id":"52b8c7e5-259f-48ee-9f95-878d383fc293","system_id":"levelo_inurba_marseille","lat":43.291994,"lon":5.392907,"is_reserved":false,"is_disabled":false,"rental_uris":{"android":"levelo://app?vid=52b8c7e5-259f-48ee-9f95-878d383fc293","ios":"levelo://app?vid=52b8c7e5-259f-48ee-9f95-878d383fc293"},"vehicle_type_id":"4","last_reported":1687378014,"current_range_meters":9600,"station_id":"ce4bh192rcd13ifvqdd0","pricing_plan_id":"free"},{"bike_id":"cf19e00c-2ad1-4a9c-82ac-eb348de469c5","system_id":"levelo_inurba_marseille","lat":43.291994,"lon":5.392907,"is_reserved":false,"is_disabled":false,"rental_uris":{"android":"levelo://app?vid=cf19e00c-2ad1-4a9c-82ac-eb348de469c5","ios":"levelo://app?vid=cf19e00c-2ad1-4a9c-82ac-eb348de469c5"},"vehicle_type_id":"4","last_reported":1687378014,"current_range_meters":13600,"station_id":"ce4bh192rcd13ifvqdd0","pricing_plan_id":"free"},{"bike_id":"27dd372c-dbcd-41a2-ace5-9edec5922638","system_id":"levelo_inurba_marseille","lat":43.291994,"lon":5.392907,"is_reserved":false,"is_disabled":false,"rental_uris":{"android":"levelo://app?vid=27dd372c-dbcd-41a2-ace5-9edec5922638","ios":"levelo://app?vid=27dd372c-dbcd-41a2-ace5-9edec5922638"},"vehicle_type_id":"4","last_reported":1687378014,"current_range_meters":8800,"station_id":"ce4bh192rcd13ifvqdd0","pricing_plan_id":"free"},{"bike_id":"39423e53-20df-49ea-8004-1971509d6fed","system_id":"levelo_inurba_marseille","lat":43.29448,"lon":5.39755,"is_reserved":false,"is_disabled":false,"rental_uris":{"android":"levelo://app?vid=39423e53-20df-49ea-8004-1971509d6fed","ios":"levelo://app?vid=39423e53-20df-49ea-8004-1971509d6fed"},"vehicle_type_id":"4","last_reported":1687378014,"current_range_meters":11200,"station_id":"ce4bh3h2rcd13ifvqdo0","pricing_plan_id":"free"},{"bike_id":"5924eca5-b8cd-45b9-8c7c-dbfbf28beb02","system_id":"levelo_inurba_marseille","lat":43.29443,"lon":5.39756,"is_reserved":false,"is_disabled":false,"rental_uris":{"android":"levelo://app?vid=5924eca5-b8cd-45b9-8c7c-dbfbf28beb02","ios":"levelo://app?vid=5924eca5-b8cd-45b9-8c7c-dbfbf28beb02"},"vehicle_type_id":"4","last_reported":1687378014,"current_range_meters":18000,"station_id":"ce4bh3h2rcd13ifvqdo0","pricing_plan_id":"free"},{"bike_id":"2272b5f7-c40c-443f-958e-ffc0e76cba09","system_id":"levelo_inurba_marseille","lat":43.2944,"lon":5.3976,"is_reserved":false,"is_disabled":false,"rental_uris":{"android":"levelo://app?vid=2272b5f7-c40c-443f-958e-ffc0e76cba09","ios":"levelo://app?vid=2272b5f7-c40c-443f-958e-ffc0e76cba09"},"vehicle_type_id":"4","last_reported":1687378014,"current_range_meters":14000,"station_id":"ce4bh3h2rcd13ifvqdo0","pricing_plan_id":"free"},{"bike_id":"b23a0278-2ddb-46fd-97f1-8f99ef7deac7","system_id":"levelo_inurba_marseille","lat":43.29434,"lon":5.39761,"is_reserved":false,"is_disabled":false,"rental_uris":{"android":"levelo://app?vid=b23a0278-2ddb-46fd-97f1-8f99ef7deac7","ios":"levelo://app?vid=b23a0278-2ddb-46fd-97f1-8f99ef7deac7"},"vehicle_type_id":"4","last_reported":1687378014,"current_range_meters":11600,"station_id":"ce4bh3h2rcd13ifvqdo0","pricing_plan_id":"free"},{"bike_id":"1b5c4e29-cebd-4d8e-a324-8003f1476b0b","system_id":"levelo_inurba_marseille","lat":43.285856,"lon":5.350771,"is_reserved":false,"is_disabled":false,"rental_uris":{"android":"levelo://app?vid=1b5c4e29-cebd-4d8e-a324-8003f1476b0b","ios":"levelo://app?vid=1b5c4e29-cebd-4d8e-a324-8003f1476b0b"},"vehicle_type_id":"4","last_reported":1687378014,"current_range_meters":12800,"station_id":"ce4bhch2rcd13ifvqeug","pricing_plan_id":"free"},{"bike_id":"aed4e167-35b8-44cb-a029-ca4e8b24a677","system_id":"levelo_inurba_marseille","lat":43.285856,"lon":5.350771,"is_reserved":false,"is_disabled":false,"rental_uris":{"android":"levelo://app?vid=aed4e167-35b8-44cb-a029-ca4e8b24a677","ios":"levelo://app?vid=aed4e167-35b8-44cb-a029-ca4e8b24a677"},"vehicle_type_id":"4","last_reported":1687378014,"current_range_meters":28400,"station_id":"ce4bhch2rcd13ifvqeug","pricing_plan_id":"free"},{"bike_id":"42bab53a-605e-4dc5-80ee-1addd21cac86","system_id":"levelo_inurba_marseille","lat":43.283998,"lon":5.375062,"is_reserved":false,"is_disabled":false,"rental_uris":{"android":"levelo://app?vid=42bab53a-605e-4dc5-80ee-1addd21cac86","ios":"levelo://app?vid=42bab53a-605e-4dc5-80ee-1addd21cac86"},"vehicle_type_id":"4","last_reported":1687378014,"current_range_meters":1600,"station_id":"ce4bh412rcd13ifvqds0","pricing_plan_id":"free"},