{"last_updated":1701641184,"ttl":30,"version":"2.2","data":{"bikes":[{"bike_id":"11b17297-98be-480c-b05b-527fd442998d","system_id":"levelo_inurba_marseille","lat":43.309039,"lon":5.371797,"is_reserved":false,"is_disabled":false,"rental_uris":{"android":"levelo://app?vid=11b17297-98be-480c-b05b-527fd442998d","ios":"levelo://app?vid=11b17297-98be-480c-b05b-527fd442998d"},"vehicle_type_id":"4","last_reported":1701641184,"current_range_meters":3600,"station_id":"ce4bguh2rcd13ifvqckg","pricing_plan_id":"free"},{"bike_id":"73343222-2e19-4003-aa65-f0321d8ccb82","system_id":"levelo_inurba_marseille","lat":43.309039,"lon":5.371797,"is_reserved":false,"is_disabled":false,"rental_uris":{"android":"levelo://app?vid=73343222-2e19-4003-aa65-f0321d8ccb82","ios":"levelo://app?vid=73343222-2e19-4003-aa65-f0321d8ccb82"},"vehicle_type_id":"4","last_reported":1701641184,"current_range_meters":6000,"station_id":"ce4bguh2rcd13ifvqckg","pricing_plan_id":"free"},{"bike_id":"ab531847-86aa-40e1-b8ae-0d7e8595d445","system_id":"levelo_inurba_marseille","lat":43.309039,"lon":5.371797,"is_reserved":false,"is_disabled":false,"rental_uris":{"android":"levelo://app?vid=ab531847-86aa-40e1-b8ae-0d7e8595d445","ios":"levelo://app?vid=ab531847-86aa-40e1-b8ae-0d7e8595d445"},"vehicle_type_id":"4","last_reported":1701641184,"current_range_meters":9200,"station_id":"ce4bguh2rcd13ifvqckg","pricing_plan_id":"free"},{"bike_id":"f427a2c3-6e4a-446b-ae2f-9be8aa7f4122","system_id":"levelo_inurba_marseille","lat":43.31719,"lon":5.376813,"is_reserved":false,"is_disabled":false,"rental_uris":{"android":"levelo://app?vid=f427a2c3-6e4a-446b-ae2f-9be8aa7f4122","ios":"levelo://app?vid=f427a2c3-6e4a-446b-ae2f-9be8aa7f4122"},"vehicle_type_id":"4","last_reported":1701641184,"current_range_meters":0,"station_id":"","pricing_plan_id":"free"},{"bike_id":"e913f328-1e31-4c22-bd87-f809ea246de4","system_id":"levelo_inurba_marseille","lat":43.317168,"lon":5.376883,"is_reserved":false,"is_disabled":false,"rental_uris":{"android":"levelo://app?vid=e913f328-1e31-4c22-bd87-f809ea246de4","ios":"levelo://app?vid=e913f328-1e31-4c22-bd87-f809ea246de4"},"vehicle_type_id":"4","last_reported":1701641184,"current_range_meters":0,"station_id":"","pricing_plan_id":"free"},{"bike_id":"1c04753e-6979-4f1e-af31-3b4feaef49b4","system_id":"levelo_inurba_marseille","lat":43.317075,"lon":5.377367,"is_reserved":false,"is_disabled":false,"rental_uris":{"android":"levelo://app?vid=1c04753e-6979-4f1e-af31-3b4feaef49b4","ios":"levelo://app?vid=1c04753e-6979-4f1e-af31-3b4feaef49b4"},"vehicle_type_id":"4","last_reported":1701641184,"current_range_meters":25200,"station_id":"ce4bgth2rcd13ifvqch0","pricing_plan_id":"free"},{"bike_id":"fb6fd937-527b-4585-9058-0dfdc6436ac8","system_id":"levelo_inurba_marseille","lat":43.31351,"lon":5.37909,"is_reserved":false,"is_disabled":false,"rental_uris":{"android":"levelo://app?vid=fb6fd937-527b-4585-9058-0dfdc6436ac8","ios":"levelo://app?vid=fb6fd937-527b-4585-9058-0dfdc6436ac8"},"vehicle_type_id":"4","last_reported":1701641184,"current_range_meters":16400,"station_id":"","pricing_plan_id":"free"},{"bike_id":"842c7934-17a9-4a0e-97b3-ca41f31371f4","system_id":"levelo_inurba_marseille","lat":43.303046,"lon":5.368981,"is_reserved":false,"is_disabled":false,"rental_uris":{"android":"levelo://app?vid=842c7934-17a9-4a0e-97b3-ca41f31371f4","ios":"levelo://app?vid=842c7934-17a9-4a0e-97b3-ca41f31371f4"},"vehicle_type_id":"4","last_reported":1701641184,"current_range_meters":0,"station_id":"ce4bgqh2rcd13ifvqc5g","pricing_plan_id":"free"},{"bike_id":"1b836397-024f-4ce5-8ba8-e625623686d0","system_id":"levelo_inurba_marseille","lat":43.319935,"lon":5.381699,"is_reserved":false,"is_disabled":false,"rental_uris":{"android":"levelo://app?vid=1b836397-024f-4ce5-8ba8-e625623686d0","ios":"levelo://app?vid=1b836397-024f-4ce5-8ba8-e625623686d0"},"vehicle_type_id":"4","last_reported":1701641184,"current_range_meters":7600,"station_id":"ce4bhr12rcd13ifvqhpg","pricing_plan_id":"free"},{"bike_id":"c32b4a1c-8be5-4f93-a794-fd809cd16078","system_id":"levelo_inurba_marseille","lat":43.319935,"lon":5.381699,"is_reserved":false,"is_disabled":false,"rental_uris":{"android":"levelo://app?vid=c32b4a1c-8be5-4f93-a794-fd809cd16078","ios":"levelo://app?vid=c32b4a1c-8be5-4f93-a794-fd809cd16078"},"vehicle_type_id":"4","last_reported":1701641184,"current_range_meters":9600,"station_id":"ce4bhr12rcd13ifvqhpg","pricing_plan_id":"free"},{"bike_id":"2275aca5-3158-4c2c-8022-ca5d2714bc86","system_id":"levelo_inurba_marseille","lat":43.319997,"lon":5.381594,"is_reserved":false,"is_disabled":false,"rental_uris":{"android":"levelo://app?vid=2275aca5-3158-4c2c-8022-ca5d2714bc86","ios":"levelo://app?vid=2275aca5-3158-4c2c-8022-ca5d2714bc86"},"vehicle_type_id":"4","last_reported":1701641184,"current_range_meters":10000,"station_id":"ce4bhr12rcd13ifvqhpg","pricing_plan_id":"free"},{"bike_id":"ff6e4030-1cc9-48b6-ade9-660e13444a51","system_id":"levelo_inurba_marseille","lat":43.313571,"lon":5.384829,"is_reserved":false,"is_disabled":false,"rental_uris":{"android":"levelo://app?vid=ff6e4030-1cc9-48b6-ade9-660e13444a51","ios":"levelo://app?vid=ff6e4030-1cc9-48b6-ade9-660e13444a51"},"vehicle_type_id":"4","last_reported":1701641184,"current_range_meters":28000,"station_id":"ce4bgt92rcd13ifvqcf0","pricing_plan_id":"free"},{"bike_id":"9fdb7f97-586d-42d2-befd-15216ba2e422","system_id":"levelo_inurba_marseille","lat":43.31183,"lon":5.38523,"is_reserved":false,"is_disabled":false,"rental_uris":{"android":"levelo://app?vid=9fdb7f97-586d-42d2-befd-15216ba2e422","ios":"levelo://app?vid=9fdb7f97-586d-42d2-befd-15216ba2e422"},"vehicle_type_id":"4","last_reported":1701641184,"current_range_meters":0,"station_id":"","pricing_plan_id":"free"},{"bike_id":"7e5d3ace-3993-403e-9afc-7da29c2865be","system_id":"levelo_inurba_marseille","lat":43.299724,"lon":5.371829,"is_reserved":false,"is_disabled":false,"rental_uris":{"android":"levelo://app?vid=7e5d3ace-3993-403e-9afc-7da29c2865be","ios":"levelo://app?vid=7e5d3ace-3993-403e-9afc-7da29c2865be"},"vehicle_type_id":"4","last_reported":1701641184,"current_range_meters":14000,"station_id":"ce4bgr92rcd13ifvqc7g","pricing_plan_id":"free"},{"bike_id":"b1f966d6-9340-433a-9595-5a109a237b86","system_id":"levelo_inurba_marseille","lat":43.299222,"lon":5.365554,"is_reserved":false,"is_disabled":false,"rental_uris":{"android":"levelo://app?vid=b1f966d6-9340-433a-9595-5a109a237b86","ios":"levelo://app?vid=b1f966d6-9340-433a-9595-5a109a237b86"},"vehicle_type_id":"4","last_reported":1701641184,"current_range_meters":25600,"station_id":"ce4bgm92rcd13ifvqbr0","pricing_plan_id":"free"},{"bike_id":"748d12ab-8e09-4ecd-b2d2-cbe0ea9624f6","system_id":"levelo_inurba_marseille","lat":43.298922,"lon":5.367275,"is_reserved":false,"is_disabled":false,"rental_uris":{"android":"levelo://app?vid=748d12ab-8e09-4ecd-b2d2-cbe0ea9624f6","ios":"levelo://app?vid=748d12ab-8e09-4ecd-b2d2-cbe0ea9624f6"},"vehicle_type_id":"4","last_reported":1701641184,"current_range_meters":0,"station_id":"","pricing_plan_id":"free"},{"bike_id":"8f471969-8e2d-4ef5-8d2e-654dab26d28a","system_id":"levelo_inurba_marseille","lat":43.31232,"lon":5.386648,"is_reserved":false,"is_disabled":false,"rental_uris":{"android":"levelo://app?vid=8f471969-8e2d-4ef5-8d2e-654dab26d28a","ios":"levelo://app?vid=8f471969-8e2d-4ef5-8d2e-654dab26d28a"},"vehicle_type_id":"4","last_reported":1701641184,"current_range_meters":19600,"station_id":"","pricing_plan_id":"free"},{"bike_id":"0a39dd03-261e-42e4-8565-1ecf12f7bfae","system_id":"levelo_inurba_marseille","lat":43.322872,"lon":5.382756,"is_reserved":false,"is_disabled":false,"rental_uris":{"android":"levelo://app?vid=0a39dd03-261e-42e4-8565-1ecf12f7bfae","ios":"levelo://app?vid=0a39dd03-261e-42e4-8565-1ecf12f7bfae"},"vehicle_type_id":"4","last_reported":1701641184,"current_range_meters":21200,"station_id":"ce4bhr12rcd13ifvqhqg","pricing_plan_id":"free"},{"bike_id":"08a721db-bf5d-46b3-9ba3-2a9c6c13bcf6","system_id":"levelo_inurba_marseille","lat":43.328256,"lon":5.366905,"is_reserved":false,"is_disabled":false,"rental_uris":{"android":"levelo://app?vid=08a721db-bf5d-46b3-9ba3-2a9c6c13bcf6","ios":"levelo://app?vid=08a721db-bf5d-46b3-9ba3-2a9c6c13bcf6"},"vehicle_type_id":"4","last_reported":1701641184,"current_range_meters":23600,"station_id":"","pricing_plan_id":"free"},{"bike_id":"65a9133c-c61d-4979-8e7b-24fafb96941b","system_id":"levelo_inurba_marseille","lat":43.328371,"lon":5.366909,"is_reserved":false,"is_disabled":false,"rental_uris":{"android":"levelo://app?vid=65a9133c-c61d-4979-8e7b-24fafb96941b","ios":"levelo://app?vid=65a9133c-c61d-4979-8e7b-24fafb96941b"},"vehicle_type_id":"4","last_reported":1701641184,"current_range_meters":9600,"station_id":"ce4bhs92rcd13ifvqi0g","pricing_plan_id":"free"},{"bike_id":"8874ef37-d11b-4860-b7df-daab8952a737","system_id":"levelo_inurba_marseille","lat":43.328371,"lon":5.366909,"is_reserved":false,"is_disabled":false,"rental_uris":{"android":"levelo://app?vid=8874ef37-d11b-4860-b7df-daab8952a737","ios":"levelo://app?vid=8874ef37-d11b-4860-b7df-daab8952a737"},"vehicle_type_id":"4","last_reported":1701641184,"current_range_meters":22000,"station_id":"ce4bhs92rcd13ifvqi0g","pricing_plan_id":"free"},{"bike_id":"aaa26a12-246b-4d79-95da-dfbdfaf67518","system_id":"levelo_inurba_marseille","lat":43.313571,"lon":5.384829,"is_reserved":false,"is_disabled":false,"rental_uris":{"android":"levelo://app?vid=aaa26a12-246b-4d79-95da-dfbdfaf67518","ios":"levelo://app?vid=aaa26a12-246b-4d79-95da-dfbdfaf67518"},"vehicle_type_id":"4","last_reported":1701641184,"current_range_meters":16800,"station_id":"ce4bgt92rcd13ifvqcf0","pricing_plan_id":"free"},{"bike_id":"56c27ac6-d3be-4b1b-a869-2d0f1759ad4a","system_id":"levelo_inurba_marseille","lat":43.298208,"lon":5.376707,"is_reserved":false,"is_disabled":false,"rental_uris":{"android":"levelo://app?vid=56c27ac6-d3be-4b1b-a869-2d0f1759ad4a","ios":"levelo://app?vid=56c27ac6-d3be-4b1b-a869-2d0f1759ad4a"},"vehicle_type_id":"4","last_reported":1701641184,"current_range_meters":0,"station_id":"","pricing_plan_id":"free"},{"bike_id":"eaa0e7e7-2390-47fa-909b-7b240952cbef","system_id":"levelo_inurba_marseille","lat":43.316511,"lon":5.3896,"is_reserved":false,"is_disabled":false,"rental_uris":{"android":"levelo://app?vid=eaa0e7e7-2390-47fa-909b-7b240952cbef","ios":"levelo://app?vid=eaa0e7e7-2390-47fa-909b-7b240952cbef"},"vehicle_type_id":"4","last_reported":1701641184,"current_range_meters":17200,"station_id":"","pricing_plan_id":"free"},{"bike_id":"50451858-4fd4-406d-badc-776a2e8a63c3","system_id":"levelo_inurba_marseille","lat":43.329728,"lon":5.367323,"is_reserved":false,"is_disabled":false,"rental_uris":{"android":"levelo://app?vid=50451858-4fd4-406d-badc-776a2e8a63c3","ios":"levelo://app?vid=50451858-4fd4-406d-badc-776a2e8a63c3"},"vehicle_type_id":"4","last_reported":1701641184,"current_range_meters":18800,"station_id":"","pricing_plan_id":"free"},{"bike_id":"f4daf710-bed7-47b5-9cbf-34beff69fe75","system_id":"levelo_inurba_marseille","lat":43.309589,"lon":5.390258,"is_reserved":false,"is_disabled":false,"rental_uris":{"android":"levelo://app?vid=f4daf710-bed7-47b5-9cbf-34beff69fe75","ios":"levelo://app?vid=f4daf710-bed7-47b5-9cbf-34beff69fe75"},"vehicle_type_id":"4","last_reported":1701641184,"current_range_meters":20000,"station_id":"ce4bgup2rcd13ifvqco0","pricing_plan_id":"free"},{"bike_id":"a7d6993c-889b-472d-8005-f6e35e313883","system_id":"levelo_inurba_marseille","lat":43.309589,"lon":5.390258,"is_reserved":false,"is_disabled":false,"rental_uris":{"android":"levelo://app?vid=a7d6993c-889b-472d-8005-f6e35e313883","ios":"levelo://app?vid=a7d6993c-889b-472d-8005-f6e35e313883"},"vehicle_type_id":"4","last_reported":1701641184,"current_range_meters":24000,"station_id":"ce4bgup2rcd13ifvqco0","pricing_plan_id":"free"},{"bike_id":"d7b46bee-d340-476c-9aab-d55e5cf22500","system_id":"levelo_inurba_marseille","lat":43.317557,"lon":5.390173,"is_reserved":false,"is_disabled":false,"rental_uris":{"android":"levelo://app?vid=d7b46bee-d340-476c-9aab-d55e5cf22500","ios":"levelo://app?vid=d7b46bee-d340-476c-9aab-d55e5cf22500"},"vehicle_type_id":"4","last_reported":1701641184,"current_range_meters":28000,"station_id":"ce4bhqp2rcd13ifvqhng","pricing_plan_id":"free"},{"bike_id":"ce579fd4-3eb3-46e5-9d04-8da8f6f75b4e","system_id":"levelo_inurba_marseille","lat":43.304278,"lon":5.388868,"is_reserved":false,"is_disabled":false,"rental_uris":{"android":"levelo://app?vid=ce579fd4-3eb3-46e5-9d04-8da8f6f75b4e","ios":"levelo://app?vid=ce579fd4-3eb3-46e5-9d04-8da8f6f75b4e"},"vehicle_type_id":"4","last_reported":1701641184,"current_range_meters":24000,"station_id":"ce4bgk12rcd13ifvqbi0","pricing_plan_id":"free"},{"bike_id":"631c0f0a-c87a-4ac2-8c86-a55effd3d60b","system_id":"levelo_inurba_marseille","lat":43.298433,"lon":5.362774,"is_reserved":false,"is_disabled":false,"rental_uris":{"android":"levelo://app?vid=631c0f0a-c87a-4ac2-8c86-a55effd3d60b","ios":"levelo://app?vid=631c0f0a-c87a-4ac2-8c86-a55effd3d60b"},"vehicle_type_id":"4","last_reported":1701641184,"current_range_meters":27200,"station_id":"ce4bgpp2rcd13ifvqc3g","pricing_plan_id":"free"},{"bike_id":"7eb8a0bd-be10-4409-8312-afdc128e5d54","system_id":"levelo_inurba_marseille","lat":43.313291,"lon":5.396838,"is_reserved":false,"is_disabled":false,"rental_uris":{"android":"levelo://app?vid=7eb8a0bd-be10-4409-8312-afdc128e5d54","ios":"levelo://app?vid=7eb8a0bd-be10-4409-8312-afdc128e5d54"},"vehicle_type_id":"4","last_reported":1701641184,"current_range_meters":23600,"station_id":"ce4bgvp2rcd13ifvqcu0","pricing_plan_id":"free"},{"bike_id":"7233bf92-8e9d-4e2e-8572-43cda1791189","system_id":"levelo_inurba_marseille","lat":43.309038,"lon":5.396546,"is_reserved":false,"is_disabled":false,"rental_uris":{"android":"levelo://app?vid=7233bf92-8e9d-4e2e-8572-43cda1791189","ios":"levelo://app?vid=7233bf92-8e9d-4e2e-8572-43cda1791189"},"vehicle_type_id":"4","last_reported":1701641184,"current_range_meters":29200,"station_id":"ce4bh012rcd13ifvqcv0","pricing_plan_id":"free"},{"bike_id":"77d42006-3993-4990-b44a-d5e693bcbccc","system_id":"levelo_inurba_marseille","lat":43.3133,"lon":5.396926,"is_reserved":false,"is_disabled":false,"rental_uris":{"android":"levelo://app?vid=77d42006-3993-4990-b44a-d5e693bcbccc","ios":"levelo://app?vid=77d42006-3993-4990-b44a-d5e693bcbccc"},"vehicle_type_id":"4","last_reported":1701641184,"current_range_meters":2800,"station_id":"ce4bgvp2rcd13ifvqcu0","pricing_plan_id":"free"},{"bike_id":"29afa83c-4bd7-4ecf-8c8a-6f1436c8ade0","system_id":"levelo_inurba_marseille","lat":43.309038,"lon":5.396546,"is_reserved":false,"is_disabled":false,"rental_uris":{"android":"levelo://app?vid=29afa83c-4bd7-4ecf-8c8a-6f1436c8ade0","ios":"levelo://app?vid=29afa83c-4bd7-4ecf-8c8a-6f1436c8ade0"},"vehicle_type_id":"4","last_reported":1701641184,"current_range_meters":4400,"station_id":"ce4bh012rcd13ifvqcv0","pricing_plan_id":"free"},{"bike_id":"12482b75-7a2d-4c6d-89c1-a957c4637c98","system_id":"levelo_inurba_marseille","lat":43.302008,"lon":5.394694,"is_reserved":false,"is_disabled":false,"rental_uris":{"android":"levelo://app?vid=12482b75-7a2d-4c6d-89c1-a957c4637c98","ios":"levelo://app?vid=12482b75-7a2d-4c6d-89c1-a957c4637c98"},"vehicle_type_id":"4","last_reported":1701641184,"current_range_meters":24000,"station_id":"ce4bh0p2rcd13ifvqd70","pricing_plan_id":"free"},{"bike_id":"8992b905-d17b-44f0-b9b1-ed23aea04030","system_id":"levelo_inurba_marseille","lat":43.289468,"lon":5.363719,"is_reserved":false,"is_disabled":false,"rental_uris":{"android":"levelo://app?vid=8992b905-d17b-44f0-b9b1-ed23aea04030","ios":"levelo://app?vid=8992b905-d17b-44f0-b9b1-ed23aea04030"},"vehicle_type_id":"4","last_reported":1701641184,"current_range_meters":800,"station_id":"ce4bhc92rcd13ifvqetg","pricing_plan_id":"free"},{"bike_id":"5c26bdfb-7b7c-43fb-8a01-250128a1a6f8","system_id":"levelo_inurba_marseille","lat":43.336112,"lon":5.363204,"is_reserved":false,"is_disabled":false,"rental_uris":{"android":"levelo://app?vid=5c26bdfb-7b7c-43fb-8a01-250128a1a6f8","ios":"levelo://app?vid=5c26bdfb-7b7c-43fb-8a01-250128a1a6f8"},"vehicle_type_id":"4","last_reported":1701641184,"current_range_meters":17600,"station_id":"","pricing_plan_id":"free"},{"bike_id":"2b6a70a5-e2a6-4a63-83c9-af34b8e0e7eb","system_id":"levelo_inurba_marseille","lat":43.290104,"lon":5.356111,"is_reserved":false,"is_disabled":false,"rental_uris":{"android":"levelo://app?vid=2b6a70a5-e2a6-4a63-83c9-af34b8e0e7eb","ios":"levelo://app?vid=2b6a70a5-e2a6-4a63-83c9-af34b8e0e7eb"},"vehicle_type_id":"4","last_reported":1701641184,"current_range_meters":20000,"station_id":"ce4bhb92rcd13ifvqen0","pricing_plan_id":"free"},{"bike_id":"dd9cd122-3ebd-4024-9b7c-9cf57fb2d6df","system_id":"levelo_inurba_marseille","lat":43.29056,"lon":5.37936,"is_reserved":false,"is_disabled":false,"rental_uris":{"android":"levelo://app?vid=dd9cd122-3ebd-4024-9b7c-9cf57fb2d6df","ios":"levelo://app?vid=dd9cd122-3ebd-4024-9b7c-9cf57fb2d6df"},"vehicle_type_id":"4","last_reported":1701641184,"current_range_meters":18000,"station_id":"","pricing_plan_id":"free"},{"bike_id":"56010b17-f426-4375-84f5-6bb1ba478236","system_id":"levelo_inurba_marseille","lat":43.33043,"lon":5.38924,"is_reserved":false,"is_disabled":false,"rental_uris":{"android":"levelo://app?vid=56010b17-f426-4375-84f5-6bb1ba478236","ios":"levelo://app?vid=56010b17-f426-4375-84f5-6bb1ba478236"},"vehicle_type_id":"4","last_reported":1701641184,"current_range_meters":26000,"station_id":"ce4bhr92rcd13ifvqhrg","pricing_plan_id":"free"},{"bike_id":"50aa9603-ce3c-43b6-a6af-5f7259e19969","system_id":"levelo_inurba_marseille","lat":43.295169,"lon":5.390426,"is_reserved":false,"is_disabled":false,"rental_uris":{"android":"levelo://app?vid=50aa9603-ce3c-43b6-a6af-5f7259e19969","ios":"levelo://app?vid=50aa9603-ce3c-43b6-a6af-5f7259e19969"},"vehicle_type_id":"4","last_reported":1701641184,"current_range_meters":4400,"station_id":"ce4bh3p2rcd13ifvqdp0","pricing_plan_id":"free"},{"bike_id":"c4521d03-ea82-4304-a27a-52990fbbcfc8","system_id":"levelo_inurba_marseille","lat":43.312687,"lon":5.401681,"is_reserved":false,"is_disabled":false,"rental_uris":{"android":"levelo://app?vid=c4521d03-ea82-4304-a27a-52990fbbcfc8","ios":"levelo://app?vid=c4521d03-ea82-4304-a27a-52990fbbcfc8"},"vehicle_type_id":"4","last_reported":1701641184,"current_range_meters":15600,"station_id":"ce4bh092rcd13ifvqd30","pricing_plan_id":"free"},{"bike_id":"80ac9a83-47dc-4474-ba9e-95f62f2a5969","system_id":"levelo_inurba_marseille","lat":43.31272,"lon":5.40174,"is_reserved":false,"is_disabled":false,"rental_uris":{"android":"levelo://app?vid=80ac9a83-47dc-4474-ba9e-95f62f2a5969","ios":"levelo://app?vid=80ac9a83-47dc-4474-ba9e-95f62f2a5969"},"vehicle_type_id":"4","last_reported":1701641184,"current_range_meters":3200,"station_id":"ce4bh092rcd13ifvqd30","pricing_plan_id":"free"},{"bike_id":"c2920d2a-41a8-45fa-8bf8-58ef40b1983f","system_id":"levelo_inurba_marseille","lat":43.309371,"lon":5.401449,"is_reserved":false,"is_disabled":false,"rental_uris":{"android":"levelo://app?vid=c2920d2a-41a8-45fa-8bf8-58ef40b1983f","ios":"levelo://app?vid=c2920d2a-41a8-45fa-8bf8-58ef40b1983f"},"vehicle_type_id":"4","last_reported":1701641184,"current_range_meters":18000,"station_id":"ce4bgvp2rcd13ifvqct0","pricing_plan_id":"free"},{"bike_id":"2452b748-fa33-41e0-a13f-60df7d7bceaf","system_id":"levelo_inurba_marseille","lat":43.30941,"lon":5.40145,"is_reserved":false,"is_disabled":false,"rental_uris":{"android":"levelo://app?vid=2452b748-fa33-41e0-a13f-60df7d7bceaf","ios":"levelo://app?vid=2452b748-fa33-41e0-a13f-60df7d7bceaf"},"vehicle_type_id":"4","last_reported":1701641184,"current_range_meters":16800,"station_id":"ce4bgvp2rcd13ifvqct0","pricing_plan_id":"free"},{"bike_id":"2169f855-0da5-48a3-89d0-7b146d053f4c","system_id":"levelo_inurba_marseille","lat":43.30941,"lon":5.40145,"is_reserved":false,"is_disabled":false,"rental_uris":{"android":"levelo://app?vid=2169f855-0da5-48a3-89d0-7b146d053f4c","ios":"levelo://app?vid=2169f855-0da5-48a3-89d0-7b146d053f4c"},"vehicle_type_id":"4","last_reported":1701641184,"current_range_meters":10000,"station_id":"ce4bgvp2rcd13ifvqct0","pricing_plan_id":"free"},{"bike_id":"c98a605e-726c-4b19-94c4-e6112942b5dc","system_id":"levelo_inurba_marseille","lat":43.30642,"lon":5.401031,"is_reserved":false,"is_disabled":false,"rental_uris":{"android":"levelo://app?vid=c98a605e-726c-4b19-94c4-e6112942b5dc","ios":"levelo://app?vid=c98a605e-726c-4b19-94c4-e6112942b5dc"},"vehicle_type_id":"4","last_reported":1701641184,"current_range_meters":28000,"station_id":"ce4bh112rcd13ifvqda0","pricing_plan_id":"free"},{"bike_id":"3aca80cb-97ef-491f-abe3-36f79076ad91","system_id":"levelo_inurba_marseille","lat":43.301455,"lon":5.398857,"is_reserved":false,"is_disabled":false,"rental_uris":{"android":"levelo://app?vid=3aca80cb-97ef-491f-abe3-36f79076ad91","ios":"levelo://app?vid=3aca80cb-97ef-491f-abe3-36f79076ad91"},"vehicle_type_id":"4","last_reported":1701641184,"current_range_meters":12400,"station_id":"ce4bh0h2rcd13ifvqd40","pricing_plan_id":"free"},{"bike_id":"b6ec7a72-8883-4412-ab81-98adf3c95513","system_id":"levelo_inurba_marseille","lat":43.306412,"lon":5.401035,"is_reserved":false,"is_disabled":false,"rental_uris":{"android":"levelo://app?vid=b6ec7a72-8883-4412-ab81-98adf3c95513","ios":"levelo://app?vid=b6ec7a72-8883-4412-ab81-98adf3c95513"},"vehicle_type_id":"4","last_reported":1701641184,"current_range_meters":26800,"station_id":"ce4bh112rcd13ifvqda0","pricing_plan_id":"free"},{"bike_id":"d277906a-d34c-4bcd-a9fb-319a9eab5bd8","system_id":"levelo_inurba_marseille","lat":43.298681,"lon":5.397225,"is_reserved":false,"is_disabled":false,"rental_uris":{"android":"levelo://app?vid=d277906a-d34c-4bcd-a9fb-319a9eab5bd8","ios":"levelo://app?vid=d277906a-d34c-4bcd-a9fb-319a9eab5bd8"},"vehicle_type_id":"4","last_reported":1701641184,"current_range_meters":2800,"station_id":"ce4bh0h2rcd13ifvqd50","pricing_plan_id":"free"},{"bike_id":"f4b23cd2-d3a8-4238-99c1-274a7386417b","system_id":"levelo_inurba_marseille","lat":43.28698,"lon":5.373983,"is_reserved":false,"is_disabled":false,"rental_uris":{"android":"levelo://app?vid=f4b23cd2-d3a8-4238-99c1-274a7386417b","ios":"levelo://app?vid=f4b23cd2-d3a8-4238-99c1-274a7386417b"},"vehicle_type_id":"4","last_reported":1701641184,"current_range_meters":22400,"station_id":"ce4bh3p2rcd13ifvqdq0","pricing_plan_id":"free"},{"bike_id":"865bbc53-bebb-43ff-9dea-6d76b83b72a1","system_id":"levelo_inurba_marseille","lat":43.286961,"lon":5.373785,"is_reserved":false,"is_disabled":false,"rental_uris":{"android":"levelo://app?vid=865bbc53-bebb-43ff-9dea-6d76b83b72a1","ios":"levelo://app?vid=865bbc53-bebb-43ff-9dea-6d76b83b72a1"},"vehicle_type_id":"4","last_reported":1701641184,"current_range_meters":31200,"station_id":"ce4bh3p2rcd13ifvqdq0","pricing_plan_id":"free"},{"bike_id":"0c26cda2-8167-4df8-9453-78c0754eba71","system_id":"levelo_inurba_marseille","lat":43.286961,"lon":5.373785,"is_reserved":false,"is_disabled":false,"rental_uris":{"android":"levelo://app?vid=0c26cda2-8167-4df8-9453-78c0754eba71","ios":"levelo://app?vid=0c26cda2-8167-4df8-9453-78c0754eba71"},"vehicle_type_id":"4","last_reported":1701641184,"current_range_meters":25200,"station_id":"ce4bh3p2rcd13ifvqdq0","pricing_plan_id":"free"},{"bike_id":"4c4dd060-cc2c-4063-a880-d6406b50b97f","system_id":"levelo_inurba_marseille","lat":43.302759,"lon":5.400793,"is_reserved":false,"is_disabled":false,"rental_uris":{"android":"levelo://app?vid=4c4dd060-cc2c-4063-a880-d6406b50b97f","ios":"levelo://app?vid=4c4dd060-cc2c-4063-a880-d6406b50b97f"},"vehicle_type_id":"4","last_reported":1701641184,"current_range_meters":20400,"station_id":"ce4bgvh2rcd13ifvqcs0","pricing_plan_id":"free"},{"bike_id":"cf77288c-20a7-4362-9b0e-6c3677b9ef0d","system_id":"levelo_inurba_marseille","lat":43.30263,"lon":5.40077,"is_reserved":false,"is_disabled":false,"rental_uris":{"android":"levelo://app?vid=cf77288c-20a7-4362-9b0e-6c3677b9ef0d","ios":"levelo://app?vid=cf77288c-20a7-4362-9b0e-6c3677b9ef0d"},"vehicle_type_id":"4","last_reported":1701641184,"current_range_meters":5200,"station_id":"ce4bgvh2rcd13ifvqcs0","pricing_plan_id":"free"},{"bike_id":"e6f0a665-fae7-4c13-93d7-ea4e41264f20","system_id":"levelo_inurba_marseille","lat":43.3026,"lon":5.4008,"is_reserved":false,"is_disabled":false,"rental_uris":{"android":"levelo://app?vid=e6f0a665-fae7-4c13-93d7-ea4e41264f20","ios":"levelo://app?vid=e6f0a665-fae7-4c13-93d7-ea4e41264f20"},"vehicle_type_id":"4","last_reported":1701641184,"current_range_meters":10800,"station_id":"ce4bgvh2rcd13ifvqcs0","pricing_plan_id":"free"},{"bike_id":"0d604e16-f3a5-4d04-9185-fe8967ed334b","system_id":"levelo_inurba_marseille","lat":43.291994,"lon":5.392907,"is_reserved":false,"is_disabled":false,"rental_uris":{"android":"levelo://app?vid=0d604e16-f3a5-4d04-9185-fe8967ed334b","ios":"levelo://app?vid=0d604e16-f3a5-4d04-9185-fe8967ed334b"},"vehicle_type_id":"4","last_reported":1701641184,"current_range_meters":23600,"station_id":"ce4bh192rcd13ifvqdd0","pricing_plan_id":"free"},{"bike_id":"47e7ac63-2632-4ae8-9f67-dc575c2b67f4","system_id":"levelo_inurba_marseille","lat":43.284538,"lon":5.358657,"is_reserved":false,"is_disabled":false,"rental_uris":{"android":"levelo://app?vid=47e7ac63-2632-4ae8-9f67-dc575c2b67f4","ios":"levelo://app?vid=47e7ac63-2632-4ae8-9f67-dc575c2b67f4"},"vehicle_type_id":"4","last_reported":1701641184,"current_range_meters":18000,"station_id":"ce4bhah2rcd13ifvqei0","pricing_plan_id":"free"},{"bike_id":"4f16a13c-1bcc-4bf1-a7c2-20a6ff94aa57","system_id":"levelo_inurba_marseille","lat":43.294314,"lon":5.397498,"is_reserved":false,"is_disabled":false,"rental_uris":{"android":"levelo://app?vid=4f16a13c-1bcc-4bf1-a7c2-20a6ff94aa57","ios":"levelo://app?vid=4f16a13c-1bcc-4bf1-a7c2-20a6ff94aa57"},"vehicle_type_id":"4","last_reported":1701641184,"current_range_meters":30400,"station_id":"ce4bh3h2rcd13ifvqdo0","pricing_plan_id":"free"},{"bike_id":"7139f4f6-993e-4275-a374-7720f24f2359","system_id":"levelo_inurba_marseille","lat":43.284534,"lon":5.358662,"is_reserved":false,"is_disabled":false,"rental_uris":{"android":"levelo://app?vid=7139f4f6-993e-4275-a374-7720f24f2359","ios":"levelo://app?vid=7139f4f6-993e-4275-a374-7720f24f2359"},"vehicle_type_id":"4","last_reported":1701641184,"current_range_meters":13200,"station_id":"ce4bhah2rcd13ifvqei0","pricing_plan_id":"free"},{"bike_id":"104ab63b-334e-45c3-9308-421bb28d97e8","system_id":"levelo_inurba_marseille","lat":43.284538,"lon":5.358657,"is_reserved":false,"is_disabled":false,"rental_uris":{"android":"levelo://app?vid=104ab63b-334e-45c3-9308-421bb28d97e8","ios":"levelo://app?vid=104ab63b-334e-45c3-9308-421bb28d97e8"},"vehicle_type_id":"4","last_reported":1701641184,"current_range_meters":26000,"station_id":"ce4bhah2rcd13ifvqei0","pricing_plan_id":"free"},{"bike_id":"0a9171ae-d19b-4f95-9a43-7c63ce3e268b","system_id":"levelo_inurba_marseille","lat":43.284538,"lon":5.358657,"is_reserved":false,"is_disabled":false,"rental_uris":{"android":"levelo://app?vid=0a9171ae-d19b-4f95-9a43-7c63ce3e268b","ios":"levelo://app?vid=0a9171ae-d19b-4f95-9a43-7c63ce3e268b"},"vehicle_type_id":"4","last_reported":1701641184,"current_range_meters":26400,"station_id":"ce4bhah2rcd13ifvqei0","pricing_plan_id":"free"},{"bike_id":"5a3c04d2-ecc3-40ce-8b74-fe5660e95ae7","system_id":"levelo_inurba_marseille","lat":43.285856,"lon":5.350771,"is_reserved":false,"is_disabled":false,"rental_uris":{"android":"levelo://app?vid=5a3c04d2-ecc3-40ce-8b74-fe5660e95ae7","ios":"levelo://app?vid=5a3c04d2-ecc3-40ce-8b74-fe5660e95ae7"},"vehicle_type_id":"4","last_reported":1701641184,"current_range_meters":14800,"station_id":"ce4bhch2rcd13ifvqeug","pricing_plan_id":"free"},{"bike_id":"f02f3243-ea83-483a-8af1-4c8628210ea2","system_id":"levelo_inurba_marseille","lat":43.2861,"lon":5.35101,"is_reserved":false,"is_disabled":false,"rental_uris":{"android":"levelo://app?vid=f02f3243-ea83-483a-8af1-4c8628210ea2","ios":"levelo://app?vid=f02f3243-ea83-483a-8af1-4c8628210ea2"},"vehicle_type_id":"4","last_reported":1701641184,"current_range_meters":14800,"station_id":"ce4bhch2rcd13ifvqeug","pricing_plan_id":"free"},{"bike_id":"5a6d5c80-a7a9-47e6-85e0-6875bc9e2103","system_id":"levelo_inurba_marseille","lat":43.283998,"lon":5.375062,"is_reserved":false,"is_disabled":false,"rental_uris":{"android":"levelo://app?vid=5a6d5c80-a7a9-47e6-85e0-6875bc9e2103","ios":"levelo://app?vid=5a6d5c80-a7a9-47e6-85e0-6875bc9e2103"},"vehicle_type_id":"4","last_reported":1701641184,"current_range_meters":30000,"station_id":"ce4bh412rcd13ifvqds0","pricing_plan_id":"free"},{"bike_id":"b716489b-9c40-4d3d-bc45-02769c398e16","system_id":"levelo_inurba_marseille","lat":43.283998,"lon":5.375062,"is_reserved":false,"is_disabled":false,"rental_uris":{"android":"levelo://app?vid=b716489b-9c40-4d3d-bc45-02769c398e16","ios":"levelo://app?vid=b716489b-9c40-4d3d-bc45-02769c398e16"},"vehicle_type_id":"4","last_reported":1701641184,"current_range_meters":26800,"station_id":"ce4bh412rcd13ifvqds0","pricing_plan_id":"free"},{"bike_id":"0deadf6b-b398-4b87-be66-366f6baa9529","system_id":"levelo_inurba_marseille","lat":43.295713,"lon":5.399639,"is_reserved":false,"is_disabled":false,"rental_uris":{"android":"levelo://app?vid=0deadf6b-b398-4b87-be66-366f6baa9529","ios":"levelo://app?vid=0deadf6b-b398-4b87-be66-366f6baa9529"},"vehicle_type_id":"4","last_reported":1701641184,"current_range_meters":27600,"station_id":"ce4bh312rcd13ifvqdj0","pricing_plan_id":"free"},{"bike_id":"23a6e18e-5ad6-40cf-b6fb-7a4b1a6034c9","system_id":"levelo_inurba_marseille","lat":43.33745,"lon":5.39116,"is_reserved":false,"is_disabled":false,"rental_uris":{"android":"levelo://app?vid=23a6e18e-5ad6-40cf-b6fb-7a4b1a6034c9","ios":"levelo://app?vid=23a6e18e-5ad6-40cf-b6fb-7a4b1a6034c9"},"vehicle_type_id":"4","last_reported":1701641184,"current_range_meters":26800,"station_id":"","pricing_plan_id":"free"},{"bike_id":"2f73a9c6-ea7c-45de-beee-438befc58a7b","system_id":"levelo_inurba_marseille","lat":43.33717,"lon":5.391857,"is_reserved":false,"is_disabled":false,"rental_uris":{"android":"levelo://app?vid=2f73a9c6-ea7c-45de-beee-438befc58a7b","ios":"levelo://app?vid=2f73a9c6-ea7c-45de-beee-438befc58a7b"},"vehicle_type_id":"4","last_reported":1701641184,"current_range_meters":18000,"station_id":"ce4bhr92rcd13ifvqhsg","pricing_plan_id":"free"},{"bike_id":"4b021143-be23-4d8d-ac72-086548831286","system_id":"levelo_inurba_marseille","lat":43.33717,"lon":5.391857,"is_reserved":false,"is_disabled":false,"rental_uris":{"android":"levelo://app?vid=4b021143-be23-4d8d-ac72-086548831286","ios":"levelo://app?vid=4b021143-be23-4d8d-ac72-086548831286"},"vehicle_type_id":"4","last_reported":1701641184,"current_range_meters":31600,"station_id":"ce4bhr92rcd13ifvqhsg","pricing_plan_id":"free"},{"bike_id":"73851b35-806c-423c-a848-91cb62f77226","system_id":"levelo_inurba_marseille","lat":43.29806,"lon":5.40403,"is_reserved":false,"is_disabled":false,"rental_uris":{"android":"levelo://app?vid=73851b35-806c-423c-a848-91cb62f77226","ios":"levelo://app?vid=73851b35-806c-423c-a848-91cb62f77226"},"vehicle_type_id":"4","last_reported":1701641184,"current_range_meters":9600,"station_id":"ce4bh112rcd13ifvqd90","pricing_plan_id":"free"},{"bike_id":"92787865-7b75-4adf-be0f-d91a8e7acc79","system_id":"levelo_inurba_marseille","lat":43.288501,"lon":5.393087,"is_reserved":false,"is_disabled":false,"rental_uris":{"android":"levelo://app?vid=92787865-7b75-4adf-be0f-d91a8e7acc79","ios":"levelo://app?vid=92787865-7b75-4adf-be0f-d91a8e7acc79"},"vehicle_type_id":"4","last_reported":1701641184,"current_range_meters":22800,"station_id":"ce4bh2p2rcd13ifvqdi0","pricing_plan_id":"free"},{"bike_id":"14a415cf-2708-451f-afb4-828b29db22a0","system_id":"levelo_inurba_marseille","lat":43.288501,"lon":5.393087,"is_reserved":false,"is_disabled":false,"rental_uris":{"android":"levelo://app?vid=14a415cf-2708-451f-afb4-828b29db22a0","ios":"levelo://app?vid=14a415cf-2708-451f-afb4-828b29db22a0"},"vehicle_type_id":"4","last_reported":1701641184,"current_range_meters":30400,"station_id":"ce4bh2p2rcd13ifvqdi0","pricing_plan_id":"free"},{"bike_id":"8819edde-f48a-4a77-9ef7-b61525dfc6c9","system_id":"levelo_inurba_marseille","lat":43.288501,"lon":5.393087,"is_reserved":false,"is_disabled":false,"rental_uris":{"android":"levelo://app?vid=8819edde-f48a-4a77-9ef7-b61525dfc6c9","ios":"levelo://app?vid=8819edde-f48a-4a77-9ef7-b61525dfc6c9"},"vehicle_type_id":"4","last_reported":1701641184,"current_range_meters":26400,"station_id":"ce4bh2p2rcd13ifvqdi0","pricing_plan_id":"free"},{"bike_id":"ac385c88-38c7-4939-a95a-bdae0a783995","system_id":"levelo_inurba_marseille","lat":43.283494,"lon":5.380945,"is_reserved":false,"is_disabled":false,"rental_uris":{"android":"levelo://app?vid=ac385c88-38c7-4939-a95a-bdae0a783995","ios":"levelo://app?vid=ac385c88-38c7-4939-a95a-bdae0a783995"},"vehicle_type_id":"4","last_reported":1701641184,"current_range_meters":19600,"station_id":"ce4bh412rcd13ifvqdr0","pricing_plan_id":"free"},{"bike_id":"e66e629b-b4fe-41b0-8a9f-fba2626b6f6a","system_id":"levelo_inurba_marseille","lat":43.289363,"lon":5.396322,"is_reserved":false,"is_disabled":false,"rental_uris":{"android":"levelo://app?vid=e66e629b-b4fe-41b0-8a9f-fba2626b6f6a","ios":"levelo://app?vid=e66e629b-b4fe-41b0-8a9f-fba2626b6f6a"},"vehicle_type_id":"4","last_reported":1701641184,"current_range_meters":22400,"station_id":"ce4bh3h2rcd13ifvqdn0","pricing_plan_id":"free"},{"bike_id":"ffd0f445-c315-47d0-bd2e-08562e20ea25","system_id":"levelo_inurba_marseille","lat":43.282744,"lon":5.350533,"is_reserved":false,"is_disabled":false,"rental_uris":{"android":"levelo://app?vid=ffd0f445-c315-47d0-bd2e-08562e20ea25","ios":"levelo://app?vid=ffd0f445-c315-47d0-bd2e-08562e20ea25"},"vehicle_type_id":"4","last_reported":1701641184,"current_range_meters":27200,"station_id":"ce4bhbp2rcd13ifvqerg","pricing_plan_id":"free"},{"bike_id":"2bc3ede3-14be-4629-9ad4-5b4ae198650f","system_id":"levelo_inurba_marseille","lat":43.28039,"lon":5.369297,"is_reserved":false,"is_disabled":false,"rental_uris":{"android":"levelo://app?vid=2bc3ede3-14be-4629-9ad4-5b4ae198650f","ios":"levelo://app?vid=2bc3ede3-14be-4629-9ad4-5b4ae198650f"},"vehicle_type_id":"4","last_reported":1701641184,"current_range_meters":28400,"station_id":"ce4bha12rcd13ifvqef0","pricing_plan_id":"free"},{"bike_id":"a9cec647-2fa3-4d82-a42f-4dd28accb0c0","system_id":"levelo_inurba_marseille","lat":43.28039,"lon":5.369297,"is_reserved":false,"is_disabled":false,"rental_uris":{"android":"levelo://app?vid=a9cec647-2fa3-4d82-a42f-4dd28accb0c0","ios":"levelo://app?vid=a9cec647-2fa3-4d82-a42f-4dd28accb0c0"},"vehicle_type_id":"4","last_reported":1701641184,"current_range_meters":30000,"station_id":"ce4bha12rcd13ifvqef0","pricing_plan_id":"free"},{"bike_id":"ec072393-b678-4914-979e-97b206813db4","system_id":"levelo_inurba_marseille","lat":43.290442,"lon":5.399554,"is_reserved":false,"is_disabled":false,"rental_uris":{"android":"levelo://app?vid=ec072393-b678-4914-979e-97b206813db4","ios":"levelo://app?vid=ec072393-b678-4914-979e-97b206813db4"},"vehicle_type_id":"4","last_reported":1701641184,"current_range_meters":28400,"station_id":"","pricing_plan_id":"free"},{"bike_id":"570f6efa-fb40-4e1b-af98-52b2809cbf59","system_id":"levelo_inurba_marseille","lat":43.290503,"lon":5.39966,"is_reserved":false,"is_disabled":false,"rental_uris":{"android":"levelo://app?vid=570f6efa-fb40-4e1b-af98-52b2809cbf59","ios":"levelo://app?vid=570f6efa-fb40-4e1b-af98-52b2809cbf59"},"vehicle_type_id":"4","last_reported":1701641184,"current_range_meters":26800,"station_id":"ce4bh392rcd13ifvqdm0","pricing_plan_id":"free"},{"bike_id":"22e16aa0-943e-4392-baa8-d7779108c3f6","system_id":"levelo_inurba_marseille","lat":43.290422,"lon":5.399583,"is_reserved":false,"is_disabled":false,"rental_uris":{"android":"levelo://app?vid=22e16aa0-943e-4392-baa8-d7779108c3f6","ios":"levelo://app?vid=22e16aa0-943e-4392-baa8-d7779108c3f6"},"vehicle_type_id":"4","last_reported":1701641184,"current_range_meters":26400,"station_id":"ce4bh392rcd13ifvqdm0","pricing_plan_id":"free"},{"bike_id":"d34773e4-53de-42ff-b5e5-b94ea94ea31f","system_id":"levelo_inurba_marseille","lat":43.290483,"lon":5.399663,"is_reserved":false,"is_disabled":false,"rental_uris":{"android":"levelo://app?vid=d34773e4-53de-42ff-b5e5-b94ea94ea31f","ios":"levelo://app?vid=d34773e4-53de-42ff-b5e5-b94ea94ea31f"},"vehicle_type_id":"4","last_reported":1701641184,"current_range_meters":30000,"station_id":"ce4bh392rcd13ifvqdm0","pricing_plan_id":"free"},{"bike_id":"96559383-a678-4cf5-9a80-ec586428b8ff","system_id":"levelo_inurba_marseille","lat":43.29048,"lon":5.39968,"is_reserved":false,"is_disabled":false,"rental_uris":{"android":"levelo://app?vid=96559383-a678-4cf5-9a80-ec586428b8ff","ios":"levelo://app?vid=96559383-a678-4cf5-9a80-ec586428b8ff"},"vehicle_type_id":"4","last_reported":1701641184,"current_range_meters":27600,"station_id":"ce4bh392rcd13ifvqdm0","pricing_plan_id":"free"},{"bike_id":"24c3c60d-c67e-4865-81ff-736fa4ff165d","system_id":"levelo_inurba_marseille","lat":43.2904,"lon":5.399581,"is_reserved":false,"is_disabled":false,"rental_uris":{"android":"levelo://app?vid=24c3c60d-c67e-4865-81ff-736fa4ff165d","ios":"levelo://app?vid=24c3c60d-c67e-4865-81ff-736fa4ff165d"},"vehicle_type_id":"4","last_reported":1701641184,"current_range_meters":20000,"station_id":"ce4bh392rcd13ifvqdm0","pricing_plan_id":"free"},{"bike_id":"c2e7ec07-25a3-4392-b6e1-4106c5c3194d","system_id":"levelo_inurba_marseille","lat":43.290395,"lon":5.399596,"is_reserved":false,"is_disabled":false,"rental_uris":{"android":"levelo://app?vid=c2e7ec07-25a3-4392-b6e1-4106c5c3194d","ios":"levelo://app?vid=c2e7ec07-25a3-4392-b6e1-4106c5c3194d"},"vehicle_type_id":"4","last_reported":1701641184,"current_range_meters":19200,"station_id":"ce4bh392rcd13ifvqdm0","pricing_plan_id":"free"},{"bike_id":"dbcbf86b-13a4-4678-8bd9-66eca4d1e0c7","system_id":"levelo_inurba_marseille","lat":43.290445,"lon":5.39968,"is_reserved":false,"is_disabled":false,"rental_uris":{"android":"levelo://app?vid=dbcbf86b-13a4-4678-8bd9-66eca4d1e0c7","ios":"levelo://app?vid=dbcbf86b-13a4-4678-8bd9-66eca4d1e0c7"},"vehicle_type_id":"4","last_reported":1701641184,"current_range_meters":29200,"station_id":"ce4bh392rcd13ifvqdm0","pricing_plan_id":"free"},{"bike_id":"889da68a-4ee9-4663-a628-b18a37e19ac1","system_id":"levelo_inurba_marseille","lat":43.290382,"lon":5.399602,"is_reserved":false,"is_disabled":false,"rental_uris":{"android":"levelo://app?vid=889da68a-4ee9-4663-a628-b18a37e19ac1","ios":"levelo://app?vid=889da68a-4ee9-4663-a628-b18a37e19ac1"},"vehicle_type_id":"4","last_reported":1701641184,"current_range_meters":26800,"station_id":"ce4bh392rcd13ifvqdm0","pricing_plan_id":"free"},{"bike_id":"e5233931-1b72-4a0d-a95d-e0549c9dbf7b","system_id":"levelo_inurba_marseille","lat":43.29038,"lon":5.399603,"is_reserved":false,"is_disabled":false,"rental_uris":{"android":"levelo://app?vid=e5233931-1b72-4a0d-a95d-e0549c9dbf7b","ios":"levelo://app?vid=e5233931-1b72-4a0d-a95d-e0549c9dbf7b"},"vehicle_type_id":"4","last_reported":1701641184,"current_range_meters":28800,"station_id":"ce4bh392rcd13ifvqdm0","pricing_plan_id":"free"},{"bike_id":"71d699ef-34cb-4fb5-b790-9187a787ae0c","system_id":"levelo_inurba_marseille","lat":43.290385,"lon":5.39964,"is_reserved":false,"is_disabled":false,"rental_uris":{"android":"levelo://app?vid=71d699ef-34cb-4fb5-b790-9187a787ae0c","ios":"levelo://app?vid=71d699ef-34cb-4fb5-b790-9187a787ae0c"},"vehicle_type_id":"4","last_reported":1701641184,"current_range_meters":26000,"station_id":"ce4bh392rcd13ifvqdm0","pricing_plan_id":"free"},{"bike_id":"96207197-1a09-412a-9210-4cb5a4ecfae4","system_id":"levelo_inurba_marseille","lat":43.290408,"lon":5.399697,"is_reserved":false,"is_disabled":false,"rental_uris":{"android":"levelo://app?vid=96207197-1a09-412a-9210-4cb5a4ecfae4","ios":"levelo://app?vid=96207197-1a09-412a-9210-4cb5a4ecfae4"},"vehicle_type_id":"4","last_reported":1701641184,"current_range_meters":18800,"station_id":"ce4bh392rcd13ifvqdm0","pricing_plan_id":"free"},{"bike_id":"7a33bebd-e3e5-425f-960b-fe25aec483ef","system_id":"levelo_inurba_marseille","lat":43.28095,"lon":5.37849,"is_reserved":false,"is_disabled":false,"rental_uris":{"android":"levelo://app?vid=7a33bebd-e3e5-425f-960b-fe25aec483ef","ios":"levelo://app?vid=7a33bebd-e3e5-425f-960b-fe25aec483ef"},"vehicle_type_id":"4","last_reported":1701641184,"current_range_meters":0,"station_id":"ce4bha12rcd13ifvqee0","pricing_plan_id":"free"},{"bike_id":"9d7489d3-986c-4d49-b567-95127c977aa8","system_id":"levelo_inurba_marseille","lat":43.285742,"lon":5.395004,"is_reserved":false,"is_disabled":false,"rental_uris":{"android":"levelo://app?vid=9d7489d3-986c-4d49-b567-95127c977aa8","ios":"levelo://app?vid=9d7489d3-986c-4d49-b567-95127c977aa8"},"vehicle_type_id":"4","last_reported":1701641184,"current_range_meters":30400,"station_id":"ce4bh292rcd13ifvqdg0","pricing_plan_id":"free"},{"bike_id":"9a037e00-3e08-43d6-b7ca-d9199e11de56","system_id":"levelo_inurba_marseille","lat":43.28573,"lon":5.394992,"is_reserved":false,"is_disabled":false,"rental_uris":{"android":"levelo://app?vid=9a037e00-3e08-43d6-b7ca-d9199e11de56","ios":"levelo://app?vid=9a037e00-3e08-43d6-b7ca-d9199e11de56"},"vehicle_type_id":"4","last_reported":1701641184,"current_range_meters":28400,"station_id":"ce4bh292rcd13ifvqdg0","pricing_plan_id":"free"},{"bike_id":"5ea63be6-3349-4390-a9b9-442fda72cc26","system_id":"levelo_inurba_marseille","lat":43.304188,"lon":5.412904,"is_reserved":false,"is_disabled":false,"rental_uris":{"android":"levelo://app?vid=5ea63be6-3349-4390-a9b9-442fda72cc26","ios":"levelo://app?vid=5ea63be6-3349-4390-a9b9-442fda72cc26"},"vehicle_type_id":"4","last_reported":1701641184,"current_range_meters":16400,"station_id":"ce4bhop2rcd13ifvqh8g","pricing_plan_id":"free"},{"bike_id":"2bb6c6e3-3605-48ff-aa4a-063f9b7b33fd","system_id":"levelo_inurba_marseille","lat":43.279087,"lon":5.380114,"is_reserved":false,"is_disabled":false,"rental_uris":{"android":"levelo://app?vid=2bb6c6e3-3605-48ff-aa4a-063f9b7b33fd","ios":"levelo://app?vid=2bb6c6e3-3605-48ff-aa4a-063f9b7b33fd"},"vehicle_type_id":"4","last_reported":1701641184,"current_range_meters":27200,"station_id":"ce4bhf92rcd13ifvqf50","pricing_plan_id":"free"},{"bike_id":"5a25bf69-6178-4680-ba62-eb181662b01d","system_id":"levelo_inurba_marseille","lat":43.325243,"lon":5.414326,"is_reserved":false,"is_disabled":false,"rental_uris":{"android":"levelo://app?vid=5a25bf69-6178-4680-ba62-eb181662b01d","ios":"levelo://app?vid=5a25bf69-6178-4680-ba62-eb181662b01d"},"vehicle_type_id":"4","last_reported":1701641184,"current_range_meters":26400,"station_id":"ce4bhq12rcd13ifvqhhg","pricing_plan_id":"free"},{"bike_id":"d83ccb3e-3ec2-4a1c-8424-08e0b207462f","system_id":"levelo_inurba_marseille","lat":43.292647,"lon":5.409162,"is_reserved":false,"is_disabled":false,"rental_uris":{"android":"levelo://app?vid=d83ccb3e-3ec2-4a1c-8424-08e0b207462f","ios":"levelo://app?vid=d83ccb3e-3ec2-4a1c-8424-08e0b207462f"},"vehicle_type_id":"4","last_reported":1701641184,"current_range_meters":14800,"station_id":"","pricing_plan_id":"free"},{"bike_id":"8655e413-80ee-4d84-b730-270082651002","system_id":"levelo_inurba_marseille","lat":43.278399,"lon":5.392139,"is_reserved":false,"is_disabled":false,"rental_uris":{"android":"levelo://app?vid=8655e413-80ee-4d84-b730-270082651002","ios":"levelo://app?vid=8655e413-80ee-4d84-b730-270082651002"},"vehicle_type_id":"4","last_reported":1701641184,"current_range_meters":26800,"station_id":"ce4bhjp2rcd13ifvqga0","pricing_plan_id":"free"},{"bike_id":"80cf8d2b-a61c-41a8-9c64-18d78a1430ab","system_id":"levelo_inurba_marseille","lat":43.275625,"lon":5.384392,"is_reserved":false,"is_disabled":false,"rental_uris":{"android":"levelo://app?vid=80cf8d2b-a61c-41a8-9c64-18d78a1430ab","ios":"levelo://app?vid=80cf8d2b-a61c-41a8-9c64-18d78a1430ab"},"vehicle_type_id":"4","last_reported":1701641184,"current_range_meters":26800,"station_id":"ce4bhh92rcd13ifvqfi0","pricing_plan_id":"free"},{"bike_id":"583542c5-23c7-402a-a75e-774d530474ba","system_id":"levelo_inurba_marseille","lat":43.33612,"lon":5.410321,"is_reserved":false,"is_disabled":false,"rental_uris":{"android":"levelo://app?vid=583542c5-23c7-402a-a75e-774d530474ba","ios":"levelo://app?vid=583542c5-23c7-402a-a75e-774d530474ba"},"vehicle_type_id":"4","last_reported":1701641184,"current_range_meters":28800,"station_id":"ce4bhqh2rcd13ifvqhmg","pricing_plan_id":"free"},{"bike_id":"434f8c2d-8b04-4ae4-ba85-9191f2b000bc","system_id":"levelo_inurba_marseille","lat":43.336148,"lon":5.410349,"is_reserved":false,"is_disabled":false,"rental_uris":{"android":"levelo://app?vid=434f8c2d-8b04-4ae4-ba85-9191f2b000bc","ios":"levelo://app?vid=434f8c2d-8b04-4ae4-ba85-9191f2b000bc"},"vehicle_type_id":"4","last_reported":1701641184,"current_range_meters":25600,"station_id":"ce4bhqh2rcd13ifvqhmg","pricing_plan_id":"free"},{"bike_id":"1eee92e8-0649-46de-949d-588fc917e64f","system_id":"levelo_inurba_marseille","lat":43.279952,"lon":5.400085,"is_reserved":false,"is_disabled":false,"rental_uris":{"android":"levelo://app?vid=1eee92e8-0649-46de-949d-588fc917e64f","ios":"levelo://app?vid=1eee92e8-0649-46de-949d-588fc917e64f"},"vehicle_type_id":"4","last_reported":1701641184,"current_range_meters":25600,"station_id":"ce4bho92rcd13ifvqh4g","pricing_plan_id":"free"},{"bike_id":"ee4024f5-e2a3-4ee7-ad91-692fd6ea21f0","system_id":"levelo_inurba_marseille","lat":43.317121,"lon":5.423936,"is_reserved":false,"is_disabled":false,"rental_uris":{"android":"levelo://app?vid=ee4024f5-e2a3-4ee7-ad91-692fd6ea21f0","ios":"levelo://app?vid=ee4024f5-e2a3-4ee7-ad91-692fd6ea21f0"},"vehicle_type_id":"4","last_reported":1701641184,"current_range_meters":5200,"station_id":"ce4bhp92rcd13ifvqhbg","pricing_plan_id":"free"},{"bike_id":"4c266738-4562-4ce1-aca7-b04f03b275b5","system_id":"levelo_inurba_marseille","lat":43.317121,"lon":5.423936,"is_reserved":false,"is_disabled":false,"rental_uris":{"android":"levelo://app?vid=4c266738-4562-4ce1-aca7-b04f03b275b5","ios":"levelo://app?vid=4c266738-4562-4ce1-aca7-b04f03b275b5"},"vehicle_type_id":"4","last_reported":1701641184,"current_range_meters":28800,"station_id":"ce4bhp92rcd13ifvqhbg","pricing_plan_id":"free"},{"bike_id":"ae9af643-001e-42d9-8c47-cb12ff606b64","system_id":"levelo_inurba_marseille","lat":43.317121,"lon":5.423936,"is_reserved":false,"is_disabled":false,"rental_uris":{"android":"levelo://app?vid=ae9af643-001e-42d9-8c47-cb12ff606b64","ios":"levelo://app?vid=ae9af643-001e-42d9-8c47-cb12ff606b64"},"vehicle_type_id":"4","last_reported":1701641184,"current_range_meters":18000,"station_id":"ce4bhp92rcd13ifvqhbg","pricing_plan_id":"free"},{"bike_id":"ba2cdc49-316c-4fb7-ae87-5812c3ece311","system_id":"levelo_inurba_marseille","lat":43.317121,"lon":5.423936,"is_reserved":false,"is_disabled":false,"rental_uris":{"android":"levelo://app?vid=ba2cdc49-316c-4fb7-ae87-5812c3ece311","ios":"levelo://app?vid=ba2cdc49-316c-4fb7-ae87-5812c3ece311"},"vehicle_type_id":"4","last_reported":1701641184,"current_range_meters":31600,"station_id":"ce4bhp92rcd13ifvqhbg","pricing_plan_id":"free"},{"bike_id":"910fd3aa-d2e0-4553-894a-6161d41c7fcd","system_id":"levelo_inurba_marseille","lat":43.27609,"lon":5.39475,"is_reserved":false,"is_disabled":false,"rental_uris":{"android":"levelo://app?vid=910fd3aa-d2e0-4553-894a-6161d41c7fcd","ios":"levelo://app?vid=910fd3aa-d2e0-4553-894a-6161d41c7fcd"},"vehicle_type_id":"4","last_reported":1701641184,"current_range_meters":14000,"station_id":"","pricing_plan_id":"free"},{"bike_id":"7235a8e2-785d-4aa2-8081-aaece19cbd92","system_id":"levelo_inurba_marseille","lat":43.27785,"lon":5.39938,"is_reserved":false,"is_disabled":false,"rental_uris":{"android":"levelo://app?vid=7235a8e2-785d-4aa2-8081-aaece19cbd92","ios":"levelo://app?vid=7235a8e2-785d-4aa2-8081-aaece19cbd92"},"vehicle_type_id":"4","last_reported":1701641184,"current_range_meters":0,"station_id":"cjm6bp8fraef2m0cb0m0","pricing_plan_id":"free"},{"bike_id":"2e8ce62a-2887-45f6-8d91-faa9c04cb17c","system_id":"levelo_inurba_marseille","lat":43.273125,"lon":5.390731,"is_reserved":false,"is_disabled":false,"rental_uris":{"android":"levelo://app?vid=2e8ce62a-2887-45f6-8d91-faa9c04cb17c","ios":"levelo://app?vid=2e8ce62a-2887-45f6-8d91-faa9c04cb17c"},"vehicle_type_id":"4","last_reported":1701641184,"current_range_meters":0,"station_id":"ce4bhgp2rcd13ifvqfe0","pricing_plan_id":"free"},{"bike_id":"590419f8-316c-4a8b-b6df-41cb90ff7357","system_id":"levelo_inurba_marseille","lat":43.273129,"lon":5.390725,"is_reserved":false,"is_disabled":false,"rental_uris":{"android":"levelo://app?vid=590419f8-316c-4a8b-b6df-41cb90ff7357","ios":"levelo://app?vid=590419f8-316c-4a8b-b6df-41cb90ff7357"},"vehicle_type_id":"4","last_reported":1701641184,"current_range_meters":0,"station_id":"ce4bhgp2rcd13ifvqfe0","pricing_plan_id":"free"},{"bike_id":"efb27c4b-1da9-4cd0-8b16-89083f23742e","system_id":"levelo_inurba_marseille","lat":43.274263,"lon":5.394113,"is_reserved":false,"is_disabled":false,"rental_uris":{"android":"levelo://app?vid=efb27c4b-1da9-4cd0-8b16-89083f23742e","ios":"levelo://app?vid=efb27c4b-1da9-4cd0-8b16-89083f23742e"},"vehicle_type_id":"4","last_reported":1701641184,"current_range_meters":0,"station_id":"ce4bhdp2rcd13ifvqf20","pricing_plan_id":"free"},{"bike_id":"16ed0702-3beb-465e-8f72-aa4e21e2a2dc","system_id":"levelo_inurba_marseille","lat":43.295511,"lon":5.422926,"is_reserved":false,"is_disabled":false,"rental_uris":{"android":"levelo://app?vid=16ed0702-3beb-465e-8f72-aa4e21e2a2dc","ios":"levelo://app?vid=16ed0702-3beb-465e-8f72-aa4e21e2a2dc"},"vehicle_type_id":"4","last_reported":1701641184,"current_range_meters":25600,"station_id":"ce4bhph2rcd13ifvqhdg","pricing_plan_id":"free"},{"bike_id":"b2c2d860-979e-4069-ba1c-d868b86d0358","system_id":"levelo_inurba_marseille","lat":43.295511,"lon":5.422926,"is_reserved":false,"is_disabled":false,"rental_uris":{"android":"levelo://app?vid=b2c2d860-979e-4069-ba1c-d868b86d0358","ios":"levelo://app?vid=b2c2d860-979e-4069-ba1c-d868b86d0358"},"vehicle_type_id":"4","last_reported":1701641184,"current_range_meters":6400,"station_id":"ce4bhph2rcd13ifvqhdg","pricing_plan_id":"free"},{"bike_id":"6b1af463-319c-4ec7-900e-4c248fc9af9e","system_id":"levelo_inurba_marseille","lat":43.278128,"lon":5.407195,"is_reserved":false,"is_disabled":false,"rental_uris":{"android":"levelo://app?vid=6b1af463-319c-4ec7-900e-4c248fc9af9e","ios":"levelo://app?vid=6b1af463-319c-4ec7-900e-4c248fc9af9e"},"vehicle_type_id":"4","last_reported":1701641184,"current_range_meters":29200,"station_id":"ce4bhnh2rcd13ifvqgtg","pricing_plan_id":"free"},{"bike_id":"33dafeae-6400-4a6a-ad6a-3e25da0d2a79","system_id":"levelo_inurba_marseille","lat":43.278128,"lon":5.407195,"is_reserved":false,"is_disabled":false,"rental_uris":{"android":"levelo://app?vid=33dafeae-6400-4a6a-ad6a-3e25da0d2a79","ios":"levelo://app?vid=33dafeae-6400-4a6a-ad6a-3e25da0d2a79"},"vehicle_type_id":"4","last_reported":1701641184,"current_range_meters":6800,"station_id":"ce4bhnh2rcd13ifvqgtg","pricing_plan_id":"free"},{"bike_id":"e1ce4256-eb6d-4e47-b3d1-b94e18372261","system_id":"levelo_inurba_marseille","lat":43.278128,"lon":5.407195,"is_reserved":false,"is_disabled":false,"rental_uris":{"android":"levelo://app?vid=e1ce4256-eb6d-4e47-b3d1-b94e18372261","ios":"levelo://app?vid=e1ce4256-eb6d-4e47-b3d1-b94e18372261"},"vehicle_type_id":"4","last_reported":1701641184,"current_range_meters":15200,"station_id":"ce4bhnh2rcd13ifvqgtg","pricing_plan_id":"free"},{"bike_id":"d6bd0d5c-ab30-485f-8ce1-cf2a2d8b99aa","system_id":"levelo_inurba_marseille","lat":43.27941,"lon":5.41036,"is_reserved":false,"is_disabled":false,"rental_uris":{"android":"levelo://app?vid=d6bd0d5c-ab30-485f-8ce1-cf2a2d8b99aa","ios":"levelo://app?vid=d6bd0d5c-ab30-485f-8ce1-cf2a2d8b99aa"},"vehicle_type_id":"4","last_reported":1701641184,"current_range_meters":13200,"station_id":"ce4bhnp2rcd13ifvqh0g","pricing_plan_id":"free"},{"bike_id":"0ce340ee-4cc5-455c-8ef2-e149b03f6229","system_id":"levelo_inurba_marseille","lat":43.279465,"lon":5.410561,"is_reserved":false,"is_disabled":false,"rental_uris":{"android":"levelo://app?vid=0ce340ee-4cc5-455c-8ef2-e149b03f6229","ios":"levelo://app?vid=0ce340ee-4cc5-455c-8ef2-e149b03f6229"},"vehicle_type_id":"4","last_reported":1701641184,"current_range_meters":10800,"station_id":"ce4bhnp2rcd13ifvqh0g","pricing_plan_id":"free"},{"bike_id":"dc1148e6-327f-4b57-8e91-cc724d9ac120","system_id":"levelo_inurba_marseille","lat":43.27996,"lon":5.416624,"is_reserved":false,"is_disabled":false,"rental_uris":{"android":"levelo://app?vid=dc1148e6-327f-4b57-8e91-cc724d9ac120","ios":"levelo://app?vid=dc1148e6-327f-4b57-8e91-cc724d9ac120"},"vehicle_type_id":"4","last_reported":1701641184,"current_range_meters":18000,"station_id":"ce4bho12rcd13ifvqh1g","pricing_plan_id":"free"},{"bike_id":"ab1261d9-d8e9-4c1b-b14d-57a40a679a18","system_id":"levelo_inurba_marseille","lat":43.27999,"lon":5.41666,"is_reserved":false,"is_disabled":false,"rental_uris":{"android":"levelo://app?vid=ab1261d9-d8e9-4c1b-b14d-57a40a679a18","ios":"levelo://app?vid=ab1261d9-d8e9-4c1b-b14d-57a40a679a18"},"vehicle_type_id":"4","last_reported":1701641184,"current_range_meters":28400,"station_id":"ce4bho12rcd13ifvqh1g","pricing_plan_id":"free"},{"bike_id":"3a085ded-79fe-4229-ba36-720621cc3c5b","system_id":"levelo_inurba_marseille","lat":43.27996,"lon":5.416624,"is_reserved":false,"is_disabled":false,"rental_uris":{"android":"levelo://app?vid=3a085ded-79fe-4229-ba36-720621cc3c5b","ios":"levelo://app?vid=3a085ded-79fe-4229-ba36-720621cc3c5b"},"vehicle_type_id":"4","last_reported":1701641184,"current_range_meters":25600,"station_id":"ce4bho12rcd13ifvqh1g","pricing_plan_id":"free"},{"bike_id":"4f127e5f-2a2a-4efb-a0b6-3a397f95f373","system_id":"levelo_inurba_marseille","lat":43.26945,"lon":5.4026,"is_reserved":false,"is_disabled":false,"rental_uris":{"android":"levelo://app?vid=4f127e5f-2a2a-4efb-a0b6-3a397f95f373","ios":"levelo://app?vid=4f127e5f-2a2a-4efb-a0b6-3a397f95f373"},"vehicle_type_id":"4","last_reported":1701641184,"current_range_meters":6800,"station_id":"cjm6bp8fraef2m0cb0m0","pricing_plan_id":"free"},{"bike_id":"bf4ad048-f8b7-41c5-b87b-d5135b06aace","system_id":"levelo_inurba_marseille","lat":43.26187,"lon":5.37446,"is_reserved":false,"is_disabled":false,"rental_uris":{"android":"levelo://app?vid=bf4ad048-f8b7-41c5-b87b-d5135b06aace","ios":"levelo://app?vid=bf4ad048-f8b7-41c5-b87b-d5135b06aace"},"vehicle_type_id":"4","last_reported":1701641184,"current_range_meters":6400,"station_id":"ce4bhgp2rcd13ifvqfc0","pricing_plan_id":"free"},{"bike_id":"92a9cb82-c8c6-4ac1-9083-a38e30be1c7d","system_id":"levelo_inurba_marseille","lat":43.261782,"lon":5.374515,"is_reserved":false,"is_disabled":false,"rental_uris":{"android":"levelo://app?vid=92a9cb82-c8c6-4ac1-9083-a38e30be1c7d","ios":"levelo://app?vid=92a9cb82-c8c6-4ac1-9083-a38e30be1c7d"},"vehicle_type_id":"4","last_reported":1701641184,"current_range_meters":17200,"station_id":"ce4bhgp2rcd13ifvqfc0","pricing_plan_id":"free"},{"bike_id":"08c0ebf9-bf3e-4259-9641-66f2fdb4dde0","system_id":"levelo_inurba_marseille","lat":43.317104,"lon":5.436818,"is_reserved":false,"is_disabled":false,"rental_uris":{"android":"levelo://app?vid=08c0ebf9-bf3e-4259-9641-66f2fdb4dde0","ios":"levelo://app?vid=08c0ebf9-bf3e-4259-9641-66f2fdb4dde0"},"vehicle_type_id":"4","last_reported":1701641184,"current_range_meters":30400,"station_id":"ce4bhp92rcd13ifvqhcg","pricing_plan_id":"free"},{"bike_id":"b3a4a88c-d155-447c-ad55-fd92c25575ce","system_id":"levelo_inurba_marseille","lat":43.262012,"lon":5.379307,"is_reserved":false,"is_disabled":false,"rental_uris":{"android":"levelo://app?vid=b3a4a88c-d155-447c-ad55-fd92c25575ce","ios":"levelo://app?vid=b3a4a88c-d155-447c-ad55-fd92c25575ce"},"vehicle_type_id":"4","last_reported":1701641184,"current_range_meters":28400,"station_id":"ce4bhjp2rcd13ifvqg90","pricing_plan_id":"free"},{"bike_id":"3bb6943d-b5fe-4de5-88be-a93b0167c81b","system_id":"levelo_inurba_marseille","lat":43.281548,"lon":5.42643,"is_reserved":false,"is_disabled":false,"rental_uris":{"android":"levelo://app?vid=3bb6943d-b5fe-4de5-88be-a93b0167c81b","ios":"levelo://app?vid=3bb6943d-b5fe-4de5-88be-a93b0167c81b"},"vehicle_type_id":"4","last_reported":1701641184,"current_range_meters":25600,"station_id":"ce4bhnh2rcd13ifvqgug","pricing_plan_id":"free"},{"bike_id":"7a96db8f-5eb4-405b-8773-67506ad37afb","system_id":"levelo_inurba_marseille","lat":43.2816,"lon":5.42653,"is_reserved":false,"is_disabled":false,"rental_uris":{"android":"levelo://app?vid=7a96db8f-5eb4-405b-8773-67506ad37afb","ios":"levelo://app?vid=7a96db8f-5eb4-405b-8773-67506ad37afb"},"vehicle_type_id":"4","last_reported":1701641184,"current_range_meters":12000,"station_id":"ce4bhnh2rcd13ifvqgug","pricing_plan_id":"free"},{"bike_id":"5b3e0566-b00a-45ce-bada-6ddf6f7727ce","system_id":"levelo_inurba_marseille","lat":43.28156,"lon":5.42653,"is_reserved":false,"is_disabled":false,"rental_uris":{"android":"levelo://app?vid=5b3e0566-b00a-45ce-bada-6ddf6f7727ce","ios":"levelo://app?vid=5b3e0566-b00a-45ce-bada-6ddf6f7727ce"},"vehicle_type_id":"4","last_reported":1701641184,"current_range_meters":18400,"station_id":"ce4bhnh2rcd13ifvqgug","pricing_plan_id":"free"},{"bike_id":"0fd8254e-a95a-4dc5-963d-03782d038304","system_id":"levelo_inurba_marseille","lat":43.28146,"lon":5.42653,"is_reserved":false,"is_disabled":false,"rental_uris":{"android":"levelo://app?vid=0fd8254e-a95a-4dc5-963d-03782d038304","ios":"levelo://app?vid=0fd8254e-a95a-4dc5-963d-03782d038304"},"vehicle_type_id":"4","last_reported":1701641184,"current_range_meters":22400,"station_id":"ce4bhnh2rcd13ifvqgug","pricing_plan_id":"free"},{"bike_id":"19337c19-12ca-4f3b-a568-40a561779510","system_id":"levelo_inurba_marseille","lat":43.281407,"lon":5.429964,"is_reserved":false,"is_disabled":false,"rental_uris":{"android":"levelo://app?vid=19337c19-12ca-4f3b-a568-40a561779510","ios":"levelo://app?vid=19337c19-12ca-4f3b-a568-40a561779510"},"vehicle_type_id":"4","last_reported":1701641184,"current_range_meters":25200,"station_id":"","pricing_plan_id":"free"},{"bike_id":"2896d740-c829-4769-ab23-e2aa604b10cd","system_id":"levelo_inurba_marseille","lat":43.27494,"lon":5.42451,"is_reserved":false,"is_disabled":false,"rental_uris":{"android":"levelo://app?vid=2896d740-c829-4769-ab23-e2aa604b10cd","ios":"levelo://app?vid=2896d740-c829-4769-ab23-e2aa604b10cd"},"vehicle_type_id":"4","last_reported":1701641184,"current_range_meters":4400,"station_id":"ce4bhn92rcd13ifvqgrg","pricing_plan_id":"free"},{"bike_id":"17f35e7a-e54c-4208-a0bd-45b6b8360203","system_id":"levelo_inurba_marseille","lat":43.27493,"lon":5.42453,"is_reserved":false,"is_disabled":false,"rental_uris":{"android":"levelo://app?vid=17f35e7a-e54c-4208-a0bd-45b6b8360203","ios":"levelo://app?vid=17f35e7a-e54c-4208-a0bd-45b6b8360203"},"vehicle_type_id":"4","last_reported":1701641184,"current_range_meters":22400,"station_id":"ce4bhn92rcd13ifvqgrg","pricing_plan_id":"free"},{"bike_id":"b84c7cf6-2ad8-4347-b6e8-77b2394a0e95","system_id":"levelo_inurba_marseille","lat":43.25585,"lon":5.3823,"is_reserved":false,"is_disabled":false,"rental_uris":{"android":"levelo://app?vid=b84c7cf6-2ad8-4347-b6e8-77b2394a0e95","ios":"levelo://app?vid=b84c7cf6-2ad8-4347-b6e8-77b2394a0e95"},"vehicle_type_id":"4","last_reported":1701641184,"current_range_meters":26000,"station_id":"ce4bhih2rcd13ifvqfs0","pricing_plan_id":"free"},{"bike_id":"91e9a8ab-02bf-4fcc-b8f1-587cd6d6e2d5","system_id":"levelo_inurba_marseille","lat":43.270721,"lon":5.422764,"is_reserved":false,"is_disabled":false,"rental_uris":{"android":"levelo://app?vid=91e9a8ab-02bf-4fcc-b8f1-587cd6d6e2d5","ios":"levelo://app?vid=91e9a8ab-02bf-4fcc-b8f1-587cd6d6e2d5"},"vehicle_type_id":"4","last_reported":1701641184,"current_range_meters":4000,"station_id":"ce4bhk92rcd13ifvqgb0","pricing_plan_id":"free"},{"bike_id":"c5dda8c0-469f-496a-a8f7-bbd1aa160ecf","system_id":"levelo_inurba_marseille","lat":43.270721,"lon":5.422764,"is_reserved":false,"is_disabled":false,"rental_uris":{"android":"levelo://app?vid=c5dda8c0-469f-496a-a8f7-bbd1aa160ecf","ios":"levelo://app?vid=c5dda8c0-469f-496a-a8f7-bbd1aa160ecf"},"vehicle_type_id":"4","last_reported":1701641184,"current_range_meters":14800,"station_id":"ce4bhk92rcd13ifvqgb0","pricing_plan_id":"free"},{"bike_id":"e6fee166-d8ae-4019-abb3-6c4f3b176b93","system_id":"levelo_inurba_marseille","lat":43.270721,"lon":5.422764,"is_reserved":false,"is_disabled":false,"rental_uris":{"android":"levelo://app?vid=e6fee166-d8ae-4019-abb3-6c4f3b176b93","ios":"levelo://app?vid=e6fee166-d8ae-4019-abb3-6c4f3b176b93"},"vehicle_type_id":"4","last_reported":1701641184,"current_range_meters":22400,"station_id":"ce4bhk92rcd13ifvqgb0","pricing_plan_id":"free"},{"bike_id":"d10a0046-453f-46e2-bcb4-5558cad0a0ca","system_id":"levelo_inurba_marseille","lat":43.250009,"lon":5.389195,"is_reserved":false,"is_disabled":false,"rental_uris":{"android":"levelo://app?vid=d10a0046-453f-46e2-bcb4-5558cad0a0ca","ios":"levelo://app?vid=d10a0046-453f-46e2-bcb4-5558cad0a0ca"},"vehicle_type_id":"4","last_reported":1701641184,"current_range_meters":26800,"station_id":"ce4bhgp2rcd13ifvqfd0","pricing_plan_id":"free"},{"bike_id":"f3031a93-c812-47f9-befb-cee3e4d878fb","system_id":"levelo_inurba_marseille","lat":43.2479,"lon":5.374457,"is_reserved":false,"is_disabled":false,"rental_uris":{"android":"levelo://app?vid=f3031a93-c812-47f9-befb-cee3e4d878fb","ios":"levelo://app?vid=f3031a93-c812-47f9-befb-cee3e4d878fb"},"vehicle_type_id":"4","last_reported":1701641184,"current_range_meters":30000,"station_id":"ce4bhgh2rcd13ifvqfb0","pricing_plan_id":"free"},{"bike_id":"95315ee5-452e-4237-9ab9-136307729c49","system_id":"levelo_inurba_marseille","lat":43.2479,"lon":5.374457,"is_reserved":false,"is_disabled":false,"rental_uris":{"android":"levelo://app?vid=95315ee5-452e-4237-9ab9-136307729c49","ios":"levelo://app?vid=95315ee5-452e-4237-9ab9-136307729c49"},"vehicle_type_id":"4","last_reported":1701641184,"current_range_meters":24400,"station_id":"ce4bhgh2rcd13ifvqfb0","pricing_plan_id":"free"},{"bike_id":"c44bfe06-236e-4b9f-aab8-9a279bba123a","system_id":"levelo_inurba_marseille","lat":43.2479,"lon":5.374457,"is_reserved":false,"is_disabled":false,"rental_uris":{"android":"levelo://app?vid=c44bfe06-236e-4b9f-aab8-9a279bba123a","ios":"levelo://app?vid=c44bfe06-236e-4b9f-aab8-9a279bba123a"},"vehicle_type_id":"4","last_reported":1701641184,"current_range_meters":3200,"station_id":"ce4bhgh2rcd13ifvqfb0","pricing_plan_id":"free"},{"bike_id":"2991e689-649d-4f95-9ad5-1f501c09a58e","system_id":"levelo_inurba_marseille","lat":43.2479,"lon":5.374457,"is_reserved":false,"is_disabled":false,"rental_uris":{"android":"levelo://app?vid=2991e689-649d-4f95-9ad5-1f501c09a58e","ios":"levelo://app?vid=2991e689-649d-4f95-9ad5-1f501c09a58e"},"vehicle_type_id":"4","last_reported":1701641184,"current_range_meters":14800,"station_id":"ce4bhgh2rcd13ifvqfb0","pricing_plan_id":"free"},{"bike_id":"ab651f20-342c-401a-ba35-80bb8d257ab6","system_id":"levelo_inurba_marseille","lat":43.2479,"lon":5.374457,"is_reserved":false,"is_disabled":false,"rental_uris":{"android":"levelo://app?vid=ab651f20-342c-401a-ba35-80bb8d257ab6","ios":"levelo://app?vid=ab651f20-342c-401a-ba35-80bb8d257ab6"},"vehicle_type_id":"4","last_reported":1701641184,"current_range_meters":14800,"station_id":"ce4bhgh2rcd13ifvqfb0","pricing_plan_id":"free"},{"bike_id":"2f185611-03fb-401c-be92-79ce82267c3e","system_id":"levelo_inurba_marseille","lat":43.24693,"lon":5.382096,"is_reserved":false,"is_disabled":false,"rental_uris":{"android":"levelo://app?vid=2f185611-03fb-401c-be92-79ce82267c3e","ios":"levelo://app?vid=2f185611-03fb-401c-be92-79ce82267c3e"},"vehicle_type_id":"4","last_reported":1701641184,"current_range_meters":16400,"station_id":"ce4bhih2rcd13ifvqfr0","pricing_plan_id":"free"},{"bike_id":"3ce492b4-56c5-4765-8b5b-9b637cfa3a78","system_id":"levelo_inurba_marseille","lat":43.24667,"lon":5.38169,"is_reserved":false,"is_disabled":false,"rental_uris":{"android":"levelo://app?vid=3ce492b4-56c5-4765-8b5b-9b637cfa3a78","ios":"levelo://app?vid=3ce492b4-56c5-4765-8b5b-9b637cfa3a78"},"vehicle_type_id":"4","last_reported":1701641184,"current_range_meters":19600,"station_id":"ce4bhih2rcd13ifvqfr0","pricing_plan_id":"free"},{"bike_id":"47218376-6c80-47cd-991a-4badc7584f1a","system_id":"levelo_inurba_marseille","lat":43.25102,"lon":5.403214,"is_reserved":false,"is_disabled":false,"rental_uris":{"android":"levelo://app?vid=47218376-6c80-47cd-991a-4badc7584f1a","ios":"levelo://app?vid=47218376-6c80-47cd-991a-4badc7584f1a"},"vehicle_type_id":"4","last_reported":1701641184,"current_range_meters":26000,"station_id":"ce4bhlh2rcd13ifvqgig","pricing_plan_id":"free"},{"bike_id":"57f65d59-9d2d-4652-a23b-3250afb3970b","system_id":"levelo_inurba_marseille","lat":43.25102,"lon":5.403214,"is_reserved":false,"is_disabled":false,"rental_uris":{"android":"levelo://app?vid=57f65d59-9d2d-4652-a23b-3250afb3970b","ios":"levelo://app?vid=57f65d59-9d2d-4652-a23b-3250afb3970b"},"vehicle_type_id":"4","last_reported":1701641184,"current_range_meters":19600,"station_id":"ce4bhlh2rcd13ifvqgig","pricing_plan_id":"free"},{"bike_id":"6f54c9b4-f207-4da9-bb60-51f1e8d0a790","system_id":"levelo_inurba_marseille","lat":43.25102,"lon":5.403214,"is_reserved":false,"is_disabled":false,"rental_uris":{"android":"levelo://app?vid=6f54c9b4-f207-4da9-bb60-51f1e8d0a790","ios":"levelo://app?vid=6f54c9b4-f207-4da9-bb60-51f1e8d0a790"},"vehicle_type_id":"4","last_reported":1701641184,"current_range_meters":28400,"station_id":"ce4bhlh2rcd13ifvqgig","pricing_plan_id":"free"},{"bike_id":"0b4d43f8-4b31-4b54-8b03-c02db7df8d78","system_id":"levelo_inurba_marseille","lat":43.25108,"lon":5.40325,"is_reserved":false,"is_disabled":false,"rental_uris":{"android":"levelo://app?vid=0b4d43f8-4b31-4b54-8b03-c02db7df8d78","ios":"levelo://app?vid=0b4d43f8-4b31-4b54-8b03-c02db7df8d78"},"vehicle_type_id":"4","last_reported":1701641184,"current_range_meters":14800,"station_id":"ce4bhlh2rcd13ifvqgig","pricing_plan_id":"free"},{"bike_id":"75d46db8-3715-440c-b22a-71065c63321a","system_id":"levelo_inurba_marseille","lat":43.25102,"lon":5.403214,"is_reserved":false,"is_disabled":false,"rental_uris":{"android":"levelo://app?vid=75d46db8-3715-440c-b22a-71065c63321a","ios":"levelo://app?vid=75d46db8-3715-440c-b22a-71065c63321a"},"vehicle_type_id":"4","last_reported":1701641184,"current_range_meters":29200,"station_id":"ce4bhlh2rcd13ifvqgig","pricing_plan_id":"free"},{"bike_id":"01d38d9d-a050-4ebb-b588-d2d5ba062212","system_id":"levelo_inurba_marseille","lat":43.246467,"lon":5.388984,"is_reserved":false,"is_disabled":false,"rental_uris":{"android":"levelo://app?vid=01d38d9d-a050-4ebb-b588-d2d5ba062212","ios":"levelo://app?vid=01d38d9d-a050-4ebb-b588-d2d5ba062212"},"vehicle_type_id":"4","last_reported":1701641184,"current_range_meters":27200,"station_id":"ce4bhg12rcd13ifvqf60","pricing_plan_id":"free"},{"bike_id":"ebc70f42-9209-4867-abfa-a2f58a33f737","system_id":"levelo_inurba_marseille","lat":43.245581,"lon":5.395069,"is_reserved":false,"is_disabled":false,"rental_uris":{"android":"levelo://app?vid=ebc70f42-9209-4867-abfa-a2f58a33f737","ios":"levelo://app?vid=ebc70f42-9209-4867-abfa-a2f58a33f737"},"vehicle_type_id":"4","last_reported":1701641184,"current_range_meters":20000,"station_id":"ce4bhlp2rcd13ifvqgjg","pricing_plan_id":"free"},{"bike_id":"d61b5f41-e01d-4ded-8bed-a9c596243b0e","system_id":"levelo_inurba_marseille","lat":43.245581,"lon":5.395069,"is_reserved":false,"is_disabled":false,"rental_uris":{"android":"levelo://app?vid=d61b5f41-e01d-4ded-8bed-a9c596243b0e","ios":"levelo://app?vid=d61b5f41-e01d-4ded-8bed-a9c596243b0e"},"vehicle_type_id":"4","last_reported":1701641184,"current_range_meters":31200,"station_id":"ce4bhlp2rcd13ifvqgjg","pricing_plan_id":"free"},{"bike_id":"370d8d0c-fead-40f1-9b16-d3e5b5f2faef","system_id":"levelo_inurba_marseille","lat":43.240623,"lon":5.377642,"is_reserved":false,"is_disabled":false,"rental_uris":{"android":"levelo://app?vid=370d8d0c-fead-40f1-9b16-d3e5b5f2faef","ios":"levelo://app?vid=370d8d0c-fead-40f1-9b16-d3e5b5f2faef"},"vehicle_type_id":"4","last_reported":1701641184,"current_range_meters":400,"station_id":"ce4bhnp2rcd13ifvqgvg","pricing_plan_id":"free"},{"bike_id":"b147e189-f8d6-4f19-b83d-273cd9dabf73","system_id":"levelo_inurba_marseille","lat":43.240623,"lon":5.377642,"is_reserved":false,"is_disabled":false,"rental_uris":{"android":"levelo://app?vid=b147e189-f8d6-4f19-b83d-273cd9dabf73","ios":"levelo://app?vid=b147e189-f8d6-4f19-b83d-273cd9dabf73"},"vehicle_type_id":"4","last_reported":1701641184,"current_range_meters":12400,"station_id":"ce4bhnp2rcd13ifvqgvg","pricing_plan_id":"free"},{"bike_id":"c75b2ba4-b197-45b4-91b3-d622061740e4","system_id":"levelo_inurba_marseille","lat":43.240623,"lon":5.377642,"is_reserved":false,"is_disabled":false,"rental_uris":{"android":"levelo://app?vid=c75b2ba4-b197-45b4-91b3-d622061740e4","ios":"levelo://app?vid=c75b2ba4-b197-45b4-91b3-d622061740e4"},"vehicle_type_id":"4","last_reported":1701641184,"current_range_meters":14400,"station_id":"ce4bhnp2rcd13ifvqgvg","pricing_plan_id":"free"},{"bike_id":"66d07158-1c05-469e-a266-b66692f04cb5","system_id":"levelo_inurba_marseille","lat":43.239588,"lon":5.366238,"is_reserved":false,"is_disabled":false,"rental_uris":{"android":"levelo://app?vid=66d07158-1c05-469e-a266-b66692f04cb5","ios":"levelo://app?vid=66d07158-1c05-469e-a266-b66692f04cb5"},"vehicle_type_id":"4","last_reported":1701641184,"current_range_meters":31200,"station_id":"ce4bhi12rcd13ifvqfp0","pricing_plan_id":"free"},{"bike_id":"f2d1c53e-c9ac-415e-8fd6-e07b040e3303","system_id":"levelo_inurba_marseille","lat":43.23963,"lon":5.36629,"is_reserved":false,"is_disabled":false,"rental_uris":{"android":"levelo://app?vid=f2d1c53e-c9ac-415e-8fd6-e07b040e3303","ios":"levelo://app?vid=f2d1c53e-c9ac-415e-8fd6-e07b040e3303"},"vehicle_type_id":"4","last_reported":1701641184,"current_range_meters":21600,"station_id":"ce4bhi12rcd13ifvqfp0","pricing_plan_id":"free"},{"bike_id":"b101f295-ac85-402a-8afe-c635c176f114","system_id":"levelo_inurba_marseille","lat":43.28525,"lon":5.46066,"is_reserved":false,"is_disabled":false,"rental_uris":{"android":"levelo://app?vid=b101f295-ac85-402a-8afe-c635c176f114","ios":"levelo://app?vid=b101f295-ac85-402a-8afe-c635c176f114"},"vehicle_type_id":"4","last_reported":1701641184,"current_range_meters":18000,"station_id":"","pricing_plan_id":"free"},{"bike_id":"a3aad75b-64ef-4634-9f77-a5b976c8f7fb","system_id":"levelo_inurba_marseille","lat":43.24178,"lon":5.39729,"is_reserved":false,"is_disabled":false,"rental_uris":{"android":"levelo://app?vid=a3aad75b-64ef-4634-9f77-a5b976c8f7fb","ios":"levelo://app?vid=a3aad75b-64ef-4634-9f77-a5b976c8f7fb"},"vehicle_type_id":"4","last_reported":1701641184,"current_range_meters":6400,"station_id":"ce4bhn12rcd13ifvqgpg","pricing_plan_id":"free"},{"bike_id":"9e01ee59-41e6-425c-ae1f-3e33312fefcd","system_id":"levelo_inurba_marseille","lat":43.231923,"lon":5.355545,"is_reserved":false,"is_disabled":false,"rental_uris":{"android":"levelo://app?vid=9e01ee59-41e6-425c-ae1f-3e33312fefcd","ios":"levelo://app?vid=9e01ee59-41e6-425c-ae1f-3e33312fefcd"},"vehicle_type_id":"4","last_reported":1701641184,"current_range_meters":14800,"station_id":"ce4bhu92rcd13ifvqi70","pricing_plan_id":"free"},{"bike_id":"6041d620-664b-4836-b597-a0e62593a032","system_id":"levelo_inurba_marseille","lat":43.231923,"lon":5.355545,"is_reserved":false,"is_disabled":false,"rental_uris":{"android":"levelo://app?vid=6041d620-664b-4836-b597-a0e62593a032","ios":"levelo://app?vid=6041d620-664b-4836-b597-a0e62593a032"},"vehicle_type_id":"4","last_reported":1701641184,"current_range_meters":27200,"station_id":"ce4bhu92rcd13ifvqi70","pricing_plan_id":"free"},{"bike_id":"87815193-0a9e-4a5a-8f22-63817bf9d429","system_id":"levelo_inurba_marseille","lat":43.231976,"lon":5.355431,"is_reserved":false,"is_disabled":false,"rental_uris":{"android":"levelo://app?vid=87815193-0a9e-4a5a-8f22-63817bf9d429","ios":"levelo://app?vid=87815193-0a9e-4a5a-8f22-63817bf9d429"},"vehicle_type_id":"4","last_reported":1701641184,"current_range_meters":28400,"station_id":"ce4bhu92rcd13ifvqi70","pricing_plan_id":"free"},{"bike_id":"58d4edcd-4441-486c-8457-28ebda4ac431","system_id":"levelo_inurba_marseille","lat":43.23194,"lon":5.35545,"is_reserved":false,"is_disabled":false,"rental_uris":{"android":"levelo://app?vid=58d4edcd-4441-486c-8457-28ebda4ac431","ios":"levelo://app?vid=58d4edcd-4441-486c-8457-28ebda4ac431"},"vehicle_type_id":"4","last_reported":1701641184,"current_range_meters":18800,"station_id":"ce4bhu92rcd13ifvqi70","pricing_plan_id":"free"},{"bike_id":"2b04708e-eed8-4471-916a-9fdeea01eec7","system_id":"levelo_inurba_marseille","lat":43.231923,"lon":5.355545,"is_reserved":false,"is_disabled":false,"rental_uris":{"android":"levelo://app?vid=2b04708e-eed8-4471-916a-9fdeea01eec7","ios":"levelo://app?vid=2b04708e-eed8-4471-916a-9fdeea01eec7"},"vehicle_type_id":"4","last_reported":1701641184,"current_range_meters":30800,"station_id":"ce4bhu92rcd13ifvqi70","pricing_plan_id":"free"},{"bike_id":"cf3102c4-88e0-4a41-86b7-69a76932d3e6","system_id":"levelo_inurba_marseille","lat":43.231923,"lon":5.355545,"is_reserved":false,"is_disabled":false,"rental_uris":{"android":"levelo://app?vid=cf3102c4-88e0-4a41-86b7-69a76932d3e6","ios":"levelo://app?vid=cf3102c4-88e0-4a41-86b7-69a76932d3e6"},"vehicle_type_id":"4","last_reported":1701641184,"current_range_meters":31200,"station_id":"ce4bhu92rcd13ifvqi70","pricing_plan_id":"free"},{"bike_id":"a2778a75-2f32-457d-810c-ad5c32010803","system_id":"levelo_inurba_marseille","lat":43.23191,"lon":5.35561,"is_reserved":false,"is_disabled":false,"rental_uris":{"android":"levelo://app?vid=a2778a75-2f32-457d-810c-ad5c32010803","ios":"levelo://app?vid=a2778a75-2f32-457d-810c-ad5c32010803"},"vehicle_type_id":"4","last_reported":1701641184,"current_range_meters":18800,"station_id":"ce4bhu92rcd13ifvqi70","pricing_plan_id":"free"},{"bike_id":"941004a4-21a1-40d0-a251-aacd94276fe6","system_id":"levelo_inurba_marseille","lat":43.231923,"lon":5.355545,"is_reserved":false,"is_disabled":false,"rental_uris":{"android":"levelo://app?vid=941004a4-21a1-40d0-a251-aacd94276fe6","ios":"levelo://app?vid=941004a4-21a1-40d0-a251-aacd94276fe6"},"vehicle_type_id":"4","last_reported":1701641184,"current_range_meters":6800,"station_id":"ce4bhu92rcd13ifvqi70","pricing_plan_id":"free"},{"bike_id":"88cf855f-bb31-40e0-8afc-686df3c193ab","system_id":"levelo_inurba_marseille","lat":43.231794,"lon":5.400052,"is_reserved":false,"is_disabled":false,"rental_uris":{"android":"levelo://app?vid=88cf855f-bb31-40e0-8afc-686df3c193ab","ios":"levelo://app?vid=88cf855f-bb31-40e0-8afc-686df3c193ab"},"vehicle_type_id":"4","last_reported":1701641184,"current_range_meters":28800,"station_id":"ce4bhn12rcd13ifvqgqg","pricing_plan_id":"free"},{"bike_id":"8f0fb87f-53e2-432d-b05f-ab1e816b61dc","system_id":"levelo_inurba_marseille","lat":43.231794,"lon":5.400052,"is_reserved":false,"is_disabled":false,"rental_uris":{"android":"levelo://app?vid=8f0fb87f-53e2-432d-b05f-ab1e816b61dc","ios":"levelo://app?vid=8f0fb87f-53e2-432d-b05f-ab1e816b61dc"},"vehicle_type_id":"4","last_reported":1701641184,"current_range_meters":14800,"station_id":"ce4bhn12rcd13ifvqgqg","pricing_plan_id":"free"},{"bike_id":"e47e98e0-4256-4c41-ae86-e531a41b9213","system_id":"levelo_inurba_marseille","lat":43.231794,"lon":5.400052,"is_reserved":false,"is_disabled":false,"rental_uris":{"android":"levelo://app?vid=e47e98e0-4256-4c41-ae86-e531a41b9213","ios":"levelo://app?vid=e47e98e0-4256-4c41-ae86-e531a41b9213"},"vehicle_type_id":"4","last_reported":1701641184,"current_range_meters":31600,"station_id":"ce4bhn12rcd13ifvqgqg","pricing_plan_id":"free"},{"bike_id":"77b1a551-da7f-429a-980e-bfc6767a5958","system_id":"levelo_inurba_marseille","lat":43.231794,"lon":5.400052,"is_reserved":false,"is_disabled":false,"rental_uris":{"android":"levelo://app?vid=77b1a551-da7f-429a-980e-bfc6767a5958","ios":"levelo://app?vid=77b1a551-da7f-429a-980e-bfc6767a5958"},"vehicle_type_id":"4","last_reported":1701641184,"current_range_meters":31600,"station_id":"ce4bhn12rcd13ifvqgqg","pricing_plan_id":"free"},{"bike_id":"d7955d6f-88ae-4e83-97c1-4a0668d076f6","system_id":"levelo_inurba_marseille","lat":43.23188,"lon":5.39986,"is_reserved":false,"is_disabled":false,"rental_uris":{"android":"levelo://app?vid=d7955d6f-88ae-4e83-97c1-4a0668d076f6","ios":"levelo://app?vid=d7955d6f-88ae-4e83-97c1-4a0668d076f6"},"vehicle_type_id":"4","last_reported":1701641184,"current_range_meters":17200,"station_id":"ce4bhn12rcd13ifvqgqg","pricing_plan_id":"free"},{"bike_id":"118d4a35-86b4-49cc-8abc-987caa7ffe62","system_id":"levelo_inurba_marseille","lat":43.231896,"lon":5.39994,"is_reserved":false,"is_disabled":false,"rental_uris":{"android":"levelo://app?vid=118d4a35-86b4-49cc-8abc-987caa7ffe62","ios":"levelo://app?vid=118d4a35-86b4-49cc-8abc-987caa7ffe62"},"vehicle_type_id":"4","last_reported":1701641184,"current_range_meters":30400,"station_id":"ce4bhn12rcd13ifvqgqg","pricing_plan_id":"free"},{"bike_id":"8bb4a4e8-9672-4d13-b6c9-9d0eb28673b3","system_id":"levelo_inurba_marseille","lat":43.231793,"lon":5.400044,"is_reserved":false,"is_disabled":false,"rental_uris":{"android":"levelo://app?vid=8bb4a4e8-9672-4d13-b6c9-9d0eb28673b3","ios":"levelo://app?vid=8bb4a4e8-9672-4d13-b6c9-9d0eb28673b3"},"vehicle_type_id":"4","last_reported":1701641184,"current_range_meters":29600,"station_id":"ce4bhn12rcd13ifvqgqg","pricing_plan_id":"free"},{"bike_id":"0cf73e26-cfe4-495a-8675-6603ab968aec","system_id":"levelo_inurba_marseille","lat":43.231794,"lon":5.400052,"is_reserved":false,"is_disabled":false,"rental_uris":{"android":"levelo://app?vid=0cf73e26-cfe4-495a-8675-6603ab968aec","ios":"levelo://app?vid=0cf73e26-cfe4-495a-8675-6603ab968aec"},"vehicle_type_id":"4","last_reported":1701641184,"current_range_meters":12000,"station_id":"ce4bhn12rcd13ifvqgqg","pricing_plan_id":"free"},{"bike_id":"ab5eae98-96ca-4718-91b7-353de917f40d","system_id":"levelo_inurba_marseille","lat":43.231793,"lon":5.400044,"is_reserved":false,"is_disabled":false,"rental_uris":{"android":"levelo://app?vid=ab5eae98-96ca-4718-91b7-353de917f40d","ios":"levelo://app?vid=ab5eae98-96ca-4718-91b7-353de917f40d"},"vehicle_type_id":"4","last_reported":1701641184,"current_range_meters":31200,"station_id":"ce4bhn12rcd13ifvqgqg","pricing_plan_id":"free"},{"bike_id":"3fdd6789-d52a-4c7f-96f4-f754cbf436d6","system_id":"levelo_inurba_marseille","lat":43.231829,"lon":5.399804,"is_reserved":false,"is_disabled":false,"rental_uris":{"android":"levelo://app?vid=3fdd6789-d52a-4c7f-96f4-f754cbf436d6","ios":"levelo://app?vid=3fdd6789-d52a-4c7f-96f4-f754cbf436d6"},"vehicle_type_id":"4","last_reported":1701641184,"current_range_meters":30800,"station_id":"ce4bhn12rcd13ifvqgqg","pricing_plan_id":"free"},{"bike_id":"6bd9f065-50d9-4657-9ca0-a006f413d305","system_id":"levelo_inurba_marseille","lat":43.231794,"lon":5.400052,"is_reserved":false,"is_disabled":false,"rental_uris":{"android":"levelo://app?vid=6bd9f065-50d9-4657-9ca0-a006f413d305","ios":"levelo://app?vid=6bd9f065-50d9-4657-9ca0-a006f413d305"},"vehicle_type_id":"4","last_reported":1701641184,"current_range_meters":31600,"station_id":"ce4bhn12rcd13ifvqgqg","pricing_plan_id":"free"},{"bike_id":"7119d2ec-3a1f-47f1-97aa-a12f1d72912d","system_id":"levelo_inurba_marseille","lat":43.231817,"lon":5.399846,"is_reserved":false,"is_disabled":false,"rental_uris":{"android":"levelo://app?vid=7119d2ec-3a1f-47f1-97aa-a12f1d72912d","ios":"levelo://app?vid=7119d2ec-3a1f-47f1-97aa-a12f1d72912d"},"vehicle_type_id":"4","last_reported":1701641184,"current_range_meters":11200,"station_id":"ce4bhn12rcd13ifvqgqg","pricing_plan_id":"free"},{"bike_id":"4ee99995-f63f-4ddb-ac4b-88a5ee23324c","system_id":"levelo_inurba_marseille","lat":43.231807,"lon":5.399855,"is_reserved":false,"is_disabled":false,"rental_uris":{"android":"levelo://app?vid=4ee99995-f63f-4ddb-ac4b-88a5ee23324c","ios":"levelo://app?vid=4ee99995-f63f-4ddb-ac4b-88a5ee23324c"},"vehicle_type_id":"4","last_reported":1701641184,"current_range_meters":12000,"station_id":"ce4bhn12rcd13ifvqgqg","pricing_plan_id":"free"},{"bike_id":"22bd98e3-c33f-4c44-ae2b-f96729d36f4f","system_id":"levelo_inurba_marseille","lat":43.231793,"lon":5.400044,"is_reserved":false,"is_disabled":false,"rental_uris":{"android":"levelo://app?vid=22bd98e3-c33f-4c44-ae2b-f96729d36f4f","ios":"levelo://app?vid=22bd98e3-c33f-4c44-ae2b-f96729d36f4f"},"vehicle_type_id":"4","last_reported":1701641184,"current_range_meters":31200,"station_id":"ce4bhn12rcd13ifvqgqg","pricing_plan_id":"free"},{"bike_id":"457c552c-8af5-4b7b-9f6b-8c901265a623","system_id":"levelo_inurba_marseille","lat":43.23181,"lon":5.39997,"is_reserved":false,"is_disabled":false,"rental_uris":{"android":"levelo://app?vid=457c552c-8af5-4b7b-9f6b-8c901265a623","ios":"levelo://app?vid=457c552c-8af5-4b7b-9f6b-8c901265a623"},"vehicle_type_id":"4","last_reported":1701641184,"current_range_meters":26800,"station_id":"ce4bhn12rcd13ifvqgqg","pricing_plan_id":"free"},{"bike_id":"818b7971-a62f-4d0c-b4d6-ebcff5688a44","system_id":"levelo_inurba_marseille","lat":43.23154,"lon":5.43712,"is_reserved":false,"is_disabled":false,"rental_uris":{"android":"levelo://app?vid=818b7971-a62f-4d0c-b4d6-ebcff5688a44","ios":"levelo://app?vid=818b7971-a62f-4d0c-b4d6-ebcff5688a44"},"vehicle_type_id":"4","last_reported":1701641184,"current_range_meters":2000,"station_id":"ce4bhmp2rcd13ifvqgog","pricing_plan_id":"free"},{"bike_id":"2e1f4911-ec15-4212-aa8f-8ade17ab151d","system_id":"levelo_inurba_marseille","lat":43.231562,"lon":5.436933,"is_reserved":false,"is_disabled":false,"rental_uris":{"android":"levelo://app?vid=2e1f4911-ec15-4212-aa8f-8ade17ab151d","ios":"levelo://app?vid=2e1f4911-ec15-4212-aa8f-8ade17ab151d"},"vehicle_type_id":"4","last_reported":1701641184,"current_range_meters":11600,"station_id":"ce4bhmp2rcd13ifvqgog","pricing_plan_id":"free"},{"bike_id":"9a101203-a4c3-4653-b04e-23d858664d35","system_id":"levelo_inurba_marseille","lat":43.231562,"lon":5.436933,"is_reserved":false,"is_disabled":false,"rental_uris":{"android":"levelo://app?vid=9a101203-a4c3-4653-b04e-23d858664d35","ios":"levelo://app?vid=9a101203-a4c3-4653-b04e-23d858664d35"},"vehicle_type_id":"4","last_reported":1701641184,"current_range_meters":4000,"station_id":"ce4bhmp2rcd13ifvqgog","pricing_plan_id":"free"}]}}